{"last_updated":1779456134,"ttl":60,"version":"2.2","data":{"bikes":[{"bike_id":"7d641315-6110-49cb-a9dd-d637ff032de1","system_id":"levelo_inurba_marseille","lat":43.337444,"lon":5.374475,"is_reserved":false,"is_disabled":false,"rental_uris":{"android":"levelo://app?vid=7d641315-6110-49cb-a9dd-d637ff032de1","ios":"levelo://app?vid=7d641315-6110-49cb-a9dd-d637ff032de1"},"vehicle_type_id":"4","last_reported":1779456134,"current_range_meters":0,"station_id":"","pricing_plan_id":"cebpf4jnsgd1na2vs0mg"},{"bike_id":"cbbaf965-317e-4a0d-acf0-62a8d7e2b743","system_id":"levelo_inurba_marseille","lat":43.27383,"lon":5.36262,"is_reserved":false,"is_disabled":false,"rental_uris":{"android":"levelo://app?vid=cbbaf965-317e-4a0d-acf0-62a8d7e2b743","ios":"levelo://app?vid=cbbaf965-317e-4a0d-acf0-62a8d7e2b743"},"vehicle_type_id":"4","last_reported":1779456134,"current_range_meters":2800,"station_id":"ce4bhbh2rcd13ifvqeo0","pricing_plan_id":"cebpf4jnsgd1na2vs0mg"},{"bike_id":"8e7115e5-afd0-482b-bfd7-f75a7925e115","system_id":"levelo_inurba_marseille","lat":43.30255,"lon":5.41218,"is_reserved":false,"is_disabled":false,"rental_uris":{"android":"levelo://app?vid=8e7115e5-afd0-482b-bfd7-f75a7925e115","ios":"levelo://app?vid=8e7115e5-afd0-482b-bfd7-f75a7925e115"},"vehicle_type_id":"4","last_reported":1779456134,"current_range_meters":2800,"station_id":"","pricing_plan_id":"cebpf4jnsgd1na2vs0mg"},{"bike_id":"2acf0053-cc7e-4a18-b886-a065e33bc874","system_id":"levelo_inurba_marseille","lat":43.31493,"lon":5.373,"is_reserved":false,"is_disabled":false,"rental_uris":{"android":"levelo://app?vid=2acf0053-cc7e-4a18-b886-a065e33bc874","ios":"levelo://app?vid=2acf0053-cc7e-4a18-b886-a065e33bc874"},"vehicle_type_id":"4","last_reported":1779456134,"current_range_meters":2800,"station_id":"ce4bgt12rcd13ifvqcd0","pricing_plan_id":"cebpf4jnsgd1na2vs0mg"},{"bike_id":"860d9c3e-11bb-4022-8795-8df277a83fbc","system_id":"levelo_inurba_marseille","lat":43.30113,"lon":5.38775,"is_reserved":false,"is_disabled":false,"rental_uris":{"android":"levelo://app?vid=860d9c3e-11bb-4022-8795-8df277a83fbc","ios":"levelo://app?vid=860d9c3e-11bb-4022-8795-8df277a83fbc"},"vehicle_type_id":"4","last_reported":1779456134,"current_range_meters":2800,"station_id":"ce4bghh2rcd13ifvqb60","pricing_plan_id":"cebpf4jnsgd1na2vs0mg"},{"bike_id":"af96915a-3359-4852-b046-a23bfe1fa564","system_id":"levelo_inurba_marseille","lat":43.33021,"lon":5.39044,"is_reserved":false,"is_disabled":false,"rental_uris":{"android":"levelo://app?vid=af96915a-3359-4852-b046-a23bfe1fa564","ios":"levelo://app?vid=af96915a-3359-4852-b046-a23bfe1fa564"},"vehicle_type_id":"4","last_reported":1779456134,"current_range_meters":2800,"station_id":"ce4bhr92rcd13ifvqhrg","pricing_plan_id":"cebpf4jnsgd1na2vs0mg"},{"bike_id":"b9886a38-37d7-4c62-a56d-ea966413b93c","system_id":"levelo_inurba_marseille","lat":43.32066,"lon":5.41593,"is_reserved":false,"is_disabled":false,"rental_uris":{"android":"levelo://app?vid=b9886a38-37d7-4c62-a56d-ea966413b93c","ios":"levelo://app?vid=b9886a38-37d7-4c62-a56d-ea966413b93c"},"vehicle_type_id":"4","last_reported":1779456134,"current_range_meters":2800,"station_id":"ce4bhq92rcd13ifvqhkg","pricing_plan_id":"cebpf4jnsgd1na2vs0mg"},{"bike_id":"3bfc51ed-face-4d73-a59a-fc4f837df946","system_id":"levelo_inurba_marseille","lat":43.29038,"lon":5.3865,"is_reserved":false,"is_disabled":false,"rental_uris":{"android":"levelo://app?vid=3bfc51ed-face-4d73-a59a-fc4f837df946","ios":"levelo://app?vid=3bfc51ed-face-4d73-a59a-fc4f837df946"},"vehicle_type_id":"4","last_reported":1779456134,"current_range_meters":2800,"station_id":"ce4bh4p2rcd13ifvqe0g","pricing_plan_id":"cebpf4jnsgd1na2vs0mg"},{"bike_id":"be46ad11-8529-487d-a175-f683712a12cf","system_id":"levelo_inurba_marseille","lat":43.26955,"lon":5.38633,"is_reserved":false,"is_disabled":false,"rental_uris":{"android":"levelo://app?vid=be46ad11-8529-487d-a175-f683712a12cf","ios":"levelo://app?vid=be46ad11-8529-487d-a175-f683712a12cf"},"vehicle_type_id":"4","last_reported":1779456134,"current_range_meters":2800,"station_id":"ce4bhh92rcd13ifvqfh0","pricing_plan_id":"cebpf4jnsgd1na2vs0mg"},{"bike_id":"66b3e4e2-cbc1-41f3-b023-caf36080a689","system_id":"levelo_inurba_marseille","lat":43.29268,"lon":5.38437,"is_reserved":false,"is_disabled":false,"rental_uris":{"android":"levelo://app?vid=66b3e4e2-cbc1-41f3-b023-caf36080a689","ios":"levelo://app?vid=66b3e4e2-cbc1-41f3-b023-caf36080a689"},"vehicle_type_id":"4","last_reported":1779456134,"current_range_meters":2800,"station_id":"ce4bh692rcd13ifvqea0","pricing_plan_id":"cebpf4jnsgd1na2vs0mg"},{"bike_id":"c9a10c26-bb1b-4952-8abc-3792dd45d108","system_id":"levelo_inurba_marseille","lat":43.25498,"lon":5.37645,"is_reserved":false,"is_disabled":false,"rental_uris":{"android":"levelo://app?vid=c9a10c26-bb1b-4952-8abc-3792dd45d108","ios":"levelo://app?vid=c9a10c26-bb1b-4952-8abc-3792dd45d108"},"vehicle_type_id":"4","last_reported":1779456134,"current_range_meters":3200,"station_id":"ce4bhh12rcd13ifvqff0","pricing_plan_id":"cebpf4jnsgd1na2vs0mg"},{"bike_id":"70bd1697-29a9-464f-a79a-74a540437e6e","system_id":"levelo_inurba_marseille","lat":43.33754,"lon":5.37469,"is_reserved":false,"is_disabled":false,"rental_uris":{"android":"levelo://app?vid=70bd1697-29a9-464f-a79a-74a540437e6e","ios":"levelo://app?vid=70bd1697-29a9-464f-a79a-74a540437e6e"},"vehicle_type_id":"4","last_reported":1779456134,"current_range_meters":3200,"station_id":"","pricing_plan_id":"cebpf4jnsgd1na2vs0mg"},{"bike_id":"6407b4f2-22ad-4dd2-a9b8-d1798f976dca","system_id":"levelo_inurba_marseille","lat":43.2899,"lon":5.37842,"is_reserved":false,"is_disabled":false,"rental_uris":{"android":"levelo://app?vid=6407b4f2-22ad-4dd2-a9b8-d1798f976dca","ios":"levelo://app?vid=6407b4f2-22ad-4dd2-a9b8-d1798f976dca"},"vehicle_type_id":"4","last_reported":1779456134,"current_range_meters":3200,"station_id":"ce4bh9p2rcd13ifvqed0","pricing_plan_id":"cebpf4jnsgd1na2vs0mg"},{"bike_id":"2c5c01dd-44e0-4f89-8db3-f2cca39ac7df","system_id":"levelo_inurba_marseille","lat":43.29047,"lon":5.35912,"is_reserved":false,"is_disabled":false,"rental_uris":{"android":"levelo://app?vid=2c5c01dd-44e0-4f89-8db3-f2cca39ac7df","ios":"levelo://app?vid=2c5c01dd-44e0-4f89-8db3-f2cca39ac7df"},"vehicle_type_id":"4","last_reported":1779456134,"current_range_meters":3200,"station_id":"ce4bha92rcd13ifvqeg0","pricing_plan_id":"cebpf4jnsgd1na2vs0mg"},{"bike_id":"1e368d2d-778d-4e60-a99c-4185de3dd578","system_id":"levelo_inurba_marseille","lat":43.253412,"lon":5.421757,"is_reserved":false,"is_disabled":false,"rental_uris":{"android":"levelo://app?vid=1e368d2d-778d-4e60-a99c-4185de3dd578","ios":"levelo://app?vid=1e368d2d-778d-4e60-a99c-4185de3dd578"},"vehicle_type_id":"4","last_reported":1779456134,"current_range_meters":3200,"station_id":"st_d2m65c5bi1j21697t3ng","pricing_plan_id":"cebpf4jnsgd1na2vs0mg"},{"bike_id":"17680e4e-5d73-49bb-9608-cbce26d1ada0","system_id":"levelo_inurba_marseille","lat":43.22523,"lon":5.34844,"is_reserved":false,"is_disabled":false,"rental_uris":{"android":"levelo://app?vid=17680e4e-5d73-49bb-9608-cbce26d1ada0","ios":"levelo://app?vid=17680e4e-5d73-49bb-9608-cbce26d1ada0"},"vehicle_type_id":"4","last_reported":1779456134,"current_range_meters":3200,"station_id":"st_cvj5dfep6f1abm77gieg","pricing_plan_id":"cebpf4jnsgd1na2vs0mg"},{"bike_id":"3bcc2180-eece-4812-80ad-12c78c6d6bdd","system_id":"levelo_inurba_marseille","lat":43.26918,"lon":5.38925,"is_reserved":false,"is_disabled":false,"rental_uris":{"android":"levelo://app?vid=3bcc2180-eece-4812-80ad-12c78c6d6bdd","ios":"levelo://app?vid=3bcc2180-eece-4812-80ad-12c78c6d6bdd"},"vehicle_type_id":"4","last_reported":1779456134,"current_range_meters":3200,"station_id":"ce4bhhh2rcd13ifvqfl0","pricing_plan_id":"cebpf4jnsgd1na2vs0mg"},{"bike_id":"d876f250-8123-419d-a895-9645003d3c01","system_id":"levelo_inurba_marseille","lat":43.27258,"lon":5.41635,"is_reserved":false,"is_disabled":false,"rental_uris":{"android":"levelo://app?vid=d876f250-8123-419d-a895-9645003d3c01","ios":"levelo://app?vid=d876f250-8123-419d-a895-9645003d3c01"},"vehicle_type_id":"4","last_reported":1779456134,"current_range_meters":3200,"station_id":"","pricing_plan_id":"cebpf4jnsgd1na2vs0mg"},{"bike_id":"8a11c171-3016-4dc8-ace1-28b6aae226b2","system_id":"levelo_inurba_marseille","lat":43.24399,"lon":5.37064,"is_reserved":false,"is_disabled":false,"rental_uris":{"android":"levelo://app?vid=8a11c171-3016-4dc8-ace1-28b6aae226b2","ios":"levelo://app?vid=8a11c171-3016-4dc8-ace1-28b6aae226b2"},"vehicle_type_id":"4","last_reported":1779456134,"current_range_meters":3200,"station_id":"ce4bhhh2rcd13ifvqfk0","pricing_plan_id":"cebpf4jnsgd1na2vs0mg"},{"bike_id":"6c6a4e3e-0f73-4f4d-9d1a-73c2116f8a30","system_id":"levelo_inurba_marseille","lat":43.28487,"lon":5.38451,"is_reserved":false,"is_disabled":false,"rental_uris":{"android":"levelo://app?vid=6c6a4e3e-0f73-4f4d-9d1a-73c2116f8a30","ios":"levelo://app?vid=6c6a4e3e-0f73-4f4d-9d1a-73c2116f8a30"},"vehicle_type_id":"4","last_reported":1779456134,"current_range_meters":3200,"station_id":"ce4bh512rcd13ifvqe3g","pricing_plan_id":"cebpf4jnsgd1na2vs0mg"},{"bike_id":"e27feea1-9bc4-4f71-870f-9ba99b38e6d2","system_id":"levelo_inurba_marseille","lat":43.29166,"lon":5.37255,"is_reserved":false,"is_disabled":false,"rental_uris":{"android":"levelo://app?vid=e27feea1-9bc4-4f71-870f-9ba99b38e6d2","ios":"levelo://app?vid=e27feea1-9bc4-4f71-870f-9ba99b38e6d2"},"vehicle_type_id":"4","last_reported":1779456134,"current_range_meters":3200,"station_id":"","pricing_plan_id":"cebpf4jnsgd1na2vs0mg"},{"bike_id":"1f23276f-640a-45b0-96ab-5c9b5282ccf4","system_id":"levelo_inurba_marseille","lat":43.31267,"lon":5.38923,"is_reserved":false,"is_disabled":false,"rental_uris":{"android":"levelo://app?vid=1f23276f-640a-45b0-96ab-5c9b5282ccf4","ios":"levelo://app?vid=1f23276f-640a-45b0-96ab-5c9b5282ccf4"},"vehicle_type_id":"4","last_reported":1779456134,"current_range_meters":3600,"station_id":"","pricing_plan_id":"cebpf4jnsgd1na2vs0mg"},{"bike_id":"3b34dae5-1dc7-4095-9994-2d3e3865c664","system_id":"levelo_inurba_marseille","lat":43.29554,"lon":5.36729,"is_reserved":false,"is_disabled":false,"rental_uris":{"android":"levelo://app?vid=3b34dae5-1dc7-4095-9994-2d3e3865c664","ios":"levelo://app?vid=3b34dae5-1dc7-4095-9994-2d3e3865c664"},"vehicle_type_id":"4","last_reported":1779456134,"current_range_meters":3600,"station_id":"ce4bgph2rcd13ifvqc2g","pricing_plan_id":"cebpf4jnsgd1na2vs0mg"},{"bike_id":"690d8790-bd48-4933-b391-dee2a3231242","system_id":"levelo_inurba_marseille","lat":43.21727,"lon":5.34645,"is_reserved":false,"is_disabled":false,"rental_uris":{"android":"levelo://app?vid=690d8790-bd48-4933-b391-dee2a3231242","ios":"levelo://app?vid=690d8790-bd48-4933-b391-dee2a3231242"},"vehicle_type_id":"4","last_reported":1779456134,"current_range_meters":3600,"station_id":"st_cvj6r9ubvosntc0bgbag","pricing_plan_id":"cebpf4jnsgd1na2vs0mg"},{"bike_id":"6ecace9b-c16d-43aa-9c1a-0ebc2e7bcfc4","system_id":"levelo_inurba_marseille","lat":43.32112,"lon":5.36776,"is_reserved":false,"is_disabled":false,"rental_uris":{"android":"levelo://app?vid=6ecace9b-c16d-43aa-9c1a-0ebc2e7bcfc4","ios":"levelo://app?vid=6ecace9b-c16d-43aa-9c1a-0ebc2e7bcfc4"},"vehicle_type_id":"4","last_reported":1779456134,"current_range_meters":3600,"station_id":"ce4bhrh2rcd13ifvqhug","pricing_plan_id":"cebpf4jnsgd1na2vs0mg"},{"bike_id":"678c2486-f208-445a-a253-9dfac60b0dc7","system_id":"levelo_inurba_marseille","lat":43.32431,"lon":5.36896,"is_reserved":false,"is_disabled":false,"rental_uris":{"android":"levelo://app?vid=678c2486-f208-445a-a253-9dfac60b0dc7","ios":"levelo://app?vid=678c2486-f208-445a-a253-9dfac60b0dc7"},"vehicle_type_id":"4","last_reported":1779456134,"current_range_meters":3600,"station_id":"","pricing_plan_id":"cebpf4jnsgd1na2vs0mg"},{"bike_id":"6a7753e8-d8a1-487a-9981-5c1043c9d113","system_id":"levelo_inurba_marseille","lat":43.28258,"lon":5.350607,"is_reserved":false,"is_disabled":false,"rental_uris":{"android":"levelo://app?vid=6a7753e8-d8a1-487a-9981-5c1043c9d113","ios":"levelo://app?vid=6a7753e8-d8a1-487a-9981-5c1043c9d113"},"vehicle_type_id":"4","last_reported":1779456134,"current_range_meters":3600,"station_id":"ce4bhbp2rcd13ifvqerg","pricing_plan_id":"cebpf4jnsgd1na2vs0mg"},{"bike_id":"12481d7b-ca53-44d2-a72d-3641cbe06950","system_id":"levelo_inurba_marseille","lat":43.29915,"lon":5.41073,"is_reserved":false,"is_disabled":false,"rental_uris":{"android":"levelo://app?vid=12481d7b-ca53-44d2-a72d-3641cbe06950","ios":"levelo://app?vid=12481d7b-ca53-44d2-a72d-3641cbe06950"},"vehicle_type_id":"4","last_reported":1779456134,"current_range_meters":3600,"station_id":"","pricing_plan_id":"cebpf4jnsgd1na2vs0mg"},{"bike_id":"5bbf293c-f2e4-47be-af57-cab6143e65a7","system_id":"levelo_inurba_marseille","lat":43.26703,"lon":5.38291,"is_reserved":false,"is_disabled":false,"rental_uris":{"android":"levelo://app?vid=5bbf293c-f2e4-47be-af57-cab6143e65a7","ios":"levelo://app?vid=5bbf293c-f2e4-47be-af57-cab6143e65a7"},"vehicle_type_id":"4","last_reported":1779456134,"current_range_meters":3600,"station_id":"ce4bhg92rcd13ifvqf90","pricing_plan_id":"cebpf4jnsgd1na2vs0mg"},{"bike_id":"cf9d9744-7125-4fce-9ae3-ceca7ff3b630","system_id":"levelo_inurba_marseille","lat":43.30249,"lon":5.40074,"is_reserved":false,"is_disabled":false,"rental_uris":{"android":"levelo://app?vid=cf9d9744-7125-4fce-9ae3-ceca7ff3b630","ios":"levelo://app?vid=cf9d9744-7125-4fce-9ae3-ceca7ff3b630"},"vehicle_type_id":"4","last_reported":1779456134,"current_range_meters":3600,"station_id":"ce4bgvh2rcd13ifvqcs0","pricing_plan_id":"cebpf4jnsgd1na2vs0mg"},{"bike_id":"3164d9e8-c839-4029-b458-2d3d9b344e5f","system_id":"levelo_inurba_marseille","lat":43.275716,"lon":5.396434,"is_reserved":false,"is_disabled":false,"rental_uris":{"android":"levelo://app?vid=3164d9e8-c839-4029-b458-2d3d9b344e5f","ios":"levelo://app?vid=3164d9e8-c839-4029-b458-2d3d9b344e5f"},"vehicle_type_id":"4","last_reported":1779456134,"current_range_meters":3600,"station_id":"","pricing_plan_id":"cebpf4jnsgd1na2vs0mg"},{"bike_id":"3b3648bc-114e-4573-b5a4-e0750016f792","system_id":"levelo_inurba_marseille","lat":43.23836,"lon":5.41347,"is_reserved":false,"is_disabled":false,"rental_uris":{"android":"levelo://app?vid=3b3648bc-114e-4573-b5a4-e0750016f792","ios":"levelo://app?vid=3b3648bc-114e-4573-b5a4-e0750016f792"},"vehicle_type_id":"4","last_reported":1779456134,"current_range_meters":3600,"station_id":"","pricing_plan_id":"cebpf4jnsgd1na2vs0mg"},{"bike_id":"dd261240-bd7e-4460-b926-537590d290a3","system_id":"levelo_inurba_marseille","lat":43.231958,"lon":5.355508,"is_reserved":false,"is_disabled":false,"rental_uris":{"android":"levelo://app?vid=dd261240-bd7e-4460-b926-537590d290a3","ios":"levelo://app?vid=dd261240-bd7e-4460-b926-537590d290a3"},"vehicle_type_id":"4","last_reported":1779456134,"current_range_meters":3600,"station_id":"ce4bhu92rcd13ifvqi70","pricing_plan_id":"cebpf4jnsgd1na2vs0mg"},{"bike_id":"65f0b52c-f651-4ece-a75c-a92b078b5f97","system_id":"levelo_inurba_marseille","lat":43.2893,"lon":5.39651,"is_reserved":false,"is_disabled":false,"rental_uris":{"android":"levelo://app?vid=65f0b52c-f651-4ece-a75c-a92b078b5f97","ios":"levelo://app?vid=65f0b52c-f651-4ece-a75c-a92b078b5f97"},"vehicle_type_id":"4","last_reported":1779456134,"current_range_meters":3600,"station_id":"ce4bh3h2rcd13ifvqdn0","pricing_plan_id":"cebpf4jnsgd1na2vs0mg"},{"bike_id":"ad6d8b73-6259-410d-979f-09e40ec16dc9","system_id":"levelo_inurba_marseille","lat":43.3082,"lon":5.37198,"is_reserved":false,"is_disabled":false,"rental_uris":{"android":"levelo://app?vid=ad6d8b73-6259-410d-979f-09e40ec16dc9","ios":"levelo://app?vid=ad6d8b73-6259-410d-979f-09e40ec16dc9"},"vehicle_type_id":"4","last_reported":1779456134,"current_range_meters":4000,"station_id":"","pricing_plan_id":"cebpf4jnsgd1na2vs0mg"},{"bike_id":"41362c89-ae72-48da-8927-9b2e78c9fb80","system_id":"levelo_inurba_marseille","lat":43.30455,"lon":5.37915,"is_reserved":false,"is_disabled":false,"rental_uris":{"android":"levelo://app?vid=41362c89-ae72-48da-8927-9b2e78c9fb80","ios":"levelo://app?vid=41362c89-ae72-48da-8927-9b2e78c9fb80"},"vehicle_type_id":"4","last_reported":1779456134,"current_range_meters":4000,"station_id":"ce4bgup2rcd13ifvqcn0","pricing_plan_id":"cebpf4jnsgd1na2vs0mg"},{"bike_id":"efe3cb05-6bbc-4178-a78f-7a666f7db9d2","system_id":"levelo_inurba_marseille","lat":43.29492,"lon":5.39052,"is_reserved":false,"is_disabled":false,"rental_uris":{"android":"levelo://app?vid=efe3cb05-6bbc-4178-a78f-7a666f7db9d2","ios":"levelo://app?vid=efe3cb05-6bbc-4178-a78f-7a666f7db9d2"},"vehicle_type_id":"4","last_reported":1779456134,"current_range_meters":4000,"station_id":"ce4bh3p2rcd13ifvqdp0","pricing_plan_id":"cebpf4jnsgd1na2vs0mg"},{"bike_id":"005acc32-7b73-4094-be43-7cb163e45633","system_id":"levelo_inurba_marseille","lat":43.290521,"lon":5.371257,"is_reserved":false,"is_disabled":false,"rental_uris":{"android":"levelo://app?vid=005acc32-7b73-4094-be43-7cb163e45633","ios":"levelo://app?vid=005acc32-7b73-4094-be43-7cb163e45633"},"vehicle_type_id":"4","last_reported":1779456134,"current_range_meters":4000,"station_id":"ce4bh5p2rcd13ifvqe4g","pricing_plan_id":"cebpf4jnsgd1na2vs0mg"},{"bike_id":"7ec93175-8d9c-4b31-b534-34e06405c4e0","system_id":"levelo_inurba_marseille","lat":43.29637,"lon":5.44737,"is_reserved":false,"is_disabled":false,"rental_uris":{"android":"levelo://app?vid=7ec93175-8d9c-4b31-b534-34e06405c4e0","ios":"levelo://app?vid=7ec93175-8d9c-4b31-b534-34e06405c4e0"},"vehicle_type_id":"4","last_reported":1779456134,"current_range_meters":4000,"station_id":"","pricing_plan_id":"cebpf4jnsgd1na2vs0mg"},{"bike_id":"4c73ac5b-f848-44b9-9488-246344552796","system_id":"levelo_inurba_marseille","lat":43.28538,"lon":5.44111,"is_reserved":false,"is_disabled":false,"rental_uris":{"android":"levelo://app?vid=4c73ac5b-f848-44b9-9488-246344552796","ios":"levelo://app?vid=4c73ac5b-f848-44b9-9488-246344552796"},"vehicle_type_id":"4","last_reported":1779456134,"current_range_meters":4000,"station_id":"st_d3j3df2ikq2c7380ej80","pricing_plan_id":"cebpf4jnsgd1na2vs0mg"},{"bike_id":"831eb3fe-58c0-43aa-9c3c-e788c914eb48","system_id":"levelo_inurba_marseille","lat":43.27614,"lon":5.36111,"is_reserved":false,"is_disabled":true,"rental_uris":{"android":"levelo://app?vid=831eb3fe-58c0-43aa-9c3c-e788c914eb48","ios":"levelo://app?vid=831eb3fe-58c0-43aa-9c3c-e788c914eb48"},"vehicle_type_id":"4","last_reported":1779456134,"current_range_meters":4000,"station_id":"ce4bgj92rcd13ifvqbe0","pricing_plan_id":"cebpf4jnsgd1na2vs0mg"},{"bike_id":"ca8a2f0a-5935-4f1a-8f98-7a83aa5c69de","system_id":"levelo_inurba_marseille","lat":43.30678,"lon":5.36852,"is_reserved":false,"is_disabled":false,"rental_uris":{"android":"levelo://app?vid=ca8a2f0a-5935-4f1a-8f98-7a83aa5c69de","ios":"levelo://app?vid=ca8a2f0a-5935-4f1a-8f98-7a83aa5c69de"},"vehicle_type_id":"4","last_reported":1779456134,"current_range_meters":4000,"station_id":"","pricing_plan_id":"cebpf4jnsgd1na2vs0mg"},{"bike_id":"9d4e5a77-4fe5-4b76-80a5-d010e45b6241","system_id":"levelo_inurba_marseille","lat":43.30151,"lon":5.39802,"is_reserved":false,"is_disabled":false,"rental_uris":{"android":"levelo://app?vid=9d4e5a77-4fe5-4b76-80a5-d010e45b6241","ios":"levelo://app?vid=9d4e5a77-4fe5-4b76-80a5-d010e45b6241"},"vehicle_type_id":"4","last_reported":1779456134,"current_range_meters":4000,"station_id":"ce4bh0h2rcd13ifvqd40","pricing_plan_id":"cebpf4jnsgd1na2vs0mg"},{"bike_id":"5416487f-97e0-4bc7-9925-89e8c1ecbb51","system_id":"levelo_inurba_marseille","lat":43.2395,"lon":5.36664,"is_reserved":false,"is_disabled":false,"rental_uris":{"android":"levelo://app?vid=5416487f-97e0-4bc7-9925-89e8c1ecbb51","ios":"levelo://app?vid=5416487f-97e0-4bc7-9925-89e8c1ecbb51"},"vehicle_type_id":"4","last_reported":1779456134,"current_range_meters":4000,"station_id":"ce4bhi12rcd13ifvqfp0","pricing_plan_id":"cebpf4jnsgd1na2vs0mg"},{"bike_id":"54f92a54-181a-4ca1-94ac-4e8012c97aa4","system_id":"levelo_inurba_marseille","lat":43.3013,"lon":5.38097,"is_reserved":false,"is_disabled":false,"rental_uris":{"android":"levelo://app?vid=54f92a54-181a-4ca1-94ac-4e8012c97aa4","ios":"levelo://app?vid=54f92a54-181a-4ca1-94ac-4e8012c97aa4"},"vehicle_type_id":"4","last_reported":1779456134,"current_range_meters":4000,"station_id":"ce4bgjp2rcd13ifvqbh0","pricing_plan_id":"cebpf4jnsgd1na2vs0mg"},{"bike_id":"5fba6ecc-5dff-4574-ae37-bed03fe1b33b","system_id":"levelo_inurba_marseille","lat":43.279717,"lon":5.38739,"is_reserved":false,"is_disabled":false,"rental_uris":{"android":"levelo://app?vid=5fba6ecc-5dff-4574-ae37-bed03fe1b33b","ios":"levelo://app?vid=5fba6ecc-5dff-4574-ae37-bed03fe1b33b"},"vehicle_type_id":"4","last_reported":1779456134,"current_range_meters":4000,"station_id":"ce4bhg12rcd13ifvqf80","pricing_plan_id":"cebpf4jnsgd1na2vs0mg"},{"bike_id":"7bfab576-ce39-49b5-bef6-9a737e50dfa5","system_id":"levelo_inurba_marseille","lat":43.24075,"lon":5.37762,"is_reserved":false,"is_disabled":false,"rental_uris":{"android":"levelo://app?vid=7bfab576-ce39-49b5-bef6-9a737e50dfa5","ios":"levelo://app?vid=7bfab576-ce39-49b5-bef6-9a737e50dfa5"},"vehicle_type_id":"4","last_reported":1779456134,"current_range_meters":4000,"station_id":"ce4bhnp2rcd13ifvqgvg","pricing_plan_id":"cebpf4jnsgd1na2vs0mg"},{"bike_id":"aa064fec-f9e1-42b3-bc94-678112992044","system_id":"levelo_inurba_marseille","lat":43.27615,"lon":5.36106,"is_reserved":false,"is_disabled":false,"rental_uris":{"android":"levelo://app?vid=aa064fec-f9e1-42b3-bc94-678112992044","ios":"levelo://app?vid=aa064fec-f9e1-42b3-bc94-678112992044"},"vehicle_type_id":"4","last_reported":1779456134,"current_range_meters":4000,"station_id":"ce4bgj92rcd13ifvqbe0","pricing_plan_id":"cebpf4jnsgd1na2vs0mg"},{"bike_id":"972e4029-acc2-47bb-a7c9-18c55104124c","system_id":"levelo_inurba_marseille","lat":43.29481,"lon":5.43314,"is_reserved":false,"is_disabled":false,"rental_uris":{"android":"levelo://app?vid=972e4029-acc2-47bb-a7c9-18c55104124c","ios":"levelo://app?vid=972e4029-acc2-47bb-a7c9-18c55104124c"},"vehicle_type_id":"4","last_reported":1779456134,"current_range_meters":4000,"station_id":"st_d3j5ugp08ojc73fj9d10","pricing_plan_id":"cebpf4jnsgd1na2vs0mg"},{"bike_id":"b64e9c0d-4003-4ce3-9a77-7ea68878e4b9","system_id":"levelo_inurba_marseille","lat":43.28112,"lon":5.39859,"is_reserved":false,"is_disabled":false,"rental_uris":{"android":"levelo://app?vid=b64e9c0d-4003-4ce3-9a77-7ea68878e4b9","ios":"levelo://app?vid=b64e9c0d-4003-4ce3-9a77-7ea68878e4b9"},"vehicle_type_id":"4","last_reported":1779456134,"current_range_meters":4400,"station_id":"","pricing_plan_id":"cebpf4jnsgd1na2vs0mg"},{"bike_id":"3936af97-ef4d-4f58-a35e-a0221d7e9a6c","system_id":"levelo_inurba_marseille","lat":43.22563,"lon":5.41646,"is_reserved":false,"is_disabled":false,"rental_uris":{"android":"levelo://app?vid=3936af97-ef4d-4f58-a35e-a0221d7e9a6c","ios":"levelo://app?vid=3936af97-ef4d-4f58-a35e-a0221d7e9a6c"},"vehicle_type_id":"4","last_reported":1779456134,"current_range_meters":4400,"station_id":"st_d2o4gvlbi1j2169b742g","pricing_plan_id":"cebpf4jnsgd1na2vs0mg"},{"bike_id":"691d522d-8565-4a91-bffc-e987d9a10e4a","system_id":"levelo_inurba_marseille","lat":43.2582,"lon":5.39505,"is_reserved":false,"is_disabled":false,"rental_uris":{"android":"levelo://app?vid=691d522d-8565-4a91-bffc-e987d9a10e4a","ios":"levelo://app?vid=691d522d-8565-4a91-bffc-e987d9a10e4a"},"vehicle_type_id":"4","last_reported":1779456134,"current_range_meters":4400,"station_id":"","pricing_plan_id":"cebpf4jnsgd1na2vs0mg"},{"bike_id":"6bd26e0d-8693-4894-bca9-3dcdfa7038b8","system_id":"levelo_inurba_marseille","lat":43.31327,"lon":5.39698,"is_reserved":false,"is_disabled":false,"rental_uris":{"android":"levelo://app?vid=6bd26e0d-8693-4894-bca9-3dcdfa7038b8","ios":"levelo://app?vid=6bd26e0d-8693-4894-bca9-3dcdfa7038b8"},"vehicle_type_id":"4","last_reported":1779456134,"current_range_meters":4400,"station_id":"ce4bgvp2rcd13ifvqcu0","pricing_plan_id":"cebpf4jnsgd1na2vs0mg"},{"bike_id":"9fe61c46-c554-41a3-ad01-cd3ebfc310c8","system_id":"levelo_inurba_marseille","lat":43.2175,"lon":5.34603,"is_reserved":false,"is_disabled":false,"rental_uris":{"android":"levelo://app?vid=9fe61c46-c554-41a3-ad01-cd3ebfc310c8","ios":"levelo://app?vid=9fe61c46-c554-41a3-ad01-cd3ebfc310c8"},"vehicle_type_id":"4","last_reported":1779456134,"current_range_meters":4400,"station_id":"st_cvj6r9ubvosntc0bgbag","pricing_plan_id":"cebpf4jnsgd1na2vs0mg"},{"bike_id":"d3b5b678-6552-44c5-b492-12562ec7b922","system_id":"levelo_inurba_marseille","lat":43.243846,"lon":5.370747,"is_reserved":false,"is_disabled":false,"rental_uris":{"android":"levelo://app?vid=d3b5b678-6552-44c5-b492-12562ec7b922","ios":"levelo://app?vid=d3b5b678-6552-44c5-b492-12562ec7b922"},"vehicle_type_id":"4","last_reported":1779456134,"current_range_meters":4400,"station_id":"ce4bhhh2rcd13ifvqfk0","pricing_plan_id":"cebpf4jnsgd1na2vs0mg"},{"bike_id":"013939bc-c53d-4e6f-be2a-05c79303cd52","system_id":"levelo_inurba_marseille","lat":43.3102,"lon":5.36712,"is_reserved":false,"is_disabled":false,"rental_uris":{"android":"levelo://app?vid=013939bc-c53d-4e6f-be2a-05c79303cd52","ios":"levelo://app?vid=013939bc-c53d-4e6f-be2a-05c79303cd52"},"vehicle_type_id":"4","last_reported":1779456134,"current_range_meters":4400,"station_id":"","pricing_plan_id":"cebpf4jnsgd1na2vs0mg"},{"bike_id":"507f607b-566d-49cc-ad3e-30c4a8af27b5","system_id":"levelo_inurba_marseille","lat":43.30141,"lon":5.39858,"is_reserved":false,"is_disabled":false,"rental_uris":{"android":"levelo://app?vid=507f607b-566d-49cc-ad3e-30c4a8af27b5","ios":"levelo://app?vid=507f607b-566d-49cc-ad3e-30c4a8af27b5"},"vehicle_type_id":"4","last_reported":1779456134,"current_range_meters":4400,"station_id":"ce4bh0h2rcd13ifvqd40","pricing_plan_id":"cebpf4jnsgd1na2vs0mg"},{"bike_id":"b90c4810-bc71-435f-9454-1d991656a084","system_id":"levelo_inurba_marseille","lat":43.32501,"lon":5.38338,"is_reserved":false,"is_disabled":false,"rental_uris":{"android":"levelo://app?vid=b90c4810-bc71-435f-9454-1d991656a084","ios":"levelo://app?vid=b90c4810-bc71-435f-9454-1d991656a084"},"vehicle_type_id":"4","last_reported":1779456134,"current_range_meters":4400,"station_id":"st_d4asgbiv49dc73anf9m0","pricing_plan_id":"cebpf4jnsgd1na2vs0mg"},{"bike_id":"7eebbda7-66b3-4973-bb8a-7ba5bc875a88","system_id":"levelo_inurba_marseille","lat":43.27172,"lon":5.40996,"is_reserved":false,"is_disabled":false,"rental_uris":{"android":"levelo://app?vid=7eebbda7-66b3-4973-bb8a-7ba5bc875a88","ios":"levelo://app?vid=7eebbda7-66b3-4973-bb8a-7ba5bc875a88"},"vehicle_type_id":"4","last_reported":1779456134,"current_range_meters":4400,"station_id":"ce4bhl12rcd13ifvqgf0","pricing_plan_id":"cebpf4jnsgd1na2vs0mg"},{"bike_id":"07d24564-1e5e-4919-9574-2b4f6ef05633","system_id":"levelo_inurba_marseille","lat":43.27378,"lon":5.36261,"is_reserved":false,"is_disabled":false,"rental_uris":{"android":"levelo://app?vid=07d24564-1e5e-4919-9574-2b4f6ef05633","ios":"levelo://app?vid=07d24564-1e5e-4919-9574-2b4f6ef05633"},"vehicle_type_id":"4","last_reported":1779456134,"current_range_meters":4400,"station_id":"ce4bhbh2rcd13ifvqeo0","pricing_plan_id":"cebpf4jnsgd1na2vs0mg"},{"bike_id":"21f2f5ce-4bd5-4858-92db-e800dff949c6","system_id":"levelo_inurba_marseille","lat":43.26222,"lon":5.38771,"is_reserved":false,"is_disabled":false,"rental_uris":{"android":"levelo://app?vid=21f2f5ce-4bd5-4858-92db-e800dff949c6","ios":"levelo://app?vid=21f2f5ce-4bd5-4858-92db-e800dff949c6"},"vehicle_type_id":"4","last_reported":1779456134,"current_range_meters":4400,"station_id":"","pricing_plan_id":"cebpf4jnsgd1na2vs0mg"},{"bike_id":"e5d61caf-24c6-4983-b5c8-eb4f998339a1","system_id":"levelo_inurba_marseille","lat":43.24164,"lon":5.36406,"is_reserved":false,"is_disabled":false,"rental_uris":{"android":"levelo://app?vid=e5d61caf-24c6-4983-b5c8-eb4f998339a1","ios":"levelo://app?vid=e5d61caf-24c6-4983-b5c8-eb4f998339a1"},"vehicle_type_id":"4","last_reported":1779456134,"current_range_meters":4400,"station_id":"cpo36qri1sfpv3e86is0","pricing_plan_id":"cebpf4jnsgd1na2vs0mg"},{"bike_id":"4d2507d4-8d96-49ff-91c6-8d458ef4f093","system_id":"levelo_inurba_marseille","lat":43.22533,"lon":5.34825,"is_reserved":false,"is_disabled":false,"rental_uris":{"android":"levelo://app?vid=4d2507d4-8d96-49ff-91c6-8d458ef4f093","ios":"levelo://app?vid=4d2507d4-8d96-49ff-91c6-8d458ef4f093"},"vehicle_type_id":"4","last_reported":1779456134,"current_range_meters":4400,"station_id":"st_cvj5dfep6f1abm77gieg","pricing_plan_id":"cebpf4jnsgd1na2vs0mg"},{"bike_id":"f9c81fd4-1c3b-4e4f-82bc-bb6c5ff6c1f0","system_id":"levelo_inurba_marseille","lat":43.27999,"lon":5.41667,"is_reserved":false,"is_disabled":false,"rental_uris":{"android":"levelo://app?vid=f9c81fd4-1c3b-4e4f-82bc-bb6c5ff6c1f0","ios":"levelo://app?vid=f9c81fd4-1c3b-4e4f-82bc-bb6c5ff6c1f0"},"vehicle_type_id":"4","last_reported":1779456134,"current_range_meters":4400,"station_id":"ce4bho12rcd13ifvqh1g","pricing_plan_id":"cebpf4jnsgd1na2vs0mg"},{"bike_id":"f5ddfd47-1379-40f7-88f5-238af06fb36c","system_id":"levelo_inurba_marseille","lat":43.28871,"lon":5.42523,"is_reserved":false,"is_disabled":false,"rental_uris":{"android":"levelo://app?vid=f5ddfd47-1379-40f7-88f5-238af06fb36c","ios":"levelo://app?vid=f5ddfd47-1379-40f7-88f5-238af06fb36c"},"vehicle_type_id":"4","last_reported":1779456134,"current_range_meters":4400,"station_id":"st_d3b462108ojc7389ooeg","pricing_plan_id":"cebpf4jnsgd1na2vs0mg"},{"bike_id":"25567174-0674-4025-8810-54a2d6ca1860","system_id":"levelo_inurba_marseille","lat":43.30543,"lon":5.36707,"is_reserved":false,"is_disabled":false,"rental_uris":{"android":"levelo://app?vid=25567174-0674-4025-8810-54a2d6ca1860","ios":"levelo://app?vid=25567174-0674-4025-8810-54a2d6ca1860"},"vehicle_type_id":"4","last_reported":1779456134,"current_range_meters":4800,"station_id":"ce4bgrp2rcd13ifvqc9g","pricing_plan_id":"cebpf4jnsgd1na2vs0mg"},{"bike_id":"187d7652-14ba-4a8c-84ec-f691eeec000d","system_id":"levelo_inurba_marseille","lat":43.30313,"lon":5.36897,"is_reserved":false,"is_disabled":false,"rental_uris":{"android":"levelo://app?vid=187d7652-14ba-4a8c-84ec-f691eeec000d","ios":"levelo://app?vid=187d7652-14ba-4a8c-84ec-f691eeec000d"},"vehicle_type_id":"4","last_reported":1779456134,"current_range_meters":4800,"station_id":"ce4bgqh2rcd13ifvqc5g","pricing_plan_id":"cebpf4jnsgd1na2vs0mg"},{"bike_id":"20ca2fd6-a9ce-4c86-b490-0d2ebce44a59","system_id":"levelo_inurba_marseille","lat":43.21743,"lon":5.34611,"is_reserved":false,"is_disabled":false,"rental_uris":{"android":"levelo://app?vid=20ca2fd6-a9ce-4c86-b490-0d2ebce44a59","ios":"levelo://app?vid=20ca2fd6-a9ce-4c86-b490-0d2ebce44a59"},"vehicle_type_id":"4","last_reported":1779456134,"current_range_meters":4800,"station_id":"st_cvj6r9ubvosntc0bgbag","pricing_plan_id":"cebpf4jnsgd1na2vs0mg"},{"bike_id":"e01e9a76-7559-40e0-bc65-36123416e7b0","system_id":"levelo_inurba_marseille","lat":43.31246,"lon":5.36851,"is_reserved":false,"is_disabled":false,"rental_uris":{"android":"levelo://app?vid=e01e9a76-7559-40e0-bc65-36123416e7b0","ios":"levelo://app?vid=e01e9a76-7559-40e0-bc65-36123416e7b0"},"vehicle_type_id":"4","last_reported":1779456134,"current_range_meters":4800,"station_id":"ce4bgl92rcd13ifvqbq0","pricing_plan_id":"cebpf4jnsgd1na2vs0mg"},{"bike_id":"daaba8bc-fa89-4012-b8f1-2833f5604092","system_id":"levelo_inurba_marseille","lat":43.27634,"lon":5.36128,"is_reserved":false,"is_disabled":false,"rental_uris":{"android":"levelo://app?vid=daaba8bc-fa89-4012-b8f1-2833f5604092","ios":"levelo://app?vid=daaba8bc-fa89-4012-b8f1-2833f5604092"},"vehicle_type_id":"4","last_reported":1779456134,"current_range_meters":4800,"station_id":"ce4bgj92rcd13ifvqbe0","pricing_plan_id":"cebpf4jnsgd1na2vs0mg"},{"bike_id":"195f7fb8-9570-4a12-8627-395dd352d5b6","system_id":"levelo_inurba_marseille","lat":43.29374,"lon":5.37832,"is_reserved":false,"is_disabled":false,"rental_uris":{"android":"levelo://app?vid=195f7fb8-9570-4a12-8627-395dd352d5b6","ios":"levelo://app?vid=195f7fb8-9570-4a12-8627-395dd352d5b6"},"vehicle_type_id":"4","last_reported":1779456134,"current_range_meters":4800,"station_id":"ce4bgjh2rcd13ifvqbf0","pricing_plan_id":"cebpf4jnsgd1na2vs0mg"},{"bike_id":"d00258f2-8560-413f-b79f-9d3998aca684","system_id":"levelo_inurba_marseille","lat":43.26559,"lon":5.37264,"is_reserved":false,"is_disabled":false,"rental_uris":{"android":"levelo://app?vid=d00258f2-8560-413f-b79f-9d3998aca684","ios":"levelo://app?vid=d00258f2-8560-413f-b79f-9d3998aca684"},"vehicle_type_id":"4","last_reported":1779456134,"current_range_meters":4800,"station_id":"ce4bhg12rcd13ifvqf70","pricing_plan_id":"cebpf4jnsgd1na2vs0mg"},{"bike_id":"4b1c898a-0291-4064-9e8c-cdcdec0a0cca","system_id":"levelo_inurba_marseille","lat":43.30552,"lon":5.36681,"is_reserved":false,"is_disabled":false,"rental_uris":{"android":"levelo://app?vid=4b1c898a-0291-4064-9e8c-cdcdec0a0cca","ios":"levelo://app?vid=4b1c898a-0291-4064-9e8c-cdcdec0a0cca"},"vehicle_type_id":"4","last_reported":1779456134,"current_range_meters":4800,"station_id":"ce4bgrp2rcd13ifvqc9g","pricing_plan_id":"cebpf4jnsgd1na2vs0mg"},{"bike_id":"ec3f60bf-4c2f-4f11-9e32-7b9e8b6186cf","system_id":"levelo_inurba_marseille","lat":43.28409,"lon":5.34982,"is_reserved":false,"is_disabled":false,"rental_uris":{"android":"levelo://app?vid=ec3f60bf-4c2f-4f11-9e32-7b9e8b6186cf","ios":"levelo://app?vid=ec3f60bf-4c2f-4f11-9e32-7b9e8b6186cf"},"vehicle_type_id":"4","last_reported":1779456134,"current_range_meters":4800,"station_id":"ce4bhbh2rcd13ifvqepg","pricing_plan_id":"cebpf4jnsgd1na2vs0mg"},{"bike_id":"c97309d8-44c6-4946-84f5-9a696edce419","system_id":"levelo_inurba_marseille","lat":43.31699,"lon":5.37778,"is_reserved":false,"is_disabled":false,"rental_uris":{"android":"levelo://app?vid=c97309d8-44c6-4946-84f5-9a696edce419","ios":"levelo://app?vid=c97309d8-44c6-4946-84f5-9a696edce419"},"vehicle_type_id":"4","last_reported":1779456134,"current_range_meters":5600,"station_id":"ce4bgth2rcd13ifvqch0","pricing_plan_id":"cebpf4jnsgd1na2vs0mg"},{"bike_id":"e3186371-0391-47d4-9927-7c8a3c2904ba","system_id":"levelo_inurba_marseille","lat":43.28304,"lon":5.38538,"is_reserved":false,"is_disabled":false,"rental_uris":{"android":"levelo://app?vid=e3186371-0391-47d4-9927-7c8a3c2904ba","ios":"levelo://app?vid=e3186371-0391-47d4-9927-7c8a3c2904ba"},"vehicle_type_id":"4","last_reported":1779456134,"current_range_meters":5600,"station_id":"","pricing_plan_id":"cebpf4jnsgd1na2vs0mg"},{"bike_id":"f14b2d37-33da-4abe-b00f-78dc278ca5ed","system_id":"levelo_inurba_marseille","lat":43.30596,"lon":5.3723,"is_reserved":false,"is_disabled":false,"rental_uris":{"android":"levelo://app?vid=f14b2d37-33da-4abe-b00f-78dc278ca5ed","ios":"levelo://app?vid=f14b2d37-33da-4abe-b00f-78dc278ca5ed"},"vehicle_type_id":"4","last_reported":1779456134,"current_range_meters":5600,"station_id":"ce4bgqh2rcd13ifvqc4g","pricing_plan_id":"cebpf4jnsgd1na2vs0mg"},{"bike_id":"ed89740b-b31a-42e5-bbe1-e924c5e43f45","system_id":"levelo_inurba_marseille","lat":43.25488,"lon":5.37645,"is_reserved":false,"is_disabled":false,"rental_uris":{"android":"levelo://app?vid=ed89740b-b31a-42e5-bbe1-e924c5e43f45","ios":"levelo://app?vid=ed89740b-b31a-42e5-bbe1-e924c5e43f45"},"vehicle_type_id":"4","last_reported":1779456134,"current_range_meters":5600,"station_id":"ce4bhh12rcd13ifvqff0","pricing_plan_id":"cebpf4jnsgd1na2vs0mg"},{"bike_id":"44a413c4-854a-4daa-9a2a-01bb1e8c685d","system_id":"levelo_inurba_marseille","lat":43.28756,"lon":5.42763,"is_reserved":false,"is_disabled":false,"rental_uris":{"android":"levelo://app?vid=44a413c4-854a-4daa-9a2a-01bb1e8c685d","ios":"levelo://app?vid=44a413c4-854a-4daa-9a2a-01bb1e8c685d"},"vehicle_type_id":"4","last_reported":1779456134,"current_range_meters":5600,"station_id":"","pricing_plan_id":"cebpf4jnsgd1na2vs0mg"},{"bike_id":"238e2120-c332-49db-8eff-3f61fe07f1b4","system_id":"levelo_inurba_marseille","lat":43.29058,"lon":5.35573,"is_reserved":false,"is_disabled":true,"rental_uris":{"android":"levelo://app?vid=238e2120-c332-49db-8eff-3f61fe07f1b4","ios":"levelo://app?vid=238e2120-c332-49db-8eff-3f61fe07f1b4"},"vehicle_type_id":"4","last_reported":1779456134,"current_range_meters":5600,"station_id":"","pricing_plan_id":"cebpf4jnsgd1na2vs0mg"},{"bike_id":"60a16368-519a-4aa5-889a-f31cdc0a5be1","system_id":"levelo_inurba_marseille","lat":43.3199,"lon":5.41562,"is_reserved":false,"is_disabled":false,"rental_uris":{"android":"levelo://app?vid=60a16368-519a-4aa5-889a-f31cdc0a5be1","ios":"levelo://app?vid=60a16368-519a-4aa5-889a-f31cdc0a5be1"},"vehicle_type_id":"4","last_reported":1779456134,"current_range_meters":5600,"station_id":"","pricing_plan_id":"cebpf4jnsgd1na2vs0mg"},{"bike_id":"37b8c7b4-7773-4e27-b584-f0a0b6a2f8d1","system_id":"levelo_inurba_marseille","lat":43.26191,"lon":5.37439,"is_reserved":false,"is_disabled":false,"rental_uris":{"android":"levelo://app?vid=37b8c7b4-7773-4e27-b584-f0a0b6a2f8d1","ios":"levelo://app?vid=37b8c7b4-7773-4e27-b584-f0a0b6a2f8d1"},"vehicle_type_id":"4","last_reported":1779456134,"current_range_meters":5600,"station_id":"ce4bhgp2rcd13ifvqfc0","pricing_plan_id":"cebpf4jnsgd1na2vs0mg"},{"bike_id":"d96a8461-364e-4a36-9c10-f6d3fb31713d","system_id":"levelo_inurba_marseille","lat":43.25921,"lon":5.40903,"is_reserved":false,"is_disabled":false,"rental_uris":{"android":"levelo://app?vid=d96a8461-364e-4a36-9c10-f6d3fb31713d","ios":"levelo://app?vid=d96a8461-364e-4a36-9c10-f6d3fb31713d"},"vehicle_type_id":"4","last_reported":1779456134,"current_range_meters":5600,"station_id":"ce4bhm92rcd13ifvqglg","pricing_plan_id":"cebpf4jnsgd1na2vs0mg"},{"bike_id":"9b0e1355-cfa6-4246-8dd4-5abd1c2ff8a9","system_id":"levelo_inurba_marseille","lat":43.30943,"lon":5.39042,"is_reserved":false,"is_disabled":true,"rental_uris":{"android":"levelo://app?vid=9b0e1355-cfa6-4246-8dd4-5abd1c2ff8a9","ios":"levelo://app?vid=9b0e1355-cfa6-4246-8dd4-5abd1c2ff8a9"},"vehicle_type_id":"4","last_reported":1779456134,"current_range_meters":5600,"station_id":"ce4bgup2rcd13ifvqco0","pricing_plan_id":"cebpf4jnsgd1na2vs0mg"},{"bike_id":"9ed83606-61ec-4fc0-b1b5-69190a1cc378","system_id":"levelo_inurba_marseille","lat":43.25485,"lon":5.37648,"is_reserved":false,"is_disabled":false,"rental_uris":{"android":"levelo://app?vid=9ed83606-61ec-4fc0-b1b5-69190a1cc378","ios":"levelo://app?vid=9ed83606-61ec-4fc0-b1b5-69190a1cc378"},"vehicle_type_id":"4","last_reported":1779456134,"current_range_meters":5600,"station_id":"ce4bhh12rcd13ifvqff0","pricing_plan_id":"cebpf4jnsgd1na2vs0mg"},{"bike_id":"0c3ffca5-4ddf-4e87-a409-34408212fabf","system_id":"levelo_inurba_marseille","lat":43.30908,"lon":5.3688,"is_reserved":false,"is_disabled":false,"rental_uris":{"android":"levelo://app?vid=0c3ffca5-4ddf-4e87-a409-34408212fabf","ios":"levelo://app?vid=0c3ffca5-4ddf-4e87-a409-34408212fabf"},"vehicle_type_id":"4","last_reported":1779456134,"current_range_meters":5600,"station_id":"ce4bgn92rcd13ifvqbvg","pricing_plan_id":"cebpf4jnsgd1na2vs0mg"},{"bike_id":"d9253dea-1990-4790-b842-8d9ae5ade1e4","system_id":"levelo_inurba_marseille","lat":43.29959,"lon":5.41337,"is_reserved":false,"is_disabled":false,"rental_uris":{"android":"levelo://app?vid=d9253dea-1990-4790-b842-8d9ae5ade1e4","ios":"levelo://app?vid=d9253dea-1990-4790-b842-8d9ae5ade1e4"},"vehicle_type_id":"4","last_reported":1779456134,"current_range_meters":5600,"station_id":"ce4bhp12rcd13ifvqh9g","pricing_plan_id":"cebpf4jnsgd1na2vs0mg"},{"bike_id":"3d436a0d-575b-42d3-8681-5c87057b3b7f","system_id":"levelo_inurba_marseille","lat":43.2795,"lon":5.4363,"is_reserved":false,"is_disabled":false,"rental_uris":{"android":"levelo://app?vid=3d436a0d-575b-42d3-8681-5c87057b3b7f","ios":"levelo://app?vid=3d436a0d-575b-42d3-8681-5c87057b3b7f"},"vehicle_type_id":"4","last_reported":1779456134,"current_range_meters":5600,"station_id":"","pricing_plan_id":"cebpf4jnsgd1na2vs0mg"},{"bike_id":"097b848c-6b90-4556-bdbf-9a1ef78a105a","system_id":"levelo_inurba_marseille","lat":43.284726,"lon":5.384175,"is_reserved":false,"is_disabled":false,"rental_uris":{"android":"levelo://app?vid=097b848c-6b90-4556-bdbf-9a1ef78a105a","ios":"levelo://app?vid=097b848c-6b90-4556-bdbf-9a1ef78a105a"},"vehicle_type_id":"4","last_reported":1779456134,"current_range_meters":5600,"station_id":"ce4bh512rcd13ifvqe3g","pricing_plan_id":"cebpf4jnsgd1na2vs0mg"},{"bike_id":"a478ef1a-af6b-4969-aec9-c1307bf13f9a","system_id":"levelo_inurba_marseille","lat":43.21733,"lon":5.34613,"is_reserved":false,"is_disabled":false,"rental_uris":{"android":"levelo://app?vid=a478ef1a-af6b-4969-aec9-c1307bf13f9a","ios":"levelo://app?vid=a478ef1a-af6b-4969-aec9-c1307bf13f9a"},"vehicle_type_id":"4","last_reported":1779456134,"current_range_meters":5600,"station_id":"st_cvj6r9ubvosntc0bgbag","pricing_plan_id":"cebpf4jnsgd1na2vs0mg"},{"bike_id":"37893482-1ca7-4e65-a3f3-86c49eda4a22","system_id":"levelo_inurba_marseille","lat":43.30374,"lon":5.42492,"is_reserved":false,"is_disabled":true,"rental_uris":{"android":"levelo://app?vid=37893482-1ca7-4e65-a3f3-86c49eda4a22","ios":"levelo://app?vid=37893482-1ca7-4e65-a3f3-86c49eda4a22"},"vehicle_type_id":"4","last_reported":1779456134,"current_range_meters":6000,"station_id":"ce4bhoh2rcd13ifvqh6g","pricing_plan_id":"cebpf4jnsgd1na2vs0mg"},{"bike_id":"d523bcad-98ea-47e7-a65b-05f23aafd12a","system_id":"levelo_inurba_marseille","lat":43.298,"lon":5.38057,"is_reserved":false,"is_disabled":false,"rental_uris":{"android":"levelo://app?vid=d523bcad-98ea-47e7-a65b-05f23aafd12a","ios":"levelo://app?vid=d523bcad-98ea-47e7-a65b-05f23aafd12a"},"vehicle_type_id":"4","last_reported":1779456134,"current_range_meters":6000,"station_id":"ce4bgip2rcd13ifvqbb0","pricing_plan_id":"cebpf4jnsgd1na2vs0mg"},{"bike_id":"6a03601f-3384-4396-b221-6a8146ad4f8b","system_id":"levelo_inurba_marseille","lat":43.258589,"lon":5.399073,"is_reserved":false,"is_disabled":false,"rental_uris":{"android":"levelo://app?vid=6a03601f-3384-4396-b221-6a8146ad4f8b","ios":"levelo://app?vid=6a03601f-3384-4396-b221-6a8146ad4f8b"},"vehicle_type_id":"4","last_reported":1779456134,"current_range_meters":6000,"station_id":"ce4bhl92rcd13ifvqghg","pricing_plan_id":"cebpf4jnsgd1na2vs0mg"},{"bike_id":"32a4acd0-44a9-4efd-923f-b1bfe797f2f9","system_id":"levelo_inurba_marseille","lat":43.23065,"lon":5.35486,"is_reserved":false,"is_disabled":false,"rental_uris":{"android":"levelo://app?vid=32a4acd0-44a9-4efd-923f-b1bfe797f2f9","ios":"levelo://app?vid=32a4acd0-44a9-4efd-923f-b1bfe797f2f9"},"vehicle_type_id":"4","last_reported":1779456134,"current_range_meters":6000,"station_id":"cpo3342slgdg3j2ifvpg","pricing_plan_id":"cebpf4jnsgd1na2vs0mg"},{"bike_id":"a40d16d1-fc16-4ffa-a016-95f01fcf4742","system_id":"levelo_inurba_marseille","lat":43.2841,"lon":5.35031,"is_reserved":false,"is_disabled":false,"rental_uris":{"android":"levelo://app?vid=a40d16d1-fc16-4ffa-a016-95f01fcf4742","ios":"levelo://app?vid=a40d16d1-fc16-4ffa-a016-95f01fcf4742"},"vehicle_type_id":"4","last_reported":1779456134,"current_range_meters":6000,"station_id":"ce4bhbh2rcd13ifvqepg","pricing_plan_id":"cebpf4jnsgd1na2vs0mg"},{"bike_id":"43b1661a-689b-4380-8252-61fb2d287625","system_id":"levelo_inurba_marseille","lat":43.24156,"lon":5.36421,"is_reserved":false,"is_disabled":false,"rental_uris":{"android":"levelo://app?vid=43b1661a-689b-4380-8252-61fb2d287625","ios":"levelo://app?vid=43b1661a-689b-4380-8252-61fb2d287625"},"vehicle_type_id":"4","last_reported":1779456134,"current_range_meters":6000,"station_id":"cpo36qri1sfpv3e86is0","pricing_plan_id":"cebpf4jnsgd1na2vs0mg"},{"bike_id":"305ca7cc-441d-4d22-8b1a-a2ef8c2cce07","system_id":"levelo_inurba_marseille","lat":43.2119,"lon":5.35066,"is_reserved":false,"is_disabled":false,"rental_uris":{"android":"levelo://app?vid=305ca7cc-441d-4d22-8b1a-a2ef8c2cce07","ios":"levelo://app?vid=305ca7cc-441d-4d22-8b1a-a2ef8c2cce07"},"vehicle_type_id":"4","last_reported":1779456134,"current_range_meters":6000,"station_id":"st_cvj6sg6p6f1abm77japg","pricing_plan_id":"cebpf4jnsgd1na2vs0mg"},{"bike_id":"27ecbdd8-27a8-4b54-b64f-7065a46a4444","system_id":"levelo_inurba_marseille","lat":43.26025,"lon":5.37535,"is_reserved":false,"is_disabled":false,"rental_uris":{"android":"levelo://app?vid=27ecbdd8-27a8-4b54-b64f-7065a46a4444","ios":"levelo://app?vid=27ecbdd8-27a8-4b54-b64f-7065a46a4444"},"vehicle_type_id":"4","last_reported":1779456134,"current_range_meters":6000,"station_id":"ce4bhgh2rcd13ifvqfa0","pricing_plan_id":"cebpf4jnsgd1na2vs0mg"},{"bike_id":"ae73dd5f-c448-475f-be97-7d9f664d23a6","system_id":"levelo_inurba_marseille","lat":43.28533,"lon":5.38452,"is_reserved":false,"is_disabled":false,"rental_uris":{"android":"levelo://app?vid=ae73dd5f-c448-475f-be97-7d9f664d23a6","ios":"levelo://app?vid=ae73dd5f-c448-475f-be97-7d9f664d23a6"},"vehicle_type_id":"4","last_reported":1779456134,"current_range_meters":6000,"station_id":"","pricing_plan_id":"cebpf4jnsgd1na2vs0mg"},{"bike_id":"9bd2c99d-831a-4bd4-9d28-b381a9585878","system_id":"levelo_inurba_marseille","lat":43.23957,"lon":5.36641,"is_reserved":false,"is_disabled":false,"rental_uris":{"android":"levelo://app?vid=9bd2c99d-831a-4bd4-9d28-b381a9585878","ios":"levelo://app?vid=9bd2c99d-831a-4bd4-9d28-b381a9585878"},"vehicle_type_id":"4","last_reported":1779456134,"current_range_meters":6000,"station_id":"ce4bhi12rcd13ifvqfp0","pricing_plan_id":"cebpf4jnsgd1na2vs0mg"},{"bike_id":"840b432c-a7ef-4c81-affa-f6b871393f15","system_id":"levelo_inurba_marseille","lat":43.27366,"lon":5.3627,"is_reserved":false,"is_disabled":false,"rental_uris":{"android":"levelo://app?vid=840b432c-a7ef-4c81-affa-f6b871393f15","ios":"levelo://app?vid=840b432c-a7ef-4c81-affa-f6b871393f15"},"vehicle_type_id":"4","last_reported":1779456134,"current_range_meters":6000,"station_id":"ce4bhbh2rcd13ifvqeo0","pricing_plan_id":"cebpf4jnsgd1na2vs0mg"},{"bike_id":"217aa53c-45fa-4209-9adc-64080b5db7a1","system_id":"levelo_inurba_marseille","lat":43.25508,"lon":5.37647,"is_reserved":false,"is_disabled":false,"rental_uris":{"android":"levelo://app?vid=217aa53c-45fa-4209-9adc-64080b5db7a1","ios":"levelo://app?vid=217aa53c-45fa-4209-9adc-64080b5db7a1"},"vehicle_type_id":"4","last_reported":1779456134,"current_range_meters":6400,"station_id":"ce4bhh12rcd13ifvqff0","pricing_plan_id":"cebpf4jnsgd1na2vs0mg"},{"bike_id":"3de0a22c-f7a1-4ff6-8efb-126f6ce78565","system_id":"levelo_inurba_marseille","lat":43.21746,"lon":5.34605,"is_reserved":false,"is_disabled":false,"rental_uris":{"android":"levelo://app?vid=3de0a22c-f7a1-4ff6-8efb-126f6ce78565","ios":"levelo://app?vid=3de0a22c-f7a1-4ff6-8efb-126f6ce78565"},"vehicle_type_id":"4","last_reported":1779456134,"current_range_meters":6400,"station_id":"st_cvj6r9ubvosntc0bgbag","pricing_plan_id":"cebpf4jnsgd1na2vs0mg"},{"bike_id":"5c530a9e-7c4a-4aa6-adac-4172a237ef4e","system_id":"levelo_inurba_marseille","lat":43.28592,"lon":5.35003,"is_reserved":false,"is_disabled":false,"rental_uris":{"android":"levelo://app?vid=5c530a9e-7c4a-4aa6-adac-4172a237ef4e","ios":"levelo://app?vid=5c530a9e-7c4a-4aa6-adac-4172a237ef4e"},"vehicle_type_id":"4","last_reported":1779456134,"current_range_meters":6400,"station_id":"","pricing_plan_id":"cebpf4jnsgd1na2vs0mg"},{"bike_id":"23fa46e4-55ce-41df-8541-d2c93a318a28","system_id":"levelo_inurba_marseille","lat":43.30943,"lon":5.39042,"is_reserved":false,"is_disabled":false,"rental_uris":{"android":"levelo://app?vid=23fa46e4-55ce-41df-8541-d2c93a318a28","ios":"levelo://app?vid=23fa46e4-55ce-41df-8541-d2c93a318a28"},"vehicle_type_id":"4","last_reported":1779456134,"current_range_meters":6400,"station_id":"ce4bgup2rcd13ifvqco0","pricing_plan_id":"cebpf4jnsgd1na2vs0mg"},{"bike_id":"14541e08-f5a6-4794-866a-203386a269fe","system_id":"levelo_inurba_marseille","lat":43.302582,"lon":5.400882,"is_reserved":false,"is_disabled":false,"rental_uris":{"android":"levelo://app?vid=14541e08-f5a6-4794-866a-203386a269fe","ios":"levelo://app?vid=14541e08-f5a6-4794-866a-203386a269fe"},"vehicle_type_id":"4","last_reported":1779456134,"current_range_meters":6400,"station_id":"ce4bgvh2rcd13ifvqcs0","pricing_plan_id":"cebpf4jnsgd1na2vs0mg"},{"bike_id":"40f2d78e-2d44-43b0-8f6f-9117cb1f813f","system_id":"levelo_inurba_marseille","lat":43.30323,"lon":5.40436,"is_reserved":false,"is_disabled":false,"rental_uris":{"android":"levelo://app?vid=40f2d78e-2d44-43b0-8f6f-9117cb1f813f","ios":"levelo://app?vid=40f2d78e-2d44-43b0-8f6f-9117cb1f813f"},"vehicle_type_id":"4","last_reported":1779456134,"current_range_meters":6400,"station_id":"ce4bh012rcd13ifvqd10","pricing_plan_id":"cebpf4jnsgd1na2vs0mg"},{"bike_id":"c517a57e-21c3-4742-b71b-89bc773efed9","system_id":"levelo_inurba_marseille","lat":43.28409,"lon":5.34984,"is_reserved":false,"is_disabled":false,"rental_uris":{"android":"levelo://app?vid=c517a57e-21c3-4742-b71b-89bc773efed9","ios":"levelo://app?vid=c517a57e-21c3-4742-b71b-89bc773efed9"},"vehicle_type_id":"4","last_reported":1779456134,"current_range_meters":6400,"station_id":"ce4bhbh2rcd13ifvqepg","pricing_plan_id":"cebpf4jnsgd1na2vs0mg"},{"bike_id":"ca8270b4-d39a-47bc-a5ba-46cea51aa1f5","system_id":"levelo_inurba_marseille","lat":43.28011,"lon":5.35442,"is_reserved":false,"is_disabled":false,"rental_uris":{"android":"levelo://app?vid=ca8270b4-d39a-47bc-a5ba-46cea51aa1f5","ios":"levelo://app?vid=ca8270b4-d39a-47bc-a5ba-46cea51aa1f5"},"vehicle_type_id":"4","last_reported":1779456134,"current_range_meters":6400,"station_id":"","pricing_plan_id":"cebpf4jnsgd1na2vs0mg"},{"bike_id":"6ea06f10-703d-45b5-834f-354237680935","system_id":"levelo_inurba_marseille","lat":43.28695,"lon":5.46676,"is_reserved":false,"is_disabled":false,"rental_uris":{"android":"levelo://app?vid=6ea06f10-703d-45b5-834f-354237680935","ios":"levelo://app?vid=6ea06f10-703d-45b5-834f-354237680935"},"vehicle_type_id":"4","last_reported":1779456134,"current_range_meters":6400,"station_id":"st_d6tc3vkotcvc738tfjhg","pricing_plan_id":"cebpf4jnsgd1na2vs0mg"},{"bike_id":"05801c35-4cb5-4256-8bbf-f0d4e169379d","system_id":"levelo_inurba_marseille","lat":43.23145,"lon":5.43707,"is_reserved":false,"is_disabled":false,"rental_uris":{"android":"levelo://app?vid=05801c35-4cb5-4256-8bbf-f0d4e169379d","ios":"levelo://app?vid=05801c35-4cb5-4256-8bbf-f0d4e169379d"},"vehicle_type_id":"4","last_reported":1779456134,"current_range_meters":6400,"station_id":"ce4bhmp2rcd13ifvqgog","pricing_plan_id":"cebpf4jnsgd1na2vs0mg"},{"bike_id":"73ae3225-2afd-4148-bc1e-7df34ebc3254","system_id":"levelo_inurba_marseille","lat":43.29192,"lon":5.35795,"is_reserved":false,"is_disabled":false,"rental_uris":{"android":"levelo://app?vid=73ae3225-2afd-4148-bc1e-7df34ebc3254","ios":"levelo://app?vid=73ae3225-2afd-4148-bc1e-7df34ebc3254"},"vehicle_type_id":"4","last_reported":1779456134,"current_range_meters":6400,"station_id":"ce4bhb12rcd13ifvqel0","pricing_plan_id":"cebpf4jnsgd1na2vs0mg"},{"bike_id":"a9aad6e5-9301-4dd7-8ae0-41ab0683b169","system_id":"levelo_inurba_marseille","lat":43.27377,"lon":5.36253,"is_reserved":false,"is_disabled":false,"rental_uris":{"android":"levelo://app?vid=a9aad6e5-9301-4dd7-8ae0-41ab0683b169","ios":"levelo://app?vid=a9aad6e5-9301-4dd7-8ae0-41ab0683b169"},"vehicle_type_id":"4","last_reported":1779456134,"current_range_meters":6400,"station_id":"ce4bhbh2rcd13ifvqeo0","pricing_plan_id":"cebpf4jnsgd1na2vs0mg"},{"bike_id":"faf69fd9-8d1f-4990-b367-e901957a44ba","system_id":"levelo_inurba_marseille","lat":43.28265,"lon":5.35074,"is_reserved":false,"is_disabled":false,"rental_uris":{"android":"levelo://app?vid=faf69fd9-8d1f-4990-b367-e901957a44ba","ios":"levelo://app?vid=faf69fd9-8d1f-4990-b367-e901957a44ba"},"vehicle_type_id":"4","last_reported":1779456134,"current_range_meters":6400,"station_id":"ce4bhbp2rcd13ifvqerg","pricing_plan_id":"cebpf4jnsgd1na2vs0mg"},{"bike_id":"e1e8d0c5-7cff-4a52-a548-b6f5342738ad","system_id":"levelo_inurba_marseille","lat":43.31345,"lon":5.36735,"is_reserved":false,"is_disabled":false,"rental_uris":{"android":"levelo://app?vid=e1e8d0c5-7cff-4a52-a548-b6f5342738ad","ios":"levelo://app?vid=e1e8d0c5-7cff-4a52-a548-b6f5342738ad"},"vehicle_type_id":"4","last_reported":1779456134,"current_range_meters":6400,"station_id":"ce4bgr92rcd13ifvqc6g","pricing_plan_id":"cebpf4jnsgd1na2vs0mg"},{"bike_id":"13922757-88fb-44b8-aa8a-f0fd96495b3a","system_id":"levelo_inurba_marseille","lat":43.282708,"lon":5.350681,"is_reserved":false,"is_disabled":false,"rental_uris":{"android":"levelo://app?vid=13922757-88fb-44b8-aa8a-f0fd96495b3a","ios":"levelo://app?vid=13922757-88fb-44b8-aa8a-f0fd96495b3a"},"vehicle_type_id":"4","last_reported":1779456134,"current_range_meters":6400,"station_id":"ce4bhbp2rcd13ifvqerg","pricing_plan_id":"cebpf4jnsgd1na2vs0mg"},{"bike_id":"481802dc-4e11-4793-b31f-d1ceb7371a2e","system_id":"levelo_inurba_marseille","lat":43.25955,"lon":5.40889,"is_reserved":false,"is_disabled":false,"rental_uris":{"android":"levelo://app?vid=481802dc-4e11-4793-b31f-d1ceb7371a2e","ios":"levelo://app?vid=481802dc-4e11-4793-b31f-d1ceb7371a2e"},"vehicle_type_id":"4","last_reported":1779456134,"current_range_meters":6400,"station_id":"ce4bhm92rcd13ifvqglg","pricing_plan_id":"cebpf4jnsgd1na2vs0mg"},{"bike_id":"5d370724-77a2-4752-996e-f01dda7a3379","system_id":"levelo_inurba_marseille","lat":43.22558,"lon":5.41637,"is_reserved":false,"is_disabled":false,"rental_uris":{"android":"levelo://app?vid=5d370724-77a2-4752-996e-f01dda7a3379","ios":"levelo://app?vid=5d370724-77a2-4752-996e-f01dda7a3379"},"vehicle_type_id":"4","last_reported":1779456134,"current_range_meters":6400,"station_id":"st_d2o4gvlbi1j2169b742g","pricing_plan_id":"cebpf4jnsgd1na2vs0mg"},{"bike_id":"103c3925-0fed-4670-8dde-c29c1ddbe606","system_id":"levelo_inurba_marseille","lat":43.246323,"lon":5.431301,"is_reserved":false,"is_disabled":false,"rental_uris":{"android":"levelo://app?vid=103c3925-0fed-4670-8dde-c29c1ddbe606","ios":"levelo://app?vid=103c3925-0fed-4670-8dde-c29c1ddbe606"},"vehicle_type_id":"4","last_reported":1779456134,"current_range_meters":6400,"station_id":"st_d2m6c4gdas8pm72e190g","pricing_plan_id":"cebpf4jnsgd1na2vs0mg"},{"bike_id":"875ff3ec-3d53-4289-87d8-004996e2dc85","system_id":"levelo_inurba_marseille","lat":43.292646,"lon":5.38435,"is_reserved":false,"is_disabled":false,"rental_uris":{"android":"levelo://app?vid=875ff3ec-3d53-4289-87d8-004996e2dc85","ios":"levelo://app?vid=875ff3ec-3d53-4289-87d8-004996e2dc85"},"vehicle_type_id":"4","last_reported":1779456134,"current_range_meters":6400,"station_id":"ce4bh692rcd13ifvqea0","pricing_plan_id":"cebpf4jnsgd1na2vs0mg"},{"bike_id":"ae975f6b-81ed-4cca-8225-94ccc87f7fdc","system_id":"levelo_inurba_marseille","lat":43.28263,"lon":5.3506,"is_reserved":false,"is_disabled":false,"rental_uris":{"android":"levelo://app?vid=ae975f6b-81ed-4cca-8225-94ccc87f7fdc","ios":"levelo://app?vid=ae975f6b-81ed-4cca-8225-94ccc87f7fdc"},"vehicle_type_id":"4","last_reported":1779456134,"current_range_meters":6400,"station_id":"ce4bhbp2rcd13ifvqerg","pricing_plan_id":"cebpf4jnsgd1na2vs0mg"},{"bike_id":"46364ddf-2627-464d-ae8e-cc6afbf1b421","system_id":"levelo_inurba_marseille","lat":43.31987,"lon":5.38164,"is_reserved":false,"is_disabled":false,"rental_uris":{"android":"levelo://app?vid=46364ddf-2627-464d-ae8e-cc6afbf1b421","ios":"levelo://app?vid=46364ddf-2627-464d-ae8e-cc6afbf1b421"},"vehicle_type_id":"4","last_reported":1779456134,"current_range_meters":6400,"station_id":"ce4bhr12rcd13ifvqhpg","pricing_plan_id":"cebpf4jnsgd1na2vs0mg"},{"bike_id":"b36f6250-7319-4924-8bcd-74f03836ee41","system_id":"levelo_inurba_marseille","lat":43.23958,"lon":5.36634,"is_reserved":false,"is_disabled":false,"rental_uris":{"android":"levelo://app?vid=b36f6250-7319-4924-8bcd-74f03836ee41","ios":"levelo://app?vid=b36f6250-7319-4924-8bcd-74f03836ee41"},"vehicle_type_id":"4","last_reported":1779456134,"current_range_meters":6800,"station_id":"ce4bhi12rcd13ifvqfp0","pricing_plan_id":"cebpf4jnsgd1na2vs0mg"},{"bike_id":"d6ef5181-9c65-4b14-a132-bd2560a893a3","system_id":"levelo_inurba_marseille","lat":43.25838,"lon":5.39443,"is_reserved":false,"is_disabled":false,"rental_uris":{"android":"levelo://app?vid=d6ef5181-9c65-4b14-a132-bd2560a893a3","ios":"levelo://app?vid=d6ef5181-9c65-4b14-a132-bd2560a893a3"},"vehicle_type_id":"4","last_reported":1779456134,"current_range_meters":6800,"station_id":"ce4bhip2rcd13ifvqft0","pricing_plan_id":"cebpf4jnsgd1na2vs0mg"},{"bike_id":"953377cf-ed60-4f2b-827e-5d32a60b75f9","system_id":"levelo_inurba_marseille","lat":43.28615,"lon":5.351,"is_reserved":false,"is_disabled":false,"rental_uris":{"android":"levelo://app?vid=953377cf-ed60-4f2b-827e-5d32a60b75f9","ios":"levelo://app?vid=953377cf-ed60-4f2b-827e-5d32a60b75f9"},"vehicle_type_id":"4","last_reported":1779456134,"current_range_meters":6800,"station_id":"ce4bhch2rcd13ifvqeug","pricing_plan_id":"cebpf4jnsgd1na2vs0mg"},{"bike_id":"59b216e9-455b-4019-afe1-1c7a7452bb2e","system_id":"levelo_inurba_marseille","lat":43.28037,"lon":5.36951,"is_reserved":false,"is_disabled":false,"rental_uris":{"android":"levelo://app?vid=59b216e9-455b-4019-afe1-1c7a7452bb2e","ios":"levelo://app?vid=59b216e9-455b-4019-afe1-1c7a7452bb2e"},"vehicle_type_id":"4","last_reported":1779456134,"current_range_meters":6800,"station_id":"ce4bha12rcd13ifvqef0","pricing_plan_id":"cebpf4jnsgd1na2vs0mg"},{"bike_id":"625e0753-dc06-48cf-b131-3e736e7cef28","system_id":"levelo_inurba_marseille","lat":43.28427,"lon":5.34985,"is_reserved":false,"is_disabled":false,"rental_uris":{"android":"levelo://app?vid=625e0753-dc06-48cf-b131-3e736e7cef28","ios":"levelo://app?vid=625e0753-dc06-48cf-b131-3e736e7cef28"},"vehicle_type_id":"4","last_reported":1779456134,"current_range_meters":6800,"station_id":"ce4bhbh2rcd13ifvqepg","pricing_plan_id":"cebpf4jnsgd1na2vs0mg"},{"bike_id":"97adb630-f78d-4ecb-a9ed-4aa1015f8c6d","system_id":"levelo_inurba_marseille","lat":43.2737,"lon":5.36255,"is_reserved":false,"is_disabled":false,"rental_uris":{"android":"levelo://app?vid=97adb630-f78d-4ecb-a9ed-4aa1015f8c6d","ios":"levelo://app?vid=97adb630-f78d-4ecb-a9ed-4aa1015f8c6d"},"vehicle_type_id":"4","last_reported":1779456134,"current_range_meters":6800,"station_id":"ce4bhbh2rcd13ifvqeo0","pricing_plan_id":"cebpf4jnsgd1na2vs0mg"},{"bike_id":"3200b978-002a-4bf0-9ea7-51cc9e75e711","system_id":"levelo_inurba_marseille","lat":43.2717,"lon":5.40999,"is_reserved":false,"is_disabled":false,"rental_uris":{"android":"levelo://app?vid=3200b978-002a-4bf0-9ea7-51cc9e75e711","ios":"levelo://app?vid=3200b978-002a-4bf0-9ea7-51cc9e75e711"},"vehicle_type_id":"4","last_reported":1779456134,"current_range_meters":6800,"station_id":"ce4bhl12rcd13ifvqgf0","pricing_plan_id":"cebpf4jnsgd1na2vs0mg"},{"bike_id":"ba7d2364-1a0a-42a9-97a3-dba2ea978fd9","system_id":"levelo_inurba_marseille","lat":43.30379,"lon":5.39342,"is_reserved":false,"is_disabled":false,"rental_uris":{"android":"levelo://app?vid=ba7d2364-1a0a-42a9-97a3-dba2ea978fd9","ios":"levelo://app?vid=ba7d2364-1a0a-42a9-97a3-dba2ea978fd9"},"vehicle_type_id":"4","last_reported":1779456134,"current_range_meters":6800,"station_id":"","pricing_plan_id":"cebpf4jnsgd1na2vs0mg"},{"bike_id":"12e3da84-7a57-40a9-bcf3-0e2e2b74806b","system_id":"levelo_inurba_marseille","lat":43.29966,"lon":5.38497,"is_reserved":false,"is_disabled":false,"rental_uris":{"android":"levelo://app?vid=12e3da84-7a57-40a9-bcf3-0e2e2b74806b","ios":"levelo://app?vid=12e3da84-7a57-40a9-bcf3-0e2e2b74806b"},"vehicle_type_id":"4","last_reported":1779456134,"current_range_meters":6800,"station_id":"ce4bgj92rcd13ifvqbd0","pricing_plan_id":"cebpf4jnsgd1na2vs0mg"},{"bike_id":"aa71664e-fae7-4d97-8515-ddae352558ad","system_id":"levelo_inurba_marseille","lat":43.29259,"lon":5.40152,"is_reserved":false,"is_disabled":true,"rental_uris":{"android":"levelo://app?vid=aa71664e-fae7-4d97-8515-ddae352558ad","ios":"levelo://app?vid=aa71664e-fae7-4d97-8515-ddae352558ad"},"vehicle_type_id":"4","last_reported":1779456134,"current_range_meters":6800,"station_id":"ce4bh312rcd13ifvqdk0","pricing_plan_id":"cebpf4jnsgd1na2vs0mg"},{"bike_id":"55ff971c-f753-4ef7-83e4-054f84d32949","system_id":"levelo_inurba_marseille","lat":43.2996,"lon":5.36648,"is_reserved":false,"is_disabled":true,"rental_uris":{"android":"levelo://app?vid=55ff971c-f753-4ef7-83e4-054f84d32949","ios":"levelo://app?vid=55ff971c-f753-4ef7-83e4-054f84d32949"},"vehicle_type_id":"4","last_reported":1779456134,"current_range_meters":6800,"station_id":"","pricing_plan_id":"cebpf4jnsgd1na2vs0mg"},{"bike_id":"c881b344-7fcb-4a99-869e-baebc0950842","system_id":"levelo_inurba_marseille","lat":43.30545,"lon":5.36559,"is_reserved":false,"is_disabled":false,"rental_uris":{"android":"levelo://app?vid=c881b344-7fcb-4a99-869e-baebc0950842","ios":"levelo://app?vid=c881b344-7fcb-4a99-869e-baebc0950842"},"vehicle_type_id":"4","last_reported":1779456134,"current_range_meters":6800,"station_id":"ce4bgs12rcd13ifvqcag","pricing_plan_id":"cebpf4jnsgd1na2vs0mg"},{"bike_id":"ad0ce0a0-b313-407e-b7d9-63b7147a0c85","system_id":"levelo_inurba_marseille","lat":43.24469,"lon":5.42518,"is_reserved":false,"is_disabled":false,"rental_uris":{"android":"levelo://app?vid=ad0ce0a0-b313-407e-b7d9-63b7147a0c85","ios":"levelo://app?vid=ad0ce0a0-b313-407e-b7d9-63b7147a0c85"},"vehicle_type_id":"4","last_reported":1779456134,"current_range_meters":6800,"station_id":"st_d4a3vfp97mjs738cd8kg","pricing_plan_id":"cebpf4jnsgd1na2vs0mg"},{"bike_id":"29f4756e-20ba-48af-83c2-b5be4ce60e4e","system_id":"levelo_inurba_marseille","lat":43.28423,"lon":5.34995,"is_reserved":false,"is_disabled":false,"rental_uris":{"android":"levelo://app?vid=29f4756e-20ba-48af-83c2-b5be4ce60e4e","ios":"levelo://app?vid=29f4756e-20ba-48af-83c2-b5be4ce60e4e"},"vehicle_type_id":"4","last_reported":1779456134,"current_range_meters":6800,"station_id":"ce4bhbh2rcd13ifvqepg","pricing_plan_id":"cebpf4jnsgd1na2vs0mg"},{"bike_id":"125c4d5b-9f0c-4f70-b053-7773cea0e270","system_id":"levelo_inurba_marseille","lat":43.28148,"lon":5.4373,"is_reserved":false,"is_disabled":false,"rental_uris":{"android":"levelo://app?vid=125c4d5b-9f0c-4f70-b053-7773cea0e270","ios":"levelo://app?vid=125c4d5b-9f0c-4f70-b053-7773cea0e270"},"vehicle_type_id":"4","last_reported":1779456134,"current_range_meters":6800,"station_id":"","pricing_plan_id":"cebpf4jnsgd1na2vs0mg"},{"bike_id":"ce1257fa-2ee4-4500-b86b-8956ada98213","system_id":"levelo_inurba_marseille","lat":43.30623,"lon":5.39273,"is_reserved":false,"is_disabled":true,"rental_uris":{"android":"levelo://app?vid=ce1257fa-2ee4-4500-b86b-8956ada98213","ios":"levelo://app?vid=ce1257fa-2ee4-4500-b86b-8956ada98213"},"vehicle_type_id":"4","last_reported":1779456134,"current_range_meters":6800,"station_id":"","pricing_plan_id":"cebpf4jnsgd1na2vs0mg"},{"bike_id":"b7619720-b120-4743-8909-e2ddb9c65bcf","system_id":"levelo_inurba_marseille","lat":43.27375,"lon":5.36262,"is_reserved":false,"is_disabled":true,"rental_uris":{"android":"levelo://app?vid=b7619720-b120-4743-8909-e2ddb9c65bcf","ios":"levelo://app?vid=b7619720-b120-4743-8909-e2ddb9c65bcf"},"vehicle_type_id":"4","last_reported":1779456134,"current_range_meters":6800,"station_id":"ce4bhbh2rcd13ifvqeo0","pricing_plan_id":"cebpf4jnsgd1na2vs0mg"},{"bike_id":"d2b427cc-e621-41b6-8025-cd1185a2f62a","system_id":"levelo_inurba_marseille","lat":43.26027,"lon":5.37565,"is_reserved":false,"is_disabled":false,"rental_uris":{"android":"levelo://app?vid=d2b427cc-e621-41b6-8025-cd1185a2f62a","ios":"levelo://app?vid=d2b427cc-e621-41b6-8025-cd1185a2f62a"},"vehicle_type_id":"4","last_reported":1779456134,"current_range_meters":6800,"station_id":"ce4bhgh2rcd13ifvqfa0","pricing_plan_id":"cebpf4jnsgd1na2vs0mg"},{"bike_id":"92f55a06-09e7-490e-aef6-78292570638c","system_id":"levelo_inurba_marseille","lat":43.23064,"lon":5.35493,"is_reserved":false,"is_disabled":false,"rental_uris":{"android":"levelo://app?vid=92f55a06-09e7-490e-aef6-78292570638c","ios":"levelo://app?vid=92f55a06-09e7-490e-aef6-78292570638c"},"vehicle_type_id":"4","last_reported":1779456134,"current_range_meters":7200,"station_id":"cpo3342slgdg3j2ifvpg","pricing_plan_id":"cebpf4jnsgd1na2vs0mg"},{"bike_id":"20f52871-1aed-4877-a3a3-cb10650ae58f","system_id":"levelo_inurba_marseille","lat":43.28401,"lon":5.35012,"is_reserved":false,"is_disabled":false,"rental_uris":{"android":"levelo://app?vid=20f52871-1aed-4877-a3a3-cb10650ae58f","ios":"levelo://app?vid=20f52871-1aed-4877-a3a3-cb10650ae58f"},"vehicle_type_id":"4","last_reported":1779456134,"current_range_meters":7200,"station_id":"ce4bhbh2rcd13ifvqepg","pricing_plan_id":"cebpf4jnsgd1na2vs0mg"},{"bike_id":"2d09449d-df92-4d3e-9412-ea34f0e8afc0","system_id":"levelo_inurba_marseille","lat":43.29652,"lon":5.38537,"is_reserved":false,"is_disabled":false,"rental_uris":{"android":"levelo://app?vid=2d09449d-df92-4d3e-9412-ea34f0e8afc0","ios":"levelo://app?vid=2d09449d-df92-4d3e-9412-ea34f0e8afc0"},"vehicle_type_id":"4","last_reported":1779456134,"current_range_meters":7200,"station_id":"","pricing_plan_id":"cebpf4jnsgd1na2vs0mg"},{"bike_id":"5cd16571-7e0f-4f01-8cf6-d8caba7f9ec5","system_id":"levelo_inurba_marseille","lat":43.28857,"lon":5.35865,"is_reserved":false,"is_disabled":false,"rental_uris":{"android":"levelo://app?vid=5cd16571-7e0f-4f01-8cf6-d8caba7f9ec5","ios":"levelo://app?vid=5cd16571-7e0f-4f01-8cf6-d8caba7f9ec5"},"vehicle_type_id":"4","last_reported":1779456134,"current_range_meters":7200,"station_id":"ce4bhb12rcd13ifvqem0","pricing_plan_id":"cebpf4jnsgd1na2vs0mg"},{"bike_id":"3b326105-ca6d-4f73-8cac-8527fdd59fa6","system_id":"levelo_inurba_marseille","lat":43.25001,"lon":5.38928,"is_reserved":false,"is_disabled":false,"rental_uris":{"android":"levelo://app?vid=3b326105-ca6d-4f73-8cac-8527fdd59fa6","ios":"levelo://app?vid=3b326105-ca6d-4f73-8cac-8527fdd59fa6"},"vehicle_type_id":"4","last_reported":1779456134,"current_range_meters":7200,"station_id":"ce4bhgp2rcd13ifvqfd0","pricing_plan_id":"cebpf4jnsgd1na2vs0mg"},{"bike_id":"cb84e21e-e5e9-4073-a80b-e7da79b542d0","system_id":"levelo_inurba_marseille","lat":43.21748,"lon":5.34598,"is_reserved":false,"is_disabled":false,"rental_uris":{"android":"levelo://app?vid=cb84e21e-e5e9-4073-a80b-e7da79b542d0","ios":"levelo://app?vid=cb84e21e-e5e9-4073-a80b-e7da79b542d0"},"vehicle_type_id":"4","last_reported":1779456134,"current_range_meters":7200,"station_id":"st_cvj6r9ubvosntc0bgbag","pricing_plan_id":"cebpf4jnsgd1na2vs0mg"},{"bike_id":"ca7bec4c-c9ce-4816-988f-528f79a7e440","system_id":"levelo_inurba_marseille","lat":43.32066,"lon":5.4158,"is_reserved":false,"is_disabled":false,"rental_uris":{"android":"levelo://app?vid=ca7bec4c-c9ce-4816-988f-528f79a7e440","ios":"levelo://app?vid=ca7bec4c-c9ce-4816-988f-528f79a7e440"},"vehicle_type_id":"4","last_reported":1779456134,"current_range_meters":7200,"station_id":"ce4bhq92rcd13ifvqhkg","pricing_plan_id":"cebpf4jnsgd1na2vs0mg"},{"bike_id":"0bb8cc03-1ffc-4d63-9aff-1e9985ec2a04","system_id":"levelo_inurba_marseille","lat":43.28627,"lon":5.39859,"is_reserved":false,"is_disabled":false,"rental_uris":{"android":"levelo://app?vid=0bb8cc03-1ffc-4d63-9aff-1e9985ec2a04","ios":"levelo://app?vid=0bb8cc03-1ffc-4d63-9aff-1e9985ec2a04"},"vehicle_type_id":"4","last_reported":1779456134,"current_range_meters":7200,"station_id":"st_d4a7ka997mjs738ck50g","pricing_plan_id":"cebpf4jnsgd1na2vs0mg"},{"bike_id":"73d45606-b65a-4973-a6d1-00a92f31b903","system_id":"levelo_inurba_marseille","lat":43.284018,"lon":5.349901,"is_reserved":false,"is_disabled":false,"rental_uris":{"android":"levelo://app?vid=73d45606-b65a-4973-a6d1-00a92f31b903","ios":"levelo://app?vid=73d45606-b65a-4973-a6d1-00a92f31b903"},"vehicle_type_id":"4","last_reported":1779456134,"current_range_meters":7200,"station_id":"ce4bhbh2rcd13ifvqepg","pricing_plan_id":"cebpf4jnsgd1na2vs0mg"},{"bike_id":"ef364bb2-36e2-403b-9eb4-c4cda8143e85","system_id":"levelo_inurba_marseille","lat":43.25514,"lon":5.37648,"is_reserved":false,"is_disabled":false,"rental_uris":{"android":"levelo://app?vid=ef364bb2-36e2-403b-9eb4-c4cda8143e85","ios":"levelo://app?vid=ef364bb2-36e2-403b-9eb4-c4cda8143e85"},"vehicle_type_id":"4","last_reported":1779456134,"current_range_meters":7200,"station_id":"ce4bhh12rcd13ifvqff0","pricing_plan_id":"cebpf4jnsgd1na2vs0mg"},{"bike_id":"0db8267b-0e02-4e40-9b69-4889ebb416f0","system_id":"levelo_inurba_marseille","lat":43.29571,"lon":5.37502,"is_reserved":false,"is_disabled":true,"rental_uris":{"android":"levelo://app?vid=0db8267b-0e02-4e40-9b69-4889ebb416f0","ios":"levelo://app?vid=0db8267b-0e02-4e40-9b69-4889ebb416f0"},"vehicle_type_id":"4","last_reported":1779456134,"current_range_meters":7200,"station_id":"ce4bgh92rcd13ifvqb50","pricing_plan_id":"cebpf4jnsgd1na2vs0mg"},{"bike_id":"f2fea1c2-4b61-43eb-8316-459751289416","system_id":"levelo_inurba_marseille","lat":43.32471,"lon":5.36564,"is_reserved":false,"is_disabled":false,"rental_uris":{"android":"levelo://app?vid=f2fea1c2-4b61-43eb-8316-459751289416","ios":"levelo://app?vid=f2fea1c2-4b61-43eb-8316-459751289416"},"vehicle_type_id":"4","last_reported":1779456134,"current_range_meters":7200,"station_id":"ce4bhs12rcd13ifvqhvg","pricing_plan_id":"cebpf4jnsgd1na2vs0mg"},{"bike_id":"49298afb-4ada-43ff-b9c1-ca31df8ddf4a","system_id":"levelo_inurba_marseille","lat":43.31066,"lon":5.37176,"is_reserved":false,"is_disabled":false,"rental_uris":{"android":"levelo://app?vid=49298afb-4ada-43ff-b9c1-ca31df8ddf4a","ios":"levelo://app?vid=49298afb-4ada-43ff-b9c1-ca31df8ddf4a"},"vehicle_type_id":"4","last_reported":1779456134,"current_range_meters":7200,"station_id":"st_d4kl2rp97mjs73e7tdfg","pricing_plan_id":"cebpf4jnsgd1na2vs0mg"},{"bike_id":"d89aab4f-9874-4fd6-8a64-ba02cf0591f6","system_id":"levelo_inurba_marseille","lat":43.28626,"lon":5.351,"is_reserved":false,"is_disabled":false,"rental_uris":{"android":"levelo://app?vid=d89aab4f-9874-4fd6-8a64-ba02cf0591f6","ios":"levelo://app?vid=d89aab4f-9874-4fd6-8a64-ba02cf0591f6"},"vehicle_type_id":"4","last_reported":1779456134,"current_range_meters":7200,"station_id":"ce4bhch2rcd13ifvqeug","pricing_plan_id":"cebpf4jnsgd1na2vs0mg"},{"bike_id":"57c9d37a-b107-4b04-b0cb-6e8f2540451f","system_id":"levelo_inurba_marseille","lat":43.27199,"lon":5.39225,"is_reserved":false,"is_disabled":false,"rental_uris":{"android":"levelo://app?vid=57c9d37a-b107-4b04-b0cb-6e8f2540451f","ios":"levelo://app?vid=57c9d37a-b107-4b04-b0cb-6e8f2540451f"},"vehicle_type_id":"4","last_reported":1779456134,"current_range_meters":7200,"station_id":"ce4bhhp2rcd13ifvqfm0","pricing_plan_id":"cebpf4jnsgd1na2vs0mg"},{"bike_id":"bebd2356-0495-4329-8fdf-8e772f51b0c2","system_id":"levelo_inurba_marseille","lat":43.24657,"lon":5.38161,"is_reserved":false,"is_disabled":false,"rental_uris":{"android":"levelo://app?vid=bebd2356-0495-4329-8fdf-8e772f51b0c2","ios":"levelo://app?vid=bebd2356-0495-4329-8fdf-8e772f51b0c2"},"vehicle_type_id":"4","last_reported":1779456134,"current_range_meters":7200,"station_id":"ce4bhih2rcd13ifvqfr0","pricing_plan_id":"cebpf4jnsgd1na2vs0mg"},{"bike_id":"b46e2f96-bb25-41b8-a262-209dc0c5d5b9","system_id":"levelo_inurba_marseille","lat":43.21738,"lon":5.34614,"is_reserved":false,"is_disabled":false,"rental_uris":{"android":"levelo://app?vid=b46e2f96-bb25-41b8-a262-209dc0c5d5b9","ios":"levelo://app?vid=b46e2f96-bb25-41b8-a262-209dc0c5d5b9"},"vehicle_type_id":"4","last_reported":1779456134,"current_range_meters":7200,"station_id":"st_cvj6r9ubvosntc0bgbag","pricing_plan_id":"cebpf4jnsgd1na2vs0mg"},{"bike_id":"0f16c6ef-3523-4835-aff3-fda3a70c1fcb","system_id":"levelo_inurba_marseille","lat":43.30149,"lon":5.37412,"is_reserved":false,"is_disabled":false,"rental_uris":{"android":"levelo://app?vid=0f16c6ef-3523-4835-aff3-fda3a70c1fcb","ios":"levelo://app?vid=0f16c6ef-3523-4835-aff3-fda3a70c1fcb"},"vehicle_type_id":"4","last_reported":1779456134,"current_range_meters":7200,"station_id":"ce4bgs92rcd13ifvqcc0","pricing_plan_id":"cebpf4jnsgd1na2vs0mg"},{"bike_id":"5aaa8b46-ca47-4e55-8d11-4d108656f935","system_id":"levelo_inurba_marseille","lat":43.32849,"lon":5.40687,"is_reserved":false,"is_disabled":false,"rental_uris":{"android":"levelo://app?vid=5aaa8b46-ca47-4e55-8d11-4d108656f935","ios":"levelo://app?vid=5aaa8b46-ca47-4e55-8d11-4d108656f935"},"vehicle_type_id":"4","last_reported":1779456134,"current_range_meters":7200,"station_id":"","pricing_plan_id":"cebpf4jnsgd1na2vs0mg"},{"bike_id":"5ad2885c-5fb5-455f-b4ce-172caf5a4cb9","system_id":"levelo_inurba_marseille","lat":43.2762,"lon":5.36106,"is_reserved":false,"is_disabled":false,"rental_uris":{"android":"levelo://app?vid=5ad2885c-5fb5-455f-b4ce-172caf5a4cb9","ios":"levelo://app?vid=5ad2885c-5fb5-455f-b4ce-172caf5a4cb9"},"vehicle_type_id":"4","last_reported":1779456134,"current_range_meters":7200,"station_id":"ce4bgj92rcd13ifvqbe0","pricing_plan_id":"cebpf4jnsgd1na2vs0mg"},{"bike_id":"fe83777f-107d-4a3b-8221-ce74ab8df4fd","system_id":"levelo_inurba_marseille","lat":43.31365,"lon":5.38498,"is_reserved":false,"is_disabled":false,"rental_uris":{"android":"levelo://app?vid=fe83777f-107d-4a3b-8221-ce74ab8df4fd","ios":"levelo://app?vid=fe83777f-107d-4a3b-8221-ce74ab8df4fd"},"vehicle_type_id":"4","last_reported":1779456134,"current_range_meters":7200,"station_id":"ce4bgt92rcd13ifvqcf0","pricing_plan_id":"cebpf4jnsgd1na2vs0mg"},{"bike_id":"c6da57f1-0bfa-4760-a4b0-7b7a16ec212f","system_id":"levelo_inurba_marseille","lat":43.31693,"lon":5.40475,"is_reserved":false,"is_disabled":false,"rental_uris":{"android":"levelo://app?vid=c6da57f1-0bfa-4760-a4b0-7b7a16ec212f","ios":"levelo://app?vid=c6da57f1-0bfa-4760-a4b0-7b7a16ec212f"},"vehicle_type_id":"4","last_reported":1779456134,"current_range_meters":7200,"station_id":"ce4bh012rcd13ifvqd00","pricing_plan_id":"cebpf4jnsgd1na2vs0mg"},{"bike_id":"1fe157a2-86e6-4f43-b60c-518b94449e4c","system_id":"levelo_inurba_marseille","lat":43.28266,"lon":5.35074,"is_reserved":false,"is_disabled":false,"rental_uris":{"android":"levelo://app?vid=1fe157a2-86e6-4f43-b60c-518b94449e4c","ios":"levelo://app?vid=1fe157a2-86e6-4f43-b60c-518b94449e4c"},"vehicle_type_id":"4","last_reported":1779456134,"current_range_meters":7200,"station_id":"ce4bhbp2rcd13ifvqerg","pricing_plan_id":"cebpf4jnsgd1na2vs0mg"},{"bike_id":"ca5b8b13-5373-4377-b925-1d87c55b34ee","system_id":"levelo_inurba_marseille","lat":43.2738,"lon":5.36265,"is_reserved":false,"is_disabled":false,"rental_uris":{"android":"levelo://app?vid=ca5b8b13-5373-4377-b925-1d87c55b34ee","ios":"levelo://app?vid=ca5b8b13-5373-4377-b925-1d87c55b34ee"},"vehicle_type_id":"4","last_reported":1779456134,"current_range_meters":8000,"station_id":"ce4bhbh2rcd13ifvqeo0","pricing_plan_id":"cebpf4jnsgd1na2vs0mg"},{"bike_id":"f67ee4e9-b66d-42eb-bd7c-cfe630778221","system_id":"levelo_inurba_marseille","lat":43.21746,"lon":5.34607,"is_reserved":false,"is_disabled":false,"rental_uris":{"android":"levelo://app?vid=f67ee4e9-b66d-42eb-bd7c-cfe630778221","ios":"levelo://app?vid=f67ee4e9-b66d-42eb-bd7c-cfe630778221"},"vehicle_type_id":"4","last_reported":1779456134,"current_range_meters":8000,"station_id":"st_cvj6r9ubvosntc0bgbag","pricing_plan_id":"cebpf4jnsgd1na2vs0mg"},{"bike_id":"919c87d0-eac0-4861-808b-9ce0e3f86fe7","system_id":"levelo_inurba_marseille","lat":43.2315,"lon":5.43717,"is_reserved":false,"is_disabled":false,"rental_uris":{"android":"levelo://app?vid=919c87d0-eac0-4861-808b-9ce0e3f86fe7","ios":"levelo://app?vid=919c87d0-eac0-4861-808b-9ce0e3f86fe7"},"vehicle_type_id":"4","last_reported":1779456134,"current_range_meters":8000,"station_id":"ce4bhmp2rcd13ifvqgog","pricing_plan_id":"cebpf4jnsgd1na2vs0mg"},{"bike_id":"60026c6b-f225-466b-bd3f-3103775685c7","system_id":"levelo_inurba_marseille","lat":43.31329,"lon":5.36815,"is_reserved":false,"is_disabled":false,"rental_uris":{"android":"levelo://app?vid=60026c6b-f225-466b-bd3f-3103775685c7","ios":"levelo://app?vid=60026c6b-f225-466b-bd3f-3103775685c7"},"vehicle_type_id":"4","last_reported":1779456134,"current_range_meters":8000,"station_id":"ce4bgr92rcd13ifvqc6g","pricing_plan_id":"cebpf4jnsgd1na2vs0mg"},{"bike_id":"21365cae-86d6-4d77-a777-80caf46a8b04","system_id":"levelo_inurba_marseille","lat":43.33769,"lon":5.37485,"is_reserved":false,"is_disabled":false,"rental_uris":{"android":"levelo://app?vid=21365cae-86d6-4d77-a777-80caf46a8b04","ios":"levelo://app?vid=21365cae-86d6-4d77-a777-80caf46a8b04"},"vehicle_type_id":"4","last_reported":1779456134,"current_range_meters":8000,"station_id":"st_d46tts09ee8s73dlu43g","pricing_plan_id":"cebpf4jnsgd1na2vs0mg"},{"bike_id":"f4c0b23e-43a3-4715-8696-99bddc13e830","system_id":"levelo_inurba_marseille","lat":43.30822,"lon":5.44595,"is_reserved":false,"is_disabled":false,"rental_uris":{"android":"levelo://app?vid=f4c0b23e-43a3-4715-8696-99bddc13e830","ios":"levelo://app?vid=f4c0b23e-43a3-4715-8696-99bddc13e830"},"vehicle_type_id":"4","last_reported":1779456134,"current_range_meters":8000,"station_id":"","pricing_plan_id":"cebpf4jnsgd1na2vs0mg"},{"bike_id":"e5765682-87e3-4649-97f1-cbe838483508","system_id":"levelo_inurba_marseille","lat":43.32088,"lon":5.36805,"is_reserved":false,"is_disabled":false,"rental_uris":{"android":"levelo://app?vid=e5765682-87e3-4649-97f1-cbe838483508","ios":"levelo://app?vid=e5765682-87e3-4649-97f1-cbe838483508"},"vehicle_type_id":"4","last_reported":1779456134,"current_range_meters":8000,"station_id":"ce4bhrh2rcd13ifvqhug","pricing_plan_id":"cebpf4jnsgd1na2vs0mg"},{"bike_id":"a24c5b9c-25e5-4872-8a32-16bb1a08adbe","system_id":"levelo_inurba_marseille","lat":43.31235,"lon":5.36852,"is_reserved":false,"is_disabled":false,"rental_uris":{"android":"levelo://app?vid=a24c5b9c-25e5-4872-8a32-16bb1a08adbe","ios":"levelo://app?vid=a24c5b9c-25e5-4872-8a32-16bb1a08adbe"},"vehicle_type_id":"4","last_reported":1779456134,"current_range_meters":8000,"station_id":"ce4bgl92rcd13ifvqbq0","pricing_plan_id":"cebpf4jnsgd1na2vs0mg"},{"bike_id":"045e4822-5497-4b31-a1db-53aad98941e8","system_id":"levelo_inurba_marseille","lat":43.21207,"lon":5.35088,"is_reserved":false,"is_disabled":false,"rental_uris":{"android":"levelo://app?vid=045e4822-5497-4b31-a1db-53aad98941e8","ios":"levelo://app?vid=045e4822-5497-4b31-a1db-53aad98941e8"},"vehicle_type_id":"4","last_reported":1779456134,"current_range_meters":8000,"station_id":"st_cvj6sg6p6f1abm77japg","pricing_plan_id":"cebpf4jnsgd1na2vs0mg"},{"bike_id":"2708edba-5810-4e5d-911f-6bc6855ec29e","system_id":"levelo_inurba_marseille","lat":43.29272,"lon":5.38447,"is_reserved":false,"is_disabled":false,"rental_uris":{"android":"levelo://app?vid=2708edba-5810-4e5d-911f-6bc6855ec29e","ios":"levelo://app?vid=2708edba-5810-4e5d-911f-6bc6855ec29e"},"vehicle_type_id":"4","last_reported":1779456134,"current_range_meters":8000,"station_id":"ce4bh692rcd13ifvqea0","pricing_plan_id":"cebpf4jnsgd1na2vs0mg"},{"bike_id":"1d7e53c3-5647-49f3-90a6-9cbce8773ec2","system_id":"levelo_inurba_marseille","lat":43.29843,"lon":5.36251,"is_reserved":false,"is_disabled":false,"rental_uris":{"android":"levelo://app?vid=1d7e53c3-5647-49f3-90a6-9cbce8773ec2","ios":"levelo://app?vid=1d7e53c3-5647-49f3-90a6-9cbce8773ec2"},"vehicle_type_id":"4","last_reported":1779456134,"current_range_meters":8000,"station_id":"ce4bgpp2rcd13ifvqc3g","pricing_plan_id":"cebpf4jnsgd1na2vs0mg"},{"bike_id":"a20eaa18-f3be-43da-b8ae-f632ffd24038","system_id":"levelo_inurba_marseille","lat":43.32483,"lon":5.36555,"is_reserved":false,"is_disabled":false,"rental_uris":{"android":"levelo://app?vid=a20eaa18-f3be-43da-b8ae-f632ffd24038","ios":"levelo://app?vid=a20eaa18-f3be-43da-b8ae-f632ffd24038"},"vehicle_type_id":"4","last_reported":1779456134,"current_range_meters":8000,"station_id":"ce4bhs12rcd13ifvqhvg","pricing_plan_id":"cebpf4jnsgd1na2vs0mg"},{"bike_id":"2aa43b8a-e8a0-4968-87ae-d3fd74283d5c","system_id":"levelo_inurba_marseille","lat":43.30469,"lon":5.37897,"is_reserved":false,"is_disabled":false,"rental_uris":{"android":"levelo://app?vid=2aa43b8a-e8a0-4968-87ae-d3fd74283d5c","ios":"levelo://app?vid=2aa43b8a-e8a0-4968-87ae-d3fd74283d5c"},"vehicle_type_id":"4","last_reported":1779456134,"current_range_meters":8000,"station_id":"ce4bgup2rcd13ifvqcn0","pricing_plan_id":"cebpf4jnsgd1na2vs0mg"},{"bike_id":"63957890-f99a-4815-91d1-915110d3fc6a","system_id":"levelo_inurba_marseille","lat":43.24643,"lon":5.38898,"is_reserved":false,"is_disabled":false,"rental_uris":{"android":"levelo://app?vid=63957890-f99a-4815-91d1-915110d3fc6a","ios":"levelo://app?vid=63957890-f99a-4815-91d1-915110d3fc6a"},"vehicle_type_id":"4","last_reported":1779456134,"current_range_meters":8000,"station_id":"ce4bhg12rcd13ifvqf60","pricing_plan_id":"cebpf4jnsgd1na2vs0mg"},{"bike_id":"999c6034-2b26-4387-b10e-876eb416f9e2","system_id":"levelo_inurba_marseille","lat":43.28316,"lon":5.38541,"is_reserved":false,"is_disabled":false,"rental_uris":{"android":"levelo://app?vid=999c6034-2b26-4387-b10e-876eb416f9e2","ios":"levelo://app?vid=999c6034-2b26-4387-b10e-876eb416f9e2"},"vehicle_type_id":"4","last_reported":1779456134,"current_range_meters":8000,"station_id":"","pricing_plan_id":"cebpf4jnsgd1na2vs0mg"},{"bike_id":"898345a5-015f-4e7c-abad-d69e931303cd","system_id":"levelo_inurba_marseille","lat":43.30594,"lon":5.3658,"is_reserved":false,"is_disabled":false,"rental_uris":{"android":"levelo://app?vid=898345a5-015f-4e7c-abad-d69e931303cd","ios":"levelo://app?vid=898345a5-015f-4e7c-abad-d69e931303cd"},"vehicle_type_id":"4","last_reported":1779456134,"current_range_meters":8000,"station_id":"ce4bgs12rcd13ifvqcag","pricing_plan_id":"cebpf4jnsgd1na2vs0mg"},{"bike_id":"82f0a035-996b-4f5b-9a27-6a94e6d4356f","system_id":"levelo_inurba_marseille","lat":43.21729,"lon":5.346,"is_reserved":false,"is_disabled":false,"rental_uris":{"android":"levelo://app?vid=82f0a035-996b-4f5b-9a27-6a94e6d4356f","ios":"levelo://app?vid=82f0a035-996b-4f5b-9a27-6a94e6d4356f"},"vehicle_type_id":"4","last_reported":1779456134,"current_range_meters":8000,"station_id":"st_cvj6r9ubvosntc0bgbag","pricing_plan_id":"cebpf4jnsgd1na2vs0mg"},{"bike_id":"6a94ba67-44c6-4208-b305-a9f0a5c4db3e","system_id":"levelo_inurba_marseille","lat":43.22565,"lon":5.41648,"is_reserved":false,"is_disabled":false,"rental_uris":{"android":"levelo://app?vid=6a94ba67-44c6-4208-b305-a9f0a5c4db3e","ios":"levelo://app?vid=6a94ba67-44c6-4208-b305-a9f0a5c4db3e"},"vehicle_type_id":"4","last_reported":1779456134,"current_range_meters":8000,"station_id":"st_d2o4gvlbi1j2169b742g","pricing_plan_id":"cebpf4jnsgd1na2vs0mg"},{"bike_id":"07cc4e86-47fd-4ca6-8e9c-f76a2251e1b2","system_id":"levelo_inurba_marseille","lat":43.24679,"lon":5.38202,"is_reserved":false,"is_disabled":false,"rental_uris":{"android":"levelo://app?vid=07cc4e86-47fd-4ca6-8e9c-f76a2251e1b2","ios":"levelo://app?vid=07cc4e86-47fd-4ca6-8e9c-f76a2251e1b2"},"vehicle_type_id":"4","last_reported":1779456134,"current_range_meters":8000,"station_id":"ce4bhih2rcd13ifvqfr0","pricing_plan_id":"cebpf4jnsgd1na2vs0mg"},{"bike_id":"29f177f7-be7f-4da8-8bcc-664e10bce6bf","system_id":"levelo_inurba_marseille","lat":43.28522,"lon":5.44201,"is_reserved":false,"is_disabled":false,"rental_uris":{"android":"levelo://app?vid=29f177f7-be7f-4da8-8bcc-664e10bce6bf","ios":"levelo://app?vid=29f177f7-be7f-4da8-8bcc-664e10bce6bf"},"vehicle_type_id":"4","last_reported":1779456134,"current_range_meters":8000,"station_id":"","pricing_plan_id":"cebpf4jnsgd1na2vs0mg"},{"bike_id":"a468becb-cfcc-4425-88fd-08f2a5a23757","system_id":"levelo_inurba_marseille","lat":43.29288,"lon":5.36854,"is_reserved":false,"is_disabled":false,"rental_uris":{"android":"levelo://app?vid=a468becb-cfcc-4425-88fd-08f2a5a23757","ios":"levelo://app?vid=a468becb-cfcc-4425-88fd-08f2a5a23757"},"vehicle_type_id":"4","last_reported":1779456134,"current_range_meters":8000,"station_id":"ce4bhbp2rcd13ifvqesg","pricing_plan_id":"cebpf4jnsgd1na2vs0mg"},{"bike_id":"6babd666-d498-4765-a0a1-157d25e5ada8","system_id":"levelo_inurba_marseille","lat":43.322923,"lon":5.382707,"is_reserved":false,"is_disabled":false,"rental_uris":{"android":"levelo://app?vid=6babd666-d498-4765-a0a1-157d25e5ada8","ios":"levelo://app?vid=6babd666-d498-4765-a0a1-157d25e5ada8"},"vehicle_type_id":"4","last_reported":1779456134,"current_range_meters":8000,"station_id":"ce4bhr12rcd13ifvqhqg","pricing_plan_id":"cebpf4jnsgd1na2vs0mg"},{"bike_id":"6a6d3f54-af1d-48a4-be79-d66db79424e4","system_id":"levelo_inurba_marseille","lat":43.27365,"lon":5.3625,"is_reserved":false,"is_disabled":false,"rental_uris":{"android":"levelo://app?vid=6a6d3f54-af1d-48a4-be79-d66db79424e4","ios":"levelo://app?vid=6a6d3f54-af1d-48a4-be79-d66db79424e4"},"vehicle_type_id":"4","last_reported":1779456134,"current_range_meters":8000,"station_id":"ce4bhbh2rcd13ifvqeo0","pricing_plan_id":"cebpf4jnsgd1na2vs0mg"},{"bike_id":"61bde6ab-d6ba-4c8e-be82-3a92f93e7178","system_id":"levelo_inurba_marseille","lat":43.30523,"lon":5.36546,"is_reserved":false,"is_disabled":false,"rental_uris":{"android":"levelo://app?vid=61bde6ab-d6ba-4c8e-be82-3a92f93e7178","ios":"levelo://app?vid=61bde6ab-d6ba-4c8e-be82-3a92f93e7178"},"vehicle_type_id":"4","last_reported":1779456134,"current_range_meters":8000,"station_id":"ce4bgs12rcd13ifvqcag","pricing_plan_id":"cebpf4jnsgd1na2vs0mg"},{"bike_id":"d5eda5a5-d90a-45de-80f4-f6fbaa81efd9","system_id":"levelo_inurba_marseille","lat":43.28639,"lon":5.35076,"is_reserved":false,"is_disabled":false,"rental_uris":{"android":"levelo://app?vid=d5eda5a5-d90a-45de-80f4-f6fbaa81efd9","ios":"levelo://app?vid=d5eda5a5-d90a-45de-80f4-f6fbaa81efd9"},"vehicle_type_id":"4","last_reported":1779456134,"current_range_meters":8000,"station_id":"ce4bhch2rcd13ifvqeug","pricing_plan_id":"cebpf4jnsgd1na2vs0mg"},{"bike_id":"bf06fd41-4727-44a7-98d4-739b4acee508","system_id":"levelo_inurba_marseille","lat":43.24652,"lon":5.38905,"is_reserved":false,"is_disabled":false,"rental_uris":{"android":"levelo://app?vid=bf06fd41-4727-44a7-98d4-739b4acee508","ios":"levelo://app?vid=bf06fd41-4727-44a7-98d4-739b4acee508"},"vehicle_type_id":"4","last_reported":1779456134,"current_range_meters":8000,"station_id":"ce4bhg12rcd13ifvqf60","pricing_plan_id":"cebpf4jnsgd1na2vs0mg"},{"bike_id":"9e8372f6-93f6-4e0c-bb55-c5d396d6b6aa","system_id":"levelo_inurba_marseille","lat":43.28262,"lon":5.35075,"is_reserved":false,"is_disabled":false,"rental_uris":{"android":"levelo://app?vid=9e8372f6-93f6-4e0c-bb55-c5d396d6b6aa","ios":"levelo://app?vid=9e8372f6-93f6-4e0c-bb55-c5d396d6b6aa"},"vehicle_type_id":"4","last_reported":1779456134,"current_range_meters":8000,"station_id":"ce4bhbp2rcd13ifvqerg","pricing_plan_id":"cebpf4jnsgd1na2vs0mg"},{"bike_id":"177012eb-8e30-432a-98c7-705bd4291719","system_id":"levelo_inurba_marseille","lat":43.2361,"lon":5.37499,"is_reserved":false,"is_disabled":false,"rental_uris":{"android":"levelo://app?vid=177012eb-8e30-432a-98c7-705bd4291719","ios":"levelo://app?vid=177012eb-8e30-432a-98c7-705bd4291719"},"vehicle_type_id":"4","last_reported":1779456134,"current_range_meters":8000,"station_id":"","pricing_plan_id":"cebpf4jnsgd1na2vs0mg"},{"bike_id":"e8bd13bf-3fca-4f3b-89e4-0674a7d02d62","system_id":"levelo_inurba_marseille","lat":43.29955,"lon":5.37744,"is_reserved":false,"is_disabled":false,"rental_uris":{"android":"levelo://app?vid=e8bd13bf-3fca-4f3b-89e4-0674a7d02d62","ios":"levelo://app?vid=e8bd13bf-3fca-4f3b-89e4-0674a7d02d62"},"vehicle_type_id":"4","last_reported":1779456134,"current_range_meters":8400,"station_id":"","pricing_plan_id":"cebpf4jnsgd1na2vs0mg"},{"bike_id":"475f771e-e1c2-4934-bf49-10c1080ab60b","system_id":"levelo_inurba_marseille","lat":43.28704,"lon":5.37948,"is_reserved":false,"is_disabled":false,"rental_uris":{"android":"levelo://app?vid=475f771e-e1c2-4934-bf49-10c1080ab60b","ios":"levelo://app?vid=475f771e-e1c2-4934-bf49-10c1080ab60b"},"vehicle_type_id":"4","last_reported":1779456134,"current_range_meters":8400,"station_id":"ce4bh9p2rcd13ifvqec0","pricing_plan_id":"cebpf4jnsgd1na2vs0mg"},{"bike_id":"d826d078-01fe-46b7-9f62-3cc6b1f7c488","system_id":"levelo_inurba_marseille","lat":43.29604,"lon":5.3773,"is_reserved":false,"is_disabled":false,"rental_uris":{"android":"levelo://app?vid=d826d078-01fe-46b7-9f62-3cc6b1f7c488","ios":"levelo://app?vid=d826d078-01fe-46b7-9f62-3cc6b1f7c488"},"vehicle_type_id":"4","last_reported":1779456134,"current_range_meters":8400,"station_id":"ce4bgi92rcd13ifvqb90","pricing_plan_id":"cebpf4jnsgd1na2vs0mg"},{"bike_id":"b136b22c-bd11-4f33-ac25-6cd5883b144e","system_id":"levelo_inurba_marseille","lat":43.28533,"lon":5.44083,"is_reserved":false,"is_disabled":false,"rental_uris":{"android":"levelo://app?vid=b136b22c-bd11-4f33-ac25-6cd5883b144e","ios":"levelo://app?vid=b136b22c-bd11-4f33-ac25-6cd5883b144e"},"vehicle_type_id":"4","last_reported":1779456134,"current_range_meters":8400,"station_id":"st_d3j3df2ikq2c7380ej80","pricing_plan_id":"cebpf4jnsgd1na2vs0mg"},{"bike_id":"edff7636-41ba-4730-8a00-87a5deb09e3e","system_id":"levelo_inurba_marseille","lat":43.27894,"lon":5.35363,"is_reserved":false,"is_disabled":false,"rental_uris":{"android":"levelo://app?vid=edff7636-41ba-4730-8a00-87a5deb09e3e","ios":"levelo://app?vid=edff7636-41ba-4730-8a00-87a5deb09e3e"},"vehicle_type_id":"4","last_reported":1779456134,"current_range_meters":8400,"station_id":"","pricing_plan_id":"cebpf4jnsgd1na2vs0mg"},{"bike_id":"16b1b0f8-7caf-4c68-a1b4-9b10a7e439cd","system_id":"levelo_inurba_marseille","lat":43.23195,"lon":5.35544,"is_reserved":false,"is_disabled":false,"rental_uris":{"android":"levelo://app?vid=16b1b0f8-7caf-4c68-a1b4-9b10a7e439cd","ios":"levelo://app?vid=16b1b0f8-7caf-4c68-a1b4-9b10a7e439cd"},"vehicle_type_id":"4","last_reported":1779456134,"current_range_meters":8400,"station_id":"ce4bhu92rcd13ifvqi70","pricing_plan_id":"cebpf4jnsgd1na2vs0mg"},{"bike_id":"b9b84d59-7f7c-47a0-b2b8-055f7224abba","system_id":"levelo_inurba_marseille","lat":43.26953,"lon":5.38624,"is_reserved":false,"is_disabled":false,"rental_uris":{"android":"levelo://app?vid=b9b84d59-7f7c-47a0-b2b8-055f7224abba","ios":"levelo://app?vid=b9b84d59-7f7c-47a0-b2b8-055f7224abba"},"vehicle_type_id":"4","last_reported":1779456134,"current_range_meters":8400,"station_id":"ce4bhh92rcd13ifvqfh0","pricing_plan_id":"cebpf4jnsgd1na2vs0mg"},{"bike_id":"fd3252a5-43fb-47a3-9b5e-54bf741f2959","system_id":"levelo_inurba_marseille","lat":43.28409,"lon":5.34979,"is_reserved":false,"is_disabled":false,"rental_uris":{"android":"levelo://app?vid=fd3252a5-43fb-47a3-9b5e-54bf741f2959","ios":"levelo://app?vid=fd3252a5-43fb-47a3-9b5e-54bf741f2959"},"vehicle_type_id":"4","last_reported":1779456134,"current_range_meters":8400,"station_id":"ce4bhbh2rcd13ifvqepg","pricing_plan_id":"cebpf4jnsgd1na2vs0mg"},{"bike_id":"a105cebf-ef17-4553-9cb3-c23d748c8407","system_id":"levelo_inurba_marseille","lat":43.293693,"lon":5.378492,"is_reserved":false,"is_disabled":false,"rental_uris":{"android":"levelo://app?vid=a105cebf-ef17-4553-9cb3-c23d748c8407","ios":"levelo://app?vid=a105cebf-ef17-4553-9cb3-c23d748c8407"},"vehicle_type_id":"4","last_reported":1779456134,"current_range_meters":8400,"station_id":"ce4bgjh2rcd13ifvqbf0","pricing_plan_id":"cebpf4jnsgd1na2vs0mg"},{"bike_id":"999d3ebd-e3d7-4530-b990-3ec06b375240","system_id":"levelo_inurba_marseille","lat":43.28096,"lon":5.37892,"is_reserved":false,"is_disabled":true,"rental_uris":{"android":"levelo://app?vid=999d3ebd-e3d7-4530-b990-3ec06b375240","ios":"levelo://app?vid=999d3ebd-e3d7-4530-b990-3ec06b375240"},"vehicle_type_id":"4","last_reported":1779456134,"current_range_meters":8400,"station_id":"ce4bha12rcd13ifvqee0","pricing_plan_id":"cebpf4jnsgd1na2vs0mg"},{"bike_id":"502bbb8d-5b2a-4776-ab1b-be77f837fd65","system_id":"levelo_inurba_marseille","lat":43.29936,"lon":5.36543,"is_reserved":false,"is_disabled":false,"rental_uris":{"android":"levelo://app?vid=502bbb8d-5b2a-4776-ab1b-be77f837fd65","ios":"levelo://app?vid=502bbb8d-5b2a-4776-ab1b-be77f837fd65"},"vehicle_type_id":"4","last_reported":1779456134,"current_range_meters":8400,"station_id":"ce4bgm92rcd13ifvqbr0","pricing_plan_id":"cebpf4jnsgd1na2vs0mg"},{"bike_id":"e4c94e47-39a0-43c1-ab5f-0515505a0edd","system_id":"levelo_inurba_marseille","lat":43.29419,"lon":5.41307,"is_reserved":false,"is_disabled":false,"rental_uris":{"android":"levelo://app?vid=e4c94e47-39a0-43c1-ab5f-0515505a0edd","ios":"levelo://app?vid=e4c94e47-39a0-43c1-ab5f-0515505a0edd"},"vehicle_type_id":"4","last_reported":1779456134,"current_range_meters":8400,"station_id":"","pricing_plan_id":"cebpf4jnsgd1na2vs0mg"},{"bike_id":"e4de3b3b-d2e6-4c2a-adc3-6834ab3c7631","system_id":"levelo_inurba_marseille","lat":43.28644,"lon":5.40461,"is_reserved":false,"is_disabled":false,"rental_uris":{"android":"levelo://app?vid=e4de3b3b-d2e6-4c2a-adc3-6834ab3c7631","ios":"levelo://app?vid=e4de3b3b-d2e6-4c2a-adc3-6834ab3c7631"},"vehicle_type_id":"4","last_reported":1779456134,"current_range_meters":8400,"station_id":"","pricing_plan_id":"cebpf4jnsgd1na2vs0mg"},{"bike_id":"2adb1e63-7233-45fb-a003-16f29b731de4","system_id":"levelo_inurba_marseille","lat":43.29013,"lon":5.35628,"is_reserved":false,"is_disabled":false,"rental_uris":{"android":"levelo://app?vid=2adb1e63-7233-45fb-a003-16f29b731de4","ios":"levelo://app?vid=2adb1e63-7233-45fb-a003-16f29b731de4"},"vehicle_type_id":"4","last_reported":1779456134,"current_range_meters":8400,"station_id":"ce4bhb92rcd13ifvqen0","pricing_plan_id":"cebpf4jnsgd1na2vs0mg"},{"bike_id":"7ab5e013-a207-45a6-b8e2-c7ec0febd104","system_id":"levelo_inurba_marseille","lat":43.30933,"lon":5.40146,"is_reserved":false,"is_disabled":false,"rental_uris":{"android":"levelo://app?vid=7ab5e013-a207-45a6-b8e2-c7ec0febd104","ios":"levelo://app?vid=7ab5e013-a207-45a6-b8e2-c7ec0febd104"},"vehicle_type_id":"4","last_reported":1779456134,"current_range_meters":8400,"station_id":"ce4bgvp2rcd13ifvqct0","pricing_plan_id":"cebpf4jnsgd1na2vs0mg"},{"bike_id":"2cede324-d456-4558-ac0a-2a84941d7b49","system_id":"levelo_inurba_marseille","lat":43.26557,"lon":5.39026,"is_reserved":false,"is_disabled":false,"rental_uris":{"android":"levelo://app?vid=2cede324-d456-4558-ac0a-2a84941d7b49","ios":"levelo://app?vid=2cede324-d456-4558-ac0a-2a84941d7b49"},"vehicle_type_id":"4","last_reported":1779456134,"current_range_meters":8400,"station_id":"ce4bhe12rcd13ifvqf30","pricing_plan_id":"cebpf4jnsgd1na2vs0mg"},{"bike_id":"caff8efd-f900-43b2-b438-664f06709cc9","system_id":"levelo_inurba_marseille","lat":43.23162,"lon":5.43715,"is_reserved":false,"is_disabled":false,"rental_uris":{"android":"levelo://app?vid=caff8efd-f900-43b2-b438-664f06709cc9","ios":"levelo://app?vid=caff8efd-f900-43b2-b438-664f06709cc9"},"vehicle_type_id":"4","last_reported":1779456134,"current_range_meters":8400,"station_id":"ce4bhmp2rcd13ifvqgog","pricing_plan_id":"cebpf4jnsgd1na2vs0mg"},{"bike_id":"e7792035-858b-4f38-b12f-c8adbcc1f938","system_id":"levelo_inurba_marseille","lat":43.30369,"lon":5.42482,"is_reserved":false,"is_disabled":false,"rental_uris":{"android":"levelo://app?vid=e7792035-858b-4f38-b12f-c8adbcc1f938","ios":"levelo://app?vid=e7792035-858b-4f38-b12f-c8adbcc1f938"},"vehicle_type_id":"4","last_reported":1779456134,"current_range_meters":8800,"station_id":"ce4bhoh2rcd13ifvqh6g","pricing_plan_id":"cebpf4jnsgd1na2vs0mg"},{"bike_id":"8cd91745-10e4-4875-8d8d-ab61a17ddb06","system_id":"levelo_inurba_marseille","lat":43.28276,"lon":5.35071,"is_reserved":false,"is_disabled":false,"rental_uris":{"android":"levelo://app?vid=8cd91745-10e4-4875-8d8d-ab61a17ddb06","ios":"levelo://app?vid=8cd91745-10e4-4875-8d8d-ab61a17ddb06"},"vehicle_type_id":"4","last_reported":1779456134,"current_range_meters":8800,"station_id":"ce4bhbp2rcd13ifvqerg","pricing_plan_id":"cebpf4jnsgd1na2vs0mg"},{"bike_id":"ae81515f-c8b1-4e14-a40a-9a22f2d2b5d8","system_id":"levelo_inurba_marseille","lat":43.30282,"lon":5.37686,"is_reserved":false,"is_disabled":false,"rental_uris":{"android":"levelo://app?vid=ae81515f-c8b1-4e14-a40a-9a22f2d2b5d8","ios":"levelo://app?vid=ae81515f-c8b1-4e14-a40a-9a22f2d2b5d8"},"vehicle_type_id":"4","last_reported":1779456134,"current_range_meters":8800,"station_id":"ce4bguh2rcd13ifvqcj0","pricing_plan_id":"cebpf4jnsgd1na2vs0mg"},{"bike_id":"ab8f95c1-0bf5-41ad-99a6-bd4b086cb8f1","system_id":"levelo_inurba_marseille","lat":43.30479,"lon":5.37914,"is_reserved":false,"is_disabled":false,"rental_uris":{"android":"levelo://app?vid=ab8f95c1-0bf5-41ad-99a6-bd4b086cb8f1","ios":"levelo://app?vid=ab8f95c1-0bf5-41ad-99a6-bd4b086cb8f1"},"vehicle_type_id":"4","last_reported":1779456134,"current_range_meters":8800,"station_id":"ce4bgup2rcd13ifvqcn0","pricing_plan_id":"cebpf4jnsgd1na2vs0mg"},{"bike_id":"33fd2c4d-0195-4fe3-9b07-cb7d63fcd224","system_id":"levelo_inurba_marseille","lat":43.25346,"lon":5.42133,"is_reserved":false,"is_disabled":false,"rental_uris":{"android":"levelo://app?vid=33fd2c4d-0195-4fe3-9b07-cb7d63fcd224","ios":"levelo://app?vid=33fd2c4d-0195-4fe3-9b07-cb7d63fcd224"},"vehicle_type_id":"4","last_reported":1779456134,"current_range_meters":8800,"station_id":"st_d2m65c5bi1j21697t3ng","pricing_plan_id":"cebpf4jnsgd1na2vs0mg"},{"bike_id":"ffed0736-25b9-4317-8c54-743728953ed0","system_id":"levelo_inurba_marseille","lat":43.25814,"lon":5.39442,"is_reserved":false,"is_disabled":false,"rental_uris":{"android":"levelo://app?vid=ffed0736-25b9-4317-8c54-743728953ed0","ios":"levelo://app?vid=ffed0736-25b9-4317-8c54-743728953ed0"},"vehicle_type_id":"4","last_reported":1779456134,"current_range_meters":8800,"station_id":"ce4bhip2rcd13ifvqft0","pricing_plan_id":"cebpf4jnsgd1na2vs0mg"},{"bike_id":"f36bfc29-cfe0-48d3-a488-ad2f0c68d7b4","system_id":"levelo_inurba_marseille","lat":43.21741,"lon":5.34604,"is_reserved":false,"is_disabled":false,"rental_uris":{"android":"levelo://app?vid=f36bfc29-cfe0-48d3-a488-ad2f0c68d7b4","ios":"levelo://app?vid=f36bfc29-cfe0-48d3-a488-ad2f0c68d7b4"},"vehicle_type_id":"4","last_reported":1779456134,"current_range_meters":8800,"station_id":"st_cvj6r9ubvosntc0bgbag","pricing_plan_id":"cebpf4jnsgd1na2vs0mg"},{"bike_id":"7734071c-deeb-43a6-88d6-f30859c2208e","system_id":"levelo_inurba_marseille","lat":43.25863,"lon":5.3991,"is_reserved":false,"is_disabled":false,"rental_uris":{"android":"levelo://app?vid=7734071c-deeb-43a6-88d6-f30859c2208e","ios":"levelo://app?vid=7734071c-deeb-43a6-88d6-f30859c2208e"},"vehicle_type_id":"4","last_reported":1779456134,"current_range_meters":8800,"station_id":"ce4bhl92rcd13ifvqghg","pricing_plan_id":"cebpf4jnsgd1na2vs0mg"},{"bike_id":"73285c0c-b8e6-420d-948c-f7a51d3435ba","system_id":"levelo_inurba_marseille","lat":43.30135,"lon":5.37416,"is_reserved":false,"is_disabled":false,"rental_uris":{"android":"levelo://app?vid=73285c0c-b8e6-420d-948c-f7a51d3435ba","ios":"levelo://app?vid=73285c0c-b8e6-420d-948c-f7a51d3435ba"},"vehicle_type_id":"4","last_reported":1779456134,"current_range_meters":8800,"station_id":"ce4bgs92rcd13ifvqcc0","pricing_plan_id":"cebpf4jnsgd1na2vs0mg"},{"bike_id":"753aa280-747b-4a56-8204-f688799dc487","system_id":"levelo_inurba_marseille","lat":43.31042,"lon":5.42469,"is_reserved":false,"is_disabled":false,"rental_uris":{"android":"levelo://app?vid=753aa280-747b-4a56-8204-f688799dc487","ios":"levelo://app?vid=753aa280-747b-4a56-8204-f688799dc487"},"vehicle_type_id":"4","last_reported":1779456134,"current_range_meters":8800,"station_id":"","pricing_plan_id":"cebpf4jnsgd1na2vs0mg"},{"bike_id":"5e051e24-c473-476f-9619-7bb2396bd51a","system_id":"levelo_inurba_marseille","lat":43.30532,"lon":5.36541,"is_reserved":false,"is_disabled":false,"rental_uris":{"android":"levelo://app?vid=5e051e24-c473-476f-9619-7bb2396bd51a","ios":"levelo://app?vid=5e051e24-c473-476f-9619-7bb2396bd51a"},"vehicle_type_id":"4","last_reported":1779456134,"current_range_meters":8800,"station_id":"ce4bgs12rcd13ifvqcag","pricing_plan_id":"cebpf4jnsgd1na2vs0mg"},{"bike_id":"39829c30-740f-4a3a-818c-3f15403420c4","system_id":"levelo_inurba_marseille","lat":43.27234,"lon":5.39166,"is_reserved":false,"is_disabled":false,"rental_uris":{"android":"levelo://app?vid=39829c30-740f-4a3a-818c-3f15403420c4","ios":"levelo://app?vid=39829c30-740f-4a3a-818c-3f15403420c4"},"vehicle_type_id":"4","last_reported":1779456134,"current_range_meters":8800,"station_id":"ce4bhhp2rcd13ifvqfm0","pricing_plan_id":"cebpf4jnsgd1na2vs0mg"},{"bike_id":"d1279bbc-feab-44eb-b34c-53e6954c4a91","system_id":"levelo_inurba_marseille","lat":43.24079,"lon":5.37746,"is_reserved":false,"is_disabled":false,"rental_uris":{"android":"levelo://app?vid=d1279bbc-feab-44eb-b34c-53e6954c4a91","ios":"levelo://app?vid=d1279bbc-feab-44eb-b34c-53e6954c4a91"},