{"last_updated":1685304386,"ttl":30,"version":"2.2","data":{"bikes":[{"bike_id":"efc54979-305f-4cca-8e54-32cafc1cbb92","system_id":"levelo_inurba_marseille","lat":43.312239,"lon":5.368562,"is_reserved":false,"is_disabled":false,"rental_uris":{"android":"levelo://app?vid=efc54979-305f-4cca-8e54-32cafc1cbb92","ios":"levelo://app?vid=efc54979-305f-4cca-8e54-32cafc1cbb92"},"vehicle_type_id":"4","last_reported":1685304386,"current_range_meters":0,"station_id":"ce4bgl92rcd13ifvqbq0","pricing_plan_id":"free"},{"bike_id":"f59d66b5-6d70-4b72-b9c9-6b2dc382a028","system_id":"levelo_inurba_marseille","lat":43.305368,"lon":5.367343,"is_reserved":false,"is_disabled":false,"rental_uris":{"android":"levelo://app?vid=f59d66b5-6d70-4b72-b9c9-6b2dc382a028","ios":"levelo://app?vid=f59d66b5-6d70-4b72-b9c9-6b2dc382a028"},"vehicle_type_id":"4","last_reported":1685304386,"current_range_meters":14000,"station_id":"ce4bgrp2rcd13ifvqc9g","pricing_plan_id":"free"},{"bike_id":"c3676351-fa44-43c6-9af8-9b4d4189313c","system_id":"levelo_inurba_marseille","lat":43.30538,"lon":5.36721,"is_reserved":false,"is_disabled":false,"rental_uris":{"android":"levelo://app?vid=c3676351-fa44-43c6-9af8-9b4d4189313c","ios":"levelo://app?vid=c3676351-fa44-43c6-9af8-9b4d4189313c"},"vehicle_type_id":"4","last_reported":1685304386,"current_range_meters":8800,"station_id":"ce4bgrp2rcd13ifvqc9g","pricing_plan_id":"free"},{"bike_id":"b9327c07-1f45-4f6f-b4b1-81884df94e50","system_id":"levelo_inurba_marseille","lat":43.305989,"lon":5.37225,"is_reserved":false,"is_disabled":false,"rental_uris":{"android":"levelo://app?vid=b9327c07-1f45-4f6f-b4b1-81884df94e50","ios":"levelo://app?vid=b9327c07-1f45-4f6f-b4b1-81884df94e50"},"vehicle_type_id":"4","last_reported":1685304386,"current_range_meters":13600,"station_id":"ce4bgqh2rcd13ifvqc4g","pricing_plan_id":"free"},{"bike_id":"dc1d4a18-1aec-4576-b027-6cfcd52411e3","system_id":"levelo_inurba_marseille","lat":43.303046,"lon":5.368981,"is_reserved":false,"is_disabled":false,"rental_uris":{"android":"levelo://app?vid=dc1d4a18-1aec-4576-b027-6cfcd52411e3","ios":"levelo://app?vid=dc1d4a18-1aec-4576-b027-6cfcd52411e3"},"vehicle_type_id":"4","last_reported":1685304386,"current_range_meters":0,"station_id":"ce4bgqh2rcd13ifvqc5g","pricing_plan_id":"free"},{"bike_id":"7639dd48-c1a2-4420-a039-979ef7ddb59d","system_id":"levelo_inurba_marseille","lat":43.317075,"lon":5.377367,"is_reserved":false,"is_disabled":false,"rental_uris":{"android":"levelo://app?vid=7639dd48-c1a2-4420-a039-979ef7ddb59d","ios":"levelo://app?vid=7639dd48-c1a2-4420-a039-979ef7ddb59d"},"vehicle_type_id":"4","last_reported":1685304386,"current_range_meters":28000,"station_id":"ce4bgth2rcd13ifvqch0","pricing_plan_id":"free"},{"bike_id":"3c51afbe-6ccc-439e-ba50-0acb9a18d59b","system_id":"levelo_inurba_marseille","lat":43.317075,"lon":5.377367,"is_reserved":false,"is_disabled":false,"rental_uris":{"android":"levelo://app?vid=3c51afbe-6ccc-439e-ba50-0acb9a18d59b","ios":"levelo://app?vid=3c51afbe-6ccc-439e-ba50-0acb9a18d59b"},"vehicle_type_id":"4","last_reported":1685304386,"current_range_meters":4000,"station_id":"ce4bgth2rcd13ifvqch0","pricing_plan_id":"free"},{"bike_id":"9f4bc932-d893-43b2-be1e-0c1211759ad3","system_id":"levelo_inurba_marseille","lat":43.303046,"lon":5.368981,"is_reserved":false,"is_disabled":false,"rental_uris":{"android":"levelo://app?vid=9f4bc932-d893-43b2-be1e-0c1211759ad3","ios":"levelo://app?vid=9f4bc932-d893-43b2-be1e-0c1211759ad3"},"vehicle_type_id":"4","last_reported":1685304386,"current_range_meters":0,"station_id":"ce4bgqh2rcd13ifvqc5g","pricing_plan_id":"free"},{"bike_id":"324794e1-1f4d-4790-81f2-c7e06d054c47","system_id":"levelo_inurba_marseille","lat":43.304606,"lon":5.379026,"is_reserved":false,"is_disabled":false,"rental_uris":{"android":"levelo://app?vid=324794e1-1f4d-4790-81f2-c7e06d054c47","ios":"levelo://app?vid=324794e1-1f4d-4790-81f2-c7e06d054c47"},"vehicle_type_id":"4","last_reported":1685304386,"current_range_meters":22000,"station_id":"ce4bgup2rcd13ifvqcn0","pricing_plan_id":"free"},{"bike_id":"d5496873-47fb-48fe-8289-74b73214c17e","system_id":"levelo_inurba_marseille","lat":43.298433,"lon":5.362774,"is_reserved":false,"is_disabled":false,"rental_uris":{"android":"levelo://app?vid=d5496873-47fb-48fe-8289-74b73214c17e","ios":"levelo://app?vid=d5496873-47fb-48fe-8289-74b73214c17e"},"vehicle_type_id":"4","last_reported":1685304386,"current_range_meters":5200,"station_id":"ce4bgpp2rcd13ifvqc3g","pricing_plan_id":"free"},{"bike_id":"1b064916-ce14-4dd7-8822-0096c3687352","system_id":"levelo_inurba_marseille","lat":43.31184,"lon":5.38712,"is_reserved":false,"is_disabled":false,"rental_uris":{"android":"levelo://app?vid=1b064916-ce14-4dd7-8822-0096c3687352","ios":"levelo://app?vid=1b064916-ce14-4dd7-8822-0096c3687352"},"vehicle_type_id":"4","last_reported":1685304386,"current_range_meters":2800,"station_id":"ce4bgv12rcd13ifvqcp0","pricing_plan_id":"free"},{"bike_id":"6aeae04f-90aa-4781-ba85-3676410d2bed","system_id":"levelo_inurba_marseille","lat":43.31164,"lon":5.38726,"is_reserved":false,"is_disabled":false,"rental_uris":{"android":"levelo://app?vid=6aeae04f-90aa-4781-ba85-3676410d2bed","ios":"levelo://app?vid=6aeae04f-90aa-4781-ba85-3676410d2bed"},"vehicle_type_id":"4","last_reported":1685304386,"current_range_meters":4400,"station_id":"ce4bgv12rcd13ifvqcp0","pricing_plan_id":"free"},{"bike_id":"bb1e0ad9-df4b-41de-bdd5-bce01dd60691","system_id":"levelo_inurba_marseille","lat":43.328371,"lon":5.366909,"is_reserved":false,"is_disabled":false,"rental_uris":{"android":"levelo://app?vid=bb1e0ad9-df4b-41de-bdd5-bce01dd60691","ios":"levelo://app?vid=bb1e0ad9-df4b-41de-bdd5-bce01dd60691"},"vehicle_type_id":"4","last_reported":1685304386,"current_range_meters":28400,"station_id":"ce4bhs92rcd13ifvqi0g","pricing_plan_id":"free"},{"bike_id":"43d041a6-cdcf-4897-8665-6ed61b2c409c","system_id":"levelo_inurba_marseille","lat":43.32828,"lon":5.3667,"is_reserved":false,"is_disabled":false,"rental_uris":{"android":"levelo://app?vid=43d041a6-cdcf-4897-8665-6ed61b2c409c","ios":"levelo://app?vid=43d041a6-cdcf-4897-8665-6ed61b2c409c"},"vehicle_type_id":"4","last_reported":1685304386,"current_range_meters":28800,"station_id":"ce4bhs92rcd13ifvqi0g","pricing_plan_id":"free"},{"bike_id":"285c145e-777a-4b00-b299-e3b44b9cb422","system_id":"levelo_inurba_marseille","lat":43.3283,"lon":5.36677,"is_reserved":false,"is_disabled":false,"rental_uris":{"android":"levelo://app?vid=285c145e-777a-4b00-b299-e3b44b9cb422","ios":"levelo://app?vid=285c145e-777a-4b00-b299-e3b44b9cb422"},"vehicle_type_id":"4","last_reported":1685304386,"current_range_meters":6800,"station_id":"ce4bhs92rcd13ifvqi0g","pricing_plan_id":"free"},{"bike_id":"95c1e3df-1c8c-4518-bca1-c73d829f2ab0","system_id":"levelo_inurba_marseille","lat":43.29696,"lon":5.36591,"is_reserved":false,"is_disabled":false,"rental_uris":{"android":"levelo://app?vid=95c1e3df-1c8c-4518-bca1-c73d829f2ab0","ios":"levelo://app?vid=95c1e3df-1c8c-4518-bca1-c73d829f2ab0"},"vehicle_type_id":"4","last_reported":1685304386,"current_range_meters":800,"station_id":"","pricing_plan_id":"free"},{"bike_id":"383aa7a2-3538-4d7d-9ca2-1fbba8b52814","system_id":"levelo_inurba_marseille","lat":43.29735,"lon":5.36146,"is_reserved":false,"is_disabled":false,"rental_uris":{"android":"levelo://app?vid=383aa7a2-3538-4d7d-9ca2-1fbba8b52814","ios":"levelo://app?vid=383aa7a2-3538-4d7d-9ca2-1fbba8b52814"},"vehicle_type_id":"4","last_reported":1685304386,"current_range_meters":26000,"station_id":"","pricing_plan_id":"free"},{"bike_id":"e694a2c9-97cc-425f-944d-2dac475f074f","system_id":"levelo_inurba_marseille","lat":43.31492,"lon":5.38949,"is_reserved":false,"is_disabled":false,"rental_uris":{"android":"levelo://app?vid=e694a2c9-97cc-425f-944d-2dac475f074f","ios":"levelo://app?vid=e694a2c9-97cc-425f-944d-2dac475f074f"},"vehicle_type_id":"4","last_reported":1685304386,"current_range_meters":10400,"station_id":"","pricing_plan_id":"free"},{"bike_id":"e0bf806c-7a9f-4e18-b8ba-a0321ad81e16","system_id":"levelo_inurba_marseille","lat":43.309589,"lon":5.390258,"is_reserved":false,"is_disabled":false,"rental_uris":{"android":"levelo://app?vid=e0bf806c-7a9f-4e18-b8ba-a0321ad81e16","ios":"levelo://app?vid=e0bf806c-7a9f-4e18-b8ba-a0321ad81e16"},"vehicle_type_id":"4","last_reported":1685304386,"current_range_meters":3600,"station_id":"ce4bgup2rcd13ifvqco0","pricing_plan_id":"free"},{"bike_id":"a9cd1518-2d3d-402a-8d0f-b312447f5db4","system_id":"levelo_inurba_marseille","lat":43.3095,"lon":5.3903,"is_reserved":false,"is_disabled":false,"rental_uris":{"android":"levelo://app?vid=a9cd1518-2d3d-402a-8d0f-b312447f5db4","ios":"levelo://app?vid=a9cd1518-2d3d-402a-8d0f-b312447f5db4"},"vehicle_type_id":"4","last_reported":1685304386,"current_range_meters":12800,"station_id":"ce4bgup2rcd13ifvqco0","pricing_plan_id":"free"},{"bike_id":"de2e0763-3e5b-449c-9956-dfa0271dffcf","system_id":"levelo_inurba_marseille","lat":43.30948,"lon":5.3903,"is_reserved":false,"is_disabled":false,"rental_uris":{"android":"levelo://app?vid=de2e0763-3e5b-449c-9956-dfa0271dffcf","ios":"levelo://app?vid=de2e0763-3e5b-449c-9956-dfa0271dffcf"},"vehicle_type_id":"4","last_reported":1685304386,"current_range_meters":6000,"station_id":"ce4bgup2rcd13ifvqco0","pricing_plan_id":"free"},{"bike_id":"8aa9044b-b693-4c2c-8f5b-1d12ee5f1efa","system_id":"levelo_inurba_marseille","lat":43.309589,"lon":5.390258,"is_reserved":false,"is_disabled":false,"rental_uris":{"android":"levelo://app?vid=8aa9044b-b693-4c2c-8f5b-1d12ee5f1efa","ios":"levelo://app?vid=8aa9044b-b693-4c2c-8f5b-1d12ee5f1efa"},"vehicle_type_id":"4","last_reported":1685304386,"current_range_meters":0,"station_id":"ce4bgup2rcd13ifvqco0","pricing_plan_id":"free"},{"bike_id":"ffc2ecaf-eaa6-457e-aab8-cc2733ed9ab7","system_id":"levelo_inurba_marseille","lat":43.309589,"lon":5.390258,"is_reserved":false,"is_disabled":false,"rental_uris":{"android":"levelo://app?vid=ffc2ecaf-eaa6-457e-aab8-cc2733ed9ab7","ios":"levelo://app?vid=ffc2ecaf-eaa6-457e-aab8-cc2733ed9ab7"},"vehicle_type_id":"4","last_reported":1685304386,"current_range_meters":16800,"station_id":"ce4bgup2rcd13ifvqco0","pricing_plan_id":"free"},{"bike_id":"2ea26070-ebe9-403b-a75f-daaa06010d58","system_id":"levelo_inurba_marseille","lat":43.30951,"lon":5.39035,"is_reserved":false,"is_disabled":false,"rental_uris":{"android":"levelo://app?vid=2ea26070-ebe9-403b-a75f-daaa06010d58","ios":"levelo://app?vid=2ea26070-ebe9-403b-a75f-daaa06010d58"},"vehicle_type_id":"4","last_reported":1685304386,"current_range_meters":0,"station_id":"ce4bgup2rcd13ifvqco0","pricing_plan_id":"free"},{"bike_id":"42e30c9a-58df-415b-9ad2-804167fe666f","system_id":"levelo_inurba_marseille","lat":43.296935,"lon":5.376544,"is_reserved":false,"is_disabled":false,"rental_uris":{"android":"levelo://app?vid=42e30c9a-58df-415b-9ad2-804167fe666f","ios":"levelo://app?vid=42e30c9a-58df-415b-9ad2-804167fe666f"},"vehicle_type_id":"4","last_reported":1685304386,"current_range_meters":0,"station_id":"ce4bgkh2rcd13ifvqbl0","pricing_plan_id":"free"},{"bike_id":"9b69d2d8-54cc-42fe-9f1d-f4c1f9024b07","system_id":"levelo_inurba_marseille","lat":43.309589,"lon":5.390258,"is_reserved":false,"is_disabled":false,"rental_uris":{"android":"levelo://app?vid=9b69d2d8-54cc-42fe-9f1d-f4c1f9024b07","ios":"levelo://app?vid=9b69d2d8-54cc-42fe-9f1d-f4c1f9024b07"},"vehicle_type_id":"4","last_reported":1685304386,"current_range_meters":0,"station_id":"ce4bgup2rcd13ifvqco0","pricing_plan_id":"free"},{"bike_id":"caa867ce-8b87-4cc8-a83e-b5c43244c633","system_id":"levelo_inurba_marseille","lat":43.309589,"lon":5.390258,"is_reserved":false,"is_disabled":false,"rental_uris":{"android":"levelo://app?vid=caa867ce-8b87-4cc8-a83e-b5c43244c633","ios":"levelo://app?vid=caa867ce-8b87-4cc8-a83e-b5c43244c633"},"vehicle_type_id":"4","last_reported":1685304386,"current_range_meters":17200,"station_id":"ce4bgup2rcd13ifvqco0","pricing_plan_id":"free"},{"bike_id":"857d19d3-1ad1-4abd-a723-e560f557aaef","system_id":"levelo_inurba_marseille","lat":43.31755,"lon":5.39018,"is_reserved":false,"is_disabled":false,"rental_uris":{"android":"levelo://app?vid=857d19d3-1ad1-4abd-a723-e560f557aaef","ios":"levelo://app?vid=857d19d3-1ad1-4abd-a723-e560f557aaef"},"vehicle_type_id":"4","last_reported":1685304386,"current_range_meters":6800,"station_id":"ce4bhqp2rcd13ifvqhng","pricing_plan_id":"free"},{"bike_id":"13405fcc-c8cc-467d-b24a-316b0d27b570","system_id":"levelo_inurba_marseille","lat":43.31761,"lon":5.3902,"is_reserved":false,"is_disabled":false,"rental_uris":{"android":"levelo://app?vid=13405fcc-c8cc-467d-b24a-316b0d27b570","ios":"levelo://app?vid=13405fcc-c8cc-467d-b24a-316b0d27b570"},"vehicle_type_id":"4","last_reported":1685304386,"current_range_meters":0,"station_id":"ce4bhqp2rcd13ifvqhng","pricing_plan_id":"free"},{"bike_id":"0b90e4bc-5180-4dc4-b836-dac2fe13deb4","system_id":"levelo_inurba_marseille","lat":43.304278,"lon":5.388868,"is_reserved":false,"is_disabled":false,"rental_uris":{"android":"levelo://app?vid=0b90e4bc-5180-4dc4-b836-dac2fe13deb4","ios":"levelo://app?vid=0b90e4bc-5180-4dc4-b836-dac2fe13deb4"},"vehicle_type_id":"4","last_reported":1685304386,"current_range_meters":2400,"station_id":"ce4bgk12rcd13ifvqbi0","pricing_plan_id":"free"},{"bike_id":"af77be64-c634-4f31-a6e4-d5dd8d35bbe7","system_id":"levelo_inurba_marseille","lat":43.304278,"lon":5.388868,"is_reserved":false,"is_disabled":false,"rental_uris":{"android":"levelo://app?vid=af77be64-c634-4f31-a6e4-d5dd8d35bbe7","ios":"levelo://app?vid=af77be64-c634-4f31-a6e4-d5dd8d35bbe7"},"vehicle_type_id":"4","last_reported":1685304386,"current_range_meters":0,"station_id":"ce4bgk12rcd13ifvqbi0","pricing_plan_id":"free"},{"bike_id":"9aaf13b9-2dbe-4132-b8e5-1e84a8acf6bd","system_id":"levelo_inurba_marseille","lat":43.295279,"lon":5.375048,"is_reserved":false,"is_disabled":false,"rental_uris":{"android":"levelo://app?vid=9aaf13b9-2dbe-4132-b8e5-1e84a8acf6bd","ios":"levelo://app?vid=9aaf13b9-2dbe-4132-b8e5-1e84a8acf6bd"},"vehicle_type_id":"4","last_reported":1685304386,"current_range_meters":3600,"station_id":"ce4bgkp2rcd13ifvqbmg","pricing_plan_id":"free"},{"bike_id":"2628bc6b-4d15-4fed-adc0-829c4af8f3bc","system_id":"levelo_inurba_marseille","lat":43.29325,"lon":5.37435,"is_reserved":false,"is_disabled":false,"rental_uris":{"android":"levelo://app?vid=2628bc6b-4d15-4fed-adc0-829c4af8f3bc","ios":"levelo://app?vid=2628bc6b-4d15-4fed-adc0-829c4af8f3bc"},"vehicle_type_id":"4","last_reported":1685304386,"current_range_meters":0,"station_id":"","pricing_plan_id":"free"},{"bike_id":"1ddcc1e3-064a-45fe-8548-c3fa9200518e","system_id":"levelo_inurba_marseille","lat":43.29395,"lon":5.37722,"is_reserved":false,"is_disabled":false,"rental_uris":{"android":"levelo://app?vid=1ddcc1e3-064a-45fe-8548-c3fa9200518e","ios":"levelo://app?vid=1ddcc1e3-064a-45fe-8548-c3fa9200518e"},"vehicle_type_id":"4","last_reported":1685304386,"current_range_meters":0,"station_id":"","pricing_plan_id":"free"},{"bike_id":"12bc1ab3-fa91-4685-a75b-ebb90350a5e9","system_id":"levelo_inurba_marseille","lat":43.293,"lon":5.37444,"is_reserved":false,"is_disabled":false,"rental_uris":{"android":"levelo://app?vid=12bc1ab3-fa91-4685-a75b-ebb90350a5e9","ios":"levelo://app?vid=12bc1ab3-fa91-4685-a75b-ebb90350a5e9"},"vehicle_type_id":"4","last_reported":1685304386,"current_range_meters":1600,"station_id":"ce4bgi12rcd13ifvqb70","pricing_plan_id":"free"},{"bike_id":"ab251104-54cc-4946-80f7-1a76575c8607","system_id":"levelo_inurba_marseille","lat":43.305994,"lon":5.393687,"is_reserved":false,"is_disabled":false,"rental_uris":{"android":"levelo://app?vid=ab251104-54cc-4946-80f7-1a76575c8607","ios":"levelo://app?vid=ab251104-54cc-4946-80f7-1a76575c8607"},"vehicle_type_id":"4","last_reported":1685304386,"current_range_meters":1200,"station_id":"ce4bh0p2rcd13ifvqd80","pricing_plan_id":"free"},{"bike_id":"62730147-7efe-4420-8a00-57d60822b8a1","system_id":"levelo_inurba_marseille","lat":43.292993,"lon":5.374677,"is_reserved":false,"is_disabled":false,"rental_uris":{"android":"levelo://app?vid=62730147-7efe-4420-8a00-57d60822b8a1","ios":"levelo://app?vid=62730147-7efe-4420-8a00-57d60822b8a1"},"vehicle_type_id":"4","last_reported":1685304386,"current_range_meters":400,"station_id":"","pricing_plan_id":"free"},{"bike_id":"5d3d0735-e923-449b-a2b1-05e0912c28bf","system_id":"levelo_inurba_marseille","lat":43.293009,"lon":5.374584,"is_reserved":false,"is_disabled":false,"rental_uris":{"android":"levelo://app?vid=5d3d0735-e923-449b-a2b1-05e0912c28bf","ios":"levelo://app?vid=5d3d0735-e923-449b-a2b1-05e0912c28bf"},"vehicle_type_id":"4","last_reported":1685304386,"current_range_meters":1200,"station_id":"ce4bgi12rcd13ifvqb70","pricing_plan_id":"free"},{"bike_id":"44d8a83c-9a1e-4cb5-9f62-108578d55edd","system_id":"levelo_inurba_marseille","lat":43.300852,"lon":5.390859,"is_reserved":false,"is_disabled":false,"rental_uris":{"android":"levelo://app?vid=44d8a83c-9a1e-4cb5-9f62-108578d55edd","ios":"levelo://app?vid=44d8a83c-9a1e-4cb5-9f62-108578d55edd"},"vehicle_type_id":"4","last_reported":1685304386,"current_range_meters":24800,"station_id":"ce4bh192rcd13ifvqdb0","pricing_plan_id":"free"},{"bike_id":"40cbf89b-9a55-4ab2-a77a-4d4c72f046f9","system_id":"levelo_inurba_marseille","lat":43.291994,"lon":5.357886,"is_reserved":false,"is_disabled":false,"rental_uris":{"android":"levelo://app?vid=40cbf89b-9a55-4ab2-a77a-4d4c72f046f9","ios":"levelo://app?vid=40cbf89b-9a55-4ab2-a77a-4d4c72f046f9"},"vehicle_type_id":"4","last_reported":1685304386,"current_range_meters":1200,"station_id":"ce4bhb12rcd13ifvqel0","pricing_plan_id":"free"},{"bike_id":"0d9252e3-216d-44d3-9012-1d3200541cdc","system_id":"levelo_inurba_marseille","lat":43.29529,"lon":5.385581,"is_reserved":false,"is_disabled":false,"rental_uris":{"android":"levelo://app?vid=0d9252e3-216d-44d3-9012-1d3200541cdc","ios":"levelo://app?vid=0d9252e3-216d-44d3-9012-1d3200541cdc"},"vehicle_type_id":"4","last_reported":1685304386,"current_range_meters":4800,"station_id":"ce4bgih2rcd13ifvqba0","pricing_plan_id":"free"},{"bike_id":"95b68969-58e0-45eb-8baf-7df55c1c3678","system_id":"levelo_inurba_marseille","lat":43.302008,"lon":5.394694,"is_reserved":false,"is_disabled":false,"rental_uris":{"android":"levelo://app?vid=95b68969-58e0-45eb-8baf-7df55c1c3678","ios":"levelo://app?vid=95b68969-58e0-45eb-8baf-7df55c1c3678"},"vehicle_type_id":"4","last_reported":1685304386,"current_range_meters":1200,"station_id":"ce4bh0p2rcd13ifvqd70","pricing_plan_id":"free"},{"bike_id":"36459fa1-124e-4ab8-9e36-92e94e9f659f","system_id":"levelo_inurba_marseille","lat":43.302008,"lon":5.394694,"is_reserved":false,"is_disabled":false,"rental_uris":{"android":"levelo://app?vid=36459fa1-124e-4ab8-9e36-92e94e9f659f","ios":"levelo://app?vid=36459fa1-124e-4ab8-9e36-92e94e9f659f"},"vehicle_type_id":"4","last_reported":1685304386,"current_range_meters":5200,"station_id":"ce4bh0p2rcd13ifvqd70","pricing_plan_id":"free"},{"bike_id":"c3527183-6c3e-4d27-bcae-1925509dbed8","system_id":"levelo_inurba_marseille","lat":43.29028,"lon":5.35917,"is_reserved":false,"is_disabled":false,"rental_uris":{"android":"levelo://app?vid=c3527183-6c3e-4d27-bcae-1925509dbed8","ios":"levelo://app?vid=c3527183-6c3e-4d27-bcae-1925509dbed8"},"vehicle_type_id":"4","last_reported":1685304386,"current_range_meters":400,"station_id":"","pricing_plan_id":"free"},{"bike_id":"e5cf2231-98b3-486e-8feb-f5382e026586","system_id":"levelo_inurba_marseille","lat":43.294162,"lon":5.386292,"is_reserved":false,"is_disabled":false,"rental_uris":{"android":"levelo://app?vid=e5cf2231-98b3-486e-8feb-f5382e026586","ios":"levelo://app?vid=e5cf2231-98b3-486e-8feb-f5382e026586"},"vehicle_type_id":"4","last_reported":1685304386,"current_range_meters":4400,"station_id":"ce4bh2h2rcd13ifvqdh0","pricing_plan_id":"free"},{"bike_id":"31ffd1a8-61e3-4452-abb2-c9ad5dc019c7","system_id":"levelo_inurba_marseille","lat":43.294162,"lon":5.386292,"is_reserved":false,"is_disabled":false,"rental_uris":{"android":"levelo://app?vid=31ffd1a8-61e3-4452-abb2-c9ad5dc019c7","ios":"levelo://app?vid=31ffd1a8-61e3-4452-abb2-c9ad5dc019c7"},"vehicle_type_id":"4","last_reported":1685304386,"current_range_meters":16400,"station_id":"ce4bh2h2rcd13ifvqdh0","pricing_plan_id":"free"},{"bike_id":"2a3019cc-c7be-4255-8544-52dca5477070","system_id":"levelo_inurba_marseille","lat":43.294162,"lon":5.386292,"is_reserved":false,"is_disabled":false,"rental_uris":{"android":"levelo://app?vid=2a3019cc-c7be-4255-8544-52dca5477070","ios":"levelo://app?vid=2a3019cc-c7be-4255-8544-52dca5477070"},"vehicle_type_id":"4","last_reported":1685304386,"current_range_meters":2400,"station_id":"ce4bh2h2rcd13ifvqdh0","pricing_plan_id":"free"},{"bike_id":"8defaa0f-6e11-40ad-9bd0-e1b4bf32c3d7","system_id":"levelo_inurba_marseille","lat":43.294162,"lon":5.386292,"is_reserved":false,"is_disabled":false,"rental_uris":{"android":"levelo://app?vid=8defaa0f-6e11-40ad-9bd0-e1b4bf32c3d7","ios":"levelo://app?vid=8defaa0f-6e11-40ad-9bd0-e1b4bf32c3d7"},"vehicle_type_id":"4","last_reported":1685304386,"current_range_meters":3200,"station_id":"ce4bh2h2rcd13ifvqdh0","pricing_plan_id":"free"},{"bike_id":"9f775ad0-8883-41fa-8834-dc85344834de","system_id":"levelo_inurba_marseille","lat":43.289184,"lon":5.366408,"is_reserved":false,"is_disabled":false,"rental_uris":{"android":"levelo://app?vid=9f775ad0-8883-41fa-8834-dc85344834de","ios":"levelo://app?vid=9f775ad0-8883-41fa-8834-dc85344834de"},"vehicle_type_id":"4","last_reported":1685304386,"current_range_meters":3200,"station_id":"ce4bhap2rcd13ifvqek0","pricing_plan_id":"free"},{"bike_id":"5ce37c17-1cec-4d4c-b243-cc32d4b429c7","system_id":"levelo_inurba_marseille","lat":43.292644,"lon":5.384257,"is_reserved":false,"is_disabled":false,"rental_uris":{"android":"levelo://app?vid=5ce37c17-1cec-4d4c-b243-cc32d4b429c7","ios":"levelo://app?vid=5ce37c17-1cec-4d4c-b243-cc32d4b429c7"},"vehicle_type_id":"4","last_reported":1685304386,"current_range_meters":16000,"station_id":"ce4bh692rcd13ifvqea0","pricing_plan_id":"free"},{"bike_id":"34d309e9-d153-4c32-9024-1ab0aaec9d84","system_id":"levelo_inurba_marseille","lat":43.292644,"lon":5.384257,"is_reserved":false,"is_disabled":false,"rental_uris":{"android":"levelo://app?vid=34d309e9-d153-4c32-9024-1ab0aaec9d84","ios":"levelo://app?vid=34d309e9-d153-4c32-9024-1ab0aaec9d84"},"vehicle_type_id":"4","last_reported":1685304386,"current_range_meters":2400,"station_id":"ce4bh692rcd13ifvqea0","pricing_plan_id":"free"},{"bike_id":"803ee31e-96fc-4974-a5ce-aeb8eeb9df20","system_id":"levelo_inurba_marseille","lat":43.290104,"lon":5.356111,"is_reserved":false,"is_disabled":false,"rental_uris":{"android":"levelo://app?vid=803ee31e-96fc-4974-a5ce-aeb8eeb9df20","ios":"levelo://app?vid=803ee31e-96fc-4974-a5ce-aeb8eeb9df20"},"vehicle_type_id":"4","last_reported":1685304386,"current_range_meters":0,"station_id":"ce4bhb92rcd13ifvqen0","pricing_plan_id":"free"},{"bike_id":"69b2ef79-dd0b-438c-a37e-745e0e11bc9a","system_id":"levelo_inurba_marseille","lat":43.290104,"lon":5.356111,"is_reserved":false,"is_disabled":false,"rental_uris":{"android":"levelo://app?vid=69b2ef79-dd0b-438c-a37e-745e0e11bc9a","ios":"levelo://app?vid=69b2ef79-dd0b-438c-a37e-745e0e11bc9a"},"vehicle_type_id":"4","last_reported":1685304386,"current_range_meters":0,"station_id":"ce4bhb92rcd13ifvqen0","pricing_plan_id":"free"},{"bike_id":"83ade535-0d0f-4f11-a255-da9eb526f856","system_id":"levelo_inurba_marseille","lat":43.290995,"lon":5.381361,"is_reserved":false,"is_disabled":false,"rental_uris":{"android":"levelo://app?vid=83ade535-0d0f-4f11-a255-da9eb526f856","ios":"levelo://app?vid=83ade535-0d0f-4f11-a255-da9eb526f856"},"vehicle_type_id":"4","last_reported":1685304386,"current_range_meters":0,"station_id":"ce4bh512rcd13ifvqe2g","pricing_plan_id":"free"},{"bike_id":"8e2777b2-d8ff-49cd-8ec3-e99209dbdb6c","system_id":"levelo_inurba_marseille","lat":43.297814,"lon":5.393513,"is_reserved":false,"is_disabled":false,"rental_uris":{"android":"levelo://app?vid=8e2777b2-d8ff-49cd-8ec3-e99209dbdb6c","ios":"levelo://app?vid=8e2777b2-d8ff-49cd-8ec3-e99209dbdb6c"},"vehicle_type_id":"4","last_reported":1685304386,"current_range_meters":0,"station_id":"chh1huq6cuj3fo74tm60","pricing_plan_id":"free"},{"bike_id":"141c14ea-594b-43ee-894e-8c44af1dcd73","system_id":"levelo_inurba_marseille","lat":43.33727,"lon":5.37446,"is_reserved":false,"is_disabled":false,"rental_uris":{"android":"levelo://app?vid=141c14ea-594b-43ee-894e-8c44af1dcd73","ios":"levelo://app?vid=141c14ea-594b-43ee-894e-8c44af1dcd73"},"vehicle_type_id":"4","last_reported":1685304386,"current_range_meters":30800,"station_id":"","pricing_plan_id":"free"},{"bike_id":"5aaf445f-f097-4041-99e9-0b2edc8a39b1","system_id":"levelo_inurba_marseille","lat":43.33742,"lon":5.37442,"is_reserved":false,"is_disabled":false,"rental_uris":{"android":"levelo://app?vid=5aaf445f-f097-4041-99e9-0b2edc8a39b1","ios":"levelo://app?vid=5aaf445f-f097-4041-99e9-0b2edc8a39b1"},"vehicle_type_id":"4","last_reported":1685304386,"current_range_meters":27600,"station_id":"","pricing_plan_id":"free"},{"bike_id":"915a1d5d-0a9c-4982-bd00-ae384a29cdde","system_id":"levelo_inurba_marseille","lat":43.33743,"lon":5.37448,"is_reserved":false,"is_disabled":false,"rental_uris":{"android":"levelo://app?vid=915a1d5d-0a9c-4982-bd00-ae384a29cdde","ios":"levelo://app?vid=915a1d5d-0a9c-4982-bd00-ae384a29cdde"},"vehicle_type_id":"4","last_reported":1685304386,"current_range_meters":29600,"station_id":"","pricing_plan_id":"free"},{"bike_id":"c67b547c-3fcb-4384-8614-e15f558fec55","system_id":"levelo_inurba_marseille","lat":43.33744,"lon":5.37451,"is_reserved":false,"is_disabled":false,"rental_uris":{"android":"levelo://app?vid=c67b547c-3fcb-4384-8614-e15f558fec55","ios":"levelo://app?vid=c67b547c-3fcb-4384-8614-e15f558fec55"},"vehicle_type_id":"4","last_reported":1685304386,"current_range_meters":26000,"station_id":"","pricing_plan_id":"free"},{"bike_id":"493860ce-e063-4684-ab33-c360eaf64153","system_id":"levelo_inurba_marseille","lat":43.33744,"lon":5.37451,"is_reserved":false,"is_disabled":false,"rental_uris":{"android":"levelo://app?vid=493860ce-e063-4684-ab33-c360eaf64153","ios":"levelo://app?vid=493860ce-e063-4684-ab33-c360eaf64153"},"vehicle_type_id":"4","last_reported":1685304386,"current_range_meters":17200,"station_id":"","pricing_plan_id":"free"},{"bike_id":"8d4b6760-86ef-4ffe-892c-b7d1b9e92d74","system_id":"levelo_inurba_marseille","lat":43.30642,"lon":5.401031,"is_reserved":false,"is_disabled":false,"rental_uris":{"android":"levelo://app?vid=8d4b6760-86ef-4ffe-892c-b7d1b9e92d74","ios":"levelo://app?vid=8d4b6760-86ef-4ffe-892c-b7d1b9e92d74"},"vehicle_type_id":"4","last_reported":1685304386,"current_range_meters":7200,"station_id":"ce4bh112rcd13ifvqda0","pricing_plan_id":"free"},{"bike_id":"556c6db1-2600-4c2b-9521-aae8453517c1","system_id":"levelo_inurba_marseille","lat":43.33758,"lon":5.37442,"is_reserved":false,"is_disabled":false,"rental_uris":{"android":"levelo://app?vid=556c6db1-2600-4c2b-9521-aae8453517c1","ios":"levelo://app?vid=556c6db1-2600-4c2b-9521-aae8453517c1"},"vehicle_type_id":"4","last_reported":1685304386,"current_range_meters":12800,"station_id":"","pricing_plan_id":"free"},{"bike_id":"13f017f1-17c6-442d-a858-afd0d6dd936d","system_id":"levelo_inurba_marseille","lat":43.30642,"lon":5.401031,"is_reserved":false,"is_disabled":false,"rental_uris":{"android":"levelo://app?vid=13f017f1-17c6-442d-a858-afd0d6dd936d","ios":"levelo://app?vid=13f017f1-17c6-442d-a858-afd0d6dd936d"},"vehicle_type_id":"4","last_reported":1685304386,"current_range_meters":10000,"station_id":"ce4bh112rcd13ifvqda0","pricing_plan_id":"free"},{"bike_id":"be90e8f3-0489-458e-bf94-b155287aa81b","system_id":"levelo_inurba_marseille","lat":43.30642,"lon":5.401031,"is_reserved":false,"is_disabled":false,"rental_uris":{"android":"levelo://app?vid=be90e8f3-0489-458e-bf94-b155287aa81b","ios":"levelo://app?vid=be90e8f3-0489-458e-bf94-b155287aa81b"},"vehicle_type_id":"4","last_reported":1685304386,"current_range_meters":3600,"station_id":"ce4bh112rcd13ifvqda0","pricing_plan_id":"free"},{"bike_id":"31cced5f-d908-4566-9a2a-959e1565953a","system_id":"levelo_inurba_marseille","lat":43.301117,"lon":5.398795,"is_reserved":false,"is_disabled":false,"rental_uris":{"android":"levelo://app?vid=31cced5f-d908-4566-9a2a-959e1565953a","ios":"levelo://app?vid=31cced5f-d908-4566-9a2a-959e1565953a"},"vehicle_type_id":"4","last_reported":1685304386,"current_range_meters":2000,"station_id":"ce4bh0h2rcd13ifvqd40","pricing_plan_id":"free"},{"bike_id":"7185c50a-1dca-4cdc-a359-644a34e71b7d","system_id":"levelo_inurba_marseille","lat":43.298681,"lon":5.397225,"is_reserved":false,"is_disabled":false,"rental_uris":{"android":"levelo://app?vid=7185c50a-1dca-4cdc-a359-644a34e71b7d","ios":"levelo://app?vid=7185c50a-1dca-4cdc-a359-644a34e71b7d"},"vehicle_type_id":"4","last_reported":1685304386,"current_range_meters":6400,"station_id":"ce4bh0h2rcd13ifvqd50","pricing_plan_id":"free"},{"bike_id":"0a3e1ca5-d3c9-4616-9f15-41f9c7537283","system_id":"levelo_inurba_marseille","lat":43.30428,"lon":5.40107,"is_reserved":false,"is_disabled":false,"rental_uris":{"android":"levelo://app?vid=0a3e1ca5-d3c9-4616-9f15-41f9c7537283","ios":"levelo://app?vid=0a3e1ca5-d3c9-4616-9f15-41f9c7537283"},"vehicle_type_id":"4","last_reported":1685304386,"current_range_meters":6000,"station_id":"","pricing_plan_id":"free"},{"bike_id":"cec292c3-c37b-420b-acb7-2653f51e01fb","system_id":"levelo_inurba_marseille","lat":43.286593,"lon":5.363346,"is_reserved":false,"is_disabled":false,"rental_uris":{"android":"levelo://app?vid=cec292c3-c37b-420b-acb7-2653f51e01fb","ios":"levelo://app?vid=cec292c3-c37b-420b-acb7-2653f51e01fb"},"vehicle_type_id":"4","last_reported":1685304386,"current_range_meters":2400,"station_id":"ce4bhah2rcd13ifvqej0","pricing_plan_id":"free"},{"bike_id":"ccf1d06c-a22f-47de-90a8-6fb8a3fabfb3","system_id":"levelo_inurba_marseille","lat":43.290336,"lon":5.386425,"is_reserved":false,"is_disabled":false,"rental_uris":{"android":"levelo://app?vid=ccf1d06c-a22f-47de-90a8-6fb8a3fabfb3","ios":"levelo://app?vid=ccf1d06c-a22f-47de-90a8-6fb8a3fabfb3"},"vehicle_type_id":"4","last_reported":1685304386,"current_range_meters":800,"station_id":"ce4bh4p2rcd13ifvqe0g","pricing_plan_id":"free"},{"bike_id":"f9c54ad8-7e2a-49f6-ae31-85645550f33c","system_id":"levelo_inurba_marseille","lat":43.302759,"lon":5.400793,"is_reserved":false,"is_disabled":false,"rental_uris":{"android":"levelo://app?vid=f9c54ad8-7e2a-49f6-ae31-85645550f33c","ios":"levelo://app?vid=f9c54ad8-7e2a-49f6-ae31-85645550f33c"},"vehicle_type_id":"4","last_reported":1685304386,"current_range_meters":10000,"station_id":"ce4bgvh2rcd13ifvqcs0","pricing_plan_id":"free"},{"bike_id":"ee95807d-e7df-4aab-a6b1-512269964c24","system_id":"levelo_inurba_marseille","lat":43.302759,"lon":5.400793,"is_reserved":false,"is_disabled":false,"rental_uris":{"android":"levelo://app?vid=ee95807d-e7df-4aab-a6b1-512269964c24","ios":"levelo://app?vid=ee95807d-e7df-4aab-a6b1-512269964c24"},"vehicle_type_id":"4","last_reported":1685304386,"current_range_meters":0,"station_id":"ce4bgvh2rcd13ifvqcs0","pricing_plan_id":"free"},{"bike_id":"7e1fe4f5-345b-46bd-ab0e-c6b5a3db933d","system_id":"levelo_inurba_marseille","lat":43.316517,"lon":5.404375,"is_reserved":false,"is_disabled":false,"rental_uris":{"android":"levelo://app?vid=7e1fe4f5-345b-46bd-ab0e-c6b5a3db933d","ios":"levelo://app?vid=7e1fe4f5-345b-46bd-ab0e-c6b5a3db933d"},"vehicle_type_id":"4","last_reported":1685304386,"current_range_meters":0,"station_id":"ce4bh012rcd13ifvqd00","pricing_plan_id":"free"},{"bike_id":"6b029eee-820c-4cb5-b840-7cacb2eeb03d","system_id":"levelo_inurba_marseille","lat":43.28463,"lon":5.38412,"is_reserved":false,"is_disabled":false,"rental_uris":{"android":"levelo://app?vid=6b029eee-820c-4cb5-b840-7cacb2eeb03d","ios":"levelo://app?vid=6b029eee-820c-4cb5-b840-7cacb2eeb03d"},"vehicle_type_id":"4","last_reported":1685304386,"current_range_meters":0,"station_id":"ce4bh512rcd13ifvqe3g","pricing_plan_id":"free"},{"bike_id":"c26255e0-5006-40b1-896b-89d7efd42073","system_id":"levelo_inurba_marseille","lat":43.288497,"lon":5.393089,"is_reserved":false,"is_disabled":false,"rental_uris":{"android":"levelo://app?vid=c26255e0-5006-40b1-896b-89d7efd42073","ios":"levelo://app?vid=c26255e0-5006-40b1-896b-89d7efd42073"},"vehicle_type_id":"4","last_reported":1685304386,"current_range_meters":0,"station_id":"ce4bh2p2rcd13ifvqdi0","pricing_plan_id":"free"},{"bike_id":"9a46e2f3-e6a5-4b6f-8a73-a03511ccbbaa","system_id":"levelo_inurba_marseille","lat":43.289363,"lon":5.396322,"is_reserved":false,"is_disabled":false,"rental_uris":{"android":"levelo://app?vid=9a46e2f3-e6a5-4b6f-8a73-a03511ccbbaa","ios":"levelo://app?vid=9a46e2f3-e6a5-4b6f-8a73-a03511ccbbaa"},"vehicle_type_id":"4","last_reported":1685304386,"current_range_meters":0,"station_id":"ce4bh3h2rcd13ifvqdn0","pricing_plan_id":"free"},{"bike_id":"4d2ddf16-48e5-426b-9f49-7a83729058bc","system_id":"levelo_inurba_marseille","lat":43.283096,"lon":5.350401,"is_reserved":false,"is_disabled":false,"rental_uris":{"android":"levelo://app?vid=4d2ddf16-48e5-426b-9f49-7a83729058bc","ios":"levelo://app?vid=4d2ddf16-48e5-426b-9f49-7a83729058bc"},"vehicle_type_id":"4","last_reported":1685304386,"current_range_meters":2800,"station_id":"ce4bhgp2rcd13ifvqfc0","pricing_plan_id":"free"},{"bike_id":"d0389ee5-a2b9-49ec-9918-4df23c3e68c3","system_id":"levelo_inurba_marseille","lat":43.296263,"lon":5.40601,"is_reserved":false,"is_disabled":false,"rental_uris":{"android":"levelo://app?vid=d0389ee5-a2b9-49ec-9918-4df23c3e68c3","ios":"levelo://app?vid=d0389ee5-a2b9-49ec-9918-4df23c3e68c3"},"vehicle_type_id":"4","last_reported":1685304386,"current_range_meters":0,"station_id":"ce4bh0h2rcd13ifvqd60","pricing_plan_id":"free"},{"bike_id":"17e61452-80ba-46a0-9877-274607278af4","system_id":"levelo_inurba_marseille","lat":43.29634,"lon":5.40598,"is_reserved":false,"is_disabled":false,"rental_uris":{"android":"levelo://app?vid=17e61452-80ba-46a0-9877-274607278af4","ios":"levelo://app?vid=17e61452-80ba-46a0-9877-274607278af4"},"vehicle_type_id":"4","last_reported":1685304386,"current_range_meters":0,"station_id":"ce4bh0h2rcd13ifvqd60","pricing_plan_id":"free"},{"bike_id":"0a74f07e-1e63-41d1-a22f-b1ccd7a32d8b","system_id":"levelo_inurba_marseille","lat":43.27899,"lon":5.38014,"is_reserved":false,"is_disabled":false,"rental_uris":{"android":"levelo://app?vid=0a74f07e-1e63-41d1-a22f-b1ccd7a32d8b","ios":"levelo://app?vid=0a74f07e-1e63-41d1-a22f-b1ccd7a32d8b"},"vehicle_type_id":"4","last_reported":1685304386,"current_range_meters":1200,"station_id":"","pricing_plan_id":"free"},{"bike_id":"9cc7fb07-11bc-49e7-87e1-d43531f9caa7","system_id":"levelo_inurba_marseille","lat":43.28697,"lon":5.39982,"is_reserved":false,"is_disabled":false,"rental_uris":{"android":"levelo://app?vid=9cc7fb07-11bc-49e7-87e1-d43531f9caa7","ios":"levelo://app?vid=9cc7fb07-11bc-49e7-87e1-d43531f9caa7"},"vehicle_type_id":"4","last_reported":1685304386,"current_range_meters":28000,"station_id":"ce4bho92rcd13ifvqh3g","pricing_plan_id":"free"},{"bike_id":"fbd42760-63b7-41c3-860e-0224ad1d50e5","system_id":"levelo_inurba_marseille","lat":43.287154,"lon":5.399979,"is_reserved":false,"is_disabled":false,"rental_uris":{"android":"levelo://app?vid=fbd42760-63b7-41c3-860e-0224ad1d50e5","ios":"levelo://app?vid=fbd42760-63b7-41c3-860e-0224ad1d50e5"},"vehicle_type_id":"4","last_reported":1685304386,"current_range_meters":5200,"station_id":"ce4bho92rcd13ifvqh3g","pricing_plan_id":"free"},{"bike_id":"db1489de-a7c4-4c0f-8abf-73d0898bb77a","system_id":"levelo_inurba_marseille","lat":43.28168,"lon":5.39169,"is_reserved":false,"is_disabled":false,"rental_uris":{"android":"levelo://app?vid=db1489de-a7c4-4c0f-8abf-73d0898bb77a","ios":"levelo://app?vid=db1489de-a7c4-4c0f-8abf-73d0898bb77a"},"vehicle_type_id":"4","last_reported":1685304386,"current_range_meters":17200,"station_id":"","pricing_plan_id":"free"},{"bike_id":"286258f5-ac0b-4a30-a6cc-cd45e1cdecf2","system_id":"levelo_inurba_marseille","lat":43.3253,"lon":5.41436,"is_reserved":false,"is_disabled":false,"rental_uris":{"android":"levelo://app?vid=286258f5-ac0b-4a30-a6cc-cd45e1cdecf2","ios":"levelo://app?vid=286258f5-ac0b-4a30-a6cc-cd45e1cdecf2"},"vehicle_type_id":"4","last_reported":1685304386,"current_range_meters":31200,"station_id":"ce4bhq12rcd13ifvqhhg","pricing_plan_id":"free"},{"bike_id":"b825cc48-1e3d-4178-93f6-8fb4d03247ce","system_id":"levelo_inurba_marseille","lat":43.30351,"lon":5.41886,"is_reserved":false,"is_disabled":false,"rental_uris":{"android":"levelo://app?vid=b825cc48-1e3d-4178-93f6-8fb4d03247ce","ios":"levelo://app?vid=b825cc48-1e3d-4178-93f6-8fb4d03247ce"},"vehicle_type_id":"4","last_reported":1685304386,"current_range_meters":0,"station_id":"ce4bhop2rcd13ifvqh7g","pricing_plan_id":"free"},{"bike_id":"73d25e44-bd72-4b43-b7e4-a950bd00724f","system_id":"levelo_inurba_marseille","lat":43.278401,"lon":5.392152,"is_reserved":false,"is_disabled":false,"rental_uris":{"android":"levelo://app?vid=73d25e44-bd72-4b43-b7e4-a950bd00724f","ios":"levelo://app?vid=73d25e44-bd72-4b43-b7e4-a950bd00724f"},"vehicle_type_id":"4","last_reported":1685304386,"current_range_meters":6400,"station_id":"ce4bhjp2rcd13ifvqga0","pricing_plan_id":"free"},{"bike_id":"24394be6-1680-4ed0-a4e9-7e5865163486","system_id":"levelo_inurba_marseille","lat":43.273613,"lon":5.362705,"is_reserved":false,"is_disabled":false,"rental_uris":{"android":"levelo://app?vid=24394be6-1680-4ed0-a4e9-7e5865163486","ios":"levelo://app?vid=24394be6-1680-4ed0-a4e9-7e5865163486"},"vehicle_type_id":"4","last_reported":1685304386,"current_range_meters":800,"station_id":"ce4bhbh2rcd13ifvqeo0","pricing_plan_id":"free"},{"bike_id":"448e1e79-7a00-445f-9439-0c43795fce70","system_id":"levelo_inurba_marseille","lat":43.27372,"lon":5.36254,"is_reserved":false,"is_disabled":false,"rental_uris":{"android":"levelo://app?vid=448e1e79-7a00-445f-9439-0c43795fce70","ios":"levelo://app?vid=448e1e79-7a00-445f-9439-0c43795fce70"},"vehicle_type_id":"4","last_reported":1685304386,"current_range_meters":0,"station_id":"ce4bhbh2rcd13ifvqeo0","pricing_plan_id":"free"},{"bike_id":"b1b0a7db-5dc3-4ba7-ba19-eaa80cde5778","system_id":"levelo_inurba_marseille","lat":43.33612,"lon":5.410321,"is_reserved":false,"is_disabled":false,"rental_uris":{"android":"levelo://app?vid=b1b0a7db-5dc3-4ba7-ba19-eaa80cde5778","ios":"levelo://app?vid=b1b0a7db-5dc3-4ba7-ba19-eaa80cde5778"},"vehicle_type_id":"4","last_reported":1685304386,"current_range_meters":2000,"station_id":"ce4bhqh2rcd13ifvqhmg","pricing_plan_id":"free"},{"bike_id":"91b49189-18df-431a-bbbf-f0b2350181de","system_id":"levelo_inurba_marseille","lat":43.28416,"lon":5.40792,"is_reserved":false,"is_disabled":false,"rental_uris":{"android":"levelo://app?vid=91b49189-18df-431a-bbbf-f0b2350181de","ios":"levelo://app?vid=91b49189-18df-431a-bbbf-f0b2350181de"},"vehicle_type_id":"4","last_reported":1685304386,"current_range_meters":6000,"station_id":"","pricing_plan_id":"free"},{"bike_id":"6b586849-4cb2-4f0c-a6d8-7549b3a03b77","system_id":"levelo_inurba_marseille","lat":43.310785,"lon":5.424305,"is_reserved":false,"is_disabled":false,"rental_uris":{"android":"levelo://app?vid=6b586849-4cb2-4f0c-a6d8-7549b3a03b77","ios":"levelo://app?vid=6b586849-4cb2-4f0c-a6d8-7549b3a03b77"},"vehicle_type_id":"4","last_reported":1685304386,"current_range_meters":21200,"station_id":"ce4bhp92rcd13ifvqhag","pricing_plan_id":"free"},{"bike_id":"61975327-2901-4c46-99c0-45dcaddab9b1","system_id":"levelo_inurba_marseille","lat":43.27302,"lon":5.39091,"is_reserved":false,"is_disabled":false,"rental_uris":{"android":"levelo://app?vid=61975327-2901-4c46-99c0-45dcaddab9b1","ios":"levelo://app?vid=61975327-2901-4c46-99c0-45dcaddab9b1"},"vehicle_type_id":"4","last_reported":1685304386,"current_range_meters":0,"station_id":"ce4bhgp2rcd13ifvqfe0","pricing_plan_id":"free"},{"bike_id":"a429b482-454d-4125-b3ab-2aedb91094d1","system_id":"levelo_inurba_marseille","lat":43.2955,"lon":5.42281,"is_reserved":false,"is_disabled":false,"rental_uris":{"android":"levelo://app?vid=a429b482-454d-4125-b3ab-2aedb91094d1","ios":"levelo://app?vid=a429b482-454d-4125-b3ab-2aedb91094d1"},"vehicle_type_id":"4","last_reported":1685304386,"current_range_meters":2400,"station_id":"ce4bhph2rcd13ifvqhdg","pricing_plan_id":"free"},{"bike_id":"ba276931-2995-4f81-bd86-7628bc67d43a","system_id":"levelo_inurba_marseille","lat":43.295523,"lon":5.422926,"is_reserved":false,"is_disabled":false,"rental_uris":{"android":"levelo://app?vid=ba276931-2995-4f81-bd86-7628bc67d43a","ios":"levelo://app?vid=ba276931-2995-4f81-bd86-7628bc67d43a"},"vehicle_type_id":"4","last_reported":1685304386,"current_range_meters":10000,"station_id":"ce4bhph2rcd13ifvqhdg","pricing_plan_id":"free"},{"bike_id":"1d95db75-c7e0-4ed1-9200-07ac3604b2cc","system_id":"levelo_inurba_marseille","lat":43.26681,"lon":5.382694,"is_reserved":false,"is_disabled":false,"rental_uris":{"android":"levelo://app?vid=1d95db75-c7e0-4ed1-9200-07ac3604b2cc","ios":"levelo://app?vid=1d95db75-c7e0-4ed1-9200-07ac3604b2cc"},"vehicle_type_id":"4","last_reported":1685304386,"current_range_meters":4000,"station_id":"ce4bhg92rcd13ifvqf90","pricing_plan_id":"free"},{"bike_id":"97f92444-dc7f-4ac8-885e-43ac50454dc0","system_id":"levelo_inurba_marseille","lat":43.31679,"lon":5.43328,"is_reserved":false,"is_disabled":false,"rental_uris":{"android":"levelo://app?vid=97f92444-dc7f-4ac8-885e-43ac50454dc0","ios":"levelo://app?vid=97f92444-dc7f-4ac8-885e-43ac50454dc0"},"vehicle_type_id":"4","last_reported":1685304386,"current_range_meters":0,"station_id":"","pricing_plan_id":"free"},{"bike_id":"e065ceaf-3d4c-4df5-ab28-155e7ac2b139","system_id":"levelo_inurba_marseille","lat":43.27994,"lon":5.41643,"is_reserved":false,"is_disabled":false,"rental_uris":{"android":"levelo://app?vid=e065ceaf-3d4c-4df5-ab28-155e7ac2b139","ios":"levelo://app?vid=e065ceaf-3d4c-4df5-ab28-155e7ac2b139"},"vehicle_type_id":"4","last_reported":1685304386,"current_range_meters":0,"station_id":"ce4bho12rcd13ifvqh1g","pricing_plan_id":"free"},{"bike_id":"b8e07922-f074-4378-9c0d-0a256de36fe0","system_id":"levelo_inurba_marseille","lat":43.30803,"lon":5.43522,"is_reserved":false,"is_disabled":false,"rental_uris":{"android":"levelo://app?vid=b8e07922-f074-4378-9c0d-0a256de36fe0","ios":"levelo://app?vid=b8e07922-f074-4378-9c0d-0a256de36fe0"},"vehicle_type_id":"4","last_reported":1685304386,"current_range_meters":12800,"station_id":"","pricing_plan_id":"free"},{"bike_id":"2c45440e-1828-4603-b51e-78bb9b02645f","system_id":"levelo_inurba_marseille","lat":43.30428,"lon":5.43476,"is_reserved":false,"is_disabled":false,"rental_uris":{"android":"levelo://app?vid=2c45440e-1828-4603-b51e-78bb9b02645f","ios":"levelo://app?vid=2c45440e-1828-4603-b51e-78bb9b02645f"},"vehicle_type_id":"4","last_reported":1685304386,"current_range_meters":1600,"station_id":"","pricing_plan_id":"free"},{"bike_id":"c16352f9-c9b9-4b9a-9086-c8518e5fdde4","system_id":"levelo_inurba_marseille","lat":43.317104,"lon":5.436818,"is_reserved":false,"is_disabled":false,"rental_uris":{"android":"levelo://app?vid=c16352f9-c9b9-4b9a-9086-c8518e5fdde4","ios":"levelo://app?vid=c16352f9-c9b9-4b9a-9086-c8518e5fdde4"},"vehicle_type_id":"4","last_reported":1685304386,"current_range_meters":0,"station_id":"ce4bhp92rcd13ifvqhcg","pricing_plan_id":"free"},{"bike_id":"933f42be-453b-4f51-8fc5-139da5459b29","system_id":"levelo_inurba_marseille","lat":43.28089,"lon":5.42219,"is_reserved":false,"is_disabled":false,"rental_uris":{"android":"levelo://app?vid=933f42be-453b-4f51-8fc5-139da5459b29","ios":"levelo://app?vid=933f42be-453b-4f51-8fc5-139da5459b29"},"vehicle_type_id":"4","last_reported":1685304386,"current_range_meters":4000,"station_id":"","pricing_plan_id":"free"},{"bike_id":"7d4d26e9-b5f1-40c4-b984-9e1b1afad6c3","system_id":"levelo_inurba_marseille","lat":43.262012,"lon":5.379307,"is_reserved":false,"is_disabled":false,"rental_uris":{"android":"levelo://app?vid=7d4d26e9-b5f1-40c4-b984-9e1b1afad6c3","ios":"levelo://app?vid=7d4d26e9-b5f1-40c4-b984-9e1b1afad6c3"},"vehicle_type_id":"4","last_reported":1685304386,"current_range_meters":10400,"station_id":"ce4bhjp2rcd13ifvqg90","pricing_plan_id":"free"},{"bike_id":"760bfc38-e96f-40b9-8091-70e7d4460480","system_id":"levelo_inurba_marseille","lat":43.26195,"lon":5.37927,"is_reserved":false,"is_disabled":false,"rental_uris":{"android":"levelo://app?vid=760bfc38-e96f-40b9-8091-70e7d4460480","ios":"levelo://app?vid=760bfc38-e96f-40b9-8091-70e7d4460480"},"vehicle_type_id":"4","last_reported":1685304386,"current_range_meters":0,"station_id":"ce4bhjp2rcd13ifvqg90","pricing_plan_id":"free"},{"bike_id":"eca827c5-b9bd-40a3-9e1c-d1ff6e6a6756","system_id":"levelo_inurba_marseille","lat":43.267959,"lon":5.402685,"is_reserved":false,"is_disabled":false,"rental_uris":{"android":"levelo://app?vid=eca827c5-b9bd-40a3-9e1c-d1ff6e6a6756","ios":"levelo://app?vid=eca827c5-b9bd-40a3-9e1c-d1ff6e6a6756"},"vehicle_type_id":"4","last_reported":1685304386,"current_range_meters":5200,"station_id":"ce501612rcd8frsf0b60","pricing_plan_id":"free"},{"bike_id":"62469a1d-6408-4d54-bf2a-f2ea2e51b798","system_id":"levelo_inurba_marseille","lat":43.267959,"lon":5.402687,"is_reserved":false,"is_disabled":false,"rental_uris":{"android":"levelo://app?vid=62469a1d-6408-4d54-bf2a-f2ea2e51b798","ios":"levelo://app?vid=62469a1d-6408-4d54-bf2a-f2ea2e51b798"},"vehicle_type_id":"4","last_reported":1685304386,"current_range_meters":1600,"station_id":"ce501612rcd8frsf0b60","pricing_plan_id":"free"},{"bike_id":"6b404443-757b-4b8d-9a78-a03ca59013fb","system_id":"levelo_inurba_marseille","lat":43.2592,"lon":5.37283,"is_reserved":false,"is_disabled":false,"rental_uris":{"android":"levelo://app?vid=6b404443-757b-4b8d-9a78-a03ca59013fb","ios":"levelo://app?vid=6b404443-757b-4b8d-9a78-a03ca59013fb"},"vehicle_type_id":"4","last_reported":1685304386,"current_range_meters":9200,"station_id":"","pricing_plan_id":"free"},{"bike_id":"f80b167f-300a-4305-99bb-c8fceea4ef31","system_id":"levelo_inurba_marseille","lat":43.255756,"lon":5.382303,"is_reserved":false,"is_disabled":false,"rental_uris":{"android":"levelo://app?vid=f80b167f-300a-4305-99bb-c8fceea4ef31","ios":"levelo://app?vid=f80b167f-300a-4305-99bb-c8fceea4ef31"},"vehicle_type_id":"4","last_reported":1685304386,"current_range_meters":2800,"station_id":"ce4bhih2rcd13ifvqfs0","pricing_plan_id":"free"},{"bike_id":"21a94e83-2bcf-4902-8a6a-85407ac0d3c9","system_id":"levelo_inurba_marseille","lat":43.254952,"lon":5.376471,"is_reserved":false,"is_disabled":false,"rental_uris":{"android":"levelo://app?vid=21a94e83-2bcf-4902-8a6a-85407ac0d3c9","ios":"levelo://app?vid=21a94e83-2bcf-4902-8a6a-85407ac0d3c9"},"vehicle_type_id":"4","last_reported":1685304386,"current_range_meters":0,"station_id":"","pricing_plan_id":"free"},{"bike_id":"f93f6287-4fe6-4336-bb31-fdff42be9b22","system_id":"levelo_inurba_marseille","lat":43.254947,"lon":5.376454,"is_reserved":false,"is_disabled":false,"rental_uris":{"android":"levelo://app?vid=f93f6287-4fe6-4336-bb31-fdff42be9b22","ios":"levelo://app?vid=f93f6287-4fe6-4336-bb31-fdff42be9b22"},"vehicle_type_id":"4","last_reported":1685304386,"current_range_meters":22400,"station_id":"ce4bhh12rcd13ifvqff0","pricing_plan_id":"free"},{"bike_id":"f70601b2-90d1-4791-8127-007efe8e864b","system_id":"levelo_inurba_marseille","lat":43.27073,"lon":5.42277,"is_reserved":false,"is_disabled":false,"rental_uris":{"android":"levelo://app?vid=f70601b2-90d1-4791-8127-007efe8e864b","ios":"levelo://app?vid=f70601b2-90d1-4791-8127-007efe8e864b"},"vehicle_type_id":"4","last_reported":1685304386,"current_range_meters":1600,"station_id":"ce4bhk92rcd13ifvqgb0","pricing_plan_id":"free"},{"bike_id":"69a5ecd5-d1b4-46d1-8414-bd8a28d22556","system_id":"levelo_inurba_marseille","lat":43.27069,"lon":5.42281,"is_reserved":false,"is_disabled":false,"rental_uris":{"android":"levelo://app?vid=69a5ecd5-d1b4-46d1-8414-bd8a28d22556","ios":"levelo://app?vid=69a5ecd5-d1b4-46d1-8414-bd8a28d22556"},"vehicle_type_id":"4","last_reported":1685304386,"current_range_meters":800,"station_id":"ce4bhk92rcd13ifvqgb0","pricing_plan_id":"free"},{"bike_id":"824ad9ca-a7db-41c6-b871-b6c324d69205","system_id":"levelo_inurba_marseille","lat":43.25102,"lon":5.403214,"is_reserved":false,"is_disabled":false,"rental_uris":{"android":"levelo://app?vid=824ad9ca-a7db-41c6-b871-b6c324d69205","ios":"levelo://app?vid=824ad9ca-a7db-41c6-b871-b6c324d69205"},"vehicle_type_id":"4","last_reported":1685304386,"current_range_meters":0,"station_id":"ce4bhlh2rcd13ifvqgig","pricing_plan_id":"free"},{"bike_id":"17ef26ac-7128-4f37-adb6-a2acd52cbb52","system_id":"levelo_inurba_marseille","lat":43.246467,"lon":5.388984,"is_reserved":false,"is_disabled":false,"rental_uris":{"android":"levelo://app?vid=17ef26ac-7128-4f37-adb6-a2acd52cbb52","ios":"levelo://app?vid=17ef26ac-7128-4f37-adb6-a2acd52cbb52"},"vehicle_type_id":"4","last_reported":1685304386,"current_range_meters":1200,"station_id":"ce4bhg12rcd13ifvqf60","pricing_plan_id":"free"},{"bike_id":"6e6391a2-bb1a-4a56-84e7-ae507a528351","system_id":"levelo_inurba_marseille","lat":43.245581,"lon":5.395069,"is_reserved":false,"is_disabled":false,"rental_uris":{"android":"levelo://app?vid=6e6391a2-bb1a-4a56-84e7-ae507a528351","ios":"levelo://app?vid=6e6391a2-bb1a-4a56-84e7-ae507a528351"},"vehicle_type_id":"4","last_reported":1685304386,"current_range_meters":13600,"station_id":"ce4bhlp2rcd13ifvqgjg","pricing_plan_id":"free"},{"bike_id":"71a6b732-7110-40e4-83d6-67ca258bf2b9","system_id":"levelo_inurba_marseille","lat":43.245581,"lon":5.395069,"is_reserved":false,"is_disabled":false,"rental_uris":{"android":"levelo://app?vid=71a6b732-7110-40e4-83d6-67ca258bf2b9","ios":"levelo://app?vid=71a6b732-7110-40e4-83d6-67ca258bf2b9"},"vehicle_type_id":"4","last_reported":1685304386,"current_range_meters":1600,"station_id":"ce4bhlp2rcd13ifvqgjg","pricing_plan_id":"free"},{"bike_id":"3f0a9dc9-0509-4c14-9cde-4da06b6fe1a3","system_id":"levelo_inurba_marseille","lat":43.24082,"lon":5.37747,"is_reserved":false,"is_disabled":false,"rental_uris":{"android":"levelo://app?vid=3f0a9dc9-0509-4c14-9cde-4da06b6fe1a3","ios":"levelo://app?vid=3f0a9dc9-0509-4c14-9cde-4da06b6fe1a3"},"vehicle_type_id":"4","last_reported":1685304386,"current_range_meters":10800,"station_id":"","pricing_plan_id":"free"},{"bike_id":"cbbd08c5-0253-46f1-872a-15def88c8d47","system_id":"levelo_inurba_marseille","lat":43.24082,"lon":5.37756,"is_reserved":false,"is_disabled":false,"rental_uris":{"android":"levelo://app?vid=cbbd08c5-0253-46f1-872a-15def88c8d47","ios":"levelo://app?vid=cbbd08c5-0253-46f1-872a-15def88c8d47"},"vehicle_type_id":"4","last_reported":1685304386,"current_range_meters":20400,"station_id":"","pricing_plan_id":"free"},{"bike_id":"ceca2ac0-fad6-49a0-803a-c9d0b85268fd","system_id":"levelo_inurba_marseille","lat":43.24078,"lon":5.37755,"is_reserved":false,"is_disabled":false,"rental_uris":{"android":"levelo://app?vid=ceca2ac0-fad6-49a0-803a-c9d0b85268fd","ios":"levelo://app?vid=ceca2ac0-fad6-49a0-803a-c9d0b85268fd"},"vehicle_type_id":"4","last_reported":1685304386,"current_range_meters":29600,"station_id":"","pricing_plan_id":"free"},{"bike_id":"e0f8d820-f6b0-4427-91e6-b251bd50dfb6","system_id":"levelo_inurba_marseille","lat":43.24077,"lon":5.37744,"is_reserved":false,"is_disabled":false,"rental_uris":{"android":"levelo://app?vid=e0f8d820-f6b0-4427-91e6-b251bd50dfb6","ios":"levelo://app?vid=e0f8d820-f6b0-4427-91e6-b251bd50dfb6"},"vehicle_type_id":"4","last_reported":1685304386,"current_range_meters":18000,"station_id":"","pricing_plan_id":"free"},{"bike_id":"3c0fb543-7d5f-4ba2-a741-510a465558d5","system_id":"levelo_inurba_marseille","lat":43.24077,"lon":5.37744,"is_reserved":false,"is_disabled":false,"rental_uris":{"android":"levelo://app?vid=3c0fb543-7d5f-4ba2-a741-510a465558d5","ios":"levelo://app?vid=3c0fb543-7d5f-4ba2-a741-510a465558d5"},"vehicle_type_id":"4","last_reported":1685304386,"current_range_meters":29200,"station_id":"","pricing_plan_id":"free"},{"bike_id":"375bea00-7535-40cf-9db3-726053b2716a","system_id":"levelo_inurba_marseille","lat":43.24077,"lon":5.37748,"is_reserved":false,"is_disabled":false,"rental_uris":{"android":"levelo://app?vid=375bea00-7535-40cf-9db3-726053b2716a","ios":"levelo://app?vid=375bea00-7535-40cf-9db3-726053b2716a"},"vehicle_type_id":"4","last_reported":1685304386,"current_range_meters":27600,"station_id":"","pricing_plan_id":"free"},{"bike_id":"9e2be43e-190b-4cc5-8721-cc57121f2777","system_id":"levelo_inurba_marseille","lat":43.24077,"lon":5.37752,"is_reserved":false,"is_disabled":false,"rental_uris":{"android":"levelo://app?vid=9e2be43e-190b-4cc5-8721-cc57121f2777","ios":"levelo://app?vid=9e2be43e-190b-4cc5-8721-cc57121f2777"},"vehicle_type_id":"4","last_reported":1685304386,"current_range_meters":28000,"station_id":"","pricing_plan_id":"free"},{"bike_id":"390dd92b-1f46-4e43-bd1b-3682ea0b00ca","system_id":"levelo_inurba_marseille","lat":43.24076,"lon":5.37748,"is_reserved":false,"is_disabled":false,"rental_uris":{"android":"levelo://app?vid=390dd92b-1f46-4e43-bd1b-3682ea0b00ca","ios":"levelo://app?vid=390dd92b-1f46-4e43-bd1b-3682ea0b00ca"},"vehicle_type_id":"4","last_reported":1685304386,"current_range_meters":9600,"station_id":"","pricing_plan_id":"free"},{"bike_id":"24fb4b69-2e63-47ee-bf98-1a9a16683dcc","system_id":"levelo_inurba_marseille","lat":43.24076,"lon":5.37753,"is_reserved":false,"is_disabled":false,"rental_uris":{"android":"levelo://app?vid=24fb4b69-2e63-47ee-bf98-1a9a16683dcc","ios":"levelo://app?vid=24fb4b69-2e63-47ee-bf98-1a9a16683dcc"},"vehicle_type_id":"4","last_reported":1685304386,"current_range_meters":27200,"station_id":"","pricing_plan_id":"free"},{"bike_id":"f74e004a-452d-418e-b33e-2e373691b1f7","system_id":"levelo_inurba_marseille","lat":43.24075,"lon":5.37755,"is_reserved":false,"is_disabled":false,"rental_uris":{"android":"levelo://app?vid=f74e004a-452d-418e-b33e-2e373691b1f7","ios":"levelo://app?vid=f74e004a-452d-418e-b33e-2e373691b1f7"},"vehicle_type_id":"4","last_reported":1685304386,"current_range_meters":400,"station_id":"","pricing_plan_id":"free"},{"bike_id":"781bbd6d-69b8-4c01-8b47-26f094642a9f","system_id":"levelo_inurba_marseille","lat":43.24073,"lon":5.3774,"is_reserved":false,"is_disabled":false,"rental_uris":{"android":"levelo://app?vid=781bbd6d-69b8-4c01-8b47-26f094642a9f","ios":"levelo://app?vid=781bbd6d-69b8-4c01-8b47-26f094642a9f"},"vehicle_type_id":"4","last_reported":1685304386,"current_range_meters":10400,"station_id":"","pricing_plan_id":"free"},{"bike_id":"936357a5-48fc-44ea-a059-3fbf2761c020","system_id":"levelo_inurba_marseille","lat":43.24073,"lon":5.37746,"is_reserved":false,"is_disabled":false,"rental_uris":{"android":"levelo://app?vid=936357a5-48fc-44ea-a059-3fbf2761c020","ios":"levelo://app?vid=936357a5-48fc-44ea-a059-3fbf2761c020"},"vehicle_type_id":"4","last_reported":1685304386,"current_range_meters":28400,"station_id":"","pricing_plan_id":"free"},{"bike_id":"a7496784-6a6e-438b-982b-361a84d337d6","system_id":"levelo_inurba_marseille","lat":43.24073,"lon":5.37752,"is_reserved":false,"is_disabled":false,"rental_uris":{"android":"levelo://app?vid=a7496784-6a6e-438b-982b-361a84d337d6","ios":"levelo://app?vid=a7496784-6a6e-438b-982b-361a84d337d6"},"vehicle_type_id":"4","last_reported":1685304386,"current_range_meters":28400,"station_id":"","pricing_plan_id":"free"},{"bike_id":"5a6ad831-7e21-4769-aa74-86357a481a4a","system_id":"levelo_inurba_marseille","lat":43.241782,"lon":5.397261,"is_reserved":false,"is_disabled":false,"rental_uris":{"android":"levelo://app?vid=5a6ad831-7e21-4769-aa74-86357a481a4a","ios":"levelo://app?vid=5a6ad831-7e21-4769-aa74-86357a481a4a"},"vehicle_type_id":"4","last_reported":1685304386,"current_range_meters":4800,"station_id":"ce4bhn12rcd13ifvqgpg","pricing_plan_id":"free"},{"bike_id":"ad0adb4a-2606-433b-9170-e94efd3110c1","system_id":"levelo_inurba_marseille","lat":43.241782,"lon":5.397261,"is_reserved":false,"is_disabled":false,"rental_uris":{"android":"levelo://app?vid=ad0adb4a-2606-433b-9170-e94efd3110c1","ios":"levelo://app?vid=ad0adb4a-2606-433b-9170-e94efd3110c1"},"vehicle_type_id":"4","last_reported":1685304386,"current_range_meters":10400,"station_id":"ce4bhn12rcd13ifvqgpg","pricing_plan_id":"free"},{"bike_id":"621982c5-7b25-400f-aa65-4fe7485cff67","system_id":"levelo_inurba_marseille","lat":43.30384,"lon":5.47461,"is_reserved":false,"is_disabled":false,"rental_uris":{"android":"levelo://app?vid=621982c5-7b25-400f-aa65-4fe7485cff67","ios":"levelo://app?vid=621982c5-7b25-400f-aa65-4fe7485cff67"},"vehicle_type_id":"4","last_reported":1685304386,"current_range_meters":28800,"station_id":"","pricing_plan_id":"free"},{"bike_id":"56230511-dc5b-4d08-9a00-988f627fae27","system_id":"levelo_inurba_marseille","lat":43.231793,"lon":5.400044,"is_reserved":false,"is_disabled":false,"rental_uris":{"android":"levelo://app?vid=56230511-dc5b-4d08-9a00-988f627fae27","ios":"levelo://app?vid=56230511-dc5b-4d08-9a00-988f627fae27"},"vehicle_type_id":"4","last_reported":1685304386,"current_range_meters":31200,"station_id":"ce4bhn12rcd13ifvqgqg","pricing_plan_id":"free"},{"bike_id":"67b77559-a903-49c5-9f37-4b2143617b52","system_id":"levelo_inurba_marseille","lat":43.23189,"lon":5.39978,"is_reserved":false,"is_disabled":false,"rental_uris":{"android":"levelo://app?vid=67b77559-a903-49c5-9f37-4b2143617b52","ios":"levelo://app?vid=67b77559-a903-49c5-9f37-4b2143617b52"},"vehicle_type_id":"4","last_reported":1685304386,"current_range_meters":31200,"station_id":"ce4bhn12rcd13ifvqgqg","pricing_plan_id":"free"},{"bike_id":"ae1dde4d-2bf3-4075-a27d-5c93c15f8c70","system_id":"levelo_inurba_marseille","lat":43.2319,"lon":5.39991,"is_reserved":false,"is_disabled":false,"rental_uris":{"android":"levelo://app?vid=ae1dde4d-2bf3-4075-a27d-5c93c15f8c70","ios":"levelo://app?vid=ae1dde4d-2bf3-4075-a27d-5c93c15f8c70"},"vehicle_type_id":"4","last_reported":1685304386,"current_range_meters":25600,"station_id":"ce4bhn12rcd13ifvqgqg","pricing_plan_id":"free"},{"bike_id":"9b868617-b176-4e5b-bbf3-d168630e1c9d","system_id":"levelo_inurba_marseille","lat":43.231793,"lon":5.400044,"is_reserved":false,"is_disabled":false,"rental_uris":{"android":"levelo://app?vid=9b868617-b176-4e5b-bbf3-d168630e1c9d","ios":"levelo://app?vid=9b868617-b176-4e5b-bbf3-d168630e1c9d"},"vehicle_type_id":"4","last_reported":1685304386,"current_range_meters":31200,"station_id":"ce4bhn12rcd13ifvqgqg","pricing_plan_id":"free"},{"bike_id":"19780742-7429-46d5-8a21-489604e7e458","system_id":"levelo_inurba_marseille","lat":43.231793,"lon":5.400044,"is_reserved":false,"is_disabled":false,"rental_uris":{"android":"levelo://app?vid=19780742-7429-46d5-8a21-489604e7e458","ios":"levelo://app?vid=19780742-7429-46d5-8a21-489604e7e458"},"vehicle_type_id":"4","last_reported":1685304386,"current_range_meters":31200,"station_id":"ce4bhn12rcd13ifvqgqg","pricing_plan_id":"free"},{"bike_id":"31dd697e-cbbe-4915-a925-b463fdb47aab","system_id":"levelo_inurba_marseille","lat":43.231793,"lon":5.400044,"is_reserved":false,"is_disabled":false,"rental_uris":{"android":"levelo://app?vid=31dd697e-cbbe-4915-a925-b463fdb47aab","ios":"levelo://app?vid=31dd697e-cbbe-4915-a925-b463fdb47aab"},"vehicle_type_id":"4","last_reported":1685304386,"current_range_meters":31200,"station_id":"ce4bhn12rcd13ifvqgqg","pricing_plan_id":"free"},{"bike_id":"b35c0da7-330d-4e9e-bd1e-9d0408c664b3","system_id":"levelo_inurba_marseille","lat":43.23183,"lon":5.39984,"is_reserved":false,"is_disabled":false,"rental_uris":{"android":"levelo://app?vid=b35c0da7-330d-4e9e-bd1e-9d0408c664b3","ios":"levelo://app?vid=b35c0da7-330d-4e9e-bd1e-9d0408c664b3"},"vehicle_type_id":"4","last_reported":1685304386,"current_range_meters":31200,"station_id":"ce4bhn12rcd13ifvqgqg","pricing_plan_id":"free"},{"bike_id":"46f10739-9f76-433c-8bb0-3129a524ce7d","system_id":"levelo_inurba_marseille","lat":43.23183,"lon":5.39985,"is_reserved":false,"is_disabled":false,"rental_uris":{"android":"levelo://app?vid=46f10739-9f76-433c-8bb0-3129a524ce7d","ios":"levelo://app?vid=46f10739-9f76-433c-8bb0-3129a524ce7d"},"vehicle_type_id":"4","last_reported":1685304386,"current_range_meters":0,"station_id":"ce4bhn12rcd13ifvqgqg","pricing_plan_id":"free"},{"bike_id":"95832486-4dae-4689-9c6a-056a60f31c53","system_id":"levelo_inurba_marseille","lat":43.231793,"lon":5.400044,"is_reserved":false,"is_disabled":false,"rental_uris":{"android":"levelo://app?vid=95832486-4dae-4689-9c6a-056a60f31c53","ios":"levelo://app?vid=95832486-4dae-4689-9c6a-056a60f31c53"},"vehicle_type_id":"4","last_reported":1685304386,"current_range_meters":31200,"station_id":"ce4bhn12rcd13ifvqgqg","pricing_plan_id":"free"},{"bike_id":"a7fbfb05-3a72-4dea-b5c9-12ad7997a8ad","system_id":"levelo_inurba_marseille","lat":43.23178,"lon":5.3998,"is_reserved":false,"is_disabled":false,"rental_uris":{"android":"levelo://app?vid=a7fbfb05-3a72-4dea-b5c9-12ad7997a8ad","ios":"levelo://app?vid=a7fbfb05-3a72-4dea-b5c9-12ad7997a8ad"},"vehicle_type_id":"4","last_reported":1685304386,"current_range_meters":28800,"station_id":"ce4bhn12rcd13ifvqgqg","pricing_plan_id":"free"},{"bike_id":"523054a1-6a41-4d05-9039-d135dd68ad8d","system_id":"levelo_inurba_marseille","lat":43.23178,"lon":5.39981,"is_reserved":false,"is_disabled":false,"rental_uris":{"android":"levelo://app?vid=523054a1-6a41-4d05-9039-d135dd68ad8d","ios":"levelo://app?vid=523054a1-6a41-4d05-9039-d135dd68ad8d"},"vehicle_type_id":"4","last_reported":1685304386,"current_range_meters":31200,"station_id":"ce4bhn12rcd13ifvqgqg","pricing_plan_id":"free"},{"bike_id":"ddeb217c-c36f-4d9f-a6b7-591bb633c619","system_id":"levelo_inurba_marseille","lat":43.23179,"lon":5.39987,"is_reserved":false,"is_disabled":false,"rental_uris":{"android":"levelo://app?vid=ddeb217c-c36f-4d9f-a6b7-591bb633c619","ios":"levelo://app?vid=ddeb217c-c36f-4d9f-a6b7-591bb633c619"},"vehicle_type_id":"4","last_reported":1685304386,"current_range_meters":31200,"station_id":"ce4bhn12rcd13ifvqgqg","pricing_plan_id":"free"},{"bike_id":"d0b52e7f-623a-4470-b0bc-03da6c1e273a","system_id":"levelo_inurba_marseille","lat":43.23173,"lon":5.39986,"is_reserved":false,"is_disabled":false,"rental_uris":{"android":"levelo://app?vid=d0b52e7f-623a-4470-b0bc-03da6c1e273a","ios":"levelo://app?vid=d0b52e7f-623a-4470-b0bc-03da6c1e273a"},"vehicle_type_id":"4","last_reported":1685304386,"current_range_meters":14400,"station_id":"ce4bhn12rcd13ifvqgqg","pricing_plan_id":"free"}]}}