{"last_updated":1731932347,"ttl":60,"version":"2.2","data":{"bikes":[{"bike_id":"6b893b8c-4f33-465a-bddc-64f5161d5051","system_id":"levelo_inurba_marseille","lat":43.28714,"lon":5.37955,"is_reserved":false,"is_disabled":false,"rental_uris":{"android":"levelo://app?vid=6b893b8c-4f33-465a-bddc-64f5161d5051","ios":"levelo://app?vid=6b893b8c-4f33-465a-bddc-64f5161d5051"},"vehicle_type_id":"4","last_reported":1731932347,"current_range_meters":30400,"station_id":"ce4bh9p2rcd13ifvqec0","pricing_plan_id":"cebpf4jnsgd1na2vs0mg"},{"bike_id":"fbd36c66-ebac-4232-b40a-ff7f57d91aa1","system_id":"levelo_inurba_marseille","lat":43.28849,"lon":5.3931,"is_reserved":false,"is_disabled":false,"rental_uris":{"android":"levelo://app?vid=fbd36c66-ebac-4232-b40a-ff7f57d91aa1","ios":"levelo://app?vid=fbd36c66-ebac-4232-b40a-ff7f57d91aa1"},"vehicle_type_id":"4","last_reported":1731932347,"current_range_meters":26800,"station_id":"ce4bh2p2rcd13ifvqdi0","pricing_plan_id":"cebpf4jnsgd1na2vs0mg"},{"bike_id":"71ad5317-72da-49ab-bd09-9f41acc7f593","system_id":"levelo_inurba_marseille","lat":43.29895,"lon":5.43667,"is_reserved":false,"is_disabled":false,"rental_uris":{"android":"levelo://app?vid=71ad5317-72da-49ab-bd09-9f41acc7f593","ios":"levelo://app?vid=71ad5317-72da-49ab-bd09-9f41acc7f593"},"vehicle_type_id":"4","last_reported":1731932347,"current_range_meters":30400,"station_id":"ce4bhpp2rcd13ifvqhfg","pricing_plan_id":"cebpf4jnsgd1na2vs0mg"},{"bike_id":"fb3af305-4514-454e-b4a1-f28931733540","system_id":"levelo_inurba_marseille","lat":43.23186,"lon":5.39982,"is_reserved":false,"is_disabled":false,"rental_uris":{"android":"levelo://app?vid=fb3af305-4514-454e-b4a1-f28931733540","ios":"levelo://app?vid=fb3af305-4514-454e-b4a1-f28931733540"},"vehicle_type_id":"4","last_reported":1731932347,"current_range_meters":33600,"station_id":"ce4bhn12rcd13ifvqgqg","pricing_plan_id":"cebpf4jnsgd1na2vs0mg"},{"bike_id":"793a8820-79ec-4a57-bea9-1a09d70af5a6","system_id":"levelo_inurba_marseille","lat":43.28974,"lon":5.37848,"is_reserved":false,"is_disabled":false,"rental_uris":{"android":"levelo://app?vid=793a8820-79ec-4a57-bea9-1a09d70af5a6","ios":"levelo://app?vid=793a8820-79ec-4a57-bea9-1a09d70af5a6"},"vehicle_type_id":"4","last_reported":1731932347,"current_range_meters":36800,"station_id":"ce4bh9p2rcd13ifvqed0","pricing_plan_id":"cebpf4jnsgd1na2vs0mg"},{"bike_id":"fbeed0de-9fe4-4f4b-b7c3-43123a2fbb74","system_id":"levelo_inurba_marseille","lat":43.29519,"lon":5.39054,"is_reserved":false,"is_disabled":false,"rental_uris":{"android":"levelo://app?vid=fbeed0de-9fe4-4f4b-b7c3-43123a2fbb74","ios":"levelo://app?vid=fbeed0de-9fe4-4f4b-b7c3-43123a2fbb74"},"vehicle_type_id":"4","last_reported":1731932347,"current_range_meters":38800,"station_id":"ce4bh3p2rcd13ifvqdp0","pricing_plan_id":"cebpf4jnsgd1na2vs0mg"},{"bike_id":"11e8276f-7e3a-4231-8884-53696f7571e0","system_id":"levelo_inurba_marseille","lat":43.30134,"lon":5.38781,"is_reserved":false,"is_disabled":false,"rental_uris":{"android":"levelo://app?vid=11e8276f-7e3a-4231-8884-53696f7571e0","ios":"levelo://app?vid=11e8276f-7e3a-4231-8884-53696f7571e0"},"vehicle_type_id":"4","last_reported":1731932347,"current_range_meters":26800,"station_id":"ce4bghh2rcd13ifvqb60","pricing_plan_id":"cebpf4jnsgd1na2vs0mg"},{"bike_id":"2e112695-ec3c-4401-bb40-1a0ddae235da","system_id":"levelo_inurba_marseille","lat":43.27945,"lon":5.41052,"is_reserved":false,"is_disabled":false,"rental_uris":{"android":"levelo://app?vid=2e112695-ec3c-4401-bb40-1a0ddae235da","ios":"levelo://app?vid=2e112695-ec3c-4401-bb40-1a0ddae235da"},"vehicle_type_id":"4","last_reported":1731932347,"current_range_meters":9600,"station_id":"ce4bhnp2rcd13ifvqh0g","pricing_plan_id":"cebpf4jnsgd1na2vs0mg"},{"bike_id":"4c07d5e4-3f48-4074-a1ad-89c1a59ccdd6","system_id":"levelo_inurba_marseille","lat":43.28072,"lon":5.39651,"is_reserved":false,"is_disabled":false,"rental_uris":{"android":"levelo://app?vid=4c07d5e4-3f48-4074-a1ad-89c1a59ccdd6","ios":"levelo://app?vid=4c07d5e4-3f48-4074-a1ad-89c1a59ccdd6"},"vehicle_type_id":"4","last_reported":1731932347,"current_range_meters":15200,"station_id":"ce4bho12rcd13ifvqh2g","pricing_plan_id":"cebpf4jnsgd1na2vs0mg"},{"bike_id":"3f068459-f9f9-440b-b52d-536c2c2f6d6b","system_id":"levelo_inurba_marseille","lat":43.255066,"lon":5.383513,"is_reserved":false,"is_disabled":false,"rental_uris":{"android":"levelo://app?vid=3f068459-f9f9-440b-b52d-536c2c2f6d6b","ios":"levelo://app?vid=3f068459-f9f9-440b-b52d-536c2c2f6d6b"},"vehicle_type_id":"4","last_reported":1731932347,"current_range_meters":8800,"station_id":"ce4bhih2rcd13ifvqfs0","pricing_plan_id":"cebpf4jnsgd1na2vs0mg"},{"bike_id":"494f9251-c339-40fd-a04d-51d84e26ac82","system_id":"levelo_inurba_marseille","lat":43.28469,"lon":5.3591,"is_reserved":false,"is_disabled":false,"rental_uris":{"android":"levelo://app?vid=494f9251-c339-40fd-a04d-51d84e26ac82","ios":"levelo://app?vid=494f9251-c339-40fd-a04d-51d84e26ac82"},"vehicle_type_id":"4","last_reported":1731932347,"current_range_meters":25600,"station_id":"ce4bhah2rcd13ifvqei0","pricing_plan_id":"cebpf4jnsgd1na2vs0mg"},{"bike_id":"3d931d75-d710-4a94-bc9b-adb0f29cf7c4","system_id":"levelo_inurba_marseille","lat":43.337444,"lon":5.374475,"is_reserved":false,"is_disabled":false,"rental_uris":{"android":"levelo://app?vid=3d931d75-d710-4a94-bc9b-adb0f29cf7c4","ios":"levelo://app?vid=3d931d75-d710-4a94-bc9b-adb0f29cf7c4"},"vehicle_type_id":"4","last_reported":1731932347,"current_range_meters":38800,"station_id":"","pricing_plan_id":"cebpf4jnsgd1na2vs0mg"},{"bike_id":"0672d165-d197-4474-bbec-2df95543fd2f","system_id":"levelo_inurba_marseille","lat":43.29903,"lon":5.43668,"is_reserved":false,"is_disabled":false,"rental_uris":{"android":"levelo://app?vid=0672d165-d197-4474-bbec-2df95543fd2f","ios":"levelo://app?vid=0672d165-d197-4474-bbec-2df95543fd2f"},"vehicle_type_id":"4","last_reported":1731932347,"current_range_meters":38000,"station_id":"ce4bhpp2rcd13ifvqhfg","pricing_plan_id":"cebpf4jnsgd1na2vs0mg"},{"bike_id":"8e1608f7-0c9d-4d5a-bdae-d5e906f9b475","system_id":"levelo_inurba_marseille","lat":43.23144,"lon":5.43713,"is_reserved":false,"is_disabled":false,"rental_uris":{"android":"levelo://app?vid=8e1608f7-0c9d-4d5a-bdae-d5e906f9b475","ios":"levelo://app?vid=8e1608f7-0c9d-4d5a-bdae-d5e906f9b475"},"vehicle_type_id":"4","last_reported":1731932347,"current_range_meters":32400,"station_id":"ce4bhmp2rcd13ifvqgog","pricing_plan_id":"cebpf4jnsgd1na2vs0mg"},{"bike_id":"5cf6163b-0b69-4ea6-9575-0a2ed6c16fe9","system_id":"levelo_inurba_marseille","lat":43.27068,"lon":5.42278,"is_reserved":false,"is_disabled":false,"rental_uris":{"android":"levelo://app?vid=5cf6163b-0b69-4ea6-9575-0a2ed6c16fe9","ios":"levelo://app?vid=5cf6163b-0b69-4ea6-9575-0a2ed6c16fe9"},"vehicle_type_id":"4","last_reported":1731932347,"current_range_meters":6000,"station_id":"ce4bhk92rcd13ifvqgb0","pricing_plan_id":"cebpf4jnsgd1na2vs0mg"},{"bike_id":"66b263f2-3f26-4f34-a1cf-e201e386381d","system_id":"levelo_inurba_marseille","lat":43.28707,"lon":5.37394,"is_reserved":false,"is_disabled":false,"rental_uris":{"android":"levelo://app?vid=66b263f2-3f26-4f34-a1cf-e201e386381d","ios":"levelo://app?vid=66b263f2-3f26-4f34-a1cf-e201e386381d"},"vehicle_type_id":"4","last_reported":1731932347,"current_range_meters":35600,"station_id":"ce4bh3p2rcd13ifvqdq0","pricing_plan_id":"cebpf4jnsgd1na2vs0mg"},{"bike_id":"44a8d448-fd1f-4e4a-80ce-a94368837126","system_id":"levelo_inurba_marseille","lat":43.23156,"lon":5.43703,"is_reserved":false,"is_disabled":false,"rental_uris":{"android":"levelo://app?vid=44a8d448-fd1f-4e4a-80ce-a94368837126","ios":"levelo://app?vid=44a8d448-fd1f-4e4a-80ce-a94368837126"},"vehicle_type_id":"4","last_reported":1731932347,"current_range_meters":24400,"station_id":"ce4bhmp2rcd13ifvqgog","pricing_plan_id":"cebpf4jnsgd1na2vs0mg"},{"bike_id":"1e486075-5e9b-4946-8ad0-1f4fbada1da0","system_id":"levelo_inurba_marseille","lat":43.29528,"lon":5.38535,"is_reserved":false,"is_disabled":false,"rental_uris":{"android":"levelo://app?vid=1e486075-5e9b-4946-8ad0-1f4fbada1da0","ios":"levelo://app?vid=1e486075-5e9b-4946-8ad0-1f4fbada1da0"},"vehicle_type_id":"4","last_reported":1731932347,"current_range_meters":17200,"station_id":"ce4bgih2rcd13ifvqba0","pricing_plan_id":"cebpf4jnsgd1na2vs0mg"},{"bike_id":"bf5ad7b1-1f19-4c85-901a-eabb6d2ff88f","system_id":"levelo_inurba_marseille","lat":43.29524,"lon":5.39039,"is_reserved":false,"is_disabled":false,"rental_uris":{"android":"levelo://app?vid=bf5ad7b1-1f19-4c85-901a-eabb6d2ff88f","ios":"levelo://app?vid=bf5ad7b1-1f19-4c85-901a-eabb6d2ff88f"},"vehicle_type_id":"4","last_reported":1731932347,"current_range_meters":26000,"station_id":"ce4bh3p2rcd13ifvqdp0","pricing_plan_id":"cebpf4jnsgd1na2vs0mg"},{"bike_id":"4c167bc3-2964-4625-adc0-c92e539ad80f","system_id":"levelo_inurba_marseille","lat":43.28277,"lon":5.40796,"is_reserved":false,"is_disabled":false,"rental_uris":{"android":"levelo://app?vid=4c167bc3-2964-4625-adc0-c92e539ad80f","ios":"levelo://app?vid=4c167bc3-2964-4625-adc0-c92e539ad80f"},"vehicle_type_id":"4","last_reported":1731932347,"current_range_meters":29600,"station_id":"","pricing_plan_id":"cebpf4jnsgd1na2vs0mg"},{"bike_id":"dc24ccdd-f78a-4bfd-b60d-87b5aafd671c","system_id":"levelo_inurba_marseille","lat":43.30542,"lon":5.36521,"is_reserved":false,"is_disabled":false,"rental_uris":{"android":"levelo://app?vid=dc24ccdd-f78a-4bfd-b60d-87b5aafd671c","ios":"levelo://app?vid=dc24ccdd-f78a-4bfd-b60d-87b5aafd671c"},"vehicle_type_id":"4","last_reported":1731932347,"current_range_meters":32800,"station_id":"ce4bgs12rcd13ifvqcag","pricing_plan_id":"cebpf4jnsgd1na2vs0mg"},{"bike_id":"c3e4d78a-dd1f-4cf1-b44e-038eff147532","system_id":"levelo_inurba_marseille","lat":43.29581,"lon":5.36736,"is_reserved":false,"is_disabled":false,"rental_uris":{"android":"levelo://app?vid=c3e4d78a-dd1f-4cf1-b44e-038eff147532","ios":"levelo://app?vid=c3e4d78a-dd1f-4cf1-b44e-038eff147532"},"vehicle_type_id":"4","last_reported":1731932347,"current_range_meters":38400,"station_id":"ce4bgph2rcd13ifvqc2g","pricing_plan_id":"cebpf4jnsgd1na2vs0mg"},{"bike_id":"6b0ea79e-cb12-4a50-9845-e4686b3cacc8","system_id":"levelo_inurba_marseille","lat":43.295751,"lon":5.399791,"is_reserved":false,"is_disabled":false,"rental_uris":{"android":"levelo://app?vid=6b0ea79e-cb12-4a50-9845-e4686b3cacc8","ios":"levelo://app?vid=6b0ea79e-cb12-4a50-9845-e4686b3cacc8"},"vehicle_type_id":"4","last_reported":1731932347,"current_range_meters":4800,"station_id":"","pricing_plan_id":"cebpf4jnsgd1na2vs0mg"},{"bike_id":"3de79762-7d3a-4ddd-9398-05d2c68d3618","system_id":"levelo_inurba_marseille","lat":43.3376,"lon":5.37442,"is_reserved":false,"is_disabled":false,"rental_uris":{"android":"levelo://app?vid=3de79762-7d3a-4ddd-9398-05d2c68d3618","ios":"levelo://app?vid=3de79762-7d3a-4ddd-9398-05d2c68d3618"},"vehicle_type_id":"4","last_reported":1731932347,"current_range_meters":36400,"station_id":"","pricing_plan_id":"cebpf4jnsgd1na2vs0mg"},{"bike_id":"c6f935b5-1fb8-4ac2-948d-41849ba56e58","system_id":"levelo_inurba_marseille","lat":43.30883,"lon":5.3965,"is_reserved":false,"is_disabled":false,"rental_uris":{"android":"levelo://app?vid=c6f935b5-1fb8-4ac2-948d-41849ba56e58","ios":"levelo://app?vid=c6f935b5-1fb8-4ac2-948d-41849ba56e58"},"vehicle_type_id":"4","last_reported":1731932347,"current_range_meters":37600,"station_id":"ce4bh012rcd13ifvqcv0","pricing_plan_id":"cebpf4jnsgd1na2vs0mg"},{"bike_id":"f65f2de6-593f-43d7-85e7-8d6d4605c51b","system_id":"levelo_inurba_marseille","lat":43.2481,"lon":5.37462,"is_reserved":false,"is_disabled":false,"rental_uris":{"android":"levelo://app?vid=f65f2de6-593f-43d7-85e7-8d6d4605c51b","ios":"levelo://app?vid=f65f2de6-593f-43d7-85e7-8d6d4605c51b"},"vehicle_type_id":"4","last_reported":1731932347,"current_range_meters":6800,"station_id":"ce4bhgh2rcd13ifvqfb0","pricing_plan_id":"cebpf4jnsgd1na2vs0mg"},{"bike_id":"e0b967c0-b35f-4934-9248-f55c41b4f08b","system_id":"levelo_inurba_marseille","lat":43.28151,"lon":5.4422,"is_reserved":false,"is_disabled":false,"rental_uris":{"android":"levelo://app?vid=e0b967c0-b35f-4934-9248-f55c41b4f08b","ios":"levelo://app?vid=e0b967c0-b35f-4934-9248-f55c41b4f08b"},"vehicle_type_id":"4","last_reported":1731932347,"current_range_meters":3200,"station_id":"","pricing_plan_id":"cebpf4jnsgd1na2vs0mg"},{"bike_id":"57edd0e2-68de-4e93-a8c5-cbb7808c0b01","system_id":"levelo_inurba_marseille","lat":43.248062,"lon":5.374562,"is_reserved":false,"is_disabled":false,"rental_uris":{"android":"levelo://app?vid=57edd0e2-68de-4e93-a8c5-cbb7808c0b01","ios":"levelo://app?vid=57edd0e2-68de-4e93-a8c5-cbb7808c0b01"},"vehicle_type_id":"4","last_reported":1731932347,"current_range_meters":19200,"station_id":"ce4bhgh2rcd13ifvqfb0","pricing_plan_id":"cebpf4jnsgd1na2vs0mg"},{"bike_id":"0b38b36a-cb8f-48e5-a013-7abb6c4dcc0e","system_id":"levelo_inurba_marseille","lat":43.27996,"lon":5.40018,"is_reserved":false,"is_disabled":false,"rental_uris":{"android":"levelo://app?vid=0b38b36a-cb8f-48e5-a013-7abb6c4dcc0e","ios":"levelo://app?vid=0b38b36a-cb8f-48e5-a013-7abb6c4dcc0e"},"vehicle_type_id":"4","last_reported":1731932347,"current_range_meters":29600,"station_id":"ce4bho92rcd13ifvqh4g","pricing_plan_id":"cebpf4jnsgd1na2vs0mg"},{"bike_id":"3ea3a6a9-778c-4bf5-bfc8-82c10999fbb3","system_id":"levelo_inurba_marseille","lat":43.30887,"lon":5.39645,"is_reserved":false,"is_disabled":false,"rental_uris":{"android":"levelo://app?vid=3ea3a6a9-778c-4bf5-bfc8-82c10999fbb3","ios":"levelo://app?vid=3ea3a6a9-778c-4bf5-bfc8-82c10999fbb3"},"vehicle_type_id":"4","last_reported":1731932347,"current_range_meters":20400,"station_id":"ce4bh012rcd13ifvqcv0","pricing_plan_id":"cebpf4jnsgd1na2vs0mg"},{"bike_id":"7d9fba33-ebbf-448c-8b19-8956fafad117","system_id":"levelo_inurba_marseille","lat":43.29971,"lon":5.38491,"is_reserved":false,"is_disabled":false,"rental_uris":{"android":"levelo://app?vid=7d9fba33-ebbf-448c-8b19-8956fafad117","ios":"levelo://app?vid=7d9fba33-ebbf-448c-8b19-8956fafad117"},"vehicle_type_id":"4","last_reported":1731932347,"current_range_meters":38000,"station_id":"ce4bgj92rcd13ifvqbd0","pricing_plan_id":"cebpf4jnsgd1na2vs0mg"},{"bike_id":"fa24f433-8299-40f7-ad0e-56445a05e40f","system_id":"levelo_inurba_marseille","lat":43.29724,"lon":5.37689,"is_reserved":false,"is_disabled":false,"rental_uris":{"android":"levelo://app?vid=fa24f433-8299-40f7-ad0e-56445a05e40f","ios":"levelo://app?vid=fa24f433-8299-40f7-ad0e-56445a05e40f"},"vehicle_type_id":"4","last_reported":1731932347,"current_range_meters":38800,"station_id":"ce4bgkh2rcd13ifvqbl0","pricing_plan_id":"cebpf4jnsgd1na2vs0mg"},{"bike_id":"4305c1d1-ca62-4e47-ac96-b9970d6e957d","system_id":"levelo_inurba_marseille","lat":43.23194,"lon":5.35547,"is_reserved":false,"is_disabled":false,"rental_uris":{"android":"levelo://app?vid=4305c1d1-ca62-4e47-ac96-b9970d6e957d","ios":"levelo://app?vid=4305c1d1-ca62-4e47-ac96-b9970d6e957d"},"vehicle_type_id":"4","last_reported":1731932347,"current_range_meters":38800,"station_id":"ce4bhu92rcd13ifvqi70","pricing_plan_id":"cebpf4jnsgd1na2vs0mg"},{"bike_id":"2bd3ae1c-22d2-4b0f-9fd7-42d6b84fc3a3","system_id":"levelo_inurba_marseille","lat":43.33599,"lon":5.41026,"is_reserved":false,"is_disabled":false,"rental_uris":{"android":"levelo://app?vid=2bd3ae1c-22d2-4b0f-9fd7-42d6b84fc3a3","ios":"levelo://app?vid=2bd3ae1c-22d2-4b0f-9fd7-42d6b84fc3a3"},"vehicle_type_id":"4","last_reported":1731932347,"current_range_meters":11200,"station_id":"ce4bhqh2rcd13ifvqhmg","pricing_plan_id":"cebpf4jnsgd1na2vs0mg"},{"bike_id":"6d8695b2-103e-43aa-b446-c14445d21e93","system_id":"levelo_inurba_marseille","lat":43.24077,"lon":5.37755,"is_reserved":false,"is_disabled":false,"rental_uris":{"android":"levelo://app?vid=6d8695b2-103e-43aa-b446-c14445d21e93","ios":"levelo://app?vid=6d8695b2-103e-43aa-b446-c14445d21e93"},"vehicle_type_id":"4","last_reported":1731932347,"current_range_meters":11600,"station_id":"ce4bhnp2rcd13ifvqgvg","pricing_plan_id":"cebpf4jnsgd1na2vs0mg"},{"bike_id":"3ba2b2e1-3c95-4de7-915d-86cf8ebac199","system_id":"levelo_inurba_marseille","lat":43.23151,"lon":5.43723,"is_reserved":false,"is_disabled":false,"rental_uris":{"android":"levelo://app?vid=3ba2b2e1-3c95-4de7-915d-86cf8ebac199","ios":"levelo://app?vid=3ba2b2e1-3c95-4de7-915d-86cf8ebac199"},"vehicle_type_id":"4","last_reported":1731932347,"current_range_meters":10000,"station_id":"ce4bhmp2rcd13ifvqgog","pricing_plan_id":"cebpf4jnsgd1na2vs0mg"},{"bike_id":"57ad4db7-d586-447b-b87c-ff696e31b362","system_id":"levelo_inurba_marseille","lat":43.31756,"lon":5.39025,"is_reserved":false,"is_disabled":false,"rental_uris":{"android":"levelo://app?vid=57ad4db7-d586-447b-b87c-ff696e31b362","ios":"levelo://app?vid=57ad4db7-d586-447b-b87c-ff696e31b362"},"vehicle_type_id":"4","last_reported":1731932347,"current_range_meters":37600,"station_id":"ce4bhqp2rcd13ifvqhng","pricing_plan_id":"cebpf4jnsgd1na2vs0mg"},{"bike_id":"d2f0f3fe-5594-42dd-8e69-8cdbebee7e7d","system_id":"levelo_inurba_marseille","lat":43.23151,"lon":5.43719,"is_reserved":false,"is_disabled":false,"rental_uris":{"android":"levelo://app?vid=d2f0f3fe-5594-42dd-8e69-8cdbebee7e7d","ios":"levelo://app?vid=d2f0f3fe-5594-42dd-8e69-8cdbebee7e7d"},"vehicle_type_id":"4","last_reported":1731932347,"current_range_meters":16800,"station_id":"ce4bhmp2rcd13ifvqgog","pricing_plan_id":"cebpf4jnsgd1na2vs0mg"},{"bike_id":"2c4874ef-9abd-4400-8cd7-bafe971a0da7","system_id":"levelo_inurba_marseille","lat":43.26682,"lon":5.38267,"is_reserved":false,"is_disabled":false,"rental_uris":{"android":"levelo://app?vid=2c4874ef-9abd-4400-8cd7-bafe971a0da7","ios":"levelo://app?vid=2c4874ef-9abd-4400-8cd7-bafe971a0da7"},"vehicle_type_id":"4","last_reported":1731932347,"current_range_meters":38000,"station_id":"ce4bhg92rcd13ifvqf90","pricing_plan_id":"cebpf4jnsgd1na2vs0mg"},{"bike_id":"20b8bb00-4fa4-49d3-b00f-f353e411e243","system_id":"levelo_inurba_marseille","lat":43.27068,"lon":5.42271,"is_reserved":false,"is_disabled":false,"rental_uris":{"android":"levelo://app?vid=20b8bb00-4fa4-49d3-b00f-f353e411e243","ios":"levelo://app?vid=20b8bb00-4fa4-49d3-b00f-f353e411e243"},"vehicle_type_id":"4","last_reported":1731932347,"current_range_meters":16000,"station_id":"ce4bhk92rcd13ifvqgb0","pricing_plan_id":"cebpf4jnsgd1na2vs0mg"},{"bike_id":"5f89f61e-343d-4cfe-8829-222555f36d01","system_id":"levelo_inurba_marseille","lat":43.31356,"lon":5.36707,"is_reserved":false,"is_disabled":false,"rental_uris":{"android":"levelo://app?vid=5f89f61e-343d-4cfe-8829-222555f36d01","ios":"levelo://app?vid=5f89f61e-343d-4cfe-8829-222555f36d01"},"vehicle_type_id":"4","last_reported":1731932347,"current_range_meters":38800,"station_id":"ce4bgr92rcd13ifvqc6g","pricing_plan_id":"cebpf4jnsgd1na2vs0mg"},{"bike_id":"8ca109e0-e49d-4f4a-a4a2-77ef9a59e607","system_id":"levelo_inurba_marseille","lat":43.2928,"lon":5.40134,"is_reserved":false,"is_disabled":false,"rental_uris":{"android":"levelo://app?vid=8ca109e0-e49d-4f4a-a4a2-77ef9a59e607","ios":"levelo://app?vid=8ca109e0-e49d-4f4a-a4a2-77ef9a59e607"},"vehicle_type_id":"4","last_reported":1731932347,"current_range_meters":39200,"station_id":"ce4bh312rcd13ifvqdk0","pricing_plan_id":"cebpf4jnsgd1na2vs0mg"},{"bike_id":"ac599c67-8fb7-41a2-af2d-b0bb783d546f","system_id":"levelo_inurba_marseille","lat":43.23152,"lon":5.43702,"is_reserved":false,"is_disabled":false,"rental_uris":{"android":"levelo://app?vid=ac599c67-8fb7-41a2-af2d-b0bb783d546f","ios":"levelo://app?vid=ac599c67-8fb7-41a2-af2d-b0bb783d546f"},"vehicle_type_id":"4","last_reported":1731932347,"current_range_meters":16400,"station_id":"ce4bhmp2rcd13ifvqgog","pricing_plan_id":"cebpf4jnsgd1na2vs0mg"},{"bike_id":"52fed4ff-8762-4657-a7d0-589d7e75c70f","system_id":"levelo_inurba_marseille","lat":43.30938,"lon":5.40133,"is_reserved":false,"is_disabled":false,"rental_uris":{"android":"levelo://app?vid=52fed4ff-8762-4657-a7d0-589d7e75c70f","ios":"levelo://app?vid=52fed4ff-8762-4657-a7d0-589d7e75c70f"},"vehicle_type_id":"4","last_reported":1731932347,"current_range_meters":26800,"station_id":"ce4bgvp2rcd13ifvqct0","pricing_plan_id":"cebpf4jnsgd1na2vs0mg"},{"bike_id":"6b13ba5b-d2a5-4c1a-90a7-a46cd95f1daf","system_id":"levelo_inurba_marseille","lat":43.25105,"lon":5.4033,"is_reserved":false,"is_disabled":false,"rental_uris":{"android":"levelo://app?vid=6b13ba5b-d2a5-4c1a-90a7-a46cd95f1daf","ios":"levelo://app?vid=6b13ba5b-d2a5-4c1a-90a7-a46cd95f1daf"},"vehicle_type_id":"4","last_reported":1731932347,"current_range_meters":16400,"station_id":"ce4bhlh2rcd13ifvqgig","pricing_plan_id":"cebpf4jnsgd1na2vs0mg"},{"bike_id":"10dc04fe-e3bf-435d-bf01-2e0d45200714","system_id":"levelo_inurba_marseille","lat":43.29594,"lon":5.37711,"is_reserved":false,"is_disabled":false,"rental_uris":{"android":"levelo://app?vid=10dc04fe-e3bf-435d-bf01-2e0d45200714","ios":"levelo://app?vid=10dc04fe-e3bf-435d-bf01-2e0d45200714"},"vehicle_type_id":"4","last_reported":1731932347,"current_range_meters":38800,"station_id":"ce4bgi92rcd13ifvqb90","pricing_plan_id":"cebpf4jnsgd1na2vs0mg"},{"bike_id":"d1759731-db24-4df4-90fa-f63bc0f915e6","system_id":"levelo_inurba_marseille","lat":43.29788,"lon":5.37103,"is_reserved":false,"is_disabled":false,"rental_uris":{"android":"levelo://app?vid=d1759731-db24-4df4-90fa-f63bc0f915e6","ios":"levelo://app?vid=d1759731-db24-4df4-90fa-f63bc0f915e6"},"vehicle_type_id":"4","last_reported":1731932347,"current_range_meters":38400,"station_id":"ce4bgop2rcd13ifvqc1g","pricing_plan_id":"cebpf4jnsgd1na2vs0mg"},{"bike_id":"0037c62e-50ee-41a8-945a-3f9a1405ce9d","system_id":"levelo_inurba_marseille","lat":43.31325,"lon":5.39696,"is_reserved":false,"is_disabled":false,"rental_uris":{"android":"levelo://app?vid=0037c62e-50ee-41a8-945a-3f9a1405ce9d","ios":"levelo://app?vid=0037c62e-50ee-41a8-945a-3f9a1405ce9d"},"vehicle_type_id":"4","last_reported":1731932347,"current_range_meters":38800,"station_id":"ce4bgvp2rcd13ifvqcu0","pricing_plan_id":"cebpf4jnsgd1na2vs0mg"},{"bike_id":"da399c6c-6c7b-422b-bff4-8338fa542610","system_id":"levelo_inurba_marseille","lat":43.329655,"lon":5.407997,"is_reserved":false,"is_disabled":false,"rental_uris":{"android":"levelo://app?vid=da399c6c-6c7b-422b-bff4-8338fa542610","ios":"levelo://app?vid=da399c6c-6c7b-422b-bff4-8338fa542610"},"vehicle_type_id":"4","last_reported":1731932347,"current_range_meters":32400,"station_id":"ce4bgth2rcd13ifvqch0","pricing_plan_id":"cebpf4jnsgd1na2vs0mg"},{"bike_id":"27757d2e-94cc-46f1-b4e2-8780c773e562","system_id":"levelo_inurba_marseille","lat":43.34134,"lon":5.40906,"is_reserved":false,"is_disabled":false,"rental_uris":{"android":"levelo://app?vid=27757d2e-94cc-46f1-b4e2-8780c773e562","ios":"levelo://app?vid=27757d2e-94cc-46f1-b4e2-8780c773e562"},"vehicle_type_id":"4","last_reported":1731932347,"current_range_meters":28800,"station_id":"ce4bhqh2rcd13ifvqhlg","pricing_plan_id":"cebpf4jnsgd1na2vs0mg"},{"bike_id":"b2ba89af-6757-479d-bac0-4ca56f0725ca","system_id":"levelo_inurba_marseille","lat":43.3121,"lon":5.37018,"is_reserved":false,"is_disabled":false,"rental_uris":{"android":"levelo://app?vid=b2ba89af-6757-479d-bac0-4ca56f0725ca","ios":"levelo://app?vid=b2ba89af-6757-479d-bac0-4ca56f0725ca"},"vehicle_type_id":"4","last_reported":1731932347,"current_range_meters":32000,"station_id":"","pricing_plan_id":"cebpf4jnsgd1na2vs0mg"},{"bike_id":"0c531cec-5382-424c-90a1-c3026392058a","system_id":"levelo_inurba_marseille","lat":43.30145,"lon":5.39869,"is_reserved":false,"is_disabled":false,"rental_uris":{"android":"levelo://app?vid=0c531cec-5382-424c-90a1-c3026392058a","ios":"levelo://app?vid=0c531cec-5382-424c-90a1-c3026392058a"},"vehicle_type_id":"4","last_reported":1731932347,"current_range_meters":21600,"station_id":"ce4bh0h2rcd13ifvqd40","pricing_plan_id":"cebpf4jnsgd1na2vs0mg"},{"bike_id":"d1e6ff92-2663-48b8-94f4-b1b6bb209f32","system_id":"levelo_inurba_marseille","lat":43.29225,"lon":5.36065,"is_reserved":false,"is_disabled":false,"rental_uris":{"android":"levelo://app?vid=d1e6ff92-2663-48b8-94f4-b1b6bb209f32","ios":"levelo://app?vid=d1e6ff92-2663-48b8-94f4-b1b6bb209f32"},"vehicle_type_id":"4","last_reported":1731932347,"current_range_meters":24400,"station_id":"ce4bhbh2rcd13ifvqeqg","pricing_plan_id":"cebpf4jnsgd1na2vs0mg"},{"bike_id":"f493fbd1-a6d2-46e7-bd5f-a282c47329e6","system_id":"levelo_inurba_marseille","lat":43.29901,"lon":5.43662,"is_reserved":false,"is_disabled":false,"rental_uris":{"android":"levelo://app?vid=f493fbd1-a6d2-46e7-bd5f-a282c47329e6","ios":"levelo://app?vid=f493fbd1-a6d2-46e7-bd5f-a282c47329e6"},"vehicle_type_id":"4","last_reported":1731932347,"current_range_meters":39200,"station_id":"ce4bhpp2rcd13ifvqhfg","pricing_plan_id":"cebpf4jnsgd1na2vs0mg"},{"bike_id":"caa6207f-417f-4529-8da9-9310fd916be2","system_id":"levelo_inurba_marseille","lat":43.28437,"lon":5.39185,"is_reserved":false,"is_disabled":false,"rental_uris":{"android":"levelo://app?vid=caa6207f-417f-4529-8da9-9310fd916be2","ios":"levelo://app?vid=caa6207f-417f-4529-8da9-9310fd916be2"},"vehicle_type_id":"4","last_reported":1731932347,"current_range_meters":32400,"station_id":"ce4bhoh2rcd13ifvqh5g","pricing_plan_id":"cebpf4jnsgd1na2vs0mg"},{"bike_id":"0e841474-d88b-404e-8cc1-c96b9af392c3","system_id":"levelo_inurba_marseille","lat":43.24668,"lon":5.38158,"is_reserved":false,"is_disabled":false,"rental_uris":{"android":"levelo://app?vid=0e841474-d88b-404e-8cc1-c96b9af392c3","ios":"levelo://app?vid=0e841474-d88b-404e-8cc1-c96b9af392c3"},"vehicle_type_id":"4","last_reported":1731932347,"current_range_meters":38800,"station_id":"ce4bhih2rcd13ifvqfr0","pricing_plan_id":"cebpf4jnsgd1na2vs0mg"},{"bike_id":"5f7af20b-8740-416c-a770-66f799e39f12","system_id":"levelo_inurba_marseille","lat":43.30558,"lon":5.36538,"is_reserved":false,"is_disabled":false,"rental_uris":{"android":"levelo://app?vid=5f7af20b-8740-416c-a770-66f799e39f12","ios":"levelo://app?vid=5f7af20b-8740-416c-a770-66f799e39f12"},"vehicle_type_id":"4","last_reported":1731932347,"current_range_meters":26000,"station_id":"ce4bgs12rcd13ifvqcag","pricing_plan_id":"cebpf4jnsgd1na2vs0mg"},{"bike_id":"84224ccb-c473-401a-82b7-1eb00590305a","system_id":"levelo_inurba_marseille","lat":43.29966,"lon":5.41322,"is_reserved":false,"is_disabled":false,"rental_uris":{"android":"levelo://app?vid=84224ccb-c473-401a-82b7-1eb00590305a","ios":"levelo://app?vid=84224ccb-c473-401a-82b7-1eb00590305a"},"vehicle_type_id":"4","last_reported":1731932347,"current_range_meters":38800,"station_id":"ce4bhp12rcd13ifvqh9g","pricing_plan_id":"cebpf4jnsgd1na2vs0mg"},{"bike_id":"bda6c3e6-ef39-4a09-9550-83db497746cc","system_id":"levelo_inurba_marseille","lat":43.28725,"lon":5.37934,"is_reserved":false,"is_disabled":false,"rental_uris":{"android":"levelo://app?vid=bda6c3e6-ef39-4a09-9550-83db497746cc","ios":"levelo://app?vid=bda6c3e6-ef39-4a09-9550-83db497746cc"},"vehicle_type_id":"4","last_reported":1731932347,"current_range_meters":33600,"station_id":"ce4bh9p2rcd13ifvqec0","pricing_plan_id":"cebpf4jnsgd1na2vs0mg"},{"bike_id":"c3b2f2e4-a56b-4032-90ec-36bdae251001","system_id":"levelo_inurba_marseille","lat":43.30537,"lon":5.36522,"is_reserved":false,"is_disabled":false,"rental_uris":{"android":"levelo://app?vid=c3b2f2e4-a56b-4032-90ec-36bdae251001","ios":"levelo://app?vid=c3b2f2e4-a56b-4032-90ec-36bdae251001"},"vehicle_type_id":"4","last_reported":1731932347,"current_range_meters":37600,"station_id":"ce4bgs12rcd13ifvqcag","pricing_plan_id":"cebpf4jnsgd1na2vs0mg"},{"bike_id":"0d9b068e-144a-46ce-89b8-ecb7354da06b","system_id":"levelo_inurba_marseille","lat":43.29961,"lon":5.38501,"is_reserved":false,"is_disabled":false,"rental_uris":{"android":"levelo://app?vid=0d9b068e-144a-46ce-89b8-ecb7354da06b","ios":"levelo://app?vid=0d9b068e-144a-46ce-89b8-ecb7354da06b"},"vehicle_type_id":"4","last_reported":1731932347,"current_range_meters":14800,"station_id":"ce4bgj92rcd13ifvqbd0","pricing_plan_id":"cebpf4jnsgd1na2vs0mg"},{"bike_id":"01272bd5-a2c0-44b6-b76e-87cd305d9451","system_id":"levelo_inurba_marseille","lat":43.3302,"lon":5.39044,"is_reserved":false,"is_disabled":false,"rental_uris":{"android":"levelo://app?vid=01272bd5-a2c0-44b6-b76e-87cd305d9451","ios":"levelo://app?vid=01272bd5-a2c0-44b6-b76e-87cd305d9451"},"vehicle_type_id":"4","last_reported":1731932347,"current_range_meters":9600,"station_id":"ce4bhr92rcd13ifvqhrg","pricing_plan_id":"cebpf4jnsgd1na2vs0mg"},{"bike_id":"7694d120-882b-4df8-9318-0f76e5aee323","system_id":"levelo_inurba_marseille","lat":43.29808,"lon":5.37736,"is_reserved":false,"is_disabled":false,"rental_uris":{"android":"levelo://app?vid=7694d120-882b-4df8-9318-0f76e5aee323","ios":"levelo://app?vid=7694d120-882b-4df8-9318-0f76e5aee323"},"vehicle_type_id":"4","last_reported":1731932347,"current_range_meters":30000,"station_id":"","pricing_plan_id":"cebpf4jnsgd1na2vs0mg"},{"bike_id":"8b13ea1d-7fc8-4b9d-b181-f61f78e9246f","system_id":"levelo_inurba_marseille","lat":43.24386,"lon":5.3706,"is_reserved":false,"is_disabled":false,"rental_uris":{"android":"levelo://app?vid=8b13ea1d-7fc8-4b9d-b181-f61f78e9246f","ios":"levelo://app?vid=8b13ea1d-7fc8-4b9d-b181-f61f78e9246f"},"vehicle_type_id":"4","last_reported":1731932347,"current_range_meters":8000,"station_id":"ce4bhhh2rcd13ifvqfk0","pricing_plan_id":"cebpf4jnsgd1na2vs0mg"},{"bike_id":"8a5f23ee-ed6f-4d20-a0e5-4fc90a1a04b0","system_id":"levelo_inurba_marseille","lat":43.29582,"lon":5.3674,"is_reserved":false,"is_disabled":false,"rental_uris":{"android":"levelo://app?vid=8a5f23ee-ed6f-4d20-a0e5-4fc90a1a04b0","ios":"levelo://app?vid=8a5f23ee-ed6f-4d20-a0e5-4fc90a1a04b0"},"vehicle_type_id":"4","last_reported":1731932347,"current_range_meters":32000,"station_id":"ce4bgph2rcd13ifvqc2g","pricing_plan_id":"cebpf4jnsgd1na2vs0mg"},{"bike_id":"38d578e7-9651-47c3-80e0-056d6d00cd0f","system_id":"levelo_inurba_marseille","lat":43.29845,"lon":5.36287,"is_reserved":false,"is_disabled":false,"rental_uris":{"android":"levelo://app?vid=38d578e7-9651-47c3-80e0-056d6d00cd0f","ios":"levelo://app?vid=38d578e7-9651-47c3-80e0-056d6d00cd0f"},"vehicle_type_id":"4","last_reported":1731932347,"current_range_meters":30000,"station_id":"ce4bgpp2rcd13ifvqc3g","pricing_plan_id":"cebpf4jnsgd1na2vs0mg"},{"bike_id":"544bce55-1e85-4e98-a209-2af12c13b1c9","system_id":"levelo_inurba_marseille","lat":43.31537,"lon":5.38032,"is_reserved":false,"is_disabled":false,"rental_uris":{"android":"levelo://app?vid=544bce55-1e85-4e98-a209-2af12c13b1c9","ios":"levelo://app?vid=544bce55-1e85-4e98-a209-2af12c13b1c9"},"vehicle_type_id":"4","last_reported":1731932347,"current_range_meters":29600,"station_id":"ce4bhsp2rcd13ifvqi50","pricing_plan_id":"cebpf4jnsgd1na2vs0mg"},{"bike_id":"2f0566f0-6722-4867-b0d5-8fc7bc217b0b","system_id":"levelo_inurba_marseille","lat":43.29596,"lon":5.38113,"is_reserved":false,"is_disabled":false,"rental_uris":{"android":"levelo://app?vid=2f0566f0-6722-4867-b0d5-8fc7bc217b0b","ios":"levelo://app?vid=2f0566f0-6722-4867-b0d5-8fc7bc217b0b"},"vehicle_type_id":"4","last_reported":1731932347,"current_range_meters":30800,"station_id":"ce4bgl12rcd13ifvqbo0","pricing_plan_id":"cebpf4jnsgd1na2vs0mg"},{"bike_id":"cb3165b9-4890-480d-ae63-784fba188dfc","system_id":"levelo_inurba_marseille","lat":43.2707,"lon":5.42278,"is_reserved":false,"is_disabled":false,"rental_uris":{"android":"levelo://app?vid=cb3165b9-4890-480d-ae63-784fba188dfc","ios":"levelo://app?vid=cb3165b9-4890-480d-ae63-784fba188dfc"},"vehicle_type_id":"4","last_reported":1731932347,"current_range_meters":38800,"station_id":"ce4bhk92rcd13ifvqgb0","pricing_plan_id":"cebpf4jnsgd1na2vs0mg"},{"bike_id":"686f7aac-3b09-4535-bb65-bd5180cb6ffc","system_id":"levelo_inurba_marseille","lat":43.27369,"lon":5.36262,"is_reserved":false,"is_disabled":false,"rental_uris":{"android":"levelo://app?vid=686f7aac-3b09-4535-bb65-bd5180cb6ffc","ios":"levelo://app?vid=686f7aac-3b09-4535-bb65-bd5180cb6ffc"},"vehicle_type_id":"4","last_reported":1731932347,"current_range_meters":37600,"station_id":"ce4bhbh2rcd13ifvqeo0","pricing_plan_id":"cebpf4jnsgd1na2vs0mg"},{"bike_id":"87aeddb8-5c6a-470f-b943-4a471568686e","system_id":"levelo_inurba_marseille","lat":43.27998,"lon":5.41659,"is_reserved":false,"is_disabled":false,"rental_uris":{"android":"levelo://app?vid=87aeddb8-5c6a-470f-b943-4a471568686e","ios":"levelo://app?vid=87aeddb8-5c6a-470f-b943-4a471568686e"},"vehicle_type_id":"4","last_reported":1731932347,"current_range_meters":30000,"station_id":"ce4bho12rcd13ifvqh1g","pricing_plan_id":"cebpf4jnsgd1na2vs0mg"},{"bike_id":"35e7f4dd-1710-4233-8e4e-e20c05772655","system_id":"levelo_inurba_marseille","lat":43.29583,"lon":5.3674,"is_reserved":false,"is_disabled":false,"rental_uris":{"android":"levelo://app?vid=35e7f4dd-1710-4233-8e4e-e20c05772655","ios":"levelo://app?vid=35e7f4dd-1710-4233-8e4e-e20c05772655"},"vehicle_type_id":"4","last_reported":1731932347,"current_range_meters":37600,"station_id":"ce4bgph2rcd13ifvqc2g","pricing_plan_id":"cebpf4jnsgd1na2vs0mg"},{"bike_id":"5938f129-0be9-4612-acac-86791f6673ad","system_id":"levelo_inurba_marseille","lat":43.28199,"lon":5.4437,"is_reserved":false,"is_disabled":false,"rental_uris":{"android":"levelo://app?vid=5938f129-0be9-4612-acac-86791f6673ad","ios":"levelo://app?vid=5938f129-0be9-4612-acac-86791f6673ad"},"vehicle_type_id":"4","last_reported":1731932347,"current_range_meters":8400,"station_id":"","pricing_plan_id":"cebpf4jnsgd1na2vs0mg"},{"bike_id":"9daea97c-2320-4ff9-bd1d-ed8f0711ae0f","system_id":"levelo_inurba_marseille","lat":43.24079,"lon":5.37755,"is_reserved":false,"is_disabled":false,"rental_uris":{"android":"levelo://app?vid=9daea97c-2320-4ff9-bd1d-ed8f0711ae0f","ios":"levelo://app?vid=9daea97c-2320-4ff9-bd1d-ed8f0711ae0f"},"vehicle_type_id":"4","last_reported":1731932347,"current_range_meters":27200,"station_id":"ce4bhnp2rcd13ifvqgvg","pricing_plan_id":"cebpf4jnsgd1na2vs0mg"},{"bike_id":"4400186c-3128-46ba-910f-96b121dfa442","system_id":"levelo_inurba_marseille","lat":43.29562,"lon":5.42287,"is_reserved":false,"is_disabled":false,"rental_uris":{"android":"levelo://app?vid=4400186c-3128-46ba-910f-96b121dfa442","ios":"levelo://app?vid=4400186c-3128-46ba-910f-96b121dfa442"},"vehicle_type_id":"4","last_reported":1731932347,"current_range_meters":34000,"station_id":"ce4bhph2rcd13ifvqhdg","pricing_plan_id":"cebpf4jnsgd1na2vs0mg"},{"bike_id":"55190ae9-6115-49c4-8935-014c783410fb","system_id":"levelo_inurba_marseille","lat":43.27942,"lon":5.41047,"is_reserved":false,"is_disabled":false,"rental_uris":{"android":"levelo://app?vid=55190ae9-6115-49c4-8935-014c783410fb","ios":"levelo://app?vid=55190ae9-6115-49c4-8935-014c783410fb"},"vehicle_type_id":"4","last_reported":1731932347,"current_range_meters":36800,"station_id":"ce4bhnp2rcd13ifvqh0g","pricing_plan_id":"cebpf4jnsgd1na2vs0mg"},{"bike_id":"5ed22230-ed97-489b-a6af-ba06152c21b7","system_id":"levelo_inurba_marseille","lat":43.23154,"lon":5.43719,"is_reserved":false,"is_disabled":false,"rental_uris":{"android":"levelo://app?vid=5ed22230-ed97-489b-a6af-ba06152c21b7","ios":"levelo://app?vid=5ed22230-ed97-489b-a6af-ba06152c21b7"},"vehicle_type_id":"4","last_reported":1731932347,"current_range_meters":30400,"station_id":"ce4bhmp2rcd13ifvqgog","pricing_plan_id":"cebpf4jnsgd1na2vs0mg"},{"bike_id":"2336b824-138d-4774-8892-a6bda2269152","system_id":"levelo_inurba_marseille","lat":43.30138,"lon":5.39853,"is_reserved":false,"is_disabled":false,"rental_uris":{"android":"levelo://app?vid=2336b824-138d-4774-8892-a6bda2269152","ios":"levelo://app?vid=2336b824-138d-4774-8892-a6bda2269152"},"vehicle_type_id":"4","last_reported":1731932347,"current_range_meters":24400,"station_id":"ce4bh0h2rcd13ifvqd40","pricing_plan_id":"cebpf4jnsgd1na2vs0mg"},{"bike_id":"12867844-fa2a-41b2-8d74-706d4ef15909","system_id":"levelo_inurba_marseille","lat":43.33754,"lon":5.37447,"is_reserved":false,"is_disabled":false,"rental_uris":{"android":"levelo://app?vid=12867844-fa2a-41b2-8d74-706d4ef15909","ios":"levelo://app?vid=12867844-fa2a-41b2-8d74-706d4ef15909"},"vehicle_type_id":"4","last_reported":1731932347,"current_range_meters":28400,"station_id":"","pricing_plan_id":"cebpf4jnsgd1na2vs0mg"},{"bike_id":"7b630d00-e5f7-4050-907e-76b8f215fc8d","system_id":"levelo_inurba_marseille","lat":43.2958,"lon":5.36736,"is_reserved":false,"is_disabled":false,"rental_uris":{"android":"levelo://app?vid=7b630d00-e5f7-4050-907e-76b8f215fc8d","ios":"levelo://app?vid=7b630d00-e5f7-4050-907e-76b8f215fc8d"},"vehicle_type_id":"4","last_reported":1731932347,"current_range_meters":30000,"station_id":"ce4bgph2rcd13ifvqc2g","pricing_plan_id":"cebpf4jnsgd1na2vs0mg"},{"bike_id":"0ae325b1-7e11-4dbc-8dbb-1c881b0b94d4","system_id":"levelo_inurba_marseille","lat":43.24804,"lon":5.37453,"is_reserved":false,"is_disabled":false,"rental_uris":{"android":"levelo://app?vid=0ae325b1-7e11-4dbc-8dbb-1c881b0b94d4","ios":"levelo://app?vid=0ae325b1-7e11-4dbc-8dbb-1c881b0b94d4"},"vehicle_type_id":"4","last_reported":1731932347,"current_range_meters":38800,"station_id":"ce4bhgh2rcd13ifvqfb0","pricing_plan_id":"cebpf4jnsgd1na2vs0mg"},{"bike_id":"4e4bdb16-c5f9-4bc5-9ff9-ece135534c10","system_id":"levelo_inurba_marseille","lat":43.29266,"lon":5.38437,"is_reserved":false,"is_disabled":false,"rental_uris":{"android":"levelo://app?vid=4e4bdb16-c5f9-4bc5-9ff9-ece135534c10","ios":"levelo://app?vid=4e4bdb16-c5f9-4bc5-9ff9-ece135534c10"},"vehicle_type_id":"4","last_reported":1731932347,"current_range_meters":24800,"station_id":"ce4bh692rcd13ifvqea0","pricing_plan_id":"cebpf4jnsgd1na2vs0mg"},{"bike_id":"7a771648-63f5-4c34-b7b5-423a1240d23d","system_id":"levelo_inurba_marseille","lat":43.29844,"lon":5.36267,"is_reserved":false,"is_disabled":false,"rental_uris":{"android":"levelo://app?vid=7a771648-63f5-4c34-b7b5-423a1240d23d","ios":"levelo://app?vid=7a771648-63f5-4c34-b7b5-423a1240d23d"},"vehicle_type_id":"4","last_reported":1731932347,"current_range_meters":38000,"station_id":"ce4bgpp2rcd13ifvqc3g","pricing_plan_id":"cebpf4jnsgd1na2vs0mg"},{"bike_id":"2ab8409f-9fe9-4e30-a01e-a61c2b05ddd8","system_id":"levelo_inurba_marseille","lat":43.282705,"lon":5.350695,"is_reserved":false,"is_disabled":false,"rental_uris":{"android":"levelo://app?vid=2ab8409f-9fe9-4e30-a01e-a61c2b05ddd8","ios":"levelo://app?vid=2ab8409f-9fe9-4e30-a01e-a61c2b05ddd8"},"vehicle_type_id":"4","last_reported":1731932347,"current_range_meters":38000,"station_id":"ce4bhbp2rcd13ifvqerg","pricing_plan_id":"cebpf4jnsgd1na2vs0mg"},{"bike_id":"d7858290-a409-4351-861d-a1a90bf483cf","system_id":"levelo_inurba_marseille","lat":43.30534,"lon":5.36511,"is_reserved":false,"is_disabled":false,"rental_uris":{"android":"levelo://app?vid=d7858290-a409-4351-861d-a1a90bf483cf","ios":"levelo://app?vid=d7858290-a409-4351-861d-a1a90bf483cf"},"vehicle_type_id":"4","last_reported":1731932347,"current_range_meters":12800,"station_id":"ce4bgs12rcd13ifvqcag","pricing_plan_id":"cebpf4jnsgd1na2vs0mg"},{"bike_id":"1fd2d64d-d384-469e-a427-962e4555a6c4","system_id":"levelo_inurba_marseille","lat":43.28439,"lon":5.39186,"is_reserved":false,"is_disabled":false,"rental_uris":{"android":"levelo://app?vid=1fd2d64d-d384-469e-a427-962e4555a6c4","ios":"levelo://app?vid=1fd2d64d-d384-469e-a427-962e4555a6c4"},"vehicle_type_id":"4","last_reported":1731932347,"current_range_meters":36800,"station_id":"ce4bhoh2rcd13ifvqh5g","pricing_plan_id":"cebpf4jnsgd1na2vs0mg"},{"bike_id":"cccd610a-9ba8-4c33-8f92-728e45b73e1e","system_id":"levelo_inurba_marseille","lat":43.2865,"lon":5.36362,"is_reserved":false,"is_disabled":false,"rental_uris":{"android":"levelo://app?vid=cccd610a-9ba8-4c33-8f92-728e45b73e1e","ios":"levelo://app?vid=cccd610a-9ba8-4c33-8f92-728e45b73e1e"},"vehicle_type_id":"4","last_reported":1731932347,"current_range_meters":34000,"station_id":"ce4bhah2rcd13ifvqej0","pricing_plan_id":"cebpf4jnsgd1na2vs0mg"},{"bike_id":"f5a042e4-9244-45ca-a000-cfabc5edd18a","system_id":"levelo_inurba_marseille","lat":43.27066,"lon":5.42277,"is_reserved":false,"is_disabled":false,"rental_uris":{"android":"levelo://app?vid=f5a042e4-9244-45ca-a000-cfabc5edd18a","ios":"levelo://app?vid=f5a042e4-9244-45ca-a000-cfabc5edd18a"},"vehicle_type_id":"4","last_reported":1731932347,"current_range_meters":8800,"station_id":"ce4bhk92rcd13ifvqgb0","pricing_plan_id":"cebpf4jnsgd1na2vs0mg"},{"bike_id":"438c7460-0f2d-492b-8a11-5a4b3f82e315","system_id":"levelo_inurba_marseille","lat":43.27993,"lon":5.41659,"is_reserved":false,"is_disabled":false,"rental_uris":{"android":"levelo://app?vid=438c7460-0f2d-492b-8a11-5a4b3f82e315","ios":"levelo://app?vid=438c7460-0f2d-492b-8a11-5a4b3f82e315"},"vehicle_type_id":"4","last_reported":1731932347,"current_range_meters":38800,"station_id":"ce4bho12rcd13ifvqh1g","pricing_plan_id":"cebpf4jnsgd1na2vs0mg"},{"bike_id":"10808265-c82e-4663-ad34-00454e769817","system_id":"levelo_inurba_marseille","lat":43.23188,"lon":5.40002,"is_reserved":false,"is_disabled":false,"rental_uris":{"android":"levelo://app?vid=10808265-c82e-4663-ad34-00454e769817","ios":"levelo://app?vid=10808265-c82e-4663-ad34-00454e769817"},"vehicle_type_id":"4","last_reported":1731932347,"current_range_meters":26800,"station_id":"ce4bhn12rcd13ifvqgqg","pricing_plan_id":"cebpf4jnsgd1na2vs0mg"},{"bike_id":"43174ec1-00a4-42a9-b598-8c5927a12545","system_id":"levelo_inurba_marseille","lat":43.27904,"lon":5.38003,"is_reserved":false,"is_disabled":false,"rental_uris":{"android":"levelo://app?vid=43174ec1-00a4-42a9-b598-8c5927a12545","ios":"levelo://app?vid=43174ec1-00a4-42a9-b598-8c5927a12545"},"vehicle_type_id":"4","last_reported":1731932347,"current_range_meters":38800,"station_id":"ce4bhf92rcd13ifvqf50","pricing_plan_id":"cebpf4jnsgd1na2vs0mg"},{"bike_id":"eb9fdd05-17bc-4ba2-9a18-8634e8739a7d","system_id":"levelo_inurba_marseille","lat":43.27944,"lon":5.41039,"is_reserved":false,"is_disabled":false,"rental_uris":{"android":"levelo://app?vid=eb9fdd05-17bc-4ba2-9a18-8634e8739a7d","ios":"levelo://app?vid=eb9fdd05-17bc-4ba2-9a18-8634e8739a7d"},"vehicle_type_id":"4","last_reported":1731932347,"current_range_meters":2800,"station_id":"ce4bhnp2rcd13ifvqh0g","pricing_plan_id":"cebpf4jnsgd1na2vs0mg"},{"bike_id":"84c3c27b-2d47-4a0d-ba7d-0c265b94e56a","system_id":"levelo_inurba_marseille","lat":43.27564,"lon":5.38416,"is_reserved":false,"is_disabled":false,"rental_uris":{"android":"levelo://app?vid=84c3c27b-2d47-4a0d-ba7d-0c265b94e56a","ios":"levelo://app?vid=84c3c27b-2d47-4a0d-ba7d-0c265b94e56a"},"vehicle_type_id":"4","last_reported":1731932347,"current_range_meters":8400,"station_id":"ce4bhh92rcd13ifvqfi0","pricing_plan_id":"cebpf4jnsgd1na2vs0mg"},{"bike_id":"d14b362f-4998-42cc-950b-11c6a5ab5c5b","system_id":"levelo_inurba_marseille","lat":43.23183,"lon":5.39989,"is_reserved":false,"is_disabled":false,"rental_uris":{"android":"levelo://app?vid=d14b362f-4998-42cc-950b-11c6a5ab5c5b","ios":"levelo://app?vid=d14b362f-4998-42cc-950b-11c6a5ab5c5b"},"vehicle_type_id":"4","last_reported":1731932347,"current_range_meters":20400,"station_id":"ce4bhn12rcd13ifvqgqg","pricing_plan_id":"cebpf4jnsgd1na2vs0mg"},{"bike_id":"b60b51d6-a67c-4cf9-b095-ff598e5d8752","system_id":"levelo_inurba_marseille","lat":43.24668,"lon":5.3816,"is_reserved":false,"is_disabled":false,"rental_uris":{"android":"levelo://app?vid=b60b51d6-a67c-4cf9-b095-ff598e5d8752","ios":"levelo://app?vid=b60b51d6-a67c-4cf9-b095-ff598e5d8752"},"vehicle_type_id":"4","last_reported":1731932347,"current_range_meters":23200,"station_id":"ce4bhih2rcd13ifvqfr0","pricing_plan_id":"cebpf4jnsgd1na2vs0mg"},{"bike_id":"0b87a3c6-f9c9-421e-8d3e-5c1b81aa8469","system_id":"levelo_inurba_marseille","lat":43.27386,"lon":5.41471,"is_reserved":false,"is_disabled":false,"rental_uris":{"android":"levelo://app?vid=0b87a3c6-f9c9-421e-8d3e-5c1b81aa8469","ios":"levelo://app?vid=0b87a3c6-f9c9-421e-8d3e-5c1b81aa8469"},"vehicle_type_id":"4","last_reported":1731932347,"current_range_meters":16800,"station_id":"ce4bhnh2rcd13ifvqgug","pricing_plan_id":"cebpf4jnsgd1na2vs0mg"},{"bike_id":"2ec448d8-ab1e-4b5b-9ab7-4092c37c8982","system_id":"levelo_inurba_marseille","lat":43.31224,"lon":5.36848,"is_reserved":false,"is_disabled":false,"rental_uris":{"android":"levelo://app?vid=2ec448d8-ab1e-4b5b-9ab7-4092c37c8982","ios":"levelo://app?vid=2ec448d8-ab1e-4b5b-9ab7-4092c37c8982"},"vehicle_type_id":"4","last_reported":1731932347,"current_range_meters":39200,"station_id":"ce4bgl92rcd13ifvqbq0","pricing_plan_id":"cebpf4jnsgd1na2vs0mg"},{"bike_id":"fe452959-f152-41c8-8a20-9e0e74f17d40","system_id":"levelo_inurba_marseille","lat":43.29899,"lon":5.43658,"is_reserved":false,"is_disabled":false,"rental_uris":{"android":"levelo://app?vid=fe452959-f152-41c8-8a20-9e0e74f17d40","ios":"levelo://app?vid=fe452959-f152-41c8-8a20-9e0e74f17d40"},"vehicle_type_id":"4","last_reported":1731932347,"current_range_meters":29600,"station_id":"ce4bhpp2rcd13ifvqhfg","pricing_plan_id":"cebpf4jnsgd1na2vs0mg"},{"bike_id":"88287dca-2bbd-4607-9d69-749d3b5798fd","system_id":"levelo_inurba_marseille","lat":43.27946,"lon":5.41038,"is_reserved":false,"is_disabled":false,"rental_uris":{"android":"levelo://app?vid=88287dca-2bbd-4607-9d69-749d3b5798fd","ios":"levelo://app?vid=88287dca-2bbd-4607-9d69-749d3b5798fd"},"vehicle_type_id":"4","last_reported":1731932347,"current_range_meters":34800,"station_id":"ce4bhnp2rcd13ifvqh0g","pricing_plan_id":"cebpf4jnsgd1na2vs0mg"},{"bike_id":"ebd09b0d-9abc-4697-825e-ecd52e8bc5d5","system_id":"levelo_inurba_marseille","lat":43.30615,"lon":5.39334,"is_reserved":false,"is_disabled":false,"rental_uris":{"android":"levelo://app?vid=ebd09b0d-9abc-4697-825e-ecd52e8bc5d5","ios":"levelo://app?vid=ebd09b0d-9abc-4697-825e-ecd52e8bc5d5"},"vehicle_type_id":"4","last_reported":1731932347,"current_range_meters":27200,"station_id":"ce4bh092rcd13ifvqd30","pricing_plan_id":"cebpf4jnsgd1na2vs0mg"},{"bike_id":"142622af-a9fe-4f57-8794-714ed11ca0d4","system_id":"levelo_inurba_marseille","lat":43.29085,"lon":5.38157,"is_reserved":false,"is_disabled":false,"rental_uris":{"android":"levelo://app?vid=142622af-a9fe-4f57-8794-714ed11ca0d4","ios":"levelo://app?vid=142622af-a9fe-4f57-8794-714ed11ca0d4"},"vehicle_type_id":"4","last_reported":1731932347,"current_range_meters":8400,"station_id":"ce4bh512rcd13ifvqe2g","pricing_plan_id":"cebpf4jnsgd1na2vs0mg"},{"bike_id":"e63cc012-484c-47ef-b12a-e454f93efae9","system_id":"levelo_inurba_marseille","lat":43.29527,"lon":5.38531,"is_reserved":false,"is_disabled":false,"rental_uris":{"android":"levelo://app?vid=e63cc012-484c-47ef-b12a-e454f93efae9","ios":"levelo://app?vid=e63cc012-484c-47ef-b12a-e454f93efae9"},"vehicle_type_id":"4","last_reported":1731932347,"current_range_meters":38800,"station_id":"ce4bgih2rcd13ifvqba0","pricing_plan_id":"cebpf4jnsgd1na2vs0mg"},{"bike_id":"648a223a-cc1b-433d-8698-8e5dce22c03d","system_id":"levelo_inurba_marseille","lat":43.28354,"lon":5.38099,"is_reserved":false,"is_disabled":false,"rental_uris":{"android":"levelo://app?vid=648a223a-cc1b-433d-8698-8e5dce22c03d","ios":"levelo://app?vid=648a223a-cc1b-433d-8698-8e5dce22c03d"},"vehicle_type_id":"4","last_reported":1731932347,"current_range_meters":12400,"station_id":"ce4bh412rcd13ifvqdr0","pricing_plan_id":"cebpf4jnsgd1na2vs0mg"},{"bike_id":"3f25cf5a-8f53-4399-ac00-b22e8bae0820","system_id":"levelo_inurba_marseille","lat":43.33609,"lon":5.41035,"is_reserved":false,"is_disabled":false,"rental_uris":{"android":"levelo://app?vid=3f25cf5a-8f53-4399-ac00-b22e8bae0820","ios":"levelo://app?vid=3f25cf5a-8f53-4399-ac00-b22e8bae0820"},"vehicle_type_id":"4","last_reported":1731932347,"current_range_meters":24000,"station_id":"ce4bhqh2rcd13ifvqhmg","pricing_plan_id":"cebpf4jnsgd1na2vs0mg"},{"bike_id":"7bc056d0-9eaf-4007-8a40-131c893c7096","system_id":"levelo_inurba_marseille","lat":43.32661,"lon":5.40992,"is_reserved":false,"is_disabled":false,"rental_uris":{"android":"levelo://app?vid=7bc056d0-9eaf-4007-8a40-131c893c7096","ios":"levelo://app?vid=7bc056d0-9eaf-4007-8a40-131c893c7096"},"vehicle_type_id":"4","last_reported":1731932347,"current_range_meters":35200,"station_id":"ce4bhpp2rcd13ifvqhgg","pricing_plan_id":"cebpf4jnsgd1na2vs0mg"},{"bike_id":"bfd64417-e6fd-45ae-b899-e06cad147021","system_id":"levelo_inurba_marseille","lat":43.31232,"lon":5.36858,"is_reserved":false,"is_disabled":false,"rental_uris":{"android":"levelo://app?vid=bfd64417-e6fd-45ae-b899-e06cad147021","ios":"levelo://app?vid=bfd64417-e6fd-45ae-b899-e06cad147021"},"vehicle_type_id":"4","last_reported":1731932347,"current_range_meters":36000,"station_id":"ce4bgl92rcd13ifvqbq0","pricing_plan_id":"cebpf4jnsgd1na2vs0mg"},{"bike_id":"7d672f00-807f-4797-bc98-b9c9999e1004","system_id":"levelo_inurba_marseille","lat":43.25121,"lon":5.40321,"is_reserved":false,"is_disabled":false,"rental_uris":{"android":"levelo://app?vid=7d672f00-807f-4797-bc98-b9c9999e1004","ios":"levelo://app?vid=7d672f00-807f-4797-bc98-b9c9999e1004"},"vehicle_type_id":"4","last_reported":1731932347,"current_range_meters":38800,"station_id":"ce4bhlh2rcd13ifvqgig","pricing_plan_id":"cebpf4jnsgd1na2vs0mg"},{"bike_id":"200a7953-97f5-47b3-8651-e7464d84e333","system_id":"levelo_inurba_marseille","lat":43.2315,"lon":5.43723,"is_reserved":false,"is_disabled":false,"rental_uris":{"android":"levelo://app?vid=200a7953-97f5-47b3-8651-e7464d84e333","ios":"levelo://app?vid=200a7953-97f5-47b3-8651-e7464d84e333"},"vehicle_type_id":"4","last_reported":1731932347,"current_range_meters":20400,"station_id":"ce4bhmp2rcd13ifvqgog","pricing_plan_id":"cebpf4jnsgd1na2vs0mg"},{"bike_id":"69e8b392-7464-4960-8d9e-9bfc63e4d3e1","system_id":"levelo_inurba_marseille","lat":43.31348,"lon":5.38497,"is_reserved":false,"is_disabled":false,"rental_uris":{"android":"levelo://app?vid=69e8b392-7464-4960-8d9e-9bfc63e4d3e1","ios":"levelo://app?vid=69e8b392-7464-4960-8d9e-9bfc63e4d3e1"},"vehicle_type_id":"4","last_reported":1731932347,"current_range_meters":36400,"station_id":"ce4bgt92rcd13ifvqcf0","pricing_plan_id":"cebpf4jnsgd1na2vs0mg"},{"bike_id":"8cdbbb9d-e54c-4963-8b6c-ba5d001805cc","system_id":"levelo_inurba_marseille","lat":43.28158,"lon":5.44213,"is_reserved":false,"is_disabled":false,"rental_uris":{"android":"levelo://app?vid=8cdbbb9d-e54c-4963-8b6c-ba5d001805cc","ios":"levelo://app?vid=8cdbbb9d-e54c-4963-8b6c-ba5d001805cc"},"vehicle_type_id":"4","last_reported":1731932347,"current_range_meters":30400,"station_id":"","pricing_plan_id":"cebpf4jnsgd1na2vs0mg"},{"bike_id":"5ec670dd-862d-4803-a558-0f3cb4008b61","system_id":"levelo_inurba_marseille","lat":43.28259,"lon":5.35051,"is_reserved":false,"is_disabled":false,"rental_uris":{"android":"levelo://app?vid=5ec670dd-862d-4803-a558-0f3cb4008b61","ios":"levelo://app?vid=5ec670dd-862d-4803-a558-0f3cb4008b61"},"vehicle_type_id":"4","last_reported":1731932347,"current_range_meters":38400,"station_id":"ce4bhbp2rcd13ifvqerg","pricing_plan_id":"cebpf4jnsgd1na2vs0mg"},{"bike_id":"95a8342b-aa47-43bf-949c-6f37f65317e2","system_id":"levelo_inurba_marseille","lat":43.24545,"lon":5.39523,"is_reserved":false,"is_disabled":false,"rental_uris":{"android":"levelo://app?vid=95a8342b-aa47-43bf-949c-6f37f65317e2","ios":"levelo://app?vid=95a8342b-aa47-43bf-949c-6f37f65317e2"},"vehicle_type_id":"4","last_reported":1731932347,"current_range_meters":38800,"station_id":"ce4bhlp2rcd13ifvqgjg","pricing_plan_id":"cebpf4jnsgd1na2vs0mg"},{"bike_id":"9d0ff97e-4153-45c9-bb5a-0bdd6df51804","system_id":"levelo_inurba_marseille","lat":43.3248,"lon":5.36572,"is_reserved":false,"is_disabled":false,"rental_uris":{"android":"levelo://app?vid=9d0ff97e-4153-45c9-bb5a-0bdd6df51804","ios":"levelo://app?vid=9d0ff97e-4153-45c9-bb5a-0bdd6df51804"},"vehicle_type_id":"4","last_reported":1731932347,"current_range_meters":10800,"station_id":"ce4bhs12rcd13ifvqhvg","pricing_plan_id":"cebpf4jnsgd1na2vs0mg"},{"bike_id":"685aaed0-be30-484b-87bf-09cb054f678b","system_id":"levelo_inurba_marseille","lat":43.23152,"lon":5.43721,"is_reserved":false,"is_disabled":false,"rental_uris":{"android":"levelo://app?vid=685aaed0-be30-484b-87bf-09cb054f678b","ios":"levelo://app?vid=685aaed0-be30-484b-87bf-09cb054f678b"},"vehicle_type_id":"4","last_reported":1731932347,"current_range_meters":18800,"station_id":"ce4bhmp2rcd13ifvqgog","pricing_plan_id":"cebpf4jnsgd1na2vs0mg"},{"bike_id":"35f749ce-773c-4a44-8ae4-64babe055cf9","system_id":"levelo_inurba_marseille","lat":43.2971,"lon":5.36614,"is_reserved":false,"is_disabled":false,"rental_uris":{"android":"levelo://app?vid=35f749ce-773c-4a44-8ae4-64babe055cf9","ios":"levelo://app?vid=35f749ce-773c-4a44-8ae4-64babe055cf9"},"vehicle_type_id":"4","last_reported":1731932347,"current_range_meters":38400,"station_id":"ce4bgn12rcd13ifvqbt0","pricing_plan_id":"cebpf4jnsgd1na2vs0mg"},{"bike_id":"68fa5583-0b82-4f5c-881a-33a9af484ec1","system_id":"levelo_inurba_marseille","lat":43.29531,"lon":5.38549,"is_reserved":false,"is_disabled":false,"rental_uris":{"android":"levelo://app?vid=68fa5583-0b82-4f5c-881a-33a9af484ec1","ios":"levelo://app?vid=68fa5583-0b82-4f5c-881a-33a9af484ec1"},"vehicle_type_id":"4","last_reported":1731932347,"current_range_meters":30000,"station_id":"ce4bgih2rcd13ifvqba0","pricing_plan_id":"cebpf4jnsgd1na2vs0mg"},{"bike_id":"99e250a3-df4c-4b34-9509-c05720c8abf5","system_id":"levelo_inurba_marseille","lat":43.30546,"lon":5.36527,"is_reserved":false,"is_disabled":false,"rental_uris":{"android":"levelo://app?vid=99e250a3-df4c-4b34-9509-c05720c8abf5","ios":"levelo://app?vid=99e250a3-df4c-4b34-9509-c05720c8abf5"},"vehicle_type_id":"4","last_reported":1731932347,"current_range_meters":17200,"station_id":"ce4bgs12rcd13ifvqcag","pricing_plan_id":"cebpf4jnsgd1na2vs0mg"},{"bike_id":"01b76d20-7184-41b1-923a-5b990189664d","system_id":"levelo_inurba_marseille","lat":43.25106,"lon":5.40323,"is_reserved":false,"is_disabled":false,"rental_uris":{"android":"levelo://app?vid=01b76d20-7184-41b1-923a-5b990189664d","ios":"levelo://app?vid=01b76d20-7184-41b1-923a-5b990189664d"},"vehicle_type_id":"4","last_reported":1731932347,"current_range_meters":28400,"station_id":"ce4bhlh2rcd13ifvqgig","pricing_plan_id":"cebpf4jnsgd1na2vs0mg"},{"bike_id":"c137ad19-1d76-4102-b396-b36fb3e5c779","system_id":"levelo_inurba_marseille","lat":43.31219,"lon":5.368624,"is_reserved":false,"is_disabled":false,"rental_uris":{"android":"levelo://app?vid=c137ad19-1d76-4102-b396-b36fb3e5c779","ios":"levelo://app?vid=c137ad19-1d76-4102-b396-b36fb3e5c779"},"vehicle_type_id":"4","last_reported":1731932347,"current_range_meters":31200,"station_id":"ce4bgl92rcd13ifvqbq0","pricing_plan_id":"cebpf4jnsgd1na2vs0mg"},{"bike_id":"af301e27-b66d-43a1-9655-cc65936142c3","system_id":"levelo_inurba_marseille","lat":43.29368,"lon":5.37849,"is_reserved":false,"is_disabled":false,"rental_uris":{"android":"levelo://app?vid=af301e27-b66d-43a1-9655-cc65936142c3","ios":"levelo://app?vid=af301e27-b66d-43a1-9655-cc65936142c3"},"vehicle_type_id":"4","last_reported":1731932347,"current_range_meters":33600,"station_id":"ce4bgjh2rcd13ifvqbf0","pricing_plan_id":"cebpf4jnsgd1na2vs0mg"},{"bike_id":"bdadc3b0-cd9b-4292-8488-1c834c12b9bd","system_id":"levelo_inurba_marseille","lat":43.29618,"lon":5.3715,"is_reserved":false,"is_disabled":false,"rental_uris":{"android":"levelo://app?vid=bdadc3b0-cd9b-4292-8488-1c834c12b9bd","ios":"levelo://app?vid=bdadc3b0-cd9b-4292-8488-1c834c12b9bd"},"vehicle_type_id":"4","last_reported":1731932347,"current_range_meters":36800,"station_id":"ce4bgnh2rcd13ifvqc0g","pricing_plan_id":"cebpf4jnsgd1na2vs0mg"},{"bike_id":"72a67e8d-b305-4d89-82b1-39ac62b5031a","system_id":"levelo_inurba_marseille","lat":43.31338,"lon":5.39712,"is_reserved":false,"is_disabled":false,"rental_uris":{"android":"levelo://app?vid=72a67e8d-b305-4d89-82b1-39ac62b5031a","ios":"levelo://app?vid=72a67e8d-b305-4d89-82b1-39ac62b5031a"},"vehicle_type_id":"4","last_reported":1731932347,"current_range_meters":27600,"station_id":"ce4bgvp2rcd13ifvqcu0","pricing_plan_id":"cebpf4jnsgd1na2vs0mg"},{"bike_id":"d7c19367-c8e9-4fd4-b53c-c81bf98e7dce","system_id":"levelo_inurba_marseille","lat":43.29582,"lon":5.36729,"is_reserved":false,"is_disabled":false,"rental_uris":{"android":"levelo://app?vid=d7c19367-c8e9-4fd4-b53c-c81bf98e7dce","ios":"levelo://app?vid=d7c19367-c8e9-4fd4-b53c-c81bf98e7dce"},"vehicle_type_id":"4","last_reported":1731932347,"current_range_meters":32800,"station_id":"ce4bgph2rcd13ifvqc2g","pricing_plan_id":"cebpf4jnsgd1na2vs0mg"},{"bike_id":"537cf7e9-265c-4d94-b0f4-ee1e9275c4a5","system_id":"levelo_inurba_marseille","lat":43.23152,"lon":5.43708,"is_reserved":false,"is_disabled":false,"rental_uris":{"android":"levelo://app?vid=537cf7e9-265c-4d94-b0f4-ee1e9275c4a5","ios":"levelo://app?vid=537cf7e9-265c-4d94-b0f4-ee1e9275c4a5"},"vehicle_type_id":"4","last_reported":1731932347,"current_range_meters":24800,"station_id":"ce4bhmp2rcd13ifvqgog","pricing_plan_id":"cebpf4jnsgd1na2vs0mg"},{"bike_id":"ce249102-5132-45ee-9b83-fc2ea0c15102","system_id":"levelo_inurba_marseille","lat":43.23153,"lon":5.4371,"is_reserved":false,"is_disabled":false,"rental_uris":{"android":"levelo://app?vid=ce249102-5132-45ee-9b83-fc2ea0c15102","ios":"levelo://app?vid=ce249102-5132-45ee-9b83-fc2ea0c15102"},"vehicle_type_id":"4","last_reported":1731932347,"current_range_meters":39200,"station_id":"ce4bhmp2rcd13ifvqgog","pricing_plan_id":"cebpf4jnsgd1na2vs0mg"},{"bike_id":"94f27bd2-53d7-4501-a7e0-f59cc75bd6d4","system_id":"levelo_inurba_marseille","lat":43.27998,"lon":5.41664,"is_reserved":false,"is_disabled":false,"rental_uris":{"android":"levelo://app?vid=94f27bd2-53d7-4501-a7e0-f59cc75bd6d4","ios":"levelo://app?vid=94f27bd2-53d7-4501-a7e0-f59cc75bd6d4"},"vehicle_type_id":"4","last_reported":1731932347,"current_range_meters":36400,"station_id":"ce4bho12rcd13ifvqh1g","pricing_plan_id":"cebpf4jnsgd1na2vs0mg"},{"bike_id":"6d757fef-4f26-43f9-ac2c-ffab39bf7dae","system_id":"levelo_inurba_marseille","lat":43.32249,"lon":5.36901,"is_reserved":false,"is_disabled":false,"rental_uris":{"android":"levelo://app?vid=6d757fef-4f26-43f9-ac2c-ffab39bf7dae","ios":"levelo://app?vid=6d757fef-4f26-43f9-ac2c-ffab39bf7dae"},"vehicle_type_id":"4","last_reported":1731932347,"current_range_meters":10800,"station_id":"","pricing_plan_id":"cebpf4jnsgd1na2vs0mg"},{"bike_id":"8cd7dd04-2cd8-4cc7-a6f2-60fdc686aad3","system_id":"levelo_inurba_marseille","lat":43.25579,"lon":5.38237,"is_reserved":false,"is_disabled":false,"rental_uris":{"android":"levelo://app?vid=8cd7dd04-2cd8-4cc7-a6f2-60fdc686aad3","ios":"levelo://app?vid=8cd7dd04-2cd8-4cc7-a6f2-60fdc686aad3"},"vehicle_type_id":"4","last_reported":1731932347,"current_range_meters":17600,"station_id":"ce4bhih2rcd13ifvqfs0","pricing_plan_id":"cebpf4jnsgd1na2vs0mg"},{"bike_id":"d21d17e7-2f48-45e6-a424-c15abbaa2ab7","system_id":"levelo_inurba_marseille","lat":43.24543,"lon":5.39523,"is_reserved":false,"is_disabled":false,"rental_uris":{"android":"levelo://app?vid=d21d17e7-2f48-45e6-a424-c15abbaa2ab7","ios":"levelo://app?vid=d21d17e7-2f48-45e6-a424-c15abbaa2ab7"},"vehicle_type_id":"4","last_reported":1731932347,"current_range_meters":22400,"station_id":"ce4bhlp2rcd13ifvqgjg","pricing_plan_id":"cebpf4jnsgd1na2vs0mg"},{"bike_id":"2a6633b7-0a56-4103-8beb-a4e21a671aea","system_id":"levelo_inurba_marseille","lat":43.23195,"lon":5.35551,"is_reserved":false,"is_disabled":false,"rental_uris":{"android":"levelo://app?vid=2a6633b7-0a56-4103-8beb-a4e21a671aea","ios":"levelo://app?vid=2a6633b7-0a56-4103-8beb-a4e21a671aea"},"vehicle_type_id":"4","last_reported":1731932347,"current_range_meters":16400,"station_id":"ce4bhu92rcd13ifvqi70","pricing_plan_id":"cebpf4jnsgd1na2vs0mg"},{"bike_id":"975b358e-485e-4bf5-87b7-d22d420f1c33","system_id":"levelo_inurba_marseille","lat":43.28267,"lon":5.35062,"is_reserved":false,"is_disabled":false,"rental_uris":{"android":"levelo://app?vid=975b358e-485e-4bf5-87b7-d22d420f1c33","ios":"levelo://app?vid=975b358e-485e-4bf5-87b7-d22d420f1c33"},"vehicle_type_id":"4","last_reported":1731932347,"current_range_meters":12400,"station_id":"ce4bhbp2rcd13ifvqerg","pricing_plan_id":"cebpf4jnsgd1na2vs0mg"},{"bike_id":"594b225c-8dba-46ca-88ca-51f83c0f7783","system_id":"levelo_inurba_marseille","lat":43.29574,"lon":5.37519,"is_reserved":false,"is_disabled":false,"rental_uris":{"android":"levelo://app?vid=594b225c-8dba-46ca-88ca-51f83c0f7783","ios":"levelo://app?vid=594b225c-8dba-46ca-88ca-51f83c0f7783"},"vehicle_type_id":"4","last_reported":1731932347,"current_range_meters":38800,"station_id":"ce4bgh92rcd13ifvqb50","pricing_plan_id":"cebpf4jnsgd1na2vs0mg"},{"bike_id":"22e8ab74-75c2-4679-b497-f115978aae10","system_id":"levelo_inurba_marseille","lat":43.25725,"lon":5.41107,"is_reserved":false,"is_disabled":false,"rental_uris":{"android":"levelo://app?vid=22e8ab74-75c2-4679-b497-f115978aae10","ios":"levelo://app?vid=22e8ab74-75c2-4679-b497-f115978aae10"},"vehicle_type_id":"4","last_reported":1731932347,"current_range_meters":28400,"station_id":"ce4bhkp2rcd13ifvqgd0","pricing_plan_id":"cebpf4jnsgd1na2vs0mg"},{"bike_id":"fd09d0c0-a902-4d4b-85c4-4948fe667fc0","system_id":"levelo_inurba_marseille","lat":43.29278,"lon":5.36846,"is_reserved":false,"is_disabled":false,"rental_uris":{"android":"levelo://app?vid=fd09d0c0-a902-4d4b-85c4-4948fe667fc0","ios":"levelo://app?vid=fd09d0c0-a902-4d4b-85c4-4948fe667fc0"},"vehicle_type_id":"4","last_reported":1731932347,"current_range_meters":29600,"station_id":"ce4bhbp2rcd13ifvqesg","pricing_plan_id":"cebpf4jnsgd1na2vs0mg"},{"bike_id":"6b8c4514-cb85-4a2a-9925-6fb4153b9632","system_id":"levelo_inurba_marseille","lat":43.29554,"lon":5.42276,"is_reserved":false,"is_disabled":false,"rental_uris":{"android":"levelo://app?vid=6b8c4514-cb85-4a2a-9925-6fb4153b9632","ios":"levelo://app?vid=6b8c4514-cb85-4a2a-9925-6fb4153b9632"},"vehicle_type_id":"4","last_reported":1731932347,"current_range_meters":38000,"station_id":"ce4bhph2rcd13ifvqhdg","pricing_plan_id":"cebpf4jnsgd1na2vs0mg"},{"bike_id":"704f2144-a3c5-4bb8-b675-0f5c6326fd1d","system_id":"levelo_inurba_marseille","lat":43.28356,"lon":5.38103,"is_reserved":false,"is_disabled":false,"rental_uris":{"android":"levelo://app?vid=704f2144-a3c5-4bb8-b675-0f5c6326fd1d","ios":"levelo://app?vid=704f2144-a3c5-4bb8-b675-0f5c6326fd1d"},"vehicle_type_id":"4","last_reported":1731932347,"current_range_meters":27200,"station_id":"ce4bh412rcd13ifvqdr0","pricing_plan_id":"cebpf4jnsgd1na2vs0mg"},{"bike_id":"533e7704-ade1-4893-b3ed-b4ac04e80c6e","system_id":"levelo_inurba_marseille","lat":43.29418,"lon":5.38621,"is_reserved":false,"is_disabled":false,"rental_uris":{"android":"levelo://app?vid=533e7704-ade1-4893-b3ed-b4ac04e80c6e","ios":"levelo://app?vid=533e7704-ade1-4893-b3ed-b4ac04e80c6e"},"vehicle_type_id":"4","last_reported":1731932347,"current_range_meters":39200,"station_id":"ce4bh2h2rcd13ifvqdh0","pricing_plan_id":"cebpf4jnsgd1na2vs0mg"},{"bike_id":"e8172491-2851-458c-9dd6-300fb45ab8ef","system_id":"levelo_inurba_marseille","lat":43.30463,"lon":5.37911,"is_reserved":false,"is_disabled":false,"rental_uris":{"android":"levelo://app?vid=e8172491-2851-458c-9dd6-300fb45ab8ef","ios":"levelo://app?vid=e8172491-2851-458c-9dd6-300fb45ab8ef"},"vehicle_type_id":"4","last_reported":1731932347,"current_range_meters":27600,"station_id":"ce4bgup2rcd13ifvqcn0","pricing_plan_id":"cebpf4jnsgd1na2vs0mg"},{"bike_id":"1648b433-26ee-4cd6-8cfd-b0f40190cfa5","system_id":"levelo_inurba_marseille","lat":43.24182,"lon":5.39724,"is_reserved":false,"is_disabled":false,"rental_uris":{"android":"levelo://app?vid=1648b433-26ee-4cd6-8cfd-b0f40190cfa5","ios":"levelo://app?vid=1648b433-26ee-4cd6-8cfd-b0f40190cfa5"},"vehicle_type_id":"4","last_reported":1731932347,"current_range_meters":27600,"station_id":"ce4bhn12rcd13ifvqgpg","pricing_plan_id":"cebpf4jnsgd1na2vs0mg"},{"bike_id":"af58f792-0a2d-4341-a7e7-fac2abeae604","system_id":"levelo_inurba_marseille","lat":43.3091,"lon":5.3685,"is_reserved":false,"is_disabled":false,"rental_uris":{"android":"levelo://app?vid=af58f792-0a2d-4341-a7e7-fac2abeae604","ios":"levelo://app?vid=af58f792-0a2d-4341-a7e7-fac2abeae604"},"vehicle_type_id":"4","last_reported":1731932347,"current_range_meters":38800,"station_id":"ce4bgn92rcd13ifvqbvg","pricing_plan_id":"cebpf4jnsgd1na2vs0mg"},{"bike_id":"93793a5f-5d28-4270-8448-8f129cb229ea","system_id":"levelo_inurba_marseille","lat":43.32659,"lon":5.40994,"is_reserved":false,"is_disabled":false,"rental_uris":{"android":"levelo://app?vid=93793a5f-5d28-4270-8448-8f129cb229ea","ios":"levelo://app?vid=93793a5f-5d28-4270-8448-8f129cb229ea"},"vehicle_type_id":"4","last_reported":1731932347,"current_range_meters":24000,"station_id":"ce4bhpp2rcd13ifvqhgg","pricing_plan_id":"cebpf4jnsgd1na2vs0mg"},{"bike_id":"cc911dbc-2c04-4373-b6ec-a968894c44ba","system_id":"levelo_inurba_marseille","lat":43.29939,"lon":5.36543,"is_reserved":false,"is_disabled":false,"rental_uris":{"android":"levelo://app?vid=cc911dbc-2c04-4373-b6ec-a968894c44ba","ios":"levelo://app?vid=cc911dbc-2c04-4373-b6ec-a968894c44ba"},"vehicle_type_id":"4","last_reported":1731932347,"current_range_meters":30400,"station_id":"ce4bgm92rcd13ifvqbr0","pricing_plan_id":"cebpf4jnsgd1na2vs0mg"},{"bike_id":"8914ecfb-0473-4dbd-adbf-c2bd2f4087a5","system_id":"levelo_inurba_marseille","lat":43.29606,"lon":5.38093,"is_reserved":false,"is_disabled":false,"rental_uris":{"android":"levelo://app?vid=8914ecfb-0473-4dbd-adbf-c2bd2f4087a5","ios":"levelo://app?vid=8914ecfb-0473-4dbd-adbf-c2bd2f4087a5"},"vehicle_type_id":"4","last_reported":1731932347,"current_range_meters":18000,"station_id":"ce4bgl12rcd13ifvqbo0","pricing_plan_id":"cebpf4jnsgd1na2vs0mg"},{"bike_id":"468e9c67-f4c1-47bc-9db9-b0ede4c36f07","system_id":"levelo_inurba_marseille","lat":43.29533,"lon":5.38529,"is_reserved":false,"is_disabled":false,"rental_uris":{"android":"levelo://app?vid=468e9c67-f4c1-47bc-9db9-b0ede4c36f07","ios":"levelo://app?vid=468e9c67-f4c1-47bc-9db9-b0ede4c36f07"},"vehicle_type_id":"4","last_reported":1731932347,"current_range_meters":34800,"station_id":"ce4bgih2rcd13ifvqba0","pricing_plan_id":"cebpf4jnsgd1na2vs0mg"},{"bike_id":"b6683282-79e6-45bc-b3e9-8b5e70053a2f","system_id":"levelo_inurba_marseille","lat":43.28098,"lon":5.37833,"is_reserved":false,"is_disabled":false,"rental_uris":{"android":"levelo://app?vid=b6683282-79e6-45bc-b3e9-8b5e70053a2f","ios":"levelo://app?vid=b6683282-79e6-45bc-b3e9-8b5e70053a2f"},"vehicle_type_id":"4","last_reported":1731932347,"current_range_meters":6000,"station_id":"ce4bha12rcd13ifvqee0","pricing_plan_id":"cebpf4jnsgd1na2vs0mg"},{"bike_id":"90dcbec6-e577-4473-b29e-9a8b030c3700","system_id":"levelo_inurba_marseille","lat":43.23153,"lon":5.43716,"is_reserved":false,"is_disabled":false,"rental_uris":{"android":"levelo://app?vid=90dcbec6-e577-4473-b29e-9a8b030c3700","ios":"levelo://app?vid=90dcbec6-e577-4473-b29e-9a8b030c3700"},"vehicle_type_id":"4","last_reported":1731932347,"current_range_meters":30800,"station_id":"ce4bhmp2rcd13ifvqgog","pricing_plan_id":"cebpf4jnsgd1na2vs0mg"},{"bike_id":"fc24aac1-6d84-4a21-9982-e3e30c297a56","system_id":"levelo_inurba_marseille","lat":43.2319,"lon":5.35543,"is_reserved":false,"is_disabled":false,"rental_uris":{"android":"levelo://app?vid=fc24aac1-6d84-4a21-9982-e3e30c297a56","ios":"levelo://app?vid=fc24aac1-6d84-4a21-9982-e3e30c297a56"},"vehicle_type_id":"4","last_reported":1731932347,"current_range_meters":19600,"station_id":"ce4bhu92rcd13ifvqi70","pricing_plan_id":"cebpf4jnsgd1na2vs0mg"},{"bike_id":"b0756bfa-37d8-4cbd-99b2-b3a6b25ddc5a","system_id":"levelo_inurba_marseille","lat":43.27947,"lon":5.41043,"is_reserved":false,"is_disabled":false,"rental_uris":{"android":"levelo://app?vid=b0756bfa-37d8-4cbd-99b2-b3a6b25ddc5a","ios":"levelo://app?vid=b0756bfa-37d8-4cbd-99b2-b3a6b25ddc5a"},"vehicle_type_id":"4","last_reported":1731932347,"current_range_meters":18000,"station_id":"ce4bhnp2rcd13ifvqh0g","pricing_plan_id":"cebpf4jnsgd1na2vs0mg"},{"bike_id":"d24e5a37-2bc9-4133-aee0-a39c3777742d","system_id":"levelo_inurba_marseille","lat":43.29374,"lon":5.37835,"is_reserved":false,"is_disabled":false,"rental_uris":{"android":"levelo://app?vid=d24e5a37-2bc9-4133-aee0-a39c3777742d","ios":"levelo://app?vid=d24e5a37-2bc9-4133-aee0-a39c3777742d"},"vehicle_type_id":"4","last_reported":1731932347,"current_range_meters":38400,"station_id":"ce4bgjh2rcd13ifvqbf0","pricing_plan_id":"cebpf4jnsgd1na2vs0mg"},{"bike_id":"bfdda041-8b1c-4a45-87f3-bdb73f86badf","system_id":"levelo_inurba_marseille","lat":43.28446,"lon":5.39183,"is_reserved":false,"is_disabled":false,"rental_uris":{"android":"levelo://app?vid=bfdda041-8b1c-4a45-87f3-bdb73f86badf","ios":"levelo://app?vid=bfdda041-8b1c-4a45-87f3-bdb73f86badf"},"vehicle_type_id":"4","last_reported":1731932347,"current_range_meters":17600,"station_id":"ce4bhoh2rcd13ifvqh5g","pricing_plan_id":"cebpf4jnsgd1na2vs0mg"},{"bike_id":"93581abe-0d03-4539-93dd-edeb8a2a3610","system_id":"levelo_inurba_marseille","lat":43.29806,"lon":5.38086,"is_reserved":false,"is_disabled":false,"rental_uris":{"android":"levelo://app?vid=93581abe-0d03-4539-93dd-edeb8a2a3610","ios":"levelo://app?vid=93581abe-0d03-4539-93dd-edeb8a2a3610"},"vehicle_type_id":"4","last_reported":1731932347,"current_range_meters":36400,"station_id":"ce4bgip2rcd13ifvqbb0","pricing_plan_id":"cebpf4jnsgd1na2vs0mg"},{"bike_id":"9c577393-f35c-4b59-82b1-f7c1bb6a1b8f","system_id":"levelo_inurba_marseille","lat":43.24568,"lon":5.39516,"is_reserved":false,"is_disabled":false,"rental_uris":{"android":"levelo://app?vid=9c577393-f35c-4b59-82b1-f7c1bb6a1b8f","ios":"levelo://app?vid=9c577393-f35c-4b59-82b1-f7c1bb6a1b8f"},"vehicle_type_id":"4","last_reported":1731932347,"current_range_meters":16800,"station_id":"ce4bhlp2rcd13ifvqgjg","pricing_plan_id":"cebpf4jnsgd1na2vs0mg"},{"bike_id":"000bbcc5-291b-4365-9f84-9ac6e1b6e584","system_id":"levelo_inurba_marseille","lat":43.28001,"lon":5.40015,"is_reserved":false,"is_disabled":false,"rental_uris":{"android":"levelo://app?vid=000bbcc5-291b-4365-9f84-9ac6e1b6e584","ios":"levelo://app?vid=000bbcc5-291b-4365-9f84-9ac6e1b6e584"},"vehicle_type_id":"4","last_reported":1731932347,"current_range_meters":34800,"station_id":"ce4bho92rcd13ifvqh4g","pricing_plan_id":"cebpf4jnsgd1na2vs0mg"},{"bike_id":"677756f5-a559-46c8-ae90-03f718d2b9e3","system_id":"levelo_inurba_marseille","lat":43.28439,"lon":5.39183,"is_reserved":false,"is_disabled":false,"rental_uris":{"android":"levelo://app?vid=677756f5-a559-46c8-ae90-03f718d2b9e3","ios":"levelo://app?vid=677756f5-a559-46c8-ae90-03f718d2b9e3"},"vehicle_type_id":"4","last_reported":1731932347,"current_range_meters":32000,"station_id":"","pricing_plan_id":"cebpf4jnsgd1na2vs0mg"},{"bike_id":"ed3c66fe-f6b9-4e04-b57d-c3e9284e1444","system_id":"levelo_inurba_marseille","lat":43.28447,"lon":5.39181,"is_reserved":false,"is_disabled":false,"rental_uris":{"android":"levelo://app?vid=ed3c66fe-f6b9-4e04-b57d-c3e9284e1444","ios":"levelo://app?vid=ed3c66fe-f6b9-4e04-b57d-c3e9284e1444"},"vehicle_type_id":"4","last_reported":1731932347,"current_range_meters":27200,"station_id":"ce4bhoh2rcd13ifvqh5g","pricing_plan_id":"cebpf4jnsgd1na2vs0mg"},{"bike_id":"10d64864-cb06-4542-9a64-4a9e76c76caa","system_id":"levelo_inurba_marseille","lat":43.2668,"lon":5.38261,"is_reserved":false,"is_disabled":false,"rental_uris":{"android":"levelo://app?vid=10d64864-cb06-4542-9a64-4a9e76c76caa","ios":"levelo://app?vid=10d64864-cb06-4542-9a64-4a9e76c76caa"},"vehicle_type_id":"4","last_reported":1731932347,"current_range_meters":26000,"station_id":"ce4bhg92rcd13ifvqf90","pricing_plan_id":"cebpf4jnsgd1na2vs0mg"},{"bike_id":"475290c4-27aa-445d-baab-c53c24b225ac","system_id":"levelo_inurba_marseille","lat":43.24548,"lon":5.39524,"is_reserved":false,"is_disabled":false,"rental_uris":{"android":"levelo://app?vid=475290c4-27aa-445d-baab-c53c24b225ac","ios":"levelo://app?vid=475290c4-27aa-445d-baab-c53c24b225ac"},"vehicle_type_id":"4","last_reported":1731932347,"current_range_meters":38800,"station_id":"ce4bhlp2rcd13ifvqgjg","pricing_plan_id":"cebpf4jnsgd1na2vs0mg"},{"bike_id":"e205eda1-6c0c-474a-ab19-cfae7837a923","system_id":"levelo_inurba_marseille","lat":43.28616,"lon":5.35105,"is_reserved":false,"is_disabled":false,"rental_uris":{"android":"levelo://app?vid=e205eda1-6c0c-474a-ab19-cfae7837a923","ios":"levelo://app?vid=e205eda1-6c0c-474a-ab19-cfae7837a923"},"vehicle_type_id":"4","last_reported":1731932347,"current_range_meters":8000,"station_id":"ce4bhch2rcd13ifvqeug","pricing_plan_id":"cebpf4jnsgd1na2vs0mg"},{"bike_id":"6d977a47-f5d0-491f-8347-20b45413b83b","system_id":"levelo_inurba_marseille","lat":43.27944,"lon":5.41039,"is_reserved":false,"is_disabled":false,"rental_uris":{"android":"levelo://app?vid=6d977a47-f5d0-491f-8347-20b45413b83b","ios":"levelo://app?vid=6d977a47-f5d0-491f-8347-20b45413b83b"},"vehicle_type_id":"4","last_reported":1731932347,"current_range_meters":27600,"station_id":"ce4bhnp2rcd13ifvqh0g","pricing_plan_id":"cebpf4jnsgd1na2vs0mg"},{"bike_id":"31b4bc44-6f1a-4f78-b0f5-4d885fae73f5","system_id":"levelo_inurba_marseille","lat":43.29796,"lon":5.40404,"is_reserved":false,"is_disabled":false,"rental_uris":{"android":"levelo://app?vid=31b4bc44-6f1a-4f78-b0f5-4d885fae73f5","ios":"levelo://app?vid=31b4bc44-6f1a-4f78-b0f5-4d885fae73f5"},"vehicle_type_id":"4","last_reported":1731932347,"current_range_meters":34800,"station_id":"ce4bh112rcd13ifvqd90","pricing_plan_id":"cebpf4jnsgd1na2vs0mg"},{"bike_id":"6f41a04c-b36d-4229-bd32-b215b478999f","system_id":"levelo_inurba_marseille","lat":43.23186,"lon":5.39983,"is_reserved":false,"is_disabled":false,"rental_uris":{"android":"levelo://app?vid=6f41a04c-b36d-4229-bd32-b215b478999f","ios":"levelo://app?vid=6f41a04c-b36d-4229-bd32-b215b478999f"},"vehicle_type_id":"4","last_reported":1731932347,"current_range_meters":19200,"station_id":"ce4bhn12rcd13ifvqgqg","pricing_plan_id":"cebpf4jnsgd1na2vs0mg"},{"bike_id":"72b96922-5842-4fb8-9252-39ddcfd38a5f","system_id":"levelo_inurba_marseille","lat":43.27996,"lon":5.40018,"is_reserved":false,"is_disabled":false,"rental_uris":{"android":"levelo://app?vid=72b96922-5842-4fb8-9252-39ddcfd38a5f","ios":"levelo://app?vid=72b96922-5842-4fb8-9252-39ddcfd38a5f"},"vehicle_type_id":"4","last_reported":1731932347,"current_range_meters":25200,"station_id":"ce4bho92rcd13ifvqh4g","pricing_plan_id":"cebpf4jnsgd1na2vs0mg"},{"bike_id":"57e4cbd9-496a-46ca-92ab-a9501b32000d","system_id":"levelo_inurba_marseille","lat":43.23185,"lon":5.39978,"is_reserved":false,"is_disabled":false,"rental_uris":{"android":"levelo://app?vid=57e4cbd9-496a-46ca-92ab-a9501b32000d","ios":"levelo://app?vid=57e4cbd9-496a-46ca-92ab-a9501b32000d"},"vehicle_type_id":"4","last_reported":1731932347,"current_range_meters":39200,"station_id":"ce4bhn12rcd13ifvqgqg","pricing_plan_id":"cebpf4jnsgd1na2vs0mg"},{"bike_id":"153b6e33-e365-4246-9c52-f4f0b493b912","system_id":"levelo_inurba_marseille","lat":43.29907,"lon":5.37479,"is_reserved":false,"is_disabled":false,"rental_uris":{"android":"levelo://app?vid=153b6e33-e365-4246-9c52-f4f0b493b912","ios":"levelo://app?vid=153b6e33-e365-4246-9c52-f4f0b493b912"},"vehicle_type_id":"4","last_reported":1731932347,"current_range_meters":32400,"station_id":"ce4bgjh2rcd13ifvqbg0","pricing_plan_id":"cebpf4jnsgd1na2vs0mg"},{"bike_id":"a6b8c285-acc9-4039-9531-1aae39136a33","system_id":"levelo_inurba_marseille","lat":43.312042,"lon":5.367348,"is_reserved":false,"is_disabled":false,"rental_uris":{"android":"levelo://app?vid=a6b8c285-acc9-4039-9531-1aae39136a33","ios":"levelo://app?vid=a6b8c285-acc9-4039-9531-1aae39136a33"},"vehicle_type_id":"4","last_reported":1731932347,"current_range_meters":6000,"station_id":"","pricing_plan_id":"cebpf4jnsgd1na2vs0mg"},{"bike_id":"11f81d72-c8e7-4ef6-b62d-17f40c3efe62","system_id":"levelo_inurba_marseille","lat":43.32104,"lon":5.36782,"is_reserved":false,"is_disabled":false,"rental_uris":{"android":"levelo://app?vid=11f81d72-c8e7-4ef6-b62d-17f40c3efe62","ios":"levelo://app?vid=11f81d72-c8e7-4ef6-b62d-17f40c3efe62"},"vehicle_type_id":"4","last_reported":1731932347,"current_range_meters":35600,"station_id":"ce4bhrh2rcd13ifvqhug","pricing_plan_id":"cebpf4jnsgd1na2vs0mg"},{"bike_id":"34b9f970-27e7-43cb-bb06-ac9397ebf150","system_id":"levelo_inurba_marseille","lat":43.24083,"lon":5.37741,"is_reserved":false,"is_disabled":false,"rental_uris":{"android":"levelo://app?vid=34b9f970-27e7-43cb-bb06-ac9397ebf150","ios":"levelo://app?vid=34b9f970-27e7-43cb-bb06-ac9397ebf150"},"vehicle_type_id":"4","last_reported":1731932347,"current_range_meters":18000,"station_id":"ce4bhnp2rcd13ifvqgvg","pricing_plan_id":"cebpf4jnsgd1na2vs0mg"},{"bike_id":"39208c10-828e-4392-9aa2-019dd2bc97c3","system_id":"levelo_inurba_marseille","lat":43.27996,"lon":5.4001,"is_reserved":false,"is_disabled":false,"rental_uris":{"android":"levelo://app?vid=39208c10-828e-4392-9aa2-019dd2bc97c3","ios":"levelo://app?vid=39208c10-828e-4392-9aa2-019dd2bc97c3"},"vehicle_type_id":"4","last_reported":1731932347,"current_range_meters":25200,"station_id":"ce4bho92rcd13ifvqh4g","pricing_plan_id":"cebpf4jnsgd1na2vs0mg"},{"bike_id":"205d19a1-2790-4a64-96c2-faa571d294ec","system_id":"levelo_inurba_marseille","lat":43.3019,"lon":5.36619,"is_reserved":false,"is_disabled":false,"rental_uris":{"android":"levelo://app?vid=205d19a1-2790-4a64-96c2-faa571d294ec","ios":"levelo://app?vid=205d19a1-2790-4a64-96c2-faa571d294ec"},"vehicle_type_id":"4","last_reported":1731932347,"current_range_meters":38800,"station_id":"ce4bgrh2rcd13ifvqc8g","pricing_plan_id":"cebpf4jnsgd1na2vs0mg"},{"bike_id":"034fdf6f-4f78-44c1-9981-8a8407a03a87","system_id":"levelo_inurba_marseille","lat":43.28039,"lon":5.36953,"is_reserved":false,"is_disabled":false,"rental_uris":{"android":"levelo://app?vid=034fdf6f-4f78-44c1-9981-8a8407a03a87","ios":"levelo://app?vid=034fdf6f-4f78-44c1-9981-8a8407a03a87"},"vehicle_type_id":"4","last_reported":1731932347,"current_range_meters":34000,"station_id":"ce4bha12rcd13ifvqef0","pricing_plan_id":"cebpf4jnsgd1na2vs0mg"},{"bike_id":"9af3cdec-4f63-4439-b320-1cf5e6351989","system_id":"levelo_inurba_marseille","lat":43.2619,"lon":5.37447,"is_reserved":false,"is_disabled":false,"rental_uris":{"android":"levelo://app?vid=9af3cdec-4f63-4439-b320-1cf5e6351989","ios":"levelo://app?vid=9af3cdec-4f63-4439-b320-1cf5e6351989"},"vehicle_type_id":"4","last_reported":1731932347,"current_range_meters":26800,"station_id":"ce4bhgp2rcd13ifvqfc0","pricing_plan_id":"cebpf4jnsgd1na2vs0mg"},{"bike_id":"30623e0d-666e-459c-8ee2-dd2be51ba16a","system_id":"levelo_inurba_marseille","lat":43.27991,"lon":5.40019,"is_reserved":false,"is_disabled":false,"rental_uris":{"android":"levelo://app?vid=30623e0d-666e-459c-8ee2-dd2be51ba16a","ios":"levelo://app?vid=30623e0d-666e-459c-8ee2-dd2be51ba16a"},"vehicle_type_id":"4","last_reported":1731932347,"current_range_meters":6800,"station_id":"ce4bho92rcd13ifvqh4g","pricing_plan_id":"cebpf4jnsgd1na2vs0mg"},{"bike_id":"e1a28b36-0717-4e37-be43-98104648c62b","system_id":"levelo_inurba_marseille","lat":43.24394,"lon":5.37065,"is_reserved":false,"is_disabled":false,"rental_uris":{"android":"levelo://app?vid=e1a28b36-0717-4e37-be43-98104648c62b","ios":"levelo://app?vid=e1a28b36-0717-4e37-be43-98104648c62b"},"vehicle_type_id":"4","last_reported":1731932347,"current_range_meters":6000,"station_id":"ce4bhhh2rcd13ifvqfk0","pricing_plan_id":"cebpf4jnsgd1na2vs0mg"},{"bike_id":"495722cd-8d1f-4de3-90fa-0c2a416c0f27","system_id":"levelo_inurba_marseille","lat":43.304604,"lon":5.379061,"is_reserved":false,"is_disabled":false,"rental_uris":{"android":"levelo://app?vid=495722cd-8d1f-4de3-90fa-0c2a416c0f27","ios":"levelo://app?vid=495722cd-8d1f-4de3-90fa-0c2a416c0f27"},"vehicle_type_id":"4","last_reported":1731932347,"current_range_meters":20000,"station_id":"ce4bgk12rcd13ifvqbi0","pricing_plan_id":"cebpf4jnsgd1na2vs0mg"},{"bike_id":"17bcd2b9-6dac-4a23-8599-11dd505d845e","system_id":"levelo_inurba_marseille","lat":43.2315,"lon":5.43725,"is_reserved":false,"is_disabled":false,"rental_uris":{"android":"levelo://app?vid=17bcd2b9-6dac-4a23-8599-11dd505d845e","ios":"levelo://app?vid=17bcd2b9-6dac-4a23-8599-11dd505d845e"},"vehicle_type_id":"4","last_reported":1731932347,"current_range_meters":27200,"station_id":"ce4bhmp2rcd13ifvqgog","pricing_plan_id":"cebpf4jnsgd1na2vs0mg"},{"bike_id":"c51f4d7b-b912-4619-a0f6-68e640c96bcd","system_id":"levelo_inurba_marseille","lat":43.31366,"lon":5.36696,"is_reserved":false,"is_disabled":false,"rental_uris":{"android":"levelo://app?vid=c51f4d7b-b912-4619-a0f6-68e640c96bcd","ios":"levelo://app?vid=c51f4d7b-b912-4619-a0f6-68e640c96bcd"},"vehicle_type_id":"4","last_reported":1731932347,"current_range_meters":38800,"station_id":"ce4bgr92rcd13ifvqc6g","pricing_plan_id":"cebpf4jnsgd1na2vs0mg"},{"bike_id":"92ac4858-87d6-4ceb-8f6e-004635a816a8","system_id":"levelo_inurba_marseille","lat":43.27789,"lon":5.40729,"is_reserved":false,"is_disabled":false,"rental_uris":{"android":"levelo://app?vid=92ac4858-87d6-4ceb-8f6e-004635a816a8","ios":"levelo://app?vid=92ac4858-87d6-4ceb-8f6e-004635a816a8"},"vehicle_type_id":"4","last_reported":1731932347,"current_range_meters":22800,"station_id":"ce4bhnh2rcd13ifvqgtg","pricing_plan_id":"cebpf4jnsgd1na2vs0mg"},{"bike_id":"f06aec30-7855-4a0d-b633-cdddcf2ba86a","system_id":"levelo_inurba_marseille","lat":43.30547,"lon":5.36546,"is_reserved":false,"is_disabled":false,"rental_uris":{"android":"levelo://app?vid=f06aec30-7855-4a0d-b633-cdddcf2ba86a","ios":"levelo://app?vid=f06aec30-7855-4a0d-b633-cdddcf2ba86a"},"vehicle_type_id":"4","last_reported":1731932347,"current_range_meters":6400,"station_id":"ce4bgs12rcd13ifvqcag","pricing_plan_id":"cebpf4jnsgd1na2vs0mg"},{"bike_id":"9f96840b-a50e-4a44-b234-fb428b9d6bd5","system_id":"levelo_inurba_marseille","lat":43.2418,"lon":5.39734,"is_reserved":false,"is_disabled":false,"rental_uris":{"android":"levelo://app?vid=9f96840b-a50e-4a44-b234-fb428b9d6bd5","ios":"levelo://app?vid=9f96840b-a50e-4a44-b234-fb428b9d6bd5"},"vehicle_type_id":"4","last_reported":1731932347,"current_range_meters":38000,"station_id":"ce4bhn12rcd13ifvqgpg","pricing_plan_id":"cebpf4jnsgd1na2vs0mg"},{"bike_id":"ec2351d1-10f8-43e0-aebc-df5382abbad8","system_id":"levelo_inurba_marseille","lat":43.23148,"lon":5.43721,"is_reserved":false,"is_disabled":false,"rental_uris":{"android":"levelo://app?vid=ec2351d1-10f8-43e0-aebc-df5382abbad8","ios":"levelo://app?vid=ec2351d1-10f8-43e0-aebc-df5382abbad8"},"vehicle_type_id":"4","last_reported":1731932347,"current_range_meters":22000,"station_id":"ce4bhmp2rcd13ifvqgog","pricing_plan_id":"cebpf4jnsgd1na2vs0mg"},{"bike_id":"7465bc4b-7341-47ef-959d-45c0a1d37e4c","system_id":"levelo_inurba_marseille","lat":43.24084,"lon":5.37742,"is_reserved":false,"is_disabled":false,"rental_uris":{"android":"levelo://app?vid=7465bc4b-7341-47ef-959d-45c0a1d37e4c","ios":"levelo://app?vid=7465bc4b-7341-47ef-959d-45c0a1d37e4c"},"vehicle_type_id":"4","last_reported":1731932347,"current_range_meters":24800,"station_id":"ce4bhnp2rcd13ifvqgvg","pricing_plan_id":"cebpf4jnsgd1na2vs0mg"},{"bike_id":"fca1fce2-decb-4bcf-993a-23c8516f0462","system_id":"levelo_inurba_marseille","lat":43.27902,"lon":5.41218,"is_reserved":false,"is_disabled":false,"rental_uris":{"android":"levelo://app?vid=fca1fce2-decb-4bcf-993a-23c8516f0462","ios":"levelo://app?vid=fca1fce2-decb-4bcf-993a-23c8516f0462"},"vehicle_type_id":"4","last_reported":1731932347,"current_range_meters":28800,"station_id":"","pricing_plan_id":"cebpf4jnsgd1na2vs0mg"},{"bike_id":"8f426890-14c3-4f84-af0e-ede85f28b7aa","system_id":"levelo_inurba_marseille","lat":43.23148,"lon":5.4372,"is_reserved":false,"is_disabled":false,"rental_uris":{"android":"levelo://app?vid=8f426890-14c3-4f84-af0e-ede85f28b7aa","ios":"levelo://app?vid=8f426890-14c3-4f84-af0e-ede85f28b7aa"},"vehicle_type_id":"4","last_reported":1731932347,"current_range_meters":19200,"station_id":"ce4bhmp2rcd13ifvqgog","pricing_plan_id":"cebpf4jnsgd1na2vs0mg"},{"bike_id":"7c6f4d20-bfa3-4c61-82ea-ea89d0dc390d","system_id":"levelo_inurba_marseille","lat":43.28853,"lon":5.35867,"is_reserved":false,"is_disabled":false,"rental_uris":{"android":"levelo://app?vid=7c6f4d20-bfa3-4c61-82ea-ea89d0dc390d","ios":"levelo://app?vid=7c6f4d20-bfa3-4c61-82ea-ea89d0dc390d"},"vehicle_type_id":"4","last_reported":1731932347,"current_range_meters":29600,"station_id":"ce4bhb12rcd13ifvqem0","pricing_plan_id":"cebpf4jnsgd1na2vs0mg"},{"bike_id":"038e22aa-b05f-48ed-a64b-dd71c450f9b0","system_id":"levelo_inurba_marseille","lat":43.33602,"lon":5.41036,"is_reserved":false,"is_disabled":false,"rental_uris":{"android":"levelo://app?vid=038e22aa-b05f-48ed-a64b-dd71c450f9b0","ios":"levelo://app?vid=038e22aa-b05f-48ed-a64b-dd71c450f9b0"},"vehicle_type_id":"4","last_reported":1731932347,"current_range_meters":35200,"station_id":"ce4bhqh2rcd13ifvqhmg","pricing_plan_id":"cebpf4jnsgd1na2vs0mg"},{"bike_id":"fcc3bb46-7516-43b0-811a-0a0d7e3d2379","system_id":"levelo_inurba_marseille","lat":43.31229,"lon":5.3686,"is_reserved":false,"is_disabled":false,"rental_uris":{"android":"levelo://app?vid=fcc3bb46-7516-43b0-811a-0a0d7e3d2379","ios":"levelo://app?vid=fcc3bb46-7516-43b0-811a-0a0d7e3d2379"},"vehicle_type_id":"4","last_reported":1731932347,"current_range_meters":38800,"station_id":"ce4bgl92rcd13ifvqbq0","pricing_plan_id":"cebpf4jnsgd1na2vs0mg"},{"bike_id":"33afd512-c3b8-4c37-a0a3-7c908805a2b5","system_id":"levelo_inurba_marseille","lat":43.2893,"lon":5.384022,"is_reserved":false,"is_disabled":false,"rental_uris":{"android":"levelo://app?vid=33afd512-c3b8-4c37-a0a3-7c908805a2b5","ios":"levelo://app?vid=33afd512-c3b8-4c37-a0a3-7c908805a2b5"},"vehicle_type_id":"4","last_reported":1731932347,"current_range_meters":32400,"station_id":"ce4bh612rcd13ifvqe6g","pricing_plan_id":"cebpf4jnsgd1na2vs0mg"},{"bike_id":"98996229-53b4-423c-81c4-8bdddc37f49b","system_id":"levelo_inurba_marseille","lat":43.33024,"lon":5.39044,"is_reserved":false,"is_disabled":false,"rental_uris":{"android":"levelo://app?vid=98996229-53b4-423c-81c4-8bdddc37f49b","ios":"levelo://app?vid=98996229-53b4-423c-81c4-8bdddc37f49b"},"vehicle_type_id":"4","last_reported":1731932347,"current_range_meters":33600,"station_id":"ce4bhr92rcd13ifvqhrg","pricing_plan_id":"cebpf4jnsgd1na2vs0mg"},{"bike_id":"b439c958-93bb-4b50-aace-88d88e4fc6a5","system_id":"levelo_inurba_marseille","lat":43.30358,"lon":5.4188,"is_reserved":false,"is_disabled":false,"rental_uris":{"android":"levelo://app?vid=b439c958-93bb-4b50-aace-88d88e4fc6a5","ios":"levelo://app?vid=b439c958-93bb-4b50-aace-88d88e4fc6a5"},"vehicle_type_id":"4","last_reported":1731932347,"current_range_meters":35200,"station_id":"ce4bhop2rcd13ifvqh7g","pricing_plan_id":"cebpf4jnsgd1na2vs0mg"},{"bike_id":"d41b858d-9945-46e7-8b81-29a0c50e93f4","system_id":"levelo_inurba_marseille","lat":43.29416,"lon":5.38628,"is_reserved":false,"is_disabled":false,"rental_uris":{"android":"levelo://app?vid=d41b858d-9945-46e7-8b81-29a0c50e93f4","ios":"levelo://app?vid=d41b858d-9945-46e7-8b81-29a0c50e93f4"},"vehicle_type_id":"4","last_reported":1731932347,"current_range_meters":26000,"station_id":"ce4bh2h2rcd13ifvqdh0","pricing_plan_id":"cebpf4jnsgd1na2vs0mg"},{"bike_id":"c749c7ac-470e-4efd-a3a3-a668b3131ceb","system_id":"levelo_inurba_marseille","lat":43.24544,"lon":5.39525,"is_reserved":false,"is_disabled":false,"rental_uris":{"android":"levelo://app?vid=c749c7ac-470e-4efd-a3a3-a668b3131ceb","ios":"levelo://app?vid=c749c7ac-470e-4efd-a3a3-a668b3131ceb"},"vehicle_type_id":"4","last_reported":1731932347,"current_range_meters":26800,"station_id":"ce4bhlp2rcd13ifvqgjg","pricing_plan_id":"cebpf4jnsgd1na2vs0mg"},{"bike_id":"d8e8b981-42e2-475f-b097-cf09e75e8523","system_id":"levelo_inurba_marseille","lat":43.28607,"lon":5.37064,"is_reserved":false,"is_disabled":false,"rental_uris":{"android":"levelo://app?vid=d8e8b981-42e2-475f-b097-cf09e75e8523","ios":"levelo://app?vid=d8e8b981-42e2-475f-b097-cf09e75e8523"},"vehicle_type_id":"4","last_reported":1731932347,"current_range_meters":22400,"station_id":"ce4bht12rcd13ifvqi60","pricing_plan_id":"cebpf4jnsgd1na2vs0mg"},{"bike_id":"bd04ee51-28aa-4c2d-a5cd-1167ca8b79ac","system_id":"levelo_inurba_marseille","lat":43.267979,"lon":5.402694,"is_reserved":false,"is_disabled":false,"rental_uris":{"android":"levelo://app?vid=bd04ee51-28aa-4c2d-a5cd-1167ca8b79ac","ios":"levelo://app?vid=bd04ee51-28aa-4c2d-a5cd-1167ca8b79ac"},"vehicle_type_id":"4","last_reported":1731932347,"current_range_meters":30000,"station_id":"ce501612rcd8frsf0b60","pricing_plan_id":"cebpf4jnsgd1na2vs0mg"},{"bike_id":"11009a1e-1f42-46f5-9698-aea4ec9da179","system_id":"levelo_inurba_marseille","lat":43.3248,"lon":5.36557,"is_reserved":false,"is_disabled":false,"rental_uris":{"android":"levelo://app?vid=11009a1e-1f42-46f5-9698-aea4ec9da179","ios":"levelo://app?vid=11009a1e-1f42-46f5-9698-aea4ec9da179"},"vehicle_type_id":"4","last_reported":1731932347,"current_range_meters":29600,"station_id":"ce4bhs12rcd13ifvqhvg","pricing_plan_id":"cebpf4jnsgd1na2vs0mg"},{"bike_id":"f70b0a2c-9a11-4a75-9ff3-47f32334e77c","system_id":"levelo_inurba_marseille","lat":43.25104,"lon":5.40332,"is_reserved":false,"is_disabled":false,"rental_uris":{"android":"levelo://app?vid=f70b0a2c-9a11-4a75-9ff3-47f32334e77c","ios":"levelo://app?vid=f70b0a2c-9a11-4a75-9ff3-47f32334e77c"},"vehicle_type_id":"4","last_reported":1731932347,"current_range_meters":28800,"station_id":"ce4bhlh2rcd13ifvqgig","pricing_plan_id":"cebpf4jnsgd1na2vs0mg"},{"bike_id":"8f191948-4a07-47c7-9f04-5e1f6813a104","system_id":"levelo_inurba_marseille","lat":43.29649,"lon":5.37648,"is_reserved":false,"is_disabled":false,"rental_uris":{"android":"levelo://app?vid=8f191948-4a07-47c7-9f04-5e1f6813a104","ios":"levelo://app?vid=8f191948-4a07-47c7-9f04-5e1f6813a104"},"vehicle_type_id":"4","last_reported":1731932347,"current_range_meters":3600,"station_id":"","pricing_plan_id":"cebpf4jnsgd1na2vs0mg"},{"bike_id":"7174d6a2-3f65-4ff0-8252-138e4d064a24","system_id":"levelo_inurba_marseille","lat":43.33753,"lon":5.37473,"is_reserved":false,"is_disabled":false,"rental_uris":{"android":"levelo://app?vid=7174d6a2-3f65-4ff0-8252-138e4d064a24","ios":"levelo://app?vid=7174d6a2-3f65-4ff0-8252-138e4d064a24"},"vehicle_type_id":"4","last_reported":1731932347,"current_range_meters":38800,"station_id":"","pricing_plan_id":"cebpf4jnsgd1na2vs0mg"},{"bike_id":"620495cf-697c-4096-abd1-9a6530d798c4","system_id":"levelo_inurba_marseille","lat":43.30177,"lon":5.36602,"is_reserved":false,"is_disabled":false,"rental_uris":{"android":"levelo://app?vid=620495cf-697c-4096-abd1-9a6530d798c4","ios":"levelo://app?vid=620495cf-697c-4096-abd1-9a6530d798c4"},"vehicle_type_id":"4","last_reported":1731932347,"current_range_meters":14800,"station_id":"ce4bgrh2rcd13ifvqc8g","pricing_plan_id":"cebpf4jnsgd1na2vs0mg"},{"bike_id":"316f2772-3cb9-425c-b810-f74fba63a1fd","system_id":"levelo_inurba_marseille","lat":43.28036,"lon":5.36948,"is_reserved":false,"is_disabled":false,"rental_uris":{"android":"levelo://app?vid=316f2772-3cb9-425c-b810-f74fba63a1fd","ios":"levelo://app?vid=316f2772-3cb9-425c-b810-f74fba63a1fd"},"vehicle_type_id":"4","last_reported":1731932347,"current_range_meters":27600,"station_id":"ce4bha12rcd13ifvqef0","pricing_plan_id":"cebpf4jnsgd1na2vs0mg"},{"bike_id":"4a034c2e-a42c-4280-a35b-b7904d750273","system_id":"levelo_inurba_marseille","lat":43.29525,"lon":5.39045,"is_reserved":false,"is_disabled":false,"rental_uris":{"android":"levelo://app?vid=4a034c2e-a42c-4280-a35b-b7904d750273","ios":"levelo://app?vid=4a034c2e-a42c-4280-a35b-b7904d750273"},"vehicle_type_id":"4","last_reported":1731932347,"current_range_meters":38800,"station_id":"ce4bh3p2rcd13ifvqdp0","pricing_plan_id":"cebpf4jnsgd1na2vs0mg"},{"bike_id":"df430e3e-9419-499c-9ad8-e9cb08a6c010","system_id":"levelo_inurba_marseille","lat":43.23179,"lon":5.39991,"is_reserved":false,"is_disabled":false,"rental_uris":{"android":"levelo://app?vid=df430e3e-9419-499c-9ad8-e9cb08a6c010","ios":"levelo://app?vid=df430e3e-9419-499c-9ad8-e9cb08a6c010"},"vehicle_type_id":"4","last_reported":1731932347,"current_range_meters":24000,"station_id":"ce4bhn12rcd13ifvqgqg","pricing_plan_id":"cebpf4jnsgd1na2vs0mg"},{"bike_id":"d27dd32c-1638-4813-9399-b0b205679d27","system_id":"levelo_inurba_marseille","lat":43.27948,"lon":5.41049,"is_reserved":false,"is_disabled":false,"rental_uris":{"android":"levelo://app?vid=d27dd32c-1638-4813-9399-b0b205679d27","ios":"levelo://app?vid=d27dd32c-1638-4813-9399-b0b205679d27"},"vehicle_type_id":"4","last_reported":1731932347,"current_range_meters":22000,"station_id":"ce4bhnp2rcd13ifvqh0g","pricing_plan_id":"cebpf4jnsgd1na2vs0mg"},{"bike_id":"521efbc1-91e7-450d-9c45-c6a1c1d1140e","system_id":"levelo_inurba_marseille","lat":43.32369,"lon":5.38888,"is_reserved":false,"is_disabled":false,"rental_uris":{"android":"levelo://app?vid=521efbc1-91e7-450d-9c45-c6a1c1d1140e","ios":"levelo://app?vid=521efbc1-91e7-450d-9c45-c6a1c1d1140e"},"vehicle_type_id":"4","last_reported":1731932347,"current_range_meters":36800,"station_id":"ce4bhqp2rcd13ifvqhog","pricing_plan_id":"cebpf4jnsgd1na2vs0mg"},{"bike_id":"3c7108fb-85fe-43b6-95ce-e6a5e6d34b1a","system_id":"levelo_inurba_marseille","lat":43.33719,"lon":5.39185,"is_reserved":false,"is_disabled":false,"rental_uris":{"android":"levelo://app?vid=3c7108fb-85fe-43b6-95ce-e6a5e6d34b1a","ios":"levelo://app?vid=3c7108fb-85fe-43b6-95ce-e6a5e6d34b1a"},"vehicle_type_id":"4","last_reported":1731932347,"current_range_meters":24800,"station_id":"ce4bhr92rcd13ifvqhsg","pricing_plan_id":"cebpf4jnsgd1na2vs0mg"},{"bike_id":"f89608a0-a462-4d8a-90bd-be58df046942","system_id":"levelo_inurba_marseille","lat":43.25116,"lon":5.40317,"is_reserved":false,"is_disabled":false,"rental_uris":{"android":"levelo://app?vid=f89608a0-a462-4d8a-90bd-be58df046942","ios":"levelo://app?vid=f89608a0-a462-4d8a-90bd-be58df046942"},"vehicle_type_id":"4","last_reported":1731932347,"current_range_meters":25600,"station_id":"ce4bhlh2rcd13ifvqgig","pricing_plan_id":"cebpf4jnsgd1na2vs0mg"},{"bike_id":"2ff992dc-d70e-46ae-8ae9-2494582a45a0","system_id":"levelo_inurba_marseille","lat":43.2944,"lon":5.39746,"is_reserved":false,"is_disabled":false,"rental_uris":{"android":"levelo://app?vid=2ff992dc-d70e-46ae-8ae9-2494582a45a0","ios":"levelo://app?vid=2ff992dc-d70e-46ae-8ae9-2494582a45a0"},"vehicle_type_id":"4","last_reported":1731932347,"current_range_meters":37600,"station_id":"ce4bh3h2rcd13ifvqdo0","pricing_plan_id":"cebpf4jnsgd1na2vs0mg"},{"bike_id":"e07300b7-8408-4b0c-a4bb-bd9affbf124d","system_id":"levelo_inurba_marseille","lat":43.30879,"lon":5.3965,"is_reserved":false,"is_disabled":false,"rental_uris":{"android":"levelo://app?vid=e07300b7-8408-4b0c-a4bb-bd9affbf124d","ios":"levelo://app?vid=e07300b7-8408-4b0c-a4bb-bd9affbf124d"},"vehicle_type_id":"4","last_reported":1731932347,"current_range_meters":8400,"station_id":"ce4bh012rcd13ifvqcv0","pricing_plan_id":"cebpf4jnsgd1na2vs0mg"},{"bike_id":"c71998b4-4e49-4022-8ad1-687216411ec6","system_id":"levelo_inurba_marseille","lat":43.23192,"lon":5.39983,"is_reserved":false,"is_disabled":false,"rental_uris":{"android":"levelo://app?vid=c71998b4-4e49-4022-8ad1-687216411ec6","ios":"levelo://app?vid=c71998b4-4e49-4022-8ad1-687216411ec6"},"vehicle_type_id":"4","last_reported":1731932347,"current_range_meters":35200,"station_id":"ce4bhn12rcd13ifvqgqg","pricing_plan_id":"cebpf4jnsgd1na2vs0mg"},{"bike_id":"e0500e76-9b1d-4cdf-81a0-bac96644b86a","system_id":"levelo_inurba_marseille","lat":43.24671,"lon":5.3816,"is_reserved":false,"is_disabled":false,"rental_uris":{"android":"levelo://app?vid=e0500e76-9b1d-4cdf-81a0-bac96644b86a","ios":"levelo://app?vid=e0500e76-9b1d-4cdf-81a0-bac96644b86a"},"vehicle_type_id":"4","last_reported":1731932347,"current_range_meters":32000,"station_id":"ce4bhih2rcd13ifvqfr0","pricing_plan_id":"cebpf4jnsgd1na2vs0mg"},{"bike_id":"d565bd31-385e-4c31-852d-6eee8c7d8f2c","system_id":"levelo_inurba_marseille","lat":43.28344,"lon":5.3811,"is_reserved":false,"is_disabled":false,"rental_uris":{"android":"levelo://app?vid=d565bd31-385e-4c31-852d-6eee8c7d8f2c","ios":"levelo://app?vid=d565bd31-385e-4c31-852d-6eee8c7d8f2c"},"vehicle_type_id":"4","last_reported":1731932347,"current_range_meters":33200,"station_id":"ce4bh412rcd13ifvqdr0","pricing_plan_id":"cebpf4jnsgd1na2vs0mg"},{"bike_id":"cc556762-5785-4a2e-8985-be93d2e727ff","system_id":"levelo_inurba_marseille","lat":43.29968,"lon":5.38493,"is_reserved":false,"is_disabled":false,"rental_uris":{"android":"levelo://app?vid=cc556762-5785-4a2e-8985-be93d2e727ff","ios":"levelo://app?vid=cc556762-5785-4a2e-8985-be93d2e727ff"},"vehicle_type_id":"4","last_reported":1731932347,"current_range_meters":29600,"station_id":"ce4bgj92rcd13ifvqbd0","pricing_plan_id":"cebpf4jnsgd1na2vs0mg"},{"bike_id":"40776fd6-e369-4c25-9923-c9709ec52703","system_id":"levelo_inurba_marseille","lat":43.29927,"lon":5.36541,"is_reserved":false,"is_disabled":false,"rental_uris":{"android":"levelo://app?vid=40776fd6-e369-4c25-9923-c9709ec52703","ios":"levelo://app?vid=40776fd6-e369-4c25-9923-c9709ec52703"},"vehicle_type_id":"4","last_reported":1731932347,"current_range_meters":30800,"station_id":"ce4bgm92rcd13ifvqbr0","pricing_plan_id":"cebpf4jnsgd1na2vs0mg"},{"bike_id":"de4383ec-cb5f-4353-8cf9-e1f1f80a79f9","system_id":"levelo_inurba_marseille","lat":43.26792,"lon":5.39415,"is_reserved":false,"is_disabled":false,"rental_uris":{"android":"levelo://app?vid=de4383ec-cb5f-4353-8cf9-e1f1f80a79f9","ios":"levelo://app?vid=de4383ec-cb5f-4353-8cf9-e1f1f80a79f9"},"vehicle_type_id":"4","last_reported":1731932347,"current_range_meters":36800,"station_id":"ce4bhh12rcd13ifvqfg0","pricing_plan_id":"cebpf4jnsgd1na2vs0mg"},{"bike_id":"b78d6867-bc64-409d-9cfa-b253b91f41ee","system_id":"levelo_inurba_marseille","lat":43.28947,"lon":5.40004,"is_reserved":false,"is_disabled":false,"rental_uris":{"android":"levelo://app?vid=b78d6867-bc64-409d-9cfa-b253b91f41ee","ios":"levelo://app?vid=b78d6867-bc64-409d-9cfa-b253b91f41ee"},"vehicle_type_id":"4","last_reported":1731932347,"current_range_meters":18800,"station_id":"ce4bho92rcd13ifvqh3g","pricing_plan_id":"cebpf4jnsgd1na2vs0mg"},{"bike_id":"806534df-6460-4a48-97a7-63ebdc1286cb","system_id":"levelo_inurba_marseille","lat":43.29574,"lon":5.36746,"is_reserved":false,"is_disabled":false,"rental_uris":{"android":"levelo://app?vid=806534df-6460-4a48-97a7-63ebdc1286cb","ios":"levelo://app?vid=806534df-6460-4a48-97a7-63ebdc1286cb"},"vehicle_type_id":"4","last_reported":1731932347,"current_range_meters":30800,"station_id":"ce4bgph2rcd13ifvqc2g","pricing_plan_id":"cebpf4jnsgd1na2vs0mg"},{"bike_id":"934cf9f7-3743-4d3f-b056-150615b33a97","system_id":"levelo_inurba_marseille","lat":43.2991,"lon":5.37471,"is_reserved":false,"is_disabled":false,"rental_uris":{"android":"levelo://app?vid=934cf9f7-3743-4d3f-b056-150615b33a97","ios":"levelo://app?vid=934cf9f7-3743-4d3f-b056-150615b33a97"},"vehicle_type_id":"4","last_reported":1731932347,"current_range_meters":29600,"station_id":"ce4bgjh2rcd13ifvqbg0","pricing_plan_id":"cebpf4jnsgd1na2vs0mg"},{"bike_id":"653b82d7-b5cc-4758-ac38-5897dca4a193","system_id":"levelo_inurba_marseille","lat":43.27811,"lon":5.40706,"is_reserved":false,"is_disabled":false,"rental_uris":{"android":"levelo://app?vid=653b82d7-b5cc-4758-ac38-5897dca4a193","ios":"levelo://app?vid=653b82d7-b5cc-4758-ac38-5897dca4a193"},"vehicle_type_id":"4","last_reported":1731932347,"current_range_meters":11200,"station_id":"ce4bhnh2rcd13ifvqgtg","pricing_plan_id":"cebpf4jnsgd1na2vs0mg"},{"bike_id":"f14efb23-22b9-41ec-a66f-84bbcca2ebc9","system_id":"levelo_inurba_marseille","lat":43.298717,"lon":5.39735,"is_reserved":false,"is_disabled":false,"rental_uris":{"android":"levelo://app?vid=f14efb23-22b9-41ec-a66f-84bbcca2ebc9","ios":"levelo://app?vid=f14efb23-22b9-41ec-a66f-84bbcca2ebc9"},"vehicle_type_id":"4","last_reported":1731932347,"current_range_meters":38800,"station_id":"ce4bh0h2rcd13ifvqd50","pricing_plan_id":"cebpf4jnsgd1na2vs0mg"},{"bike_id":"15ae3784-ad68-483e-9421-399c59d884e8","system_id":"levelo_inurba_marseille","lat":43.28438,"lon":5.39187,"is_reserved":false,"is_disabled":false,"rental_uris":{"android":"levelo://app?vid=15ae3784-ad68-483e-9421-399c59d884e8","ios":"levelo://app?vid=15ae3784-ad68-483e-9421-399c59d884e8"},"vehicle_type_id":"4","last_reported":1731932347,"current_range_meters":32800,"station_id":"ce4bhoh2rcd13ifvqh5g","pricing_plan_id":"cebpf4jnsgd1na2vs0mg"},