{"last_updated":1746436297,"ttl":60,"version":"2.2","data":{"bikes":[{"bike_id":"ccd5790a-ee27-4b55-8880-7cee5aeb7cdf","system_id":"levelo_inurba_marseille","lat":43.217451,"lon":5.346126,"is_reserved":false,"is_disabled":true,"rental_uris":{"android":"levelo://app?vid=ccd5790a-ee27-4b55-8880-7cee5aeb7cdf","ios":"levelo://app?vid=ccd5790a-ee27-4b55-8880-7cee5aeb7cdf"},"vehicle_type_id":"4","last_reported":1746436297,"current_range_meters":0,"station_id":"","pricing_plan_id":"cebpf4jnsgd1na2vs0mg"},{"bike_id":"2d87f24b-bb92-4f5a-9c64-611905425c8d","system_id":"levelo_inurba_marseille","lat":43.23667,"lon":5.39143,"is_reserved":false,"is_disabled":true,"rental_uris":{"android":"levelo://app?vid=2d87f24b-bb92-4f5a-9c64-611905425c8d","ios":"levelo://app?vid=2d87f24b-bb92-4f5a-9c64-611905425c8d"},"vehicle_type_id":"4","last_reported":1746436297,"current_range_meters":0,"station_id":"","pricing_plan_id":"cebpf4jnsgd1na2vs0mg"},{"bike_id":"21948972-fdd0-4034-821c-cd42c91a8d8c","system_id":"levelo_inurba_marseille","lat":43.21198,"lon":5.35101,"is_reserved":false,"is_disabled":true,"rental_uris":{"android":"levelo://app?vid=21948972-fdd0-4034-821c-cd42c91a8d8c","ios":"levelo://app?vid=21948972-fdd0-4034-821c-cd42c91a8d8c"},"vehicle_type_id":"4","last_reported":1746436297,"current_range_meters":0,"station_id":"","pricing_plan_id":"cebpf4jnsgd1na2vs0mg"},{"bike_id":"441771cd-0001-4237-b26e-f2e1502d0768","system_id":"levelo_inurba_marseille","lat":43.23643,"lon":5.36628,"is_reserved":false,"is_disabled":true,"rental_uris":{"android":"levelo://app?vid=441771cd-0001-4237-b26e-f2e1502d0768","ios":"levelo://app?vid=441771cd-0001-4237-b26e-f2e1502d0768"},"vehicle_type_id":"4","last_reported":1746436297,"current_range_meters":0,"station_id":"","pricing_plan_id":"cebpf4jnsgd1na2vs0mg"},{"bike_id":"8077dc7b-8fcd-4f51-9b7a-ce79a78c396b","system_id":"levelo_inurba_marseille","lat":43.3118,"lon":5.38669,"is_reserved":false,"is_disabled":true,"rental_uris":{"android":"levelo://app?vid=8077dc7b-8fcd-4f51-9b7a-ce79a78c396b","ios":"levelo://app?vid=8077dc7b-8fcd-4f51-9b7a-ce79a78c396b"},"vehicle_type_id":"4","last_reported":1746436297,"current_range_meters":0,"station_id":"ce4bgv12rcd13ifvqcp0","pricing_plan_id":"cebpf4jnsgd1na2vs0mg"},{"bike_id":"6130a908-361e-4639-9d6f-bdee952f07d7","system_id":"levelo_inurba_marseille","lat":43.28484,"lon":5.38417,"is_reserved":false,"is_disabled":true,"rental_uris":{"android":"levelo://app?vid=6130a908-361e-4639-9d6f-bdee952f07d7","ios":"levelo://app?vid=6130a908-361e-4639-9d6f-bdee952f07d7"},"vehicle_type_id":"4","last_reported":1746436297,"current_range_meters":0,"station_id":"ce4bh512rcd13ifvqe3g","pricing_plan_id":"cebpf4jnsgd1na2vs0mg"},{"bike_id":"d5586c93-90e0-4b44-adca-d2a09f47a491","system_id":"levelo_inurba_marseille","lat":43.23164,"lon":5.43696,"is_reserved":false,"is_disabled":true,"rental_uris":{"android":"levelo://app?vid=d5586c93-90e0-4b44-adca-d2a09f47a491","ios":"levelo://app?vid=d5586c93-90e0-4b44-adca-d2a09f47a491"},"vehicle_type_id":"4","last_reported":1746436297,"current_range_meters":0,"station_id":"ce4bhmp2rcd13ifvqgog","pricing_plan_id":"cebpf4jnsgd1na2vs0mg"},{"bike_id":"bf7aade0-1e44-4b59-9e37-5b9db1e3b94b","system_id":"levelo_inurba_marseille","lat":43.27495,"lon":5.42453,"is_reserved":false,"is_disabled":true,"rental_uris":{"android":"levelo://app?vid=bf7aade0-1e44-4b59-9e37-5b9db1e3b94b","ios":"levelo://app?vid=bf7aade0-1e44-4b59-9e37-5b9db1e3b94b"},"vehicle_type_id":"4","last_reported":1746436297,"current_range_meters":0,"station_id":"ce4bhn92rcd13ifvqgrg","pricing_plan_id":"cebpf4jnsgd1na2vs0mg"},{"bike_id":"2c528f35-5776-4454-aecf-dedc7de16440","system_id":"levelo_inurba_marseille","lat":43.27988,"lon":5.41662,"is_reserved":false,"is_disabled":true,"rental_uris":{"android":"levelo://app?vid=2c528f35-5776-4454-aecf-dedc7de16440","ios":"levelo://app?vid=2c528f35-5776-4454-aecf-dedc7de16440"},"vehicle_type_id":"4","last_reported":1746436297,"current_range_meters":0,"station_id":"ce4bho12rcd13ifvqh1g","pricing_plan_id":"cebpf4jnsgd1na2vs0mg"},{"bike_id":"ce7eaa2a-3d8b-45c5-8379-cd758fb93612","system_id":"levelo_inurba_marseille","lat":43.21745,"lon":5.34602,"is_reserved":false,"is_disabled":true,"rental_uris":{"android":"levelo://app?vid=ce7eaa2a-3d8b-45c5-8379-cd758fb93612","ios":"levelo://app?vid=ce7eaa2a-3d8b-45c5-8379-cd758fb93612"},"vehicle_type_id":"4","last_reported":1746436297,"current_range_meters":0,"station_id":"st_cvj6r9ubvosntc0bgbag","pricing_plan_id":"cebpf4jnsgd1na2vs0mg"},{"bike_id":"e774e00c-7ef5-47a6-a2fc-d04cca0da7e6","system_id":"levelo_inurba_marseille","lat":43.2118,"lon":5.35064,"is_reserved":false,"is_disabled":true,"rental_uris":{"android":"levelo://app?vid=e774e00c-7ef5-47a6-a2fc-d04cca0da7e6","ios":"levelo://app?vid=e774e00c-7ef5-47a6-a2fc-d04cca0da7e6"},"vehicle_type_id":"4","last_reported":1746436297,"current_range_meters":0,"station_id":"st_cvj6sg6p6f1abm77japg","pricing_plan_id":"cebpf4jnsgd1na2vs0mg"},{"bike_id":"a62c4081-0a00-4338-a99f-b605c981f909","system_id":"levelo_inurba_marseille","lat":43.21193,"lon":5.35065,"is_reserved":false,"is_disabled":true,"rental_uris":{"android":"levelo://app?vid=a62c4081-0a00-4338-a99f-b605c981f909","ios":"levelo://app?vid=a62c4081-0a00-4338-a99f-b605c981f909"},"vehicle_type_id":"4","last_reported":1746436297,"current_range_meters":0,"station_id":"st_cvj6sg6p6f1abm77japg","pricing_plan_id":"cebpf4jnsgd1na2vs0mg"},{"bike_id":"e9e1572f-0374-4bcf-914f-8f2eeda7905b","system_id":"levelo_inurba_marseille","lat":43.21209,"lon":5.35059,"is_reserved":false,"is_disabled":true,"rental_uris":{"android":"levelo://app?vid=e9e1572f-0374-4bcf-914f-8f2eeda7905b","ios":"levelo://app?vid=e9e1572f-0374-4bcf-914f-8f2eeda7905b"},"vehicle_type_id":"4","last_reported":1746436297,"current_range_meters":0,"station_id":"st_cvj6sg6p6f1abm77japg","pricing_plan_id":"cebpf4jnsgd1na2vs0mg"},{"bike_id":"2fc6e44e-8711-4e0b-a815-2656f39b166a","system_id":"levelo_inurba_marseille","lat":43.28847,"lon":5.39327,"is_reserved":false,"is_disabled":true,"rental_uris":{"android":"levelo://app?vid=2fc6e44e-8711-4e0b-a815-2656f39b166a","ios":"levelo://app?vid=2fc6e44e-8711-4e0b-a815-2656f39b166a"},"vehicle_type_id":"4","last_reported":1746436297,"current_range_meters":400,"station_id":"ce4bh2p2rcd13ifvqdi0","pricing_plan_id":"cebpf4jnsgd1na2vs0mg"},{"bike_id":"cc3be897-4e26-4b6a-88a4-7eed393dc973","system_id":"levelo_inurba_marseille","lat":43.27967,"lon":5.38757,"is_reserved":false,"is_disabled":true,"rental_uris":{"android":"levelo://app?vid=cc3be897-4e26-4b6a-88a4-7eed393dc973","ios":"levelo://app?vid=cc3be897-4e26-4b6a-88a4-7eed393dc973"},"vehicle_type_id":"4","last_reported":1746436297,"current_range_meters":400,"station_id":"ce4bhg12rcd13ifvqf80","pricing_plan_id":"cebpf4jnsgd1na2vs0mg"},{"bike_id":"0139c81b-3678-4800-8454-c4e45f4988a9","system_id":"levelo_inurba_marseille","lat":43.24387,"lon":5.370745,"is_reserved":false,"is_disabled":true,"rental_uris":{"android":"levelo://app?vid=0139c81b-3678-4800-8454-c4e45f4988a9","ios":"levelo://app?vid=0139c81b-3678-4800-8454-c4e45f4988a9"},"vehicle_type_id":"4","last_reported":1746436297,"current_range_meters":400,"station_id":"ce4bhhh2rcd13ifvqfk0","pricing_plan_id":"cebpf4jnsgd1na2vs0mg"},{"bike_id":"35c9e2cc-b53d-475c-93d3-4010eaba81cb","system_id":"levelo_inurba_marseille","lat":43.28663,"lon":5.38667,"is_reserved":false,"is_disabled":true,"rental_uris":{"android":"levelo://app?vid=35c9e2cc-b53d-475c-93d3-4010eaba81cb","ios":"levelo://app?vid=35c9e2cc-b53d-475c-93d3-4010eaba81cb"},"vehicle_type_id":"4","last_reported":1746436297,"current_range_meters":800,"station_id":"ce4bh492rcd13ifvqdug","pricing_plan_id":"cebpf4jnsgd1na2vs0mg"},{"bike_id":"8df37787-a611-4ce6-9e65-032cb168f59b","system_id":"levelo_inurba_marseille","lat":43.21206,"lon":5.35063,"is_reserved":false,"is_disabled":true,"rental_uris":{"android":"levelo://app?vid=8df37787-a611-4ce6-9e65-032cb168f59b","ios":"levelo://app?vid=8df37787-a611-4ce6-9e65-032cb168f59b"},"vehicle_type_id":"4","last_reported":1746436297,"current_range_meters":1600,"station_id":"st_cvj6sg6p6f1abm77japg","pricing_plan_id":"cebpf4jnsgd1na2vs0mg"},{"bike_id":"dfb3396e-96f5-457c-af11-f6f27dad33e9","system_id":"levelo_inurba_marseille","lat":43.27191,"lon":5.36495,"is_reserved":false,"is_disabled":true,"rental_uris":{"android":"levelo://app?vid=dfb3396e-96f5-457c-af11-f6f27dad33e9","ios":"levelo://app?vid=dfb3396e-96f5-457c-af11-f6f27dad33e9"},"vehicle_type_id":"4","last_reported":1746436297,"current_range_meters":2000,"station_id":"","pricing_plan_id":"cebpf4jnsgd1na2vs0mg"},{"bike_id":"57acdd24-ceb8-419d-829d-1ab66c1acf82","system_id":"levelo_inurba_marseille","lat":43.26555,"lon":5.37287,"is_reserved":false,"is_disabled":true,"rental_uris":{"android":"levelo://app?vid=57acdd24-ceb8-419d-829d-1ab66c1acf82","ios":"levelo://app?vid=57acdd24-ceb8-419d-829d-1ab66c1acf82"},"vehicle_type_id":"4","last_reported":1746436297,"current_range_meters":2000,"station_id":"ce4bhg12rcd13ifvqf70","pricing_plan_id":"cebpf4jnsgd1na2vs0mg"},{"bike_id":"b8b64c48-6ca4-456a-accf-48554ff4520c","system_id":"levelo_inurba_marseille","lat":43.27066,"lon":5.42289,"is_reserved":false,"is_disabled":true,"rental_uris":{"android":"levelo://app?vid=b8b64c48-6ca4-456a-accf-48554ff4520c","ios":"levelo://app?vid=b8b64c48-6ca4-456a-accf-48554ff4520c"},"vehicle_type_id":"4","last_reported":1746436297,"current_range_meters":2000,"station_id":"ce4bhk92rcd13ifvqgb0","pricing_plan_id":"cebpf4jnsgd1na2vs0mg"},{"bike_id":"3ab3c86e-8d2f-4e36-8bad-85bca3eb2e34","system_id":"levelo_inurba_marseille","lat":43.21745,"lon":5.34609,"is_reserved":false,"is_disabled":false,"rental_uris":{"android":"levelo://app?vid=3ab3c86e-8d2f-4e36-8bad-85bca3eb2e34","ios":"levelo://app?vid=3ab3c86e-8d2f-4e36-8bad-85bca3eb2e34"},"vehicle_type_id":"4","last_reported":1746436297,"current_range_meters":2800,"station_id":"st_cvj6r9ubvosntc0bgbag","pricing_plan_id":"cebpf4jnsgd1na2vs0mg"},{"bike_id":"0e0be7bc-20e5-424a-89ff-1b6d292738ac","system_id":"levelo_inurba_marseille","lat":43.21776,"lon":5.346,"is_reserved":false,"is_disabled":false,"rental_uris":{"android":"levelo://app?vid=0e0be7bc-20e5-424a-89ff-1b6d292738ac","ios":"levelo://app?vid=0e0be7bc-20e5-424a-89ff-1b6d292738ac"},"vehicle_type_id":"4","last_reported":1746436297,"current_range_meters":3600,"station_id":"st_cvj6r9ubvosntc0bgbag","pricing_plan_id":"cebpf4jnsgd1na2vs0mg"},{"bike_id":"4d9c785a-6a14-4f60-8bcb-eb74d56c9262","system_id":"levelo_inurba_marseille","lat":43.27117,"lon":5.42238,"is_reserved":false,"is_disabled":false,"rental_uris":{"android":"levelo://app?vid=4d9c785a-6a14-4f60-8bcb-eb74d56c9262","ios":"levelo://app?vid=4d9c785a-6a14-4f60-8bcb-eb74d56c9262"},"vehicle_type_id":"4","last_reported":1746436297,"current_range_meters":4800,"station_id":"","pricing_plan_id":"cebpf4jnsgd1na2vs0mg"},{"bike_id":"3c902198-ed6c-4864-8156-f1497195a6a1","system_id":"levelo_inurba_marseille","lat":43.24078,"lon":5.37753,"is_reserved":false,"is_disabled":false,"rental_uris":{"android":"levelo://app?vid=3c902198-ed6c-4864-8156-f1497195a6a1","ios":"levelo://app?vid=3c902198-ed6c-4864-8156-f1497195a6a1"},"vehicle_type_id":"4","last_reported":1746436297,"current_range_meters":4800,"station_id":"ce4bhnp2rcd13ifvqgvg","pricing_plan_id":"cebpf4jnsgd1na2vs0mg"},{"bike_id":"30e398d3-b32f-40b3-b1d8-9d99aae30a72","system_id":"levelo_inurba_marseille","lat":43.2396,"lon":5.36634,"is_reserved":false,"is_disabled":false,"rental_uris":{"android":"levelo://app?vid=30e398d3-b32f-40b3-b1d8-9d99aae30a72","ios":"levelo://app?vid=30e398d3-b32f-40b3-b1d8-9d99aae30a72"},"vehicle_type_id":"4","last_reported":1746436297,"current_range_meters":6000,"station_id":"ce4bhi12rcd13ifvqfp0","pricing_plan_id":"cebpf4jnsgd1na2vs0mg"},{"bike_id":"a7cd7cac-5a32-4d14-92f2-2738618b7e69","system_id":"levelo_inurba_marseille","lat":43.25941,"lon":5.40903,"is_reserved":false,"is_disabled":false,"rental_uris":{"android":"levelo://app?vid=a7cd7cac-5a32-4d14-92f2-2738618b7e69","ios":"levelo://app?vid=a7cd7cac-5a32-4d14-92f2-2738618b7e69"},"vehicle_type_id":"4","last_reported":1746436297,"current_range_meters":6000,"station_id":"ce4bhm92rcd13ifvqglg","pricing_plan_id":"cebpf4jnsgd1na2vs0mg"},{"bike_id":"404da817-f031-4950-ba8b-2104a38b67fb","system_id":"levelo_inurba_marseille","lat":43.27196,"lon":5.40997,"is_reserved":false,"is_disabled":false,"rental_uris":{"android":"levelo://app?vid=404da817-f031-4950-ba8b-2104a38b67fb","ios":"levelo://app?vid=404da817-f031-4950-ba8b-2104a38b67fb"},"vehicle_type_id":"4","last_reported":1746436297,"current_range_meters":6400,"station_id":"ce4bhl12rcd13ifvqgf0","pricing_plan_id":"cebpf4jnsgd1na2vs0mg"},{"bike_id":"d55c8237-2304-4efd-993e-dc727f0f1b6a","system_id":"levelo_inurba_marseille","lat":43.22541,"lon":5.34809,"is_reserved":false,"is_disabled":false,"rental_uris":{"android":"levelo://app?vid=d55c8237-2304-4efd-993e-dc727f0f1b6a","ios":"levelo://app?vid=d55c8237-2304-4efd-993e-dc727f0f1b6a"},"vehicle_type_id":"4","last_reported":1746436297,"current_range_meters":6800,"station_id":"","pricing_plan_id":"cebpf4jnsgd1na2vs0mg"},{"bike_id":"6c9949a5-08b3-4f70-8646-e2ee22338a27","system_id":"levelo_inurba_marseille","lat":43.273885,"lon":5.39024,"is_reserved":false,"is_disabled":false,"rental_uris":{"android":"levelo://app?vid=6c9949a5-08b3-4f70-8646-e2ee22338a27","ios":"levelo://app?vid=6c9949a5-08b3-4f70-8646-e2ee22338a27"},"vehicle_type_id":"4","last_reported":1746436297,"current_range_meters":6800,"station_id":"","pricing_plan_id":"cebpf4jnsgd1na2vs0mg"},{"bike_id":"9cb3676d-2097-48bf-86e5-50e46aa8eb7c","system_id":"levelo_inurba_marseille","lat":43.25909,"lon":5.40931,"is_reserved":false,"is_disabled":false,"rental_uris":{"android":"levelo://app?vid=9cb3676d-2097-48bf-86e5-50e46aa8eb7c","ios":"levelo://app?vid=9cb3676d-2097-48bf-86e5-50e46aa8eb7c"},"vehicle_type_id":"4","last_reported":1746436297,"current_range_meters":6800,"station_id":"ce4bhm92rcd13ifvqglg","pricing_plan_id":"cebpf4jnsgd1na2vs0mg"},{"bike_id":"51e137dc-06d4-4721-8a2f-24e002c6d5d0","system_id":"levelo_inurba_marseille","lat":43.24067,"lon":5.3776,"is_reserved":false,"is_disabled":false,"rental_uris":{"android":"levelo://app?vid=51e137dc-06d4-4721-8a2f-24e002c6d5d0","ios":"levelo://app?vid=51e137dc-06d4-4721-8a2f-24e002c6d5d0"},"vehicle_type_id":"4","last_reported":1746436297,"current_range_meters":6800,"station_id":"ce4bhnp2rcd13ifvqgvg","pricing_plan_id":"cebpf4jnsgd1na2vs0mg"},{"bike_id":"57ce2cb0-c1ee-48da-9f69-6cd6cf2307d5","system_id":"levelo_inurba_marseille","lat":43.303792,"lon":5.424828,"is_reserved":false,"is_disabled":false,"rental_uris":{"android":"levelo://app?vid=57ce2cb0-c1ee-48da-9f69-6cd6cf2307d5","ios":"levelo://app?vid=57ce2cb0-c1ee-48da-9f69-6cd6cf2307d5"},"vehicle_type_id":"4","last_reported":1746436297,"current_range_meters":7200,"station_id":"ce4bghh2rcd13ifvqb60","pricing_plan_id":"cebpf4jnsgd1na2vs0mg"},{"bike_id":"9c66a936-664c-4a39-b93d-9c68cb84b3fa","system_id":"levelo_inurba_marseille","lat":43.25578,"lon":5.382385,"is_reserved":false,"is_disabled":false,"rental_uris":{"android":"levelo://app?vid=9c66a936-664c-4a39-b93d-9c68cb84b3fa","ios":"levelo://app?vid=9c66a936-664c-4a39-b93d-9c68cb84b3fa"},"vehicle_type_id":"4","last_reported":1746436297,"current_range_meters":7200,"station_id":"ce4bhih2rcd13ifvqfs0","pricing_plan_id":"cebpf4jnsgd1na2vs0mg"},{"bike_id":"ce1f22fd-a76c-4696-9c9a-1fe63adde41c","system_id":"levelo_inurba_marseille","lat":43.2558,"lon":5.38238,"is_reserved":false,"is_disabled":false,"rental_uris":{"android":"levelo://app?vid=ce1f22fd-a76c-4696-9c9a-1fe63adde41c","ios":"levelo://app?vid=ce1f22fd-a76c-4696-9c9a-1fe63adde41c"},"vehicle_type_id":"4","last_reported":1746436297,"current_range_meters":7200,"station_id":"ce4bhih2rcd13ifvqfs0","pricing_plan_id":"cebpf4jnsgd1na2vs0mg"},{"bike_id":"5cb514da-8890-4dea-a26e-2faf3b2b093b","system_id":"levelo_inurba_marseille","lat":43.31087,"lon":5.42428,"is_reserved":false,"is_disabled":false,"rental_uris":{"android":"levelo://app?vid=5cb514da-8890-4dea-a26e-2faf3b2b093b","ios":"levelo://app?vid=5cb514da-8890-4dea-a26e-2faf3b2b093b"},"vehicle_type_id":"4","last_reported":1746436297,"current_range_meters":7200,"station_id":"ce4bhp92rcd13ifvqhag","pricing_plan_id":"cebpf4jnsgd1na2vs0mg"},{"bike_id":"aedf206f-89f3-4f30-9da6-56fb7ff8915b","system_id":"levelo_inurba_marseille","lat":43.28132,"lon":5.40391,"is_reserved":false,"is_disabled":false,"rental_uris":{"android":"levelo://app?vid=aedf206f-89f3-4f30-9da6-56fb7ff8915b","ios":"levelo://app?vid=aedf206f-89f3-4f30-9da6-56fb7ff8915b"},"vehicle_type_id":"4","last_reported":1746436297,"current_range_meters":8000,"station_id":"","pricing_plan_id":"cebpf4jnsgd1na2vs0mg"},{"bike_id":"aa38edf3-39cb-4f0b-8879-e56678138e7d","system_id":"levelo_inurba_marseille","lat":43.31395,"lon":5.36639,"is_reserved":false,"is_disabled":false,"rental_uris":{"android":"levelo://app?vid=aa38edf3-39cb-4f0b-8879-e56678138e7d","ios":"levelo://app?vid=aa38edf3-39cb-4f0b-8879-e56678138e7d"},"vehicle_type_id":"4","last_reported":1746436297,"current_range_meters":8000,"station_id":"","pricing_plan_id":"cebpf4jnsgd1na2vs0mg"},{"bike_id":"43d57923-353f-4bc5-9ee5-afc6da9b49ad","system_id":"levelo_inurba_marseille","lat":43.29528,"lon":5.38536,"is_reserved":false,"is_disabled":false,"rental_uris":{"android":"levelo://app?vid=43d57923-353f-4bc5-9ee5-afc6da9b49ad","ios":"levelo://app?vid=43d57923-353f-4bc5-9ee5-afc6da9b49ad"},"vehicle_type_id":"4","last_reported":1746436297,"current_range_meters":8000,"station_id":"ce4bgih2rcd13ifvqba0","pricing_plan_id":"cebpf4jnsgd1na2vs0mg"},{"bike_id":"f56979cd-ee41-4894-9341-086b4077c3d1","system_id":"levelo_inurba_marseille","lat":43.3018,"lon":5.36615,"is_reserved":false,"is_disabled":false,"rental_uris":{"android":"levelo://app?vid=f56979cd-ee41-4894-9341-086b4077c3d1","ios":"levelo://app?vid=f56979cd-ee41-4894-9341-086b4077c3d1"},"vehicle_type_id":"4","last_reported":1746436297,"current_range_meters":8000,"station_id":"ce4bgrh2rcd13ifvqc8g","pricing_plan_id":"cebpf4jnsgd1na2vs0mg"},{"bike_id":"fa981afb-0854-461c-b8c6-e1d3a778170f","system_id":"levelo_inurba_marseille","lat":43.25956,"lon":5.40908,"is_reserved":false,"is_disabled":false,"rental_uris":{"android":"levelo://app?vid=fa981afb-0854-461c-b8c6-e1d3a778170f","ios":"levelo://app?vid=fa981afb-0854-461c-b8c6-e1d3a778170f"},"vehicle_type_id":"4","last_reported":1746436297,"current_range_meters":8000,"station_id":"ce4bhm92rcd13ifvqglg","pricing_plan_id":"cebpf4jnsgd1na2vs0mg"},{"bike_id":"401cc479-1bac-40f0-a531-9f4b9cc18b25","system_id":"levelo_inurba_marseille","lat":43.27503,"lon":5.42441,"is_reserved":false,"is_disabled":false,"rental_uris":{"android":"levelo://app?vid=401cc479-1bac-40f0-a531-9f4b9cc18b25","ios":"levelo://app?vid=401cc479-1bac-40f0-a531-9f4b9cc18b25"},"vehicle_type_id":"4","last_reported":1746436297,"current_range_meters":8000,"station_id":"ce4bhn92rcd13ifvqgrg","pricing_plan_id":"cebpf4jnsgd1na2vs0mg"},{"bike_id":"09bf453b-83a3-4bd1-8bd1-c0e9b54e4cca","system_id":"levelo_inurba_marseille","lat":43.27493,"lon":5.42445,"is_reserved":false,"is_disabled":false,"rental_uris":{"android":"levelo://app?vid=09bf453b-83a3-4bd1-8bd1-c0e9b54e4cca","ios":"levelo://app?vid=09bf453b-83a3-4bd1-8bd1-c0e9b54e4cca"},"vehicle_type_id":"4","last_reported":1746436297,"current_range_meters":8000,"station_id":"ce4bhn92rcd13ifvqgrg","pricing_plan_id":"cebpf4jnsgd1na2vs0mg"},{"bike_id":"917d3dfe-fe05-4d62-b132-42ecb62bc09e","system_id":"levelo_inurba_marseille","lat":43.30372,"lon":5.42493,"is_reserved":false,"is_disabled":false,"rental_uris":{"android":"levelo://app?vid=917d3dfe-fe05-4d62-b132-42ecb62bc09e","ios":"levelo://app?vid=917d3dfe-fe05-4d62-b132-42ecb62bc09e"},"vehicle_type_id":"4","last_reported":1746436297,"current_range_meters":8000,"station_id":"ce4bhoh2rcd13ifvqh6g","pricing_plan_id":"cebpf4jnsgd1na2vs0mg"},{"bike_id":"bd278318-d5f1-4ccf-9ac5-893e7bd91ba3","system_id":"levelo_inurba_marseille","lat":43.32368,"lon":5.36764,"is_reserved":false,"is_disabled":false,"rental_uris":{"android":"levelo://app?vid=bd278318-d5f1-4ccf-9ac5-893e7bd91ba3","ios":"levelo://app?vid=bd278318-d5f1-4ccf-9ac5-893e7bd91ba3"},"vehicle_type_id":"4","last_reported":1746436297,"current_range_meters":8000,"station_id":"ce4bhsh2rcd13ifvqi2g","pricing_plan_id":"cebpf4jnsgd1na2vs0mg"},{"bike_id":"b3057199-bf28-46bb-ad27-42e8d84dbe9c","system_id":"levelo_inurba_marseille","lat":43.27971,"lon":5.38743,"is_reserved":false,"is_disabled":false,"rental_uris":{"android":"levelo://app?vid=b3057199-bf28-46bb-ad27-42e8d84dbe9c","ios":"levelo://app?vid=b3057199-bf28-46bb-ad27-42e8d84dbe9c"},"vehicle_type_id":"4","last_reported":1746436297,"current_range_meters":8400,"station_id":"ce4bhg12rcd13ifvqf80","pricing_plan_id":"cebpf4jnsgd1na2vs0mg"},{"bike_id":"77e5fc0c-8247-4eae-976e-b65c5c479c47","system_id":"levelo_inurba_marseille","lat":43.24384,"lon":5.37053,"is_reserved":false,"is_disabled":false,"rental_uris":{"android":"levelo://app?vid=77e5fc0c-8247-4eae-976e-b65c5c479c47","ios":"levelo://app?vid=77e5fc0c-8247-4eae-976e-b65c5c479c47"},"vehicle_type_id":"4","last_reported":1746436297,"current_range_meters":8400,"station_id":"ce4bhhh2rcd13ifvqfk0","pricing_plan_id":"cebpf4jnsgd1na2vs0mg"},{"bike_id":"94a84b75-7db9-4588-b88e-56c0f2ec4d00","system_id":"levelo_inurba_marseille","lat":43.26223,"lon":5.40453,"is_reserved":false,"is_disabled":false,"rental_uris":{"android":"levelo://app?vid=94a84b75-7db9-4588-b88e-56c0f2ec4d00","ios":"levelo://app?vid=94a84b75-7db9-4588-b88e-56c0f2ec4d00"},"vehicle_type_id":"4","last_reported":1746436297,"current_range_meters":8400,"station_id":"ce4bhmh2rcd13ifvqgmg","pricing_plan_id":"cebpf4jnsgd1na2vs0mg"},{"bike_id":"ec93380d-7b90-4f55-954c-15196220a862","system_id":"levelo_inurba_marseille","lat":43.30536,"lon":5.36543,"is_reserved":false,"is_disabled":false,"rental_uris":{"android":"levelo://app?vid=ec93380d-7b90-4f55-954c-15196220a862","ios":"levelo://app?vid=ec93380d-7b90-4f55-954c-15196220a862"},"vehicle_type_id":"4","last_reported":1746436297,"current_range_meters":8800,"station_id":"ce4bgs12rcd13ifvqcag","pricing_plan_id":"cebpf4jnsgd1na2vs0mg"},{"bike_id":"7fc2778b-bcc2-4c9f-a2de-9a4d5bd9c8c4","system_id":"levelo_inurba_marseille","lat":43.313684,"lon":5.384869,"is_reserved":false,"is_disabled":false,"rental_uris":{"android":"levelo://app?vid=7fc2778b-bcc2-4c9f-a2de-9a4d5bd9c8c4","ios":"levelo://app?vid=7fc2778b-bcc2-4c9f-a2de-9a4d5bd9c8c4"},"vehicle_type_id":"4","last_reported":1746436297,"current_range_meters":8800,"station_id":"ce4bgt92rcd13ifvqcf0","pricing_plan_id":"cebpf4jnsgd1na2vs0mg"},{"bike_id":"f28f6892-6b8e-4bb4-bd97-24bcbf7f6f01","system_id":"levelo_inurba_marseille","lat":43.23182,"lon":5.40001,"is_reserved":false,"is_disabled":false,"rental_uris":{"android":"levelo://app?vid=f28f6892-6b8e-4bb4-bd97-24bcbf7f6f01","ios":"levelo://app?vid=f28f6892-6b8e-4bb4-bd97-24bcbf7f6f01"},"vehicle_type_id":"4","last_reported":1746436297,"current_range_meters":8800,"station_id":"ce4bhn12rcd13ifvqgqg","pricing_plan_id":"cebpf4jnsgd1na2vs0mg"},{"bike_id":"ec8f4ea7-838d-47da-ac61-10d7595cf8dd","system_id":"levelo_inurba_marseille","lat":43.27502,"lon":5.42449,"is_reserved":false,"is_disabled":false,"rental_uris":{"android":"levelo://app?vid=ec8f4ea7-838d-47da-ac61-10d7595cf8dd","ios":"levelo://app?vid=ec8f4ea7-838d-47da-ac61-10d7595cf8dd"},"vehicle_type_id":"4","last_reported":1746436297,"current_range_meters":8800,"station_id":"ce4bhn92rcd13ifvqgrg","pricing_plan_id":"cebpf4jnsgd1na2vs0mg"},{"bike_id":"c2dc4160-711f-4369-8b04-145e0a2eacc3","system_id":"levelo_inurba_marseille","lat":43.281576,"lon":5.426535,"is_reserved":false,"is_disabled":false,"rental_uris":{"android":"levelo://app?vid=c2dc4160-711f-4369-8b04-145e0a2eacc3","ios":"levelo://app?vid=c2dc4160-711f-4369-8b04-145e0a2eacc3"},"vehicle_type_id":"4","last_reported":1746436297,"current_range_meters":9200,"station_id":"","pricing_plan_id":"cebpf4jnsgd1na2vs0mg"},{"bike_id":"4acb2544-1383-4186-849e-84ae36428cb9","system_id":"levelo_inurba_marseille","lat":43.30533,"lon":5.36703,"is_reserved":false,"is_disabled":false,"rental_uris":{"android":"levelo://app?vid=4acb2544-1383-4186-849e-84ae36428cb9","ios":"levelo://app?vid=4acb2544-1383-4186-849e-84ae36428cb9"},"vehicle_type_id":"4","last_reported":1746436297,"current_range_meters":9200,"station_id":"ce4bgrp2rcd13ifvqc9g","pricing_plan_id":"cebpf4jnsgd1na2vs0mg"},{"bike_id":"6c267926-d3ae-465b-ab08-7fd28ac529e0","system_id":"levelo_inurba_marseille","lat":43.241792,"lon":5.397296,"is_reserved":false,"is_disabled":false,"rental_uris":{"android":"levelo://app?vid=6c267926-d3ae-465b-ab08-7fd28ac529e0","ios":"levelo://app?vid=6c267926-d3ae-465b-ab08-7fd28ac529e0"},"vehicle_type_id":"4","last_reported":1746436297,"current_range_meters":9200,"station_id":"ce4bhn12rcd13ifvqgpg","pricing_plan_id":"cebpf4jnsgd1na2vs0mg"},{"bike_id":"b8ebe123-18b6-4e5d-addb-12ec10c089ac","system_id":"levelo_inurba_marseille","lat":43.32107,"lon":5.36776,"is_reserved":false,"is_disabled":false,"rental_uris":{"android":"levelo://app?vid=b8ebe123-18b6-4e5d-addb-12ec10c089ac","ios":"levelo://app?vid=b8ebe123-18b6-4e5d-addb-12ec10c089ac"},"vehicle_type_id":"4","last_reported":1746436297,"current_range_meters":9200,"station_id":"ce4bhrh2rcd13ifvqhug","pricing_plan_id":"cebpf4jnsgd1na2vs0mg"},{"bike_id":"97688b4c-0ec9-48ac-8764-d0c79da2c4ff","system_id":"levelo_inurba_marseille","lat":43.2581,"lon":5.39433,"is_reserved":false,"is_disabled":false,"rental_uris":{"android":"levelo://app?vid=97688b4c-0ec9-48ac-8764-d0c79da2c4ff","ios":"levelo://app?vid=97688b4c-0ec9-48ac-8764-d0c79da2c4ff"},"vehicle_type_id":"4","last_reported":1746436297,"current_range_meters":9600,"station_id":"ce4bhip2rcd13ifvqft0","pricing_plan_id":"cebpf4jnsgd1na2vs0mg"},{"bike_id":"cec02868-da4c-46a9-bbda-15dc1c82835b","system_id":"levelo_inurba_marseille","lat":43.23162,"lon":5.43706,"is_reserved":false,"is_disabled":false,"rental_uris":{"android":"levelo://app?vid=cec02868-da4c-46a9-bbda-15dc1c82835b","ios":"levelo://app?vid=cec02868-da4c-46a9-bbda-15dc1c82835b"},"vehicle_type_id":"4","last_reported":1746436297,"current_range_meters":9600,"station_id":"ce4bhmp2rcd13ifvqgog","pricing_plan_id":"cebpf4jnsgd1na2vs0mg"},{"bike_id":"10fa59ce-c249-4991-8845-0acc789b9453","system_id":"levelo_inurba_marseille","lat":43.241835,"lon":5.397173,"is_reserved":false,"is_disabled":false,"rental_uris":{"android":"levelo://app?vid=10fa59ce-c249-4991-8845-0acc789b9453","ios":"levelo://app?vid=10fa59ce-c249-4991-8845-0acc789b9453"},"vehicle_type_id":"4","last_reported":1746436297,"current_range_meters":9600,"station_id":"ce4bhn12rcd13ifvqgpg","pricing_plan_id":"cebpf4jnsgd1na2vs0mg"},{"bike_id":"2a0baa54-a4a1-49ca-a07b-b1778b885a9f","system_id":"levelo_inurba_marseille","lat":43.24177,"lon":5.39722,"is_reserved":false,"is_disabled":false,"rental_uris":{"android":"levelo://app?vid=2a0baa54-a4a1-49ca-a07b-b1778b885a9f","ios":"levelo://app?vid=2a0baa54-a4a1-49ca-a07b-b1778b885a9f"},"vehicle_type_id":"4","last_reported":1746436297,"current_range_meters":10000,"station_id":"ce4bhn12rcd13ifvqgpg","pricing_plan_id":"cebpf4jnsgd1na2vs0mg"},{"bike_id":"43f220ab-0408-46b3-abe5-60437ce3bc1e","system_id":"levelo_inurba_marseille","lat":43.231863,"lon":5.355665,"is_reserved":false,"is_disabled":false,"rental_uris":{"android":"levelo://app?vid=43f220ab-0408-46b3-abe5-60437ce3bc1e","ios":"levelo://app?vid=43f220ab-0408-46b3-abe5-60437ce3bc1e"},"vehicle_type_id":"4","last_reported":1746436297,"current_range_meters":10000,"station_id":"ce4bhu92rcd13ifvqi70","pricing_plan_id":"cebpf4jnsgd1na2vs0mg"},{"bike_id":"4ad5d37c-d0db-4271-886a-5148872a7be5","system_id":"levelo_inurba_marseille","lat":43.30463,"lon":5.37913,"is_reserved":false,"is_disabled":false,"rental_uris":{"android":"levelo://app?vid=4ad5d37c-d0db-4271-886a-5148872a7be5","ios":"levelo://app?vid=4ad5d37c-d0db-4271-886a-5148872a7be5"},"vehicle_type_id":"4","last_reported":1746436297,"current_range_meters":10800,"station_id":"ce4bgup2rcd13ifvqcn0","pricing_plan_id":"cebpf4jnsgd1na2vs0mg"},{"bike_id":"704152dd-467c-4200-998a-9dfbfa8c436f","system_id":"levelo_inurba_marseille","lat":43.27675,"lon":5.38889,"is_reserved":false,"is_disabled":false,"rental_uris":{"android":"levelo://app?vid=704152dd-467c-4200-998a-9dfbfa8c436f","ios":"levelo://app?vid=704152dd-467c-4200-998a-9dfbfa8c436f"},"vehicle_type_id":"4","last_reported":1746436297,"current_range_meters":10800,"station_id":"ce4bhi12rcd13ifvqfo0","pricing_plan_id":"cebpf4jnsgd1na2vs0mg"},{"bike_id":"b8abb655-4bb8-43f1-b792-12585c92d8d1","system_id":"levelo_inurba_marseille","lat":43.24175,"lon":5.39736,"is_reserved":false,"is_disabled":false,"rental_uris":{"android":"levelo://app?vid=b8abb655-4bb8-43f1-b792-12585c92d8d1","ios":"levelo://app?vid=b8abb655-4bb8-43f1-b792-12585c92d8d1"},"vehicle_type_id":"4","last_reported":1746436297,"current_range_meters":10800,"station_id":"ce4bhn12rcd13ifvqgpg","pricing_plan_id":"cebpf4jnsgd1na2vs0mg"},{"bike_id":"a64c34d8-72e2-4f8f-919b-2e2b4805437e","system_id":"levelo_inurba_marseille","lat":43.33723,"lon":5.39193,"is_reserved":false,"is_disabled":false,"rental_uris":{"android":"levelo://app?vid=a64c34d8-72e2-4f8f-919b-2e2b4805437e","ios":"levelo://app?vid=a64c34d8-72e2-4f8f-919b-2e2b4805437e"},"vehicle_type_id":"4","last_reported":1746436297,"current_range_meters":10800,"station_id":"ce4bhr92rcd13ifvqhsg","pricing_plan_id":"cebpf4jnsgd1na2vs0mg"},{"bike_id":"12b42aeb-0433-4382-969f-98f880ce2c9a","system_id":"levelo_inurba_marseille","lat":43.29533,"lon":5.38547,"is_reserved":false,"is_disabled":false,"rental_uris":{"android":"levelo://app?vid=12b42aeb-0433-4382-969f-98f880ce2c9a","ios":"levelo://app?vid=12b42aeb-0433-4382-969f-98f880ce2c9a"},"vehicle_type_id":"4","last_reported":1746436297,"current_range_meters":11200,"station_id":"ce4bgih2rcd13ifvqba0","pricing_plan_id":"cebpf4jnsgd1na2vs0mg"},{"bike_id":"1d9da762-2800-4004-b160-0cb1d9166652","system_id":"levelo_inurba_marseille","lat":43.30551,"lon":5.3667,"is_reserved":false,"is_disabled":false,"rental_uris":{"android":"levelo://app?vid=1d9da762-2800-4004-b160-0cb1d9166652","ios":"levelo://app?vid=1d9da762-2800-4004-b160-0cb1d9166652"},"vehicle_type_id":"4","last_reported":1746436297,"current_range_meters":11200,"station_id":"ce4bgrp2rcd13ifvqc9g","pricing_plan_id":"cebpf4jnsgd1na2vs0mg"},{"bike_id":"1039c304-393c-4fd3-9415-4475e9d76ae0","system_id":"levelo_inurba_marseille","lat":43.2893,"lon":5.36385,"is_reserved":false,"is_disabled":false,"rental_uris":{"android":"levelo://app?vid=1039c304-393c-4fd3-9415-4475e9d76ae0","ios":"levelo://app?vid=1039c304-393c-4fd3-9415-4475e9d76ae0"},"vehicle_type_id":"4","last_reported":1746436297,"current_range_meters":11200,"station_id":"ce4bhc92rcd13ifvqetg","pricing_plan_id":"cebpf4jnsgd1na2vs0mg"},{"bike_id":"4d55305c-f7f7-446b-bb11-646aa7190194","system_id":"levelo_inurba_marseille","lat":43.23967,"lon":5.36621,"is_reserved":false,"is_disabled":false,"rental_uris":{"android":"levelo://app?vid=4d55305c-f7f7-446b-bb11-646aa7190194","ios":"levelo://app?vid=4d55305c-f7f7-446b-bb11-646aa7190194"},"vehicle_type_id":"4","last_reported":1746436297,"current_range_meters":11200,"station_id":"ce4bhi12rcd13ifvqfp0","pricing_plan_id":"cebpf4jnsgd1na2vs0mg"},{"bike_id":"578732df-51ae-47a2-8d9a-a3a489ba150f","system_id":"levelo_inurba_marseille","lat":43.29551,"lon":5.4228,"is_reserved":false,"is_disabled":false,"rental_uris":{"android":"levelo://app?vid=578732df-51ae-47a2-8d9a-a3a489ba150f","ios":"levelo://app?vid=578732df-51ae-47a2-8d9a-a3a489ba150f"},"vehicle_type_id":"4","last_reported":1746436297,"current_range_meters":11200,"station_id":"ce4bhph2rcd13ifvqhdg","pricing_plan_id":"cebpf4jnsgd1na2vs0mg"},{"bike_id":"f82da221-9da0-4961-ba2c-086a8895ab5a","system_id":"levelo_inurba_marseille","lat":43.29714,"lon":5.3767,"is_reserved":false,"is_disabled":false,"rental_uris":{"android":"levelo://app?vid=f82da221-9da0-4961-ba2c-086a8895ab5a","ios":"levelo://app?vid=f82da221-9da0-4961-ba2c-086a8895ab5a"},"vehicle_type_id":"4","last_reported":1746436297,"current_range_meters":11600,"station_id":"ce4bgkh2rcd13ifvqbl0","pricing_plan_id":"cebpf4jnsgd1na2vs0mg"},{"bike_id":"e08c8f63-d9a4-4355-8c2a-a5282aea24d1","system_id":"levelo_inurba_marseille","lat":43.305664,"lon":5.380316,"is_reserved":false,"is_disabled":false,"rental_uris":{"android":"levelo://app?vid=e08c8f63-d9a4-4355-8c2a-a5282aea24d1","ios":"levelo://app?vid=e08c8f63-d9a4-4355-8c2a-a5282aea24d1"},"vehicle_type_id":"4","last_reported":1746436297,"current_range_meters":12000,"station_id":"ce4bgth2rcd13ifvqch0","pricing_plan_id":"cebpf4jnsgd1na2vs0mg"},{"bike_id":"314df586-207c-4a89-8b40-3e4c328204cd","system_id":"levelo_inurba_marseille","lat":43.24637,"lon":5.38903,"is_reserved":false,"is_disabled":false,"rental_uris":{"android":"levelo://app?vid=314df586-207c-4a89-8b40-3e4c328204cd","ios":"levelo://app?vid=314df586-207c-4a89-8b40-3e4c328204cd"},"vehicle_type_id":"4","last_reported":1746436297,"current_range_meters":12000,"station_id":"ce4bhg12rcd13ifvqf60","pricing_plan_id":"cebpf4jnsgd1na2vs0mg"},{"bike_id":"53d7cb41-3983-428d-9470-1dde61e7a504","system_id":"levelo_inurba_marseille","lat":43.24666,"lon":5.38177,"is_reserved":false,"is_disabled":false,"rental_uris":{"android":"levelo://app?vid=53d7cb41-3983-428d-9470-1dde61e7a504","ios":"levelo://app?vid=53d7cb41-3983-428d-9470-1dde61e7a504"},"vehicle_type_id":"4","last_reported":1746436297,"current_range_meters":12400,"station_id":"ce4bhih2rcd13ifvqfr0","pricing_plan_id":"cebpf4jnsgd1na2vs0mg"},{"bike_id":"8b0c3822-6de0-476d-848f-c498fea1df37","system_id":"levelo_inurba_marseille","lat":43.25826,"lon":5.39424,"is_reserved":false,"is_disabled":false,"rental_uris":{"android":"levelo://app?vid=8b0c3822-6de0-476d-848f-c498fea1df37","ios":"levelo://app?vid=8b0c3822-6de0-476d-848f-c498fea1df37"},"vehicle_type_id":"4","last_reported":1746436297,"current_range_meters":12400,"station_id":"ce4bhip2rcd13ifvqft0","pricing_plan_id":"cebpf4jnsgd1na2vs0mg"},{"bike_id":"1888a6ef-4e5f-4115-9bde-e2fe57427fa9","system_id":"levelo_inurba_marseille","lat":43.2418,"lon":5.39733,"is_reserved":false,"is_disabled":false,"rental_uris":{"android":"levelo://app?vid=1888a6ef-4e5f-4115-9bde-e2fe57427fa9","ios":"levelo://app?vid=1888a6ef-4e5f-4115-9bde-e2fe57427fa9"},"vehicle_type_id":"4","last_reported":1746436297,"current_range_meters":12400,"station_id":"ce4bhn12rcd13ifvqgpg","pricing_plan_id":"cebpf4jnsgd1na2vs0mg"},{"bike_id":"6541fd63-6c6b-4f6b-b5ad-83b6829727f2","system_id":"levelo_inurba_marseille","lat":43.27497,"lon":5.42451,"is_reserved":false,"is_disabled":false,"rental_uris":{"android":"levelo://app?vid=6541fd63-6c6b-4f6b-b5ad-83b6829727f2","ios":"levelo://app?vid=6541fd63-6c6b-4f6b-b5ad-83b6829727f2"},"vehicle_type_id":"4","last_reported":1746436297,"current_range_meters":12400,"station_id":"ce4bhn92rcd13ifvqgrg","pricing_plan_id":"cebpf4jnsgd1na2vs0mg"},{"bike_id":"d342a70b-0490-4dea-b796-15cb5536d152","system_id":"levelo_inurba_marseille","lat":43.32106,"lon":5.36769,"is_reserved":false,"is_disabled":false,"rental_uris":{"android":"levelo://app?vid=d342a70b-0490-4dea-b796-15cb5536d152","ios":"levelo://app?vid=d342a70b-0490-4dea-b796-15cb5536d152"},"vehicle_type_id":"4","last_reported":1746436297,"current_range_meters":12400,"station_id":"ce4bhrh2rcd13ifvqhug","pricing_plan_id":"cebpf4jnsgd1na2vs0mg"},{"bike_id":"7c01aac7-df14-45d7-920c-b42e524dee8d","system_id":"levelo_inurba_marseille","lat":43.23965,"lon":5.36622,"is_reserved":false,"is_disabled":false,"rental_uris":{"android":"levelo://app?vid=7c01aac7-df14-45d7-920c-b42e524dee8d","ios":"levelo://app?vid=7c01aac7-df14-45d7-920c-b42e524dee8d"},"vehicle_type_id":"4","last_reported":1746436297,"current_range_meters":12800,"station_id":"ce4bhi12rcd13ifvqfp0","pricing_plan_id":"cebpf4jnsgd1na2vs0mg"},{"bike_id":"9f8616dc-073a-4627-9f09-6cf552722c4a","system_id":"levelo_inurba_marseille","lat":43.240784,"lon":5.377573,"is_reserved":false,"is_disabled":false,"rental_uris":{"android":"levelo://app?vid=9f8616dc-073a-4627-9f09-6cf552722c4a","ios":"levelo://app?vid=9f8616dc-073a-4627-9f09-6cf552722c4a"},"vehicle_type_id":"4","last_reported":1746436297,"current_range_meters":12800,"station_id":"ce4bhnp2rcd13ifvqgvg","pricing_plan_id":"cebpf4jnsgd1na2vs0mg"},{"bike_id":"8be4158a-795b-49e0-a470-93ebc00a6d2c","system_id":"levelo_inurba_marseille","lat":43.264901,"lon":5.395528,"is_reserved":false,"is_disabled":false,"rental_uris":{"android":"levelo://app?vid=8be4158a-795b-49e0-a470-93ebc00a6d2c","ios":"levelo://app?vid=8be4158a-795b-49e0-a470-93ebc00a6d2c"},"vehicle_type_id":"4","last_reported":1746436297,"current_range_meters":13600,"station_id":"","pricing_plan_id":"cebpf4jnsgd1na2vs0mg"},{"bike_id":"b96957ab-c102-47e2-9210-3c168a45f99f","system_id":"levelo_inurba_marseille","lat":43.297933,"lon":5.380877,"is_reserved":false,"is_disabled":false,"rental_uris":{"android":"levelo://app?vid=b96957ab-c102-47e2-9210-3c168a45f99f","ios":"levelo://app?vid=b96957ab-c102-47e2-9210-3c168a45f99f"},"vehicle_type_id":"4","last_reported":1746436297,"current_range_meters":13600,"station_id":"ce4bgip2rcd13ifvqbb0","pricing_plan_id":"cebpf4jnsgd1na2vs0mg"},{"bike_id":"0dc97091-6e66-483f-9308-21a20c924f0b","system_id":"levelo_inurba_marseille","lat":43.29619,"lon":5.37172,"is_reserved":false,"is_disabled":false,"rental_uris":{"android":"levelo://app?vid=0dc97091-6e66-483f-9308-21a20c924f0b","ios":"levelo://app?vid=0dc97091-6e66-483f-9308-21a20c924f0b"},"vehicle_type_id":"4","last_reported":1746436297,"current_range_meters":14000,"station_id":"ce4bgnh2rcd13ifvqc0g","pricing_plan_id":"cebpf4jnsgd1na2vs0mg"},{"bike_id":"56f4e078-c9d6-4e29-a0cc-a3afe30e4612","system_id":"levelo_inurba_marseille","lat":43.32114,"lon":5.36823,"is_reserved":false,"is_disabled":false,"rental_uris":{"android":"levelo://app?vid=56f4e078-c9d6-4e29-a0cc-a3afe30e4612","ios":"levelo://app?vid=56f4e078-c9d6-4e29-a0cc-a3afe30e4612"},"vehicle_type_id":"4","last_reported":1746436297,"current_range_meters":14000,"station_id":"ce4bhrh2rcd13ifvqhug","pricing_plan_id":"cebpf4jnsgd1na2vs0mg"},{"bike_id":"3ff1331f-d2b9-4db6-9af0-17b5a04341a5","system_id":"levelo_inurba_marseille","lat":43.24329,"lon":5.37992,"is_reserved":false,"is_disabled":false,"rental_uris":{"android":"levelo://app?vid=3ff1331f-d2b9-4db6-9af0-17b5a04341a5","ios":"levelo://app?vid=3ff1331f-d2b9-4db6-9af0-17b5a04341a5"},"vehicle_type_id":"4","last_reported":1746436297,"current_range_meters":14400,"station_id":"","pricing_plan_id":"cebpf4jnsgd1na2vs0mg"},{"bike_id":"dbce784b-1646-4596-ba51-2cc683d527d4","system_id":"levelo_inurba_marseille","lat":43.31339,"lon":5.36724,"is_reserved":false,"is_disabled":false,"rental_uris":{"android":"levelo://app?vid=dbce784b-1646-4596-ba51-2cc683d527d4","ios":"levelo://app?vid=dbce784b-1646-4596-ba51-2cc683d527d4"},"vehicle_type_id":"4","last_reported":1746436297,"current_range_meters":14400,"station_id":"ce4bgr92rcd13ifvqc6g","pricing_plan_id":"cebpf4jnsgd1na2vs0mg"},{"bike_id":"1f73be91-3657-45ad-9c34-b63dbd5730d4","system_id":"levelo_inurba_marseille","lat":43.28442,"lon":5.39207,"is_reserved":false,"is_disabled":false,"rental_uris":{"android":"levelo://app?vid=1f73be91-3657-45ad-9c34-b63dbd5730d4","ios":"levelo://app?vid=1f73be91-3657-45ad-9c34-b63dbd5730d4"},"vehicle_type_id":"4","last_reported":1746436297,"current_range_meters":14400,"station_id":"ce4bhoh2rcd13ifvqh5g","pricing_plan_id":"cebpf4jnsgd1na2vs0mg"},{"bike_id":"b3cbb21e-793f-478c-9965-8205d52774c6","system_id":"levelo_inurba_marseille","lat":43.30735,"lon":5.424528,"is_reserved":false,"is_disabled":false,"rental_uris":{"android":"levelo://app?vid=b3cbb21e-793f-478c-9965-8205d52774c6","ios":"levelo://app?vid=b3cbb21e-793f-478c-9965-8205d52774c6"},"vehicle_type_id":"4","last_reported":1746436297,"current_range_meters":14400,"station_id":"st_cvj6ca6bvosntc0bfgr0","pricing_plan_id":"cebpf4jnsgd1na2vs0mg"},{"bike_id":"a7393548-1ca4-426f-bec8-e094325f844e","system_id":"levelo_inurba_marseille","lat":43.26273,"lon":5.37458,"is_reserved":false,"is_disabled":false,"rental_uris":{"android":"levelo://app?vid=a7393548-1ca4-426f-bec8-e094325f844e","ios":"levelo://app?vid=a7393548-1ca4-426f-bec8-e094325f844e"},"vehicle_type_id":"4","last_reported":1746436297,"current_range_meters":14800,"station_id":"","pricing_plan_id":"cebpf4jnsgd1na2vs0mg"},{"bike_id":"d252a272-7b85-44ee-b117-a17b072d1a91","system_id":"levelo_inurba_marseille","lat":43.21756,"lon":5.34586,"is_reserved":false,"is_disabled":false,"rental_uris":{"android":"levelo://app?vid=d252a272-7b85-44ee-b117-a17b072d1a91","ios":"levelo://app?vid=d252a272-7b85-44ee-b117-a17b072d1a91"},"vehicle_type_id":"4","last_reported":1746436297,"current_range_meters":14800,"station_id":"st_cvj6r9ubvosntc0bgbag","pricing_plan_id":"cebpf4jnsgd1na2vs0mg"},{"bike_id":"2fe0eb6e-fa6d-4d73-8902-1799ebd696f0","system_id":"levelo_inurba_marseille","lat":43.24544,"lon":5.39527,"is_reserved":false,"is_disabled":false,"rental_uris":{"android":"levelo://app?vid=2fe0eb6e-fa6d-4d73-8902-1799ebd696f0","ios":"levelo://app?vid=2fe0eb6e-fa6d-4d73-8902-1799ebd696f0"},"vehicle_type_id":"4","last_reported":1746436297,"current_range_meters":15200,"station_id":"ce4bhlp2rcd13ifvqgjg","pricing_plan_id":"cebpf4jnsgd1na2vs0mg"},{"bike_id":"3c693482-60d1-4614-a4d0-85983f472372","system_id":"levelo_inurba_marseille","lat":43.34146,"lon":5.40903,"is_reserved":false,"is_disabled":false,"rental_uris":{"android":"levelo://app?vid=3c693482-60d1-4614-a4d0-85983f472372","ios":"levelo://app?vid=3c693482-60d1-4614-a4d0-85983f472372"},"vehicle_type_id":"4","last_reported":1746436297,"current_range_meters":15200,"station_id":"ce4bhqh2rcd13ifvqhlg","pricing_plan_id":"cebpf4jnsgd1na2vs0mg"},{"bike_id":"89c1c22e-4deb-4a12-b25d-9d0f09a1f79b","system_id":"levelo_inurba_marseille","lat":43.21751,"lon":5.34595,"is_reserved":false,"is_disabled":false,"rental_uris":{"android":"levelo://app?vid=89c1c22e-4deb-4a12-b25d-9d0f09a1f79b","ios":"levelo://app?vid=89c1c22e-4deb-4a12-b25d-9d0f09a1f79b"},"vehicle_type_id":"4","last_reported":1746436297,"current_range_meters":15200,"station_id":"st_cvj6r9ubvosntc0bgbag","pricing_plan_id":"cebpf4jnsgd1na2vs0mg"},{"bike_id":"0e42e81c-9a07-4a97-bdd7-e94210c258de","system_id":"levelo_inurba_marseille","lat":43.245845,"lon":5.404946,"is_reserved":false,"is_disabled":false,"rental_uris":{"android":"levelo://app?vid=0e42e81c-9a07-4a97-bdd7-e94210c258de","ios":"levelo://app?vid=0e42e81c-9a07-4a97-bdd7-e94210c258de"},"vehicle_type_id":"4","last_reported":1746436297,"current_range_meters":16000,"station_id":"","pricing_plan_id":"cebpf4jnsgd1na2vs0mg"},{"bike_id":"3a76b7b4-90b5-4d4a-a530-68f9fba7d473","system_id":"levelo_inurba_marseille","lat":43.28421,"lon":5.37511,"is_reserved":false,"is_disabled":false,"rental_uris":{"android":"levelo://app?vid=3a76b7b4-90b5-4d4a-a530-68f9fba7d473","ios":"levelo://app?vid=3a76b7b4-90b5-4d4a-a530-68f9fba7d473"},"vehicle_type_id":"4","last_reported":1746436297,"current_range_meters":16000,"station_id":"ce4bh412rcd13ifvqds0","pricing_plan_id":"cebpf4jnsgd1na2vs0mg"},{"bike_id":"9ad02fea-f3d4-4836-92b1-80d879081efe","system_id":"levelo_inurba_marseille","lat":43.29258,"lon":5.38428,"is_reserved":false,"is_disabled":false,"rental_uris":{"android":"levelo://app?vid=9ad02fea-f3d4-4836-92b1-80d879081efe","ios":"levelo://app?vid=9ad02fea-f3d4-4836-92b1-80d879081efe"},"vehicle_type_id":"4","last_reported":1746436297,"current_range_meters":16000,"station_id":"ce4bh692rcd13ifvqea0","pricing_plan_id":"cebpf4jnsgd1na2vs0mg"},{"bike_id":"031a303b-cd94-42ed-bea7-14e9b8863667","system_id":"levelo_inurba_marseille","lat":43.27058,"lon":5.40258,"is_reserved":false,"is_disabled":false,"rental_uris":{"android":"levelo://app?vid=031a303b-cd94-42ed-bea7-14e9b8863667","ios":"levelo://app?vid=031a303b-cd94-42ed-bea7-14e9b8863667"},"vehicle_type_id":"4","last_reported":1746436297,"current_range_meters":16000,"station_id":"ce4bhk92rcd13ifvqgc0","pricing_plan_id":"cebpf4jnsgd1na2vs0mg"},{"bike_id":"1dab89a1-5412-4cee-a8ad-8b167b5a3f96","system_id":"levelo_inurba_marseille","lat":43.24176,"lon":5.39736,"is_reserved":false,"is_disabled":false,"rental_uris":{"android":"levelo://app?vid=1dab89a1-5412-4cee-a8ad-8b167b5a3f96","ios":"levelo://app?vid=1dab89a1-5412-4cee-a8ad-8b167b5a3f96"},"vehicle_type_id":"4","last_reported":1746436297,"current_range_meters":16000,"station_id":"ce4bhn12rcd13ifvqgpg","pricing_plan_id":"cebpf4jnsgd1na2vs0mg"},{"bike_id":"f3b63c94-4ac9-4e75-8b87-9174e4f7ecb5","system_id":"levelo_inurba_marseille","lat":43.30915,"lon":5.3684,"is_reserved":false,"is_disabled":false,"rental_uris":{"android":"levelo://app?vid=f3b63c94-4ac9-4e75-8b87-9174e4f7ecb5","ios":"levelo://app?vid=f3b63c94-4ac9-4e75-8b87-9174e4f7ecb5"},"vehicle_type_id":"4","last_reported":1746436297,"current_range_meters":16000,"station_id":"ce4bhph2rcd13ifvqhdg","pricing_plan_id":"cebpf4jnsgd1na2vs0mg"},{"bike_id":"db0e0ddb-0230-4f44-ba3e-6dcb98b952cd","system_id":"levelo_inurba_marseille","lat":43.23189,"lon":5.35559,"is_reserved":false,"is_disabled":false,"rental_uris":{"android":"levelo://app?vid=db0e0ddb-0230-4f44-ba3e-6dcb98b952cd","ios":"levelo://app?vid=db0e0ddb-0230-4f44-ba3e-6dcb98b952cd"},"vehicle_type_id":"4","last_reported":1746436297,"current_range_meters":16000,"station_id":"ce4bhu92rcd13ifvqi70","pricing_plan_id":"cebpf4jnsgd1na2vs0mg"},{"bike_id":"574f9534-6b0b-43b3-a942-c6870095631b","system_id":"levelo_inurba_marseille","lat":43.28594,"lon":5.3706,"is_reserved":false,"is_disabled":false,"rental_uris":{"android":"levelo://app?vid=574f9534-6b0b-43b3-a942-c6870095631b","ios":"levelo://app?vid=574f9534-6b0b-43b3-a942-c6870095631b"},"vehicle_type_id":"4","last_reported":1746436297,"current_range_meters":16400,"station_id":"","pricing_plan_id":"cebpf4jnsgd1na2vs0mg"},{"bike_id":"f6990bbf-7200-4595-9d3c-805bae17a99e","system_id":"levelo_inurba_marseille","lat":43.22497,"lon":5.34776,"is_reserved":false,"is_disabled":false,"rental_uris":{"android":"levelo://app?vid=f6990bbf-7200-4595-9d3c-805bae17a99e","ios":"levelo://app?vid=f6990bbf-7200-4595-9d3c-805bae17a99e"},"vehicle_type_id":"4","last_reported":1746436297,"current_range_meters":16400,"station_id":"","pricing_plan_id":"cebpf4jnsgd1na2vs0mg"},{"bike_id":"24f757de-a17b-4d12-a91c-97b045990d7b","system_id":"levelo_inurba_marseille","lat":43.337444,"lon":5.374475,"is_reserved":false,"is_disabled":false,"rental_uris":{"android":"levelo://app?vid=24f757de-a17b-4d12-a91c-97b045990d7b","ios":"levelo://app?vid=24f757de-a17b-4d12-a91c-97b045990d7b"},"vehicle_type_id":"4","last_reported":1746436297,"current_range_meters":16400,"station_id":"","pricing_plan_id":"cebpf4jnsgd1na2vs0mg"},{"bike_id":"ebc1a62a-3887-4d20-ade7-d40d97c7733a","system_id":"levelo_inurba_marseille","lat":43.28943,"lon":5.36389,"is_reserved":false,"is_disabled":false,"rental_uris":{"android":"levelo://app?vid=ebc1a62a-3887-4d20-ade7-d40d97c7733a","ios":"levelo://app?vid=ebc1a62a-3887-4d20-ade7-d40d97c7733a"},"vehicle_type_id":"4","last_reported":1746436297,"current_range_meters":16400,"station_id":"ce4bhc92rcd13ifvqetg","pricing_plan_id":"cebpf4jnsgd1na2vs0mg"},{"bike_id":"36839d2f-f3fb-4ae5-87d2-3bdb958b3981","system_id":"levelo_inurba_marseille","lat":43.26221,"lon":5.37927,"is_reserved":false,"is_disabled":false,"rental_uris":{"android":"levelo://app?vid=36839d2f-f3fb-4ae5-87d2-3bdb958b3981","ios":"levelo://app?vid=36839d2f-f3fb-4ae5-87d2-3bdb958b3981"},"vehicle_type_id":"4","last_reported":1746436297,"current_range_meters":16400,"station_id":"ce4bhjp2rcd13ifvqg90","pricing_plan_id":"cebpf4jnsgd1na2vs0mg"},{"bike_id":"4eaaea7f-b687-46b7-9e18-0f05a4499f5a","system_id":"levelo_inurba_marseille","lat":43.2317,"lon":5.4371,"is_reserved":false,"is_disabled":false,"rental_uris":{"android":"levelo://app?vid=4eaaea7f-b687-46b7-9e18-0f05a4499f5a","ios":"levelo://app?vid=4eaaea7f-b687-46b7-9e18-0f05a4499f5a"},"vehicle_type_id":"4","last_reported":1746436297,"current_range_meters":16400,"station_id":"ce4bhmp2rcd13ifvqgog","pricing_plan_id":"cebpf4jnsgd1na2vs0mg"},{"bike_id":"8b028970-458c-43c5-9321-f5aa1f989005","system_id":"levelo_inurba_marseille","lat":43.24071,"lon":5.37754,"is_reserved":false,"is_disabled":false,"rental_uris":{"android":"levelo://app?vid=8b028970-458c-43c5-9321-f5aa1f989005","ios":"levelo://app?vid=8b028970-458c-43c5-9321-f5aa1f989005"},"vehicle_type_id":"4","last_reported":1746436297,"current_range_meters":16400,"station_id":"ce4bhnp2rcd13ifvqgvg","pricing_plan_id":"cebpf4jnsgd1na2vs0mg"},{"bike_id":"bbba4a42-41f1-4d4c-a0ec-15062e1d6496","system_id":"levelo_inurba_marseille","lat":43.30808,"lon":5.43525,"is_reserved":false,"is_disabled":false,"rental_uris":{"android":"levelo://app?vid=bbba4a42-41f1-4d4c-a0ec-15062e1d6496","ios":"levelo://app?vid=bbba4a42-41f1-4d4c-a0ec-15062e1d6496"},"vehicle_type_id":"4","last_reported":1746436297,"current_range_meters":16400,"station_id":"ce4bhph2rcd13ifvqheg","pricing_plan_id":"cebpf4jnsgd1na2vs0mg"},{"bike_id":"1e787ecd-2869-4a0d-8ca0-8671348ec2f2","system_id":"levelo_inurba_marseille","lat":43.33604,"lon":5.41039,"is_reserved":false,"is_disabled":false,"rental_uris":{"android":"levelo://app?vid=1e787ecd-2869-4a0d-8ca0-8671348ec2f2","ios":"levelo://app?vid=1e787ecd-2869-4a0d-8ca0-8671348ec2f2"},"vehicle_type_id":"4","last_reported":1746436297,"current_range_meters":16400,"station_id":"ce4bhqh2rcd13ifvqhmg","pricing_plan_id":"cebpf4jnsgd1na2vs0mg"},{"bike_id":"dcf74a70-002d-4da8-ab1f-c28dc8cdf5f1","system_id":"levelo_inurba_marseille","lat":43.30151,"lon":5.37391,"is_reserved":false,"is_disabled":false,"rental_uris":{"android":"levelo://app?vid=dcf74a70-002d-4da8-ab1f-c28dc8cdf5f1","ios":"levelo://app?vid=dcf74a70-002d-4da8-ab1f-c28dc8cdf5f1"},"vehicle_type_id":"4","last_reported":1746436297,"current_range_meters":16800,"station_id":"ce4bgs92rcd13ifvqcc0","pricing_plan_id":"cebpf4jnsgd1na2vs0mg"},{"bike_id":"781c8fd6-e30d-4342-b227-1a44d020b385","system_id":"levelo_inurba_marseille","lat":43.2844,"lon":5.39202,"is_reserved":false,"is_disabled":false,"rental_uris":{"android":"levelo://app?vid=781c8fd6-e30d-4342-b227-1a44d020b385","ios":"levelo://app?vid=781c8fd6-e30d-4342-b227-1a44d020b385"},"vehicle_type_id":"4","last_reported":1746436297,"current_range_meters":16800,"station_id":"ce4bhoh2rcd13ifvqh5g","pricing_plan_id":"cebpf4jnsgd1na2vs0mg"},{"bike_id":"2dce38cf-a8d4-49cd-9fcf-ef494d90a125","system_id":"levelo_inurba_marseille","lat":43.27128,"lon":5.36394,"is_reserved":false,"is_disabled":false,"rental_uris":{"android":"levelo://app?vid=2dce38cf-a8d4-49cd-9fcf-ef494d90a125","ios":"levelo://app?vid=2dce38cf-a8d4-49cd-9fcf-ef494d90a125"},"vehicle_type_id":"4","last_reported":1746436297,"current_range_meters":17200,"station_id":"","pricing_plan_id":"cebpf4jnsgd1na2vs0mg"},{"bike_id":"8b2285d3-d248-444c-a9fa-a333a1711750","system_id":"levelo_inurba_marseille","lat":43.28618,"lon":5.37373,"is_reserved":false,"is_disabled":false,"rental_uris":{"android":"levelo://app?vid=8b2285d3-d248-444c-a9fa-a333a1711750","ios":"levelo://app?vid=8b2285d3-d248-444c-a9fa-a333a1711750"},"vehicle_type_id":"4","last_reported":1746436297,"current_range_meters":17200,"station_id":"","pricing_plan_id":"cebpf4jnsgd1na2vs0mg"},{"bike_id":"4e3d75eb-7e84-421a-a65f-bd4b074ca6a0","system_id":"levelo_inurba_marseille","lat":43.29598,"lon":5.38097,"is_reserved":false,"is_disabled":false,"rental_uris":{"android":"levelo://app?vid=4e3d75eb-7e84-421a-a65f-bd4b074ca6a0","ios":"levelo://app?vid=4e3d75eb-7e84-421a-a65f-bd4b074ca6a0"},"vehicle_type_id":"4","last_reported":1746436297,"current_range_meters":17200,"station_id":"ce4bgl12rcd13ifvqbo0","pricing_plan_id":"cebpf4jnsgd1na2vs0mg"},{"bike_id":"5ae1c0ef-61b2-4409-9b64-e7d5002ba633","system_id":"levelo_inurba_marseille","lat":43.30533,"lon":5.36533,"is_reserved":false,"is_disabled":false,"rental_uris":{"android":"levelo://app?vid=5ae1c0ef-61b2-4409-9b64-e7d5002ba633","ios":"levelo://app?vid=5ae1c0ef-61b2-4409-9b64-e7d5002ba633"},"vehicle_type_id":"4","last_reported":1746436297,"current_range_meters":17200,"station_id":"ce4bgs12rcd13ifvqcag","pricing_plan_id":"cebpf4jnsgd1na2vs0mg"},{"bike_id":"1f1a4afb-252a-4a9e-9d18-d0637ae356b5","system_id":"levelo_inurba_marseille","lat":43.29097,"lon":5.38148,"is_reserved":false,"is_disabled":false,"rental_uris":{"android":"levelo://app?vid=1f1a4afb-252a-4a9e-9d18-d0637ae356b5","ios":"levelo://app?vid=1f1a4afb-252a-4a9e-9d18-d0637ae356b5"},"vehicle_type_id":"4","last_reported":1746436297,"current_range_meters":17200,"station_id":"ce4bh512rcd13ifvqe2g","pricing_plan_id":"cebpf4jnsgd1na2vs0mg"},{"bike_id":"ecbaae68-ac50-4c81-ae62-db32684898a8","system_id":"levelo_inurba_marseille","lat":43.31275,"lon":5.36883,"is_reserved":false,"is_disabled":false,"rental_uris":{"android":"levelo://app?vid=ecbaae68-ac50-4c81-ae62-db32684898a8","ios":"levelo://app?vid=ecbaae68-ac50-4c81-ae62-db32684898a8"},"vehicle_type_id":"4","last_reported":1746436297,"current_range_meters":17600,"station_id":"ce4bgl92rcd13ifvqbq0","pricing_plan_id":"cebpf4jnsgd1na2vs0mg"},{"bike_id":"a0100a4d-bd37-41d8-aa43-826961f81278","system_id":"levelo_inurba_marseille","lat":43.284632,"lon":5.395228,"is_reserved":false,"is_disabled":false,"rental_uris":{"android":"levelo://app?vid=a0100a4d-bd37-41d8-aa43-826961f81278","ios":"levelo://app?vid=a0100a4d-bd37-41d8-aa43-826961f81278"},"vehicle_type_id":"4","last_reported":1746436297,"current_range_meters":17600,"station_id":"ce4bh292rcd13ifvqdg0","pricing_plan_id":"cebpf4jnsgd1na2vs0mg"},{"bike_id":"fedc619d-d7cc-4df1-a967-c5d0953b5b95","system_id":"levelo_inurba_marseille","lat":43.2457,"lon":5.4085,"is_reserved":false,"is_disabled":false,"rental_uris":{"android":"levelo://app?vid=fedc619d-d7cc-4df1-a967-c5d0953b5b95","ios":"levelo://app?vid=fedc619d-d7cc-4df1-a967-c5d0953b5b95"},"vehicle_type_id":"4","last_reported":1746436297,"current_range_meters":18000,"station_id":"","pricing_plan_id":"cebpf4jnsgd1na2vs0mg"},{"bike_id":"61bf85ea-9a43-46f9-a573-41da3aa3871c","system_id":"levelo_inurba_marseille","lat":43.27298,"lon":5.38561,"is_reserved":false,"is_disabled":false,"rental_uris":{"android":"levelo://app?vid=61bf85ea-9a43-46f9-a573-41da3aa3871c","ios":"levelo://app?vid=61bf85ea-9a43-46f9-a573-41da3aa3871c"},"vehicle_type_id":"4","last_reported":1746436297,"current_range_meters":18000,"station_id":"","pricing_plan_id":"cebpf4jnsgd1na2vs0mg"},{"bike_id":"49110bfb-6f6c-4de8-b19f-6edc8de53d84","system_id":"levelo_inurba_marseille","lat":43.31364,"lon":5.36684,"is_reserved":false,"is_disabled":false,"rental_uris":{"android":"levelo://app?vid=49110bfb-6f6c-4de8-b19f-6edc8de53d84","ios":"levelo://app?vid=49110bfb-6f6c-4de8-b19f-6edc8de53d84"},"vehicle_type_id":"4","last_reported":1746436297,"current_range_meters":18000,"station_id":"ce4bgr92rcd13ifvqc6g","pricing_plan_id":"cebpf4jnsgd1na2vs0mg"},{"bike_id":"85f883d2-106b-4bee-bdac-860bc4667032","system_id":"levelo_inurba_marseille","lat":43.24167,"lon":5.36399,"is_reserved":false,"is_disabled":false,"rental_uris":{"android":"levelo://app?vid=85f883d2-106b-4bee-bdac-860bc4667032","ios":"levelo://app?vid=85f883d2-106b-4bee-bdac-860bc4667032"},"vehicle_type_id":"4","last_reported":1746436297,"current_range_meters":18000,"station_id":"cpo36qri1sfpv3e86is0","pricing_plan_id":"cebpf4jnsgd1na2vs0mg"},{"bike_id":"f5624e7c-f294-481f-a1bf-27739014eb89","system_id":"levelo_inurba_marseille","lat":43.21743,"lon":5.34603,"is_reserved":false,"is_disabled":false,"rental_uris":{"android":"levelo://app?vid=f5624e7c-f294-481f-a1bf-27739014eb89","ios":"levelo://app?vid=f5624e7c-f294-481f-a1bf-27739014eb89"},"vehicle_type_id":"4","last_reported":1746436297,"current_range_meters":18800,"station_id":"","pricing_plan_id":"cebpf4jnsgd1na2vs0mg"},{"bike_id":"96e070da-b0e6-4861-a7e6-1c419a119de3","system_id":"levelo_inurba_marseille","lat":43.31379,"lon":5.367,"is_reserved":false,"is_disabled":false,"rental_uris":{"android":"levelo://app?vid=96e070da-b0e6-4861-a7e6-1c419a119de3","ios":"levelo://app?vid=96e070da-b0e6-4861-a7e6-1c419a119de3"},"vehicle_type_id":"4","last_reported":1746436297,"current_range_meters":18800,"station_id":"ce4bgr92rcd13ifvqc6g","pricing_plan_id":"cebpf4jnsgd1na2vs0mg"},{"bike_id":"c403646e-05ba-4262-afad-5e61dba3246b","system_id":"levelo_inurba_marseille","lat":43.25929,"lon":5.409,"is_reserved":false,"is_disabled":false,"rental_uris":{"android":"levelo://app?vid=c403646e-05ba-4262-afad-5e61dba3246b","ios":"levelo://app?vid=c403646e-05ba-4262-afad-5e61dba3246b"},"vehicle_type_id":"4","last_reported":1746436297,"current_range_meters":18800,"station_id":"ce4bhm92rcd13ifvqglg","pricing_plan_id":"cebpf4jnsgd1na2vs0mg"},{"bike_id":"418386e3-abf3-40a0-be92-f17c77a2278e","system_id":"levelo_inurba_marseille","lat":43.28152,"lon":5.42638,"is_reserved":false,"is_disabled":false,"rental_uris":{"android":"levelo://app?vid=418386e3-abf3-40a0-be92-f17c77a2278e","ios":"levelo://app?vid=418386e3-abf3-40a0-be92-f17c77a2278e"},"vehicle_type_id":"4","last_reported":1746436297,"current_range_meters":18800,"station_id":"ce4bhnh2rcd13ifvqgug","pricing_plan_id":"cebpf4jnsgd1na2vs0mg"},{"bike_id":"e5b73177-e636-471a-8d40-c71ebd3262c2","system_id":"levelo_inurba_marseille","lat":43.33612,"lon":5.41035,"is_reserved":false,"is_disabled":false,"rental_uris":{"android":"levelo://app?vid=e5b73177-e636-471a-8d40-c71ebd3262c2","ios":"levelo://app?vid=e5b73177-e636-471a-8d40-c71ebd3262c2"},"vehicle_type_id":"4","last_reported":1746436297,"current_range_meters":18800,"station_id":"ce4bhqh2rcd13ifvqhmg","pricing_plan_id":"cebpf4jnsgd1na2vs0mg"},{"bike_id":"203d91f5-6c36-4523-963d-b10eff730e29","system_id":"levelo_inurba_marseille","lat":43.30745,"lon":5.42447,"is_reserved":false,"is_disabled":false,"rental_uris":{"android":"levelo://app?vid=203d91f5-6c36-4523-963d-b10eff730e29","ios":"levelo://app?vid=203d91f5-6c36-4523-963d-b10eff730e29"},"vehicle_type_id":"4","last_reported":1746436297,"current_range_meters":18800,"station_id":"st_cvj6ca6bvosntc0bfgr0","pricing_plan_id":"cebpf4jnsgd1na2vs0mg"},{"bike_id":"8d160a7f-0e6f-457a-9397-4abe87705b68","system_id":"levelo_inurba_marseille","lat":43.217498,"lon":5.346058,"is_reserved":false,"is_disabled":false,"rental_uris":{"android":"levelo://app?vid=8d160a7f-0e6f-457a-9397-4abe87705b68","ios":"levelo://app?vid=8d160a7f-0e6f-457a-9397-4abe87705b68"},"vehicle_type_id":"4","last_reported":1746436297,"current_range_meters":19200,"station_id":"","pricing_plan_id":"cebpf4jnsgd1na2vs0mg"},{"bike_id":"1351d2e1-4507-44f6-9645-e85ad7214f49","system_id":"levelo_inurba_marseille","lat":43.24119,"lon":5.37756,"is_reserved":false,"is_disabled":false,"rental_uris":{"android":"levelo://app?vid=1351d2e1-4507-44f6-9645-e85ad7214f49","ios":"levelo://app?vid=1351d2e1-4507-44f6-9645-e85ad7214f49"},"vehicle_type_id":"4","last_reported":1746436297,"current_range_meters":19200,"station_id":"","pricing_plan_id":"cebpf4jnsgd1na2vs0mg"},{"bike_id":"f6544c52-88b9-4cda-9dbf-aae9ea9a024e","system_id":"levelo_inurba_marseille","lat":43.31225,"lon":5.36853,"is_reserved":false,"is_disabled":false,"rental_uris":{"android":"levelo://app?vid=f6544c52-88b9-4cda-9dbf-aae9ea9a024e","ios":"levelo://app?vid=f6544c52-88b9-4cda-9dbf-aae9ea9a024e"},"vehicle_type_id":"4","last_reported":1746436297,"current_range_meters":19200,"station_id":"ce4bgl92rcd13ifvqbq0","pricing_plan_id":"cebpf4jnsgd1na2vs0mg"},{"bike_id":"67c23af4-17e4-4286-9e36-70cd5cabae28","system_id":"levelo_inurba_marseille","lat":43.30541,"lon":5.36548,"is_reserved":false,"is_disabled":false,"rental_uris":{"android":"levelo://app?vid=67c23af4-17e4-4286-9e36-70cd5cabae28","ios":"levelo://app?vid=67c23af4-17e4-4286-9e36-70cd5cabae28"},"vehicle_type_id":"4","last_reported":1746436297,"current_range_meters":19200,"station_id":"ce4bgs12rcd13ifvqcag","pricing_plan_id":"cebpf4jnsgd1na2vs0mg"},{"bike_id":"12527328-da35-465e-812b-a78dfb76e0d9","system_id":"levelo_inurba_marseille","lat":43.25886,"lon":5.40942,"is_reserved":false,"is_disabled":false,"rental_uris":{"android":"levelo://app?vid=12527328-da35-465e-812b-a78dfb76e0d9","ios":"levelo://app?vid=12527328-da35-465e-812b-a78dfb76e0d9"},"vehicle_type_id":"4","last_reported":1746436297,"current_range_meters":19600,"station_id":"ce4bhm92rcd13ifvqglg","pricing_plan_id":"cebpf4jnsgd1na2vs0mg"},{"bike_id":"8399309c-e7d9-45c5-a06a-10d979307adc","system_id":"levelo_inurba_marseille","lat":43.27496,"lon":5.42466,"is_reserved":false,"is_disabled":false,"rental_uris":{"android":"levelo://app?vid=8399309c-e7d9-45c5-a06a-10d979307adc","ios":"levelo://app?vid=8399309c-e7d9-45c5-a06a-10d979307adc"},"vehicle_type_id":"4","last_reported":1746436297,"current_range_meters":19600,"station_id":"ce4bhn92rcd13ifvqgrg","pricing_plan_id":"cebpf4jnsgd1na2vs0mg"},{"bike_id":"1fa061b5-8aba-4af7-b488-a41a91f0f750","system_id":"levelo_inurba_marseille","lat":43.29553,"lon":5.42293,"is_reserved":false,"is_disabled":false,"rental_uris":{"android":"levelo://app?vid=1fa061b5-8aba-4af7-b488-a41a91f0f750","ios":"levelo://app?vid=1fa061b5-8aba-4af7-b488-a41a91f0f750"},"vehicle_type_id":"4","last_reported":1746436297,"current_range_meters":19600,"station_id":"ce4bhph2rcd13ifvqhdg","pricing_plan_id":"cebpf4jnsgd1na2vs0mg"},{"bike_id":"243b49a7-8924-4b7d-8d65-fa1ee8c16a75","system_id":"levelo_inurba_marseille","lat":43.29056,"lon":5.40528,"is_reserved":false,"is_disabled":false,"rental_uris":{"android":"levelo://app?vid=243b49a7-8924-4b7d-8d65-fa1ee8c16a75","ios":"levelo://app?vid=243b49a7-8924-4b7d-8d65-fa1ee8c16a75"},"vehicle_type_id":"4","last_reported":1746436297,"current_range_meters":20000,"station_id":"","pricing_plan_id":"cebpf4jnsgd1na2vs0mg"},{"bike_id":"5b8f06bc-052a-454a-b1dc-55ff1d1e7111","system_id":"levelo_inurba_marseille","lat":43.31352,"lon":5.36701,"is_reserved":false,"is_disabled":false,"rental_uris":{"android":"levelo://app?vid=5b8f06bc-052a-454a-b1dc-55ff1d1e7111","ios":"levelo://app?vid=5b8f06bc-052a-454a-b1dc-55ff1d1e7111"},"vehicle_type_id":"4","last_reported":1746436297,"current_range_meters":20000,"station_id":"ce4bgr92rcd13ifvqc6g","pricing_plan_id":"cebpf4jnsgd1na2vs0mg"},{"bike_id":"5b0da776-35a0-4dd6-91d4-665eeee1e567","system_id":"levelo_inurba_marseille","lat":43.30543,"lon":5.36528,"is_reserved":false,"is_disabled":false,"rental_uris":{"android":"levelo://app?vid=5b0da776-35a0-4dd6-91d4-665eeee1e567","ios":"levelo://app?vid=5b0da776-35a0-4dd6-91d4-665eeee1e567"},"vehicle_type_id":"4","last_reported":1746436297,"current_range_meters":20000,"station_id":"ce4bgs12rcd13ifvqcag","pricing_plan_id":"cebpf4jnsgd1na2vs0mg"},{"bike_id":"42a3b903-33c1-4a0e-bf68-e9c556a610f1","system_id":"levelo_inurba_marseille","lat":43.246618,"lon":5.381675,"is_reserved":false,"is_disabled":false,"rental_uris":{"android":"levelo://app?vid=42a3b903-33c1-4a0e-bf68-e9c556a610f1","ios":"levelo://app?vid=42a3b903-33c1-4a0e-bf68-e9c556a610f1"},"vehicle_type_id":"4","last_reported":1746436297,"current_range_meters":20000,"station_id":"ce4bhih2rcd13ifvqfr0","pricing_plan_id":"cebpf4jnsgd1na2vs0mg"},{"bike_id":"86b93b16-87a0-4fbf-a3d1-c409da7732b0","system_id":"levelo_inurba_marseille","lat":43.293396,"lon":5.371296,"is_reserved":false,"is_disabled":false,"rental_uris":{"android":"levelo://app?vid=86b93b16-87a0-4fbf-a3d1-c409da7732b0","ios":"levelo://app?vid=86b93b16-87a0-4fbf-a3d1-c409da7732b0"},"vehicle_type_id":"4","last_reported":1746436297,"current_range_meters":20400,"station_id":"","pricing_plan_id":"cebpf4jnsgd1na2vs0mg"},{"bike_id":"72afe969-80d0-46e4-984d-a1c2998b6d0e","system_id":"levelo_inurba_marseille","lat":43.23149,"lon":5.43721,"is_reserved":false,"is_disabled":false,"rental_uris":{"android":"levelo://app?vid=72afe969-80d0-46e4-984d-a1c2998b6d0e","ios":"levelo://app?vid=72afe969-80d0-46e4-984d-a1c2998b6d0e"},"vehicle_type_id":"4","last_reported":1746436297,"current_range_meters":20400,"station_id":"ce4bhmp2rcd13ifvqgog","pricing_plan_id":"cebpf4jnsgd1na2vs0mg"},{"bike_id":"d4f6b9d7-a1e2-42ac-9fe1-75c7c9bda882","system_id":"levelo_inurba_marseille","lat":43.32086,"lon":5.36802,"is_reserved":false,"is_disabled":false,"rental_uris":{"android":"levelo://app?vid=d4f6b9d7-a1e2-42ac-9fe1-75c7c9bda882","ios":"levelo://app?vid=d4f6b9d7-a1e2-42ac-9fe1-75c7c9bda882"},"vehicle_type_id":"4","last_reported":1746436297,"current_range_meters":20400,"station_id":"ce4bhrh2rcd13ifvqhug","pricing_plan_id":"cebpf4jnsgd1na2vs0mg"},{"bike_id":"e0f5e4de-994e-409e-97bf-b60ab8720a59","system_id":"levelo_inurba_marseille","lat":43.28726,"lon":5.36098,"is_reserved":false,"is_disabled":false,"rental_uris":{"android":"levelo://app?vid=e0f5e4de-994e-409e-97bf-b60ab8720a59","ios":"levelo://app?vid=e0f5e4de-994e-409e-97bf-b60ab8720a59"},"vehicle_type_id":"4","last_reported":1746436297,"current_range_meters":20400,"station_id":"cki0cbj6b192h4jlfktg","pricing_plan_id":"cebpf4jnsgd1na2vs0mg"},{"bike_id":"0eeaac7d-40ff-4f86-bacd-312c69230788","system_id":"levelo_inurba_marseille","lat":43.26935,"lon":5.40263,"is_reserved":false,"is_disabled":false,"rental_uris":{"android":"levelo://app?vid=0eeaac7d-40ff-4f86-bacd-312c69230788","ios":"levelo://app?vid=0eeaac7d-40ff-4f86-bacd-312c69230788"},"vehicle_type_id":"4","last_reported":1746436297,"current_range_meters":20800,"station_id":"cjm6bp8fraef2m0cb0m0","pricing_plan_id":"cebpf4jnsgd1na2vs0mg"},{"bike_id":"1defc0cc-b574-4a3c-b9f0-e1ad7b926ebf","system_id":"levelo_inurba_marseille","lat":43.24175,"lon":5.36375,"is_reserved":false,"is_disabled":false,"rental_uris":{"android":"levelo://app?vid=1defc0cc-b574-4a3c-b9f0-e1ad7b926ebf","ios":"levelo://app?vid=1defc0cc-b574-4a3c-b9f0-e1ad7b926ebf"},"vehicle_type_id":"4","last_reported":1746436297,"current_range_meters":20800,"station_id":"cpo36qri1sfpv3e86is0","pricing_plan_id":"cebpf4jnsgd1na2vs0mg"},{"bike_id":"788046ab-4020-4c6e-a0e2-de3aee25f874","system_id":"levelo_inurba_marseille","lat":43.21191,"lon":5.3508,"is_reserved":false,"is_disabled":false,"rental_uris":{"android":"levelo://app?vid=788046ab-4020-4c6e-a0e2-de3aee25f874","ios":"levelo://app?vid=788046ab-4020-4c6e-a0e2-de3aee25f874"},"vehicle_type_id":"4","last_reported":1746436297,"current_range_meters":20800,"station_id":"st_cvj6sg6p6f1abm77japg","pricing_plan_id":"cebpf4jnsgd1na2vs0mg"},{"bike_id":"b7bae0b8-eae7-475e-b352-3da377855acd","system_id":"levelo_inurba_marseille","lat":43.24179,"lon":5.39725,"is_reserved":false,"is_disabled":false,"rental_uris":{"android":"levelo://app?vid=b7bae0b8-eae7-475e-b352-3da377855acd","ios":"levelo://app?vid=b7bae0b8-eae7-475e-b352-3da377855acd"},"vehicle_type_id":"4","last_reported":1746436297,"current_range_meters":21600,"station_id":"ce4bhn12rcd13ifvqgpg","pricing_plan_id":"cebpf4jnsgd1na2vs0mg"},{"bike_id":"f411480e-d16c-4cef-977f-908434432ba8","system_id":"levelo_inurba_marseille","lat":43.21743,"lon":5.34607,"is_reserved":false,"is_disabled":false,"rental_uris":{"android":"levelo://app?vid=f411480e-d16c-4cef-977f-908434432ba8","ios":"levelo://app?vid=f411480e-d16c-4cef-977f-908434432ba8"},"vehicle_type_id":"4","last_reported":1746436297,"current_range_meters":22000,"station_id":"","pricing_plan_id":"cebpf4jnsgd1na2vs0mg"},{"bike_id":"7b26d8ad-e234-43ff-9682-f341d64ef84f","system_id":"levelo_inurba_marseille","lat":43.30534,"lon":5.36716,"is_reserved":false,"is_disabled":false,"rental_uris":{"android":"levelo://app?vid=7b26d8ad-e234-43ff-9682-f341d64ef84f","ios":"levelo://app?vid=7b26d8ad-e234-43ff-9682-f341d64ef84f"},"vehicle_type_id":"4","last_reported":1746436297,"current_range_meters":22000,"station_id":"ce4bgrp2rcd13ifvqc9g","pricing_plan_id":"cebpf4jnsgd1na2vs0mg"},{"bike_id":"e251da1b-e6e3-4577-b6ee-ca5b78846d86","system_id":"levelo_inurba_marseille","lat":43.230607,"lon":5.354897,"is_reserved":false,"is_disabled":false,"rental_uris":{"android":"levelo://app?vid=e251da1b-e6e3-4577-b6ee-ca5b78846d86","ios":"levelo://app?vid=e251da1b-e6e3-4577-b6ee-ca5b78846d86"},"vehicle_type_id":"4","last_reported":1746436297,"current_range_meters":22000,"station_id":"cpo3342slgdg3j2ifvpg","pricing_plan_id":"cebpf4jnsgd1na2vs0mg"},{"bike_id":"e84241fb-8fc7-4436-8e8b-f60e4fce4202","system_id":"levelo_inurba_marseille","lat":43.25944,"lon":5.40874,"is_reserved":false,"is_disabled":false,"rental_uris":{"android":"levelo://app?vid=e84241fb-8fc7-4436-8e8b-f60e4fce4202","ios":"levelo://app?vid=e84241fb-8fc7-4436-8e8b-f60e4fce4202"},"vehicle_type_id":"4","last_reported":1746436297,"current_range_meters":22400,"station_id":"ce4bhm92rcd13ifvqglg","pricing_plan_id":"cebpf4jnsgd1na2vs0mg"},{"bike_id":"74f14173-aa14-4cdd-9083-134cd0634051","system_id":"levelo_inurba_marseille","lat":43.29581,"lon":5.36749,"is_reserved":false,"is_disabled":false,"rental_uris":{"android":"levelo://app?vid=74f14173-aa14-4cdd-9083-134cd0634051","ios":"levelo://app?vid=74f14173-aa14-4cdd-9083-134cd0634051"},"vehicle_type_id":"4","last_reported":1746436297,"current_range_meters":22800,"station_id":"ce4bgph2rcd13ifvqc2g","pricing_plan_id":"cebpf4jnsgd1na2vs0mg"},{"bike_id":"8b3925f6-07c3-4cd7-8b16-dd71192d477e","system_id":"levelo_inurba_marseille","lat":43.24388,"lon":5.37062,"is_reserved":false,"is_disabled":false,"rental_uris":{"android":"levelo://app?vid=8b3925f6-07c3-4cd7-8b16-dd71192d477e","ios":"levelo://app?vid=8b3925f6-07c3-4cd7-8b16-dd71192d477e"},"vehicle_type_id":"4","last_reported":1746436297,"current_range_meters":22800,"station_id":"ce4bhhh2rcd13ifvqfk0","pricing_plan_id":"cebpf4jnsgd1na2vs0mg"},{"bike_id":"ec1d0d3a-2b02-4260-a905-efe5646117f6","system_id":"levelo_inurba_marseille","lat":43.23979,"lon":5.36642,"is_reserved":false,"is_disabled":false,"rental_uris":{"android":"levelo://app?vid=ec1d0d3a-2b02-4260-a905-efe5646117f6","ios":"levelo://app?vid=ec1d0d3a-2b02-4260-a905-efe5646117f6"},"vehicle_type_id":"4","last_reported":1746436297,"current_range_meters":22800,"station_id":"ce4bhi12rcd13ifvqfp0","pricing_plan_id":"cebpf4jnsgd1na2vs0mg"},{"bike_id":"3ae74631-5401-4c8d-87e8-3b0125a546bc","system_id":"levelo_inurba_marseille","lat":43.24165,"lon":5.39727,"is_reserved":false,"is_disabled":false,"rental_uris":{"android":"levelo://app?vid=3ae74631-5401-4c8d-87e8-3b0125a546bc","ios":"levelo://app?vid=3ae74631-5401-4c8d-87e8-3b0125a546bc"},"vehicle_type_id":"4","last_reported":1746436297,"current_range_meters":22800,"station_id":"ce4bhn12rcd13ifvqgpg","pricing_plan_id":"cebpf4jnsgd1na2vs0mg"},{"bike_id":"4eed2df0-43f2-499f-84db-34e32acfd378","system_id":"levelo_inurba_marseille","lat":43.30352,"lon":5.41882,"is_reserved":false,"is_disabled":false,"rental_uris":{"android":"levelo://app?vid=4eed2df0-43f2-499f-84db-34e32acfd378","ios":"levelo://app?vid=4eed2df0-43f2-499f-84db-34e32acfd378"},"vehicle_type_id":"4","last_reported":1746436297,"current_range_meters":22800,"station_id":"ce4bhop2rcd13ifvqh7g","pricing_plan_id":"cebpf4jnsgd1na2vs0mg"},{"bike_id":"c2b41a15-a85d-46d1-814c-f8816b3cf185","system_id":"levelo_inurba_marseille","lat":43.34145,"lon":5.40901,"is_reserved":false,"is_disabled":false,"rental_uris":{"android":"levelo://app?vid=c2b41a15-a85d-46d1-814c-f8816b3cf185","ios":"levelo://app?vid=c2b41a15-a85d-46d1-814c-f8816b3cf185"},"vehicle_type_id":"4","last_reported":1746436297,"current_range_meters":22800,"station_id":"ce4bhqh2rcd13ifvqhlg","pricing_plan_id":"cebpf4jnsgd1na2vs0mg"},{"bike_id":"bd540609-63ec-48df-ae72-6d47e4e3c2e2","system_id":"levelo_inurba_marseille","lat":43.31402,"lon":5.36684,"is_reserved":false,"is_disabled":false,"rental_uris":{"android":"levelo://app?vid=bd540609-63ec-48df-ae72-6d47e4e3c2e2","ios":"levelo://app?vid=bd540609-63ec-48df-ae72-6d47e4e3c2e2"},"vehicle_type_id":"4","last_reported":1746436297,"current_range_meters":23200,"station_id":"","pricing_plan_id":"cebpf4jnsgd1na2vs0mg"},{"bike_id":"c43b0e07-2f2c-4641-890c-72c3962f7b70","system_id":"levelo_inurba_marseille","lat":43.290741,"lon":5.371885,"is_reserved":false,"is_disabled":false,"rental_uris":{"android":"levelo://app?vid=c43b0e07-2f2c-4641-890c-72c3962f7b70","ios":"levelo://app?vid=c43b0e07-2f2c-4641-890c-72c3962f7b70"},"vehicle_type_id":"4","last_reported":1746436297,"current_range_meters":23200,"station_id":"ce4bh5p2rcd13ifvqe4g","pricing_plan_id":"cebpf4jnsgd1na2vs0mg"},{"bike_id":"2b490909-4da7-4f0a-8846-7d4b2781e7e1","system_id":"levelo_inurba_marseille","lat":43.27376,"lon":5.36257,"is_reserved":false,"is_disabled":false,"rental_uris":{"android":"levelo://app?vid=2b490909-4da7-4f0a-8846-7d4b2781e7e1","ios":"levelo://app?vid=2b490909-4da7-4f0a-8846-7d4b2781e7e1"},"vehicle_type_id":"4","last_reported":1746436297,"current_range_meters":23200,"station_id":"ce4bhbh2rcd13ifvqeo0","pricing_plan_id":"cebpf4jnsgd1na2vs0mg"},{"bike_id":"722f7dc3-59a8-43f4-9318-b74e7adad13c","system_id":"levelo_inurba_marseille","lat":43.231527,"lon":5.43705,"is_reserved":false,"is_disabled":false,"rental_uris":{"android":"levelo://app?vid=722f7dc3-59a8-43f4-9318-b74e7adad13c","ios":"levelo://app?vid=722f7dc3-59a8-43f4-9318-b74e7adad13c"},"vehicle_type_id":"4","last_reported":1746436297,"current_range_meters":23200,"station_id":"ce4bhmp2rcd13ifvqgog","pricing_plan_id":"cebpf4jnsgd1na2vs0mg"},{"bike_id":"d3a852b4-655d-4d40-9d50-42e796c56f96","system_id":"levelo_inurba_marseille","lat":43.323564,"lon":5.367566,"is_reserved":false,"is_disabled":false,"rental_uris":{"android":"levelo://app?vid=d3a852b4-655d-4d40-9d50-42e796c56f96","ios":"levelo://app?vid=d3a852b4-655d-4d40-9d50-42e796c56f96"},"vehicle_type_id":"4","last_reported":1746436297,"current_range_meters":23200,"station_id":"ce4bhsh2rcd13ifvqi2g","pricing_plan_id":"cebpf4jnsgd1na2vs0mg"},{"bike_id":"8d3e28b3-4bdd-4386-b4f3-3c26d32ae21f","system_id":"levelo_inurba_marseille","lat":43.3078,"lon":5.37649,"is_reserved":false,"is_disabled":false,"rental_uris":{"android":"levelo://app?vid=8d3e28b3-4bdd-4386-b4f3-3c26d32ae21f","ios":"levelo://app?vid=8d3e28b3-4bdd-4386-b4f3-3c26d32ae21f"},"vehicle_type_id":"4","last_reported":1746436297,"current_range_meters":24000,"station_id":"ce4bgv92rcd13ifvqcq0","pricing_plan_id":"cebpf4jnsgd1na2vs0mg"},{"bike_id":"272c9e2d-d6cf-48ab-9789-b4e82ce29e3f","system_id":"levelo_inurba_marseille","lat":43.29037,"lon":5.37576,"is_reserved":false,"is_disabled":false,"rental_uris":{"android":"levelo://app?vid=272c9e2d-d6cf-48ab-9789-b4e82ce29e3f","ios":"levelo://app?vid=272c9e2d-d6cf-48ab-9789-b4e82ce29e3f"},"vehicle_type_id":"4","last_reported":1746436297,"current_range_meters":24000,"station_id":"ce4bh692rcd13ifvqe90","pricing_plan_id":"cebpf4jnsgd1na2vs0mg"},{"bike_id":"8c9fd3f5-a988-4e2a-8f9d-8d142e1ffbfb","system_id":"levelo_inurba_marseille","lat":43.24171,"lon":5.39735,"is_reserved":false,"is_disabled":false,"rental_uris":{"android":"levelo://app?vid=8c9fd3f5-a988-4e2a-8f9d-8d142e1ffbfb","ios":"levelo://app?vid=8c9fd3f5-a988-4e2a-8f9d-8d142e1ffbfb"},"vehicle_type_id":"4","last_reported":1746436297,"current_range_meters":24000,"station_id":"ce4bhn12rcd13ifvqgpg","pricing_plan_id":"cebpf4jnsgd1na2vs0mg"},{"bike_id":"d0746e70-2da4-497c-8d30-b37b0e2e9c1f","system_id":"levelo_inurba_marseille","lat":43.33609,"lon":5.40988,"is_reserved":false,"is_disabled":false,"rental_uris":{"android":"levelo://app?vid=d0746e70-2da4-497c-8d30-b37b0e2e9c1f","ios":"levelo://app?vid=d0746e70-2da4-497c-8d30-b37b0e2e9c1f"},"vehicle_type_id":"4","last_reported":1746436297,"current_range_meters":24000,"station_id":"ce4bhqh2rcd13ifvqhmg","pricing_plan_id":"cebpf4jnsgd1na2vs0mg"},{"bike_id":"148751d6-27d8-45e7-9c0c-9521addae0ae","system_id":"levelo_inurba_marseille","lat":43.33757,"lon":5.37485,"is_reserved":false,"is_disabled":false,"rental_uris":{"android":"levelo://app?vid=148751d6-27d8-45e7-9c0c-9521addae0ae","ios":"levelo://app?vid=148751d6-27d8-45e7-9c0c-9521addae0ae"},"vehicle_type_id":"4","last_reported":1746436297,"current_range_meters":24400,"station_id":"","pricing_plan_id":"cebpf4jnsgd1na2vs0mg"},{"bike_id":"da65c85e-3469-4885-9f9b-3bbb1ac7b3a5","system_id":"levelo_inurba_marseille","lat":43.30914,"lon":5.37867,"is_reserved":false,"is_disabled":false,"rental_uris":{"android":"levelo://app?vid=da65c85e-3469-4885-9f9b-3bbb1ac7b3a5","ios":"levelo://app?vid=da65c85e-3469-4885-9f9b-3bbb1ac7b3a5"},"vehicle_type_id":"4","last_reported":1746436297,"current_range_meters":24400,"station_id":"","pricing_plan_id":"cebpf4jnsgd1na2vs0mg"},{"bike_id":"3bb772c7-f122-4417-92c6-a4dffeefc2f4","system_id":"levelo_inurba_marseille","lat":43.29832,"lon":5.3739,"is_reserved":false,"is_disabled":false,"rental_uris":{"android":"levelo://app?vid=3bb772c7-f122-4417-92c6-a4dffeefc2f4","ios":"levelo://app?vid=3bb772c7-f122-4417-92c6-a4dffeefc2f4"},"vehicle_type_id":"4","last_reported":1746436297,"current_range_meters":24400,"station_id":"","pricing_plan_id":"cebpf4jnsgd1na2vs0mg"},{"bike_id":"261059fe-9b86-482b-96d4-5b5428eed05e","system_id":"levelo_inurba_marseille","lat":43.28485,"lon":5.38559,"is_reserved":false,"is_disabled":false,"rental_uris":{"android":"levelo://app?vid=261059fe-9b86-482b-96d4-5b5428eed05e","ios":"levelo://app?vid=261059fe-9b86-482b-96d4-5b5428eed05e"},"vehicle_type_id":"4","last_reported":1746436297,"current_range_meters":24400,"station_id":"ce4bh8p2rcd13ifvqeb0","pricing_plan_id":"cebpf4jnsgd1na2vs0mg"},{"bike_id":"0ae2d286-5a26-450b-bbe2-dd031ba0a196","system_id":"levelo_inurba_marseille","lat":43.28936,"lon":5.36638,"is_reserved":false,"is_disabled":false,"rental_uris":{"android":"levelo://app?vid=0ae2d286-5a26-450b-bbe2-dd031ba0a196","ios":"levelo://app?vid=0ae2d286-5a26-450b-bbe2-dd031ba0a196"},"vehicle_type_id":"4","last_reported":1746436297,"current_range_meters":24400,"station_id":"ce4bhap2rcd13ifvqek0","pricing_plan_id":"cebpf4jnsgd1na2vs0mg"},{"bike_id":"751bbba6-1c62-431c-bce7-50c1dacf1b13","system_id":"levelo_inurba_marseille","lat":43.24182,"lon":5.39726,"is_reserved":false,"is_disabled":false,"rental_uris":{"android":"levelo://app?vid=751bbba6-1c62-431c-bce7-50c1dacf1b13","ios":"levelo://app?vid=751bbba6-1c62-431c-bce7-50c1dacf1b13"},"vehicle_type_id":"4","last_reported":1746436297,"current_range_meters":24400,"station_id":"ce4bhn12rcd13ifvqgpg","pricing_plan_id":"cebpf4jnsgd1na2vs0mg"},{"bike_id":"98fc748a-1ad9-4d9f-9350-a12f9f77f748","system_id":"levelo_inurba_marseille","lat":43.2828,"lon":5.43101,"is_reserved":false,"is_disabled":false,"rental_uris":{"android":"levelo://app?vid=98fc748a-1ad9-4d9f-9350-a12f9f77f748","ios":"levelo://app?vid=98fc748a-1ad9-4d9f-9350-a12f9f77f748"},"vehicle_type_id":"4","last_reported":1746436297,"current_range_meters":24400,"station_id":"ce4bhnh2rcd13ifvqgug","pricing_plan_id":"cebpf4jnsgd1na2vs0mg"},{"bike_id":"4596f8f2-e4bf-4794-b21c-acfc3d756e93","system_id":"levelo_inurba_marseille","lat":43.3036,"lon":5.41862,"is_reserved":false,"is_disabled":false,"rental_uris":{"android":"levelo://app?vid=4596f8f2-e4bf-4794-b21c-acfc3d756e93","ios":"levelo://app?vid=4596f8f2-e4bf-4794-b21c-acfc3d756e93"},"vehicle_type_id":"4","last_reported":1746436297,"current_range_meters":24400,"station_id":"ce4bhop2rcd13ifvqh7g","pricing_plan_id":"cebpf4jnsgd1na2vs0mg"},{"bike_id":"cde0fa0e-c4c6-4bc4-a852-f4c917846b32","system_id":"levelo_inurba_marseille","lat":43.23064,"lon":5.35504,"is_reserved":false,"is_disabled":false,"rental_uris":{"android":"levelo://app?vid=cde0fa0e-c4c6-4bc4-a852-f4c917846b32","ios":"levelo://app?vid=cde0fa0e-c4c6-4bc4-a852-f4c917846b32"},"vehicle_type_id":"4","last_reported":1746436297,"current_range_meters":24400,"station_id":"cpo3342slgdg3j2ifvpg","pricing_plan_id":"cebpf4jnsgd1na2vs0mg"},{"bike_id":"638d16bc-c6e8-422e-8907-cb54e849c916","system_id":"levelo_inurba_marseille","lat":43.22929,"lon":5.35378,"is_reserved":false,"is_disabled":false,"rental_uris":{"android":"levelo://app?vid=638d16bc-c6e8-422e-8907-cb54e849c916","ios":"levelo://app?vid=638d16bc-c6e8-422e-8907-cb54e849c916"},"vehicle_type_id":"4","last_reported":1746436297,"current_range_meters":24400,"station_id":"cpo3532slgdg3j2ikp40","pricing_plan_id":"cebpf4jnsgd1na2vs0mg"},{"bike_id":"4e32be63-9d1b-43cc-9b89-7b46a65d9e82","system_id":"levelo_inurba_marseille","lat":43.33794,"lon":5.37436,"is_reserved":false,"is_disabled":false,"rental_uris":{"android":"levelo://app?vid=4e32be63-9d1b-43cc-9b89-7b46a65d9e82","ios":"levelo://app?vid=4e32be63-9d1b-43cc-9b89-7b46a65d9e82"},"vehicle_type_id":"4","last_reported":1746436297,"current_range_meters":24800,"station_id":"","pricing_plan_id":"cebpf4jnsgd1na2vs0mg"},{"bike_id":"360d7ffa-a511-4491-a1c8-a2c84c3224ad","system_id":"levelo_inurba_marseille","lat":43.24394,"lon":5.3705,"is_reserved":false,"is_disabled":false,"rental_uris":{"android":"levelo://app?vid=360d7ffa-a511-4491-a1c8-a2c84c3224ad","ios":"levelo://app?vid=360d7ffa-a511-4491-a1c8-a2c84c3224ad"},"vehicle_type_id":"4","last_reported":1746436297,"current_range_meters":24800,"station_id":"ce4bhhh2rcd13ifvqfk0","pricing_plan_id":"cebpf4jnsgd1na2vs0mg"},{"bike_id":"487b94a4-1bf8-4b53-baf1-f3ea77f8609f","system_id":"levelo_inurba_marseille","lat":43.25932,"lon":5.40905,"is_reserved":false,"is_disabled":false,"rental_uris":{"android":"levelo://app?vid=487b94a4-1bf8-4b53-baf1-f3ea77f8609f","ios":"levelo://app?vid=487b94a4-1bf8-4b53-baf1-f3ea77f8609f"},"vehicle_type_id":"4","last_reported":1746436297,"current_range_meters":24800,"station_id":"ce4bhm92rcd13ifvqglg","pricing_plan_id":"cebpf4jnsgd1na2vs0mg"},{"bike_id":"3ac854ed-ac69-40c3-9017-e41caba1f1e8","system_id":"levelo_inurba_marseille","lat":43.25928,"lon":5.40911,"is_reserved":false,"is_disabled":false,"rental_uris":{"android":"levelo://app?vid=3ac854ed-ac69-40c3-9017-e41caba1f1e8","ios":"levelo://app?vid=3ac854ed-ac69-40c3-9017-e41caba1f1e8"},"vehicle_type_id":"4","last_reported":1746436297,"current_range_meters":24800,"station_id":"ce4bhm92rcd13ifvqglg","pricing_plan_id":"cebpf4jnsgd1na2vs0mg"},{"bike_id":"3a63acc5-b352-4e5e-8ce6-37badecb6507","system_id":"levelo_inurba_marseille","lat":43.29511,"lon":5.41802,"is_reserved":false,"is_disabled":false,"rental_uris":{"android":"levelo://app?vid=3a63acc5-b352-4e5e-8ce6-37badecb6507","ios":"levelo://app?vid=3a63acc5-b352-4e5e-8ce6-37badecb6507"},"vehicle_type_id":"4","last_reported":1746436297,"current_range_meters":25200,"station_id":"","pricing_plan_id":"cebpf4jnsgd1na2vs0mg"},{"bike_id":"57adc66e-e920-4e08-8afe-981da93924a2","system_id":"levelo_inurba_marseille","lat":43.30308,"lon":5.369078,"is_reserved":false,"is_disabled":false,"rental_uris":{"android":"levelo://app?vid=57adc66e-e920-4e08-8afe-981da93924a2","ios":"levelo://app?vid=57adc66e-e920-4e08-8afe-981da93924a2"},"vehicle_type_id":"4","last_reported":1746436297,"current_range_meters":25200,"station_id":"ce4bgqh2rcd13ifvqc5g","pricing_plan_id":"cebpf4jnsgd1na2vs0mg"},{"bike_id":"c0e2eb01-219c-4f4b-9af9-9fb402dea3ab","system_id":"levelo_inurba_marseille","lat":43.3052,"lon":5.36555,"is_reserved":false,"is_disabled":false,"rental_uris":{"android":"levelo://app?vid=c0e2eb01-219c-4f4b-9af9-9fb402dea3ab","ios":"levelo://app?vid=c0e2eb01-219c-4f4b-9af9-9fb402dea3ab"},"vehicle_type_id":"4","last_reported":1746436297,"current_range_meters":25200,"station_id":"ce4bgs12rcd13ifvqcag","pricing_plan_id":"cebpf4jnsgd1na2vs0mg"},{"bike_id":"659e5838-84f1-4410-97e8-b2309c4abf7b","system_id":"levelo_inurba_marseille","lat":43.23967,"lon":5.36626,"is_reserved":false,"is_disabled":false,"rental_uris":{"android":"levelo://app?vid=659e5838-84f1-4410-97e8-b2309c4abf7b","ios":"levelo://app?vid=659e5838-84f1-4410-97e8-b2309c4abf7b"},"vehicle_type_id":"4","last_reported":1746436297,"current_range_meters":25200,"station_id":"ce4bhi12rcd13ifvqfp0","pricing_plan_id":"cebpf4jnsgd1na2vs0mg"},{"bike_id":"d63ae83f-02b7-4956-be89-4dbafa95b24b","system_id":"levelo_inurba_marseille","lat":43.26226,"lon":5.40465,"is_reserved":false,"is_disabled":false,"rental_uris":{"android":"levelo://app?vid=d63ae83f-02b7-4956-be89-4dbafa95b24b","ios":"levelo://app?vid=d63ae83f-02b7-4956-be89-4dbafa95b24b"},"vehicle_type_id":"4","last_reported":1746436297,"current_range_meters":25200,"station_id":"ce4bhmh2rcd13ifvqgmg","pricing_plan_id":"cebpf4jnsgd1na2vs0mg"},{"bike_id":"c0ce5d67-8ae4-4e40-9b47-91c95c628588","system_id":"levelo_inurba_marseille","lat":43.30272,"lon":5.37719,"is_reserved":false,"is_disabled":false,"rental_uris":{"android":"levelo://app?vid=c0ce5d67-8ae4-4e40-9b47-91c95c628588","ios":"levelo://app?vid=c0ce5d67-8ae4-4e40-9b47-91c95c628588"},"vehicle_type_id":"4","last_reported":1746436297,"current_range_meters":25600,"station_id":"ce4bguh2rcd13ifvqcj0","pricing_plan_id":"cebpf4jnsgd1na2vs0mg"},{"bike_id":"2358c113-6c22-4d84-9344-f8e15438da77","system_id":"levelo_inurba_marseille","lat":43.30901,"lon":5.372,"is_reserved":false,"is_disabled":false,"rental_uris":{"android":"levelo://app?vid=2358c113-6c22-4d84-9344-f8e15438da77","ios":"levelo://app?vid=2358c113-6c22-4d84-9344-f8e15438da77"},"vehicle_type_id":"4","last_reported":1746436297,"current_range_meters":25600,"station_id":"ce4bguh2rcd13ifvqckg","pricing_plan_id":"cebpf4jnsgd1na2vs0mg"},{"bike_id":"d97ce0e3-453b-47e3-b4ae-473cfc519c6a","system_id":"levelo_inurba_marseille","lat":43.25017,"lon":5.3893,"is_reserved":false,"is_disabled":false,"rental_uris":{"android":"levelo://app?vid=d97ce0e3-453b-47e3-b4ae-473cfc519c6a","ios":"levelo://app?vid=d97ce0e3-453b-47e3-b4ae-473cfc519c6a"},"vehicle_type_id":"4","last_reported":1746436297,"current_range_meters":25600,"station_id":"ce4bhgp2rcd13ifvqfd0","pricing_plan_id":"cebpf4jnsgd1na2vs0mg"},{"bike_id":"fff0b5d9-79b3-413d-b373-705d9950080a","system_id":"levelo_inurba_marseille","lat":43.23962,"lon":5.36643,"is_reserved":false,"is_disabled":false,"rental_uris":{"android":"levelo://app?vid=fff0b5d9-79b3-413d-b373-705d9950080a","ios":"levelo://app?vid=fff0b5d9-79b3-413d-b373-705d9950080a"},"vehicle_type_id":"4","last_reported":1746436297,"current_range_meters":25600,"station_id":"ce4bhi12rcd13ifvqfp0","pricing_plan_id":"cebpf4jnsgd1na2vs0mg"},{"bike_id":"42bae21e-c9ac-4ffb-ad76-b64a7c64a0bc","system_id":"levelo_inurba_marseille","lat":43.2593,"lon":5.40878,"is_reserved":false,"is_disabled":false,"rental_uris":{"android":"levelo://app?vid=42bae21e-c9ac-4ffb-ad76-b64a7c64a0bc","ios":"levelo://app?vid=42bae21e-c9ac-4ffb-ad76-b64a7c64a0bc"},"vehicle_type_id":"4","last_reported":1746436297,"current_range_meters":25600,"station_id":"ce4bhm92rcd13ifvqglg","pricing_plan_id":"cebpf4jnsgd1na2vs0mg"},{"bike_id":"263a83ed-935f-4bf3-b525-7769c2b5441c","system_id":"levelo_inurba_marseille","lat":43.27494,"lon":5.42447,"is_reserved":false,"is_disabled":false,"rental_uris":{"android":"levelo://app?vid=263a83ed-935f-4bf3-b525-7769c2b5441c","ios":"levelo://app?vid=263a83ed-935f-4bf3-b525-7769c2b5441c"},"vehicle_type_id":"4","last_reported":1746436297,"current_range_meters":25600,"station_id":"ce4bhn92rcd13ifvqgrg","pricing_plan_id":"cebpf4jnsgd1na2vs0mg"},{"bike_id":"7437c8be-5d8a-460b-82ae-6bd48b9a0624","system_id":"levelo_inurba_marseille","lat":43.2407,"lon":5.37757,"is_reserved":false,"is_disabled":false,"rental_uris":{"android":"levelo://app?vid=7437c8be-5d8a-460b-82ae-6bd48b9a0624","ios":"levelo://app?vid=7437c8be-5d8a-460b-82ae-6bd48b9a0624"},"vehicle_type_id":"4","last_reported":1746436297,"current_range_meters":25600,"station_id":"ce4bhnp2rcd13ifvqgvg","pricing_plan_id":"cebpf4jnsgd1na2vs0mg"},{"bike_id":"6f10c397-2fb9-4802-915f-b2f2dce9e14a","system_id":"levelo_inurba_marseille","lat":43.230501,"lon":5.354976,"is_reserved":false,"is_disabled":false,"rental_uris":{"android":"levelo://app?vid=6f10c397-2fb9-4802-915f-b2f2dce9e14a","ios":"levelo://app?vid=6f10c397-2fb9-4802-915f-b2f2dce9e14a"},"vehicle_type_id":"4","last_reported":1746436297,"current_range_meters":25600,"station_id":"cpo3342slgdg3j2ifvpg","pricing_plan_id":"cebpf4jnsgd1na2vs0mg"},{"bike_id":"e3a2eeed-26a7-4c64-8ce8-4dbe25442ead","system_id":"levelo_inurba_marseille","lat":43.305474,"lon":5.365554,"is_reserved":false,"is_disabled":false,"rental_uris":{"android":"levelo://app?vid=e3a2eeed-26a7-4c64-8ce8-4dbe25442ead","ios":"levelo://app?vid=e3a2eeed-26a7-4c64-8ce8-4dbe25442ead"},"vehicle_type_id":"4","last_reported":1746436297,"current_range_meters":26000,"station_id":"ce4bgs12rcd13ifvqcag","pricing_plan_id":"cebpf4jnsgd1na2vs0mg"},{"bike_id":"c69991f3-dda3-4dd3-a12b-01b8eca30e21","system_id":"levelo_inurba_marseille","lat":43.29527,"lon":5.39397,"is_reserved":false,"is_disabled":false,"rental_uris":{"android":"levelo://app?vid=c69991f3-dda3-4dd3-a12b-01b8eca30e21","ios":"levelo://app?vid=c69991f3-dda3-4dd3-a12b-01b8eca30e21"},"vehicle_type_id":"4","last_reported":1746436297,"current_range_meters":26000,"station_id":"ce4bh292rcd13ifvqdf0","pricing_plan_id":"cebpf4jnsgd1na2vs0mg"},{"bike_id":"898b7f06-0cd1-4467-b34f-ff3e2337a121","system_id":"levelo_inurba_marseille","lat":43.29411,"lon":5.38623,"is_reserved":false,"is_disabled":false,"rental_uris":{"android":"levelo://app?vid=898b7f06-0cd1-4467-b34f-ff3e2337a121","ios":"levelo://app?vid=898b7f06-0cd1-4467-b34f-ff3e2337a121"},"vehicle_type_id":"4","last_reported":1746436297,"current_range_meters":26000,"station_id":"ce4bh2h2rcd13ifvqdh0","pricing_plan_id":"cebpf4jnsgd1na2vs0mg"},{"bike_id":"1ab0377b-e424-4aa2-b1bc-1b325e475219","system_id":"levelo_inurba_marseille","lat":43.294123,"lon":5.386249,"is_reserved":false,"is_disabled":false,"rental_uris":{"android":"levelo://app?vid=1ab0377b-e424-4aa2-b1bc-1b325e475219","ios":"levelo://app?vid=1ab0377b-e424-4aa2-b1bc-1b325e475219"},"vehicle_type_id":"4","last_reported":1746436297,"current_range_meters":26000,"station_id":"ce4bh2h2rcd13ifvqdh0","pricing_plan_id":"cebpf4jnsgd1na2vs0mg"},{"bike_id":"eef04890-9c04-4bc0-852f-809c4b5ae988","system_id":"levelo_inurba_marseille","lat":43.23962,"lon":5.36623,"is_reserved":false,"is_disabled":false,"rental_uris":{"android":"levelo://app?vid=eef04890-9c04-4bc0-852f-809c4b5ae988","ios":"levelo://app?vid=eef04890-9c04-4bc0-852f-809c4b5ae988"},"vehicle_type_id":"4","last_reported":1746436297,"current_range_meters":26000,"station_id":"ce4bhi12rcd13ifvqfp0","pricing_plan_id":"cebpf4jnsgd1na2vs0mg"},{"bike_id":"0aa5b90f-550a-4efd-9bbc-22b1b2133141","system_id":"levelo_inurba_marseille","lat":43.27103,"lon":5.42254,"is_reserved":false,"is_disabled":false,"rental_uris":{"android":"levelo://app?vid=0aa5b90f-550a-4efd-9bbc-22b1b2133141","ios":"levelo://app?vid=0aa5b90f-550a-4efd-9bbc-22b1b2133141"},"vehicle_type_id":"4","last_reported":1746436297,"current_range_meters":26000,"station_id":"ce4bhk92rcd13ifvqgb0","pricing_plan_id":"cebpf4jnsgd1na2vs0mg"},{"bike_id":"977f4bb4-3d44-493d-b5a1-22093907125a","system_id":"levelo_inurba_marseille","lat":43.27091,"lon":5.42273,"is_reserved":false,"is_disabled":false,"rental_uris":{"android":"levelo://app?vid=977f4bb4-3d44-493d-b5a1-22093907125a","ios":"levelo://app?vid=977f4bb4-3d44-493d-b5a1-22093907125a"},"vehicle_type_id":"4","last_reported":1746436297,"current_range_meters":26000,"station_id":"ce4bhk92rcd13ifvqgb0","pricing_plan_id":"cebpf4jnsgd1na2vs0mg"},{"bike_id":"f8b0b83e-3275-4842-8279-54953a201dd7","system_id":"levelo_inurba_marseille","lat":43.262348,"lon":5.404508,"is_reserved":false,"is_disabled":false,"rental_uris":{"android":"levelo://app?vid=f8b0b83e-3275-4842-8279-54953a201dd7","ios":"levelo://app?vid=f8b0b83e-3275-4842-8279-54953a201dd7"},"vehicle_type_id":"4","last_reported":1746436297,"current_range_meters":26000,"station_id":"ce4bhmh2rcd13ifvqgmg","pricing_plan_id":"cebpf4jnsgd1na2vs0mg"},{"bike_id":"36453c9c-3388-461c-a3a2-007d8dcd5103","system_id":"levelo_inurba_marseille","lat":43.28151,"lon":5.42644,"is_reserved":false,"is_disabled":false,"rental_uris":{"android":"levelo://app?vid=36453c9c-3388-461c-a3a2-007d8dcd5103","ios":"levelo://app?vid=36453c9c-3388-461c-a3a2-007d8dcd5103"},"vehicle_type_id":"4","last_reported":1746436297,"current_range_meters":26000,"station_id":"ce4bhnh2rcd13ifvqgug","pricing_plan_id":"cebpf4jnsgd1na2vs0mg"},{"bike_id":"dad9cc11-f513-488b-b44c-129a23cfcc6a","system_id":"levelo_inurba_marseille","lat":43.24079,"lon":5.37755,"is_reserved":false,"is_disabled":false,"rental_uris":{"android":"levelo://app?vid=dad9cc11-f513-488b-b44c-129a23cfcc6a","ios":"levelo://app?vid=dad9cc11-f513-488b-b44c-129a23cfcc6a"},"vehicle_type_id":"4","last_reported":1746436297,"current_range_meters":26000,"station_id":"ce4bhnp2rcd13ifvqgvg","pricing_plan_id":"cebpf4jnsgd1na2vs0mg"},{"bike_id":"483933ff-09be-4f5b-83bc-4ce5689fa8fd","system_id":"levelo_inurba_marseille","lat":43.30142,"lon":5.38095,"is_reserved":false,"is_disabled":false,"rental_uris":{"android":"levelo://app?vid=483933ff-09be-4f5b-83bc-4ce5689fa8fd","ios":"levelo://app?vid=483933ff-09be-4f5b-83bc-4ce5689fa8fd"},"vehicle_type_id":"4","last_reported":1746436297,"current_range_meters":26800,"station_id":"ce4bgjp2rcd13ifvqbh0","pricing_plan_id":"cebpf4jnsgd1na2vs0mg"},{"bike_id":"03f6e2e1-54f9-4ce4-9521-e436ff5d3df5","system_id":"levelo_inurba_marseille","lat":43.31113,"lon":5.37767,"is_reserved":false,"is_disabled":false,"rental_uris":{"android":"levelo://app?vid=03f6e2e1-54f9-4ce4-9521-e436ff5d3df5","ios":"levelo://app?vid=03f6e2e1-54f9-4ce4-9521-e436ff5d3df5"},"vehicle_type_id":"4","last_reported":1746436297,"current_range_meters":26800,"station_id":"ce4bgt92rcd13ifvqcg0","pricing_plan_id":"cebpf4jnsgd1na2vs0mg"},{"bike_id":"20d59450-29ad-4de5-9bff-bdf6ea52ee93","system_id":"levelo_inurba_marseille","lat":43.297443,"lon":5.380805,"is_reserved":false,"is_disabled":false,"rental_uris":{"android":"levelo://app?vid=20d59450-29ad-4de5-9bff-bdf6ea52ee93","ios":"levelo://app?vid=20d59450-29ad-4de5-9bff-bdf6ea52ee93"},"vehicle_type_id":"4","last_reported":1746436297,"current_range_meters":26800,"station_id":"ce4bgvh2rcd13ifvqcs0","pricing_plan_id":"cebpf4jnsgd1na2vs0mg"},{"bike_id":"7f67722e-78f1-47de-b5db-981534f82029","system_id":"levelo_inurba_marseille","lat":43.29226,"lon":5.36072,"is_reserved":false,"is_disabled":false,"rental_uris":{"android":"levelo://app?vid=7f67722e-78f1-47de-b5db-981534f82029","ios":"levelo://app?vid=7f67722e-78f1-47de-b5db-981534f82029"},"vehicle_type_id":"4","last_reported":1746436297,"current_range_meters":26800,"station_id":"ce4bhbh2rcd13ifvqeqg","pricing_plan_id":"cebpf4jnsgd1na2vs0mg"},{"bike_id":"fe297b24-dcdc-4fc2-a17d-fc41f65c6df3","system_id":"levelo_inurba_marseille","lat":43.23963,"lon":5.36635,"is_reserved":false,"is_disabled":false,"rental_uris":{"android":"levelo://app?vid=fe297b24-dcdc-4fc2-a17d-fc41f65c6df3","ios":"levelo://app?vid=fe297b24-dcdc-4fc2-a17d-fc41f65c6df3"},"vehicle_type_id":"4","last_reported":1746436297,"current_range_meters":26800,"station_id":"ce4bhi12rcd13ifvqfp0","pricing_plan_id":"cebpf4jnsgd1na2vs0mg"},{"bike_id":"66eddbaa-84f8-4a9f-ab63-e426e160b1f6","system_id":"levelo_inurba_marseille","lat":43.259227,"lon":5.408731,"is_reserved":false,"is_disabled":false,"rental_uris":{"android":"levelo://app?vid=66eddbaa-84f8-4a9f-ab63-e426e160b1f6","ios":"levelo://app?vid=66eddbaa-84f8-4a9f-ab63-e426e160b1f6"},"vehicle_type_id":"4","last_reported":1746436297,"current_range_meters":26800,"station_id":"ce4bhm92rcd13ifvqglg","pricing_plan_id":"cebpf4jnsgd1na2vs0mg"},{"bike_id":"5eaeb7fe-4bc8-400f-98ed-44118c6d07dc","system_id":"levelo_inurba_marseille","lat":43.28144,"lon":5.42651,"is_reserved":false,"is_disabled":false,"rental_uris":{"android":"levelo://app?vid=5eaeb7fe-4bc8-400f-98ed-44118c6d07dc","ios":"levelo://app?vid=5eaeb7fe-4bc8-400f-98ed-44118c6d07dc"},"vehicle_type_id":"4","last_reported":1746436297,"current_range_meters":26800,"station_id":"ce4bhnh2rcd13ifvqgug","pricing_plan_id":"cebpf4jnsgd1na2vs0mg"},{"bike_id":"79b06513-1be3-43fd-a1aa-b7c7c6c1c8db","system_id":"levelo_inurba_marseille","lat":43.308026,"lon":5.435294,"is_reserved":false,"is_disabled":false,"rental_uris":{"android":"levelo://app?vid=79b06513-1be3-43fd-a1aa-b7c7c6c1c8db","ios":"levelo://app?vid=79b06513-1be3-43fd-a1aa-b7c7c6c1c8db"},"vehicle_type_id":"4","last_reported":1746436297,"current_range_meters":26800,"station_id":"ce4bhph2rcd13ifvqheg","pricing_plan_id":"cebpf4jnsgd1na2vs0mg"},{"bike_id":"16d0fd0d-86f9-4820-9329-94154b983266","system_id":"levelo_inurba_marseille","lat":43.29565,"lon":5.37522,"is_reserved":false,"is_disabled":false,"rental_uris":{"android":"levelo://app?vid=16d0fd0d-86f9-4820-9329-94154b983266","ios":"levelo://app?vid=16d0fd0d-86f9-4820-9329-94154b983266"},"vehicle_type_id":"4","last_reported":1746436297,"current_range_meters":27200,"station_id":"ce4bgh92rcd13ifvqb50","pricing_plan_id":"cebpf4jnsgd1na2vs0mg"},{"bike_id":"2c4db04e-25c1-4071-95aa-26430d82a8bb","system_id":"levelo_inurba_marseille","lat":43.30905,"lon":5.36859,"is_reserved":false,"is_disabled":false,"rental_uris":{"android":"levelo://app?vid=2c4db04e-25c1-4071-95aa-26430d82a8bb","ios":"levelo://app?vid=2c4db04e-25c1-4071-95aa-26430d82a8bb"},"vehicle_type_id":"4","last_reported":1746436297,"current_range_meters":27200,"station_id":"ce4bgn92rcd13ifvqbvg","pricing_plan_id":"cebpf4jnsgd1na2vs0mg"},{"bike_id":"559c0644-c43e-4040-ba42-79580febc08d","system_id":"levelo_inurba_marseille","lat":43.24406,"lon":5.37063,"is_reserved":false,"is_disabled":false,"rental_uris":{"android":"levelo://app?vid=559c0644-c43e-4040-ba42-79580febc08d","ios":"levelo://app?vid=559c0644-c43e-4040-ba42-79580febc08d"},"vehicle_type_id":"4","last_reported":1746436297,"current_range_meters":27200,"station_id":"ce4bhhh2rcd13ifvqfk0","pricing_plan_id":"cebpf4jnsgd1na2vs0mg"},{"bike_id":"5b8d7de3-fd62-401b-aec2-45345a28ccf9","system_id":"levelo_inurba_marseille","lat":43.25949,"lon":5.40884,"is_reserved":false,"is_disabled":false,"rental_uris":{"android":"levelo://app?vid=5b8d7de3-fd62-401b-aec2-45345a28ccf9","ios":"levelo://app?vid=5b8d7de3-fd62-401b-aec2-45345a28ccf9"},"vehicle_type_id":"4","last_reported":1746436297,"current_range_meters":27200,"station_id":"ce4bhm92rcd13ifvqglg","pricing_plan_id":"cebpf4jnsgd1na2vs0mg"},{"bike_id":"89a87ac7-bc3b-476b-9481-69c3b8e589cc","system_id":"levelo_inurba_marseille","lat":43.28497,"lon":5.37081,"is_reserved":false,"is_disabled":false,"rental_uris":{"android":"levelo://app?vid=89a87ac7-bc3b-476b-9481-69c3b8e589cc","ios":"levelo://app?vid=89a87ac7-bc3b-476b-9481-69c3b8e589cc"},"vehicle_type_id":"4","last_reported":1746436297,"current_range_meters":27600,"station_id":"","pricing_plan_id":"cebpf4jnsgd1na2vs0mg"},{"bike_id":"a876d96f-1e3c-4077-bb45-07e8780101eb","system_id":"levelo_inurba_marseille","lat":43.337444,"lon":5.374475,"is_reserved":false,"is_disabled":false,"rental_uris":{"android":"levelo://app?vid=a876d96f-1e3c-4077-bb45-07e8780101eb","ios":"levelo://app?vid=a876d96f-1e3c-4077-bb45-07e8780101eb"},"vehicle_type_id":"4","last_reported":1746436297,"current_range_meters":27600,"station_id":"","pricing_plan_id":"cebpf4jnsgd1na2vs0mg"},{"bike_id":"97b81e5c-adb6-4316-908f-82cb8bcc9226","system_id":"levelo_inurba_marseille","lat":43.31256,"lon":5.36844,"is_reserved":false,"is_disabled":false,"rental_uris":{"android":"levelo://app?vid=97b81e5c-adb6-4316-908f-82cb8bcc9226","ios":"levelo://app?vid=97b81e5c-adb6-4316-908f-82cb8bcc9226"},"vehicle_type_id":"4","last_reported":1746436297,"current_range_meters":27600,"station_id":"ce4bgl92rcd13ifvqbq0","pricing_plan_id":"cebpf4jnsgd1na2vs0mg"},{"bike_id":"018f8072-7ff7-48cb-a65a-db7663e8276d","system_id":"levelo_inurba_marseille","lat":43.30536,"lon":5.36716,"is_reserved":false,"is_disabled":false,"rental_uris":{"android":"levelo://app?vid=018f8072-7ff7-48cb-a65a-db7663e8276d","ios":"levelo://app?vid=018f8072-7ff7-48cb-a65a-db7663e8276d"},"vehicle_type_id":"4","last_reported":1746436297,"current_range_meters":27600,"station_id":"ce4bgrp2rcd13ifvqc9g","pricing_plan_id":"cebpf4jnsgd1na2vs0mg"},{"bike_id":"b764f0e5-d4b1-4174-8962-0bf637d62269","system_id":"levelo_inurba_marseille","lat":43.24372,"lon":5.37068,"is_reserved":false,"is_disabled":false,"rental_uris":{"android":"levelo://app?vid=b764f0e5-d4b1-4174-8962-0bf637d62269","ios":"levelo://app?vid=b764f0e5-d4b1-4174-8962-0bf637d62269"},"vehicle_type_id":"4","last_reported":1746436297,"current_range_meters":27600,"station_id":"ce4bhhh2rcd13ifvqfk0","pricing_plan_id":"cebpf4jnsgd1na2vs0mg"},