{"last_updated":1736096839,"ttl":60,"version":"2.2","data":{"bikes":[{"bike_id":"8f29603c-5d9a-4bc6-963d-711ada2a168a","system_id":"levelo_inurba_marseille","lat":43.24674,"lon":5.39845,"is_reserved":false,"is_disabled":true,"rental_uris":{"android":"levelo://app?vid=8f29603c-5d9a-4bc6-963d-711ada2a168a","ios":"levelo://app?vid=8f29603c-5d9a-4bc6-963d-711ada2a168a"},"vehicle_type_id":"4","last_reported":1736096839,"current_range_meters":24400,"station_id":"","pricing_plan_id":"cebpf4jnsgd1na2vs0mg"},{"bike_id":"40eeb1ed-6809-4bd7-9cbb-64266caaffeb","system_id":"levelo_inurba_marseille","lat":43.2991,"lon":5.37466,"is_reserved":false,"is_disabled":false,"rental_uris":{"android":"levelo://app?vid=40eeb1ed-6809-4bd7-9cbb-64266caaffeb","ios":"levelo://app?vid=40eeb1ed-6809-4bd7-9cbb-64266caaffeb"},"vehicle_type_id":"4","last_reported":1736096839,"current_range_meters":14400,"station_id":"ce4bgjh2rcd13ifvqbg0","pricing_plan_id":"cebpf4jnsgd1na2vs0mg"},{"bike_id":"61862f98-319b-484e-8670-22bf99e01e97","system_id":"levelo_inurba_marseille","lat":43.28926,"lon":5.36635,"is_reserved":false,"is_disabled":true,"rental_uris":{"android":"levelo://app?vid=61862f98-319b-484e-8670-22bf99e01e97","ios":"levelo://app?vid=61862f98-319b-484e-8670-22bf99e01e97"},"vehicle_type_id":"4","last_reported":1736096839,"current_range_meters":1200,"station_id":"ce4bhap2rcd13ifvqek0","pricing_plan_id":"cebpf4jnsgd1na2vs0mg"},{"bike_id":"6f3c8be9-e0de-46af-ada4-22ade12b6a11","system_id":"levelo_inurba_marseille","lat":43.28184,"lon":5.39137,"is_reserved":false,"is_disabled":false,"rental_uris":{"android":"levelo://app?vid=6f3c8be9-e0de-46af-ada4-22ade12b6a11","ios":"levelo://app?vid=6f3c8be9-e0de-46af-ada4-22ade12b6a11"},"vehicle_type_id":"4","last_reported":1736096839,"current_range_meters":26800,"station_id":"","pricing_plan_id":"cebpf4jnsgd1na2vs0mg"},{"bike_id":"2ed8c4e4-ced9-4017-8c96-f62f7cde9268","system_id":"levelo_inurba_marseille","lat":43.28644,"lon":5.35147,"is_reserved":false,"is_disabled":false,"rental_uris":{"android":"levelo://app?vid=2ed8c4e4-ced9-4017-8c96-f62f7cde9268","ios":"levelo://app?vid=2ed8c4e4-ced9-4017-8c96-f62f7cde9268"},"vehicle_type_id":"4","last_reported":1736096839,"current_range_meters":29600,"station_id":"ce4bhoh2rcd13ifvqh6g","pricing_plan_id":"cebpf4jnsgd1na2vs0mg"},{"bike_id":"e3e01ea7-289d-4965-87f5-e93c2c21227a","system_id":"levelo_inurba_marseille","lat":43.26942,"lon":5.40253,"is_reserved":false,"is_disabled":false,"rental_uris":{"android":"levelo://app?vid=e3e01ea7-289d-4965-87f5-e93c2c21227a","ios":"levelo://app?vid=e3e01ea7-289d-4965-87f5-e93c2c21227a"},"vehicle_type_id":"4","last_reported":1736096839,"current_range_meters":24800,"station_id":"cjm6bp8fraef2m0cb0m0","pricing_plan_id":"cebpf4jnsgd1na2vs0mg"},{"bike_id":"5dc11390-059b-4136-9f1a-189200cf304c","system_id":"levelo_inurba_marseille","lat":43.299393,"lon":5.365342,"is_reserved":false,"is_disabled":true,"rental_uris":{"android":"levelo://app?vid=5dc11390-059b-4136-9f1a-189200cf304c","ios":"levelo://app?vid=5dc11390-059b-4136-9f1a-189200cf304c"},"vehicle_type_id":"4","last_reported":1736096839,"current_range_meters":38800,"station_id":"ce4bgm92rcd13ifvqbr0","pricing_plan_id":"cebpf4jnsgd1na2vs0mg"},{"bike_id":"0153ae28-9422-4039-87f8-952c80b8c9cc","system_id":"levelo_inurba_marseille","lat":43.27335,"lon":5.39103,"is_reserved":false,"is_disabled":true,"rental_uris":{"android":"levelo://app?vid=0153ae28-9422-4039-87f8-952c80b8c9cc","ios":"levelo://app?vid=0153ae28-9422-4039-87f8-952c80b8c9cc"},"vehicle_type_id":"4","last_reported":1736096839,"current_range_meters":38800,"station_id":"ce4bhgp2rcd13ifvqfe0","pricing_plan_id":"cebpf4jnsgd1na2vs0mg"},{"bike_id":"f5830b69-d383-447b-b95c-bd2e00cc0251","system_id":"levelo_inurba_marseille","lat":43.30796,"lon":5.43521,"is_reserved":false,"is_disabled":false,"rental_uris":{"android":"levelo://app?vid=f5830b69-d383-447b-b95c-bd2e00cc0251","ios":"levelo://app?vid=f5830b69-d383-447b-b95c-bd2e00cc0251"},"vehicle_type_id":"4","last_reported":1736096839,"current_range_meters":20800,"station_id":"ce4bhph2rcd13ifvqheg","pricing_plan_id":"cebpf4jnsgd1na2vs0mg"},{"bike_id":"b95f11e6-ffe4-4d44-8b40-3307d5ef5fe0","system_id":"levelo_inurba_marseille","lat":43.24807,"lon":5.37464,"is_reserved":false,"is_disabled":false,"rental_uris":{"android":"levelo://app?vid=b95f11e6-ffe4-4d44-8b40-3307d5ef5fe0","ios":"levelo://app?vid=b95f11e6-ffe4-4d44-8b40-3307d5ef5fe0"},"vehicle_type_id":"4","last_reported":1736096839,"current_range_meters":32800,"station_id":"ce4bhgh2rcd13ifvqfb0","pricing_plan_id":"cebpf4jnsgd1na2vs0mg"},{"bike_id":"55b34b14-e5ed-4cdc-888b-bd8e567df7ba","system_id":"levelo_inurba_marseille","lat":43.31275,"lon":5.40155,"is_reserved":false,"is_disabled":false,"rental_uris":{"android":"levelo://app?vid=55b34b14-e5ed-4cdc-888b-bd8e567df7ba","ios":"levelo://app?vid=55b34b14-e5ed-4cdc-888b-bd8e567df7ba"},"vehicle_type_id":"4","last_reported":1736096839,"current_range_meters":26800,"station_id":"ce4bh092rcd13ifvqd30","pricing_plan_id":"cebpf4jnsgd1na2vs0mg"},{"bike_id":"82c4d105-b076-414c-8e86-9ffcf5003394","system_id":"levelo_inurba_marseille","lat":43.28701,"lon":5.37393,"is_reserved":false,"is_disabled":false,"rental_uris":{"android":"levelo://app?vid=82c4d105-b076-414c-8e86-9ffcf5003394","ios":"levelo://app?vid=82c4d105-b076-414c-8e86-9ffcf5003394"},"vehicle_type_id":"4","last_reported":1736096839,"current_range_meters":38800,"station_id":"ce4bh3p2rcd13ifvqdq0","pricing_plan_id":"cebpf4jnsgd1na2vs0mg"},{"bike_id":"7bc55edd-0101-45f4-b732-66463b53833d","system_id":"levelo_inurba_marseille","lat":43.28723,"lon":5.37935,"is_reserved":false,"is_disabled":false,"rental_uris":{"android":"levelo://app?vid=7bc55edd-0101-45f4-b732-66463b53833d","ios":"levelo://app?vid=7bc55edd-0101-45f4-b732-66463b53833d"},"vehicle_type_id":"4","last_reported":1736096839,"current_range_meters":16400,"station_id":"ce4bh9p2rcd13ifvqec0","pricing_plan_id":"cebpf4jnsgd1na2vs0mg"},{"bike_id":"324132e6-0835-454f-9eca-5fe91d84692b","system_id":"levelo_inurba_marseille","lat":43.25089,"lon":5.39503,"is_reserved":false,"is_disabled":false,"rental_uris":{"android":"levelo://app?vid=324132e6-0835-454f-9eca-5fe91d84692b","ios":"levelo://app?vid=324132e6-0835-454f-9eca-5fe91d84692b"},"vehicle_type_id":"4","last_reported":1736096839,"current_range_meters":36800,"station_id":"ce4bhm12rcd13ifvqgkg","pricing_plan_id":"cebpf4jnsgd1na2vs0mg"},{"bike_id":"bcf0bc77-feb4-4e25-93da-4721812265a5","system_id":"levelo_inurba_marseille","lat":43.29841,"lon":5.36292,"is_reserved":false,"is_disabled":false,"rental_uris":{"android":"levelo://app?vid=bcf0bc77-feb4-4e25-93da-4721812265a5","ios":"levelo://app?vid=bcf0bc77-feb4-4e25-93da-4721812265a5"},"vehicle_type_id":"4","last_reported":1736096839,"current_range_meters":38800,"station_id":"ce4bgpp2rcd13ifvqc3g","pricing_plan_id":"cebpf4jnsgd1na2vs0mg"},{"bike_id":"6472811d-3271-47fd-ab5b-7ce7395e86b4","system_id":"levelo_inurba_marseille","lat":43.27938,"lon":5.41048,"is_reserved":false,"is_disabled":false,"rental_uris":{"android":"levelo://app?vid=6472811d-3271-47fd-ab5b-7ce7395e86b4","ios":"levelo://app?vid=6472811d-3271-47fd-ab5b-7ce7395e86b4"},"vehicle_type_id":"4","last_reported":1736096839,"current_range_meters":16400,"station_id":"ce4bhnp2rcd13ifvqh0g","pricing_plan_id":"cebpf4jnsgd1na2vs0mg"},{"bike_id":"ac16baa7-b647-47c2-a7d2-e1343d5be928","system_id":"levelo_inurba_marseille","lat":43.28462,"lon":5.35887,"is_reserved":false,"is_disabled":false,"rental_uris":{"android":"levelo://app?vid=ac16baa7-b647-47c2-a7d2-e1343d5be928","ios":"levelo://app?vid=ac16baa7-b647-47c2-a7d2-e1343d5be928"},"vehicle_type_id":"4","last_reported":1736096839,"current_range_meters":32000,"station_id":"ce4bhah2rcd13ifvqei0","pricing_plan_id":"cebpf4jnsgd1na2vs0mg"},{"bike_id":"cfa9ca20-27d4-44a2-a7d9-d2b75ed2f4ac","system_id":"levelo_inurba_marseille","lat":43.31072,"lon":5.38348,"is_reserved":false,"is_disabled":true,"rental_uris":{"android":"levelo://app?vid=cfa9ca20-27d4-44a2-a7d9-d2b75ed2f4ac","ios":"levelo://app?vid=cfa9ca20-27d4-44a2-a7d9-d2b75ed2f4ac"},"vehicle_type_id":"4","last_reported":1736096839,"current_range_meters":6400,"station_id":"ce4bgv92rcd13ifvqcr0","pricing_plan_id":"cebpf4jnsgd1na2vs0mg"},{"bike_id":"2e3020fc-739e-484f-aff1-968aa18f2ac1","system_id":"levelo_inurba_marseille","lat":43.279906,"lon":5.416541,"is_reserved":false,"is_disabled":true,"rental_uris":{"android":"levelo://app?vid=2e3020fc-739e-484f-aff1-968aa18f2ac1","ios":"levelo://app?vid=2e3020fc-739e-484f-aff1-968aa18f2ac1"},"vehicle_type_id":"4","last_reported":1736096839,"current_range_meters":3600,"station_id":"ce4bho12rcd13ifvqh1g","pricing_plan_id":"cebpf4jnsgd1na2vs0mg"},{"bike_id":"86416e72-55c0-4422-bf31-0e07a54085f5","system_id":"levelo_inurba_marseille","lat":43.279992,"lon":5.387365,"is_reserved":false,"is_disabled":false,"rental_uris":{"android":"levelo://app?vid=86416e72-55c0-4422-bf31-0e07a54085f5","ios":"levelo://app?vid=86416e72-55c0-4422-bf31-0e07a54085f5"},"vehicle_type_id":"4","last_reported":1736096839,"current_range_meters":16400,"station_id":"ce4bhg12rcd13ifvqf80","pricing_plan_id":"cebpf4jnsgd1na2vs0mg"},{"bike_id":"a0adb3c4-caf9-464d-8f3e-6b5be1eb9699","system_id":"levelo_inurba_marseille","lat":43.25106,"lon":5.40335,"is_reserved":false,"is_disabled":false,"rental_uris":{"android":"levelo://app?vid=a0adb3c4-caf9-464d-8f3e-6b5be1eb9699","ios":"levelo://app?vid=a0adb3c4-caf9-464d-8f3e-6b5be1eb9699"},"vehicle_type_id":"4","last_reported":1736096839,"current_range_meters":39200,"station_id":"ce4bhlh2rcd13ifvqgig","pricing_plan_id":"cebpf4jnsgd1na2vs0mg"},{"bike_id":"593d8424-f565-422e-8480-e0f50e2c043e","system_id":"levelo_inurba_marseille","lat":43.27972,"lon":5.38701,"is_reserved":false,"is_disabled":true,"rental_uris":{"android":"levelo://app?vid=593d8424-f565-422e-8480-e0f50e2c043e","ios":"levelo://app?vid=593d8424-f565-422e-8480-e0f50e2c043e"},"vehicle_type_id":"4","last_reported":1736096839,"current_range_meters":32800,"station_id":"ce4bhg12rcd13ifvqf80","pricing_plan_id":"cebpf4jnsgd1na2vs0mg"},{"bike_id":"a944f865-f260-4d6e-8bfb-34b22d4c0ecd","system_id":"levelo_inurba_marseille","lat":43.30182,"lon":5.36625,"is_reserved":false,"is_disabled":true,"rental_uris":{"android":"levelo://app?vid=a944f865-f260-4d6e-8bfb-34b22d4c0ecd","ios":"levelo://app?vid=a944f865-f260-4d6e-8bfb-34b22d4c0ecd"},"vehicle_type_id":"4","last_reported":1736096839,"current_range_meters":30000,"station_id":"ce4bgrh2rcd13ifvqc8g","pricing_plan_id":"cebpf4jnsgd1na2vs0mg"},{"bike_id":"879a6fca-90cf-47a4-b8a4-6680ac87207d","system_id":"levelo_inurba_marseille","lat":43.28685,"lon":5.38642,"is_reserved":false,"is_disabled":false,"rental_uris":{"android":"levelo://app?vid=879a6fca-90cf-47a4-b8a4-6680ac87207d","ios":"levelo://app?vid=879a6fca-90cf-47a4-b8a4-6680ac87207d"},"vehicle_type_id":"4","last_reported":1736096839,"current_range_meters":33200,"station_id":"ce4bh492rcd13ifvqdug","pricing_plan_id":"cebpf4jnsgd1na2vs0mg"},{"bike_id":"8cedb5f8-5cfb-4488-a7c9-0d6b8e79581b","system_id":"levelo_inurba_marseille","lat":43.30911,"lon":5.36845,"is_reserved":false,"is_disabled":false,"rental_uris":{"android":"levelo://app?vid=8cedb5f8-5cfb-4488-a7c9-0d6b8e79581b","ios":"levelo://app?vid=8cedb5f8-5cfb-4488-a7c9-0d6b8e79581b"},"vehicle_type_id":"4","last_reported":1736096839,"current_range_meters":38400,"station_id":"ce4bgn92rcd13ifvqbvg","pricing_plan_id":"cebpf4jnsgd1na2vs0mg"},{"bike_id":"3fc1bea2-3a91-4553-a9f8-fb63e219baa9","system_id":"levelo_inurba_marseille","lat":43.3133,"lon":5.39692,"is_reserved":false,"is_disabled":false,"rental_uris":{"android":"levelo://app?vid=3fc1bea2-3a91-4553-a9f8-fb63e219baa9","ios":"levelo://app?vid=3fc1bea2-3a91-4553-a9f8-fb63e219baa9"},"vehicle_type_id":"4","last_reported":1736096839,"current_range_meters":27200,"station_id":"ce4bgvp2rcd13ifvqcu0","pricing_plan_id":"cebpf4jnsgd1na2vs0mg"},{"bike_id":"08bc0df6-3469-4b1d-9591-480bf94ec2ca","system_id":"levelo_inurba_marseille","lat":43.27972,"lon":5.38741,"is_reserved":false,"is_disabled":false,"rental_uris":{"android":"levelo://app?vid=08bc0df6-3469-4b1d-9591-480bf94ec2ca","ios":"levelo://app?vid=08bc0df6-3469-4b1d-9591-480bf94ec2ca"},"vehicle_type_id":"4","last_reported":1736096839,"current_range_meters":37600,"station_id":"ce4bhg12rcd13ifvqf80","pricing_plan_id":"cebpf4jnsgd1na2vs0mg"},{"bike_id":"11bab6b1-8f19-4376-9cab-a89cad5be186","system_id":"levelo_inurba_marseille","lat":43.32475,"lon":5.36588,"is_reserved":false,"is_disabled":false,"rental_uris":{"android":"levelo://app?vid=11bab6b1-8f19-4376-9cab-a89cad5be186","ios":"levelo://app?vid=11bab6b1-8f19-4376-9cab-a89cad5be186"},"vehicle_type_id":"4","last_reported":1736096839,"current_range_meters":33600,"station_id":"ce4bhs12rcd13ifvqhvg","pricing_plan_id":"cebpf4jnsgd1na2vs0mg"},{"bike_id":"9bd04c4d-bba3-44a3-88b7-e0bf363fe6b8","system_id":"levelo_inurba_marseille","lat":43.24682,"lon":5.38136,"is_reserved":false,"is_disabled":false,"rental_uris":{"android":"levelo://app?vid=9bd04c4d-bba3-44a3-88b7-e0bf363fe6b8","ios":"levelo://app?vid=9bd04c4d-bba3-44a3-88b7-e0bf363fe6b8"},"vehicle_type_id":"4","last_reported":1736096839,"current_range_meters":32000,"station_id":"ce4bhih2rcd13ifvqfr0","pricing_plan_id":"cebpf4jnsgd1na2vs0mg"},{"bike_id":"ab68ed21-148d-4a0e-ae51-a2dd92014de0","system_id":"levelo_inurba_marseille","lat":43.2498,"lon":5.38964,"is_reserved":false,"is_disabled":false,"rental_uris":{"android":"levelo://app?vid=ab68ed21-148d-4a0e-ae51-a2dd92014de0","ios":"levelo://app?vid=ab68ed21-148d-4a0e-ae51-a2dd92014de0"},"vehicle_type_id":"4","last_reported":1736096839,"current_range_meters":38800,"station_id":"ce4bhgp2rcd13ifvqfd0","pricing_plan_id":"cebpf4jnsgd1na2vs0mg"},{"bike_id":"75539ff0-fe32-4da7-83df-96fa72019050","system_id":"levelo_inurba_marseille","lat":43.310817,"lon":5.424287,"is_reserved":false,"is_disabled":false,"rental_uris":{"android":"levelo://app?vid=75539ff0-fe32-4da7-83df-96fa72019050","ios":"levelo://app?vid=75539ff0-fe32-4da7-83df-96fa72019050"},"vehicle_type_id":"4","last_reported":1736096839,"current_range_meters":9200,"station_id":"ce4bhp92rcd13ifvqhag","pricing_plan_id":"cebpf4jnsgd1na2vs0mg"},{"bike_id":"c023aed8-c4af-47de-bf55-7ec6cfb1c879","system_id":"levelo_inurba_marseille","lat":43.26205,"lon":5.37435,"is_reserved":false,"is_disabled":true,"rental_uris":{"android":"levelo://app?vid=c023aed8-c4af-47de-bf55-7ec6cfb1c879","ios":"levelo://app?vid=c023aed8-c4af-47de-bf55-7ec6cfb1c879"},"vehicle_type_id":"4","last_reported":1736096839,"current_range_meters":35600,"station_id":"ce4bhgp2rcd13ifvqfc0","pricing_plan_id":"cebpf4jnsgd1na2vs0mg"},{"bike_id":"bfd63642-40ea-4ead-b24a-ffcac517374e","system_id":"levelo_inurba_marseille","lat":43.28001,"lon":5.40008,"is_reserved":false,"is_disabled":false,"rental_uris":{"android":"levelo://app?vid=bfd63642-40ea-4ead-b24a-ffcac517374e","ios":"levelo://app?vid=bfd63642-40ea-4ead-b24a-ffcac517374e"},"vehicle_type_id":"4","last_reported":1736096839,"current_range_meters":11600,"station_id":"ce4bhh92rcd13ifvqfi0","pricing_plan_id":"cebpf4jnsgd1na2vs0mg"},{"bike_id":"40d246c1-ae96-467e-9143-f5df7429b1d0","system_id":"levelo_inurba_marseille","lat":43.27563,"lon":5.38437,"is_reserved":false,"is_disabled":false,"rental_uris":{"android":"levelo://app?vid=40d246c1-ae96-467e-9143-f5df7429b1d0","ios":"levelo://app?vid=40d246c1-ae96-467e-9143-f5df7429b1d0"},"vehicle_type_id":"4","last_reported":1736096839,"current_range_meters":35600,"station_id":"ce4bhh92rcd13ifvqfi0","pricing_plan_id":"cebpf4jnsgd1na2vs0mg"},{"bike_id":"ad036647-e9f4-4246-953d-37ee6601db50","system_id":"levelo_inurba_marseille","lat":43.24656,"lon":5.38179,"is_reserved":false,"is_disabled":false,"rental_uris":{"android":"levelo://app?vid=ad036647-e9f4-4246-953d-37ee6601db50","ios":"levelo://app?vid=ad036647-e9f4-4246-953d-37ee6601db50"},"vehicle_type_id":"4","last_reported":1736096839,"current_range_meters":25600,"station_id":"ce4bhih2rcd13ifvqfr0","pricing_plan_id":"cebpf4jnsgd1na2vs0mg"},{"bike_id":"c3496726-b8ea-47ac-a44b-66bc69a8d7e9","system_id":"levelo_inurba_marseille","lat":43.29859,"lon":5.36272,"is_reserved":false,"is_disabled":false,"rental_uris":{"android":"levelo://app?vid=c3496726-b8ea-47ac-a44b-66bc69a8d7e9","ios":"levelo://app?vid=c3496726-b8ea-47ac-a44b-66bc69a8d7e9"},"vehicle_type_id":"4","last_reported":1736096839,"current_range_meters":32800,"station_id":"ce4bgpp2rcd13ifvqc3g","pricing_plan_id":"cebpf4jnsgd1na2vs0mg"},{"bike_id":"d890686f-e154-4c69-afe2-a6d951ebe56f","system_id":"levelo_inurba_marseille","lat":43.29532,"lon":5.39395,"is_reserved":false,"is_disabled":false,"rental_uris":{"android":"levelo://app?vid=d890686f-e154-4c69-afe2-a6d951ebe56f","ios":"levelo://app?vid=d890686f-e154-4c69-afe2-a6d951ebe56f"},"vehicle_type_id":"4","last_reported":1736096839,"current_range_meters":30000,"station_id":"ce4bh292rcd13ifvqdf0","pricing_plan_id":"cebpf4jnsgd1na2vs0mg"},{"bike_id":"7575509c-aa61-4c38-a4ad-33d140bc768e","system_id":"levelo_inurba_marseille","lat":43.29425,"lon":5.3864,"is_reserved":false,"is_disabled":false,"rental_uris":{"android":"levelo://app?vid=7575509c-aa61-4c38-a4ad-33d140bc768e","ios":"levelo://app?vid=7575509c-aa61-4c38-a4ad-33d140bc768e"},"vehicle_type_id":"4","last_reported":1736096839,"current_range_meters":37600,"station_id":"ce4bh2h2rcd13ifvqdh0","pricing_plan_id":"cebpf4jnsgd1na2vs0mg"},{"bike_id":"1b7d2371-0eba-4a43-8133-800073020b26","system_id":"levelo_inurba_marseille","lat":43.31528,"lon":5.380322,"is_reserved":false,"is_disabled":false,"rental_uris":{"android":"levelo://app?vid=1b7d2371-0eba-4a43-8133-800073020b26","ios":"levelo://app?vid=1b7d2371-0eba-4a43-8133-800073020b26"},"vehicle_type_id":"4","last_reported":1736096839,"current_range_meters":28800,"station_id":"ce4bhsp2rcd13ifvqi50","pricing_plan_id":"cebpf4jnsgd1na2vs0mg"},{"bike_id":"f0014140-97a3-45bb-aef7-9c6560d6bda8","system_id":"levelo_inurba_marseille","lat":43.27996,"lon":5.40034,"is_reserved":false,"is_disabled":false,"rental_uris":{"android":"levelo://app?vid=f0014140-97a3-45bb-aef7-9c6560d6bda8","ios":"levelo://app?vid=f0014140-97a3-45bb-aef7-9c6560d6bda8"},"vehicle_type_id":"4","last_reported":1736096839,"current_range_meters":23200,"station_id":"ce4bho92rcd13ifvqh4g","pricing_plan_id":"cebpf4jnsgd1na2vs0mg"},{"bike_id":"66d3e1ef-7727-44f9-b619-eeddb54c1fba","system_id":"levelo_inurba_marseille","lat":43.30443,"lon":5.38894,"is_reserved":false,"is_disabled":true,"rental_uris":{"android":"levelo://app?vid=66d3e1ef-7727-44f9-b619-eeddb54c1fba","ios":"levelo://app?vid=66d3e1ef-7727-44f9-b619-eeddb54c1fba"},"vehicle_type_id":"4","last_reported":1736096839,"current_range_meters":9600,"station_id":"ce4bgk12rcd13ifvqbi0","pricing_plan_id":"cebpf4jnsgd1na2vs0mg"},{"bike_id":"837d3b93-e204-4a87-a032-70ee200c6736","system_id":"levelo_inurba_marseille","lat":43.28932,"lon":5.38399,"is_reserved":false,"is_disabled":false,"rental_uris":{"android":"levelo://app?vid=837d3b93-e204-4a87-a032-70ee200c6736","ios":"levelo://app?vid=837d3b93-e204-4a87-a032-70ee200c6736"},"vehicle_type_id":"4","last_reported":1736096839,"current_range_meters":38800,"station_id":"ce4bh612rcd13ifvqe6g","pricing_plan_id":"cebpf4jnsgd1na2vs0mg"},{"bike_id":"3ed78f71-c15f-4c49-8328-7bc700f687ec","system_id":"levelo_inurba_marseille","lat":43.2957,"lon":5.39983,"is_reserved":false,"is_disabled":true,"rental_uris":{"android":"levelo://app?vid=3ed78f71-c15f-4c49-8328-7bc700f687ec","ios":"levelo://app?vid=3ed78f71-c15f-4c49-8328-7bc700f687ec"},"vehicle_type_id":"4","last_reported":1736096839,"current_range_meters":2000,"station_id":"ce4bh312rcd13ifvqdj0","pricing_plan_id":"cebpf4jnsgd1na2vs0mg"},{"bike_id":"895306f0-5f24-4eda-82a7-28cffb9f0f5c","system_id":"levelo_inurba_marseille","lat":43.28567,"lon":5.39481,"is_reserved":false,"is_disabled":false,"rental_uris":{"android":"levelo://app?vid=895306f0-5f24-4eda-82a7-28cffb9f0f5c","ios":"levelo://app?vid=895306f0-5f24-4eda-82a7-28cffb9f0f5c"},"vehicle_type_id":"4","last_reported":1736096839,"current_range_meters":16000,"station_id":"ce4bh292rcd13ifvqdg0","pricing_plan_id":"cebpf4jnsgd1na2vs0mg"},{"bike_id":"683c3a18-2fe8-4db2-829b-d8065bc8adc1","system_id":"levelo_inurba_marseille","lat":43.24066,"lon":5.37754,"is_reserved":false,"is_disabled":false,"rental_uris":{"android":"levelo://app?vid=683c3a18-2fe8-4db2-829b-d8065bc8adc1","ios":"levelo://app?vid=683c3a18-2fe8-4db2-829b-d8065bc8adc1"},"vehicle_type_id":"4","last_reported":1736096839,"current_range_meters":38800,"station_id":"ce4bhnp2rcd13ifvqgvg","pricing_plan_id":"cebpf4jnsgd1na2vs0mg"},{"bike_id":"1690dafa-8ee1-4f52-91d3-3d5526862376","system_id":"levelo_inurba_marseille","lat":43.32476,"lon":5.36558,"is_reserved":false,"is_disabled":false,"rental_uris":{"android":"levelo://app?vid=1690dafa-8ee1-4f52-91d3-3d5526862376","ios":"levelo://app?vid=1690dafa-8ee1-4f52-91d3-3d5526862376"},"vehicle_type_id":"4","last_reported":1736096839,"current_range_meters":11600,"station_id":"ce4bhs12rcd13ifvqhvg","pricing_plan_id":"cebpf4jnsgd1na2vs0mg"},{"bike_id":"5a013543-07d1-4b51-afb5-d357a08963cc","system_id":"levelo_inurba_marseille","lat":43.29414,"lon":5.38625,"is_reserved":false,"is_disabled":false,"rental_uris":{"android":"levelo://app?vid=5a013543-07d1-4b51-afb5-d357a08963cc","ios":"levelo://app?vid=5a013543-07d1-4b51-afb5-d357a08963cc"},"vehicle_type_id":"4","last_reported":1736096839,"current_range_meters":21600,"station_id":"ce4bh2h2rcd13ifvqdh0","pricing_plan_id":"cebpf4jnsgd1na2vs0mg"},{"bike_id":"3a886112-e3b0-4edc-b51b-904dd83912cf","system_id":"levelo_inurba_marseille","lat":43.32043,"lon":5.41543,"is_reserved":false,"is_disabled":false,"rental_uris":{"android":"levelo://app?vid=3a886112-e3b0-4edc-b51b-904dd83912cf","ios":"levelo://app?vid=3a886112-e3b0-4edc-b51b-904dd83912cf"},"vehicle_type_id":"4","last_reported":1736096839,"current_range_meters":37600,"station_id":"ce4bhq92rcd13ifvqhkg","pricing_plan_id":"cebpf4jnsgd1na2vs0mg"},{"bike_id":"2332862a-3884-4317-af82-ee9793e9b62c","system_id":"levelo_inurba_marseille","lat":43.24095,"lon":5.37739,"is_reserved":false,"is_disabled":false,"rental_uris":{"android":"levelo://app?vid=2332862a-3884-4317-af82-ee9793e9b62c","ios":"levelo://app?vid=2332862a-3884-4317-af82-ee9793e9b62c"},"vehicle_type_id":"4","last_reported":1736096839,"current_range_meters":11200,"station_id":"ce4bhnp2rcd13ifvqgvg","pricing_plan_id":"cebpf4jnsgd1na2vs0mg"},{"bike_id":"88921916-2a99-4e7a-8a3f-cca7ea156041","system_id":"levelo_inurba_marseille","lat":43.31074,"lon":5.38357,"is_reserved":false,"is_disabled":false,"rental_uris":{"android":"levelo://app?vid=88921916-2a99-4e7a-8a3f-cca7ea156041","ios":"levelo://app?vid=88921916-2a99-4e7a-8a3f-cca7ea156041"},"vehicle_type_id":"4","last_reported":1736096839,"current_range_meters":30800,"station_id":"ce4bgv92rcd13ifvqcr0","pricing_plan_id":"cebpf4jnsgd1na2vs0mg"},{"bike_id":"ba2b0799-90e5-436b-a8ac-d2a80ff5da69","system_id":"levelo_inurba_marseille","lat":43.24829,"lon":5.37435,"is_reserved":false,"is_disabled":false,"rental_uris":{"android":"levelo://app?vid=ba2b0799-90e5-436b-a8ac-d2a80ff5da69","ios":"levelo://app?vid=ba2b0799-90e5-436b-a8ac-d2a80ff5da69"},"vehicle_type_id":"4","last_reported":1736096839,"current_range_meters":38800,"station_id":"ce4bhgh2rcd13ifvqfb0","pricing_plan_id":"cebpf4jnsgd1na2vs0mg"},{"bike_id":"5b49bc9e-0372-4642-ba4e-6768062fc93f","system_id":"levelo_inurba_marseille","lat":43.30904,"lon":5.36838,"is_reserved":false,"is_disabled":false,"rental_uris":{"android":"levelo://app?vid=5b49bc9e-0372-4642-ba4e-6768062fc93f","ios":"levelo://app?vid=5b49bc9e-0372-4642-ba4e-6768062fc93f"},"vehicle_type_id":"4","last_reported":1736096839,"current_range_meters":38400,"station_id":"ce4bgn92rcd13ifvqbvg","pricing_plan_id":"cebpf4jnsgd1na2vs0mg"},{"bike_id":"01a7e33f-fb40-40f0-aa6a-e94670d9f068","system_id":"levelo_inurba_marseille","lat":43.29015,"lon":5.3812,"is_reserved":false,"is_disabled":false,"rental_uris":{"android":"levelo://app?vid=01a7e33f-fb40-40f0-aa6a-e94670d9f068","ios":"levelo://app?vid=01a7e33f-fb40-40f0-aa6a-e94670d9f068"},"vehicle_type_id":"4","last_reported":1736096839,"current_range_meters":38800,"station_id":"ce4bh4p2rcd13ifvqe1g","pricing_plan_id":"cebpf4jnsgd1na2vs0mg"},{"bike_id":"8de6914e-abe5-40fd-89d7-587c3e90d32b","system_id":"levelo_inurba_marseille","lat":43.269388,"lon":5.402542,"is_reserved":false,"is_disabled":false,"rental_uris":{"android":"levelo://app?vid=8de6914e-abe5-40fd-89d7-587c3e90d32b","ios":"levelo://app?vid=8de6914e-abe5-40fd-89d7-587c3e90d32b"},"vehicle_type_id":"4","last_reported":1736096839,"current_range_meters":38800,"station_id":"cjm6bp8fraef2m0cb0m0","pricing_plan_id":"cebpf4jnsgd1na2vs0mg"},{"bike_id":"7ee45656-cc2b-4090-8514-bcfd033cfdf8","system_id":"levelo_inurba_marseille","lat":43.33719,"lon":5.39177,"is_reserved":false,"is_disabled":false,"rental_uris":{"android":"levelo://app?vid=7ee45656-cc2b-4090-8514-bcfd033cfdf8","ios":"levelo://app?vid=7ee45656-cc2b-4090-8514-bcfd033cfdf8"},"vehicle_type_id":"4","last_reported":1736096839,"current_range_meters":38800,"station_id":"ce4bhr92rcd13ifvqhsg","pricing_plan_id":"cebpf4jnsgd1na2vs0mg"},{"bike_id":"c8529c5f-726c-44b9-8f81-1b72db6f4e53","system_id":"levelo_inurba_marseille","lat":43.32362,"lon":5.38887,"is_reserved":false,"is_disabled":false,"rental_uris":{"android":"levelo://app?vid=c8529c5f-726c-44b9-8f81-1b72db6f4e53","ios":"levelo://app?vid=c8529c5f-726c-44b9-8f81-1b72db6f4e53"},"vehicle_type_id":"4","last_reported":1736096839,"current_range_meters":37600,"station_id":"ce4bhqp2rcd13ifvqhog","pricing_plan_id":"cebpf4jnsgd1na2vs0mg"},{"bike_id":"e9696c4e-29cf-4649-be52-b8c60c548343","system_id":"levelo_inurba_marseille","lat":43.29971,"lon":5.38497,"is_reserved":false,"is_disabled":false,"rental_uris":{"android":"levelo://app?vid=e9696c4e-29cf-4649-be52-b8c60c548343","ios":"levelo://app?vid=e9696c4e-29cf-4649-be52-b8c60c548343"},"vehicle_type_id":"4","last_reported":1736096839,"current_range_meters":30800,"station_id":"ce4bgj92rcd13ifvqbd0","pricing_plan_id":"cebpf4jnsgd1na2vs0mg"},{"bike_id":"9a483109-5bce-4e89-a527-a3ced035742c","system_id":"levelo_inurba_marseille","lat":43.2695,"lon":5.38626,"is_reserved":false,"is_disabled":false,"rental_uris":{"android":"levelo://app?vid=9a483109-5bce-4e89-a527-a3ced035742c","ios":"levelo://app?vid=9a483109-5bce-4e89-a527-a3ced035742c"},"vehicle_type_id":"4","last_reported":1736096839,"current_range_meters":10800,"station_id":"ce4bhh92rcd13ifvqfh0","pricing_plan_id":"cebpf4jnsgd1na2vs0mg"},{"bike_id":"895776a5-6397-422d-afdc-c965f60c50f0","system_id":"levelo_inurba_marseille","lat":43.25074,"lon":5.39508,"is_reserved":false,"is_disabled":false,"rental_uris":{"android":"levelo://app?vid=895776a5-6397-422d-afdc-c965f60c50f0","ios":"levelo://app?vid=895776a5-6397-422d-afdc-c965f60c50f0"},"vehicle_type_id":"4","last_reported":1736096839,"current_range_meters":11200,"station_id":"ce4bhm12rcd13ifvqgkg","pricing_plan_id":"cebpf4jnsgd1na2vs0mg"},{"bike_id":"6961e060-7e03-42d8-a72c-a7cbecfe6783","system_id":"levelo_inurba_marseille","lat":43.29419,"lon":5.38625,"is_reserved":false,"is_disabled":false,"rental_uris":{"android":"levelo://app?vid=6961e060-7e03-42d8-a72c-a7cbecfe6783","ios":"levelo://app?vid=6961e060-7e03-42d8-a72c-a7cbecfe6783"},"vehicle_type_id":"4","last_reported":1736096839,"current_range_meters":24000,"station_id":"ce4bh2h2rcd13ifvqdh0","pricing_plan_id":"cebpf4jnsgd1na2vs0mg"},{"bike_id":"5c37768c-4d36-43b5-95f9-4a41a24fe76f","system_id":"levelo_inurba_marseille","lat":43.28726,"lon":5.36086,"is_reserved":false,"is_disabled":false,"rental_uris":{"android":"levelo://app?vid=5c37768c-4d36-43b5-95f9-4a41a24fe76f","ios":"levelo://app?vid=5c37768c-4d36-43b5-95f9-4a41a24fe76f"},"vehicle_type_id":"4","last_reported":1736096839,"current_range_meters":36000,"station_id":"cki0cbj6b192h4jlfktg","pricing_plan_id":"cebpf4jnsgd1na2vs0mg"},{"bike_id":"7f1ce4ed-0cd0-4d23-b89e-099e0df8c108","system_id":"levelo_inurba_marseille","lat":43.25719,"lon":5.4112,"is_reserved":false,"is_disabled":false,"rental_uris":{"android":"levelo://app?vid=7f1ce4ed-0cd0-4d23-b89e-099e0df8c108","ios":"levelo://app?vid=7f1ce4ed-0cd0-4d23-b89e-099e0df8c108"},"vehicle_type_id":"4","last_reported":1736096839,"current_range_meters":38800,"station_id":"ce4bhkp2rcd13ifvqgd0","pricing_plan_id":"cebpf4jnsgd1na2vs0mg"},{"bike_id":"9db30acb-5eb1-4a75-9331-1f42fd694337","system_id":"levelo_inurba_marseille","lat":43.27909,"lon":5.39577,"is_reserved":false,"is_disabled":false,"rental_uris":{"android":"levelo://app?vid=9db30acb-5eb1-4a75-9331-1f42fd694337","ios":"levelo://app?vid=9db30acb-5eb1-4a75-9331-1f42fd694337"},"vehicle_type_id":"4","last_reported":1736096839,"current_range_meters":22400,"station_id":"ce4bhf92rcd13ifvqf40","pricing_plan_id":"cebpf4jnsgd1na2vs0mg"},{"bike_id":"46b62559-aa08-4333-86bc-1469343cb594","system_id":"levelo_inurba_marseille","lat":43.28185,"lon":5.42623,"is_reserved":false,"is_disabled":false,"rental_uris":{"android":"levelo://app?vid=46b62559-aa08-4333-86bc-1469343cb594","ios":"levelo://app?vid=46b62559-aa08-4333-86bc-1469343cb594"},"vehicle_type_id":"4","last_reported":1736096839,"current_range_meters":14000,"station_id":"ce4bhnh2rcd13ifvqgug","pricing_plan_id":"cebpf4jnsgd1na2vs0mg"},{"bike_id":"f8142e8a-f886-4c5e-b399-88d8fa1c1d32","system_id":"levelo_inurba_marseille","lat":43.24683,"lon":5.38142,"is_reserved":false,"is_disabled":false,"rental_uris":{"android":"levelo://app?vid=f8142e8a-f886-4c5e-b399-88d8fa1c1d32","ios":"levelo://app?vid=f8142e8a-f886-4c5e-b399-88d8fa1c1d32"},"vehicle_type_id":"4","last_reported":1736096839,"current_range_meters":25600,"station_id":"ce4bhih2rcd13ifvqfr0","pricing_plan_id":"cebpf4jnsgd1na2vs0mg"},{"bike_id":"304a4455-2575-4682-83ac-6d9238c4eb69","system_id":"levelo_inurba_marseille","lat":43.29975,"lon":5.38487,"is_reserved":false,"is_disabled":false,"rental_uris":{"android":"levelo://app?vid=304a4455-2575-4682-83ac-6d9238c4eb69","ios":"levelo://app?vid=304a4455-2575-4682-83ac-6d9238c4eb69"},"vehicle_type_id":"4","last_reported":1736096839,"current_range_meters":30400,"station_id":"ce4bgj92rcd13ifvqbd0","pricing_plan_id":"cebpf4jnsgd1na2vs0mg"},{"bike_id":"1aba21f4-1bc8-481b-8d4e-71db03f213fd","system_id":"levelo_inurba_marseille","lat":43.25117,"lon":5.40321,"is_reserved":false,"is_disabled":false,"rental_uris":{"android":"levelo://app?vid=1aba21f4-1bc8-481b-8d4e-71db03f213fd","ios":"levelo://app?vid=1aba21f4-1bc8-481b-8d4e-71db03f213fd"},"vehicle_type_id":"4","last_reported":1736096839,"current_range_meters":30400,"station_id":"ce4bhlh2rcd13ifvqgig","pricing_plan_id":"cebpf4jnsgd1na2vs0mg"},{"bike_id":"5acd51ab-33ae-465f-9994-b539f1713987","system_id":"levelo_inurba_marseille","lat":43.33722,"lon":5.39172,"is_reserved":false,"is_disabled":false,"rental_uris":{"android":"levelo://app?vid=5acd51ab-33ae-465f-9994-b539f1713987","ios":"levelo://app?vid=5acd51ab-33ae-465f-9994-b539f1713987"},"vehicle_type_id":"4","last_reported":1736096839,"current_range_meters":36800,"station_id":"ce4bhr92rcd13ifvqhsg","pricing_plan_id":"cebpf4jnsgd1na2vs0mg"},{"bike_id":"f3d41f41-839d-41a5-aa6d-f2ba87ff18f0","system_id":"levelo_inurba_marseille","lat":43.2409,"lon":5.37748,"is_reserved":false,"is_disabled":true,"rental_uris":{"android":"levelo://app?vid=f3d41f41-839d-41a5-aa6d-f2ba87ff18f0","ios":"levelo://app?vid=f3d41f41-839d-41a5-aa6d-f2ba87ff18f0"},"vehicle_type_id":"4","last_reported":1736096839,"current_range_meters":38000,"station_id":"ce4bhnp2rcd13ifvqgvg","pricing_plan_id":"cebpf4jnsgd1na2vs0mg"},{"bike_id":"15702e89-0fc5-47ef-a5b2-f901b999e94a","system_id":"levelo_inurba_marseille","lat":43.32279,"lon":5.38266,"is_reserved":false,"is_disabled":false,"rental_uris":{"android":"levelo://app?vid=15702e89-0fc5-47ef-a5b2-f901b999e94a","ios":"levelo://app?vid=15702e89-0fc5-47ef-a5b2-f901b999e94a"},"vehicle_type_id":"4","last_reported":1736096839,"current_range_meters":38800,"station_id":"ce4bhr12rcd13ifvqhqg","pricing_plan_id":"cebpf4jnsgd1na2vs0mg"},{"bike_id":"9f326815-9d5b-4c57-b098-1465cece3aff","system_id":"levelo_inurba_marseille","lat":43.28079,"lon":5.44172,"is_reserved":false,"is_disabled":false,"rental_uris":{"android":"levelo://app?vid=9f326815-9d5b-4c57-b098-1465cece3aff","ios":"levelo://app?vid=9f326815-9d5b-4c57-b098-1465cece3aff"},"vehicle_type_id":"4","last_reported":1736096839,"current_range_meters":14800,"station_id":"","pricing_plan_id":"cebpf4jnsgd1na2vs0mg"},{"bike_id":"c2c66233-c34e-48db-9b0f-538a025d3f18","system_id":"levelo_inurba_marseille","lat":43.27074,"lon":5.42283,"is_reserved":false,"is_disabled":false,"rental_uris":{"android":"levelo://app?vid=c2c66233-c34e-48db-9b0f-538a025d3f18","ios":"levelo://app?vid=c2c66233-c34e-48db-9b0f-538a025d3f18"},"vehicle_type_id":"4","last_reported":1736096839,"current_range_meters":17600,"station_id":"ce4bhk92rcd13ifvqgb0","pricing_plan_id":"cebpf4jnsgd1na2vs0mg"},{"bike_id":"7b78d5e2-5142-402d-a4f8-0f3037a6c533","system_id":"levelo_inurba_marseille","lat":43.2694,"lon":5.38635,"is_reserved":false,"is_disabled":true,"rental_uris":{"android":"levelo://app?vid=7b78d5e2-5142-402d-a4f8-0f3037a6c533","ios":"levelo://app?vid=7b78d5e2-5142-402d-a4f8-0f3037a6c533"},"vehicle_type_id":"4","last_reported":1736096839,"current_range_meters":38800,"station_id":"ce4bhh92rcd13ifvqfh0","pricing_plan_id":"cebpf4jnsgd1na2vs0mg"},{"bike_id":"99ea5841-b8af-4dc3-9cba-b0924afd8cdf","system_id":"levelo_inurba_marseille","lat":43.29257,"lon":5.40907,"is_reserved":false,"is_disabled":false,"rental_uris":{"android":"levelo://app?vid=99ea5841-b8af-4dc3-9cba-b0924afd8cdf","ios":"levelo://app?vid=99ea5841-b8af-4dc3-9cba-b0924afd8cdf"},"vehicle_type_id":"4","last_reported":1736096839,"current_range_meters":24000,"station_id":"ce4bh192rcd13ifvqdc0","pricing_plan_id":"cebpf4jnsgd1na2vs0mg"},{"bike_id":"2f33d4dd-c94f-41e6-bce5-42d4c6341eb0","system_id":"levelo_inurba_marseille","lat":43.29891,"lon":5.43645,"is_reserved":false,"is_disabled":false,"rental_uris":{"android":"levelo://app?vid=2f33d4dd-c94f-41e6-bce5-42d4c6341eb0","ios":"levelo://app?vid=2f33d4dd-c94f-41e6-bce5-42d4c6341eb0"},"vehicle_type_id":"4","last_reported":1736096839,"current_range_meters":32800,"station_id":"ce4bhpp2rcd13ifvqhfg","pricing_plan_id":"cebpf4jnsgd1na2vs0mg"},{"bike_id":"d0d21930-fe1d-478b-8251-bcf89564599d","system_id":"levelo_inurba_marseille","lat":43.2955,"lon":5.42277,"is_reserved":false,"is_disabled":false,"rental_uris":{"android":"levelo://app?vid=d0d21930-fe1d-478b-8251-bcf89564599d","ios":"levelo://app?vid=d0d21930-fe1d-478b-8251-bcf89564599d"},"vehicle_type_id":"4","last_reported":1736096839,"current_range_meters":26800,"station_id":"ce4bhph2rcd13ifvqhdg","pricing_plan_id":"cebpf4jnsgd1na2vs0mg"},{"bike_id":"168fc159-e036-4d14-8f80-9424fa8e032e","system_id":"levelo_inurba_marseille","lat":43.25871,"lon":5.39897,"is_reserved":false,"is_disabled":false,"rental_uris":{"android":"levelo://app?vid=168fc159-e036-4d14-8f80-9424fa8e032e","ios":"levelo://app?vid=168fc159-e036-4d14-8f80-9424fa8e032e"},"vehicle_type_id":"4","last_reported":1736096839,"current_range_meters":32000,"station_id":"ce4bhl92rcd13ifvqghg","pricing_plan_id":"cebpf4jnsgd1na2vs0mg"},{"bike_id":"dfcfabc5-e153-44d0-a673-115c7d6bb657","system_id":"levelo_inurba_marseille","lat":43.28364,"lon":5.38635,"is_reserved":false,"is_disabled":false,"rental_uris":{"android":"levelo://app?vid=dfcfabc5-e153-44d0-a673-115c7d6bb657","ios":"levelo://app?vid=dfcfabc5-e153-44d0-a673-115c7d6bb657"},"vehicle_type_id":"4","last_reported":1736096839,"current_range_meters":26800,"station_id":"ce4bh492rcd13ifvqdvg","pricing_plan_id":"cebpf4jnsgd1na2vs0mg"},{"bike_id":"337f3b6f-2cd7-4dc5-8d5f-11acfc8d9e29","system_id":"levelo_inurba_marseille","lat":43.27832,"lon":5.39192,"is_reserved":false,"is_disabled":false,"rental_uris":{"android":"levelo://app?vid=337f3b6f-2cd7-4dc5-8d5f-11acfc8d9e29","ios":"levelo://app?vid=337f3b6f-2cd7-4dc5-8d5f-11acfc8d9e29"},"vehicle_type_id":"4","last_reported":1736096839,"current_range_meters":8400,"station_id":"ce4bhjp2rcd13ifvqga0","pricing_plan_id":"cebpf4jnsgd1na2vs0mg"},{"bike_id":"41362472-f79e-4cfa-aad7-dd33310824b0","system_id":"levelo_inurba_marseille","lat":43.33725,"lon":5.39178,"is_reserved":false,"is_disabled":false,"rental_uris":{"android":"levelo://app?vid=41362472-f79e-4cfa-aad7-dd33310824b0","ios":"levelo://app?vid=41362472-f79e-4cfa-aad7-dd33310824b0"},"vehicle_type_id":"4","last_reported":1736096839,"current_range_meters":32400,"station_id":"ce4bhr92rcd13ifvqhsg","pricing_plan_id":"cebpf4jnsgd1na2vs0mg"},{"bike_id":"2434c0fb-a675-4563-88b0-7f1f1222c792","system_id":"levelo_inurba_marseille","lat":43.281,"lon":5.37832,"is_reserved":false,"is_disabled":false,"rental_uris":{"android":"levelo://app?vid=2434c0fb-a675-4563-88b0-7f1f1222c792","ios":"levelo://app?vid=2434c0fb-a675-4563-88b0-7f1f1222c792"},"vehicle_type_id":"4","last_reported":1736096839,"current_range_meters":33600,"station_id":"ce4bha12rcd13ifvqee0","pricing_plan_id":"cebpf4jnsgd1na2vs0mg"},{"bike_id":"15c8fc1f-b433-4f2a-8aa6-ddbcea644ebb","system_id":"levelo_inurba_marseille","lat":43.27052,"lon":5.40264,"is_reserved":false,"is_disabled":false,"rental_uris":{"android":"levelo://app?vid=15c8fc1f-b433-4f2a-8aa6-ddbcea644ebb","ios":"levelo://app?vid=15c8fc1f-b433-4f2a-8aa6-ddbcea644ebb"},"vehicle_type_id":"4","last_reported":1736096839,"current_range_meters":19200,"station_id":"ce4bhk92rcd13ifvqgc0","pricing_plan_id":"cebpf4jnsgd1na2vs0mg"},{"bike_id":"830b5d3b-cabb-4fdb-be27-c9d3d8ea9fde","system_id":"levelo_inurba_marseille","lat":43.24831,"lon":5.37454,"is_reserved":false,"is_disabled":false,"rental_uris":{"android":"levelo://app?vid=830b5d3b-cabb-4fdb-be27-c9d3d8ea9fde","ios":"levelo://app?vid=830b5d3b-cabb-4fdb-be27-c9d3d8ea9fde"},"vehicle_type_id":"4","last_reported":1736096839,"current_range_meters":36800,"station_id":"ce4bhgh2rcd13ifvqfb0","pricing_plan_id":"cebpf4jnsgd1na2vs0mg"},{"bike_id":"f92df737-b754-4169-a90b-25d8d8f30553","system_id":"levelo_inurba_marseille","lat":43.29527,"lon":5.38545,"is_reserved":false,"is_disabled":false,"rental_uris":{"android":"levelo://app?vid=f92df737-b754-4169-a90b-25d8d8f30553","ios":"levelo://app?vid=f92df737-b754-4169-a90b-25d8d8f30553"},"vehicle_type_id":"4","last_reported":1736096839,"current_range_meters":20800,"station_id":"ce4bgih2rcd13ifvqba0","pricing_plan_id":"cebpf4jnsgd1na2vs0mg"},{"bike_id":"8785ddf2-7225-4c15-a282-1f8baeace2a7","system_id":"levelo_inurba_marseille","lat":43.26066,"lon":5.39392,"is_reserved":false,"is_disabled":false,"rental_uris":{"android":"levelo://app?vid=8785ddf2-7225-4c15-a282-1f8baeace2a7","ios":"levelo://app?vid=8785ddf2-7225-4c15-a282-1f8baeace2a7"},"vehicle_type_id":"4","last_reported":1736096839,"current_range_meters":25600,"station_id":"ce4bhh92rcd13ifvqfj0","pricing_plan_id":"cebpf4jnsgd1na2vs0mg"},{"bike_id":"baaabb63-03d7-46b0-b392-f607b1506ff3","system_id":"levelo_inurba_marseille","lat":43.32035,"lon":5.41518,"is_reserved":false,"is_disabled":false,"rental_uris":{"android":"levelo://app?vid=baaabb63-03d7-46b0-b392-f607b1506ff3","ios":"levelo://app?vid=baaabb63-03d7-46b0-b392-f607b1506ff3"},"vehicle_type_id":"4","last_reported":1736096839,"current_range_meters":24000,"station_id":"ce4bhq92rcd13ifvqhkg","pricing_plan_id":"cebpf4jnsgd1na2vs0mg"},{"bike_id":"a6f828f1-5f97-4da7-bf33-7d48a155db3e","system_id":"levelo_inurba_marseille","lat":43.27837,"lon":5.39193,"is_reserved":false,"is_disabled":false,"rental_uris":{"android":"levelo://app?vid=a6f828f1-5f97-4da7-bf33-7d48a155db3e","ios":"levelo://app?vid=a6f828f1-5f97-4da7-bf33-7d48a155db3e"},"vehicle_type_id":"4","last_reported":1736096839,"current_range_meters":22000,"station_id":"ce4bhjp2rcd13ifvqga0","pricing_plan_id":"cebpf4jnsgd1na2vs0mg"},{"bike_id":"270fb5d8-fb37-463e-a24d-c4c12fee9d35","system_id":"levelo_inurba_marseille","lat":43.29911,"lon":5.38157,"is_reserved":false,"is_disabled":false,"rental_uris":{"android":"levelo://app?vid=270fb5d8-fb37-463e-a24d-c4c12fee9d35","ios":"levelo://app?vid=270fb5d8-fb37-463e-a24d-c4c12fee9d35"},"vehicle_type_id":"4","last_reported":1736096839,"current_range_meters":16000,"station_id":"ce4bgj12rcd13ifvqbc0","pricing_plan_id":"cebpf4jnsgd1na2vs0mg"},{"bike_id":"a522c7f8-85db-4294-bcdd-44c45cbf4d5e","system_id":"levelo_inurba_marseille","lat":43.23182,"lon":5.39978,"is_reserved":false,"is_disabled":false,"rental_uris":{"android":"levelo://app?vid=a522c7f8-85db-4294-bcdd-44c45cbf4d5e","ios":"levelo://app?vid=a522c7f8-85db-4294-bcdd-44c45cbf4d5e"},"vehicle_type_id":"4","last_reported":1736096839,"current_range_meters":37600,"station_id":"ce4bhn12rcd13ifvqgqg","pricing_plan_id":"cebpf4jnsgd1na2vs0mg"},{"bike_id":"30d57ad9-6525-4ff3-b617-8832c59f4e14","system_id":"levelo_inurba_marseille","lat":43.26947,"lon":5.3863,"is_reserved":false,"is_disabled":false,"rental_uris":{"android":"levelo://app?vid=30d57ad9-6525-4ff3-b617-8832c59f4e14","ios":"levelo://app?vid=30d57ad9-6525-4ff3-b617-8832c59f4e14"},"vehicle_type_id":"4","last_reported":1736096839,"current_range_meters":24400,"station_id":"ce4bhh92rcd13ifvqfh0","pricing_plan_id":"cebpf4jnsgd1na2vs0mg"},{"bike_id":"e8a185b3-d63a-46a8-a06c-c198a1239fb6","system_id":"levelo_inurba_marseille","lat":43.27537,"lon":5.39616,"is_reserved":false,"is_disabled":false,"rental_uris":{"android":"levelo://app?vid=e8a185b3-d63a-46a8-a06c-c198a1239fb6","ios":"levelo://app?vid=e8a185b3-d63a-46a8-a06c-c198a1239fb6"},"vehicle_type_id":"4","last_reported":1736096839,"current_range_meters":25200,"station_id":"","pricing_plan_id":"cebpf4jnsgd1na2vs0mg"},{"bike_id":"2bb365b9-b0ab-4842-8b8c-e8de6374870a","system_id":"levelo_inurba_marseille","lat":43.2466,"lon":5.38898,"is_reserved":false,"is_disabled":false,"rental_uris":{"android":"levelo://app?vid=2bb365b9-b0ab-4842-8b8c-e8de6374870a","ios":"levelo://app?vid=2bb365b9-b0ab-4842-8b8c-e8de6374870a"},"vehicle_type_id":"4","last_reported":1736096839,"current_range_meters":38800,"station_id":"ce4bhg12rcd13ifvqf60","pricing_plan_id":"cebpf4jnsgd1na2vs0mg"},{"bike_id":"580c8d0a-bf49-49ee-a55c-5fd01dcedff5","system_id":"levelo_inurba_marseille","lat":43.29576,"lon":5.37519,"is_reserved":false,"is_disabled":false,"rental_uris":{"android":"levelo://app?vid=580c8d0a-bf49-49ee-a55c-5fd01dcedff5","ios":"levelo://app?vid=580c8d0a-bf49-49ee-a55c-5fd01dcedff5"},"vehicle_type_id":"4","last_reported":1736096839,"current_range_meters":35600,"station_id":"ce4bgh92rcd13ifvqb50","pricing_plan_id":"cebpf4jnsgd1na2vs0mg"},{"bike_id":"9eef73cc-291a-44af-af44-f67341d28540","system_id":"levelo_inurba_marseille","lat":43.28942,"lon":5.36394,"is_reserved":false,"is_disabled":false,"rental_uris":{"android":"levelo://app?vid=9eef73cc-291a-44af-af44-f67341d28540","ios":"levelo://app?vid=9eef73cc-291a-44af-af44-f67341d28540"},"vehicle_type_id":"4","last_reported":1736096839,"current_range_meters":31200,"station_id":"ce4bhc92rcd13ifvqetg","pricing_plan_id":"cebpf4jnsgd1na2vs0mg"},{"bike_id":"69f81421-0d15-4860-920a-1fc25c5f37cd","system_id":"levelo_inurba_marseille","lat":43.29443,"lon":5.39743,"is_reserved":false,"is_disabled":false,"rental_uris":{"android":"levelo://app?vid=69f81421-0d15-4860-920a-1fc25c5f37cd","ios":"levelo://app?vid=69f81421-0d15-4860-920a-1fc25c5f37cd"},"vehicle_type_id":"4","last_reported":1736096839,"current_range_meters":29600,"station_id":"ce4bh3h2rcd13ifvqdo0","pricing_plan_id":"cebpf4jnsgd1na2vs0mg"},{"bike_id":"6a595de3-0911-46a9-bdbf-4cca5437105e","system_id":"levelo_inurba_marseille","lat":43.23193,"lon":5.35552,"is_reserved":false,"is_disabled":false,"rental_uris":{"android":"levelo://app?vid=6a595de3-0911-46a9-bdbf-4cca5437105e","ios":"levelo://app?vid=6a595de3-0911-46a9-bdbf-4cca5437105e"},"vehicle_type_id":"4","last_reported":1736096839,"current_range_meters":24800,"station_id":"ce4bhu92rcd13ifvqi70","pricing_plan_id":"cebpf4jnsgd1na2vs0mg"},{"bike_id":"641d8acc-50b2-4173-ab23-c70f2a11d28e","system_id":"levelo_inurba_marseille","lat":43.28149,"lon":5.42649,"is_reserved":false,"is_disabled":true,"rental_uris":{"android":"levelo://app?vid=641d8acc-50b2-4173-ab23-c70f2a11d28e","ios":"levelo://app?vid=641d8acc-50b2-4173-ab23-c70f2a11d28e"},"vehicle_type_id":"4","last_reported":1736096839,"current_range_meters":31200,"station_id":"ce4bhnh2rcd13ifvqgug","pricing_plan_id":"cebpf4jnsgd1na2vs0mg"},{"bike_id":"5e1410a8-2898-4c41-8f96-f8d8591cd1e8","system_id":"levelo_inurba_marseille","lat":43.28455,"lon":5.39203,"is_reserved":false,"is_disabled":false,"rental_uris":{"android":"levelo://app?vid=5e1410a8-2898-4c41-8f96-f8d8591cd1e8","ios":"levelo://app?vid=5e1410a8-2898-4c41-8f96-f8d8591cd1e8"},"vehicle_type_id":"4","last_reported":1736096839,"current_range_meters":36400,"station_id":"ce4bhoh2rcd13ifvqh5g","pricing_plan_id":"cebpf4jnsgd1na2vs0mg"},{"bike_id":"15e503f5-1d52-42d6-a98f-33a61fd8b554","system_id":"levelo_inurba_marseille","lat":43.28457,"lon":5.35908,"is_reserved":false,"is_disabled":true,"rental_uris":{"android":"levelo://app?vid=15e503f5-1d52-42d6-a98f-33a61fd8b554","ios":"levelo://app?vid=15e503f5-1d52-42d6-a98f-33a61fd8b554"},"vehicle_type_id":"4","last_reported":1736096839,"current_range_meters":25600,"station_id":"ce4bhah2rcd13ifvqei0","pricing_plan_id":"cebpf4jnsgd1na2vs0mg"},{"bike_id":"6a6cde56-543d-4320-b530-a8d4d4944794","system_id":"levelo_inurba_marseille","lat":43.29891,"lon":5.43667,"is_reserved":false,"is_disabled":false,"rental_uris":{"android":"levelo://app?vid=6a6cde56-543d-4320-b530-a8d4d4944794","ios":"levelo://app?vid=6a6cde56-543d-4320-b530-a8d4d4944794"},"vehicle_type_id":"4","last_reported":1736096839,"current_range_meters":27200,"station_id":"ce4bhpp2rcd13ifvqhfg","pricing_plan_id":"cebpf4jnsgd1na2vs0mg"},{"bike_id":"ed137fe3-6e1c-4aeb-824f-b35f80ffe9d6","system_id":"levelo_inurba_marseille","lat":43.32666,"lon":5.386923,"is_reserved":false,"is_disabled":false,"rental_uris":{"android":"levelo://app?vid=ed137fe3-6e1c-4aeb-824f-b35f80ffe9d6","ios":"levelo://app?vid=ed137fe3-6e1c-4aeb-824f-b35f80ffe9d6"},"vehicle_type_id":"4","last_reported":1736096839,"current_range_meters":16400,"station_id":"","pricing_plan_id":"cebpf4jnsgd1na2vs0mg"},{"bike_id":"88fbd2f9-edba-4674-927d-ce8a9c56a0e7","system_id":"levelo_inurba_marseille","lat":43.28161,"lon":5.42641,"is_reserved":false,"is_disabled":false,"rental_uris":{"android":"levelo://app?vid=88fbd2f9-edba-4674-927d-ce8a9c56a0e7","ios":"levelo://app?vid=88fbd2f9-edba-4674-927d-ce8a9c56a0e7"},"vehicle_type_id":"4","last_reported":1736096839,"current_range_meters":30800,"station_id":"ce4bhnh2rcd13ifvqgug","pricing_plan_id":"cebpf4jnsgd1na2vs0mg"},{"bike_id":"bd609247-c05b-4bfd-8224-3974e4956916","system_id":"levelo_inurba_marseille","lat":43.30891,"lon":5.36856,"is_reserved":false,"is_disabled":true,"rental_uris":{"android":"levelo://app?vid=bd609247-c05b-4bfd-8224-3974e4956916","ios":"levelo://app?vid=bd609247-c05b-4bfd-8224-3974e4956916"},"vehicle_type_id":"4","last_reported":1736096839,"current_range_meters":31200,"station_id":"ce4bgn92rcd13ifvqbvg","pricing_plan_id":"cebpf4jnsgd1na2vs0mg"},{"bike_id":"4d3f4053-a024-4b2c-8c7b-a5c270c5feb5","system_id":"levelo_inurba_marseille","lat":43.2952,"lon":5.39395,"is_reserved":false,"is_disabled":false,"rental_uris":{"android":"levelo://app?vid=4d3f4053-a024-4b2c-8c7b-a5c270c5feb5","ios":"levelo://app?vid=4d3f4053-a024-4b2c-8c7b-a5c270c5feb5"},"vehicle_type_id":"4","last_reported":1736096839,"current_range_meters":38800,"station_id":"ce4bh292rcd13ifvqdf0","pricing_plan_id":"cebpf4jnsgd1na2vs0mg"},{"bike_id":"35f3e1ee-4f3b-4513-8f51-cc5a2fe40e8c","system_id":"levelo_inurba_marseille","lat":43.3054,"lon":5.36525,"is_reserved":false,"is_disabled":false,"rental_uris":{"android":"levelo://app?vid=35f3e1ee-4f3b-4513-8f51-cc5a2fe40e8c","ios":"levelo://app?vid=35f3e1ee-4f3b-4513-8f51-cc5a2fe40e8c"},"vehicle_type_id":"4","last_reported":1736096839,"current_range_meters":16800,"station_id":"ce4bgs12rcd13ifvqcag","pricing_plan_id":"cebpf4jnsgd1na2vs0mg"},{"bike_id":"f2d91b54-823d-4751-962d-d6fdb89d7f15","system_id":"levelo_inurba_marseille","lat":43.26936,"lon":5.40264,"is_reserved":false,"is_disabled":false,"rental_uris":{"android":"levelo://app?vid=f2d91b54-823d-4751-962d-d6fdb89d7f15","ios":"levelo://app?vid=f2d91b54-823d-4751-962d-d6fdb89d7f15"},"vehicle_type_id":"4","last_reported":1736096839,"current_range_meters":38800,"station_id":"cjm6bp8fraef2m0cb0m0","pricing_plan_id":"cebpf4jnsgd1na2vs0mg"},{"bike_id":"64535576-a10b-4267-bb39-70ba1ad202c1","system_id":"levelo_inurba_marseille","lat":43.24643,"lon":5.38884,"is_reserved":false,"is_disabled":false,"rental_uris":{"android":"levelo://app?vid=64535576-a10b-4267-bb39-70ba1ad202c1","ios":"levelo://app?vid=64535576-a10b-4267-bb39-70ba1ad202c1"},"vehicle_type_id":"4","last_reported":1736096839,"current_range_meters":38000,"station_id":"ce4bhg12rcd13ifvqf60","pricing_plan_id":"cebpf4jnsgd1na2vs0mg"},{"bike_id":"237eb7a7-7331-4631-9377-6cdbdc6e4e98","system_id":"levelo_inurba_marseille","lat":43.2656,"lon":5.3901,"is_reserved":false,"is_disabled":true,"rental_uris":{"android":"levelo://app?vid=237eb7a7-7331-4631-9377-6cdbdc6e4e98","ios":"levelo://app?vid=237eb7a7-7331-4631-9377-6cdbdc6e4e98"},"vehicle_type_id":"4","last_reported":1736096839,"current_range_meters":38400,"station_id":"ce4bhe12rcd13ifvqf30","pricing_plan_id":"cebpf4jnsgd1na2vs0mg"},{"bike_id":"4d4510ea-c8af-461f-9a1d-ace479473212","system_id":"levelo_inurba_marseille","lat":43.24394,"lon":5.37056,"is_reserved":false,"is_disabled":false,"rental_uris":{"android":"levelo://app?vid=4d4510ea-c8af-461f-9a1d-ace479473212","ios":"levelo://app?vid=4d4510ea-c8af-461f-9a1d-ace479473212"},"vehicle_type_id":"4","last_reported":1736096839,"current_range_meters":38800,"station_id":"ce4bhhh2rcd13ifvqfk0","pricing_plan_id":"cebpf4jnsgd1na2vs0mg"},{"bike_id":"0c626211-aa6b-4f65-9ef2-95c0b803c6a1","system_id":"levelo_inurba_marseille","lat":43.3052,"lon":5.36715,"is_reserved":false,"is_disabled":false,"rental_uris":{"android":"levelo://app?vid=0c626211-aa6b-4f65-9ef2-95c0b803c6a1","ios":"levelo://app?vid=0c626211-aa6b-4f65-9ef2-95c0b803c6a1"},"vehicle_type_id":"4","last_reported":1736096839,"current_range_meters":30800,"station_id":"ce4bgrp2rcd13ifvqc9g","pricing_plan_id":"cebpf4jnsgd1na2vs0mg"},{"bike_id":"983a939f-0c90-4b41-8e07-1ba37a328643","system_id":"levelo_inurba_marseille","lat":43.24172,"lon":5.36393,"is_reserved":false,"is_disabled":false,"rental_uris":{"android":"levelo://app?vid=983a939f-0c90-4b41-8e07-1ba37a328643","ios":"levelo://app?vid=983a939f-0c90-4b41-8e07-1ba37a328643"},"vehicle_type_id":"4","last_reported":1736096839,"current_range_meters":20000,"station_id":"cpo36qri1sfpv3e86is0","pricing_plan_id":"cebpf4jnsgd1na2vs0mg"},{"bike_id":"e92918ec-92c9-453f-8a2f-aeaed83ac5fd","system_id":"levelo_inurba_marseille","lat":43.24071,"lon":5.3775,"is_reserved":false,"is_disabled":false,"rental_uris":{"android":"levelo://app?vid=e92918ec-92c9-453f-8a2f-aeaed83ac5fd","ios":"levelo://app?vid=e92918ec-92c9-453f-8a2f-aeaed83ac5fd"},"vehicle_type_id":"4","last_reported":1736096839,"current_range_meters":38800,"station_id":"ce4bhnp2rcd13ifvqgvg","pricing_plan_id":"cebpf4jnsgd1na2vs0mg"},{"bike_id":"b1e80271-5ff9-43ba-899f-03fba0ba8cb8","system_id":"levelo_inurba_marseille","lat":43.29407,"lon":5.38645,"is_reserved":false,"is_disabled":false,"rental_uris":{"android":"levelo://app?vid=b1e80271-5ff9-43ba-899f-03fba0ba8cb8","ios":"levelo://app?vid=b1e80271-5ff9-43ba-899f-03fba0ba8cb8"},"vehicle_type_id":"4","last_reported":1736096839,"current_range_meters":30800,"station_id":"ce4bh2h2rcd13ifvqdh0","pricing_plan_id":"cebpf4jnsgd1na2vs0mg"},{"bike_id":"794820a8-3ae3-4e47-b94b-63ea56986ff5","system_id":"levelo_inurba_marseille","lat":43.29556,"lon":5.42293,"is_reserved":false,"is_disabled":false,"rental_uris":{"android":"levelo://app?vid=794820a8-3ae3-4e47-b94b-63ea56986ff5","ios":"levelo://app?vid=794820a8-3ae3-4e47-b94b-63ea56986ff5"},"vehicle_type_id":"4","last_reported":1736096839,"current_range_meters":17200,"station_id":"ce4bhph2rcd13ifvqhdg","pricing_plan_id":"cebpf4jnsgd1na2vs0mg"},{"bike_id":"8f62448e-8d69-4102-9830-9e19f003756b","system_id":"levelo_inurba_marseille","lat":43.23953,"lon":5.36636,"is_reserved":false,"is_disabled":false,"rental_uris":{"android":"levelo://app?vid=8f62448e-8d69-4102-9830-9e19f003756b","ios":"levelo://app?vid=8f62448e-8d69-4102-9830-9e19f003756b"},"vehicle_type_id":"4","last_reported":1736096839,"current_range_meters":28400,"station_id":"ce4bhi12rcd13ifvqfp0","pricing_plan_id":"cebpf4jnsgd1na2vs0mg"},{"bike_id":"2086696c-9889-48fc-ae4a-c3102f612638","system_id":"levelo_inurba_marseille","lat":43.30664,"lon":5.40057,"is_reserved":false,"is_disabled":false,"rental_uris":{"android":"levelo://app?vid=2086696c-9889-48fc-ae4a-c3102f612638","ios":"levelo://app?vid=2086696c-9889-48fc-ae4a-c3102f612638"},"vehicle_type_id":"4","last_reported":1736096839,"current_range_meters":8800,"station_id":"ce4bh112rcd13ifvqda0","pricing_plan_id":"cebpf4jnsgd1na2vs0mg"},{"bike_id":"02a6dd22-9e1d-4441-b49c-530d64f621e4","system_id":"levelo_inurba_marseille","lat":43.27051,"lon":5.40261,"is_reserved":false,"is_disabled":false,"rental_uris":{"android":"levelo://app?vid=02a6dd22-9e1d-4441-b49c-530d64f621e4","ios":"levelo://app?vid=02a6dd22-9e1d-4441-b49c-530d64f621e4"},"vehicle_type_id":"4","last_reported":1736096839,"current_range_meters":27200,"station_id":"ce4bhk92rcd13ifvqgc0","pricing_plan_id":"cebpf4jnsgd1na2vs0mg"},{"bike_id":"e7365c04-3134-4577-8695-99a505f43669","system_id":"levelo_inurba_marseille","lat":43.27941,"lon":5.41037,"is_reserved":false,"is_disabled":false,"rental_uris":{"android":"levelo://app?vid=e7365c04-3134-4577-8695-99a505f43669","ios":"levelo://app?vid=e7365c04-3134-4577-8695-99a505f43669"},"vehicle_type_id":"4","last_reported":1736096839,"current_range_meters":6000,"station_id":"ce4bhnp2rcd13ifvqh0g","pricing_plan_id":"cebpf4jnsgd1na2vs0mg"},{"bike_id":"cca2f7c7-45e7-4f8a-80d9-cffca2b70c93","system_id":"levelo_inurba_marseille","lat":43.26686,"lon":5.38257,"is_reserved":false,"is_disabled":true,"rental_uris":{"android":"levelo://app?vid=cca2f7c7-45e7-4f8a-80d9-cffca2b70c93","ios":"levelo://app?vid=cca2f7c7-45e7-4f8a-80d9-cffca2b70c93"},"vehicle_type_id":"4","last_reported":1736096839,"current_range_meters":38400,"station_id":"ce4bhg92rcd13ifvqf90","pricing_plan_id":"cebpf4jnsgd1na2vs0mg"},{"bike_id":"f96bcc2b-87cf-4b32-a052-cf56327dd9b4","system_id":"levelo_inurba_marseille","lat":43.30137,"lon":5.37427,"is_reserved":false,"is_disabled":false,"rental_uris":{"android":"levelo://app?vid=f96bcc2b-87cf-4b32-a052-cf56327dd9b4","ios":"levelo://app?vid=f96bcc2b-87cf-4b32-a052-cf56327dd9b4"},"vehicle_type_id":"4","last_reported":1736096839,"current_range_meters":38800,"station_id":"ce4bgs92rcd13ifvqcc0","pricing_plan_id":"cebpf4jnsgd1na2vs0mg"},{"bike_id":"43a94309-fd89-4188-84a5-3b423fa9223d","system_id":"levelo_inurba_marseille","lat":43.27202,"lon":5.39173,"is_reserved":false,"is_disabled":false,"rental_uris":{"android":"levelo://app?vid=43a94309-fd89-4188-84a5-3b423fa9223d","ios":"levelo://app?vid=43a94309-fd89-4188-84a5-3b423fa9223d"},"vehicle_type_id":"4","last_reported":1736096839,"current_range_meters":19200,"station_id":"ce4bhhp2rcd13ifvqfm0","pricing_plan_id":"cebpf4jnsgd1na2vs0mg"},{"bike_id":"0939c420-346c-411f-96c1-149f5a5427de","system_id":"levelo_inurba_marseille","lat":43.305436,"lon":5.36548,"is_reserved":false,"is_disabled":false,"rental_uris":{"android":"levelo://app?vid=0939c420-346c-411f-96c1-149f5a5427de","ios":"levelo://app?vid=0939c420-346c-411f-96c1-149f5a5427de"},"vehicle_type_id":"4","last_reported":1736096839,"current_range_meters":38400,"station_id":"ce4bgs12rcd13ifvqcag","pricing_plan_id":"cebpf4jnsgd1na2vs0mg"},{"bike_id":"c0e1e6f5-8e83-4cc4-872e-59a7093402cd","system_id":"levelo_inurba_marseille","lat":43.28469,"lon":5.38422,"is_reserved":false,"is_disabled":false,"rental_uris":{"android":"levelo://app?vid=c0e1e6f5-8e83-4cc4-872e-59a7093402cd","ios":"levelo://app?vid=c0e1e6f5-8e83-4cc4-872e-59a7093402cd"},"vehicle_type_id":"4","last_reported":1736096839,"current_range_meters":38800,"station_id":"ce4bh512rcd13ifvqe3g","pricing_plan_id":"cebpf4jnsgd1na2vs0mg"},{"bike_id":"51202ce5-2a3b-42dc-83dd-848655cb0bd3","system_id":"levelo_inurba_marseille","lat":43.3014,"lon":5.38772,"is_reserved":false,"is_disabled":false,"rental_uris":{"android":"levelo://app?vid=51202ce5-2a3b-42dc-83dd-848655cb0bd3","ios":"levelo://app?vid=51202ce5-2a3b-42dc-83dd-848655cb0bd3"},"vehicle_type_id":"4","last_reported":1736096839,"current_range_meters":38400,"station_id":"ce4bhoh2rcd13ifvqh6g","pricing_plan_id":"cebpf4jnsgd1na2vs0mg"},{"bike_id":"182c8827-ad8b-4aa6-9862-5b2da55309dc","system_id":"levelo_inurba_marseille","lat":43.29245,"lon":5.36056,"is_reserved":false,"is_disabled":true,"rental_uris":{"android":"levelo://app?vid=182c8827-ad8b-4aa6-9862-5b2da55309dc","ios":"levelo://app?vid=182c8827-ad8b-4aa6-9862-5b2da55309dc"},"vehicle_type_id":"4","last_reported":1736096839,"current_range_meters":38800,"station_id":"ce4bhbh2rcd13ifvqeqg","pricing_plan_id":"cebpf4jnsgd1na2vs0mg"},{"bike_id":"d8b76d84-2dfc-400f-9630-9e7b0787e9cc","system_id":"levelo_inurba_marseille","lat":43.27517,"lon":5.42441,"is_reserved":false,"is_disabled":true,"rental_uris":{"android":"levelo://app?vid=d8b76d84-2dfc-400f-9630-9e7b0787e9cc","ios":"levelo://app?vid=d8b76d84-2dfc-400f-9630-9e7b0787e9cc"},"vehicle_type_id":"4","last_reported":1736096839,"current_range_meters":38000,"station_id":"ce4bhn92rcd13ifvqgrg","pricing_plan_id":"cebpf4jnsgd1na2vs0mg"},{"bike_id":"06bd782e-2540-41b2-b561-e85c699b8767","system_id":"levelo_inurba_marseille","lat":43.2465,"lon":5.38895,"is_reserved":false,"is_disabled":false,"rental_uris":{"android":"levelo://app?vid=06bd782e-2540-41b2-b561-e85c699b8767","ios":"levelo://app?vid=06bd782e-2540-41b2-b561-e85c699b8767"},"vehicle_type_id":"4","last_reported":1736096839,"current_range_meters":14800,"station_id":"ce4bhg12rcd13ifvqf60","pricing_plan_id":"cebpf4jnsgd1na2vs0mg"},{"bike_id":"eaecfcca-aa89-4e9a-8d17-c5be1539665b","system_id":"levelo_inurba_marseille","lat":43.28272,"lon":5.35061,"is_reserved":false,"is_disabled":true,"rental_uris":{"android":"levelo://app?vid=eaecfcca-aa89-4e9a-8d17-c5be1539665b","ios":"levelo://app?vid=eaecfcca-aa89-4e9a-8d17-c5be1539665b"},"vehicle_type_id":"4","last_reported":1736096839,"current_range_meters":38800,"station_id":"ce4bhbp2rcd13ifvqerg","pricing_plan_id":"cebpf4jnsgd1na2vs0mg"},{"bike_id":"b8c4a579-5d35-42ea-af47-f7f408363b23","system_id":"levelo_inurba_marseille","lat":43.290219,"lon":5.381244,"is_reserved":false,"is_disabled":false,"rental_uris":{"android":"levelo://app?vid=b8c4a579-5d35-42ea-af47-f7f408363b23","ios":"levelo://app?vid=b8c4a579-5d35-42ea-af47-f7f408363b23"},"vehicle_type_id":"4","last_reported":1736096839,"current_range_meters":38800,"station_id":"ce4bh4p2rcd13ifvqe1g","pricing_plan_id":"cebpf4jnsgd1na2vs0mg"},{"bike_id":"bbf16901-1354-41cb-b2ef-aa011be26434","system_id":"levelo_inurba_marseille","lat":43.26807,"lon":5.40259,"is_reserved":false,"is_disabled":false,"rental_uris":{"android":"levelo://app?vid=bbf16901-1354-41cb-b2ef-aa011be26434","ios":"levelo://app?vid=bbf16901-1354-41cb-b2ef-aa011be26434"},"vehicle_type_id":"4","last_reported":1736096839,"current_range_meters":38800,"station_id":"ce501612rcd8frsf0b60","pricing_plan_id":"cebpf4jnsgd1na2vs0mg"},{"bike_id":"d317a661-ead2-4439-9955-0fcda7e8df6a","system_id":"levelo_inurba_marseille","lat":43.28034,"lon":5.36949,"is_reserved":false,"is_disabled":false,"rental_uris":{"android":"levelo://app?vid=d317a661-ead2-4439-9955-0fcda7e8df6a","ios":"levelo://app?vid=d317a661-ead2-4439-9955-0fcda7e8df6a"},"vehicle_type_id":"4","last_reported":1736096839,"current_range_meters":24800,"station_id":"ce4bha12rcd13ifvqef0","pricing_plan_id":"cebpf4jnsgd1na2vs0mg"},{"bike_id":"5b53cdbb-e956-491d-abfd-f570481351c9","system_id":"levelo_inurba_marseille","lat":43.23065,"lon":5.35488,"is_reserved":false,"is_disabled":false,"rental_uris":{"android":"levelo://app?vid=5b53cdbb-e956-491d-abfd-f570481351c9","ios":"levelo://app?vid=5b53cdbb-e956-491d-abfd-f570481351c9"},"vehicle_type_id":"4","last_reported":1736096839,"current_range_meters":32800,"station_id":"cpo3342slgdg3j2ifvpg","pricing_plan_id":"cebpf4jnsgd1na2vs0mg"},{"bike_id":"bacd7571-be15-43c7-8506-8086a631a213","system_id":"levelo_inurba_marseille","lat":43.2512,"lon":5.40318,"is_reserved":false,"is_disabled":false,"rental_uris":{"android":"levelo://app?vid=bacd7571-be15-43c7-8506-8086a631a213","ios":"levelo://app?vid=bacd7571-be15-43c7-8506-8086a631a213"},"vehicle_type_id":"4","last_reported":1736096839,"current_range_meters":38400,"station_id":"ce4bhlh2rcd13ifvqgig","pricing_plan_id":"cebpf4jnsgd1na2vs0mg"},{"bike_id":"24748a66-90e0-43fd-953d-e7a4e4c4876f","system_id":"levelo_inurba_marseille","lat":43.26212,"lon":5.37444,"is_reserved":false,"is_disabled":false,"rental_uris":{"android":"levelo://app?vid=24748a66-90e0-43fd-953d-e7a4e4c4876f","ios":"levelo://app?vid=24748a66-90e0-43fd-953d-e7a4e4c4876f"},"vehicle_type_id":"4","last_reported":1736096839,"current_range_meters":20400,"station_id":"ce4bhgp2rcd13ifvqfc0","pricing_plan_id":"cebpf4jnsgd1na2vs0mg"},{"bike_id":"25db18c1-6dfa-438a-970b-996348c10f8e","system_id":"levelo_inurba_marseille","lat":43.29519,"lon":5.39404,"is_reserved":false,"is_disabled":false,"rental_uris":{"android":"levelo://app?vid=25db18c1-6dfa-438a-970b-996348c10f8e","ios":"levelo://app?vid=25db18c1-6dfa-438a-970b-996348c10f8e"},"vehicle_type_id":"4","last_reported":1736096839,"current_range_meters":16800,"station_id":"ce4bh292rcd13ifvqdf0","pricing_plan_id":"cebpf4jnsgd1na2vs0mg"},{"bike_id":"615d144f-9602-406c-b8c9-9e98645a521f","system_id":"levelo_inurba_marseille","lat":43.29523,"lon":5.39405,"is_reserved":false,"is_disabled":false,"rental_uris":{"android":"levelo://app?vid=615d144f-9602-406c-b8c9-9e98645a521f","ios":"levelo://app?vid=615d144f-9602-406c-b8c9-9e98645a521f"},"vehicle_type_id":"4","last_reported":1736096839,"current_range_meters":3600,"station_id":"ce4bh292rcd13ifvqdf0","pricing_plan_id":"cebpf4jnsgd1na2vs0mg"},{"bike_id":"24bccac7-1e4b-45e8-bc23-0feeff5509f0","system_id":"levelo_inurba_marseille","lat":43.26496,"lon":5.39538,"is_reserved":false,"is_disabled":true,"rental_uris":{"android":"levelo://app?vid=24bccac7-1e4b-45e8-bc23-0feeff5509f0","ios":"levelo://app?vid=24bccac7-1e4b-45e8-bc23-0feeff5509f0"},"vehicle_type_id":"4","last_reported":1736096839,"current_range_meters":0,"station_id":"ce4bhi12rcd13ifvqfq0","pricing_plan_id":"cebpf4jnsgd1na2vs0mg"},{"bike_id":"4a817e84-4a26-4682-9432-a002a012e0a3","system_id":"levelo_inurba_marseille","lat":43.26952,"lon":5.38625,"is_reserved":false,"is_disabled":false,"rental_uris":{"android":"levelo://app?vid=4a817e84-4a26-4682-9432-a002a012e0a3","ios":"levelo://app?vid=4a817e84-4a26-4682-9432-a002a012e0a3"},"vehicle_type_id":"4","last_reported":1736096839,"current_range_meters":31200,"station_id":"ce4bhh92rcd13ifvqfh0","pricing_plan_id":"cebpf4jnsgd1na2vs0mg"},{"bike_id":"86dd838a-b38f-4cec-be7d-760391d66dd9","system_id":"levelo_inurba_marseille","lat":43.29194,"lon":5.35808,"is_reserved":false,"is_disabled":false,"rental_uris":{"android":"levelo://app?vid=86dd838a-b38f-4cec-be7d-760391d66dd9","ios":"levelo://app?vid=86dd838a-b38f-4cec-be7d-760391d66dd9"},"vehicle_type_id":"4","last_reported":1736096839,"current_range_meters":22400,"station_id":"ce4bhb12rcd13ifvqel0","pricing_plan_id":"cebpf4jnsgd1na2vs0mg"},{"bike_id":"d400eb61-16e5-4772-875c-c1ea2e3b188d","system_id":"levelo_inurba_marseille","lat":43.27687,"lon":5.38926,"is_reserved":false,"is_disabled":false,"rental_uris":{"android":"levelo://app?vid=d400eb61-16e5-4772-875c-c1ea2e3b188d","ios":"levelo://app?vid=d400eb61-16e5-4772-875c-c1ea2e3b188d"},"vehicle_type_id":"4","last_reported":1736096839,"current_range_meters":38800,"station_id":"ce4bhi12rcd13ifvqfo0","pricing_plan_id":"cebpf4jnsgd1na2vs0mg"},{"bike_id":"f02514bd-3bf5-470d-bac4-c41b52c8a8e6","system_id":"levelo_inurba_marseille","lat":43.29409,"lon":5.38626,"is_reserved":false,"is_disabled":false,"rental_uris":{"android":"levelo://app?vid=f02514bd-3bf5-470d-bac4-c41b52c8a8e6","ios":"levelo://app?vid=f02514bd-3bf5-470d-bac4-c41b52c8a8e6"},"vehicle_type_id":"4","last_reported":1736096839,"current_range_meters":26800,"station_id":"ce4bh2h2rcd13ifvqdh0","pricing_plan_id":"cebpf4jnsgd1na2vs0mg"},{"bike_id":"55eb4f9e-055d-45a9-a404-9e0d3a07a877","system_id":"levelo_inurba_marseille","lat":43.29261,"lon":5.401163,"is_reserved":false,"is_disabled":true,"rental_uris":{"android":"levelo://app?vid=55eb4f9e-055d-45a9-a404-9e0d3a07a877","ios":"levelo://app?vid=55eb4f9e-055d-45a9-a404-9e0d3a07a877"},"vehicle_type_id":"4","last_reported":1736096839,"current_range_meters":800,"station_id":"ce4bh312rcd13ifvqdk0","pricing_plan_id":"cebpf4jnsgd1na2vs0mg"},{"bike_id":"dec48ff9-46f1-45b2-af89-3775a7227852","system_id":"levelo_inurba_marseille","lat":43.27362,"lon":5.36244,"is_reserved":false,"is_disabled":false,"rental_uris":{"android":"levelo://app?vid=dec48ff9-46f1-45b2-af89-3775a7227852","ios":"levelo://app?vid=dec48ff9-46f1-45b2-af89-3775a7227852"},"vehicle_type_id":"4","last_reported":1736096839,"current_range_meters":38800,"station_id":"ce4bhbh2rcd13ifvqeo0","pricing_plan_id":"cebpf4jnsgd1na2vs0mg"},{"bike_id":"177c1e4d-2fcb-4b52-a3bf-88a2132c12b4","system_id":"levelo_inurba_marseille","lat":43.287,"lon":5.37394,"is_reserved":false,"is_disabled":true,"rental_uris":{"android":"levelo://app?vid=177c1e4d-2fcb-4b52-a3bf-88a2132c12b4","ios":"levelo://app?vid=177c1e4d-2fcb-4b52-a3bf-88a2132c12b4"},"vehicle_type_id":"4","last_reported":1736096839,"current_range_meters":1200,"station_id":"ce4bh3p2rcd13ifvqdq0","pricing_plan_id":"cebpf4jnsgd1na2vs0mg"},{"bike_id":"d45d0089-5e8c-41ac-a04c-9866c8dc94cc","system_id":"levelo_inurba_marseille","lat":43.232,"lon":5.3555,"is_reserved":false,"is_disabled":false,"rental_uris":{"android":"levelo://app?vid=d45d0089-5e8c-41ac-a04c-9866c8dc94cc","ios":"levelo://app?vid=d45d0089-5e8c-41ac-a04c-9866c8dc94cc"},"vehicle_type_id":"4","last_reported":1736096839,"current_range_meters":10800,"station_id":"ce4bhu92rcd13ifvqi70","pricing_plan_id":"cebpf4jnsgd1na2vs0mg"},{"bike_id":"b5de95e0-8f34-41aa-a5fc-c4e76e03a994","system_id":"levelo_inurba_marseille","lat":43.28076,"lon":5.39636,"is_reserved":false,"is_disabled":true,"rental_uris":{"android":"levelo://app?vid=b5de95e0-8f34-41aa-a5fc-c4e76e03a994","ios":"levelo://app?vid=b5de95e0-8f34-41aa-a5fc-c4e76e03a994"},"vehicle_type_id":"4","last_reported":1736096839,"current_range_meters":30400,"station_id":"ce4bho12rcd13ifvqh2g","pricing_plan_id":"cebpf4jnsgd1na2vs0mg"},{"bike_id":"aa33a53e-f806-43a8-ad7e-8e2bd9644426","system_id":"levelo_inurba_marseille","lat":43.32345,"lon":5.40629,"is_reserved":false,"is_disabled":true,"rental_uris":{"android":"levelo://app?vid=aa33a53e-f806-43a8-ad7e-8e2bd9644426","ios":"levelo://app?vid=aa33a53e-f806-43a8-ad7e-8e2bd9644426"},"vehicle_type_id":"4","last_reported":1736096839,"current_range_meters":0,"station_id":"ce4bhq92rcd13ifvqhjg","pricing_plan_id":"cebpf4jnsgd1na2vs0mg"},{"bike_id":"be19a5cb-6dd8-4bfa-80d4-2363aed27b68","system_id":"levelo_inurba_marseille","lat":43.30297,"lon":5.38451,"is_reserved":false,"is_disabled":false,"rental_uris":{"android":"levelo://app?vid=be19a5cb-6dd8-4bfa-80d4-2363aed27b68","ios":"levelo://app?vid=be19a5cb-6dd8-4bfa-80d4-2363aed27b68"},"vehicle_type_id":"4","last_reported":1736096839,"current_range_meters":30800,"station_id":"","pricing_plan_id":"cebpf4jnsgd1na2vs0mg"},{"bike_id":"6b455687-bb82-4d97-b8eb-de58185ea05e","system_id":"levelo_inurba_marseille","lat":43.30484,"lon":5.37297,"is_reserved":false,"is_disabled":false,"rental_uris":{"android":"levelo://app?vid=6b455687-bb82-4d97-b8eb-de58185ea05e","ios":"levelo://app?vid=6b455687-bb82-4d97-b8eb-de58185ea05e"},"vehicle_type_id":"4","last_reported":1736096839,"current_range_meters":20400,"station_id":"","pricing_plan_id":"cebpf4jnsgd1na2vs0mg"},{"bike_id":"9237568d-205a-4e7f-a99d-2eb8ec7ae3de","system_id":"levelo_inurba_marseille","lat":43.31356,"lon":5.36709,"is_reserved":false,"is_disabled":false,"rental_uris":{"android":"levelo://app?vid=9237568d-205a-4e7f-a99d-2eb8ec7ae3de","ios":"levelo://app?vid=9237568d-205a-4e7f-a99d-2eb8ec7ae3de"},"vehicle_type_id":"4","last_reported":1736096839,"current_range_meters":34800,"station_id":"ce4bgr92rcd13ifvqc6g","pricing_plan_id":"cebpf4jnsgd1na2vs0mg"},{"bike_id":"45744d07-eb73-453c-b6ee-d9a256b9901b","system_id":"levelo_inurba_marseille","lat":43.30967,"lon":5.39045,"is_reserved":false,"is_disabled":true,"rental_uris":{"android":"levelo://app?vid=45744d07-eb73-453c-b6ee-d9a256b9901b","ios":"levelo://app?vid=45744d07-eb73-453c-b6ee-d9a256b9901b"},"vehicle_type_id":"4","last_reported":1736096839,"current_range_meters":12800,"station_id":"ce4bgup2rcd13ifvqco0","pricing_plan_id":"cebpf4jnsgd1na2vs0mg"},{"bike_id":"43dd8b3b-a6ba-4cb6-97e3-44663f5d001f","system_id":"levelo_inurba_marseille","lat":43.26941,"lon":5.40255,"is_reserved":false,"is_disabled":false,"rental_uris":{"android":"levelo://app?vid=43dd8b3b-a6ba-4cb6-97e3-44663f5d001f","ios":"levelo://app?vid=43dd8b3b-a6ba-4cb6-97e3-44663f5d001f"},"vehicle_type_id":"4","last_reported":1736096839,"current_range_meters":30800,"station_id":"cjm6bp8fraef2m0cb0m0","pricing_plan_id":"cebpf4jnsgd1na2vs0mg"},{"bike_id":"c8c2daf6-6374-4a9e-b2d5-2cf9f2f11780","system_id":"levelo_inurba_marseille","lat":43.26793,"lon":5.40279,"is_reserved":false,"is_disabled":false,"rental_uris":{"android":"levelo://app?vid=c8c2daf6-6374-4a9e-b2d5-2cf9f2f11780","ios":"levelo://app?vid=c8c2daf6-6374-4a9e-b2d5-2cf9f2f11780"},"vehicle_type_id":"4","last_reported":1736096839,"current_range_meters":15200,"station_id":"ce501612rcd8frsf0b60","pricing_plan_id":"cebpf4jnsgd1na2vs0mg"},{"bike_id":"e14fc727-e110-4847-a3c5-e82ea6a6fcb8","system_id":"levelo_inurba_marseille","lat":43.28951,"lon":5.39594,"is_reserved":false,"is_disabled":true,"rental_uris":{"android":"levelo://app?vid=e14fc727-e110-4847-a3c5-e82ea6a6fcb8","ios":"levelo://app?vid=e14fc727-e110-4847-a3c5-e82ea6a6fcb8"},"vehicle_type_id":"4","last_reported":1736096839,"current_range_meters":36000,"station_id":"ce4bh3h2rcd13ifvqdn0","pricing_plan_id":"cebpf4jnsgd1na2vs0mg"},{"bike_id":"ad61caab-ed76-48fb-b594-4605be6c3c4b","system_id":"levelo_inurba_marseille","lat":43.293,"lon":5.3717,"is_reserved":false,"is_disabled":true,"rental_uris":{"android":"levelo://app?vid=ad61caab-ed76-48fb-b594-4605be6c3c4b","ios":"levelo://app?vid=ad61caab-ed76-48fb-b594-4605be6c3c4b"},"vehicle_type_id":"4","last_reported":1736096839,"current_range_meters":36400,"station_id":"ce4bgh92rcd13ifvqb40","pricing_plan_id":"cebpf4jnsgd1na2vs0mg"},{"bike_id":"b233ad3d-7017-4b6b-a853-aa24627a188d","system_id":"levelo_inurba_marseille","lat":43.29527,"lon":5.38531,"is_reserved":false,"is_disabled":false,"rental_uris":{"android":"levelo://app?vid=b233ad3d-7017-4b6b-a853-aa24627a188d","ios":"levelo://app?vid=b233ad3d-7017-4b6b-a853-aa24627a188d"},"vehicle_type_id":"4","last_reported":1736096839,"current_range_meters":24800,"station_id":"ce4bgih2rcd13ifvqba0","pricing_plan_id":"cebpf4jnsgd1na2vs0mg"},{"bike_id":"cdde791c-00c7-4d4f-abe9-f9cd2bd23184","system_id":"levelo_inurba_marseille","lat":43.29792,"lon":5.38108,"is_reserved":false,"is_disabled":false,"rental_uris":{"android":"levelo://app?vid=cdde791c-00c7-4d4f-abe9-f9cd2bd23184","ios":"levelo://app?vid=cdde791c-00c7-4d4f-abe9-f9cd2bd23184"},"vehicle_type_id":"4","last_reported":1736096839,"current_range_meters":38000,"station_id":"ce4bgip2rcd13ifvqbb0","pricing_plan_id":"cebpf4jnsgd1na2vs0mg"},{"bike_id":"51712a27-a795-4ed2-baa3-5d4899018a4a","system_id":"levelo_inurba_marseille","lat":43.30592,"lon":5.39341,"is_reserved":false,"is_disabled":false,"rental_uris":{"android":"levelo://app?vid=51712a27-a795-4ed2-baa3-5d4899018a4a","ios":"levelo://app?vid=51712a27-a795-4ed2-baa3-5d4899018a4a"},"vehicle_type_id":"4","last_reported":1736096839,"current_range_meters":8000,"station_id":"ce4bh0p2rcd13ifvqd80","pricing_plan_id":"cebpf4jnsgd1na2vs0mg"},{"bike_id":"ad539604-9e59-421d-a71a-49da59bdd974","system_id":"levelo_inurba_marseille","lat":43.2902,"lon":5.38632,"is_reserved":false,"is_disabled":true,"rental_uris":{"android":"levelo://app?vid=ad539604-9e59-421d-a71a-49da59bdd974","ios":"levelo://app?vid=ad539604-9e59-421d-a71a-49da59bdd974"},"vehicle_type_id":"4","last_reported":1736096839,"current_range_meters":28400,"station_id":"ce4bh4p2rcd13ifvqe0g","pricing_plan_id":"cebpf4jnsgd1na2vs0mg"},{"bike_id":"68b409ba-7a44-42dc-ae3b-6418ba6f5e03","system_id":"levelo_inurba_marseille","lat":43.29911,"lon":5.37462,"is_reserved":false,"is_disabled":false,"rental_uris":{"android":"levelo://app?vid=68b409ba-7a44-42dc-ae3b-6418ba6f5e03","ios":"levelo://app?vid=68b409ba-7a44-42dc-ae3b-6418ba6f5e03"},"vehicle_type_id":"4","last_reported":1736096839,"current_range_meters":38800,"station_id":"ce4bgjh2rcd13ifvqbg0","pricing_plan_id":"cebpf4jnsgd1na2vs0mg"},{"bike_id":"5c6da38e-e0aa-48e9-9321-247d52bbdb9b","system_id":"levelo_inurba_marseille","lat":43.28724,"lon":5.36098,"is_reserved":false,"is_disabled":false,"rental_uris":{"android":"levelo://app?vid=5c6da38e-e0aa-48e9-9321-247d52bbdb9b","ios":"levelo://app?vid=5c6da38e-e0aa-48e9-9321-247d52bbdb9b"},"vehicle_type_id":"4","last_reported":1736096839,"current_range_meters":14400,"station_id":"cki0cbj6b192h4jlfktg","pricing_plan_id":"cebpf4jnsgd1na2vs0mg"},{"bike_id":"8a474426-cd46-4cf8-9edc-ef843a0ca02e","system_id":"levelo_inurba_marseille","lat":43.26531,"lon":5.39065,"is_reserved":false,"is_disabled":true,"rental_uris":{"android":"levelo://app?vid=8a474426-cd46-4cf8-9edc-ef843a0ca02e","ios":"levelo://app?vid=8a474426-cd46-4cf8-9edc-ef843a0ca02e"},"vehicle_type_id":"4","last_reported":1736096839,"current_range_meters":36400,"station_id":"","pricing_plan_id":"cebpf4jnsgd1na2vs0mg"},{"bike_id":"d0234cf8-3190-48a6-bab2-6c84efe1b44c","system_id":"levelo_inurba_marseille","lat":43.24817,"lon":5.37445,"is_reserved":false,"is_disabled":false,"rental_uris":{"android":"levelo://app?vid=d0234cf8-3190-48a6-bab2-6c84efe1b44c","ios":"levelo://app?vid=d0234cf8-3190-48a6-bab2-6c84efe1b44c"},"vehicle_type_id":"4","last_reported":1736096839,"current_range_meters":38800,"station_id":"ce4bhgh2rcd13ifvqfb0","pricing_plan_id":"cebpf4jnsgd1na2vs0mg"},{"bike_id":"bbf998ea-d252-4590-8711-16d78ff4b07c","system_id":"levelo_inurba_marseille","lat":43.24641,"lon":5.3889,"is_reserved":false,"is_disabled":false,"rental_uris":{"android":"levelo://app?vid=bbf998ea-d252-4590-8711-16d78ff4b07c","ios":"levelo://app?vid=bbf998ea-d252-4590-8711-16d78ff4b07c"},"vehicle_type_id":"4","last_reported":1736096839,"current_range_meters":33600,"station_id":"ce4bhg12rcd13ifvqf60","pricing_plan_id":"cebpf4jnsgd1na2vs0mg"},{"bike_id":"bd5a7838-296c-45bd-b088-fa4b47d0b1d1","system_id":"levelo_inurba_marseille","lat":43.29059,"lon":5.35916,"is_reserved":false,"is_disabled":false,"rental_uris":{"android":"levelo://app?vid=bd5a7838-296c-45bd-b088-fa4b47d0b1d1","ios":"levelo://app?vid=bd5a7838-296c-45bd-b088-fa4b47d0b1d1"},"vehicle_type_id":"4","last_reported":1736096839,"current_range_meters":23200,"station_id":"ce4bha92rcd13ifvqeg0","pricing_plan_id":"cebpf4jnsgd1na2vs0mg"},{"bike_id":"5171774c-1abc-40a4-abdb-df99c2e3b8b7","system_id":"levelo_inurba_marseille","lat":43.28665,"lon":5.38667,"is_reserved":false,"is_disabled":false,"rental_uris":{"android":"levelo://app?vid=5171774c-1abc-40a4-abdb-df99c2e3b8b7","ios":"levelo://app?vid=5171774c-1abc-40a4-abdb-df99c2e3b8b7"},"vehicle_type_id":"4","last_reported":1736096839,"current_range_meters":7200,"station_id":"ce4bh492rcd13ifvqdug","pricing_plan_id":"cebpf4jnsgd1na2vs0mg"},{"bike_id":"32341ba0-ec36-4555-8c52-52fff43649a2","system_id":"levelo_inurba_marseille","lat":43.2903,"lon":5.38635,"is_reserved":false,"is_disabled":false,"rental_uris":{"android":"levelo://app?vid=32341ba0-ec36-4555-8c52-52fff43649a2","ios":"levelo://app?vid=32341ba0-ec36-4555-8c52-52fff43649a2"},"vehicle_type_id":"4","last_reported":1736096839,"current_range_meters":38000,"station_id":"ce4bh4p2rcd13ifvqe0g","pricing_plan_id":"cebpf4jnsgd1na2vs0mg"},{"bike_id":"f5a4a49b-f269-4ec2-b80a-e579bf67a966","system_id":"levelo_inurba_marseille","lat":43.29532,"lon":5.36136,"is_reserved":false,"is_disabled":true,"rental_uris":{"android":"levelo://app?vid=f5a4a49b-f269-4ec2-b80a-e579bf67a966","ios":"levelo://app?vid=f5a4a49b-f269-4ec2-b80a-e579bf67a966"},"vehicle_type_id":"4","last_reported":1736096839,"current_range_meters":36400,"station_id":"","pricing_plan_id":"cebpf4jnsgd1na2vs0mg"},{"bike_id":"6f21fba1-6f8e-47c4-a476-286cca5f9cc6","system_id":"levelo_inurba_marseille","lat":43.28276,"lon":5.35067,"is_reserved":false,"is_disabled":true,"rental_uris":{"android":"levelo://app?vid=6f21fba1-6f8e-47c4-a476-286cca5f9cc6","ios":"levelo://app?vid=6f21fba1-6f8e-47c4-a476-286cca5f9cc6"},"vehicle_type_id":"4","last_reported":1736096839,"current_range_meters":0,"station_id":"ce4bhbp2rcd13ifvqerg","pricing_plan_id":"cebpf4jnsgd1na2vs0mg"},{"bike_id":"21f0e3c2-495a-43ca-b213-21dd4a411241","system_id":"levelo_inurba_marseille","lat":43.28439,"lon":5.39185,"is_reserved":false,"is_disabled":false,"rental_uris":{"android":"levelo://app?vid=21f0e3c2-495a-43ca-b213-21dd4a411241","ios":"levelo://app?vid=21f0e3c2-495a-43ca-b213-21dd4a411241"},"vehicle_type_id":"4","last_reported":1736096839,"current_range_meters":37600,"station_id":"ce4bhoh2rcd13ifvqh5g","pricing_plan_id":"cebpf4jnsgd1na2vs0mg"},{"bike_id":"c431409a-fef6-45e4-bea8-b57c1f90851e","system_id":"levelo_inurba_marseille","lat":43.29679,"lon":5.37297,"is_reserved":false,"is_disabled":false,"rental_uris":{"android":"levelo://app?vid=c431409a-fef6-45e4-bea8-b57c1f90851e","ios":"levelo://app?vid=c431409a-fef6-45e4-bea8-b57c1f90851e"},"vehicle_type_id":"4","last_reported":1736096839,"current_range_meters":38400,"station_id":"ce4bgk12rcd13ifvqbj0","pricing_plan_id":"cebpf4jnsgd1na2vs0mg"},{"bike_id":"36c04b30-57d1-4d6c-9711-657aa9889b2d","system_id":"levelo_inurba_marseille","lat":43.28426,"lon":5.39186,"is_reserved":false,"is_disabled":false,"rental_uris":{"android":"levelo://app?vid=36c04b30-57d1-4d6c-9711-657aa9889b2d","ios":"levelo://app?vid=36c04b30-57d1-4d6c-9711-657aa9889b2d"},"vehicle_type_id":"4","last_reported":1736096839,"current_range_meters":39200,"station_id":"ce4bhoh2rcd13ifvqh5g","pricing_plan_id":"cebpf4jnsgd1na2vs0mg"},{"bike_id":"0bcfea18-61ca-412d-bded-b63f59943884","system_id":"levelo_inurba_marseille","lat":43.28613,"lon":5.35107,"is_reserved":false,"is_disabled":true,"rental_uris":{"android":"levelo://app?vid=0bcfea18-61ca-412d-bded-b63f59943884","ios":"levelo://app?vid=0bcfea18-61ca-412d-bded-b63f59943884"},"vehicle_type_id":"4","last_reported":1736096839,"current_range_meters":37600,"station_id":"ce4bhch2rcd13ifvqeug","pricing_plan_id":"cebpf4jnsgd1na2vs0mg"},{"bike_id":"29ee6144-778f-4897-91bf-1d37844861a5","system_id":"levelo_inurba_marseille","lat":43.24804,"lon":5.37448,"is_reserved":false,"is_disabled":false,"rental_uris":{"android":"levelo://app?vid=29ee6144-778f-4897-91bf-1d37844861a5","ios":"levelo://app?vid=29ee6144-778f-4897-91bf-1d37844861a5"},"vehicle_type_id":"4","last_reported":1736096839,"current_range_meters":36400,"station_id":"ce4bhgh2rcd13ifvqfb0","pricing_plan_id":"cebpf4jnsgd1na2vs0mg"},{"bike_id":"a7f33ffe-1cf8-4ffb-9474-609727d40741","system_id":"levelo_inurba_marseille","lat":43.27566,"lon":5.38435,"is_reserved":false,"is_disabled":false,"rental_uris":{"android":"levelo://app?vid=a7f33ffe-1cf8-4ffb-9474-609727d40741","ios":"levelo://app?vid=a7f33ffe-1cf8-4ffb-9474-609727d40741"},"vehicle_type_id":"4","last_reported":1736096839,"current_range_meters":4000,"station_id":"ce4bhh92rcd13ifvqfi0","pricing_plan_id":"cebpf4jnsgd1na2vs0mg"},{"bike_id":"4d29d8ee-0808-4f38-84d5-f152acc8459a","system_id":"levelo_inurba_marseille","lat":43.2958,"lon":5.37509,"is_reserved":false,"is_disabled":true,"rental_uris":{"android":"levelo://app?vid=4d29d8ee-0808-4f38-84d5-f152acc8459a","ios":"levelo://app?vid=4d29d8ee-0808-4f38-84d5-f152acc8459a"},"vehicle_type_id":"4","last_reported":1736096839,"current_range_meters":36800,"station_id":"ce4bgh92rcd13ifvqb50","pricing_plan_id":"cebpf4jnsgd1na2vs0mg"},{"bike_id":"85cba0a3-d6ec-4723-83bf-95316674cece","system_id":"levelo_inurba_marseille","lat":43.27567,"lon":5.3841,"is_reserved":false,"is_disabled":true,"rental_uris":{"android":"levelo://app?vid=85cba0a3-d6ec-4723-83bf-95316674cece","ios":"levelo://app?vid=85cba0a3-d6ec-4723-83bf-95316674cece"},"vehicle_type_id":"4","last_reported":1736096839,"current_range_meters":400,"station_id":"ce4bhh92rcd13ifvqfi0","pricing_plan_id":"cebpf4jnsgd1na2vs0mg"},{"bike_id":"0f61e4a2-fc98-4805-87ca-fa2c109ce1df","system_id":"levelo_inurba_marseille","lat":43.29002,"lon":5.37935,"is_reserved":false,"is_disabled":false,"rental_uris":{"android":"levelo://app?vid=0f61e4a2-fc98-4805-87ca-fa2c109ce1df","ios":"levelo://app?vid=0f61e4a2-fc98-4805-87ca-fa2c109ce1df"},"vehicle_type_id":"4","last_reported":1736096839,"current_range_meters":38000,"station_id":"ce4bh512rcd13ifvqe2g","pricing_plan_id":"cebpf4jnsgd1na2vs0mg"},{"bike_id":"e270bb0c-fe0d-4b3b-a7db-d07eff062cce","system_id":"levelo_inurba_marseille","lat":43.24173,"lon":5.3973,"is_reserved":false,"is_disabled":false,"rental_uris":{"android":"levelo://app?vid=e270bb0c-fe0d-4b3b-a7db-d07eff062cce","ios":"levelo://app?vid=e270bb0c-fe0d-4b3b-a7db-d07eff062cce"},"vehicle_type_id":"4","last_reported":1736096839,"current_range_meters":9600,"station_id":"ce4bhn12rcd13ifvqgpg","pricing_plan_id":"cebpf4jnsgd1na2vs0mg"},{"bike_id":"266d97a0-8b6a-4815-8e1e-a29e516886ab","system_id":"levelo_inurba_marseille","lat":43.32367,"lon":5.36745,"is_reserved":false,"is_disabled":false,"rental_uris":{"android":"levelo://app?vid=266d97a0-8b6a-4815-8e1e-a29e516886ab","ios":"levelo://app?vid=266d97a0-8b6a-4815-8e1e-a29e516886ab"},"vehicle_type_id":"4","last_reported":1736096839,"current_range_meters":32000,"station_id":"ce4bhsh2rcd13ifvqi2g","pricing_plan_id":"cebpf4jnsgd1na2vs0mg"},{"bike_id":"a7224998-3cd1-44ad-8892-e18e0ad97675","system_id":"levelo_inurba_marseille","lat":43.24703,"lon":5.3813,"is_reserved":false,"is_disabled":false,"rental_uris":{"android":"levelo://app?vid=a7224998-3cd1-44ad-8892-e18e0ad97675","ios":"levelo://app?vid=a7224998-3cd1-44ad-8892-e18e0ad97675"},"vehicle_type_id":"4","last_reported":1736096839,"current_range_meters":38800,"station_id":"ce4bhih2rcd13ifvqfr0","pricing_plan_id":"cebpf4jnsgd1na2vs0mg"},{"bike_id":"8c4880a7-ac71-4918-a91c-c818b3edbc9e","system_id":"levelo_inurba_marseille","lat":43.29883,"lon":5.38899,"is_reserved":false,"is_disabled":false,"rental_uris":{"android":"levelo://app?vid=8c4880a7-ac71-4918-a91c-c818b3edbc9e","ios":"levelo://app?vid=8c4880a7-ac71-4918-a91c-c818b3edbc9e"},"vehicle_type_id":"4","last_reported":1736096839,"current_range_meters":38400,"station_id":"ce4bh392rcd13ifvqdl0","pricing_plan_id":"cebpf4jnsgd1na2vs0mg"},{"bike_id":"46005008-3d91-4d6f-91a3-4b2e9c416812","system_id":"levelo_inurba_marseille","lat":43.2694,"lon":5.40238,"is_reserved":false,"is_disabled":false,"rental_uris":{"android":"levelo://app?vid=46005008-3d91-4d6f-91a3-4b2e9c416812","ios":"levelo://app?vid=46005008-3d91-4d6f-91a3-4b2e9c416812"},"vehicle_type_id":"4","last_reported":1736096839,"current_range_meters":8800,"station_id":"cjm6bp8fraef2m0cb0m0","pricing_plan_id":"cebpf4jnsgd1na2vs0mg"},{"bike_id":"2937c8f0-6f06-4c7f-8240-41ad44bc55fa","system_id":"levelo_inurba_marseille","lat":43.23181,"lon":5.39997,"is_reserved":false,"is_disabled":false,"rental_uris":{"android":"levelo://app?vid=2937c8f0-6f06-4c7f-8240-41ad44bc55fa","ios":"levelo://app?vid=2937c8f0-6f06-4c7f-8240-41ad44bc55fa"},"vehicle_type_id":"4","last_reported":1736096839,"current_range_meters":20000,"station_id":"ce4bhn12rcd13ifvqgqg","pricing_plan_id":"cebpf4jnsgd1na2vs0mg"},{"bike_id":"e0ee4d47-9ec0-42b1-97e1-6730629e9b12","system_id":"levelo_inurba_marseille","lat":43.28154,"lon":5.42639,"is_reserved":false,"is_disabled":false,"rental_uris":{"android":"levelo://app?vid=e0ee4d47-9ec0-42b1-97e1-6730629e9b12","ios":"levelo://app?vid=e0ee4d47-9ec0-42b1-97e1-6730629e9b12"},"vehicle_type_id":"4","last_reported":1736096839,"current_range_meters":26800,"station_id":"ce4bhnh2rcd13ifvqgug","pricing_plan_id":"cebpf4jnsgd1na2vs0mg"},{"bike_id":"2fb4d4e1-4319-4d8b-bb25-4ca4f0da704e","system_id":"levelo_inurba_marseille","lat":43.33606,"lon":5.41016,"is_reserved":false,"is_disabled":false,"rental_uris":{"android":"levelo://app?vid=2fb4d4e1-4319-4d8b-bb25-4ca4f0da704e","ios":"levelo://app?vid=2fb4d4e1-4319-4d8b-bb25-4ca4f0da704e"},"vehicle_type_id":"4","last_reported":1736096839,"current_range_meters":10000,"station_id":"ce4bhqh2rcd13ifvqhmg","pricing_plan_id":"cebpf4jnsgd1na2vs0mg"},{"bike_id":"fc604a7d-558c-4ef0-945d-15cdce9a5a3f","system_id":"levelo_inurba_marseille","lat":43.28667,"lon":5.38665,"is_reserved":false,"is_disabled":false,"rental_uris":{"android":"levelo://app?vid=fc604a7d-558c-4ef0-945d-15cdce9a5a3f","ios":"levelo://app?vid=fc604a7d-558c-4ef0-945d-15cdce9a5a3f"},"vehicle_type_id":"4","last_reported":1736096839,"current_range_meters":10000,"station_id":"ce4bh492rcd13ifvqdug","pricing_plan_id":"cebpf4jnsgd1na2vs0mg"},{"bike_id":"f49298c6-b208-404d-bb0c-160ccbda2eed","system_id":"levelo_inurba_marseille","lat":43.27989,"lon":5.40005,"is_reserved":false,"is_disabled":true,"rental_uris":{"android":"levelo://app?vid=f49298c6-b208-404d-bb0c-160ccbda2eed","ios":"levelo://app?vid=f49298c6-b208-404d-bb0c-160ccbda2eed"},"vehicle_type_id":"4","last_reported":1736096839,"current_range_meters":38400,"station_id":"ce4bho92rcd13ifvqh4g","pricing_plan_id":"cebpf4jnsgd1na2vs0mg"},{"bike_id":"2c354e5f-37ab-453c-814e-0e1e1d3051e2","system_id":"levelo_inurba_marseille","lat":43.31369,"lon":5.38513,"is_reserved":false,"is_disabled":true,"rental_uris":{"android":"levelo://app?vid=2c354e5f-37ab-453c-814e-0e1e1d3051e2","ios":"levelo://app?vid=2c354e5f-37ab-453c-814e-0e1e1d3051e2"},"vehicle_type_id":"4","last_reported":1736096839,"current_range_meters":20400,"station_id":"ce4bgt92rcd13ifvqcf0","pricing_plan_id":"cebpf4jnsgd1na2vs0mg"},{"bike_id":"d014f699-d84d-436b-b3bf-8c059d18ea89","system_id":"levelo_inurba_marseille","lat":43.22929,"lon":5.35371,"is_reserved":false,"is_disabled":false,"rental_uris":{"android":"levelo://app?vid=d014f699-d84d-436b-b3bf-8c059d18ea89","ios":"levelo://app?vid=d014f699-d84d-436b-b3bf-8c059d18ea89"},"vehicle_type_id":"4","last_reported":1736096839,"current_range_meters":16400,"station_id":"cpo3532slgdg3j2ikp40","pricing_plan_id":"cebpf4jnsgd1na2vs0mg"},{"bike_id":"b5a0d42e-72c5-4b32-9548-9d791aafd2d8","system_id":"levelo_inurba_marseille","lat":43.23062,"lon":5.35491,"is_reserved":false,"is_disabled":false,"rental_uris":{"android":"levelo://app?vid=b5a0d42e-72c5-4b32-9548-9d791aafd2d8","ios":"levelo://app?vid=b5a0d42e-72c5-4b32-9548-9d791aafd2d8"},"vehicle_type_id":"4","last_reported":1736096839,"current_range_meters":13600,"station_id":"cpo3342slgdg3j2ifvpg","pricing_plan_id":"cebpf4jnsgd1na2vs0mg"},{"bike_id":"be28b1dd-c587-4a2f-86f1-7f63296a0906","system_id":"levelo_inurba_marseille","lat":43.30953,"lon":5.39046,"is_reserved":false,"is_disabled":false,"rental_uris":{"android":"levelo://app?vid=be28b1dd-c587-4a2f-86f1-7f63296a0906","ios":"levelo://app?vid=be28b1dd-c587-4a2f-86f1-7f63296a0906"},"vehicle_type_id":"4","last_reported":1736096839,"current_range_meters":37600,"station_id":"ce4bgup2rcd13ifvqco0","pricing_plan_id":"cebpf4jnsgd1na2vs0mg"},{"bike_id":"c420422e-e5ff-46aa-9ade-56c25e82f06d","system_id":"levelo_inurba_marseille","lat":43.23184,"lon":5.35544,"is_reserved":false,"is_disabled":false,"rental_uris":{"android":"levelo://app?vid=c420422e-e5ff-46aa-9ade-56c25e82f06d","ios":"levelo://app?vid=c420422e-e5ff-46aa-9ade-56c25e82f06d"},"vehicle_type_id":"4","last_reported":1736096839,"current_range_meters":38800,"station_id":"ce4bhu92rcd13ifvqi70","pricing_plan_id":"cebpf4jnsgd1na2vs0mg"},{"bike_id":"ef72cdb4-465d-4178-b952-49906f159c48","system_id":"levelo_inurba_marseille","lat":43.28151,"lon":5.42646,"is_reserved":false,"is_disabled":false,"rental_uris":{"android":"levelo://app?vid=ef72cdb4-465d-4178-b952-49906f159c48","ios":"levelo://app?vid=ef72cdb4-465d-4178-b952-49906f159c48"},"vehicle_type_id":"4","last_reported":1736096839,"current_range_meters":9600,"station_id":"ce4bhnh2rcd13ifvqgug","pricing_plan_id":"cebpf4jnsgd1na2vs0mg"},{"bike_id":"9ec92db8-0e0d-46f1-a3dd-5ddb72f8fbe5","system_id":"levelo_inurba_marseille","lat":43.27937,"lon":5.41048,"is_reserved":false,"is_disabled":false,"rental_uris":{"android":"levelo://app?vid=9ec92db8-0e0d-46f1-a3dd-5ddb72f8fbe5","ios":"levelo://app?vid=9ec92db8-0e0d-46f1-a3dd-5ddb72f8fbe5"},"vehicle_type_id":"4","last_reported":1736096839,"current_range_meters":30800,"station_id":"ce4bhnp2rcd13ifvqh0g","pricing_plan_id":"cebpf4jnsgd1na2vs0mg"},{"bike_id":"6dc1918f-bf1e-43bd-8c71-f50a30a73462","system_id":"levelo_inurba_marseille","lat":43.28625,"lon":5.35106,"is_reserved":false,"is_disabled":true,"rental_uris":{"android":"levelo://app?vid=6dc1918f-bf1e-43bd-8c71-f50a30a73462","ios":"levelo://app?vid=6dc1918f-bf1e-43bd-8c71-f50a30a73462"},"vehicle_type_id":"4","last_reported":1736096839,"current_range_meters":400,"station_id":"ce4bhch2rcd13ifvqeug","pricing_plan_id":"cebpf4jnsgd1na2vs0mg"},{"bike_id":"1326349a-3f51-4a1e-9694-4f723bee6c8f","system_id":"levelo_inurba_marseille","lat":43.29912,"lon":5.37459,"is_reserved":false,"is_disabled":false,"rental_uris":{"android":"levelo://app?vid=1326349a-3f51-4a1e-9694-4f723bee6c8f","ios":"levelo://app?vid=1326349a-3f51-4a1e-9694-4f723bee6c8f"},"vehicle_type_id":"4","last_reported":1736096839,"current_range_meters":38800,"station_id":"ce4bgjh2rcd13ifvqbg0","pricing_plan_id":"cebpf4jnsgd1na2vs0mg"},{"bike_id":"761ebe93-8673-4b4b-ae2d-aeaa556174dd","system_id":"levelo_inurba_marseille","lat":43.31718,"lon":5.37734,"is_reserved":false,"is_disabled":false,"rental_uris":{"android":"levelo://app?vid=761ebe93-8673-4b4b-ae2d-aeaa556174dd","ios":"levelo://app?vid=761ebe93-8673-4b4b-ae2d-aeaa556174dd"},"vehicle_type_id":"4","last_reported":1736096839,"current_range_meters":38400,"station_id":"ce4bgth2rcd13ifvqch0","pricing_plan_id":"cebpf4jnsgd1na2vs0mg"},{"bike_id":"e9c200db-965f-4b2c-bd5a-0dc123dcc0e0","system_id":"levelo_inurba_marseille","lat":43.24674,"lon":5.38147,"is_reserved":false,"is_disabled":false,"rental_uris":{"android":"levelo://app?vid=e9c200db-965f-4b2c-bd5a-0dc123dcc0e0","ios":"levelo://app?vid=e9c200db-965f-4b2c-bd5a-0dc123dcc0e0"},"vehicle_type_id":"4","last_reported":1736096839,"current_range_meters":17600,"station_id":"ce4bhih2rcd13ifvqfr0","pricing_plan_id":"cebpf4jnsgd1na2vs0mg"},{"bike_id":"8492b953-8df8-4064-9525-e8e282090340","system_id":"levelo_inurba_marseille","lat":43.23962,"lon":5.36629,"is_reserved":false,"is_disabled":false,"rental_uris":{"android":"levelo://app?vid=8492b953-8df8-4064-9525-e8e282090340","ios":"levelo://app?vid=8492b953-8df8-4064-9525-e8e282090340"},"vehicle_type_id":"4","last_reported":1736096839,"current_range_meters":14400,"station_id":"ce4bhi12rcd13ifvqfp0","pricing_plan_id":"cebpf4jnsgd1na2vs0mg"},{"bike_id":"32603d39-3971-494b-975f-04d698d11a0e","system_id":"levelo_inurba_marseille","lat":43.29565,"lon":5.42283,"is_reserved":false,"is_disabled":false,"rental_uris":{"android":"levelo://app?vid=32603d39-3971-494b-975f-04d698d11a0e","ios":"levelo://app?vid=32603d39-3971-494b-975f-04d698d11a0e"},"vehicle_type_id":"4","last_reported":1736096839,"current_range_meters":17600,"station_id":"ce4bhph2rcd13ifvqhdg","pricing_plan_id":"cebpf4jnsgd1na2vs0mg"},{"bike_id":"1b43bb31-eabd-40e6-9396-fb17ebc56b27","system_id":"levelo_inurba_marseille","lat":43.2903,"lon":5.37571,"is_reserved":false,"is_disabled":false,"rental_uris":{"android":"levelo://app?vid=1b43bb31-eabd-40e6-9396-fb17ebc56b27","ios":"levelo://app?vid=1b43bb31-eabd-40e6-9396-fb17ebc56b27"},"vehicle_type_id":"4","last_reported":1736096839,"current_range_meters":31200,"station_id":"ce4bh692rcd13ifvqe90","pricing_plan_id":"cebpf4jnsgd1na2vs0mg"},{"bike_id":"e4fb0db6-c070-4f7c-b34e-a54f29d45562","system_id":"levelo_inurba_marseille","lat":43.28014,"lon":5.41637,"is_reserved":false,"is_disabled":false,"rental_uris":{"android":"levelo://app?vid=e4fb0db6-c070-4f7c-b34e-a54f29d45562","ios":"levelo://app?vid=e4fb0db6-c070-4f7c-b34e-a54f29d45562"},"vehicle_type_id":"4","last_reported":1736096839,"current_range_meters":14400,"station_id":"ce4bho12rcd13ifvqh1g","pricing_plan_id":"cebpf4jnsgd1na2vs0mg"},{"bike_id":"08e6eb5d-4c6d-4f4c-96d7-e19ff980146d","system_id":"levelo_inurba_marseille","lat":43.32099,"lon":5.36768,"is_reserved":false,"is_disabled":false,"rental_uris":{"android":"levelo://app?vid=08e6eb5d-4c6d-4f4c-96d7-e19ff980146d","ios":"levelo://app?vid=08e6eb5d-4c6d-4f4c-96d7-e19ff980146d"},"vehicle_type_id":"4","last_reported":1736096839,"current_range_meters":10000,"station_id":"ce4bhrh2rcd13ifvqhug","pricing_plan_id":"cebpf4jnsgd1na2vs0mg"},{"bike_id":"5ccd9219-bb74-4866-8ab3-e0b8d4a98a85","system_id":"levelo_inurba_marseille","lat":43.24673,"lon":5.38145,"is_reserved":false,"is_disabled":false,"rental_uris":{"android":"levelo://app?vid=5ccd9219-bb74-4866-8ab3-e0b8d4a98a85","ios":"levelo://app?vid=5ccd9219-bb74-4866-8ab3-e0b8d4a98a85"},"vehicle_type_id":"4","last_reported":1736096839,"current_range_meters":38800,"station_id":"ce4bhih2rcd13ifvqfr0","pricing_plan_id":"cebpf4jnsgd1na2vs0mg"},{"bike_id":"70d1fae7-1346-4be5-88c1-c1dd75c31512","system_id":"levelo_inurba_marseille","lat":43.26059,"lon":5.39389,"is_reserved":false,"is_disabled":false,"rental_uris":{"android":"levelo://app?vid=70d1fae7-1346-4be5-88c1-c1dd75c31512","ios":"levelo://app?vid=70d1fae7-1346-4be5-88c1-c1dd75c31512"},"vehicle_type_id":"4","last_reported":1736096839,"current_range_meters":28000,"station_id":"ce4bhh92rcd13ifvqfj0","pricing_plan_id":"cebpf4jnsgd1na2vs0mg"},{"bike_id":"c4a48190-8d9a-463d-a570-4e46b701a6a8","system_id":"levelo_inurba_marseille","lat":43.29845,"lon":5.3626,"is_reserved":false,"is_disabled":false,"rental_uris":{"android":"levelo://app?vid=c4a48190-8d9a-463d-a570-4e46b701a6a8","ios":"levelo://app?vid=c4a48190-8d9a-463d-a570-4e46b701a6a8"},"vehicle_type_id":"4","last_reported":1736096839,"current_range_meters":34000,"station_id":"ce4bgpp2rcd13ifvqc3g","pricing_plan_id":"cebpf4jnsgd1na2vs0mg"},{"bike_id":"87940e16-0b77-43f2-a6f2-051d0500b583","system_id":"levelo_inurba_marseille","lat":43.29574,"lon":5.37523,"is_reserved":false,"is_disabled":true,"rental_uris":{"android":"levelo://app?vid=87940e16-0b77-43f2-a6f2-051d0500b583","ios":"levelo://app?vid=87940e16-0b77-43f2-a6f2-051d0500b583"},"vehicle_type_id":"4","last_reported":1736096839,"current_range_meters":0,"station_id":"ce4bgh92rcd13ifvqb50","pricing_plan_id":"cebpf4jnsgd1na2vs0mg"},{"bike_id":"aa2e1441-b075-42b1-bc96-ac3dc6ffdc76","system_id":"levelo_inurba_marseille","lat":43.24917,"lon":5.38661,"is_reserved":false,"is_disabled":false,"rental_uris":{"android":"levelo://app?vid=aa2e1441-b075-42b1-bc96-ac3dc6ffdc76","ios":"levelo://app?vid=aa2e1441-b075-42b1-bc96-ac3dc6ffdc76"},"vehicle_type_id":"4","last_reported":1736096839,"current_range_meters":32400,"station_id":"ce4bhm12rcd13ifvqgkg","pricing_plan_id":"cebpf4jnsgd1na2vs0mg"},{"bike_id":"1e934907-bd15-424f-9398-34d7e198be69","system_id":"levelo_inurba_marseille","lat":43.31329,"lon":5.39689,"is_reserved":false,"is_disabled":false,"rental_uris":{"android":"levelo://app?vid=1e934907-bd15-424f-9398-34d7e198be69","ios":"levelo://app?vid=1e934907-bd15-424f-9398-34d7e198be69"},"vehicle_type_id":"4","last_reported":1736096839,"current_range_meters":24400,"station_id":"ce4bgvp2rcd13ifvqcu0","pricing_plan_id":"cebpf4jnsgd1na2vs0mg"},{"bike_id":"4124111d-d4db-41f9-b648-1915868efdba","system_id":"levelo_inurba_marseille","lat":43.27493,"lon":5.42463,"is_reserved":false,"is_disabled":true,"rental_uris":{"android":"levelo://app?vid=4124111d-d4db-41f9-b648-1915868efdba","ios":"levelo://app?vid=4124111d-d4db-41f9-b648-1915868efdba"},"vehicle_type_id":"4","last_reported":1736096839,"current_range_meters":400,"station_id":"ce4bhn92rcd13ifvqgrg","pricing_plan_id":"cebpf4jnsgd1na2vs0mg"},{"bike_id":"5d8bbb24-0598-4729-a09d-5011ebcc6748","system_id":"levelo_inurba_marseille","lat":43.29777,"lon":5.38114,"is_reserved":false,"is_disabled":true,"rental_uris":{"android":"levelo://app?vid=5d8bbb24-0598-4729-a09d-5011ebcc6748","ios":"levelo://app?vid=5d8bbb24-0598-4729-a09d-5011ebcc6748"},"vehicle_type_id":"4","last_reported":1736096839,"current_range_meters":36800,"station_id":"ce4bgip2rcd13ifvqbb0","pricing_plan_id":"cebpf4jnsgd1na2vs0mg"},{"bike_id":"c93b1941-5aab-43e3-917b-db8a64fcd57b","system_id":"levelo_inurba_marseille","lat":43.30432,"lon":5.39736,"is_reserved":false,"is_disabled":true,"rental_uris":{"android":"levelo://app?vid=c93b1941-5aab-43e3-917b-db8a64fcd57b","ios":"levelo://app?vid=c93b1941-5aab-43e3-917b-db8a64fcd57b"},"vehicle_type_id":"4","last_reported":1736096839,"current_range_meters":800,"station_id":"ce4bh092rcd13ifvqd20","pricing_plan_id":"cebpf4jnsgd1na2vs0mg"},{"bike_id":"57bbf72f-e7b7-4cd1-a7e7-27fdd04c38ac","system_id":"levelo_inurba_marseille","lat":43.29885,"lon":5.38907,"is_reserved":false,"is_disabled":false,"rental_uris":{"android":"levelo://app?vid=57bbf72f-e7b7-4cd1-a7e7-27fdd04c38ac","ios":"levelo://app?vid=57bbf72f-e7b7-4cd1-a7e7-27fdd04c38ac"},"vehicle_type_id":"4","last_reported":1736096839,"current_range_meters":36000,"station_id":"ce4bh392rcd13ifvqdl0","pricing_plan_id":"cebpf4jnsgd1na2vs0mg"},{"bike_id":"68718a12-ff84-4ece-9441-164a64035f89","system_id":"levelo_inurba_marseille","lat":43.24817,"lon":5.37452,"is_reserved":false,"is_disabled":false,"rental_uris":{"android":"levelo://app?vid=68718a12-ff84-4ece-9441-164a64035f89","ios":"levelo://app?vid=68718a12-ff84-4ece-9441-164a64035f89"},"vehicle_type_id":"4","last_reported":1736096839,"current_range_meters":23200,"station_id":"ce4bhgh2rcd13ifvqfb0","pricing_plan_id":"cebpf4jnsgd1na2vs0mg"},{"bike_id":"76b6e87f-a571-4491-bdf9-da4561cfdfb5","system_id":"levelo_inurba_marseille","lat":43.27429,"lon":5.394,"is_reserved":false,"is_disabled":false,"rental_uris":{"android":"levelo://app?vid=76b6e87f-a571-4491-bdf9-da4561cfdfb5","ios":"levelo://app?vid=76b6e87f-a571-4491-bdf9-da4561cfdfb5"},"vehicle_type_id":"4","last_reported":1736096839,"current_range_meters":36400,"station_id":"ce4bhdp2rcd13ifvqf20","pricing_plan_id":"cebpf4jnsgd1na2vs0mg"},{"bike_id":"aad4a535-b699-4598-8dc1-ecd244317ca1","system_id":"levelo_inurba_marseille","lat":43.23185,"lon":5.39986,"is_reserved":false,"is_disabled":false,"rental_uris":{"android":"levelo://app?vid=aad4a535-b699-4598-8dc1-ecd244317ca1","ios":"levelo://app?vid=aad4a535-b699-4598-8dc1-ecd244317ca1"},"vehicle_type_id":"4","last_reported":1736096839,"current_range_meters":19200,"station_id":"ce4bhn12rcd13ifvqgqg","pricing_plan_id":"cebpf4jnsgd1na2vs0mg"},{"bike_id":"65f5854b-cd44-4cf2-baff-2b7bd31b5fbf","system_id":"levelo_inurba_marseille","lat":43.24395,"lon":5.37044,"is_reserved":false,"is_disabled":false,"rental_uris":{"android":"levelo://app?vid=65f5854b-cd44-4cf2-baff-2b7bd31b5fbf","ios":"levelo://app?vid=65f5854b-cd44-4cf2-baff-2b7bd31b5fbf"},"vehicle_type_id":"4","last_reported":1736096839,"current_range_meters":11600,"station_id":"ce4bhhh2rcd13ifvqfk0","pricing_plan_id":"cebpf4jnsgd1na2vs0mg"},{"bike_id":"b5b88515-4c9a-4992-8aaf-5e0793e96837","system_id":"levelo_inurba_marseille","lat":43.29265,"lon":5.38435,"is_reserved":false,"is_disabled":false,"rental_uris":{"android":"levelo://app?vid=b5b88515-4c9a-4992-8aaf-5e0793e96837","ios":"levelo://app?vid=b5b88515-4c9a-4992-8aaf-5e0793e96837"},"vehicle_type_id":"4","last_reported":1736096839,"current_range_meters":35200,"station_id":"ce4bh692rcd13ifvqea0","pricing_plan_id":"cebpf4jnsgd1na2vs0mg"},