{"last_updated":1778442716,"ttl":60,"version":"2.2","data":{"bikes":[{"bike_id":"959457cd-ffeb-435f-abd7-e609cfbc4e6a","system_id":"levelo_inurba_marseille","lat":43.27488,"lon":5.41576,"is_reserved":false,"is_disabled":false,"rental_uris":{"android":"levelo://app?vid=959457cd-ffeb-435f-abd7-e609cfbc4e6a","ios":"levelo://app?vid=959457cd-ffeb-435f-abd7-e609cfbc4e6a"},"vehicle_type_id":"4","last_reported":1778442717,"current_range_meters":2800,"station_id":"st_d6im8g6chgec73a5pndg","pricing_plan_id":"cebpf4jnsgd1na2vs0mg"},{"bike_id":"d408108d-df76-4537-a414-b1848a2f8b61","system_id":"levelo_inurba_marseille","lat":43.225387,"lon":5.348394,"is_reserved":false,"is_disabled":false,"rental_uris":{"android":"levelo://app?vid=d408108d-df76-4537-a414-b1848a2f8b61","ios":"levelo://app?vid=d408108d-df76-4537-a414-b1848a2f8b61"},"vehicle_type_id":"4","last_reported":1778442717,"current_range_meters":2800,"station_id":"st_cvj5dfep6f1abm77gieg","pricing_plan_id":"cebpf4jnsgd1na2vs0mg"},{"bike_id":"c2bc6f87-9a8a-4bbe-80ca-55b0946ff15e","system_id":"levelo_inurba_marseille","lat":43.29183,"lon":5.35792,"is_reserved":false,"is_disabled":true,"rental_uris":{"android":"levelo://app?vid=c2bc6f87-9a8a-4bbe-80ca-55b0946ff15e","ios":"levelo://app?vid=c2bc6f87-9a8a-4bbe-80ca-55b0946ff15e"},"vehicle_type_id":"4","last_reported":1778442717,"current_range_meters":2800,"station_id":"ce4bhb12rcd13ifvqel0","pricing_plan_id":"cebpf4jnsgd1na2vs0mg"},{"bike_id":"8409422d-462d-44d0-940c-f16dfa3db508","system_id":"levelo_inurba_marseille","lat":43.26921,"lon":5.39782,"is_reserved":false,"is_disabled":false,"rental_uris":{"android":"levelo://app?vid=8409422d-462d-44d0-940c-f16dfa3db508","ios":"levelo://app?vid=8409422d-462d-44d0-940c-f16dfa3db508"},"vehicle_type_id":"4","last_reported":1778442717,"current_range_meters":2800,"station_id":"","pricing_plan_id":"cebpf4jnsgd1na2vs0mg"},{"bike_id":"b8425fa1-a298-4679-ba8a-777546e14eca","system_id":"levelo_inurba_marseille","lat":43.33751,"lon":5.3745,"is_reserved":false,"is_disabled":false,"rental_uris":{"android":"levelo://app?vid=b8425fa1-a298-4679-ba8a-777546e14eca","ios":"levelo://app?vid=b8425fa1-a298-4679-ba8a-777546e14eca"},"vehicle_type_id":"4","last_reported":1778442717,"current_range_meters":2800,"station_id":"","pricing_plan_id":"cebpf4jnsgd1na2vs0mg"},{"bike_id":"7837f42b-160a-444c-8f74-ed9060bc9281","system_id":"levelo_inurba_marseille","lat":43.29467,"lon":5.43313,"is_reserved":false,"is_disabled":false,"rental_uris":{"android":"levelo://app?vid=7837f42b-160a-444c-8f74-ed9060bc9281","ios":"levelo://app?vid=7837f42b-160a-444c-8f74-ed9060bc9281"},"vehicle_type_id":"4","last_reported":1778442717,"current_range_meters":2800,"station_id":"st_d3j5ugp08ojc73fj9d10","pricing_plan_id":"cebpf4jnsgd1na2vs0mg"},{"bike_id":"f09571af-21ef-465a-94b0-687f8b546d6d","system_id":"levelo_inurba_marseille","lat":43.27071,"lon":5.38303,"is_reserved":false,"is_disabled":false,"rental_uris":{"android":"levelo://app?vid=f09571af-21ef-465a-94b0-687f8b546d6d","ios":"levelo://app?vid=f09571af-21ef-465a-94b0-687f8b546d6d"},"vehicle_type_id":"4","last_reported":1778442717,"current_range_meters":2800,"station_id":"st_d3n2fo6cfp8s73cte1j0","pricing_plan_id":"cebpf4jnsgd1na2vs0mg"},{"bike_id":"dd074699-5920-40dc-ada2-4887ae6906b1","system_id":"levelo_inurba_marseille","lat":43.25828,"lon":5.39457,"is_reserved":false,"is_disabled":false,"rental_uris":{"android":"levelo://app?vid=dd074699-5920-40dc-ada2-4887ae6906b1","ios":"levelo://app?vid=dd074699-5920-40dc-ada2-4887ae6906b1"},"vehicle_type_id":"4","last_reported":1778442717,"current_range_meters":3200,"station_id":"ce4bhip2rcd13ifvqft0","pricing_plan_id":"cebpf4jnsgd1na2vs0mg"},{"bike_id":"2a1755c6-621b-4ee0-b02e-fcd7e30106ff","system_id":"levelo_inurba_marseille","lat":43.29795,"lon":5.39348,"is_reserved":false,"is_disabled":true,"rental_uris":{"android":"levelo://app?vid=2a1755c6-621b-4ee0-b02e-fcd7e30106ff","ios":"levelo://app?vid=2a1755c6-621b-4ee0-b02e-fcd7e30106ff"},"vehicle_type_id":"4","last_reported":1778442717,"current_range_meters":3200,"station_id":"chh1huq6cuj3fo74tm60","pricing_plan_id":"cebpf4jnsgd1na2vs0mg"},{"bike_id":"a5a2abbb-761c-48b3-b34f-a2e89be361ba","system_id":"levelo_inurba_marseille","lat":43.29886,"lon":5.38903,"is_reserved":false,"is_disabled":false,"rental_uris":{"android":"levelo://app?vid=a5a2abbb-761c-48b3-b34f-a2e89be361ba","ios":"levelo://app?vid=a5a2abbb-761c-48b3-b34f-a2e89be361ba"},"vehicle_type_id":"4","last_reported":1778442717,"current_range_meters":3200,"station_id":"ce4bh392rcd13ifvqdl0","pricing_plan_id":"cebpf4jnsgd1na2vs0mg"},{"bike_id":"e12f1efb-2372-4c2f-9289-264bf2192965","system_id":"levelo_inurba_marseille","lat":43.29186,"lon":5.35804,"is_reserved":false,"is_disabled":false,"rental_uris":{"android":"levelo://app?vid=e12f1efb-2372-4c2f-9289-264bf2192965","ios":"levelo://app?vid=e12f1efb-2372-4c2f-9289-264bf2192965"},"vehicle_type_id":"4","last_reported":1778442717,"current_range_meters":3200,"station_id":"ce4bhb12rcd13ifvqel0","pricing_plan_id":"cebpf4jnsgd1na2vs0mg"},{"bike_id":"7cbbd432-4b5e-4c68-8439-fa154ce61839","system_id":"levelo_inurba_marseille","lat":43.26064,"lon":5.39394,"is_reserved":false,"is_disabled":false,"rental_uris":{"android":"levelo://app?vid=7cbbd432-4b5e-4c68-8439-fa154ce61839","ios":"levelo://app?vid=7cbbd432-4b5e-4c68-8439-fa154ce61839"},"vehicle_type_id":"4","last_reported":1778442717,"current_range_meters":3200,"station_id":"ce4bhh92rcd13ifvqfj0","pricing_plan_id":"cebpf4jnsgd1na2vs0mg"},{"bike_id":"4f2b66b9-d2be-480c-a44a-c9a32982cb61","system_id":"levelo_inurba_marseille","lat":43.286647,"lon":5.383252,"is_reserved":false,"is_disabled":true,"rental_uris":{"android":"levelo://app?vid=4f2b66b9-d2be-480c-a44a-c9a32982cb61","ios":"levelo://app?vid=4f2b66b9-d2be-480c-a44a-c9a32982cb61"},"vehicle_type_id":"4","last_reported":1778442717,"current_range_meters":3600,"station_id":"ce4bh192rcd13ifvqdd0","pricing_plan_id":"cebpf4jnsgd1na2vs0mg"},{"bike_id":"56782922-f68e-469a-88e0-e54568de9fa4","system_id":"levelo_inurba_marseille","lat":43.30314,"lon":5.392,"is_reserved":false,"is_disabled":true,"rental_uris":{"android":"levelo://app?vid=56782922-f68e-469a-88e0-e54568de9fa4","ios":"levelo://app?vid=56782922-f68e-469a-88e0-e54568de9fa4"},"vehicle_type_id":"4","last_reported":1778442717,"current_range_meters":3600,"station_id":"ce4bgkh2rcd13ifvqbk0","pricing_plan_id":"cebpf4jnsgd1na2vs0mg"},{"bike_id":"007e887e-ead9-43f1-944f-60d65c43ec5d","system_id":"levelo_inurba_marseille","lat":43.32677,"lon":5.40986,"is_reserved":false,"is_disabled":true,"rental_uris":{"android":"levelo://app?vid=007e887e-ead9-43f1-944f-60d65c43ec5d","ios":"levelo://app?vid=007e887e-ead9-43f1-944f-60d65c43ec5d"},"vehicle_type_id":"4","last_reported":1778442717,"current_range_meters":3600,"station_id":"ce4bhpp2rcd13ifvqhgg","pricing_plan_id":"cebpf4jnsgd1na2vs0mg"},{"bike_id":"689458f1-7c3d-457e-9967-103ee29a8833","system_id":"levelo_inurba_marseille","lat":43.29966,"lon":5.3719,"is_reserved":false,"is_disabled":true,"rental_uris":{"android":"levelo://app?vid=689458f1-7c3d-457e-9967-103ee29a8833","ios":"levelo://app?vid=689458f1-7c3d-457e-9967-103ee29a8833"},"vehicle_type_id":"4","last_reported":1778442717,"current_range_meters":3600,"station_id":"ce4bgr92rcd13ifvqc7g","pricing_plan_id":"cebpf4jnsgd1na2vs0mg"},{"bike_id":"14777d02-dcab-4a77-84b6-d2e189d53152","system_id":"levelo_inurba_marseille","lat":43.28126,"lon":5.38305,"is_reserved":false,"is_disabled":false,"rental_uris":{"android":"levelo://app?vid=14777d02-dcab-4a77-84b6-d2e189d53152","ios":"levelo://app?vid=14777d02-dcab-4a77-84b6-d2e189d53152"},"vehicle_type_id":"4","last_reported":1778442717,"current_range_meters":3600,"station_id":"","pricing_plan_id":"cebpf4jnsgd1na2vs0mg"},{"bike_id":"808c4ecd-9bba-4ef5-91dc-62b4109dcc93","system_id":"levelo_inurba_marseille","lat":43.295327,"lon":5.385474,"is_reserved":false,"is_disabled":true,"rental_uris":{"android":"levelo://app?vid=808c4ecd-9bba-4ef5-91dc-62b4109dcc93","ios":"levelo://app?vid=808c4ecd-9bba-4ef5-91dc-62b4109dcc93"},"vehicle_type_id":"4","last_reported":1778442717,"current_range_meters":3600,"station_id":"ce4bgih2rcd13ifvqba0","pricing_plan_id":"cebpf4jnsgd1na2vs0mg"},{"bike_id":"8a996935-0dad-4d8d-b502-a0726eeb8218","system_id":"levelo_inurba_marseille","lat":43.255096,"lon":5.376531,"is_reserved":false,"is_disabled":false,"rental_uris":{"android":"levelo://app?vid=8a996935-0dad-4d8d-b502-a0726eeb8218","ios":"levelo://app?vid=8a996935-0dad-4d8d-b502-a0726eeb8218"},"vehicle_type_id":"4","last_reported":1778442717,"current_range_meters":3600,"station_id":"ce4bhh12rcd13ifvqff0","pricing_plan_id":"cebpf4jnsgd1na2vs0mg"},{"bike_id":"30b66022-1366-4606-862b-d547da8c8a3a","system_id":"levelo_inurba_marseille","lat":43.29057,"lon":5.39934,"is_reserved":false,"is_disabled":true,"rental_uris":{"android":"levelo://app?vid=30b66022-1366-4606-862b-d547da8c8a3a","ios":"levelo://app?vid=30b66022-1366-4606-862b-d547da8c8a3a"},"vehicle_type_id":"4","last_reported":1778442717,"current_range_meters":3600,"station_id":"ce4bh392rcd13ifvqdm0","pricing_plan_id":"cebpf4jnsgd1na2vs0mg"},{"bike_id":"a44eab89-9c6b-40cf-a319-9aa52145e094","system_id":"levelo_inurba_marseille","lat":43.27281,"lon":5.39062,"is_reserved":false,"is_disabled":false,"rental_uris":{"android":"levelo://app?vid=a44eab89-9c6b-40cf-a319-9aa52145e094","ios":"levelo://app?vid=a44eab89-9c6b-40cf-a319-9aa52145e094"},"vehicle_type_id":"4","last_reported":1778442717,"current_range_meters":4000,"station_id":"ce4bhgp2rcd13ifvqfe0","pricing_plan_id":"cebpf4jnsgd1na2vs0mg"},{"bike_id":"0bff19b0-759c-4974-b971-6d7bfa56b685","system_id":"levelo_inurba_marseille","lat":43.2981,"lon":5.44055,"is_reserved":false,"is_disabled":false,"rental_uris":{"android":"levelo://app?vid=0bff19b0-759c-4974-b971-6d7bfa56b685","ios":"levelo://app?vid=0bff19b0-759c-4974-b971-6d7bfa56b685"},"vehicle_type_id":"4","last_reported":1778442717,"current_range_meters":4000,"station_id":"st_d3jp68qikq2c7381ktn0","pricing_plan_id":"cebpf4jnsgd1na2vs0mg"},{"bike_id":"768183db-c0d7-4cca-abdf-974e2f48f0f1","system_id":"levelo_inurba_marseille","lat":43.25119,"lon":5.40318,"is_reserved":false,"is_disabled":false,"rental_uris":{"android":"levelo://app?vid=768183db-c0d7-4cca-abdf-974e2f48f0f1","ios":"levelo://app?vid=768183db-c0d7-4cca-abdf-974e2f48f0f1"},"vehicle_type_id":"4","last_reported":1778442717,"current_range_meters":4000,"station_id":"ce4bhlh2rcd13ifvqgig","pricing_plan_id":"cebpf4jnsgd1na2vs0mg"},{"bike_id":"930d7fff-c7b1-45b5-b3a7-d73e37a42a4a","system_id":"levelo_inurba_marseille","lat":43.30378,"lon":5.4249,"is_reserved":false,"is_disabled":false,"rental_uris":{"android":"levelo://app?vid=930d7fff-c7b1-45b5-b3a7-d73e37a42a4a","ios":"levelo://app?vid=930d7fff-c7b1-45b5-b3a7-d73e37a42a4a"},"vehicle_type_id":"4","last_reported":1778442717,"current_range_meters":4000,"station_id":"ce4bhoh2rcd13ifvqh6g","pricing_plan_id":"cebpf4jnsgd1na2vs0mg"},{"bike_id":"c387dde4-9b1c-4aa7-be77-27e99f3da63a","system_id":"levelo_inurba_marseille","lat":43.30987,"lon":5.39047,"is_reserved":false,"is_disabled":false,"rental_uris":{"android":"levelo://app?vid=c387dde4-9b1c-4aa7-be77-27e99f3da63a","ios":"levelo://app?vid=c387dde4-9b1c-4aa7-be77-27e99f3da63a"},"vehicle_type_id":"4","last_reported":1778442717,"current_range_meters":4000,"station_id":"ce4bgup2rcd13ifvqco0","pricing_plan_id":"cebpf4jnsgd1na2vs0mg"},{"bike_id":"ff41f028-e74e-477a-8abb-51c0d2444223","system_id":"levelo_inurba_marseille","lat":43.25116,"lon":5.40332,"is_reserved":false,"is_disabled":false,"rental_uris":{"android":"levelo://app?vid=ff41f028-e74e-477a-8abb-51c0d2444223","ios":"levelo://app?vid=ff41f028-e74e-477a-8abb-51c0d2444223"},"vehicle_type_id":"4","last_reported":1778442717,"current_range_meters":4000,"station_id":"ce4bhlh2rcd13ifvqgig","pricing_plan_id":"cebpf4jnsgd1na2vs0mg"},{"bike_id":"a6a60149-ea74-4dce-b409-ebc1a0b75a1f","system_id":"levelo_inurba_marseille","lat":43.30543,"lon":5.38436,"is_reserved":false,"is_disabled":true,"rental_uris":{"android":"levelo://app?vid=a6a60149-ea74-4dce-b409-ebc1a0b75a1f","ios":"levelo://app?vid=a6a60149-ea74-4dce-b409-ebc1a0b75a1f"},"vehicle_type_id":"4","last_reported":1778442717,"current_range_meters":4000,"station_id":"ce4bgg92rcd13ifvqb30","pricing_plan_id":"cebpf4jnsgd1na2vs0mg"},{"bike_id":"ac52d1c2-3422-49e7-915c-40f6b1882ee5","system_id":"levelo_inurba_marseille","lat":43.295266,"lon":5.38544,"is_reserved":false,"is_disabled":false,"rental_uris":{"android":"levelo://app?vid=ac52d1c2-3422-49e7-915c-40f6b1882ee5","ios":"levelo://app?vid=ac52d1c2-3422-49e7-915c-40f6b1882ee5"},"vehicle_type_id":"4","last_reported":1778442717,"current_range_meters":4000,"station_id":"ce4bgih2rcd13ifvqba0","pricing_plan_id":"cebpf4jnsgd1na2vs0mg"},{"bike_id":"3a7a6490-34c7-4e66-a967-52dc19722c9c","system_id":"levelo_inurba_marseille","lat":43.25374,"lon":5.39426,"is_reserved":false,"is_disabled":false,"rental_uris":{"android":"levelo://app?vid=3a7a6490-34c7-4e66-a967-52dc19722c9c","ios":"levelo://app?vid=3a7a6490-34c7-4e66-a967-52dc19722c9c"},"vehicle_type_id":"4","last_reported":1778442717,"current_range_meters":4000,"station_id":"","pricing_plan_id":"cebpf4jnsgd1na2vs0mg"},{"bike_id":"1c6f778a-b852-40d6-a88d-2ed485e079f6","system_id":"levelo_inurba_marseille","lat":43.23788,"lon":5.36631,"is_reserved":false,"is_disabled":false,"rental_uris":{"android":"levelo://app?vid=1c6f778a-b852-40d6-a88d-2ed485e079f6","ios":"levelo://app?vid=1c6f778a-b852-40d6-a88d-2ed485e079f6"},"vehicle_type_id":"4","last_reported":1778442717,"current_range_meters":4000,"station_id":"st_d3nk18o9ro0c73en2l3g","pricing_plan_id":"cebpf4jnsgd1na2vs0mg"},{"bike_id":"5e506c32-8063-47a0-a03b-0e18aefd7f60","system_id":"levelo_inurba_marseille","lat":43.24098,"lon":5.3772,"is_reserved":false,"is_disabled":true,"rental_uris":{"android":"levelo://app?vid=5e506c32-8063-47a0-a03b-0e18aefd7f60","ios":"levelo://app?vid=5e506c32-8063-47a0-a03b-0e18aefd7f60"},"vehicle_type_id":"4","last_reported":1778442717,"current_range_meters":4400,"station_id":"ce4bhnp2rcd13ifvqgvg","pricing_plan_id":"cebpf4jnsgd1na2vs0mg"},{"bike_id":"ee1a5dd9-04af-4787-9e08-5c55e5d06b4d","system_id":"levelo_inurba_marseille","lat":43.29813,"lon":5.38205,"is_reserved":false,"is_disabled":false,"rental_uris":{"android":"levelo://app?vid=ee1a5dd9-04af-4787-9e08-5c55e5d06b4d","ios":"levelo://app?vid=ee1a5dd9-04af-4787-9e08-5c55e5d06b4d"},"vehicle_type_id":"4","last_reported":1778442717,"current_range_meters":4400,"station_id":"","pricing_plan_id":"cebpf4jnsgd1na2vs0mg"},{"bike_id":"e45a60e8-4629-488b-a8c5-55a735e7a836","system_id":"levelo_inurba_marseille","lat":43.29805,"lon":5.40419,"is_reserved":false,"is_disabled":false,"rental_uris":{"android":"levelo://app?vid=e45a60e8-4629-488b-a8c5-55a735e7a836","ios":"levelo://app?vid=e45a60e8-4629-488b-a8c5-55a735e7a836"},"vehicle_type_id":"4","last_reported":1778442717,"current_range_meters":4400,"station_id":"ce4bh112rcd13ifvqd90","pricing_plan_id":"cebpf4jnsgd1na2vs0mg"},{"bike_id":"323e4707-b629-4d35-ab4e-66a5c4e389f5","system_id":"levelo_inurba_marseille","lat":43.29175,"lon":5.35803,"is_reserved":false,"is_disabled":true,"rental_uris":{"android":"levelo://app?vid=323e4707-b629-4d35-ab4e-66a5c4e389f5","ios":"levelo://app?vid=323e4707-b629-4d35-ab4e-66a5c4e389f5"},"vehicle_type_id":"4","last_reported":1778442717,"current_range_meters":4400,"station_id":"ce4bhb12rcd13ifvqel0","pricing_plan_id":"cebpf4jnsgd1na2vs0mg"},{"bike_id":"f289a609-c36a-4e99-bba2-cdf1bda26ac9","system_id":"levelo_inurba_marseille","lat":43.26226,"lon":5.38763,"is_reserved":false,"is_disabled":false,"rental_uris":{"android":"levelo://app?vid=f289a609-c36a-4e99-bba2-cdf1bda26ac9","ios":"levelo://app?vid=f289a609-c36a-4e99-bba2-cdf1bda26ac9"},"vehicle_type_id":"4","last_reported":1778442717,"current_range_meters":4400,"station_id":"","pricing_plan_id":"cebpf4jnsgd1na2vs0mg"},{"bike_id":"8de89280-2a61-4268-b817-bf90021f9ced","system_id":"levelo_inurba_marseille","lat":43.32086,"lon":5.36768,"is_reserved":false,"is_disabled":false,"rental_uris":{"android":"levelo://app?vid=8de89280-2a61-4268-b817-bf90021f9ced","ios":"levelo://app?vid=8de89280-2a61-4268-b817-bf90021f9ced"},"vehicle_type_id":"4","last_reported":1778442717,"current_range_meters":4800,"station_id":"ce4bhrh2rcd13ifvqhug","pricing_plan_id":"cebpf4jnsgd1na2vs0mg"},{"bike_id":"6fad1b5c-7e05-4dbc-a8ca-80a7e32dbce4","system_id":"levelo_inurba_marseille","lat":43.29785,"lon":5.3934,"is_reserved":false,"is_disabled":false,"rental_uris":{"android":"levelo://app?vid=6fad1b5c-7e05-4dbc-a8ca-80a7e32dbce4","ios":"levelo://app?vid=6fad1b5c-7e05-4dbc-a8ca-80a7e32dbce4"},"vehicle_type_id":"4","last_reported":1778442717,"current_range_meters":4800,"station_id":"chh1huq6cuj3fo74tm60","pricing_plan_id":"cebpf4jnsgd1na2vs0mg"},{"bike_id":"6dec282d-38ec-4336-8ede-9a1772e1298f","system_id":"levelo_inurba_marseille","lat":43.29683,"lon":5.3807,"is_reserved":false,"is_disabled":false,"rental_uris":{"android":"levelo://app?vid=6dec282d-38ec-4336-8ede-9a1772e1298f","ios":"levelo://app?vid=6dec282d-38ec-4336-8ede-9a1772e1298f"},"vehicle_type_id":"4","last_reported":1778442717,"current_range_meters":4800,"station_id":"","pricing_plan_id":"cebpf4jnsgd1na2vs0mg"},{"bike_id":"79ff25c7-2ae1-4a8b-b9c9-0d906c7c3fd1","system_id":"levelo_inurba_marseille","lat":43.27913,"lon":5.38029,"is_reserved":false,"is_disabled":false,"rental_uris":{"android":"levelo://app?vid=79ff25c7-2ae1-4a8b-b9c9-0d906c7c3fd1","ios":"levelo://app?vid=79ff25c7-2ae1-4a8b-b9c9-0d906c7c3fd1"},"vehicle_type_id":"4","last_reported":1778442717,"current_range_meters":4800,"station_id":"ce4bhf92rcd13ifvqf50","pricing_plan_id":"cebpf4jnsgd1na2vs0mg"},{"bike_id":"17cc4c0a-4b5f-4e18-aeb2-472d34557615","system_id":"levelo_inurba_marseille","lat":43.28701,"lon":5.46697,"is_reserved":false,"is_disabled":false,"rental_uris":{"android":"levelo://app?vid=17cc4c0a-4b5f-4e18-aeb2-472d34557615","ios":"levelo://app?vid=17cc4c0a-4b5f-4e18-aeb2-472d34557615"},"vehicle_type_id":"4","last_reported":1778442717,"current_range_meters":4800,"station_id":"st_d6tc3vkotcvc738tfjhg","pricing_plan_id":"cebpf4jnsgd1na2vs0mg"},{"bike_id":"7038e266-7dfa-42fa-8e91-50f179aa7f0e","system_id":"levelo_inurba_marseille","lat":43.3356,"lon":5.37452,"is_reserved":false,"is_disabled":false,"rental_uris":{"android":"levelo://app?vid=7038e266-7dfa-42fa-8e91-50f179aa7f0e","ios":"levelo://app?vid=7038e266-7dfa-42fa-8e91-50f179aa7f0e"},"vehicle_type_id":"4","last_reported":1778442717,"current_range_meters":4800,"station_id":"st_d46tts09ee8s73dlu43g","pricing_plan_id":"cebpf4jnsgd1na2vs0mg"},{"bike_id":"ad824b62-ba8d-40e6-a073-14a810f8f6bf","system_id":"levelo_inurba_marseille","lat":43.26055,"lon":5.3941,"is_reserved":false,"is_disabled":false,"rental_uris":{"android":"levelo://app?vid=ad824b62-ba8d-40e6-a073-14a810f8f6bf","ios":"levelo://app?vid=ad824b62-ba8d-40e6-a073-14a810f8f6bf"},"vehicle_type_id":"4","last_reported":1778442717,"current_range_meters":4800,"station_id":"ce4bhh92rcd13ifvqfj0","pricing_plan_id":"cebpf4jnsgd1na2vs0mg"},{"bike_id":"cae0fd07-40e3-48af-b980-40f2d169441a","system_id":"levelo_inurba_marseille","lat":43.33166,"lon":5.37684,"is_reserved":false,"is_disabled":false,"rental_uris":{"android":"levelo://app?vid=cae0fd07-40e3-48af-b980-40f2d169441a","ios":"levelo://app?vid=cae0fd07-40e3-48af-b980-40f2d169441a"},"vehicle_type_id":"4","last_reported":1778442717,"current_range_meters":4800,"station_id":"st_d46cu089ee8s73dldbu0","pricing_plan_id":"cebpf4jnsgd1na2vs0mg"},{"bike_id":"4334a4d4-7ea5-43dd-906d-39e9f3ff5d2d","system_id":"levelo_inurba_marseille","lat":43.28412,"lon":5.37494,"is_reserved":false,"is_disabled":false,"rental_uris":{"android":"levelo://app?vid=4334a4d4-7ea5-43dd-906d-39e9f3ff5d2d","ios":"levelo://app?vid=4334a4d4-7ea5-43dd-906d-39e9f3ff5d2d"},"vehicle_type_id":"4","last_reported":1778442717,"current_range_meters":4800,"station_id":"ce4bh412rcd13ifvqds0","pricing_plan_id":"cebpf4jnsgd1na2vs0mg"},{"bike_id":"7017c387-278c-4b8c-9782-aa80dc34ecbe","system_id":"levelo_inurba_marseille","lat":43.23898,"lon":5.37456,"is_reserved":false,"is_disabled":true,"rental_uris":{"android":"levelo://app?vid=7017c387-278c-4b8c-9782-aa80dc34ecbe","ios":"levelo://app?vid=7017c387-278c-4b8c-9782-aa80dc34ecbe"},"vehicle_type_id":"4","last_reported":1778442717,"current_range_meters":4800,"station_id":"st_d6sm7csbq4hs73f8fpjg","pricing_plan_id":"cebpf4jnsgd1na2vs0mg"},{"bike_id":"3723f55c-2de6-48f5-a983-7b95ff3fa91f","system_id":"levelo_inurba_marseille","lat":43.25351,"lon":5.42175,"is_reserved":false,"is_disabled":false,"rental_uris":{"android":"levelo://app?vid=3723f55c-2de6-48f5-a983-7b95ff3fa91f","ios":"levelo://app?vid=3723f55c-2de6-48f5-a983-7b95ff3fa91f"},"vehicle_type_id":"4","last_reported":1778442717,"current_range_meters":4800,"station_id":"st_d2m65c5bi1j21697t3ng","pricing_plan_id":"cebpf4jnsgd1na2vs0mg"},{"bike_id":"45f8fdb7-2cb1-45b9-8a88-adeab1f325d7","system_id":"levelo_inurba_marseille","lat":43.29243,"lon":5.38374,"is_reserved":false,"is_disabled":false,"rental_uris":{"android":"levelo://app?vid=45f8fdb7-2cb1-45b9-8a88-adeab1f325d7","ios":"levelo://app?vid=45f8fdb7-2cb1-45b9-8a88-adeab1f325d7"},"vehicle_type_id":"4","last_reported":1778442717,"current_range_meters":4800,"station_id":"ce4bh692rcd13ifvqea0","pricing_plan_id":"cebpf4jnsgd1na2vs0mg"},{"bike_id":"8351b836-b458-4e50-bd94-7b7b9083100d","system_id":"levelo_inurba_marseille","lat":43.28621,"lon":5.3511,"is_reserved":false,"is_disabled":false,"rental_uris":{"android":"levelo://app?vid=8351b836-b458-4e50-bd94-7b7b9083100d","ios":"levelo://app?vid=8351b836-b458-4e50-bd94-7b7b9083100d"},"vehicle_type_id":"4","last_reported":1778442717,"current_range_meters":5600,"station_id":"ce4bhch2rcd13ifvqeug","pricing_plan_id":"cebpf4jnsgd1na2vs0mg"},{"bike_id":"8ef16af9-67c0-466d-aa89-61b55eb65a8a","system_id":"levelo_inurba_marseille","lat":43.27451,"lon":5.39402,"is_reserved":false,"is_disabled":true,"rental_uris":{"android":"levelo://app?vid=8ef16af9-67c0-466d-aa89-61b55eb65a8a","ios":"levelo://app?vid=8ef16af9-67c0-466d-aa89-61b55eb65a8a"},"vehicle_type_id":"4","last_reported":1778442717,"current_range_meters":5600,"station_id":"ce4bhdp2rcd13ifvqf20","pricing_plan_id":"cebpf4jnsgd1na2vs0mg"},{"bike_id":"3fa35d5c-b85c-4f62-b88a-eee03b7d064c","system_id":"levelo_inurba_marseille","lat":43.31126,"lon":5.37763,"is_reserved":false,"is_disabled":false,"rental_uris":{"android":"levelo://app?vid=3fa35d5c-b85c-4f62-b88a-eee03b7d064c","ios":"levelo://app?vid=3fa35d5c-b85c-4f62-b88a-eee03b7d064c"},"vehicle_type_id":"4","last_reported":1778442717,"current_range_meters":5600,"station_id":"ce4bgt92rcd13ifvqcg0","pricing_plan_id":"cebpf4jnsgd1na2vs0mg"},{"bike_id":"9dc8b407-896c-4433-85cd-b397c0ed26f9","system_id":"levelo_inurba_marseille","lat":43.28507,"lon":5.38561,"is_reserved":false,"is_disabled":false,"rental_uris":{"android":"levelo://app?vid=9dc8b407-896c-4433-85cd-b397c0ed26f9","ios":"levelo://app?vid=9dc8b407-896c-4433-85cd-b397c0ed26f9"},"vehicle_type_id":"4","last_reported":1778442717,"current_range_meters":5600,"station_id":"ce4bh8p2rcd13ifvqeb0","pricing_plan_id":"cebpf4jnsgd1na2vs0mg"},{"bike_id":"0152740e-06db-4ade-88eb-e3632fbb8a1f","system_id":"levelo_inurba_marseille","lat":43.28314,"lon":5.35093,"is_reserved":false,"is_disabled":true,"rental_uris":{"android":"levelo://app?vid=0152740e-06db-4ade-88eb-e3632fbb8a1f","ios":"levelo://app?vid=0152740e-06db-4ade-88eb-e3632fbb8a1f"},"vehicle_type_id":"4","last_reported":1778442717,"current_range_meters":5600,"station_id":"","pricing_plan_id":"cebpf4jnsgd1na2vs0mg"},{"bike_id":"03caa80e-93c7-48f8-a242-d268eeae0a9d","system_id":"levelo_inurba_marseille","lat":43.28629,"lon":5.4014,"is_reserved":false,"is_disabled":false,"rental_uris":{"android":"levelo://app?vid=03caa80e-93c7-48f8-a242-d268eeae0a9d","ios":"levelo://app?vid=03caa80e-93c7-48f8-a242-d268eeae0a9d"},"vehicle_type_id":"4","last_reported":1778442717,"current_range_meters":5600,"station_id":"","pricing_plan_id":"cebpf4jnsgd1na2vs0mg"},{"bike_id":"9dc61640-987a-437c-ada7-637d7471e1db","system_id":"levelo_inurba_marseille","lat":43.3285,"lon":5.3753,"is_reserved":false,"is_disabled":false,"rental_uris":{"android":"levelo://app?vid=9dc61640-987a-437c-ada7-637d7471e1db","ios":"levelo://app?vid=9dc61640-987a-437c-ada7-637d7471e1db"},"vehicle_type_id":"4","last_reported":1778442717,"current_range_meters":6000,"station_id":"","pricing_plan_id":"cebpf4jnsgd1na2vs0mg"},{"bike_id":"5098fa98-eaea-4bb7-ba93-c188c811cf2f","system_id":"levelo_inurba_marseille","lat":43.29624,"lon":5.37168,"is_reserved":false,"is_disabled":false,"rental_uris":{"android":"levelo://app?vid=5098fa98-eaea-4bb7-ba93-c188c811cf2f","ios":"levelo://app?vid=5098fa98-eaea-4bb7-ba93-c188c811cf2f"},"vehicle_type_id":"4","last_reported":1778442717,"current_range_meters":6000,"station_id":"ce4bgnh2rcd13ifvqc0g","pricing_plan_id":"cebpf4jnsgd1na2vs0mg"},{"bike_id":"2506be62-85f3-41a6-b103-e5faab53b5ba","system_id":"levelo_inurba_marseille","lat":43.27551,"lon":5.38428,"is_reserved":false,"is_disabled":true,"rental_uris":{"android":"levelo://app?vid=2506be62-85f3-41a6-b103-e5faab53b5ba","ios":"levelo://app?vid=2506be62-85f3-41a6-b103-e5faab53b5ba"},"vehicle_type_id":"4","last_reported":1778442717,"current_range_meters":6000,"station_id":"ce4bhh92rcd13ifvqfi0","pricing_plan_id":"cebpf4jnsgd1na2vs0mg"},{"bike_id":"91990055-9ce4-459a-87ae-7fbe40947a26","system_id":"levelo_inurba_marseille","lat":43.30899,"lon":5.37188,"is_reserved":false,"is_disabled":false,"rental_uris":{"android":"levelo://app?vid=91990055-9ce4-459a-87ae-7fbe40947a26","ios":"levelo://app?vid=91990055-9ce4-459a-87ae-7fbe40947a26"},"vehicle_type_id":"4","last_reported":1778442717,"current_range_meters":6000,"station_id":"ce4bguh2rcd13ifvqckg","pricing_plan_id":"cebpf4jnsgd1na2vs0mg"},{"bike_id":"79e482fb-ab0d-4bc7-8f1d-38da21e8ed12","system_id":"levelo_inurba_marseille","lat":43.25857,"lon":5.39928,"is_reserved":false,"is_disabled":false,"rental_uris":{"android":"levelo://app?vid=79e482fb-ab0d-4bc7-8f1d-38da21e8ed12","ios":"levelo://app?vid=79e482fb-ab0d-4bc7-8f1d-38da21e8ed12"},"vehicle_type_id":"4","last_reported":1778442717,"current_range_meters":6000,"station_id":"ce4bhl92rcd13ifvqghg","pricing_plan_id":"cebpf4jnsgd1na2vs0mg"},{"bike_id":"2a10f88f-9d4c-47c3-8c89-9fe21d53aeab","system_id":"levelo_inurba_marseille","lat":43.28403,"lon":5.37509,"is_reserved":false,"is_disabled":true,"rental_uris":{"android":"levelo://app?vid=2a10f88f-9d4c-47c3-8c89-9fe21d53aeab","ios":"levelo://app?vid=2a10f88f-9d4c-47c3-8c89-9fe21d53aeab"},"vehicle_type_id":"4","last_reported":1778442717,"current_range_meters":6000,"station_id":"ce4bh412rcd13ifvqds0","pricing_plan_id":"cebpf4jnsgd1na2vs0mg"},{"bike_id":"43ec9c65-e87a-4e85-86f3-9260a882dc04","system_id":"levelo_inurba_marseille","lat":43.30142,"lon":5.43087,"is_reserved":false,"is_disabled":true,"rental_uris":{"android":"levelo://app?vid=43ec9c65-e87a-4e85-86f3-9260a882dc04","ios":"levelo://app?vid=43ec9c65-e87a-4e85-86f3-9260a882dc04"},"vehicle_type_id":"4","last_reported":1778442717,"current_range_meters":6000,"station_id":"st_d3js3co5814s73ftftug","pricing_plan_id":"cebpf4jnsgd1na2vs0mg"},{"bike_id":"d5f0dc25-4592-44f7-8db4-ee52a35f69ad","system_id":"levelo_inurba_marseille","lat":43.28493,"lon":5.48377,"is_reserved":false,"is_disabled":false,"rental_uris":{"android":"levelo://app?vid=d5f0dc25-4592-44f7-8db4-ee52a35f69ad","ios":"levelo://app?vid=d5f0dc25-4592-44f7-8db4-ee52a35f69ad"},"vehicle_type_id":"4","last_reported":1778442717,"current_range_meters":6000,"station_id":"","pricing_plan_id":"cebpf4jnsgd1na2vs0mg"},{"bike_id":"0918215f-be43-49cf-98f8-2090e0500933","system_id":"levelo_inurba_marseille","lat":43.25121,"lon":5.40308,"is_reserved":false,"is_disabled":false,"rental_uris":{"android":"levelo://app?vid=0918215f-be43-49cf-98f8-2090e0500933","ios":"levelo://app?vid=0918215f-be43-49cf-98f8-2090e0500933"},"vehicle_type_id":"4","last_reported":1778442717,"current_range_meters":6000,"station_id":"ce4bhlh2rcd13ifvqgig","pricing_plan_id":"cebpf4jnsgd1na2vs0mg"},{"bike_id":"5477e762-6575-4a4a-b998-e3aa2527616b","system_id":"levelo_inurba_marseille","lat":43.30329,"lon":5.36893,"is_reserved":false,"is_disabled":false,"rental_uris":{"android":"levelo://app?vid=5477e762-6575-4a4a-b998-e3aa2527616b","ios":"levelo://app?vid=5477e762-6575-4a4a-b998-e3aa2527616b"},"vehicle_type_id":"4","last_reported":1778442717,"current_range_meters":6000,"station_id":"ce4bgqh2rcd13ifvqc5g","pricing_plan_id":"cebpf4jnsgd1na2vs0mg"},{"bike_id":"85f4e1ac-2ce3-4e99-aae1-14f325a79c0b","system_id":"levelo_inurba_marseille","lat":43.27962,"lon":5.38728,"is_reserved":false,"is_disabled":false,"rental_uris":{"android":"levelo://app?vid=85f4e1ac-2ce3-4e99-aae1-14f325a79c0b","ios":"levelo://app?vid=85f4e1ac-2ce3-4e99-aae1-14f325a79c0b"},"vehicle_type_id":"4","last_reported":1778442717,"current_range_meters":6000,"station_id":"ce4bhg12rcd13ifvqf80","pricing_plan_id":"cebpf4jnsgd1na2vs0mg"},{"bike_id":"3d4a4d1f-f306-4653-8b6c-31910893fd40","system_id":"levelo_inurba_marseille","lat":43.28929,"lon":5.36649,"is_reserved":false,"is_disabled":false,"rental_uris":{"android":"levelo://app?vid=3d4a4d1f-f306-4653-8b6c-31910893fd40","ios":"levelo://app?vid=3d4a4d1f-f306-4653-8b6c-31910893fd40"},"vehicle_type_id":"4","last_reported":1778442717,"current_range_meters":6000,"station_id":"ce4bhap2rcd13ifvqek0","pricing_plan_id":"cebpf4jnsgd1na2vs0mg"},{"bike_id":"83ecb1f7-3a93-470e-862c-9021084d64be","system_id":"levelo_inurba_marseille","lat":43.28978,"lon":5.37834,"is_reserved":false,"is_disabled":false,"rental_uris":{"android":"levelo://app?vid=83ecb1f7-3a93-470e-862c-9021084d64be","ios":"levelo://app?vid=83ecb1f7-3a93-470e-862c-9021084d64be"},"vehicle_type_id":"4","last_reported":1778442717,"current_range_meters":6000,"station_id":"ce4bh9p2rcd13ifvqed0","pricing_plan_id":"cebpf4jnsgd1na2vs0mg"},{"bike_id":"76645867-9226-4148-a6ac-b7d91fe256ae","system_id":"levelo_inurba_marseille","lat":43.29913,"lon":5.37462,"is_reserved":false,"is_disabled":true,"rental_uris":{"android":"levelo://app?vid=76645867-9226-4148-a6ac-b7d91fe256ae","ios":"levelo://app?vid=76645867-9226-4148-a6ac-b7d91fe256ae"},"vehicle_type_id":"4","last_reported":1778442717,"current_range_meters":6000,"station_id":"","pricing_plan_id":"cebpf4jnsgd1na2vs0mg"},{"bike_id":"8b4b40db-7db6-4d46-a9a6-63707bbf94e8","system_id":"levelo_inurba_marseille","lat":43.30633,"lon":5.40076,"is_reserved":false,"is_disabled":false,"rental_uris":{"android":"levelo://app?vid=8b4b40db-7db6-4d46-a9a6-63707bbf94e8","ios":"levelo://app?vid=8b4b40db-7db6-4d46-a9a6-63707bbf94e8"},"vehicle_type_id":"4","last_reported":1778442717,"current_range_meters":6000,"station_id":"ce4bh112rcd13ifvqda0","pricing_plan_id":"cebpf4jnsgd1na2vs0mg"},{"bike_id":"f1c24aa7-e0ea-48cf-976a-1ab897ce524d","system_id":"levelo_inurba_marseille","lat":43.29954,"lon":5.37139,"is_reserved":false,"is_disabled":true,"rental_uris":{"android":"levelo://app?vid=f1c24aa7-e0ea-48cf-976a-1ab897ce524d","ios":"levelo://app?vid=f1c24aa7-e0ea-48cf-976a-1ab897ce524d"},"vehicle_type_id":"4","last_reported":1778442717,"current_range_meters":6400,"station_id":"ce4bgr92rcd13ifvqc7g","pricing_plan_id":"cebpf4jnsgd1na2vs0mg"},{"bike_id":"8c36f14f-0ea0-4eaf-8ef4-0bf3049421ef","system_id":"levelo_inurba_marseille","lat":43.30188,"lon":5.39948,"is_reserved":false,"is_disabled":false,"rental_uris":{"android":"levelo://app?vid=8c36f14f-0ea0-4eaf-8ef4-0bf3049421ef","ios":"levelo://app?vid=8c36f14f-0ea0-4eaf-8ef4-0bf3049421ef"},"vehicle_type_id":"4","last_reported":1778442717,"current_range_meters":6400,"station_id":"","pricing_plan_id":"cebpf4jnsgd1na2vs0mg"},{"bike_id":"59827150-34e3-4aef-a8c3-9fd1f0af10d9","system_id":"levelo_inurba_marseille","lat":43.23394,"lon":5.41255,"is_reserved":false,"is_disabled":false,"rental_uris":{"android":"levelo://app?vid=59827150-34e3-4aef-a8c3-9fd1f0af10d9","ios":"levelo://app?vid=59827150-34e3-4aef-a8c3-9fd1f0af10d9"},"vehicle_type_id":"4","last_reported":1778442717,"current_range_meters":6400,"station_id":"st_d75pvndhf9lc73cqq3eg","pricing_plan_id":"cebpf4jnsgd1na2vs0mg"},{"bike_id":"f3663f60-dbbf-48c6-8470-0b2e2be6f100","system_id":"levelo_inurba_marseille","lat":43.26342,"lon":5.41094,"is_reserved":false,"is_disabled":false,"rental_uris":{"android":"levelo://app?vid=f3663f60-dbbf-48c6-8470-0b2e2be6f100","ios":"levelo://app?vid=f3663f60-dbbf-48c6-8470-0b2e2be6f100"},"vehicle_type_id":"4","last_reported":1778442717,"current_range_meters":6400,"station_id":"st_d4e5ca6na9uc73bfl5fg","pricing_plan_id":"cebpf4jnsgd1na2vs0mg"},{"bike_id":"8395579b-8f38-41a7-86cb-d8270590e280","system_id":"levelo_inurba_marseille","lat":43.25707,"lon":5.41131,"is_reserved":false,"is_disabled":false,"rental_uris":{"android":"levelo://app?vid=8395579b-8f38-41a7-86cb-d8270590e280","ios":"levelo://app?vid=8395579b-8f38-41a7-86cb-d8270590e280"},"vehicle_type_id":"4","last_reported":1778442717,"current_range_meters":6400,"station_id":"ce4bhkp2rcd13ifvqgd0","pricing_plan_id":"cebpf4jnsgd1na2vs0mg"},{"bike_id":"6be1be21-8155-4845-b665-1dad8a6c6bf4","system_id":"levelo_inurba_marseille","lat":43.28601,"lon":5.35104,"is_reserved":false,"is_disabled":true,"rental_uris":{"android":"levelo://app?vid=6be1be21-8155-4845-b665-1dad8a6c6bf4","ios":"levelo://app?vid=6be1be21-8155-4845-b665-1dad8a6c6bf4"},"vehicle_type_id":"4","last_reported":1778442717,"current_range_meters":6400,"station_id":"ce4bhch2rcd13ifvqeug","pricing_plan_id":"cebpf4jnsgd1na2vs0mg"},{"bike_id":"10032cbe-ae38-4812-b75e-e14f8fae2b66","system_id":"levelo_inurba_marseille","lat":43.28663,"lon":5.36348,"is_reserved":false,"is_disabled":false,"rental_uris":{"android":"levelo://app?vid=10032cbe-ae38-4812-b75e-e14f8fae2b66","ios":"levelo://app?vid=10032cbe-ae38-4812-b75e-e14f8fae2b66"},"vehicle_type_id":"4","last_reported":1778442717,"current_range_meters":6400,"station_id":"ce4bhah2rcd13ifvqej0","pricing_plan_id":"cebpf4jnsgd1na2vs0mg"},{"bike_id":"019248d2-541c-4fa1-abbd-e47be97aa96b","system_id":"levelo_inurba_marseille","lat":43.25327,"lon":5.42165,"is_reserved":false,"is_disabled":true,"rental_uris":{"android":"levelo://app?vid=019248d2-541c-4fa1-abbd-e47be97aa96b","ios":"levelo://app?vid=019248d2-541c-4fa1-abbd-e47be97aa96b"},"vehicle_type_id":"4","last_reported":1778442717,"current_range_meters":6400,"station_id":"st_d2m65c5bi1j21697t3ng","pricing_plan_id":"cebpf4jnsgd1na2vs0mg"},{"bike_id":"9d637c64-57d8-4b13-827d-f82a99455faf","system_id":"levelo_inurba_marseille","lat":43.30151,"lon":5.38102,"is_reserved":false,"is_disabled":false,"rental_uris":{"android":"levelo://app?vid=9d637c64-57d8-4b13-827d-f82a99455faf","ios":"levelo://app?vid=9d637c64-57d8-4b13-827d-f82a99455faf"},"vehicle_type_id":"4","last_reported":1778442717,"current_range_meters":6400,"station_id":"ce4bgjp2rcd13ifvqbh0","pricing_plan_id":"cebpf4jnsgd1na2vs0mg"},{"bike_id":"36e91cab-ca90-49ac-beff-eed3c5efe689","system_id":"levelo_inurba_marseille","lat":43.3053,"lon":5.367,"is_reserved":false,"is_disabled":false,"rental_uris":{"android":"levelo://app?vid=36e91cab-ca90-49ac-beff-eed3c5efe689","ios":"levelo://app?vid=36e91cab-ca90-49ac-beff-eed3c5efe689"},"vehicle_type_id":"4","last_reported":1778442717,"current_range_meters":6400,"station_id":"ce4bgrp2rcd13ifvqc9g","pricing_plan_id":"cebpf4jnsgd1na2vs0mg"},{"bike_id":"a1d66207-ff5d-4a71-b148-d595e314ee4a","system_id":"levelo_inurba_marseille","lat":43.288,"lon":5.42411,"is_reserved":false,"is_disabled":false,"rental_uris":{"android":"levelo://app?vid=a1d66207-ff5d-4a71-b148-d595e314ee4a","ios":"levelo://app?vid=a1d66207-ff5d-4a71-b148-d595e314ee4a"},"vehicle_type_id":"4","last_reported":1778442717,"current_range_meters":6400,"station_id":"","pricing_plan_id":"cebpf4jnsgd1na2vs0mg"},{"bike_id":"eb81b286-29a9-46e4-9d8b-710f3c6518f1","system_id":"levelo_inurba_marseille","lat":43.26965,"lon":5.38636,"is_reserved":false,"is_disabled":false,"rental_uris":{"android":"levelo://app?vid=eb81b286-29a9-46e4-9d8b-710f3c6518f1","ios":"levelo://app?vid=eb81b286-29a9-46e4-9d8b-710f3c6518f1"},"vehicle_type_id":"4","last_reported":1778442717,"current_range_meters":6400,"station_id":"ce4bhh92rcd13ifvqfh0","pricing_plan_id":"cebpf4jnsgd1na2vs0mg"},{"bike_id":"e7516044-4e84-4d65-b866-9f63aecad1de","system_id":"levelo_inurba_marseille","lat":43.23952,"lon":5.36643,"is_reserved":false,"is_disabled":false,"rental_uris":{"android":"levelo://app?vid=e7516044-4e84-4d65-b866-9f63aecad1de","ios":"levelo://app?vid=e7516044-4e84-4d65-b866-9f63aecad1de"},"vehicle_type_id":"4","last_reported":1778442717,"current_range_meters":6800,"station_id":"ce4bhi12rcd13ifvqfp0","pricing_plan_id":"cebpf4jnsgd1na2vs0mg"},{"bike_id":"f3d39812-fb9d-4849-9e6f-d206a87ccc8b","system_id":"levelo_inurba_marseille","lat":43.23195,"lon":5.39974,"is_reserved":false,"is_disabled":false,"rental_uris":{"android":"levelo://app?vid=f3d39812-fb9d-4849-9e6f-d206a87ccc8b","ios":"levelo://app?vid=f3d39812-fb9d-4849-9e6f-d206a87ccc8b"},"vehicle_type_id":"4","last_reported":1778442717,"current_range_meters":6800,"station_id":"ce4bhn12rcd13ifvqgqg","pricing_plan_id":"cebpf4jnsgd1na2vs0mg"},{"bike_id":"66969438-299e-490d-ab31-e463b9efa104","system_id":"levelo_inurba_marseille","lat":43.28487,"lon":5.48413,"is_reserved":false,"is_disabled":false,"rental_uris":{"android":"levelo://app?vid=66969438-299e-490d-ab31-e463b9efa104","ios":"levelo://app?vid=66969438-299e-490d-ab31-e463b9efa104"},"vehicle_type_id":"4","last_reported":1778442717,"current_range_meters":6800,"station_id":"","pricing_plan_id":"cebpf4jnsgd1na2vs0mg"},{"bike_id":"31398a4d-4b5e-484e-bd5a-d9f31bc295bd","system_id":"levelo_inurba_marseille","lat":43.25082,"lon":5.39496,"is_reserved":false,"is_disabled":false,"rental_uris":{"android":"levelo://app?vid=31398a4d-4b5e-484e-bd5a-d9f31bc295bd","ios":"levelo://app?vid=31398a4d-4b5e-484e-bd5a-d9f31bc295bd"},"vehicle_type_id":"4","last_reported":1778442717,"current_range_meters":6800,"station_id":"ce4bhm12rcd13ifvqgkg","pricing_plan_id":"cebpf4jnsgd1na2vs0mg"},{"bike_id":"3b82db9e-501c-4a1a-9e92-335f5eeade2e","system_id":"levelo_inurba_marseille","lat":43.288604,"lon":5.393292,"is_reserved":false,"is_disabled":false,"rental_uris":{"android":"levelo://app?vid=3b82db9e-501c-4a1a-9e92-335f5eeade2e","ios":"levelo://app?vid=3b82db9e-501c-4a1a-9e92-335f5eeade2e"},"vehicle_type_id":"4","last_reported":1778442717,"current_range_meters":6800,"station_id":"ce4bh2p2rcd13ifvqdi0","pricing_plan_id":"cebpf4jnsgd1na2vs0mg"},{"bike_id":"763a1316-8e67-47bc-ac42-4846d64796b6","system_id":"levelo_inurba_marseille","lat":43.24638,"lon":5.43138,"is_reserved":false,"is_disabled":false,"rental_uris":{"android":"levelo://app?vid=763a1316-8e67-47bc-ac42-4846d64796b6","ios":"levelo://app?vid=763a1316-8e67-47bc-ac42-4846d64796b6"},"vehicle_type_id":"4","last_reported":1778442717,"current_range_meters":6800,"station_id":"st_d2m6c4gdas8pm72e190g","pricing_plan_id":"cebpf4jnsgd1na2vs0mg"},{"bike_id":"19fcb531-afbf-4fbb-8cfa-4fdace7952bb","system_id":"levelo_inurba_marseille","lat":43.297066,"lon":5.376863,"is_reserved":false,"is_disabled":false,"rental_uris":{"android":"levelo://app?vid=19fcb531-afbf-4fbb-8cfa-4fdace7952bb","ios":"levelo://app?vid=19fcb531-afbf-4fbb-8cfa-4fdace7952bb"},"vehicle_type_id":"4","last_reported":1778442717,"current_range_meters":6800,"station_id":"ce4bgkh2rcd13ifvqbl0","pricing_plan_id":"cebpf4jnsgd1na2vs0mg"},{"bike_id":"a2e1a33b-29dc-4128-b406-9196beec280f","system_id":"levelo_inurba_marseille","lat":43.29039,"lon":5.38121,"is_reserved":false,"is_disabled":false,"rental_uris":{"android":"levelo://app?vid=a2e1a33b-29dc-4128-b406-9196beec280f","ios":"levelo://app?vid=a2e1a33b-29dc-4128-b406-9196beec280f"},"vehicle_type_id":"4","last_reported":1778442717,"current_range_meters":6800,"station_id":"ce4bh4p2rcd13ifvqe1g","pricing_plan_id":"cebpf4jnsgd1na2vs0mg"},{"bike_id":"7e138dd5-b2dd-4461-b0c7-fe9340d08cc6","system_id":"levelo_inurba_marseille","lat":43.28954,"lon":5.36615,"is_reserved":false,"is_disabled":true,"rental_uris":{"android":"levelo://app?vid=7e138dd5-b2dd-4461-b0c7-fe9340d08cc6","ios":"levelo://app?vid=7e138dd5-b2dd-4461-b0c7-fe9340d08cc6"},"vehicle_type_id":"4","last_reported":1778442717,"current_range_meters":6800,"station_id":"ce4bhap2rcd13ifvqek0","pricing_plan_id":"cebpf4jnsgd1na2vs0mg"},{"bike_id":"6a449344-3ab1-46ff-b239-5fb716934614","system_id":"levelo_inurba_marseille","lat":43.24638,"lon":5.43125,"is_reserved":false,"is_disabled":false,"rental_uris":{"android":"levelo://app?vid=6a449344-3ab1-46ff-b239-5fb716934614","ios":"levelo://app?vid=6a449344-3ab1-46ff-b239-5fb716934614"},"vehicle_type_id":"4","last_reported":1778442717,"current_range_meters":6800,"station_id":"st_d2m6c4gdas8pm72e190g","pricing_plan_id":"cebpf4jnsgd1na2vs0mg"},{"bike_id":"291028f7-956b-4f01-9660-75967269f4ff","system_id":"levelo_inurba_marseille","lat":43.30097,"lon":5.39074,"is_reserved":false,"is_disabled":true,"rental_uris":{"android":"levelo://app?vid=291028f7-956b-4f01-9660-75967269f4ff","ios":"levelo://app?vid=291028f7-956b-4f01-9660-75967269f4ff"},"vehicle_type_id":"4","last_reported":1778442717,"current_range_meters":6800,"station_id":"ce4bh192rcd13ifvqdb0","pricing_plan_id":"cebpf4jnsgd1na2vs0mg"},{"bike_id":"8389131d-8b9d-4b8b-9cf7-96fcd875d4b3","system_id":"levelo_inurba_marseille","lat":43.29876,"lon":5.389,"is_reserved":false,"is_disabled":false,"rental_uris":{"android":"levelo://app?vid=8389131d-8b9d-4b8b-9cf7-96fcd875d4b3","ios":"levelo://app?vid=8389131d-8b9d-4b8b-9cf7-96fcd875d4b3"},"vehicle_type_id":"4","last_reported":1778442717,"current_range_meters":6800,"station_id":"ce4bh392rcd13ifvqdl0","pricing_plan_id":"cebpf4jnsgd1na2vs0mg"},{"bike_id":"4516e97d-1ec7-4f67-bd2c-30129b674d6c","system_id":"levelo_inurba_marseille","lat":43.28619,"lon":5.35109,"is_reserved":false,"is_disabled":true,"rental_uris":{"android":"levelo://app?vid=4516e97d-1ec7-4f67-bd2c-30129b674d6c","ios":"levelo://app?vid=4516e97d-1ec7-4f67-bd2c-30129b674d6c"},"vehicle_type_id":"4","last_reported":1778442717,"current_range_meters":6800,"station_id":"ce4bhch2rcd13ifvqeug","pricing_plan_id":"cebpf4jnsgd1na2vs0mg"},{"bike_id":"d4540253-c9ac-4127-82c4-03cac9441e10","system_id":"levelo_inurba_marseille","lat":43.243872,"lon":5.370605,"is_reserved":false,"is_disabled":false,"rental_uris":{"android":"levelo://app?vid=d4540253-c9ac-4127-82c4-03cac9441e10","ios":"levelo://app?vid=d4540253-c9ac-4127-82c4-03cac9441e10"},"vehicle_type_id":"4","last_reported":1778442717,"current_range_meters":6800,"station_id":"ce4bhhh2rcd13ifvqfk0","pricing_plan_id":"cebpf4jnsgd1na2vs0mg"},{"bike_id":"781a7759-54a2-44cd-b330-3d64cf7632c3","system_id":"levelo_inurba_marseille","lat":43.28361,"lon":5.38093,"is_reserved":false,"is_disabled":false,"rental_uris":{"android":"levelo://app?vid=781a7759-54a2-44cd-b330-3d64cf7632c3","ios":"levelo://app?vid=781a7759-54a2-44cd-b330-3d64cf7632c3"},"vehicle_type_id":"4","last_reported":1778442717,"current_range_meters":6800,"station_id":"ce4bh412rcd13ifvqdr0","pricing_plan_id":"cebpf4jnsgd1na2vs0mg"},{"bike_id":"0430b939-0a1a-4600-93cd-ce6a1e4067ff","system_id":"levelo_inurba_marseille","lat":43.25506,"lon":5.37646,"is_reserved":false,"is_disabled":false,"rental_uris":{"android":"levelo://app?vid=0430b939-0a1a-4600-93cd-ce6a1e4067ff","ios":"levelo://app?vid=0430b939-0a1a-4600-93cd-ce6a1e4067ff"},"vehicle_type_id":"4","last_reported":1778442717,"current_range_meters":6800,"station_id":"ce4bhh12rcd13ifvqff0","pricing_plan_id":"cebpf4jnsgd1na2vs0mg"},{"bike_id":"a2bc18bc-742d-49ea-bbf9-2554b9cd98da","system_id":"levelo_inurba_marseille","lat":43.26043,"lon":5.38647,"is_reserved":false,"is_disabled":false,"rental_uris":{"android":"levelo://app?vid=a2bc18bc-742d-49ea-bbf9-2554b9cd98da","ios":"levelo://app?vid=a2bc18bc-742d-49ea-bbf9-2554b9cd98da"},"vehicle_type_id":"4","last_reported":1778442717,"current_range_meters":6800,"station_id":"","pricing_plan_id":"cebpf4jnsgd1na2vs0mg"},{"bike_id":"a428d1fe-1781-4e88-88cc-9e6a2683e640","system_id":"levelo_inurba_marseille","lat":43.25572,"lon":5.38243,"is_reserved":false,"is_disabled":false,"rental_uris":{"android":"levelo://app?vid=a428d1fe-1781-4e88-88cc-9e6a2683e640","ios":"levelo://app?vid=a428d1fe-1781-4e88-88cc-9e6a2683e640"},"vehicle_type_id":"4","last_reported":1778442717,"current_range_meters":6800,"station_id":"ce4bhih2rcd13ifvqfs0","pricing_plan_id":"cebpf4jnsgd1na2vs0mg"},{"bike_id":"4ff87b6a-2006-4c15-b0ca-1492b80d76fd","system_id":"levelo_inurba_marseille","lat":43.27807,"lon":5.40719,"is_reserved":false,"is_disabled":false,"rental_uris":{"android":"levelo://app?vid=4ff87b6a-2006-4c15-b0ca-1492b80d76fd","ios":"levelo://app?vid=4ff87b6a-2006-4c15-b0ca-1492b80d76fd"},"vehicle_type_id":"4","last_reported":1778442717,"current_range_meters":6800,"station_id":"ce4bhnh2rcd13ifvqgtg","pricing_plan_id":"cebpf4jnsgd1na2vs0mg"},{"bike_id":"313456f0-be88-4768-b051-289b4f44dc70","system_id":"levelo_inurba_marseille","lat":43.29795,"lon":5.40404,"is_reserved":false,"is_disabled":false,"rental_uris":{"android":"levelo://app?vid=313456f0-be88-4768-b051-289b4f44dc70","ios":"levelo://app?vid=313456f0-be88-4768-b051-289b4f44dc70"},"vehicle_type_id":"4","last_reported":1778442717,"current_range_meters":6800,"station_id":"ce4bh112rcd13ifvqd90","pricing_plan_id":"cebpf4jnsgd1na2vs0mg"},{"bike_id":"3eae009d-44aa-482b-9175-5c6714e28de4","system_id":"levelo_inurba_marseille","lat":43.2549,"lon":5.37638,"is_reserved":false,"is_disabled":false,"rental_uris":{"android":"levelo://app?vid=3eae009d-44aa-482b-9175-5c6714e28de4","ios":"levelo://app?vid=3eae009d-44aa-482b-9175-5c6714e28de4"},"vehicle_type_id":"4","last_reported":1778442717,"current_range_meters":6800,"station_id":"ce4bhh12rcd13ifvqff0","pricing_plan_id":"cebpf4jnsgd1na2vs0mg"},{"bike_id":"02849ecd-84ae-4972-8247-931607cdaec0","system_id":"levelo_inurba_marseille","lat":43.28634,"lon":5.35084,"is_reserved":false,"is_disabled":false,"rental_uris":{"android":"levelo://app?vid=02849ecd-84ae-4972-8247-931607cdaec0","ios":"levelo://app?vid=02849ecd-84ae-4972-8247-931607cdaec0"},"vehicle_type_id":"4","last_reported":1778442717,"current_range_meters":6800,"station_id":"ce4bhch2rcd13ifvqeug","pricing_plan_id":"cebpf4jnsgd1na2vs0mg"},{"bike_id":"37e41f80-dd9f-4f02-a2e0-d7f6d7f81815","system_id":"levelo_inurba_marseille","lat":43.2952,"lon":5.38559,"is_reserved":false,"is_disabled":false,"rental_uris":{"android":"levelo://app?vid=37e41f80-dd9f-4f02-a2e0-d7f6d7f81815","ios":"levelo://app?vid=37e41f80-dd9f-4f02-a2e0-d7f6d7f81815"},"vehicle_type_id":"4","last_reported":1778442717,"current_range_meters":7200,"station_id":"ce4bgih2rcd13ifvqba0","pricing_plan_id":"cebpf4jnsgd1na2vs0mg"},{"bike_id":"d55796ed-4e9c-4094-8c61-04073e5fd354","system_id":"levelo_inurba_marseille","lat":43.28156,"lon":5.42652,"is_reserved":false,"is_disabled":false,"rental_uris":{"android":"levelo://app?vid=d55796ed-4e9c-4094-8c61-04073e5fd354","ios":"levelo://app?vid=d55796ed-4e9c-4094-8c61-04073e5fd354"},"vehicle_type_id":"4","last_reported":1778442717,"current_range_meters":7200,"station_id":"ce4bhnh2rcd13ifvqgug","pricing_plan_id":"cebpf4jnsgd1na2vs0mg"},{"bike_id":"3be48547-9755-4740-8c69-194d026c42aa","system_id":"levelo_inurba_marseille","lat":43.28409,"lon":5.37529,"is_reserved":false,"is_disabled":true,"rental_uris":{"android":"levelo://app?vid=3be48547-9755-4740-8c69-194d026c42aa","ios":"levelo://app?vid=3be48547-9755-4740-8c69-194d026c42aa"},"vehicle_type_id":"4","last_reported":1778442717,"current_range_meters":7200,"station_id":"ce4bh412rcd13ifvqds0","pricing_plan_id":"cebpf4jnsgd1na2vs0mg"},{"bike_id":"05873d3e-2f07-45ee-9c3a-8f47e65ca722","system_id":"levelo_inurba_marseille","lat":43.29868,"lon":5.39734,"is_reserved":false,"is_disabled":true,"rental_uris":{"android":"levelo://app?vid=05873d3e-2f07-45ee-9c3a-8f47e65ca722","ios":"levelo://app?vid=05873d3e-2f07-45ee-9c3a-8f47e65ca722"},"vehicle_type_id":"4","last_reported":1778442717,"current_range_meters":7200,"station_id":"ce4bh0h2rcd13ifvqd50","pricing_plan_id":"cebpf4jnsgd1na2vs0mg"},{"bike_id":"26c46353-55bc-47c3-9260-64f044b246fd","system_id":"levelo_inurba_marseille","lat":43.26223,"lon":5.40466,"is_reserved":false,"is_disabled":false,"rental_uris":{"android":"levelo://app?vid=26c46353-55bc-47c3-9260-64f044b246fd","ios":"levelo://app?vid=26c46353-55bc-47c3-9260-64f044b246fd"},"vehicle_type_id":"4","last_reported":1778442717,"current_range_meters":7200,"station_id":"ce4bhmh2rcd13ifvqgmg","pricing_plan_id":"cebpf4jnsgd1na2vs0mg"},{"bike_id":"64ee1d1b-107a-4763-9db4-d26752131c23","system_id":"levelo_inurba_marseille","lat":43.2508,"lon":5.39509,"is_reserved":false,"is_disabled":false,"rental_uris":{"android":"levelo://app?vid=64ee1d1b-107a-4763-9db4-d26752131c23","ios":"levelo://app?vid=64ee1d1b-107a-4763-9db4-d26752131c23"},"vehicle_type_id":"4","last_reported":1778442717,"current_range_meters":7200,"station_id":"ce4bhm12rcd13ifvqgkg","pricing_plan_id":"cebpf4jnsgd1na2vs0mg"},{"bike_id":"829aeb58-c649-476d-904d-bd92827ec395","system_id":"levelo_inurba_marseille","lat":43.30897,"lon":5.41209,"is_reserved":false,"is_disabled":false,"rental_uris":{"android":"levelo://app?vid=829aeb58-c649-476d-904d-bd92827ec395","ios":"levelo://app?vid=829aeb58-c649-476d-904d-bd92827ec395"},"vehicle_type_id":"4","last_reported":1778442717,"current_range_meters":7200,"station_id":"","pricing_plan_id":"cebpf4jnsgd1na2vs0mg"},{"bike_id":"e7851071-634f-4696-b1e3-b9aa83f58389","system_id":"levelo_inurba_marseille","lat":43.25514,"lon":5.37646,"is_reserved":false,"is_disabled":false,"rental_uris":{"android":"levelo://app?vid=e7851071-634f-4696-b1e3-b9aa83f58389","ios":"levelo://app?vid=e7851071-634f-4696-b1e3-b9aa83f58389"},"vehicle_type_id":"4","last_reported":1778442717,"current_range_meters":7200,"station_id":"ce4bhh12rcd13ifvqff0","pricing_plan_id":"cebpf4jnsgd1na2vs0mg"},{"bike_id":"9419e6b1-d07e-4865-bc84-49f308e929ec","system_id":"levelo_inurba_marseille","lat":43.2332,"lon":5.35792,"is_reserved":false,"is_disabled":false,"rental_uris":{"android":"levelo://app?vid=9419e6b1-d07e-4865-bc84-49f308e929ec","ios":"levelo://app?vid=9419e6b1-d07e-4865-bc84-49f308e929ec"},"vehicle_type_id":"4","last_reported":1778442717,"current_range_meters":7200,"station_id":"","pricing_plan_id":"cebpf4jnsgd1na2vs0mg"},{"bike_id":"1bf83d01-c2aa-49e9-b761-777f56954ab5","system_id":"levelo_inurba_marseille","lat":43.24977,"lon":5.40487,"is_reserved":false,"is_disabled":false,"rental_uris":{"android":"levelo://app?vid=1bf83d01-c2aa-49e9-b761-777f56954ab5","ios":"levelo://app?vid=1bf83d01-c2aa-49e9-b761-777f56954ab5"},"vehicle_type_id":"4","last_reported":1778442717,"current_range_meters":7200,"station_id":"st_d2ngiaodas8pm72gd1h0","pricing_plan_id":"cebpf4jnsgd1na2vs0mg"},{"bike_id":"a016672a-1061-4ac3-bb8b-c01d8b90b1d4","system_id":"levelo_inurba_marseille","lat":43.23175,"lon":5.3999,"is_reserved":false,"is_disabled":false,"rental_uris":{"android":"levelo://app?vid=a016672a-1061-4ac3-bb8b-c01d8b90b1d4","ios":"levelo://app?vid=a016672a-1061-4ac3-bb8b-c01d8b90b1d4"},"vehicle_type_id":"4","last_reported":1778442717,"current_range_meters":7200,"station_id":"ce4bhn12rcd13ifvqgqg","pricing_plan_id":"cebpf4jnsgd1na2vs0mg"},{"bike_id":"4af425a5-e7c2-4587-b4af-e86f399fe789","system_id":"levelo_inurba_marseille","lat":43.29587,"lon":5.3994,"is_reserved":false,"is_disabled":false,"rental_uris":{"android":"levelo://app?vid=4af425a5-e7c2-4587-b4af-e86f399fe789","ios":"levelo://app?vid=4af425a5-e7c2-4587-b4af-e86f399fe789"},"vehicle_type_id":"4","last_reported":1778442717,"current_range_meters":7200,"station_id":"ce4bh312rcd13ifvqdj0","pricing_plan_id":"cebpf4jnsgd1na2vs0mg"},{"bike_id":"cccda472-7561-4978-9b74-a8c6197a578e","system_id":"levelo_inurba_marseille","lat":43.33161,"lon":5.37688,"is_reserved":false,"is_disabled":false,"rental_uris":{"android":"levelo://app?vid=cccda472-7561-4978-9b74-a8c6197a578e","ios":"levelo://app?vid=cccda472-7561-4978-9b74-a8c6197a578e"},"vehicle_type_id":"4","last_reported":1778442717,"current_range_meters":7200,"station_id":"st_d46cu089ee8s73dldbu0","pricing_plan_id":"cebpf4jnsgd1na2vs0mg"},{"bike_id":"3db41b3b-a8ba-41d4-bdb6-d1060840b4aa","system_id":"levelo_inurba_marseille","lat":43.29311,"lon":5.37167,"is_reserved":false,"is_disabled":false,"rental_uris":{"android":"levelo://app?vid=3db41b3b-a8ba-41d4-bdb6-d1060840b4aa","ios":"levelo://app?vid=3db41b3b-a8ba-41d4-bdb6-d1060840b4aa"},"vehicle_type_id":"4","last_reported":1778442717,"current_range_meters":7200,"station_id":"ce4bgh92rcd13ifvqb40","pricing_plan_id":"cebpf4jnsgd1na2vs0mg"},{"bike_id":"e88067db-06e7-43fb-8b26-0f29cfb1ca74","system_id":"levelo_inurba_marseille","lat":43.28692,"lon":5.4669,"is_reserved":false,"is_disabled":false,"rental_uris":{"android":"levelo://app?vid=e88067db-06e7-43fb-8b26-0f29cfb1ca74","ios":"levelo://app?vid=e88067db-06e7-43fb-8b26-0f29cfb1ca74"},"vehicle_type_id":"4","last_reported":1778442717,"current_range_meters":7200,"station_id":"st_d6tc3vkotcvc738tfjhg","pricing_plan_id":"cebpf4jnsgd1na2vs0mg"},{"bike_id":"8babfa5f-119b-4a66-8bfd-7383e916d27a","system_id":"levelo_inurba_marseille","lat":43.29248,"lon":5.38442,"is_reserved":false,"is_disabled":false,"rental_uris":{"android":"levelo://app?vid=8babfa5f-119b-4a66-8bfd-7383e916d27a","ios":"levelo://app?vid=8babfa5f-119b-4a66-8bfd-7383e916d27a"},"vehicle_type_id":"4","last_reported":1778442717,"current_range_meters":8000,"station_id":"ce4bh692rcd13ifvqea0","pricing_plan_id":"cebpf4jnsgd1na2vs0mg"},{"bike_id":"bd013f89-14e0-4bf4-b551-5f21536228af","system_id":"levelo_inurba_marseille","lat":43.26062,"lon":5.39402,"is_reserved":false,"is_disabled":false,"rental_uris":{"android":"levelo://app?vid=bd013f89-14e0-4bf4-b551-5f21536228af","ios":"levelo://app?vid=bd013f89-14e0-4bf4-b551-5f21536228af"},"vehicle_type_id":"4","last_reported":1778442717,"current_range_meters":8000,"station_id":"ce4bhh92rcd13ifvqfj0","pricing_plan_id":"cebpf4jnsgd1na2vs0mg"},{"bike_id":"daf21bfc-b3b9-4762-b2ab-c49f351c7dfe","system_id":"levelo_inurba_marseille","lat":43.29033,"lon":5.38642,"is_reserved":false,"is_disabled":false,"rental_uris":{"android":"levelo://app?vid=daf21bfc-b3b9-4762-b2ab-c49f351c7dfe","ios":"levelo://app?vid=daf21bfc-b3b9-4762-b2ab-c49f351c7dfe"},"vehicle_type_id":"4","last_reported":1778442717,"current_range_meters":8000,"station_id":"ce4bh4p2rcd13ifvqe0g","pricing_plan_id":"cebpf4jnsgd1na2vs0mg"},{"bike_id":"9978bf29-8be4-416d-9e1c-7cc044f2b9f1","system_id":"levelo_inurba_marseille","lat":43.3145,"lon":5.37384,"is_reserved":false,"is_disabled":true,"rental_uris":{"android":"levelo://app?vid=9978bf29-8be4-416d-9e1c-7cc044f2b9f1","ios":"levelo://app?vid=9978bf29-8be4-416d-9e1c-7cc044f2b9f1"},"vehicle_type_id":"4","last_reported":1778442717,"current_range_meters":8000,"station_id":"","pricing_plan_id":"cebpf4jnsgd1na2vs0mg"},{"bike_id":"7f14ac2a-95a1-4ff9-8272-a58b1f33bddd","system_id":"levelo_inurba_marseille","lat":43.32366,"lon":5.38858,"is_reserved":false,"is_disabled":false,"rental_uris":{"android":"levelo://app?vid=7f14ac2a-95a1-4ff9-8272-a58b1f33bddd","ios":"levelo://app?vid=7f14ac2a-95a1-4ff9-8272-a58b1f33bddd"},"vehicle_type_id":"4","last_reported":1778442717,"current_range_meters":8000,"station_id":"ce4bhqp2rcd13ifvqhog","pricing_plan_id":"cebpf4jnsgd1na2vs0mg"},{"bike_id":"d59b1513-c5e0-4a44-a647-2d42866bfbdf","system_id":"levelo_inurba_marseille","lat":43.23192,"lon":5.35558,"is_reserved":false,"is_disabled":false,"rental_uris":{"android":"levelo://app?vid=d59b1513-c5e0-4a44-a647-2d42866bfbdf","ios":"levelo://app?vid=d59b1513-c5e0-4a44-a647-2d42866bfbdf"},"vehicle_type_id":"4","last_reported":1778442717,"current_range_meters":8000,"station_id":"ce4bhu92rcd13ifvqi70","pricing_plan_id":"cebpf4jnsgd1na2vs0mg"},{"bike_id":"0fdd2634-3a09-446a-be37-6d2e2fa070de","system_id":"levelo_inurba_marseille","lat":43.28866,"lon":5.42531,"is_reserved":false,"is_disabled":false,"rental_uris":{"android":"levelo://app?vid=0fdd2634-3a09-446a-be37-6d2e2fa070de","ios":"levelo://app?vid=0fdd2634-3a09-446a-be37-6d2e2fa070de"},"vehicle_type_id":"4","last_reported":1778442717,"current_range_meters":8000,"station_id":"st_d3b462108ojc7389ooeg","pricing_plan_id":"cebpf4jnsgd1na2vs0mg"},{"bike_id":"8ae20070-8a6a-4206-96f0-4a5901728859","system_id":"levelo_inurba_marseille","lat":43.31169,"lon":5.38713,"is_reserved":false,"is_disabled":false,"rental_uris":{"android":"levelo://app?vid=8ae20070-8a6a-4206-96f0-4a5901728859","ios":"levelo://app?vid=8ae20070-8a6a-4206-96f0-4a5901728859"},"vehicle_type_id":"4","last_reported":1778442717,"current_range_meters":8000,"station_id":"ce4bgv12rcd13ifvqcp0","pricing_plan_id":"cebpf4jnsgd1na2vs0mg"},{"bike_id":"80386a2b-e970-41f0-870f-0b66294b34a1","system_id":"levelo_inurba_marseille","lat":43.26349,"lon":5.4107,"is_reserved":false,"is_disabled":false,"rental_uris":{"android":"levelo://app?vid=80386a2b-e970-41f0-870f-0b66294b34a1","ios":"levelo://app?vid=80386a2b-e970-41f0-870f-0b66294b34a1"},"vehicle_type_id":"4","last_reported":1778442717,"current_range_meters":8000,"station_id":"st_d4e5ca6na9uc73bfl5fg","pricing_plan_id":"cebpf4jnsgd1na2vs0mg"},{"bike_id":"33b0d095-e46d-4eb3-bad0-940eb73a3f51","system_id":"levelo_inurba_marseille","lat":43.28752,"lon":5.377225,"is_reserved":false,"is_disabled":false,"rental_uris":{"android":"levelo://app?vid=33b0d095-e46d-4eb3-bad0-940eb73a3f51","ios":"levelo://app?vid=33b0d095-e46d-4eb3-bad0-940eb73a3f51"},"vehicle_type_id":"4","last_reported":1778442717,"current_range_meters":8000,"station_id":"","pricing_plan_id":"cebpf4jnsgd1na2vs0mg"},{"bike_id":"b01979f2-617b-40ad-8331-8e4b5080246b","system_id":"levelo_inurba_marseille","lat":43.28424,"lon":5.37501,"is_reserved":false,"is_disabled":false,"rental_uris":{"android":"levelo://app?vid=b01979f2-617b-40ad-8331-8e4b5080246b","ios":"levelo://app?vid=b01979f2-617b-40ad-8331-8e4b5080246b"},"vehicle_type_id":"4","last_reported":1778442717,"current_range_meters":8000,"station_id":"ce4bh412rcd13ifvqds0","pricing_plan_id":"cebpf4jnsgd1na2vs0mg"},{"bike_id":"e16f3497-994b-4a5e-a623-feda354f6eb9","system_id":"levelo_inurba_marseille","lat":43.29484,"lon":5.43308,"is_reserved":false,"is_disabled":false,"rental_uris":{"android":"levelo://app?vid=e16f3497-994b-4a5e-a623-feda354f6eb9","ios":"levelo://app?vid=e16f3497-994b-4a5e-a623-feda354f6eb9"},"vehicle_type_id":"4","last_reported":1778442717,"current_range_meters":8000,"station_id":"st_d3j5ugp08ojc73fj9d10","pricing_plan_id":"cebpf4jnsgd1na2vs0mg"},{"bike_id":"c2654815-5136-468d-9bc4-fbe9dc1ec491","system_id":"levelo_inurba_marseille","lat":43.3247,"lon":5.38479,"is_reserved":false,"is_disabled":false,"rental_uris":{"android":"levelo://app?vid=c2654815-5136-468d-9bc4-fbe9dc1ec491","ios":"levelo://app?vid=c2654815-5136-468d-9bc4-fbe9dc1ec491"},"vehicle_type_id":"4","last_reported":1778442717,"current_range_meters":8000,"station_id":"","pricing_plan_id":"cebpf4jnsgd1na2vs0mg"},{"bike_id":"655ec224-3a12-4051-b935-4567b80ae3b8","system_id":"levelo_inurba_marseille","lat":43.22573,"lon":5.41628,"is_reserved":false,"is_disabled":false,"rental_uris":{"android":"levelo://app?vid=655ec224-3a12-4051-b935-4567b80ae3b8","ios":"levelo://app?vid=655ec224-3a12-4051-b935-4567b80ae3b8"},"vehicle_type_id":"4","last_reported":1778442717,"current_range_meters":8000,"station_id":"st_d2o4gvlbi1j2169b742g","pricing_plan_id":"cebpf4jnsgd1na2vs0mg"},{"bike_id":"a02de3dd-7794-4bd8-ae4b-dcdee1359cd5","system_id":"levelo_inurba_marseille","lat":43.249474,"lon":5.404926,"is_reserved":false,"is_disabled":false,"rental_uris":{"android":"levelo://app?vid=a02de3dd-7794-4bd8-ae4b-dcdee1359cd5","ios":"levelo://app?vid=a02de3dd-7794-4bd8-ae4b-dcdee1359cd5"},"vehicle_type_id":"4","last_reported":1778442717,"current_range_meters":8000,"station_id":"st_d2ngiaodas8pm72gd1h0","pricing_plan_id":"cebpf4jnsgd1na2vs0mg"},{"bike_id":"145b249c-caf5-4151-a9db-1c3827caf83d","system_id":"levelo_inurba_marseille","lat":43.28226,"lon":5.38865,"is_reserved":false,"is_disabled":false,"rental_uris":{"android":"levelo://app?vid=145b249c-caf5-4151-a9db-1c3827caf83d","ios":"levelo://app?vid=145b249c-caf5-4151-a9db-1c3827caf83d"},"vehicle_type_id":"4","last_reported":1778442717,"current_range_meters":8000,"station_id":"","pricing_plan_id":"cebpf4jnsgd1na2vs0mg"},{"bike_id":"d88fb0c3-5a50-4b91-899d-069920f26a81","system_id":"levelo_inurba_marseille","lat":43.28607,"lon":5.35117,"is_reserved":false,"is_disabled":false,"rental_uris":{"android":"levelo://app?vid=d88fb0c3-5a50-4b91-899d-069920f26a81","ios":"levelo://app?vid=d88fb0c3-5a50-4b91-899d-069920f26a81"},"vehicle_type_id":"4","last_reported":1778442717,"current_range_meters":8000,"station_id":"ce4bhch2rcd13ifvqeug","pricing_plan_id":"cebpf4jnsgd1na2vs0mg"},{"bike_id":"7fb2ffe8-f58b-4318-8e2b-b339a6fd3777","system_id":"levelo_inurba_marseille","lat":43.26219,"lon":5.40462,"is_reserved":false,"is_disabled":false,"rental_uris":{"android":"levelo://app?vid=7fb2ffe8-f58b-4318-8e2b-b339a6fd3777","ios":"levelo://app?vid=7fb2ffe8-f58b-4318-8e2b-b339a6fd3777"},"vehicle_type_id":"4","last_reported":1778442717,"current_range_meters":8000,"station_id":"ce4bhmh2rcd13ifvqgmg","pricing_plan_id":"cebpf4jnsgd1na2vs0mg"},{"bike_id":"8006b664-7850-4287-8837-b270541b3470","system_id":"levelo_inurba_marseille","lat":43.31175,"lon":5.38712,"is_reserved":false,"is_disabled":false,"rental_uris":{"android":"levelo://app?vid=8006b664-7850-4287-8837-b270541b3470","ios":"levelo://app?vid=8006b664-7850-4287-8837-b270541b3470"},"vehicle_type_id":"4","last_reported":1778442717,"current_range_meters":8000,"station_id":"ce4bgv12rcd13ifvqcp0","pricing_plan_id":"cebpf4jnsgd1na2vs0mg"},{"bike_id":"cc2588bb-1dea-47f0-8370-a6156619b293","system_id":"levelo_inurba_marseille","lat":43.24644,"lon":5.43134,"is_reserved":false,"is_disabled":false,"rental_uris":{"android":"levelo://app?vid=cc2588bb-1dea-47f0-8370-a6156619b293","ios":"levelo://app?vid=cc2588bb-1dea-47f0-8370-a6156619b293"},"vehicle_type_id":"4","last_reported":1778442717,"current_range_meters":8000,"station_id":"st_d2m6c4gdas8pm72e190g","pricing_plan_id":"cebpf4jnsgd1na2vs0mg"},{"bike_id":"82aa9652-f6a8-471c-814b-06ad98d22336","system_id":"levelo_inurba_marseille","lat":43.24638,"lon":5.43136,"is_reserved":false,"is_disabled":false,"rental_uris":{"android":"levelo://app?vid=82aa9652-f6a8-471c-814b-06ad98d22336","ios":"levelo://app?vid=82aa9652-f6a8-471c-814b-06ad98d22336"},"vehicle_type_id":"4","last_reported":1778442717,"current_range_meters":8000,"station_id":"st_d2m6c4gdas8pm72e190g","pricing_plan_id":"cebpf4jnsgd1na2vs0mg"},{"bike_id":"811eb6b8-b6c6-4aff-abbf-2a9f9a87d8b1","system_id":"levelo_inurba_marseille","lat":43.28706,"lon":5.37398,"is_reserved":false,"is_disabled":false,"rental_uris":{"android":"levelo://app?vid=811eb6b8-b6c6-4aff-abbf-2a9f9a87d8b1","ios":"levelo://app?vid=811eb6b8-b6c6-4aff-abbf-2a9f9a87d8b1"},"vehicle_type_id":"4","last_reported":1778442717,"current_range_meters":8000,"station_id":"ce4bh3p2rcd13ifvqdq0","pricing_plan_id":"cebpf4jnsgd1na2vs0mg"},{"bike_id":"8f8a7d58-4b76-4a1b-bf0b-415ec4954c38","system_id":"levelo_inurba_marseille","lat":43.29528,"lon":5.38541,"is_reserved":false,"is_disabled":false,"rental_uris":{"android":"levelo://app?vid=8f8a7d58-4b76-4a1b-bf0b-415ec4954c38","ios":"levelo://app?vid=8f8a7d58-4b76-4a1b-bf0b-415ec4954c38"},"vehicle_type_id":"4","last_reported":1778442717,"current_range_meters":8000,"station_id":"ce4bgih2rcd13ifvqba0","pricing_plan_id":"cebpf4jnsgd1na2vs0mg"},{"bike_id":"9e374215-452f-4f61-9e58-73bf521a3075","system_id":"levelo_inurba_marseille","lat":43.24633,"lon":5.43145,"is_reserved":false,"is_disabled":false,"rental_uris":{"android":"levelo://app?vid=9e374215-452f-4f61-9e58-73bf521a3075","ios":"levelo://app?vid=9e374215-452f-4f61-9e58-73bf521a3075"},"vehicle_type_id":"4","last_reported":1778442717,"current_range_meters":8400,"station_id":"st_d2m6c4gdas8pm72e190g","pricing_plan_id":"cebpf4jnsgd1na2vs0mg"},{"bike_id":"47c02a04-2152-4969-a4c6-51e87d7e8693","system_id":"levelo_inurba_marseille","lat":43.24651,"lon":5.38888,"is_reserved":false,"is_disabled":false,"rental_uris":{"android":"levelo://app?vid=47c02a04-2152-4969-a4c6-51e87d7e8693","ios":"levelo://app?vid=47c02a04-2152-4969-a4c6-51e87d7e8693"},"vehicle_type_id":"4","last_reported":1778442717,"current_range_meters":8400,"station_id":"ce4bhg12rcd13ifvqf60","pricing_plan_id":"cebpf4jnsgd1na2vs0mg"},{"bike_id":"faa150b8-366e-4180-834c-a68ef9fd5382","system_id":"levelo_inurba_marseille","lat":43.29278,"lon":5.36838,"is_reserved":false,"is_disabled":false,"rental_uris":{"android":"levelo://app?vid=faa150b8-366e-4180-834c-a68ef9fd5382","ios":"levelo://app?vid=faa150b8-366e-4180-834c-a68ef9fd5382"},"vehicle_type_id":"4","last_reported":1778442717,"current_range_meters":8400,"station_id":"ce4bhbp2rcd13ifvqesg","pricing_plan_id":"cebpf4jnsgd1na2vs0mg"},{"bike_id":"c9a78c30-eec5-455d-80b0-775fd7adcfa9","system_id":"levelo_inurba_marseille","lat":43.24096,"lon":5.37749,"is_reserved":false,"is_disabled":false,"rental_uris":{"android":"levelo://app?vid=c9a78c30-eec5-455d-80b0-775fd7adcfa9","ios":"levelo://app?vid=c9a78c30-eec5-455d-80b0-775fd7adcfa9"},"vehicle_type_id":"4","last_reported":1778442717,"current_range_meters":8400,"station_id":"ce4bhnp2rcd13ifvqgvg","pricing_plan_id":"cebpf4jnsgd1na2vs0mg"},{"bike_id":"f3e5f4c8-4e21-43e7-b783-e32e46d7b1d8","system_id":"levelo_inurba_marseille","lat":43.31455,"lon":5.37385,"is_reserved":false,"is_disabled":true,"rental_uris":{"android":"levelo://app?vid=f3e5f4c8-4e21-43e7-b783-e32e46d7b1d8","ios":"levelo://app?vid=f3e5f4c8-4e21-43e7-b783-e32e46d7b1d8"},"vehicle_type_id":"4","last_reported":1778442717,"current_range_meters":8400,"station_id":"","pricing_plan_id":"cebpf4jnsgd1na2vs0mg"},{"bike_id":"439c580c-91fb-4f07-899b-17e34535b7cf","system_id":"levelo_inurba_marseille","lat":43.2873,"lon":5.37955,"is_reserved":false,"is_disabled":true,"rental_uris":{"android":"levelo://app?vid=439c580c-91fb-4f07-899b-17e34535b7cf","ios":"levelo://app?vid=439c580c-91fb-4f07-899b-17e34535b7cf"},"vehicle_type_id":"4","last_reported":1778442717,"current_range_meters":8400,"station_id":"ce4bh9p2rcd13ifvqec0","pricing_plan_id":"cebpf4jnsgd1na2vs0mg"},{"bike_id":"663a05de-3e10-47af-b10b-a6ce1e8fc53b","system_id":"levelo_inurba_marseille","lat":43.30921,"lon":5.40142,"is_reserved":false,"is_disabled":false,"rental_uris":{"android":"levelo://app?vid=663a05de-3e10-47af-b10b-a6ce1e8fc53b","ios":"levelo://app?vid=663a05de-3e10-47af-b10b-a6ce1e8fc53b"},"vehicle_type_id":"4","last_reported":1778442717,"current_range_meters":8400,"station_id":"ce4bgvp2rcd13ifvqct0","pricing_plan_id":"cebpf4jnsgd1na2vs0mg"},{"bike_id":"21c1c539-8646-48ed-9143-6d6f8fb2c73e","system_id":"levelo_inurba_marseille","lat":43.29597,"lon":5.40398,"is_reserved":false,"is_disabled":false,"rental_uris":{"android":"levelo://app?vid=21c1c539-8646-48ed-9143-6d6f8fb2c73e","ios":"levelo://app?vid=21c1c539-8646-48ed-9143-6d6f8fb2c73e"},"vehicle_type_id":"4","last_reported":1778442717,"current_range_meters":8400,"station_id":"","pricing_plan_id":"cebpf4jnsgd1na2vs0mg"},{"bike_id":"5c5f1b2c-364a-42ea-b18e-b314ba5bf6e3","system_id":"levelo_inurba_marseille","lat":43.28402,"lon":5.34985,"is_reserved":false,"is_disabled":true,"rental_uris":{"android":"levelo://app?vid=5c5f1b2c-364a-42ea-b18e-b314ba5bf6e3","ios":"levelo://app?vid=5c5f1b2c-364a-42ea-b18e-b314ba5bf6e3"},"vehicle_type_id":"4","last_reported":1778442717,"current_range_meters":8400,"station_id":"ce4bhbh2rcd13ifvqepg","pricing_plan_id":"cebpf4jnsgd1na2vs0mg"},{"bike_id":"2de32062-5329-4dc3-b007-c6f7b3a1744e","system_id":"levelo_inurba_marseille","lat":43.29269,"lon":5.38416,"is_reserved":false,"is_disabled":false,"rental_uris":{"android":"levelo://app?vid=2de32062-5329-4dc3-b007-c6f7b3a1744e","ios":"levelo://app?vid=2de32062-5329-4dc3-b007-c6f7b3a1744e"},"vehicle_type_id":"4","last_reported":1778442717,"current_range_meters":8400,"station_id":"ce4bh692rcd13ifvqea0","pricing_plan_id":"cebpf4jnsgd1na2vs0mg"},{"bike_id":"3ef852c9-cf4d-455a-a70b-98efa8e8d77a","system_id":"levelo_inurba_marseille","lat":43.30515,"lon":5.36715,"is_reserved":false,"is_disabled":false,"rental_uris":{"android":"levelo://app?vid=3ef852c9-cf4d-455a-a70b-98efa8e8d77a","ios":"levelo://app?vid=3ef852c9-cf4d-455a-a70b-98efa8e8d77a"},"vehicle_type_id":"4","last_reported":1778442717,"current_range_meters":8400,"station_id":"ce4bgrp2rcd13ifvqc9g","pricing_plan_id":"cebpf4jnsgd1na2vs0mg"},{"bike_id":"bc11ef63-54ef-4e9f-bd32-ae1c5cb6dd6d","system_id":"levelo_inurba_marseille","lat":43.28612,"lon":5.35105,"is_reserved":false,"is_disabled":false,"rental_uris":{"android":"levelo://app?vid=bc11ef63-54ef-4e9f-bd32-ae1c5cb6dd6d","ios":"levelo://app?vid=bc11ef63-54ef-4e9f-bd32-ae1c5cb6dd6d"},"vehicle_type_id":"4","last_reported":1778442717,"current_range_meters":8400,"station_id":"ce4bhch2rcd13ifvqeug","pricing_plan_id":"cebpf4jnsgd1na2vs0mg"},{"bike_id":"6c221b35-333b-451f-b80c-c18ff57def2c","system_id":"levelo_inurba_marseille","lat":43.32096,"lon":5.36752,"is_reserved":false,"is_disabled":false,"rental_uris":{"android":"levelo://app?vid=6c221b35-333b-451f-b80c-c18ff57def2c","ios":"levelo://app?vid=6c221b35-333b-451f-b80c-c18ff57def2c"},"vehicle_type_id":"4","last_reported":1778442717,"current_range_meters":8400,"station_id":"ce4bhrh2rcd13ifvqhug","pricing_plan_id":"cebpf4jnsgd1na2vs0mg"},{"bike_id":"3dfae26f-f308-4faf-a069-46d4602d1683","system_id":"levelo_inurba_marseille","lat":43.31188,"lon":5.38729,"is_reserved":false,"is_disabled":false,"rental_uris":{"android":"levelo://app?vid=3dfae26f-f308-4faf-a069-46d4602d1683","ios":"levelo://app?vid=3dfae26f-f308-4faf-a069-46d4602d1683"},"vehicle_type_id":"4","last_reported":1778442717,"current_range_meters":8400,"station_id":"ce4bgv12rcd13ifvqcp0","pricing_plan_id":"cebpf4jnsgd1na2vs0mg"},{"bike_id":"6a37bac2-96c2-400b-9fd0-3e06cb5fa0b2","system_id":"levelo_inurba_marseille","lat":43.248,"lon":5.37452,"is_reserved":false,"is_disabled":false,"rental_uris":{"android":"levelo://app?vid=6a37bac2-96c2-400b-9fd0-3e06cb5fa0b2","ios":"levelo://app?vid=6a37bac2-96c2-400b-9fd0-3e06cb5fa0b2"},"vehicle_type_id":"4","last_reported":1778442717,"current_range_meters":8400,"station_id":"ce4bhgh2rcd13ifvqfb0","pricing_plan_id":"cebpf4jnsgd1na2vs0mg"},{"bike_id":"ad206cfa-883b-417b-b1ab-804ae7af3a6b","system_id":"levelo_inurba_marseille","lat":43.31361,"lon":5.38494,"is_reserved":false,"is_disabled":false,"rental_uris":{"android":"levelo://app?vid=ad206cfa-883b-417b-b1ab-804ae7af3a6b","ios":"levelo://app?vid=ad206cfa-883b-417b-b1ab-804ae7af3a6b"},"vehicle_type_id":"4","last_reported":1778442717,"current_range_meters":8400,"station_id":"ce4bgt92rcd13ifvqcf0","pricing_plan_id":"cebpf4jnsgd1na2vs0mg"},{"bike_id":"4be48e83-9343-4c3a-b884-b414c3010644","system_id":"levelo_inurba_marseille","lat":43.25848,"lon":5.39936,"is_reserved":false,"is_disabled":true,"rental_uris":{"android":"levelo://app?vid=4be48e83-9343-4c3a-b884-b414c3010644","ios":"levelo://app?vid=4be48e83-9343-4c3a-b884-b414c3010644"},"vehicle_type_id":"4","last_reported":1778442717,"current_range_meters":8400,"station_id":"ce4bhl92rcd13ifvqghg","pricing_plan_id":"cebpf4jnsgd1na2vs0mg"},{"bike_id":"a1d714a8-76f0-445c-9621-e283d8434563","system_id":"levelo_inurba_marseille","lat":43.30302,"lon":5.39183,"is_reserved":false,"is_disabled":false,"rental_uris":{"android":"levelo://app?vid=a1d714a8-76f0-445c-9621-e283d8434563","ios":"levelo://app?vid=a1d714a8-76f0-445c-9621-e283d8434563"},"vehicle_type_id":"4","last_reported":1778442717,"current_range_meters":8400,"station_id":"ce4bgkh2rcd13ifvqbk0","pricing_plan_id":"cebpf4jnsgd1na2vs0mg"},{"bike_id":"66f9f5fa-1564-480b-8ceb-90edfa1b4d32","system_id":"levelo_inurba_marseille","lat":43.212,"lon":5.35062,"is_reserved":false,"is_disabled":false,"rental_uris":{"android":"levelo://app?vid=66f9f5fa-1564-480b-8ceb-90edfa1b4d32","ios":"levelo://app?vid=66f9f5fa-1564-480b-8ceb-90edfa1b4d32"},"vehicle_type_id":"4","last_reported":1778442717,"current_range_meters":8400,"station_id":"st_cvj6sg6p6f1abm77japg","pricing_plan_id":"cebpf4jnsgd1na2vs0mg"},{"bike_id":"2f451d67-dd75-4a26-aa43-0a0aec9326fd","system_id":"levelo_inurba_marseille","lat":43.33156,"lon":5.37696,"is_reserved":false,"is_disabled":false,"rental_uris":{"android":"levelo://app?vid=2f451d67-dd75-4a26-aa43-0a0aec9326fd","ios":"levelo://app?vid=2f451d67-dd75-4a26-aa43-0a0aec9326fd"},"vehicle_type_id":"4","last_reported":1778442717,"current_range_meters":8400,"station_id":"st_d46cu089ee8s73dldbu0","pricing_plan_id":"cebpf4jnsgd1na2vs0mg"},{"bike_id":"9bac99a9-4289-462d-bce0-ab5b188aacf2","system_id":"levelo_inurba_marseille","lat":43.28158,"lon":5.42642,"is_reserved":false,"is_disabled":false,"rental_uris":{"android":"levelo://app?vid=9bac99a9-4289-462d-bce0-ab5b188aacf2","ios":"levelo://app?vid=9bac99a9-4289-462d-bce0-ab5b188aacf2"},"vehicle_type_id":"4","last_reported":1778442717,"current_range_meters":8400,"station_id":"ce4bhnh2rcd13ifvqgug","pricing_plan_id":"cebpf4jnsgd1na2vs0mg"},{"bike_id":"64794a0f-6bf7-4bfd-8c8e-dbb3a34684fa","system_id":"levelo_inurba_marseille","lat":43.27949,"lon":5.38757,"is_reserved":false,"is_disabled":false,"rental_uris":{"android":"levelo://app?vid=64794a0f-6bf7-4bfd-8c8e-dbb3a34684fa","ios":"levelo://app?vid=64794a0f-6bf7-4bfd-8c8e-dbb3a34684fa"},"vehicle_type_id":"4","last_reported":1778442717,"current_range_meters":8800,"station_id":"ce4bhg12rcd13ifvqf80","pricing_plan_id":"cebpf4jnsgd1na2vs0mg"},{"bike_id":"2feed767-cb3b-4ce9-ac0d-4265ec2220cf","system_id":"levelo_inurba_marseille","lat":43.2905,"lon":5.38651,"is_reserved":false,"is_disabled":false,"rental_uris":{"android":"levelo://app?vid=2feed767-cb3b-4ce9-ac0d-4265ec2220cf","ios":"levelo://app?vid=2feed767-cb3b-4ce9-ac0d-4265ec2220cf"},"vehicle_type_id":"4","last_reported":1778442717,"current_range_meters":8800,"station_id":"ce4bh4p2rcd13ifvqe0g","pricing_plan_id":"cebpf4jnsgd1na2vs0mg"},{"bike_id":"0156a9eb-5bd4-44f1-9ab5-d034bc467f6a","system_id":"levelo_inurba_marseille","lat":43.28847,"lon":5.3932,"is_reserved":false,"is_disabled":false,"rental_uris":{"android":"levelo://app?vid=0156a9eb-5bd4-44f1-9ab5-d034bc467f6a","ios":"levelo://app?vid=0156a9eb-5bd4-44f1-9ab5-d034bc467f6a"},"vehicle_type_id":"4","last_reported":1778442717,"current_range_meters":8800,"station_id":"ce4bh2p2rcd13ifvqdi0","pricing_plan_id":"cebpf4jnsgd1na2vs0mg"},{"bike_id":"05fb288f-2d6d-4c9a-902a-cda9807cda0a","system_id":"levelo_inurba_marseille","lat":43.28467,"lon":5.359,"is_reserved":false,"is_disabled":false,"rental_uris":{"android":"levelo://app?vid=05fb288f-2d6d-4c9a-902a-cda9807cda0a","ios":"levelo://app?vid=05fb288f-2d6d-4c9a-902a-cda9807cda0a"},"vehicle_type_id":"4","last_reported":1778442717,"current_range_meters":8800,"station_id":"ce4bhah2rcd13ifvqei0","pricing_plan_id":"cebpf4jnsgd1na2vs0mg"},{"bike_id":"c29bc1aa-6d91-4740-bd3e-ab45ff8ae09b","system_id":"levelo_inurba_marseille","lat":43.29527,"lon":5.38543,"is_reserved":false,"is_disabled":false,"rental_uris":{"android":"levelo://app?vid=c29bc1aa-6d91-4740-bd3e-ab45ff8ae09b","ios":"levelo://app?vid=c29bc1aa-6d91-4740-bd3e-ab45ff8ae09b"},"vehicle_type_id":"4","last_reported":1778442717,"current_range_meters":8800,"station_id":"ce4bgih2rcd13ifvqba0","pricing_plan_id":"cebpf4jnsgd1na2vs0mg"},{"bike_id":"09fa49d6-2f72-44fb-aecc-f42e40eb9080","system_id":"levelo_inurba_marseille","lat":43.25728,"lon":5.41122,"is_reserved":false,"is_disabled":false,"rental_uris":{"android":"levelo://app?vid=09fa49d6-2f72-44fb-aecc-f42e40eb9080","ios":"levelo://app?vid=09fa49d6-2f72-44fb-aecc-f42e40eb9080"},"vehicle_type_id":"4","last_reported":1778442717,"current_range_meters":8800,"station_id":"ce4bhkp2rcd13ifvqgd0","pricing_plan_id":"cebpf4jnsgd1na2vs0mg"},{"bike_id":"906aa030-9d24-411a-b176-30e9f945e9cd","system_id":"levelo_inurba_marseille","lat":43.26039,"lon":5.37545,"is_reserved":false,"is_disabled":false,"rental_uris":{"android":"levelo://app?vid=906aa030-9d24-411a-b176-30e9f945e9cd","ios":"levelo://app?vid=906aa030-9d24-411a-b176-30e9f945e9cd"},"vehicle_type_id":"4","last_reported":1778442717,"current_range_meters":8800,"station_id":"ce4bhgh2rcd13ifvqfa0","pricing_plan_id":"cebpf4jnsgd1na2vs0mg"},{"bike_id":"fa1d71c1-12a9-4336-9f1b-0e1a4e8f4513","system_id":"levelo_inurba_marseille","lat":43.29281,"lon":5.38438,"is_reserved":false,"is_disabled":false,"rental_uris":{"android":"levelo://app?vid=fa1d71c1-12a9-4336-9f1b-0e1a4e8f4513","ios":"levelo://app?vid=fa1d71c1-12a9-4336-9f1b-0e1a4e8f4513"},"vehicle_type_id":"4","last_reported":1778442717,"current_range_meters":8800,"station_id":"ce4bh692rcd13ifvqea0","pricing_plan_id":"cebpf4jnsgd1na2vs0mg"},{"bike_id":"9bb74d20-8aee-4a2e-996c-43ecf8d7375f","system_id":"levelo_inurba_marseille","lat":43.24668,"lon":5.38168,"is_reserved":false,"is_disabled":true,"rental_uris":{"android":"levelo://app?vid=9bb74d20-8aee-4a2e-996c-43ecf8d7375f","ios":"levelo://app?vid=9bb74d20-8aee-4a2e-996c-43ecf8d7375f"},"vehicle_type_id":"4","last_reported":1778442717,"current_range_meters":8800,"station_id":"ce4bhih2rcd13ifvqfr0","pricing_plan_id":"cebpf4jnsgd1na2vs0mg"},{"bike_id":"0d7b9b36-b0d9-4c25-89f7-951f4208f150","system_id":"levelo_inurba_marseille","lat":43.2874,"lon":5.3607,"is_reserved":false,"is_disabled":false,"rental_uris":{"android":"levelo://app?vid=0d7b9b36-b0d9-4c25-89f7-951f4208f150","ios":"levelo://app?vid=0d7b9b36-b0d9-4c25-89f7-951f4208f150"},"vehicle_type_id":"4","last_reported":1778442717,"current_range_meters":8800,"station_id":"cki0cbj6b192h4jlfktg","pricing_plan_id":"cebpf4jnsgd1na2vs0mg"},{"bike_id":"9fb94e69-3038-4e70-b37c-9e41dddc049b","system_id":"levelo_inurba_marseille","lat":43.28337,"lon":5.38102,"is_reserved":false,"is_disabled":true,"rental_uris":{"android":"levelo://app?vid=9fb94e69-3038-4e70-b37c-9e41dddc049b","ios":"levelo://app?vid=9fb94e69-3038-4e70-b37c-9e41dddc049b"},"vehicle_type_id":"4","last_reported":1778442717,"current_range_meters":8800,"station_id":"ce4bh412rcd13ifvqdr0","pricing_plan_id":"cebpf4jnsgd1na2vs0mg"},{"bike_id":"606f9e64-3b28-42c8-ba64-c12f40574dec","system_id":"levelo_inurba_marseille","lat":43.30077,"lon":5.39096,"is_reserved":false,"is_disabled":true,"rental_uris":{"android":"levelo://app?vid=606f9e64-3b28-42c8-ba64-c12f40574dec","ios":"levelo://app?vid=606f9e64-3b28-42c8-ba64-c12f40574dec"},"vehicle_type_id":"4","last_reported":1778442717,"current_range_meters":8800,"station_id":"ce4bh192rcd13ifvqdb0","pricing_plan_id":"cebpf4jnsgd1na2vs0mg"},{"bike_id":"1f82399f-59de-4793-b45b-e2f3de43b6a2","system_id":"levelo_inurba_marseille","lat":43.3314,"lon":5.37694,"is_reserved":false,"is_disabled":false,"rental_uris":{"android":"levelo://app?vid=1f82399f-59de-4793-b45b-e2f3de43b6a2","ios":"levelo://app?vid=1f82399f-59de-4793-b45b-e2f3de43b6a2"},"vehicle_type_id":"4","last_reported":1778442717,"current_range_meters":8800,"station_id":"st_d46cu089ee8s73dldbu0","pricing_plan_id":"cebpf4jnsgd1na2vs0mg"},{"bike_id":"fe8a0070-1cbf-497a-8a20-40fc8649258f","system_id":"levelo_inurba_marseille","lat":43.28505,"lon":5.38459,"is_reserved":false,"is_disabled":false,"rental_uris":{"android":"levelo://app?vid=fe8a0070-1cbf-497a-8a20-40fc8649258f","ios":"levelo://app?vid=fe8a0070-1cbf-497a-8a20-40fc8649258f"},"vehicle_type_id":"4","last_reported":1778442717,"current_range_meters":8800,"station_id":"ce4bh512rcd13ifvqe3g","pricing_plan_id":"cebpf4jnsgd1na2vs0mg"},{"bike_id":"21a7f896-b278-4e64-96ff-f2d3e49aae77","system_id":"levelo_inurba_marseille","lat":43.24635,"lon":5.43147,"is_reserved":false,"is_disabled":true,"rental_uris":{"android":"levelo://app?vid=21a7f896-b278-4e64-96ff-f2d3e49aae77","ios":"levelo://app?vid=21a7f896-b278-4e64-96ff-f2d3e49aae77"},"vehicle_type_id":"4","last_reported":1778442717,"current_range_meters":8800,"station_id":"st_d2m6c4gdas8pm72e190g","pricing_plan_id":"cebpf4jnsgd1na2vs0mg"},{"bike_id":"1f120ac7-7ee8-43e5-8a49-7d8f26aa9f00","system_id":"levelo_inurba_marseille","lat":43.30197,"lon":5.39437,"is_reserved":false,"is_disabled":false,"rental_uris":{"android":"levelo://app?vid=1f120ac7-7ee8-43e5-8a49-7d8f26aa9f00","ios":"levelo://app?vid=1f120ac7-7ee8-43e5-8a49-7d8f26aa9f00"},"vehicle_type_id":"4","last_reported":1778442717,"current_range_meters":8800,"station_id":"ce4bh0p2rcd13ifvqd70","pricing_plan_id":"cebpf4jnsgd1na2vs0mg"},{"bike_id":"59a8f30a-56da-421d-ab16-2a590b5cd37b","system_id":"levelo_inurba_marseille","lat":43.29674,"lon":5.37457,"is_reserved":false,"is_disabled":false,"rental_uris":{"android":"levelo://app?vid=59a8f30a-56da-421d-ab16-2a590b5cd37b","ios":"levelo://app?vid=59a8f30a-56da-421d-ab16-2a590b5cd37b"},"vehicle_type_id":"4","last_reported":1778442717,"current_range_meters":8800,"station_id":"","pricing_plan_id":"cebpf4jnsgd1na2vs0mg"},{"bike_id":"68d2e4b5-1059-4982-9127-c31f3ece8666","system_id":"levelo_inurba_marseille","lat":43.25683,"lon":5.40998,"is_reserved":false,"is_disabled":false,"rental_uris":{"android":"levelo://app?vid=68d2e4b5-1059-4982-9127-c31f3ece8666","ios":"levelo://app?vid=68d2e4b5-1059-4982-9127-c31f3ece8666"},"vehicle_type_id":"4","last_reported":1778442717,"current_range_meters":8800,"station_id":"","pricing_plan_id":"cebpf4jnsgd1na2vs0mg"},{"bike_id":"7a691dfd-c72c-446b-899e-4c8b22ebb699","system_id":"levelo_inurba_marseille","lat":43.25016,"lon":5.38905,"is_reserved":false,"is_disabled":false,"rental_uris":{"android":"levelo://app?vid=7a691dfd-c72c-446b-899e-4c8b22ebb699","ios":"levelo://app?vid=7a691dfd-c72c-446b-899e-4c8b22ebb699"},"vehicle_type_id":"4","last_reported":1778442717,"current_range_meters":8800,"station_id":"ce4bhgp2rcd13ifvqfd0","pricing_plan_id":"cebpf4jnsgd1na2vs0mg"},{"bike_id":"84af626e-8cc2-4704-a6dd-ae7645c7f206","system_id":"levelo_inurba_marseille","lat":43.30536,"lon":5.36561,"is_reserved":false,"is_disabled":false,"rental_uris":{"android":"levelo://app?vid=84af626e-8cc2-4704-a6dd-ae7645c7f206","ios":"levelo://app?vid=84af626e-8cc2-4704-a6dd-ae7645c7f206"},"vehicle_type_id":"4","last_reported":1778442717,"current_range_meters":9200,"station_id":"ce4bgs12rcd13ifvqcag","pricing_plan_id":"cebpf4jnsgd1na2vs0mg"},{"bike_id":"9b62c6f7-7051-42a4-84b0-1f9e60c35a33","system_id":"levelo_inurba_marseille","lat":43.28457,"lon":5.35892,"is_reserved":false,"is_disabled":false,"rental_uris":{"android":"levelo://app?vid=9b62c6f7-7051-42a4-84b0-1f9e60c35a33","ios":"levelo://app?vid=9b62c6f7-7051-42a4-84b0-1f9e60c35a33"},"vehicle_type_id":"4","last_reported":1778442717,"current_range_meters":9200,"station_id":"ce4bhah2rcd13ifvqei0","pricing_plan_id":"cebpf4jnsgd1na2vs0mg"},{"bike_id":"fa97b013-cf20-4697-baec-25d48d14dd9d","system_id":"levelo_inurba_marseille","lat":43.29263,"lon":5.38449,"is_reserved":false,"is_disabled":true,"rental_uris":{"android":"levelo://app?vid=fa97b013-cf20-4697-baec-25d48d14dd9d","ios":"levelo://app?vid=fa97b013-cf20-4697-baec-25d48d14dd9d"},"vehicle_type_id":"4","last_reported":1778442717,"current_range_meters":9200,"station_id":"ce4bh692rcd13ifvqea0","pricing_plan_id":"cebpf4jnsgd1na2vs0mg"},{"bike_id":"db8a576c-9375-4aa7-a828-1b46e8e3d489","system_id":"levelo_inurba_marseille","lat":43.26056,"lon":5.39399,"is_reserved":false,"is_disabled":false,"rental_uris":{"android":"levelo://app?vid=db8a576c-9375-4aa7-a828-1b46e8e3d489","ios":"levelo://app?vid=db8a576c-9375-4aa7-a828-1b46e8e3d489"},"vehicle_type_id":"4","last_reported":1778442717,"current_range_meters":9200,"station_id":"ce4bhh92rcd13ifvqfj0","pricing_plan_id":"cebpf4jnsgd1na2vs0mg"},{"bike_id":"7884910f-8322-48f4-b6be-b90036e4d9ea","system_id":"levelo_inurba_marseille","lat":43.24807,"lon":5.37454,"is_reserved":false,"is_disabled":false,"rental_uris":{"android":"levelo://app?vid=7884910f-8322-48f4-b6be-b90036e4d9ea","ios":"levelo://app?vid=7884910f-8322-48f4-b6be-b90036e4d9ea"},"vehicle_type_id":"4","last_reported":1778442717,"current_range_meters":9200,"station_id":"ce4bhgh2rcd13ifvqfb0","pricing_plan_id":"cebpf4jnsgd1na2vs0mg"},{"bike_id":"35f35c16-6156-42e2-a421-61b93b5f12e7","system_id":"levelo_inurba_marseille","lat":43.26086,"lon":5.39418,"is_reserved":false,"is_disabled":false,"rental_uris":{"android":"levelo://app?vid=35f35c16-6156-42e2-a421-61b93b5f12e7","ios":"levelo://app?vid=35f35c16-6156-42e2-a421-61b93b5f12e7"},"vehicle_type_id":"4","last_reported":1778442717,"current_range_meters":9200,"station_id":"ce4bhh92rcd13ifvqfj0","pricing_plan_id":"cebpf4jnsgd1na2vs0mg"},{"bike_id":"aa77ea44-d77e-48bc-af16-69d497b15ff0","system_id":"levelo_inurba_marseille","lat":43.27078,"lon":5.38305,"is_reserved":false,"is_disabled":false,"rental_uris":{"android":"levelo://app?vid=aa77ea44-d77e-48bc-af16-69d497b15ff0","ios":"levelo://app?vid=aa77ea44-d77e-48bc-af16-69d497b15ff0"},"vehicle_type_id":"4","last_reported":1778442717,"current_range_meters":9200,"station_id":"st_d3n2fo6cfp8s73cte1j0","pricing_plan_id":"cebpf4jnsgd1na2vs0mg"},{"bike_id":"1e933737-aefa-4f91-b636-90e2df11e949","system_id":"levelo_inurba_marseille","lat":43.30902,"lon":5.37187,"is_reserved":false,"is_disabled":false,"rental_uris":{"android":"levelo://app?vid=1e933737-aefa-4f91-b636-90e2df11e949","ios":"levelo://app?vid=1e933737-aefa-4f91-b636-90e2df11e949"},"vehicle_type_id":"4","last_reported":1778442717,"current_range_meters":9200,"station_id":"ce4bguh2rcd13ifvqckg","pricing_plan_id":"cebpf4jnsgd1na2vs0mg"},{"bike_id":"7c0caa52-21c5-41d5-bddb-76a38bb998b8","system_id":"levelo_inurba_marseille","lat":43.29819,"lon":5.44043,"is_reserved":false,"is_disabled":false,"rental_uris":{"android":"levelo://app?vid=7c0caa52-21c5-41d5-bddb-76a38bb998b8","ios":"levelo://app?vid=7c0caa52-21c5-41d5-bddb-76a38bb998b8"},"vehicle_type_id":"4","last_reported":1778442717,"current_range_meters":9200,"station_id":"st_d3jp68qikq2c7381ktn0","pricing_plan_id":"cebpf4jnsgd1na2vs0mg"},{"bike_id":"eac20a46-94c6-4d03-b1d6-161057e56e22","system_id":"levelo_inurba_marseille","lat":43.29348,"lon":5.37439,"is_reserved":false,"is_disabled":true,"rental_uris":{"android":"levelo://app?vid=eac20a46-94c6-4d03-b1d6-161057e56e22","ios":"levelo://app?vid=eac20a46-94c6-4d03-b1d6-161057e56e22"},"vehicle_type_id":"4","last_reported":1778442717,"current_range_meters":9200,"station_id":"","pricing_plan_id":"cebpf4jnsgd1na2vs0mg"},{"bike_id":"b8253c6e-2e65-422a-b604-6720af1ef768","system_id":"levelo_inurba_marseille","lat":43.33157,"lon":5.37692,"is_reserved":false,"is_disabled":false,"rental_uris":{"android":"levelo://app?vid=b8253c6e-2e65-422a-b604-6720af1ef768","ios":"levelo://app?vid=b8253c6e-2e65-422a-b604-6720af1ef768"},"vehicle_type_id":"4","last_reported":1778442717,"current_range_meters":9200,"station_id":"st_d46cu089ee8s73dldbu0","pricing_plan_id":"cebpf4jnsgd1na2vs0mg"},{"bike_id":"8125f414-8ed3-4a61-a166-5bf2bd768e50","system_id":"levelo_inurba_marseille","lat":43.28409,"lon":5.37518,"is_reserved":false,"is_disabled":false,"rental_uris":{"android":"levelo://app?vid=8125f414-8ed3-4a61-a166-5bf2bd768e50","ios":"levelo://app?vid=8125f414-8ed3-4a61-a166-5bf2bd768e50"},"vehicle_type_id":"4","last_reported":1778442717,"current_range_meters":9200,"station_id":"ce4bh412rcd13ifvqds0","pricing_plan_id":"cebpf4jnsgd1na2vs0mg"},{"bike_id":"5e5e967c-282c-40bf-9541-514de8678e24","system_id":"levelo_inurba_marseille","lat":43.30188,"lon":5.36607,"is_reserved":false,"is_disabled":false,"rental_uris":{"android":"levelo://app?vid=5e5e967c-282c-40bf-9541-514de8678e24","ios":"levelo://app?vid=5e5e967c-282c-40bf-9541-514de8678e24"},"vehicle_type_id":"4","last_reported":1778442717,"current_range_meters":9200,"station_id":"ce4bgrh2rcd13ifvqc8g","pricing_plan_id":"cebpf4jnsgd1na2vs0mg"},{"bike_id":"57394a6b-0e54-4a7c-b04a-d450a2ab5e79","system_id":"levelo_inurba_marseille","lat":43.25519,"lon":5.37649,"is_reserved":false,"is_disabled":true,"rental_uris":{"android":"levelo://app?vid=57394a6b-0e54-4a7c-b04a-d450a2ab5e79","ios":"levelo://app?vid=57394a6b-0e54-4a7c-b04a-d450a2ab5e79"},"vehicle_type_id":"4","last_reported":1778442717,"current_range_meters":9200,"station_id":"ce4bhh12rcd13ifvqff0","pricing_plan_id":"cebpf4jnsgd1na2vs0mg"},{"bike_id":"00b83d62-b275-425d-8aea-38a95f979265","system_id":"levelo_inurba_marseille","lat":43.28866,"lon":5.393,"is_reserved":false,"is_disabled":false,"rental_uris":{"android":"levelo://app?vid=00b83d62-b275-425d-8aea-38a95f979265","ios":"levelo://app?vid=00b83d62-b275-425d-8aea-38a95f979265"},"vehicle_type_id":"4","last_reported":1778442717,"current_range_meters":9200,"station_id":"ce4bh2p2rcd13ifvqdi0","pricing_plan_id":"cebpf4jnsgd1na2vs0mg"},{"bike_id":"ed1f658d-f045-43c2-ac07-b8fef8c90998","system_id":"levelo_inurba_marseille","lat":43.31181,"lon":5.38701,"is_reserved":false,"is_disabled":false,"rental_uris":{"android":"levelo://app?vid=ed1f658d-f045-43c2-ac07-b8fef8c90998","ios":"levelo://app?vid=ed1f658d-f045-43c2-ac07-b8fef8c90998"},"vehicle_type_id":"4","last_reported":1778442717,"current_range_meters":9200,"station_id":"ce4bgv12rcd13ifvqcp0","pricing_plan_id":"cebpf4jnsgd1na2vs0mg"},{"bike_id":"1a35b4f8-110e-47d6-80d6-d40832d59224","system_id":"levelo_inurba_marseille","lat":43.30532,"lon":5.36691,"is_reserved":false,"is_disabled":false,"rental_uris":{"android":"levelo://app?vid=1a35b4f8-110e-47d6-80d6-d40832d59224","ios":"levelo://app?vid=1a35b4f8-110e-47d6-80d6-d40832d59224"},"vehicle_type_id":"4","last_reported":1778442717,"current_range_meters":9200,"station_id":"ce4bgrp2rcd13ifvqc9g","pricing_plan_id":"cebpf4jnsgd1na2vs0mg"},{"bike_id":"f0f401d4-150c-4cfa-919d-efdf4f923085","system_id":"levelo_inurba_marseille","lat":43.23878,"lon":5.37469,"is_reserved":false,"is_disabled":true,"rental_uris":{"android":"levelo://app?vid=f0f401d4-150c-4cfa-919d-efdf4f923085","ios":"levelo://app?vid=f0f401d4-150c-4cfa-919d-efdf4f923085"},"vehicle_type_id":"4","last_reported":1778442717,"current_range_meters":9200,"station_id":"st_d6sm7csbq4hs73f8fpjg","pricing_plan_id":"cebpf4jnsgd1na2vs0mg"},{"bike_id":"d2654d3d-15d5-4633-b838-ab8529bcbbd7","system_id":"levelo_inurba_marseille","lat":43.27976,"lon":5.38711,"is_reserved":false,"is_disabled":false,"rental_uris":{"android":"levelo://app?vid=d2654d3d-15d5-4633-b838-ab8529bcbbd7","ios":"levelo://app?vid=d2654d3d-15d5-4633-b838-ab8529bcbbd7"},"vehicle_type_id":"4","last_reported":1778442717,"current_range_meters":9200,"station_id":"ce4bhg12rcd13ifvqf80","pricing_plan_id":"cebpf4jnsgd1na2vs0mg"},{"bike_id":"1985cac5-8bab-4884-b5f5-6e83cc1fca9b","system_id":"levelo_inurba_marseille","lat":43.241786,"lon":5.39724,"is_reserved":false,"is_disabled":false,"rental_uris":{"android":"levelo://app?vid=1985cac5-8bab-4884-b5f5-6e83cc1fca9b","ios":"levelo://app?vid=1985cac5-8bab-4884-b5f5-6e83cc1fca9b"},"vehicle_type_id":"4","last_reported":1778442717,"current_range_meters":9200,"station_id":"ce4bhn12rcd13ifvqgpg","pricing_plan_id":"cebpf4jnsgd1na2vs0mg"},{"bike_id":"4c6f4f6b-38ba-4ce8-8702-ab658e74ec2a","system_id":"levelo_inurba_marseille","lat":43.28478,"lon":5.38426,"is_reserved":false,"is_disabled":false,"rental_uris":{"android":"levelo://app?vid=4c6f4f6b-38ba-4ce8-8702-ab658e74ec2a","ios":"levelo://app?vid=4c6f4f6b-38ba-4ce8-8702-ab658e74ec2a"},"vehicle_type_id":"4","last_reported":1778442717,"current_range_meters":9200,"station_id":"ce4bh512rcd13ifvqe3g","pricing_plan_id":"cebpf4jnsgd1na2vs0mg"},{"bike_id":"96178097-25e8-4e8a-b55e-03e212451214","system_id":"levelo_inurba_marseille","lat":43.32499,"lon":5.41482,"is_reserved":false,"is_disabled":false,"rental_uris":{"android":"levelo://app?vid=96178097-25e8-4e8a-b55e-03e212451214","ios":"levelo://app?vid=96178097-25e8-4e8a-b55e-03e212451214"},"vehicle_type_id":"4","last_reported":1778442717,"current_range_meters":9200,"station_id":"ce4bhq12rcd13ifvqhhg","pricing_plan_id":"cebpf4jnsgd1na2vs0mg"},{"bike_id":"1dd218e7-8808-4988-81d5-6f6ffc0dee7d","system_id":"levelo_inurba_marseille","lat":43.24642,"lon":5.38898,"is_reserved":false,"is_disabled":false,"rental_uris":{"android":"levelo://app?vid=1dd218e7-8808-4988-81d5-6f6ffc0dee7d","ios":"levelo://app?vid=1dd218e7-8808-4988-81d5-6f6ffc0dee7d"},"vehicle_type_id":"4","last_reported":1778442717,"current_range_meters":9200,"station_id":"ce4bhg12rcd13ifvqf60","pricing_plan_id":"cebpf4jnsgd1na2vs0mg"},{"bike_id":"859e2a87-96f8-4715-8e65-811124f6b435","system_id":"levelo_inurba_marseille","lat":43.279859,"lon":5.416729,"is_reserved":false,"is_disabled":false,"rental_uris":{"android":"levelo://app?vid=859e2a87-96f8-4715-8e65-811124f6b435","ios":"levelo://app?vid=859e2a87-96f8-4715-8e65-811124f6b435"},"vehicle_type_id":"4","last_reported":1778442717,"current_range_meters":9200,"station_id":"ce4bho12rcd13ifvqh1g","pricing_plan_id":"cebpf4jnsgd1na2vs0mg"},{"bike_id":"d9dc017a-4e0d-4e47-acce-5cb815563bda","system_id":"levelo_inurba_marseille","lat":43.26932,"lon":5.38913,"is_reserved":false,"is_disabled":false,"rental_uris":{"android":"levelo://app?vid=d9dc017a-4e0d-4e47-acce-5cb815563bda","ios":"levelo://app?vid=d9dc017a-4e0d-4e47-acce-5cb815563bda"},"vehicle_type_id":"4","last_reported":1778442717,"current_range_meters":9200,"station_id":"ce4bhhh2rcd13ifvqfl0","pricing_plan_id":"cebpf4jnsgd1na2vs0mg"},{"bike_id":"092ef964-44c6-4685-80ee-795c5947a307","system_id":"levelo_inurba_marseille","lat":43.24185,"lon":5.39716,"is_reserved":false,"is_disabled":false,"rental_uris":{"android":"levelo://app?vid=092ef964-44c6-4685-80ee-795c5947a307","ios":"levelo://app?vid=092ef964-44c6-4685-80ee-795c5947a307"},"vehicle_type_id":"4","last_reported":1778442717,"current_range_meters":9200,"station_id":"ce4bhn12rcd13ifvqgpg","pricing_plan_id":"cebpf4jnsgd1na2vs0mg"},{"bike_id":"3513c7c9-429c-4027-9626-3747f3ee85c7","system_id":"levelo_inurba_marseille","lat":43.33532,"lon":5.37417,"is_reserved":false,"is_disabled":false,"rental_uris":{"android":"levelo://app?vid=3513c7c9-429c-4027-9626-3747f3ee85c7","ios":"levelo://app?vid=3513c7c9-429c-4027-9626-3747f3ee85c7"},"vehicle_type_id":"4","last_reported":1778442717,"current_range_meters":9600,"station_id":"st_d46tts09ee8s73dlu43g","pricing_plan_id":"cebpf4jnsgd1na2vs0mg"},{"bike_id":"3385a979-07e0-4b81-80b6-b21483b004d7","system_id":"levelo_inurba_marseille","lat":43.29569,"lon":5.37526,"is_reserved":false,"is_disabled":false,"rental_uris":{"android":"levelo://app?vid=3385a979-07e0-4b81-80b6-b21483b004d7","ios":"levelo://app?vid=3385a979-07e0-4b81-80b6-b21483b004d7"},"vehicle_type_id":"4","last_reported":1778442717,"current_range_meters":9600,"station_id":"ce4bgh92rcd13ifvqb50","pricing_plan_id":"cebpf4jnsgd1na2vs0mg"},{"bike_id":"ba7729df-8734-48f5-a3f4-2e991d746a2f","system_id":"levelo_inurba_marseille","lat":43.29006,"lon":5.38144,"is_reserved":false,"is_disabled":false,"rental_uris":{"android":"levelo://app?vid=ba7729df-8734-48f5-a3f4-2e991d746a2f","ios":"levelo://app?vid=ba7729df-8734-48f5-a3f4-2e991d746a2f"},"vehicle_type_id":"4","last_reported":1778442717,"current_range_meters":9600,"station_id":"ce4bh4p2rcd13ifvqe1g","pricing_plan_id":"cebpf4jnsgd1na2vs0mg"},{"bike_id":"1acb59de-f9c0-4f44-8499-4cddce70eb26","system_id":"levelo_inurba_marseille","lat":43.2467,"lon":5.38139,"is_reserved":false,"is_disabled":true,"rental_uris":{"android":"levelo://app?vid=1acb59de-f9c0-4f44-8499-4cddce70eb26","ios":"levelo://app?vid=1acb59de-f9c0-4f44-8499-4cddce70eb26"},"vehicle_type_id":"4","last_reported":1778442717,"current_range_meters":9600,"station_id":"ce4bhih2rcd13ifvqfr0","pricing_plan_id":"cebpf4jnsgd1na2vs0mg"},{"bike_id":"b5b0524a-16d5-40b7-8ca1-117d09866cbf","system_id":"levelo_inurba_marseille","lat":43.33964,"lon":5.41668,"is_reserved":false,"is_disabled":false,"rental_uris":{"android":"levelo://app?vid=b5b0524a-16d5-40b7-8ca1-117d09866cbf","ios":"levelo://app?vid=b5b0524a-16d5-40b7-8ca1-117d09866cbf"},"vehicle_type_id":"4","last_reported":1778442717,"current_range_meters":9600,"station_id":"","pricing_plan_id":"cebpf4jnsgd1na2vs0mg"},{"bike_id":"1ff08073-d96d-46fe-859e-1283af556251","system_id":"levelo_inurba_marseille","lat":43.30855,"lon":5.36633,"is_reserved":false,"is_disabled":false,"rental_uris":{"android":"levelo://app?vid=1ff08073-d96d-46fe-859e-1283af556251","ios":"levelo://app?vid=1ff08073-d96d-46fe-859e-1283af556251"},"vehicle_type_id":"4","last_reported":1778442717,"current_range_meters":9600,"station_id":"","pricing_plan_id":"cebpf4jnsgd1na2vs0mg"},{"bike_id":"d3ed0906-9379-4354-90fd-002e622d42f3","system_id":"levelo_inurba_marseille","lat":43.24806,"lon":5.37462,"is_reserved":false,"is_disabled":false,"rental_uris":{"android":"levelo://app?vid=d3ed0906-9379-4354-90fd-002e622d42f3","ios":"levelo://app?vid=d3ed0906-9379-4354-90fd-002e622d42f3"},"vehicle_type_id":"4","last_reported":1778442717,"current_range_meters":9600,"station_id":"ce4bhgh2rcd13ifvqfb0","pricing_plan_id":"cebpf4jnsgd1na2vs0mg"},{"bike_id":"b99060e5-b428-4a68-b09e-993dae2f869c","system_id":"levelo_inurba_marseille","lat":43.31509,"lon":5.37293,"is_reserved":false,"is_disabled":false,"rental_uris":{"android":"levelo://app?vid=b99060e5-b428-4a68-b09e-993dae2f869c","ios":"levelo://app?vid=b99060e5-b428-4a68-b09e-993dae2f869c"},"vehicle_type_id":"4","last_reported":1778442717,"current_range_meters":9600,"station_id":"ce4bgt12rcd13ifvqcd0","pricing_plan_id":"cebpf4jnsgd1na2vs0mg"},{"bike_id":"78cf7d7d-9699-458e-aeef-1336d6dcba6f","system_id":"levelo_inurba_marseille","lat":43.3135,"lon":5.36708,"is_reserved":false,"is_disabled":false,"rental_uris":{"android":"levelo://app?vid=78cf7d7d-9699-458e-aeef-1336d6dcba6f","ios":"levelo://app?vid=78cf7d7d-9699-458e-aeef-1336d6dcba6f"},"vehicle_type_id":"4","last_reported":1778442717,"current_range_meters":9600,"station_id":"ce4bgr92rcd13ifvqc6g","pricing_plan_id":"cebpf4jnsgd1na2vs0mg"},{"bike_id":"08337b83-f2e0-4bbf-84e6-39466f06dfe4","system_id":"levelo_inurba_marseille","lat":43.2901,"lon":5.38106,"is_reserved":false,"is_disabled":false,"rental_uris":{"android":"levelo://app?vid=08337b83-f2e0-4bbf-84e6-39466f06dfe4","ios":"levelo://app?vid=08337b83-f2e0-4bbf-84e6-39466f06dfe4"},"vehicle_type_id":"4","last_reported":1778442717,"current_range_meters":9600,"station_id":"ce4bh4p2rcd13ifvqe1g","pricing_plan_id":"cebpf4jnsgd1na2vs0mg"},{"bike_id":"a9fb86ca-d29d-4c8d-861e-21144c28d5db","system_id":"levelo_inurba_marseille","lat":43.32366,"lon":5.38885,"is_reserved":false,"is_disabled":false,"rental_uris":{"android":"levelo://app?vid=a9fb86ca-d29d-4c8d-861e-21144c28d5db","ios":"levelo://app?vid=a9fb86ca-d29d-4c8d-861e-21144c28d5db"},"vehicle_type_id":"4","last_reported":1778442717,"current_range_meters":9600,"station_id":"ce4bhqp2rcd13ifvqhog","pricing_plan_id":"cebpf4jnsgd1na2vs0mg"},{"bike_id":"635e37d3-7b93-4e97-82bd-bbf4c4561837","system_id":"levelo_inurba_marseille","lat":43.32238,"lon":5.36884,"is_reserved":false,"is_disabled":false,"rental_uris":{"android":"levelo://app?vid=635e37d3-7b93-4e97-82bd-bbf4c4561837","ios":"levelo://app?vid=635e37d3-7b93-4e97-82bd-bbf4c4561837"},"vehicle_type_id":"4","last_reported":1778442717,"current_range_meters":9600,"station_id":"","pricing_plan_id":"cebpf4jnsgd1na2vs0mg"},{"bike_id":"75d44f43-cf7b-4662-8428-a2cc94a2980d","system_id":"levelo_inurba_marseille","lat":43.28865,"lon":5.42521,"is_reserved":false,"is_disabled":false,"rental_uris":{"android":"levelo://app?vid=75d44f43-cf7b-4662-8428-a2cc94a2980d","ios":"levelo://app?vid=75d44f43-cf7b-4662-8428-a2cc94a2980d"},"vehicle_type_id":"4","last_reported":1778442717,"current_range_meters":9600,"station_id":"st_d3b462108ojc7389ooeg","pricing_plan_id":"cebpf4jnsgd1na2vs0mg"},{"bike_id":"de5e63f3-90b9-4eb1-8a88-6b8b6b27e91d","system_id":"levelo_inurba_marseille","lat":43.23201,"lon":5.35543,"is_reserved":false,"is_disabled":true,"rental_uris":{"android":"levelo://app?vid=de5e63f3-90b9-4eb1-8a88-6b8b6b27e91d","ios":"levelo://app?vid=de5e63f3-90b9-4eb1-8a88-6b8b6b27e91d"},"vehicle_type_id":"4","last_reported":1778442717,"current_range_meters":9600,"station_id":"ce4bhu92rcd13ifvqi70","pricing_plan_id":"cebpf4jnsgd1na2vs0mg"},