{"last_updated":1686848738,"ttl":30,"version":"2.2","data":{"bikes":[{"bike_id":"a142fcc1-dd44-4e45-a4d3-f750f9811ffe","system_id":"levelo_inurba_marseille","lat":43.31231,"lon":5.36804,"is_reserved":false,"is_disabled":false,"rental_uris":{"android":"levelo://app?vid=a142fcc1-dd44-4e45-a4d3-f750f9811ffe","ios":"levelo://app?vid=a142fcc1-dd44-4e45-a4d3-f750f9811ffe"},"vehicle_type_id":"4","last_reported":1686848739,"current_range_meters":2000,"station_id":"","pricing_plan_id":"free"},{"bike_id":"625a1034-cbcb-4fdc-871f-df2e8861b3c1","system_id":"levelo_inurba_marseille","lat":43.314811,"lon":5.373103,"is_reserved":false,"is_disabled":false,"rental_uris":{"android":"levelo://app?vid=625a1034-cbcb-4fdc-871f-df2e8861b3c1","ios":"levelo://app?vid=625a1034-cbcb-4fdc-871f-df2e8861b3c1"},"vehicle_type_id":"4","last_reported":1686848739,"current_range_meters":2000,"station_id":"ce4bgt12rcd13ifvqcd0","pricing_plan_id":"free"},{"bike_id":"3f9f6844-c3b7-4a6c-9212-2aa507f80b9b","system_id":"levelo_inurba_marseille","lat":43.314811,"lon":5.373103,"is_reserved":false,"is_disabled":false,"rental_uris":{"android":"levelo://app?vid=3f9f6844-c3b7-4a6c-9212-2aa507f80b9b","ios":"levelo://app?vid=3f9f6844-c3b7-4a6c-9212-2aa507f80b9b"},"vehicle_type_id":"4","last_reported":1686848739,"current_range_meters":400,"station_id":"ce4bgt12rcd13ifvqcd0","pricing_plan_id":"free"},{"bike_id":"7081af0e-5962-462d-9b6b-1665f97da28f","system_id":"levelo_inurba_marseille","lat":43.314811,"lon":5.373104,"is_reserved":false,"is_disabled":false,"rental_uris":{"android":"levelo://app?vid=7081af0e-5962-462d-9b6b-1665f97da28f","ios":"levelo://app?vid=7081af0e-5962-462d-9b6b-1665f97da28f"},"vehicle_type_id":"4","last_reported":1686848739,"current_range_meters":800,"station_id":"ce4bgt12rcd13ifvqcd0","pricing_plan_id":"free"},{"bike_id":"47b60b4f-3b8b-4a9b-bd59-f83f2f85056c","system_id":"levelo_inurba_marseille","lat":43.308606,"lon":5.372099,"is_reserved":false,"is_disabled":false,"rental_uris":{"android":"levelo://app?vid=47b60b4f-3b8b-4a9b-bd59-f83f2f85056c","ios":"levelo://app?vid=47b60b4f-3b8b-4a9b-bd59-f83f2f85056c"},"vehicle_type_id":"4","last_reported":1686848739,"current_range_meters":5600,"station_id":"ce4bguh2rcd13ifvqckg","pricing_plan_id":"free"},{"bike_id":"55baa5ed-f1de-42e1-880c-a5900301c10c","system_id":"levelo_inurba_marseille","lat":43.31488,"lon":5.37395,"is_reserved":false,"is_disabled":false,"rental_uris":{"android":"levelo://app?vid=55baa5ed-f1de-42e1-880c-a5900301c10c","ios":"levelo://app?vid=55baa5ed-f1de-42e1-880c-a5900301c10c"},"vehicle_type_id":"4","last_reported":1686848739,"current_range_meters":16000,"station_id":"","pricing_plan_id":"free"},{"bike_id":"1f72f87d-271d-4619-9b1d-e8269d554bf7","system_id":"levelo_inurba_marseille","lat":43.305989,"lon":5.37225,"is_reserved":false,"is_disabled":false,"rental_uris":{"android":"levelo://app?vid=1f72f87d-271d-4619-9b1d-e8269d554bf7","ios":"levelo://app?vid=1f72f87d-271d-4619-9b1d-e8269d554bf7"},"vehicle_type_id":"4","last_reported":1686848739,"current_range_meters":1600,"station_id":"ce4bgqh2rcd13ifvqc4g","pricing_plan_id":"free"},{"bike_id":"4a754460-fadd-46aa-8025-e29151f697b6","system_id":"levelo_inurba_marseille","lat":43.3169,"lon":5.37615,"is_reserved":false,"is_disabled":false,"rental_uris":{"android":"levelo://app?vid=4a754460-fadd-46aa-8025-e29151f697b6","ios":"levelo://app?vid=4a754460-fadd-46aa-8025-e29151f697b6"},"vehicle_type_id":"4","last_reported":1686848739,"current_range_meters":30400,"station_id":"","pricing_plan_id":"free"},{"bike_id":"0c5cab3b-a76e-49fe-8202-675d491921ec","system_id":"levelo_inurba_marseille","lat":43.311125,"lon":5.377624,"is_reserved":false,"is_disabled":false,"rental_uris":{"android":"levelo://app?vid=0c5cab3b-a76e-49fe-8202-675d491921ec","ios":"levelo://app?vid=0c5cab3b-a76e-49fe-8202-675d491921ec"},"vehicle_type_id":"4","last_reported":1686848739,"current_range_meters":17200,"station_id":"ce4bgt92rcd13ifvqcg0","pricing_plan_id":"free"},{"bike_id":"9c8e3c3c-18c0-47fe-82d1-8f0601be0d4e","system_id":"levelo_inurba_marseille","lat":43.311125,"lon":5.377624,"is_reserved":false,"is_disabled":false,"rental_uris":{"android":"levelo://app?vid=9c8e3c3c-18c0-47fe-82d1-8f0601be0d4e","ios":"levelo://app?vid=9c8e3c3c-18c0-47fe-82d1-8f0601be0d4e"},"vehicle_type_id":"4","last_reported":1686848739,"current_range_meters":2400,"station_id":"ce4bgt92rcd13ifvqcg0","pricing_plan_id":"free"},{"bike_id":"c5db505c-04da-4170-887f-2fe4a7b5b8ca","system_id":"levelo_inurba_marseille","lat":43.311131,"lon":5.377651,"is_reserved":false,"is_disabled":false,"rental_uris":{"android":"levelo://app?vid=c5db505c-04da-4170-887f-2fe4a7b5b8ca","ios":"levelo://app?vid=c5db505c-04da-4170-887f-2fe4a7b5b8ca"},"vehicle_type_id":"4","last_reported":1686848739,"current_range_meters":14800,"station_id":"ce4bgt92rcd13ifvqcg0","pricing_plan_id":"free"},{"bike_id":"68d7ea7f-e6ad-4028-a5a5-f0c1c0fa30e2","system_id":"levelo_inurba_marseille","lat":43.317075,"lon":5.377367,"is_reserved":false,"is_disabled":false,"rental_uris":{"android":"levelo://app?vid=68d7ea7f-e6ad-4028-a5a5-f0c1c0fa30e2","ios":"levelo://app?vid=68d7ea7f-e6ad-4028-a5a5-f0c1c0fa30e2"},"vehicle_type_id":"4","last_reported":1686848739,"current_range_meters":22800,"station_id":"ce4bgth2rcd13ifvqch0","pricing_plan_id":"free"},{"bike_id":"2424216c-0462-4ad0-b127-d0366c91b61c","system_id":"levelo_inurba_marseille","lat":43.317075,"lon":5.377367,"is_reserved":false,"is_disabled":false,"rental_uris":{"android":"levelo://app?vid=2424216c-0462-4ad0-b127-d0366c91b61c","ios":"levelo://app?vid=2424216c-0462-4ad0-b127-d0366c91b61c"},"vehicle_type_id":"4","last_reported":1686848739,"current_range_meters":31200,"station_id":"ce4bgth2rcd13ifvqch0","pricing_plan_id":"free"},{"bike_id":"adb22399-8f8c-468d-8ea8-c5a3f6364689","system_id":"levelo_inurba_marseille","lat":43.315293,"lon":5.380349,"is_reserved":false,"is_disabled":false,"rental_uris":{"android":"levelo://app?vid=adb22399-8f8c-468d-8ea8-c5a3f6364689","ios":"levelo://app?vid=adb22399-8f8c-468d-8ea8-c5a3f6364689"},"vehicle_type_id":"4","last_reported":1686848739,"current_range_meters":0,"station_id":"ce4bhsp2rcd13ifvqi50","pricing_plan_id":"free"},{"bike_id":"59bbb2a5-7253-4740-8cf7-9ea05abbf84f","system_id":"levelo_inurba_marseille","lat":43.30835,"lon":5.3812,"is_reserved":false,"is_disabled":false,"rental_uris":{"android":"levelo://app?vid=59bbb2a5-7253-4740-8cf7-9ea05abbf84f","ios":"levelo://app?vid=59bbb2a5-7253-4740-8cf7-9ea05abbf84f"},"vehicle_type_id":"4","last_reported":1686848739,"current_range_meters":24800,"station_id":"","pricing_plan_id":"free"},{"bike_id":"ae33307b-fcd5-479b-9ae1-9002ed226c6e","system_id":"levelo_inurba_marseille","lat":43.308012,"lon":5.381511,"is_reserved":false,"is_disabled":false,"rental_uris":{"android":"levelo://app?vid=ae33307b-fcd5-479b-9ae1-9002ed226c6e","ios":"levelo://app?vid=ae33307b-fcd5-479b-9ae1-9002ed226c6e"},"vehicle_type_id":"4","last_reported":1686848739,"current_range_meters":18800,"station_id":"ce4bgt12rcd13ifvqce0","pricing_plan_id":"free"},{"bike_id":"fc4a69da-5dee-4c68-8631-20ee11bc487b","system_id":"levelo_inurba_marseille","lat":43.304606,"lon":5.379026,"is_reserved":false,"is_disabled":false,"rental_uris":{"android":"levelo://app?vid=fc4a69da-5dee-4c68-8631-20ee11bc487b","ios":"levelo://app?vid=fc4a69da-5dee-4c68-8631-20ee11bc487b"},"vehicle_type_id":"4","last_reported":1686848739,"current_range_meters":27600,"station_id":"ce4bgup2rcd13ifvqcn0","pricing_plan_id":"free"},{"bike_id":"32827146-2d6b-4fb1-b00e-6b2f535ca544","system_id":"levelo_inurba_marseille","lat":43.30477,"lon":5.37903,"is_reserved":false,"is_disabled":false,"rental_uris":{"android":"levelo://app?vid=32827146-2d6b-4fb1-b00e-6b2f535ca544","ios":"levelo://app?vid=32827146-2d6b-4fb1-b00e-6b2f535ca544"},"vehicle_type_id":"4","last_reported":1686848739,"current_range_meters":31200,"station_id":"ce4bgup2rcd13ifvqcn0","pricing_plan_id":"free"},{"bike_id":"973279cd-48b3-4da5-b019-6bde256ffa58","system_id":"levelo_inurba_marseille","lat":43.319935,"lon":5.381699,"is_reserved":false,"is_disabled":false,"rental_uris":{"android":"levelo://app?vid=973279cd-48b3-4da5-b019-6bde256ffa58","ios":"levelo://app?vid=973279cd-48b3-4da5-b019-6bde256ffa58"},"vehicle_type_id":"4","last_reported":1686848739,"current_range_meters":9200,"station_id":"ce4bhr12rcd13ifvqhpg","pricing_plan_id":"free"},{"bike_id":"744943b2-af19-46c4-969b-690e8b7b0efd","system_id":"levelo_inurba_marseille","lat":43.319935,"lon":5.381699,"is_reserved":false,"is_disabled":false,"rental_uris":{"android":"levelo://app?vid=744943b2-af19-46c4-969b-690e8b7b0efd","ios":"levelo://app?vid=744943b2-af19-46c4-969b-690e8b7b0efd"},"vehicle_type_id":"4","last_reported":1686848739,"current_range_meters":1200,"station_id":"ce4bhr12rcd13ifvqhpg","pricing_plan_id":"free"},{"bike_id":"0666119b-1b0b-43eb-aa88-c2723005845c","system_id":"levelo_inurba_marseille","lat":43.313571,"lon":5.384829,"is_reserved":false,"is_disabled":false,"rental_uris":{"android":"levelo://app?vid=0666119b-1b0b-43eb-aa88-c2723005845c","ios":"levelo://app?vid=0666119b-1b0b-43eb-aa88-c2723005845c"},"vehicle_type_id":"4","last_reported":1686848739,"current_range_meters":4400,"station_id":"ce4bgt92rcd13ifvqcf0","pricing_plan_id":"free"},{"bike_id":"f45e7591-0537-4939-a6e2-f64893ddb0b6","system_id":"levelo_inurba_marseille","lat":43.30151,"lon":5.37686,"is_reserved":false,"is_disabled":false,"rental_uris":{"android":"levelo://app?vid=f45e7591-0537-4939-a6e2-f64893ddb0b6","ios":"levelo://app?vid=f45e7591-0537-4939-a6e2-f64893ddb0b6"},"vehicle_type_id":"4","last_reported":1686848739,"current_range_meters":8400,"station_id":"","pricing_plan_id":"free"},{"bike_id":"ec5c61a9-1654-44c2-97b9-f84fac01362a","system_id":"levelo_inurba_marseille","lat":43.298433,"lon":5.362774,"is_reserved":false,"is_disabled":false,"rental_uris":{"android":"levelo://app?vid=ec5c61a9-1654-44c2-97b9-f84fac01362a","ios":"levelo://app?vid=ec5c61a9-1654-44c2-97b9-f84fac01362a"},"vehicle_type_id":"4","last_reported":1686848739,"current_range_meters":14000,"station_id":"ce4bgpp2rcd13ifvqc3g","pricing_plan_id":"free"},{"bike_id":"82558c2f-2932-4383-8545-746cf858c439","system_id":"levelo_inurba_marseille","lat":43.298433,"lon":5.362774,"is_reserved":false,"is_disabled":false,"rental_uris":{"android":"levelo://app?vid=82558c2f-2932-4383-8545-746cf858c439","ios":"levelo://app?vid=82558c2f-2932-4383-8545-746cf858c439"},"vehicle_type_id":"4","last_reported":1686848739,"current_range_meters":0,"station_id":"ce4bgpp2rcd13ifvqc3g","pricing_plan_id":"free"},{"bike_id":"5231337b-dff3-4401-8455-2448b7967103","system_id":"levelo_inurba_marseille","lat":43.298433,"lon":5.362774,"is_reserved":false,"is_disabled":false,"rental_uris":{"android":"levelo://app?vid=5231337b-dff3-4401-8455-2448b7967103","ios":"levelo://app?vid=5231337b-dff3-4401-8455-2448b7967103"},"vehicle_type_id":"4","last_reported":1686848739,"current_range_meters":7200,"station_id":"ce4bgpp2rcd13ifvqc3g","pricing_plan_id":"free"},{"bike_id":"72ec657b-7cd0-486a-8ba9-0b854db54f6b","system_id":"levelo_inurba_marseille","lat":43.298433,"lon":5.362774,"is_reserved":false,"is_disabled":false,"rental_uris":{"android":"levelo://app?vid=72ec657b-7cd0-486a-8ba9-0b854db54f6b","ios":"levelo://app?vid=72ec657b-7cd0-486a-8ba9-0b854db54f6b"},"vehicle_type_id":"4","last_reported":1686848739,"current_range_meters":8000,"station_id":"ce4bgpp2rcd13ifvqc3g","pricing_plan_id":"free"},{"bike_id":"732338ec-b0e8-42c0-af40-70bf0db1d4f6","system_id":"levelo_inurba_marseille","lat":43.311722,"lon":5.387247,"is_reserved":false,"is_disabled":false,"rental_uris":{"android":"levelo://app?vid=732338ec-b0e8-42c0-af40-70bf0db1d4f6","ios":"levelo://app?vid=732338ec-b0e8-42c0-af40-70bf0db1d4f6"},"vehicle_type_id":"4","last_reported":1686848739,"current_range_meters":0,"station_id":"ce4bgv12rcd13ifvqcp0","pricing_plan_id":"free"},{"bike_id":"d71beb9a-427c-4bad-960e-55fdc1b35b3b","system_id":"levelo_inurba_marseille","lat":43.3153,"lon":5.38718,"is_reserved":false,"is_disabled":false,"rental_uris":{"android":"levelo://app?vid=d71beb9a-427c-4bad-960e-55fdc1b35b3b","ios":"levelo://app?vid=d71beb9a-427c-4bad-960e-55fdc1b35b3b"},"vehicle_type_id":"4","last_reported":1686848739,"current_range_meters":0,"station_id":"","pricing_plan_id":"free"},{"bike_id":"c66511c5-27a9-4ec2-ac67-4c36230a946d","system_id":"levelo_inurba_marseille","lat":43.297774,"lon":5.370875,"is_reserved":false,"is_disabled":false,"rental_uris":{"android":"levelo://app?vid=c66511c5-27a9-4ec2-ac67-4c36230a946d","ios":"levelo://app?vid=c66511c5-27a9-4ec2-ac67-4c36230a946d"},"vehicle_type_id":"4","last_reported":1686848739,"current_range_meters":0,"station_id":"ce4bgop2rcd13ifvqc1g","pricing_plan_id":"free"},{"bike_id":"6938353d-b323-4b5d-9339-e3d5397a084a","system_id":"levelo_inurba_marseille","lat":43.32813,"lon":5.36685,"is_reserved":false,"is_disabled":false,"rental_uris":{"android":"levelo://app?vid=6938353d-b323-4b5d-9339-e3d5397a084a","ios":"levelo://app?vid=6938353d-b323-4b5d-9339-e3d5397a084a"},"vehicle_type_id":"4","last_reported":1686848739,"current_range_meters":26000,"station_id":"","pricing_plan_id":"free"},{"bike_id":"af67f7be-dced-4f3e-9c5d-c2525a227ced","system_id":"levelo_inurba_marseille","lat":43.328371,"lon":5.366909,"is_reserved":false,"is_disabled":false,"rental_uris":{"android":"levelo://app?vid=af67f7be-dced-4f3e-9c5d-c2525a227ced","ios":"levelo://app?vid=af67f7be-dced-4f3e-9c5d-c2525a227ced"},"vehicle_type_id":"4","last_reported":1686848739,"current_range_meters":800,"station_id":"ce4bhs92rcd13ifvqi0g","pricing_plan_id":"free"},{"bike_id":"88d0330c-5bb0-4a19-9b65-d4683b42e015","system_id":"levelo_inurba_marseille","lat":43.29683,"lon":5.36046,"is_reserved":false,"is_disabled":false,"rental_uris":{"android":"levelo://app?vid=88d0330c-5bb0-4a19-9b65-d4683b42e015","ios":"levelo://app?vid=88d0330c-5bb0-4a19-9b65-d4683b42e015"},"vehicle_type_id":"4","last_reported":1686848739,"current_range_meters":13600,"station_id":"ce4bgpp2rcd13ifvqc3g","pricing_plan_id":"free"},{"bike_id":"dbe5ee5c-d0c1-430c-8f7a-d773284903a1","system_id":"levelo_inurba_marseille","lat":43.29624,"lon":5.37168,"is_reserved":false,"is_disabled":false,"rental_uris":{"android":"levelo://app?vid=dbe5ee5c-d0c1-430c-8f7a-d773284903a1","ios":"levelo://app?vid=dbe5ee5c-d0c1-430c-8f7a-d773284903a1"},"vehicle_type_id":"4","last_reported":1686848739,"current_range_meters":1200,"station_id":"","pricing_plan_id":"free"},{"bike_id":"7e7b3ce9-16fb-4e20-84ef-31068a357bfd","system_id":"levelo_inurba_marseille","lat":43.29966,"lon":5.38271,"is_reserved":false,"is_disabled":false,"rental_uris":{"android":"levelo://app?vid=7e7b3ce9-16fb-4e20-84ef-31068a357bfd","ios":"levelo://app?vid=7e7b3ce9-16fb-4e20-84ef-31068a357bfd"},"vehicle_type_id":"4","last_reported":1686848739,"current_range_meters":7200,"station_id":"","pricing_plan_id":"free"},{"bike_id":"5e4b271b-ae35-4a08-aecb-9024a6a0efc6","system_id":"levelo_inurba_marseille","lat":43.31755,"lon":5.39011,"is_reserved":false,"is_disabled":false,"rental_uris":{"android":"levelo://app?vid=5e4b271b-ae35-4a08-aecb-9024a6a0efc6","ios":"levelo://app?vid=5e4b271b-ae35-4a08-aecb-9024a6a0efc6"},"vehicle_type_id":"4","last_reported":1686848739,"current_range_meters":11200,"station_id":"ce4bhqp2rcd13ifvqhng","pricing_plan_id":"free"},{"bike_id":"113d8f7e-ffd1-4394-aaba-49ba04306712","system_id":"levelo_inurba_marseille","lat":43.317557,"lon":5.390173,"is_reserved":false,"is_disabled":false,"rental_uris":{"android":"levelo://app?vid=113d8f7e-ffd1-4394-aaba-49ba04306712","ios":"levelo://app?vid=113d8f7e-ffd1-4394-aaba-49ba04306712"},"vehicle_type_id":"4","last_reported":1686848739,"current_range_meters":15600,"station_id":"ce4bhqp2rcd13ifvqhng","pricing_plan_id":"free"},{"bike_id":"3a027772-0157-4090-9274-0400406e61d4","system_id":"levelo_inurba_marseille","lat":43.31761,"lon":5.39023,"is_reserved":false,"is_disabled":false,"rental_uris":{"android":"levelo://app?vid=3a027772-0157-4090-9274-0400406e61d4","ios":"levelo://app?vid=3a027772-0157-4090-9274-0400406e61d4"},"vehicle_type_id":"4","last_reported":1686848739,"current_range_meters":3200,"station_id":"ce4bhqp2rcd13ifvqhng","pricing_plan_id":"free"},{"bike_id":"bf75ecad-26f3-4335-8494-749d9a20c737","system_id":"levelo_inurba_marseille","lat":43.30433,"lon":5.38885,"is_reserved":false,"is_disabled":false,"rental_uris":{"android":"levelo://app?vid=bf75ecad-26f3-4335-8494-749d9a20c737","ios":"levelo://app?vid=bf75ecad-26f3-4335-8494-749d9a20c737"},"vehicle_type_id":"4","last_reported":1686848739,"current_range_meters":1200,"station_id":"ce4bgk12rcd13ifvqbi0","pricing_plan_id":"free"},{"bike_id":"7ed84a4e-4665-4d76-a810-0f7250624e77","system_id":"levelo_inurba_marseille","lat":43.295748,"lon":5.37522,"is_reserved":false,"is_disabled":false,"rental_uris":{"android":"levelo://app?vid=7ed84a4e-4665-4d76-a810-0f7250624e77","ios":"levelo://app?vid=7ed84a4e-4665-4d76-a810-0f7250624e77"},"vehicle_type_id":"4","last_reported":1686848739,"current_range_meters":0,"station_id":"ce4bgh92rcd13ifvqb50","pricing_plan_id":"free"},{"bike_id":"e07eb138-47c2-444f-a227-9e98d12e1877","system_id":"levelo_inurba_marseille","lat":43.304274,"lon":5.388873,"is_reserved":false,"is_disabled":false,"rental_uris":{"android":"levelo://app?vid=e07eb138-47c2-444f-a227-9e98d12e1877","ios":"levelo://app?vid=e07eb138-47c2-444f-a227-9e98d12e1877"},"vehicle_type_id":"4","last_reported":1686848739,"current_range_meters":1600,"station_id":"ce4bgk12rcd13ifvqbi0","pricing_plan_id":"free"},{"bike_id":"aa2f0a17-eab7-4d5c-9098-8d6e5e7a66d0","system_id":"levelo_inurba_marseille","lat":43.299717,"lon":5.384845,"is_reserved":false,"is_disabled":false,"rental_uris":{"android":"levelo://app?vid=aa2f0a17-eab7-4d5c-9098-8d6e5e7a66d0","ios":"levelo://app?vid=aa2f0a17-eab7-4d5c-9098-8d6e5e7a66d0"},"vehicle_type_id":"4","last_reported":1686848739,"current_range_meters":9200,"station_id":"ce4bgj92rcd13ifvqbd0","pricing_plan_id":"free"},{"bike_id":"c838f920-5aa1-4ad9-bf6a-9893baf1fe07","system_id":"levelo_inurba_marseille","lat":43.299707,"lon":5.384859,"is_reserved":false,"is_disabled":false,"rental_uris":{"android":"levelo://app?vid=c838f920-5aa1-4ad9-bf6a-9893baf1fe07","ios":"levelo://app?vid=c838f920-5aa1-4ad9-bf6a-9893baf1fe07"},"vehicle_type_id":"4","last_reported":1686848739,"current_range_meters":3600,"station_id":"ce4bgj92rcd13ifvqbd0","pricing_plan_id":"free"},{"bike_id":"d5664882-9fa3-4cea-9530-5a3b4546008f","system_id":"levelo_inurba_marseille","lat":43.301117,"lon":5.398795,"is_reserved":false,"is_disabled":false,"rental_uris":{"android":"levelo://app?vid=d5664882-9fa3-4cea-9530-5a3b4546008f","ios":"levelo://app?vid=d5664882-9fa3-4cea-9530-5a3b4546008f"},"vehicle_type_id":"4","last_reported":1686848739,"current_range_meters":0,"station_id":"ce4bh0h2rcd13ifvqd40","pricing_plan_id":"free"},{"bike_id":"cd04a366-6428-4833-934b-d71225c56ac3","system_id":"levelo_inurba_marseille","lat":43.32367,"lon":5.388836,"is_reserved":false,"is_disabled":false,"rental_uris":{"android":"levelo://app?vid=cd04a366-6428-4833-934b-d71225c56ac3","ios":"levelo://app?vid=cd04a366-6428-4833-934b-d71225c56ac3"},"vehicle_type_id":"4","last_reported":1686848739,"current_range_meters":0,"station_id":"ce4bhqp2rcd13ifvqhog","pricing_plan_id":"free"},{"bike_id":"2c9ad911-25e0-4222-8751-d809dfadd582","system_id":"levelo_inurba_marseille","lat":43.32368,"lon":5.38886,"is_reserved":false,"is_disabled":false,"rental_uris":{"android":"levelo://app?vid=2c9ad911-25e0-4222-8751-d809dfadd582","ios":"levelo://app?vid=2c9ad911-25e0-4222-8751-d809dfadd582"},"vehicle_type_id":"4","last_reported":1686848739,"current_range_meters":10400,"station_id":"ce4bhqp2rcd13ifvqhog","pricing_plan_id":"free"},{"bike_id":"c20b3057-4a1e-4307-8372-9954085d6840","system_id":"levelo_inurba_marseille","lat":43.290995,"lon":5.381361,"is_reserved":false,"is_disabled":false,"rental_uris":{"android":"levelo://app?vid=c20b3057-4a1e-4307-8372-9954085d6840","ios":"levelo://app?vid=c20b3057-4a1e-4307-8372-9954085d6840"},"vehicle_type_id":"4","last_reported":1686848739,"current_range_meters":0,"station_id":"ce4bh512rcd13ifvqe2g","pricing_plan_id":"free"},{"bike_id":"f94defc2-332e-44d4-8d8b-1aaa263c10f1","system_id":"levelo_inurba_marseille","lat":43.305994,"lon":5.393687,"is_reserved":false,"is_disabled":false,"rental_uris":{"android":"levelo://app?vid=f94defc2-332e-44d4-8d8b-1aaa263c10f1","ios":"levelo://app?vid=f94defc2-332e-44d4-8d8b-1aaa263c10f1"},"vehicle_type_id":"4","last_reported":1686848739,"current_range_meters":0,"station_id":"ce4bh0p2rcd13ifvqd80","pricing_plan_id":"free"},{"bike_id":"9156d59a-b2c8-48f9-beb2-324f86e0dcfd","system_id":"levelo_inurba_marseille","lat":43.305994,"lon":5.393687,"is_reserved":false,"is_disabled":false,"rental_uris":{"android":"levelo://app?vid=9156d59a-b2c8-48f9-beb2-324f86e0dcfd","ios":"levelo://app?vid=9156d59a-b2c8-48f9-beb2-324f86e0dcfd"},"vehicle_type_id":"4","last_reported":1686848739,"current_range_meters":400,"station_id":"ce4bh0p2rcd13ifvqd80","pricing_plan_id":"free"},{"bike_id":"a993c299-3221-404b-a7b4-2bf26f3104cc","system_id":"levelo_inurba_marseille","lat":43.30308,"lon":5.39201,"is_reserved":false,"is_disabled":false,"rental_uris":{"android":"levelo://app?vid=a993c299-3221-404b-a7b4-2bf26f3104cc","ios":"levelo://app?vid=a993c299-3221-404b-a7b4-2bf26f3104cc"},"vehicle_type_id":"4","last_reported":1686848739,"current_range_meters":0,"station_id":"ce4bgkh2rcd13ifvqbk0","pricing_plan_id":"free"},{"bike_id":"d3e5ec50-cdd2-4dda-b3aa-56eb536bbb12","system_id":"levelo_inurba_marseille","lat":43.29269,"lon":5.35971,"is_reserved":false,"is_disabled":false,"rental_uris":{"android":"levelo://app?vid=d3e5ec50-cdd2-4dda-b3aa-56eb536bbb12","ios":"levelo://app?vid=d3e5ec50-cdd2-4dda-b3aa-56eb536bbb12"},"vehicle_type_id":"4","last_reported":1686848739,"current_range_meters":29600,"station_id":"","pricing_plan_id":"free"},{"bike_id":"d3ce4db6-9870-42b6-b1b2-bcbf6552c640","system_id":"levelo_inurba_marseille","lat":43.292191,"lon":5.360443,"is_reserved":false,"is_disabled":false,"rental_uris":{"android":"levelo://app?vid=d3ce4db6-9870-42b6-b1b2-bcbf6552c640","ios":"levelo://app?vid=d3ce4db6-9870-42b6-b1b2-bcbf6552c640"},"vehicle_type_id":"4","last_reported":1686848739,"current_range_meters":31600,"station_id":"ce4bhbh2rcd13ifvqeqg","pricing_plan_id":"free"},{"bike_id":"05d7c434-0d76-4061-9968-24b29cfe311d","system_id":"levelo_inurba_marseille","lat":43.292184,"lon":5.360462,"is_reserved":false,"is_disabled":false,"rental_uris":{"android":"levelo://app?vid=05d7c434-0d76-4061-9968-24b29cfe311d","ios":"levelo://app?vid=05d7c434-0d76-4061-9968-24b29cfe311d"},"vehicle_type_id":"4","last_reported":1686848739,"current_range_meters":3200,"station_id":"ce4bhbh2rcd13ifvqeqg","pricing_plan_id":"free"},{"bike_id":"c8040753-3793-4bf4-9af9-d991fc62e187","system_id":"levelo_inurba_marseille","lat":43.313291,"lon":5.396838,"is_reserved":false,"is_disabled":false,"rental_uris":{"android":"levelo://app?vid=c8040753-3793-4bf4-9af9-d991fc62e187","ios":"levelo://app?vid=c8040753-3793-4bf4-9af9-d991fc62e187"},"vehicle_type_id":"4","last_reported":1686848739,"current_range_meters":5600,"station_id":"ce4bgvp2rcd13ifvqcu0","pricing_plan_id":"free"},{"bike_id":"018713cd-4693-4748-a1c6-875a5fe74db9","system_id":"levelo_inurba_marseille","lat":43.313291,"lon":5.396838,"is_reserved":false,"is_disabled":false,"rental_uris":{"android":"levelo://app?vid=018713cd-4693-4748-a1c6-875a5fe74db9","ios":"levelo://app?vid=018713cd-4693-4748-a1c6-875a5fe74db9"},"vehicle_type_id":"4","last_reported":1686848739,"current_range_meters":0,"station_id":"ce4bgvp2rcd13ifvqcu0","pricing_plan_id":"free"},{"bike_id":"67eada14-da56-4f8f-96f7-8902a1e48ed8","system_id":"levelo_inurba_marseille","lat":43.29186,"lon":5.35793,"is_reserved":false,"is_disabled":false,"rental_uris":{"android":"levelo://app?vid=67eada14-da56-4f8f-96f7-8902a1e48ed8","ios":"levelo://app?vid=67eada14-da56-4f8f-96f7-8902a1e48ed8"},"vehicle_type_id":"4","last_reported":1686848739,"current_range_meters":20400,"station_id":"ce4bhb12rcd13ifvqel0","pricing_plan_id":"free"},{"bike_id":"e6576849-1108-492c-8352-5c50a6d0a8e3","system_id":"levelo_inurba_marseille","lat":43.30886,"lon":5.39661,"is_reserved":false,"is_disabled":false,"rental_uris":{"android":"levelo://app?vid=e6576849-1108-492c-8352-5c50a6d0a8e3","ios":"levelo://app?vid=e6576849-1108-492c-8352-5c50a6d0a8e3"},"vehicle_type_id":"4","last_reported":1686848739,"current_range_meters":2000,"station_id":"","pricing_plan_id":"free"},{"bike_id":"6d25054c-d261-4e47-b569-5547268829ed","system_id":"levelo_inurba_marseille","lat":43.29529,"lon":5.385581,"is_reserved":false,"is_disabled":false,"rental_uris":{"android":"levelo://app?vid=6d25054c-d261-4e47-b569-5547268829ed","ios":"levelo://app?vid=6d25054c-d261-4e47-b569-5547268829ed"},"vehicle_type_id":"4","last_reported":1686848739,"current_range_meters":21600,"station_id":"ce4bgih2rcd13ifvqba0","pricing_plan_id":"free"},{"bike_id":"7fb41468-2905-4970-bfb8-3e64953c0a4b","system_id":"levelo_inurba_marseille","lat":43.290631,"lon":5.359244,"is_reserved":false,"is_disabled":false,"rental_uris":{"android":"levelo://app?vid=7fb41468-2905-4970-bfb8-3e64953c0a4b","ios":"levelo://app?vid=7fb41468-2905-4970-bfb8-3e64953c0a4b"},"vehicle_type_id":"4","last_reported":1686848739,"current_range_meters":0,"station_id":"ce4bha92rcd13ifvqeg0","pricing_plan_id":"free"},{"bike_id":"802d92fc-d384-4ed5-96d8-3377c2df25b2","system_id":"levelo_inurba_marseille","lat":43.290631,"lon":5.359244,"is_reserved":false,"is_disabled":false,"rental_uris":{"android":"levelo://app?vid=802d92fc-d384-4ed5-96d8-3377c2df25b2","ios":"levelo://app?vid=802d92fc-d384-4ed5-96d8-3377c2df25b2"},"vehicle_type_id":"4","last_reported":1686848739,"current_range_meters":0,"station_id":"ce4bha92rcd13ifvqeg0","pricing_plan_id":"free"},{"bike_id":"a2ea152d-4ffc-44cf-a349-b1c05c86ccfc","system_id":"levelo_inurba_marseille","lat":43.290327,"lon":5.375711,"is_reserved":false,"is_disabled":false,"rental_uris":{"android":"levelo://app?vid=a2ea152d-4ffc-44cf-a349-b1c05c86ccfc","ios":"levelo://app?vid=a2ea152d-4ffc-44cf-a349-b1c05c86ccfc"},"vehicle_type_id":"4","last_reported":1686848739,"current_range_meters":2000,"station_id":"ce4bh692rcd13ifvqe90","pricing_plan_id":"free"},{"bike_id":"0cff4ae1-2a6a-4d3f-b5d8-53a27d7b9a21","system_id":"levelo_inurba_marseille","lat":43.29417,"lon":5.38619,"is_reserved":false,"is_disabled":false,"rental_uris":{"android":"levelo://app?vid=0cff4ae1-2a6a-4d3f-b5d8-53a27d7b9a21","ios":"levelo://app?vid=0cff4ae1-2a6a-4d3f-b5d8-53a27d7b9a21"},"vehicle_type_id":"4","last_reported":1686848739,"current_range_meters":4800,"station_id":"ce4bh2h2rcd13ifvqdh0","pricing_plan_id":"free"},{"bike_id":"c570da05-eff9-4255-b355-cb1a64343abf","system_id":"levelo_inurba_marseille","lat":43.294153,"lon":5.386305,"is_reserved":false,"is_disabled":false,"rental_uris":{"android":"levelo://app?vid=c570da05-eff9-4255-b355-cb1a64343abf","ios":"levelo://app?vid=c570da05-eff9-4255-b355-cb1a64343abf"},"vehicle_type_id":"4","last_reported":1686848739,"current_range_meters":0,"station_id":"ce4bh2h2rcd13ifvqdh0","pricing_plan_id":"free"},{"bike_id":"763116ad-ac49-4eee-8942-a8d533441a24","system_id":"levelo_inurba_marseille","lat":43.289184,"lon":5.366408,"is_reserved":false,"is_disabled":false,"rental_uris":{"android":"levelo://app?vid=763116ad-ac49-4eee-8942-a8d533441a24","ios":"levelo://app?vid=763116ad-ac49-4eee-8942-a8d533441a24"},"vehicle_type_id":"4","last_reported":1686848739,"current_range_meters":14800,"station_id":"ce4bhap2rcd13ifvqek0","pricing_plan_id":"free"},{"bike_id":"4828fe20-4ccb-48a7-91cd-ef88cd86a8a1","system_id":"levelo_inurba_marseille","lat":43.330462,"lon":5.38915,"is_reserved":false,"is_disabled":false,"rental_uris":{"android":"levelo://app?vid=4828fe20-4ccb-48a7-91cd-ef88cd86a8a1","ios":"levelo://app?vid=4828fe20-4ccb-48a7-91cd-ef88cd86a8a1"},"vehicle_type_id":"4","last_reported":1686848739,"current_range_meters":25200,"station_id":"","pricing_plan_id":"free"},{"bike_id":"c0fb8083-e02d-4dec-b1b9-fa095e6c5b75","system_id":"levelo_inurba_marseille","lat":43.337396,"lon":5.374526,"is_reserved":false,"is_disabled":false,"rental_uris":{"android":"levelo://app?vid=c0fb8083-e02d-4dec-b1b9-fa095e6c5b75","ios":"levelo://app?vid=c0fb8083-e02d-4dec-b1b9-fa095e6c5b75"},"vehicle_type_id":"4","last_reported":1686848739,"current_range_meters":4400,"station_id":"ce4bhp92rcd13ifvqhag","pricing_plan_id":"free"},{"bike_id":"9b29a533-50cf-4f7c-95d2-03dc1f60def8","system_id":"levelo_inurba_marseille","lat":43.33758,"lon":5.37443,"is_reserved":false,"is_disabled":false,"rental_uris":{"android":"levelo://app?vid=9b29a533-50cf-4f7c-95d2-03dc1f60def8","ios":"levelo://app?vid=9b29a533-50cf-4f7c-95d2-03dc1f60def8"},"vehicle_type_id":"4","last_reported":1686848739,"current_range_meters":15200,"station_id":"","pricing_plan_id":"free"},{"bike_id":"867cd875-acb1-4ebb-bd7d-135814c74217","system_id":"levelo_inurba_marseille","lat":43.30642,"lon":5.401031,"is_reserved":false,"is_disabled":false,"rental_uris":{"android":"levelo://app?vid=867cd875-acb1-4ebb-bd7d-135814c74217","ios":"levelo://app?vid=867cd875-acb1-4ebb-bd7d-135814c74217"},"vehicle_type_id":"4","last_reported":1686848739,"current_range_meters":0,"station_id":"ce4bh112rcd13ifvqda0","pricing_plan_id":"free"},{"bike_id":"b5f53002-bba2-4aa5-b447-af43f93fcbc8","system_id":"levelo_inurba_marseille","lat":43.30642,"lon":5.401031,"is_reserved":false,"is_disabled":false,"rental_uris":{"android":"levelo://app?vid=b5f53002-bba2-4aa5-b447-af43f93fcbc8","ios":"levelo://app?vid=b5f53002-bba2-4aa5-b447-af43f93fcbc8"},"vehicle_type_id":"4","last_reported":1686848739,"current_range_meters":14000,"station_id":"ce4bh112rcd13ifvqda0","pricing_plan_id":"free"},{"bike_id":"14bfdfd1-0d26-41ef-b550-4910132574cc","system_id":"levelo_inurba_marseille","lat":43.306412,"lon":5.401035,"is_reserved":false,"is_disabled":false,"rental_uris":{"android":"levelo://app?vid=14bfdfd1-0d26-41ef-b550-4910132574cc","ios":"levelo://app?vid=14bfdfd1-0d26-41ef-b550-4910132574cc"},"vehicle_type_id":"4","last_reported":1686848739,"current_range_meters":2400,"station_id":"ce4bh112rcd13ifvqda0","pricing_plan_id":"free"},{"bike_id":"c3f6c5da-912e-4018-8ead-6368141bf30f","system_id":"levelo_inurba_marseille","lat":43.306412,"lon":5.401035,"is_reserved":false,"is_disabled":false,"rental_uris":{"android":"levelo://app?vid=c3f6c5da-912e-4018-8ead-6368141bf30f","ios":"levelo://app?vid=c3f6c5da-912e-4018-8ead-6368141bf30f"},"vehicle_type_id":"4","last_reported":1686848739,"current_range_meters":5200,"station_id":"ce4bh112rcd13ifvqda0","pricing_plan_id":"free"},{"bike_id":"6aa3b13a-0d53-4488-851f-1de20518005c","system_id":"levelo_inurba_marseille","lat":43.30642,"lon":5.401031,"is_reserved":false,"is_disabled":false,"rental_uris":{"android":"levelo://app?vid=6aa3b13a-0d53-4488-851f-1de20518005c","ios":"levelo://app?vid=6aa3b13a-0d53-4488-851f-1de20518005c"},"vehicle_type_id":"4","last_reported":1686848739,"current_range_meters":3600,"station_id":"ce4bh112rcd13ifvqda0","pricing_plan_id":"free"},{"bike_id":"8c491487-6b7c-42a4-8621-fe5616745413","system_id":"levelo_inurba_marseille","lat":43.301117,"lon":5.398795,"is_reserved":false,"is_disabled":false,"rental_uris":{"android":"levelo://app?vid=8c491487-6b7c-42a4-8621-fe5616745413","ios":"levelo://app?vid=8c491487-6b7c-42a4-8621-fe5616745413"},"vehicle_type_id":"4","last_reported":1686848739,"current_range_meters":4800,"station_id":"ce4bh0h2rcd13ifvqd40","pricing_plan_id":"free"},{"bike_id":"3b3d0520-a4c2-471a-b70f-d08dece5470f","system_id":"levelo_inurba_marseille","lat":43.29928,"lon":5.39752,"is_reserved":false,"is_disabled":false,"rental_uris":{"android":"levelo://app?vid=3b3d0520-a4c2-471a-b70f-d08dece5470f","ios":"levelo://app?vid=3b3d0520-a4c2-471a-b70f-d08dece5470f"},"vehicle_type_id":"4","last_reported":1686848739,"current_range_meters":24800,"station_id":"","pricing_plan_id":"free"},{"bike_id":"2624e6d2-6e23-4a87-98ba-fd23c7f9cf59","system_id":"levelo_inurba_marseille","lat":43.29539,"lon":5.3939,"is_reserved":false,"is_disabled":false,"rental_uris":{"android":"levelo://app?vid=2624e6d2-6e23-4a87-98ba-fd23c7f9cf59","ios":"levelo://app?vid=2624e6d2-6e23-4a87-98ba-fd23c7f9cf59"},"vehicle_type_id":"4","last_reported":1686848739,"current_range_meters":2000,"station_id":"ce4bh292rcd13ifvqdf0","pricing_plan_id":"free"},{"bike_id":"0d70b0ad-b91c-4b1f-84a9-0d20050a4f83","system_id":"levelo_inurba_marseille","lat":43.28702,"lon":5.37384,"is_reserved":false,"is_disabled":false,"rental_uris":{"android":"levelo://app?vid=0d70b0ad-b91c-4b1f-84a9-0d20050a4f83","ios":"levelo://app?vid=0d70b0ad-b91c-4b1f-84a9-0d20050a4f83"},"vehicle_type_id":"4","last_reported":1686848739,"current_range_meters":6400,"station_id":"","pricing_plan_id":"free"},{"bike_id":"d0b48ebc-5a65-4eb0-8ca9-68c581d906c3","system_id":"levelo_inurba_marseille","lat":43.287,"lon":5.37393,"is_reserved":false,"is_disabled":false,"rental_uris":{"android":"levelo://app?vid=d0b48ebc-5a65-4eb0-8ca9-68c581d906c3","ios":"levelo://app?vid=d0b48ebc-5a65-4eb0-8ca9-68c581d906c3"},"vehicle_type_id":"4","last_reported":1686848739,"current_range_meters":20400,"station_id":"","pricing_plan_id":"free"},{"bike_id":"f6095d4b-2648-4c34-a5dd-72b85626fd51","system_id":"levelo_inurba_marseille","lat":43.295194,"lon":5.39397,"is_reserved":false,"is_disabled":false,"rental_uris":{"android":"levelo://app?vid=f6095d4b-2648-4c34-a5dd-72b85626fd51","ios":"levelo://app?vid=f6095d4b-2648-4c34-a5dd-72b85626fd51"},"vehicle_type_id":"4","last_reported":1686848739,"current_range_meters":21600,"station_id":"ce4bh292rcd13ifvqdf0","pricing_plan_id":"free"},{"bike_id":"32e78c14-61a4-4e65-bdfe-208a7cf7f116","system_id":"levelo_inurba_marseille","lat":43.302759,"lon":5.400793,"is_reserved":false,"is_disabled":false,"rental_uris":{"android":"levelo://app?vid=32e78c14-61a4-4e65-bdfe-208a7cf7f116","ios":"levelo://app?vid=32e78c14-61a4-4e65-bdfe-208a7cf7f116"},"vehicle_type_id":"4","last_reported":1686848739,"current_range_meters":0,"station_id":"ce4bgvh2rcd13ifvqcs0","pricing_plan_id":"free"},{"bike_id":"559caeef-6dfe-4ded-b5b3-2e01b7b64690","system_id":"levelo_inurba_marseille","lat":43.286039,"lon":5.370679,"is_reserved":false,"is_disabled":false,"rental_uris":{"android":"levelo://app?vid=559caeef-6dfe-4ded-b5b3-2e01b7b64690","ios":"levelo://app?vid=559caeef-6dfe-4ded-b5b3-2e01b7b64690"},"vehicle_type_id":"4","last_reported":1686848739,"current_range_meters":0,"station_id":"ce4bht12rcd13ifvqi60","pricing_plan_id":"free"},{"bike_id":"64116f6d-3058-4ef3-9cfa-d37300c870f1","system_id":"levelo_inurba_marseille","lat":43.286039,"lon":5.370679,"is_reserved":false,"is_disabled":false,"rental_uris":{"android":"levelo://app?vid=64116f6d-3058-4ef3-9cfa-d37300c870f1","ios":"levelo://app?vid=64116f6d-3058-4ef3-9cfa-d37300c870f1"},"vehicle_type_id":"4","last_reported":1686848739,"current_range_meters":0,"station_id":"ce4bht12rcd13ifvqi60","pricing_plan_id":"free"},{"bike_id":"3ac6ddb1-80ae-4715-868c-80e0d93903e1","system_id":"levelo_inurba_marseille","lat":43.287184,"lon":5.37937,"is_reserved":false,"is_disabled":false,"rental_uris":{"android":"levelo://app?vid=3ac6ddb1-80ae-4715-868c-80e0d93903e1","ios":"levelo://app?vid=3ac6ddb1-80ae-4715-868c-80e0d93903e1"},"vehicle_type_id":"4","last_reported":1686848739,"current_range_meters":0,"station_id":"ce4bh9p2rcd13ifvqec0","pricing_plan_id":"free"},{"bike_id":"f08809ad-73ec-47ea-8563-8dc2b936f039","system_id":"levelo_inurba_marseille","lat":43.31622,"lon":5.4049,"is_reserved":false,"is_disabled":false,"rental_uris":{"android":"levelo://app?vid=f08809ad-73ec-47ea-8563-8dc2b936f039","ios":"levelo://app?vid=f08809ad-73ec-47ea-8563-8dc2b936f039"},"vehicle_type_id":"4","last_reported":1686848739,"current_range_meters":12000,"station_id":"","pricing_plan_id":"free"},{"bike_id":"72460455-0bb6-4271-ab64-895e9dbaef5c","system_id":"levelo_inurba_marseille","lat":43.28461,"lon":5.35901,"is_reserved":false,"is_disabled":false,"rental_uris":{"android":"levelo://app?vid=72460455-0bb6-4271-ab64-895e9dbaef5c","ios":"levelo://app?vid=72460455-0bb6-4271-ab64-895e9dbaef5c"},"vehicle_type_id":"4","last_reported":1686848739,"current_range_meters":20000,"station_id":"","pricing_plan_id":"free"},{"bike_id":"d575fe95-3583-49a4-b8bf-49217ca4e2fb","system_id":"levelo_inurba_marseille","lat":43.284534,"lon":5.358662,"is_reserved":false,"is_disabled":false,"rental_uris":{"android":"levelo://app?vid=d575fe95-3583-49a4-b8bf-49217ca4e2fb","ios":"levelo://app?vid=d575fe95-3583-49a4-b8bf-49217ca4e2fb"},"vehicle_type_id":"4","last_reported":1686848739,"current_range_meters":10800,"station_id":"ce4bhah2rcd13ifvqei0","pricing_plan_id":"free"},{"bike_id":"f419e7a4-034f-4d5c-918e-7dc90d9b8fb4","system_id":"levelo_inurba_marseille","lat":43.294314,"lon":5.397498,"is_reserved":false,"is_disabled":false,"rental_uris":{"android":"levelo://app?vid=f419e7a4-034f-4d5c-918e-7dc90d9b8fb4","ios":"levelo://app?vid=f419e7a4-034f-4d5c-918e-7dc90d9b8fb4"},"vehicle_type_id":"4","last_reported":1686848739,"current_range_meters":25600,"station_id":"ce4bh3h2rcd13ifvqdo0","pricing_plan_id":"free"},{"bike_id":"0b14604a-c4e5-41b7-b400-0bcf6d918b6c","system_id":"levelo_inurba_marseille","lat":43.295713,"lon":5.399639,"is_reserved":false,"is_disabled":false,"rental_uris":{"android":"levelo://app?vid=0b14604a-c4e5-41b7-b400-0bcf6d918b6c","ios":"levelo://app?vid=0b14604a-c4e5-41b7-b400-0bcf6d918b6c"},"vehicle_type_id":"4","last_reported":1686848739,"current_range_meters":5600,"station_id":"ce4bh312rcd13ifvqdj0","pricing_plan_id":"free"},{"bike_id":"5d4b9797-11cc-4fcf-84c3-fdb0619e486f","system_id":"levelo_inurba_marseille","lat":43.295713,"lon":5.399639,"is_reserved":false,"is_disabled":false,"rental_uris":{"android":"levelo://app?vid=5d4b9797-11cc-4fcf-84c3-fdb0619e486f","ios":"levelo://app?vid=5d4b9797-11cc-4fcf-84c3-fdb0619e486f"},"vehicle_type_id":"4","last_reported":1686848739,"current_range_meters":5600,"station_id":"ce4bh312rcd13ifvqdj0","pricing_plan_id":"free"},{"bike_id":"3109712e-8320-4930-9acc-020421565088","system_id":"levelo_inurba_marseille","lat":43.295713,"lon":5.399639,"is_reserved":false,"is_disabled":false,"rental_uris":{"android":"levelo://app?vid=3109712e-8320-4930-9acc-020421565088","ios":"levelo://app?vid=3109712e-8320-4930-9acc-020421565088"},"vehicle_type_id":"4","last_reported":1686848739,"current_range_meters":18800,"station_id":"ce4bh312rcd13ifvqdj0","pricing_plan_id":"free"},{"bike_id":"d224f002-e9e5-4c02-ad22-bfe648762e07","system_id":"levelo_inurba_marseille","lat":43.286595,"lon":5.386795,"is_reserved":false,"is_disabled":false,"rental_uris":{"android":"levelo://app?vid=d224f002-e9e5-4c02-ad22-bfe648762e07","ios":"levelo://app?vid=d224f002-e9e5-4c02-ad22-bfe648762e07"},"vehicle_type_id":"4","last_reported":1686848739,"current_range_meters":12000,"station_id":"ce4bh492rcd13ifvqdug","pricing_plan_id":"free"},{"bike_id":"027d58f3-84be-409d-a6a8-8e328245bfa4","system_id":"levelo_inurba_marseille","lat":43.286595,"lon":5.386795,"is_reserved":false,"is_disabled":false,"rental_uris":{"android":"levelo://app?vid=027d58f3-84be-409d-a6a8-8e328245bfa4","ios":"levelo://app?vid=027d58f3-84be-409d-a6a8-8e328245bfa4"},"vehicle_type_id":"4","last_reported":1686848739,"current_range_meters":1200,"station_id":"ce4bh492rcd13ifvqdug","pricing_plan_id":"free"},{"bike_id":"a6839177-fb6b-47f6-b52c-9d048f98fd35","system_id":"levelo_inurba_marseille","lat":43.323464,"lon":5.406297,"is_reserved":false,"is_disabled":false,"rental_uris":{"android":"levelo://app?vid=a6839177-fb6b-47f6-b52c-9d048f98fd35","ios":"levelo://app?vid=a6839177-fb6b-47f6-b52c-9d048f98fd35"},"vehicle_type_id":"4","last_reported":1686848739,"current_range_meters":3600,"station_id":"ce4bhq92rcd13ifvqhjg","pricing_plan_id":"free"},{"bike_id":"16e5fedd-6e86-436a-a0a2-72c7cd60a6ea","system_id":"levelo_inurba_marseille","lat":43.323464,"lon":5.406297,"is_reserved":false,"is_disabled":false,"rental_uris":{"android":"levelo://app?vid=16e5fedd-6e86-436a-a0a2-72c7cd60a6ea","ios":"levelo://app?vid=16e5fedd-6e86-436a-a0a2-72c7cd60a6ea"},"vehicle_type_id":"4","last_reported":1686848739,"current_range_meters":31200,"station_id":"ce4bhq92rcd13ifvqhjg","pricing_plan_id":"free"},{"bike_id":"26c128b2-24ff-4735-8883-1c86ed16010f","system_id":"levelo_inurba_marseille","lat":43.33732,"lon":5.39191,"is_reserved":false,"is_disabled":false,"rental_uris":{"android":"levelo://app?vid=26c128b2-24ff-4735-8883-1c86ed16010f","ios":"levelo://app?vid=26c128b2-24ff-4735-8883-1c86ed16010f"},"vehicle_type_id":"4","last_reported":1686848739,"current_range_meters":4800,"station_id":"","pricing_plan_id":"free"},{"bike_id":"73efbde8-70dc-402b-bf13-0e17493d1d2f","system_id":"levelo_inurba_marseille","lat":43.284793,"lon":5.384113,"is_reserved":false,"is_disabled":false,"rental_uris":{"android":"levelo://app?vid=73efbde8-70dc-402b-bf13-0e17493d1d2f","ios":"levelo://app?vid=73efbde8-70dc-402b-bf13-0e17493d1d2f"},"vehicle_type_id":"4","last_reported":1686848739,"current_range_meters":11600,"station_id":"ce4bh512rcd13ifvqe3g","pricing_plan_id":"free"},{"bike_id":"00b4d942-d645-4a17-a320-9c02b5ecca68","system_id":"levelo_inurba_marseille","lat":43.288497,"lon":5.393089,"is_reserved":false,"is_disabled":false,"rental_uris":{"android":"levelo://app?vid=00b4d942-d645-4a17-a320-9c02b5ecca68","ios":"levelo://app?vid=00b4d942-d645-4a17-a320-9c02b5ecca68"},"vehicle_type_id":"4","last_reported":1686848739,"current_range_meters":20800,"station_id":"ce4bh2p2rcd13ifvqdi0","pricing_plan_id":"free"},{"bike_id":"5a83e111-e364-4042-a98d-b82c33565fad","system_id":"levelo_inurba_marseille","lat":43.288497,"lon":5.393089,"is_reserved":false,"is_disabled":false,"rental_uris":{"android":"levelo://app?vid=5a83e111-e364-4042-a98d-b82c33565fad","ios":"levelo://app?vid=5a83e111-e364-4042-a98d-b82c33565fad"},"vehicle_type_id":"4","last_reported":1686848739,"current_range_meters":15600,"station_id":"ce4bh2p2rcd13ifvqdi0","pricing_plan_id":"free"},{"bike_id":"7a39ed81-d63f-481c-9955-d670e9e8dfac","system_id":"levelo_inurba_marseille","lat":43.28431,"lon":5.3501,"is_reserved":false,"is_disabled":false,"rental_uris":{"android":"levelo://app?vid=7a39ed81-d63f-481c-9955-d670e9e8dfac","ios":"levelo://app?vid=7a39ed81-d63f-481c-9955-d670e9e8dfac"},"vehicle_type_id":"4","last_reported":1686848739,"current_range_meters":30400,"station_id":"","pricing_plan_id":"free"},{"bike_id":"96de80de-f678-4c8d-9f49-bc4f613d4533","system_id":"levelo_inurba_marseille","lat":43.28431,"lon":5.34997,"is_reserved":false,"is_disabled":false,"rental_uris":{"android":"levelo://app?vid=96de80de-f678-4c8d-9f49-bc4f613d4533","ios":"levelo://app?vid=96de80de-f678-4c8d-9f49-bc4f613d4533"},"vehicle_type_id":"4","last_reported":1686848739,"current_range_meters":0,"station_id":"ce4bhbh2rcd13ifvqepg","pricing_plan_id":"free"},{"bike_id":"a8c78526-6f19-47e0-bb6d-f31055280dde","system_id":"levelo_inurba_marseille","lat":43.28427,"lon":5.34989,"is_reserved":false,"is_disabled":false,"rental_uris":{"android":"levelo://app?vid=a8c78526-6f19-47e0-bb6d-f31055280dde","ios":"levelo://app?vid=a8c78526-6f19-47e0-bb6d-f31055280dde"},"vehicle_type_id":"4","last_reported":1686848739,"current_range_meters":0,"station_id":"ce4bhbh2rcd13ifvqepg","pricing_plan_id":"free"},{"bike_id":"67fb7bcb-2454-4eec-be93-0cb339fdc69f","system_id":"levelo_inurba_marseille","lat":43.28419,"lon":5.34998,"is_reserved":false,"is_disabled":false,"rental_uris":{"android":"levelo://app?vid=67fb7bcb-2454-4eec-be93-0cb339fdc69f","ios":"levelo://app?vid=67fb7bcb-2454-4eec-be93-0cb339fdc69f"},"vehicle_type_id":"4","last_reported":1686848739,"current_range_meters":5200,"station_id":"ce4bhbh2rcd13ifvqepg","pricing_plan_id":"free"},{"bike_id":"cfdcc4dd-2aa4-426e-a209-82aa6f34486a","system_id":"levelo_inurba_marseille","lat":43.28279,"lon":5.35083,"is_reserved":false,"is_disabled":false,"rental_uris":{"android":"levelo://app?vid=cfdcc4dd-2aa4-426e-a209-82aa6f34486a","ios":"levelo://app?vid=cfdcc4dd-2aa4-426e-a209-82aa6f34486a"},"vehicle_type_id":"4","last_reported":1686848739,"current_range_meters":0,"station_id":"ce4bhbp2rcd13ifvqerg","pricing_plan_id":"free"},{"bike_id":"7e723562-7152-435a-951f-5976c1d860ab","system_id":"levelo_inurba_marseille","lat":43.282754,"lon":5.350519,"is_reserved":false,"is_disabled":false,"rental_uris":{"android":"levelo://app?vid=7e723562-7152-435a-951f-5976c1d860ab","ios":"levelo://app?vid=7e723562-7152-435a-951f-5976c1d860ab"},"vehicle_type_id":"4","last_reported":1686848739,"current_range_meters":6800,"station_id":"ce4bhbp2rcd13ifvqerg","pricing_plan_id":"free"},{"bike_id":"1cb6f58d-e863-4e59-bf26-dc71057aa14e","system_id":"levelo_inurba_marseille","lat":43.28268,"lon":5.35059,"is_reserved":false,"is_disabled":false,"rental_uris":{"android":"levelo://app?vid=1cb6f58d-e863-4e59-bf26-dc71057aa14e","ios":"levelo://app?vid=1cb6f58d-e863-4e59-bf26-dc71057aa14e"},"vehicle_type_id":"4","last_reported":1686848739,"current_range_meters":2000,"station_id":"ce4bhbp2rcd13ifvqerg","pricing_plan_id":"free"},{"bike_id":"5cd7b469-a64d-4bd2-abf1-f3d7bbcdd144","system_id":"levelo_inurba_marseille","lat":43.282744,"lon":5.350533,"is_reserved":false,"is_disabled":false,"rental_uris":{"android":"levelo://app?vid=5cd7b469-a64d-4bd2-abf1-f3d7bbcdd144","ios":"levelo://app?vid=5cd7b469-a64d-4bd2-abf1-f3d7bbcdd144"},"vehicle_type_id":"4","last_reported":1686848739,"current_range_meters":8000,"station_id":"ce4bhbp2rcd13ifvqerg","pricing_plan_id":"free"},{"bike_id":"03f1af0b-ba77-46a7-8991-726a4d62ef5e","system_id":"levelo_inurba_marseille","lat":43.28102,"lon":5.37837,"is_reserved":false,"is_disabled":false,"rental_uris":{"android":"levelo://app?vid=03f1af0b-ba77-46a7-8991-726a4d62ef5e","ios":"levelo://app?vid=03f1af0b-ba77-46a7-8991-726a4d62ef5e"},"vehicle_type_id":"4","last_reported":1686848739,"current_range_meters":20000,"station_id":"ce4bha12rcd13ifvqee0","pricing_plan_id":"free"},{"bike_id":"ac65b73e-2465-468c-8289-45bb06f465f6","system_id":"levelo_inurba_marseille","lat":43.32642,"lon":5.41008,"is_reserved":false,"is_disabled":false,"rental_uris":{"android":"levelo://app?vid=ac65b73e-2465-468c-8289-45bb06f465f6","ios":"levelo://app?vid=ac65b73e-2465-468c-8289-45bb06f465f6"},"vehicle_type_id":"4","last_reported":1686848739,"current_range_meters":26000,"station_id":"ce4bhpp2rcd13ifvqhgg","pricing_plan_id":"free"},{"bike_id":"a5c64903-c0a0-4f98-86c8-70ca044a1cc1","system_id":"levelo_inurba_marseille","lat":43.30423,"lon":5.4128,"is_reserved":false,"is_disabled":false,"rental_uris":{"android":"levelo://app?vid=a5c64903-c0a0-4f98-86c8-70ca044a1cc1","ios":"levelo://app?vid=a5c64903-c0a0-4f98-86c8-70ca044a1cc1"},"vehicle_type_id":"4","last_reported":1686848739,"current_range_meters":29200,"station_id":"ce4bhop2rcd13ifvqh8g","pricing_plan_id":"free"},{"bike_id":"ea3589d6-c4fc-4fbf-be83-018ba3587217","system_id":"levelo_inurba_marseille","lat":43.28082,"lon":5.38702,"is_reserved":false,"is_disabled":false,"rental_uris":{"android":"levelo://app?vid=ea3589d6-c4fc-4fbf-be83-018ba3587217","ios":"levelo://app?vid=ea3589d6-c4fc-4fbf-be83-018ba3587217"},"vehicle_type_id":"4","last_reported":1686848739,"current_range_meters":16400,"station_id":"","pricing_plan_id":"free"},{"bike_id":"53c8af7c-4377-47c3-9e8a-c293d1368e50","system_id":"levelo_inurba_marseille","lat":43.287154,"lon":5.399979,"is_reserved":false,"is_disabled":false,"rental_uris":{"android":"levelo://app?vid=53c8af7c-4377-47c3-9e8a-c293d1368e50","ios":"levelo://app?vid=53c8af7c-4377-47c3-9e8a-c293d1368e50"},"vehicle_type_id":"4","last_reported":1686848739,"current_range_meters":12400,"station_id":"ce4bho92rcd13ifvqh3g","pricing_plan_id":"free"},{"bike_id":"15b5b07a-0283-40ab-93f0-68c73ad04d44","system_id":"levelo_inurba_marseille","lat":43.320045,"lon":5.415048,"is_reserved":false,"is_disabled":false,"rental_uris":{"android":"levelo://app?vid=15b5b07a-0283-40ab-93f0-68c73ad04d44","ios":"levelo://app?vid=15b5b07a-0283-40ab-93f0-68c73ad04d44"},"vehicle_type_id":"4","last_reported":1686848739,"current_range_meters":29600,"station_id":"ce4bhq92rcd13ifvqhkg","pricing_plan_id":"free"},{"bike_id":"3a99ede3-5a5e-4336-95ee-f50b04e49afe","system_id":"levelo_inurba_marseille","lat":43.320045,"lon":5.415048,"is_reserved":false,"is_disabled":false,"rental_uris":{"android":"levelo://app?vid=3a99ede3-5a5e-4336-95ee-f50b04e49afe","ios":"levelo://app?vid=3a99ede3-5a5e-4336-95ee-f50b04e49afe"},"vehicle_type_id":"4","last_reported":1686848739,"current_range_meters":31200,"station_id":"ce4bhq92rcd13ifvqhkg","pricing_plan_id":"free"},{"bike_id":"d1816290-ceb3-480c-914c-8cd16fa9657e","system_id":"levelo_inurba_marseille","lat":43.320045,"lon":5.415046,"is_reserved":false,"is_disabled":false,"rental_uris":{"android":"levelo://app?vid=d1816290-ceb3-480c-914c-8cd16fa9657e","ios":"levelo://app?vid=d1816290-ceb3-480c-914c-8cd16fa9657e"},"vehicle_type_id":"4","last_reported":1686848739,"current_range_meters":18800,"station_id":"ce4bhq92rcd13ifvqhkg","pricing_plan_id":"free"},{"bike_id":"84d77f7f-02fe-44ee-9672-ae98d16545ac","system_id":"levelo_inurba_marseille","lat":43.320045,"lon":5.415046,"is_reserved":false,"is_disabled":false,"rental_uris":{"android":"levelo://app?vid=84d77f7f-02fe-44ee-9672-ae98d16545ac","ios":"levelo://app?vid=84d77f7f-02fe-44ee-9672-ae98d16545ac"},"vehicle_type_id":"4","last_reported":1686848739,"current_range_meters":24000,"station_id":"ce4bhq92rcd13ifvqhkg","pricing_plan_id":"free"},{"bike_id":"53398520-fc69-4a58-bd3d-81cd8a9088a2","system_id":"levelo_inurba_marseille","lat":43.320045,"lon":5.415046,"is_reserved":false,"is_disabled":false,"rental_uris":{"android":"levelo://app?vid=53398520-fc69-4a58-bd3d-81cd8a9088a2","ios":"levelo://app?vid=53398520-fc69-4a58-bd3d-81cd8a9088a2"},"vehicle_type_id":"4","last_reported":1686848739,"current_range_meters":25200,"station_id":"ce4bhq92rcd13ifvqhkg","pricing_plan_id":"free"},{"bike_id":"65bac0c1-56c6-4bdb-a45a-2ed4d311ea2f","system_id":"levelo_inurba_marseille","lat":43.320045,"lon":5.415046,"is_reserved":false,"is_disabled":false,"rental_uris":{"android":"levelo://app?vid=65bac0c1-56c6-4bdb-a45a-2ed4d311ea2f","ios":"levelo://app?vid=65bac0c1-56c6-4bdb-a45a-2ed4d311ea2f"},"vehicle_type_id":"4","last_reported":1686848739,"current_range_meters":28000,"station_id":"ce4bhq92rcd13ifvqhkg","pricing_plan_id":"free"},{"bike_id":"2c3948bd-6c10-4db9-ada3-521d6910a7e3","system_id":"levelo_inurba_marseille","lat":43.320502,"lon":5.415423,"is_reserved":false,"is_disabled":false,"rental_uris":{"android":"levelo://app?vid=2c3948bd-6c10-4db9-ada3-521d6910a7e3","ios":"levelo://app?vid=2c3948bd-6c10-4db9-ada3-521d6910a7e3"},"vehicle_type_id":"4","last_reported":1686848739,"current_range_meters":27200,"station_id":"","pricing_plan_id":"free"},{"bike_id":"a39ec750-1e0c-4e6e-860b-1932ca108867","system_id":"levelo_inurba_marseille","lat":43.320045,"lon":5.415046,"is_reserved":false,"is_disabled":false,"rental_uris":{"android":"levelo://app?vid=a39ec750-1e0c-4e6e-860b-1932ca108867","ios":"levelo://app?vid=a39ec750-1e0c-4e6e-860b-1932ca108867"},"vehicle_type_id":"4","last_reported":1686848739,"current_range_meters":31200,"station_id":"ce4bhq92rcd13ifvqhkg","pricing_plan_id":"free"},{"bike_id":"4cc7a971-177b-4721-8565-f98e8dd35720","system_id":"levelo_inurba_marseille","lat":43.320045,"lon":5.415046,"is_reserved":false,"is_disabled":false,"rental_uris":{"android":"levelo://app?vid=4cc7a971-177b-4721-8565-f98e8dd35720","ios":"levelo://app?vid=4cc7a971-177b-4721-8565-f98e8dd35720"},"vehicle_type_id":"4","last_reported":1686848739,"current_range_meters":15200,"station_id":"ce4bhq92rcd13ifvqhkg","pricing_plan_id":"free"},{"bike_id":"b84d18b4-d694-4d91-aa5d-1980d84c55c2","system_id":"levelo_inurba_marseille","lat":43.320045,"lon":5.415048,"is_reserved":false,"is_disabled":false,"rental_uris":{"android":"levelo://app?vid=b84d18b4-d694-4d91-aa5d-1980d84c55c2","ios":"levelo://app?vid=b84d18b4-d694-4d91-aa5d-1980d84c55c2"},"vehicle_type_id":"4","last_reported":1686848739,"current_range_meters":24400,"station_id":"ce4bhq92rcd13ifvqhkg","pricing_plan_id":"free"},{"bike_id":"f8b88a71-98bc-48a9-b8ec-241d259f21b3","system_id":"levelo_inurba_marseille","lat":43.32037,"lon":5.41549,"is_reserved":false,"is_disabled":false,"rental_uris":{"android":"levelo://app?vid=f8b88a71-98bc-48a9-b8ec-241d259f21b3","ios":"levelo://app?vid=f8b88a71-98bc-48a9-b8ec-241d259f21b3"},"vehicle_type_id":"4","last_reported":1686848739,"current_range_meters":30000,"station_id":"ce4bhq92rcd13ifvqhkg","pricing_plan_id":"free"},{"bike_id":"b1380b1f-af6b-475a-a3ab-a9dcc9840d05","system_id":"levelo_inurba_marseille","lat":43.299577,"lon":5.413277,"is_reserved":false,"is_disabled":false,"rental_uris":{"android":"levelo://app?vid=b1380b1f-af6b-475a-a3ab-a9dcc9840d05","ios":"levelo://app?vid=b1380b1f-af6b-475a-a3ab-a9dcc9840d05"},"vehicle_type_id":"4","last_reported":1686848739,"current_range_meters":1600,"station_id":"ce4bhp12rcd13ifvqh9g","pricing_plan_id":"free"},{"bike_id":"4c690297-2995-44ba-9c9b-859f25452df9","system_id":"levelo_inurba_marseille","lat":43.320045,"lon":5.415048,"is_reserved":false,"is_disabled":false,"rental_uris":{"android":"levelo://app?vid=4c690297-2995-44ba-9c9b-859f25452df9","ios":"levelo://app?vid=4c690297-2995-44ba-9c9b-859f25452df9"},"vehicle_type_id":"4","last_reported":1686848739,"current_range_meters":28000,"station_id":"ce4bhq92rcd13ifvqhkg","pricing_plan_id":"free"},{"bike_id":"12ed0950-6565-4559-bae1-3fbf302b0519","system_id":"levelo_inurba_marseille","lat":43.320045,"lon":5.415046,"is_reserved":false,"is_disabled":false,"rental_uris":{"android":"levelo://app?vid=12ed0950-6565-4559-bae1-3fbf302b0519","ios":"levelo://app?vid=12ed0950-6565-4559-bae1-3fbf302b0519"},"vehicle_type_id":"4","last_reported":1686848739,"current_range_meters":24000,"station_id":"ce4bhq92rcd13ifvqhkg","pricing_plan_id":"free"},{"bike_id":"b4adf626-3ba2-4020-9bae-0e53ae8de78a","system_id":"levelo_inurba_marseille","lat":43.279742,"lon":5.38744,"is_reserved":false,"is_disabled":false,"rental_uris":{"android":"levelo://app?vid=b4adf626-3ba2-4020-9bae-0e53ae8de78a","ios":"levelo://app?vid=b4adf626-3ba2-4020-9bae-0e53ae8de78a"},"vehicle_type_id":"4","last_reported":1686848739,"current_range_meters":0,"station_id":"ce4bhg12rcd13ifvqf80","pricing_plan_id":"free"},{"bike_id":"aaa08283-b9de-4916-8a2b-1936aa2d28de","system_id":"levelo_inurba_marseille","lat":43.320045,"lon":5.415048,"is_reserved":false,"is_disabled":false,"rental_uris":{"android":"levelo://app?vid=aaa08283-b9de-4916-8a2b-1936aa2d28de","ios":"levelo://app?vid=aaa08283-b9de-4916-8a2b-1936aa2d28de"},"vehicle_type_id":"4","last_reported":1686848739,"current_range_meters":31200,"station_id":"ce4bhq92rcd13ifvqhkg","pricing_plan_id":"free"},{"bike_id":"5bfbbe42-99fb-412b-ba1c-bbe7f34a2d31","system_id":"levelo_inurba_marseille","lat":43.320482,"lon":5.41553,"is_reserved":false,"is_disabled":false,"rental_uris":{"android":"levelo://app?vid=5bfbbe42-99fb-412b-ba1c-bbe7f34a2d31","ios":"levelo://app?vid=5bfbbe42-99fb-412b-ba1c-bbe7f34a2d31"},"vehicle_type_id":"4","last_reported":1686848739,"current_range_meters":26400,"station_id":"","pricing_plan_id":"free"},{"bike_id":"47024854-e41a-4509-b8a3-7b540be5e122","system_id":"levelo_inurba_marseille","lat":43.320045,"lon":5.415048,"is_reserved":false,"is_disabled":false,"rental_uris":{"android":"levelo://app?vid=47024854-e41a-4509-b8a3-7b540be5e122","ios":"levelo://app?vid=47024854-e41a-4509-b8a3-7b540be5e122"},"vehicle_type_id":"4","last_reported":1686848739,"current_range_meters":31200,"station_id":"ce4bhq92rcd13ifvqhkg","pricing_plan_id":"free"},{"bike_id":"c6c00542-8f3d-41ea-9304-dcbe0c4b4ce6","system_id":"levelo_inurba_marseille","lat":43.320045,"lon":5.415048,"is_reserved":false,"is_disabled":false,"rental_uris":{"android":"levelo://app?vid=c6c00542-8f3d-41ea-9304-dcbe0c4b4ce6","ios":"levelo://app?vid=c6c00542-8f3d-41ea-9304-dcbe0c4b4ce6"},"vehicle_type_id":"4","last_reported":1686848739,"current_range_meters":26400,"station_id":"ce4bhq92rcd13ifvqhkg","pricing_plan_id":"free"},{"bike_id":"630cedd6-b02a-4070-b53e-67f15cff3ad8","system_id":"levelo_inurba_marseille","lat":43.279742,"lon":5.38744,"is_reserved":false,"is_disabled":false,"rental_uris":{"android":"levelo://app?vid=630cedd6-b02a-4070-b53e-67f15cff3ad8","ios":"levelo://app?vid=630cedd6-b02a-4070-b53e-67f15cff3ad8"},"vehicle_type_id":"4","last_reported":1686848739,"current_range_meters":1600,"station_id":"ce4bhg12rcd13ifvqf80","pricing_plan_id":"free"},{"bike_id":"023dd3ff-5fb1-43f8-89a7-76154cfa4c27","system_id":"levelo_inurba_marseille","lat":43.279742,"lon":5.38744,"is_reserved":false,"is_disabled":false,"rental_uris":{"android":"levelo://app?vid=023dd3ff-5fb1-43f8-89a7-76154cfa4c27","ios":"levelo://app?vid=023dd3ff-5fb1-43f8-89a7-76154cfa4c27"},"vehicle_type_id":"4","last_reported":1686848739,"current_range_meters":15200,"station_id":"ce4bhg12rcd13ifvqf80","pricing_plan_id":"free"},{"bike_id":"c2f55d59-a8a1-46fa-a569-7a734176255f","system_id":"levelo_inurba_marseille","lat":43.320045,"lon":5.415046,"is_reserved":false,"is_disabled":false,"rental_uris":{"android":"levelo://app?vid=c2f55d59-a8a1-46fa-a569-7a734176255f","ios":"levelo://app?vid=c2f55d59-a8a1-46fa-a569-7a734176255f"},"vehicle_type_id":"4","last_reported":1686848739,"current_range_meters":26800,"station_id":"ce4bhq92rcd13ifvqhkg","pricing_plan_id":"free"},{"bike_id":"0d766cb6-769f-4932-8e7a-6e11f8395820","system_id":"levelo_inurba_marseille","lat":43.320045,"lon":5.415046,"is_reserved":false,"is_disabled":false,"rental_uris":{"android":"levelo://app?vid=0d766cb6-769f-4932-8e7a-6e11f8395820","ios":"levelo://app?vid=0d766cb6-769f-4932-8e7a-6e11f8395820"},"vehicle_type_id":"4","last_reported":1686848739,"current_range_meters":27600,"station_id":"ce4bhq92rcd13ifvqhkg","pricing_plan_id":"free"},{"bike_id":"b3016403-edd8-4ffd-a2b9-1b615850a062","system_id":"levelo_inurba_marseille","lat":43.320045,"lon":5.415046,"is_reserved":false,"is_disabled":false,"rental_uris":{"android":"levelo://app?vid=b3016403-edd8-4ffd-a2b9-1b615850a062","ios":"levelo://app?vid=b3016403-edd8-4ffd-a2b9-1b615850a062"},"vehicle_type_id":"4","last_reported":1686848739,"current_range_meters":31200,"station_id":"ce4bhq92rcd13ifvqhkg","pricing_plan_id":"free"},{"bike_id":"20487ca9-95a5-45ec-87fd-5787bfde4468","system_id":"levelo_inurba_marseille","lat":43.292571,"lon":5.409107,"is_reserved":false,"is_disabled":false,"rental_uris":{"android":"levelo://app?vid=20487ca9-95a5-45ec-87fd-5787bfde4468","ios":"levelo://app?vid=20487ca9-95a5-45ec-87fd-5787bfde4468"},"vehicle_type_id":"4","last_reported":1686848739,"current_range_meters":3600,"station_id":"ce4bh192rcd13ifvqdc0","pricing_plan_id":"free"},{"bike_id":"2104218a-e499-4e38-8042-e546e2edf6b3","system_id":"levelo_inurba_marseille","lat":43.292571,"lon":5.409107,"is_reserved":false,"is_disabled":false,"rental_uris":{"android":"levelo://app?vid=2104218a-e499-4e38-8042-e546e2edf6b3","ios":"levelo://app?vid=2104218a-e499-4e38-8042-e546e2edf6b3"},"vehicle_type_id":"4","last_reported":1686848739,"current_range_meters":18000,"station_id":"ce4bh192rcd13ifvqdc0","pricing_plan_id":"free"},{"bike_id":"e34f5c39-3c19-4a94-828a-96ebe3389119","system_id":"levelo_inurba_marseille","lat":43.292571,"lon":5.409107,"is_reserved":false,"is_disabled":false,"rental_uris":{"android":"levelo://app?vid=e34f5c39-3c19-4a94-828a-96ebe3389119","ios":"levelo://app?vid=e34f5c39-3c19-4a94-828a-96ebe3389119"},"vehicle_type_id":"4","last_reported":1686848739,"current_range_meters":1200,"station_id":"ce4bh192rcd13ifvqdc0","pricing_plan_id":"free"},{"bike_id":"c0e46370-e26b-47c8-8707-74925be3abd5","system_id":"levelo_inurba_marseille","lat":43.27624,"lon":5.36105,"is_reserved":false,"is_disabled":false,"rental_uris":{"android":"levelo://app?vid=c0e46370-e26b-47c8-8707-74925be3abd5","ios":"levelo://app?vid=c0e46370-e26b-47c8-8707-74925be3abd5"},"vehicle_type_id":"4","last_reported":1686848739,"current_range_meters":12400,"station_id":"ce4bgj92rcd13ifvqbe0","pricing_plan_id":"free"},{"bike_id":"df3641db-765e-4966-adee-0b7eeabfdd7c","system_id":"levelo_inurba_marseille","lat":43.27622,"lon":5.36106,"is_reserved":false,"is_disabled":false,"rental_uris":{"android":"levelo://app?vid=df3641db-765e-4966-adee-0b7eeabfdd7c","ios":"levelo://app?vid=df3641db-765e-4966-adee-0b7eeabfdd7c"},"vehicle_type_id":"4","last_reported":1686848739,"current_range_meters":2800,"station_id":"ce4bgj92rcd13ifvqbe0","pricing_plan_id":"free"},{"bike_id":"b1c1e3f0-a91c-4368-b8f7-ce9d2f484b9c","system_id":"levelo_inurba_marseille","lat":43.276179,"lon":5.361009,"is_reserved":false,"is_disabled":false,"rental_uris":{"android":"levelo://app?vid=b1c1e3f0-a91c-4368-b8f7-ce9d2f484b9c","ios":"levelo://app?vid=b1c1e3f0-a91c-4368-b8f7-ce9d2f484b9c"},"vehicle_type_id":"4","last_reported":1686848739,"current_range_meters":30800,"station_id":"ce4bgj92rcd13ifvqbe0","pricing_plan_id":"free"},{"bike_id":"15187aaf-cac0-481b-9ed8-71ba665f8cb7","system_id":"levelo_inurba_marseille","lat":43.276179,"lon":5.361009,"is_reserved":false,"is_disabled":false,"rental_uris":{"android":"levelo://app?vid=15187aaf-cac0-481b-9ed8-71ba665f8cb7","ios":"levelo://app?vid=15187aaf-cac0-481b-9ed8-71ba665f8cb7"},"vehicle_type_id":"4","last_reported":1686848739,"current_range_meters":29600,"station_id":"ce4bgj92rcd13ifvqbe0","pricing_plan_id":"free"},{"bike_id":"62db5382-800b-4a88-a1cb-1a7da032f095","system_id":"levelo_inurba_marseille","lat":43.276179,"lon":5.361009,"is_reserved":false,"is_disabled":false,"rental_uris":{"android":"levelo://app?vid=62db5382-800b-4a88-a1cb-1a7da032f095","ios":"levelo://app?vid=62db5382-800b-4a88-a1cb-1a7da032f095"},"vehicle_type_id":"4","last_reported":1686848739,"current_range_meters":5200,"station_id":"ce4bgj92rcd13ifvqbe0","pricing_plan_id":"free"},{"bike_id":"ad13db9c-6659-4523-bb3d-12059a026b83","system_id":"levelo_inurba_marseille","lat":43.276179,"lon":5.361009,"is_reserved":false,"is_disabled":false,"rental_uris":{"android":"levelo://app?vid=ad13db9c-6659-4523-bb3d-12059a026b83","ios":"levelo://app?vid=ad13db9c-6659-4523-bb3d-12059a026b83"},"vehicle_type_id":"4","last_reported":1686848739,"current_range_meters":20400,"station_id":"ce4bgj92rcd13ifvqbe0","pricing_plan_id":"free"},{"bike_id":"98414791-5865-4bdd-a3f8-a28de112ea24","system_id":"levelo_inurba_marseille","lat":43.280784,"lon":5.396622,"is_reserved":false,"is_disabled":false,"rental_uris":{"android":"levelo://app?vid=98414791-5865-4bdd-a3f8-a28de112ea24","ios":"levelo://app?vid=98414791-5865-4bdd-a3f8-a28de112ea24"},"vehicle_type_id":"4","last_reported":1686848739,"current_range_meters":400,"station_id":"ce4bho12rcd13ifvqh2g","pricing_plan_id":"free"},{"bike_id":"ca4c61c3-c677-43c7-84a8-a72a57786719","system_id":"levelo_inurba_marseille","lat":43.303837,"lon":5.418724,"is_reserved":false,"is_disabled":false,"rental_uris":{"android":"levelo://app?vid=ca4c61c3-c677-43c7-84a8-a72a57786719","ios":"levelo://app?vid=ca4c61c3-c677-43c7-84a8-a72a57786719"},"vehicle_type_id":"4","last_reported":1686848739,"current_range_meters":0,"station_id":"ce4bhop2rcd13ifvqh7g","pricing_plan_id":"free"},{"bike_id":"9e1696ea-d2d4-4b98-ae63-626e8fd77c8a","system_id":"levelo_inurba_marseille","lat":43.278399,"lon":5.392139,"is_reserved":false,"is_disabled":false,"rental_uris":{"android":"levelo://app?vid=9e1696ea-d2d4-4b98-ae63-626e8fd77c8a","ios":"levelo://app?vid=9e1696ea-d2d4-4b98-ae63-626e8fd77c8a"},"vehicle_type_id":"4","last_reported":1686848739,"current_range_meters":6800,"station_id":"ce4bhjp2rcd13ifvqga0","pricing_plan_id":"free"},{"bike_id":"3c88d91b-fdfd-4015-a72d-74659c1d1937","system_id":"levelo_inurba_marseille","lat":43.27384,"lon":5.36254,"is_reserved":false,"is_disabled":false,"rental_uris":{"android":"levelo://app?vid=3c88d91b-fdfd-4015-a72d-74659c1d1937","ios":"levelo://app?vid=3c88d91b-fdfd-4015-a72d-74659c1d1937"},"vehicle_type_id":"4","last_reported":1686848739,"current_range_meters":13600,"station_id":"","pricing_plan_id":"free"},{"bike_id":"e8c99334-4905-48e2-b3d8-07d40351b41d","system_id":"levelo_inurba_marseille","lat":43.27383,"lon":5.36257,"is_reserved":false,"is_disabled":false,"rental_uris":{"android":"levelo://app?vid=e8c99334-4905-48e2-b3d8-07d40351b41d","ios":"levelo://app?vid=e8c99334-4905-48e2-b3d8-07d40351b41d"},"vehicle_type_id":"4","last_reported":1686848739,"current_range_meters":29200,"station_id":"","pricing_plan_id":"free"},{"bike_id":"016dc143-d186-4a4a-b4ef-6d472f3a0e8a","system_id":"levelo_inurba_marseille","lat":43.273609,"lon":5.362708,"is_reserved":false,"is_disabled":false,"rental_uris":{"android":"levelo://app?vid=016dc143-d186-4a4a-b4ef-6d472f3a0e8a","ios":"levelo://app?vid=016dc143-d186-4a4a-b4ef-6d472f3a0e8a"},"vehicle_type_id":"4","last_reported":1686848739,"current_range_meters":17600,"station_id":"ce4bhbh2rcd13ifvqeo0","pricing_plan_id":"free"},{"bike_id":"2563e8c7-5565-4674-ba56-d539965182bb","system_id":"levelo_inurba_marseille","lat":43.27382,"lon":5.36253,"is_reserved":false,"is_disabled":false,"rental_uris":{"android":"levelo://app?vid=2563e8c7-5565-4674-ba56-d539965182bb","ios":"levelo://app?vid=2563e8c7-5565-4674-ba56-d539965182bb"},"vehicle_type_id":"4","last_reported":1686848739,"current_range_meters":28400,"station_id":"","pricing_plan_id":"free"},{"bike_id":"ee05eaa3-25e3-4af2-98bf-c2d8f67c04be","system_id":"levelo_inurba_marseille","lat":43.2738,"lon":5.36267,"is_reserved":false,"is_disabled":false,"rental_uris":{"android":"levelo://app?vid=ee05eaa3-25e3-4af2-98bf-c2d8f67c04be","ios":"levelo://app?vid=ee05eaa3-25e3-4af2-98bf-c2d8f67c04be"},"vehicle_type_id":"4","last_reported":1686848739,"current_range_meters":2000,"station_id":"ce4bhbh2rcd13ifvqeo0","pricing_plan_id":"free"},{"bike_id":"4820a02d-6192-458b-a469-26c9ac6a0e74","system_id":"levelo_inurba_marseille","lat":43.2738,"lon":5.36263,"is_reserved":false,"is_disabled":false,"rental_uris":{"android":"levelo://app?vid=4820a02d-6192-458b-a469-26c9ac6a0e74","ios":"levelo://app?vid=4820a02d-6192-458b-a469-26c9ac6a0e74"},"vehicle_type_id":"4","last_reported":1686848739,"current_range_meters":14400,"station_id":"ce4bhbh2rcd13ifvqeo0","pricing_plan_id":"free"},{"bike_id":"bc6a90c4-b9c3-49e7-8c15-fb95e284d397","system_id":"levelo_inurba_marseille","lat":43.2738,"lon":5.36259,"is_reserved":false,"is_disabled":false,"rental_uris":{"android":"levelo://app?vid=bc6a90c4-b9c3-49e7-8c15-fb95e284d397","ios":"levelo://app?vid=bc6a90c4-b9c3-49e7-8c15-fb95e284d397"},"vehicle_type_id":"4","last_reported":1686848739,"current_range_meters":11200,"station_id":"ce4bhbh2rcd13ifvqeo0","pricing_plan_id":"free"},{"bike_id":"fc783805-8cb1-4e67-ab15-28bb6de08597","system_id":"levelo_inurba_marseille","lat":43.27378,"lon":5.36266,"is_reserved":false,"is_disabled":false,"rental_uris":{"android":"levelo://app?vid=fc783805-8cb1-4e67-ab15-28bb6de08597","ios":"levelo://app?vid=fc783805-8cb1-4e67-ab15-28bb6de08597"},"vehicle_type_id":"4","last_reported":1686848739,"current_range_meters":10800,"station_id":"ce4bhbh2rcd13ifvqeo0","pricing_plan_id":"free"},{"bike_id":"8e351658-1598-4b54-a036-1248359cfcf6","system_id":"levelo_inurba_marseille","lat":43.27378,"lon":5.36264,"is_reserved":false,"is_disabled":false,"rental_uris":{"android":"levelo://app?vid=8e351658-1598-4b54-a036-1248359cfcf6","ios":"levelo://app?vid=8e351658-1598-4b54-a036-1248359cfcf6"},"vehicle_type_id":"4","last_reported":1686848739,"current_range_meters":3200,"station_id":"ce4bhbh2rcd13ifvqeo0","pricing_plan_id":"free"},{"bike_id":"793cdb89-c0c9-4138-9736-e9ab9e774f4e","system_id":"levelo_inurba_marseille","lat":43.27378,"lon":5.36262,"is_reserved":false,"is_disabled":false,"rental_uris":{"android":"levelo://app?vid=793cdb89-c0c9-4138-9736-e9ab9e774f4e","ios":"levelo://app?vid=793cdb89-c0c9-4138-9736-e9ab9e774f4e"},"vehicle_type_id":"4","last_reported":1686848739,"current_range_meters":16000,"station_id":"ce4bhbh2rcd13ifvqeo0","pricing_plan_id":"free"},{"bike_id":"d5ce0bbc-52ce-4d8b-b06e-c73c0d59182f","system_id":"levelo_inurba_marseille","lat":43.27377,"lon":5.36271,"is_reserved":false,"is_disabled":false,"rental_uris":{"android":"levelo://app?vid=d5ce0bbc-52ce-4d8b-b06e-c73c0d59182f","ios":"levelo://app?vid=d5ce0bbc-52ce-4d8b-b06e-c73c0d59182f"},"vehicle_type_id":"4","last_reported":1686848739,"current_range_meters":31200,"station_id":"ce4bhbh2rcd13ifvqeo0","pricing_plan_id":"free"},{"bike_id":"91b4d960-73f8-4e9b-95d3-0e9c2b737ed9","system_id":"levelo_inurba_marseille","lat":43.273613,"lon":5.362705,"is_reserved":false,"is_disabled":false,"rental_uris":{"android":"levelo://app?vid=91b4d960-73f8-4e9b-95d3-0e9c2b737ed9","ios":"levelo://app?vid=91b4d960-73f8-4e9b-95d3-0e9c2b737ed9"},"vehicle_type_id":"4","last_reported":1686848739,"current_range_meters":400,"station_id":"ce4bhbh2rcd13ifvqeo0","pricing_plan_id":"free"},{"bike_id":"9f05e714-4070-42aa-93e0-c548e370b4fc","system_id":"levelo_inurba_marseille","lat":43.27375,"lon":5.36259,"is_reserved":false,"is_disabled":false,"rental_uris":{"android":"levelo://app?vid=9f05e714-4070-42aa-93e0-c548e370b4fc","ios":"levelo://app?vid=9f05e714-4070-42aa-93e0-c548e370b4fc"},"vehicle_type_id":"4","last_reported":1686848739,"current_range_meters":25600,"station_id":"ce4bhbh2rcd13ifvqeo0","pricing_plan_id":"free"},{"bike_id":"023e9a9e-db6b-4f4e-a1a8-68b285de7f2a","system_id":"levelo_inurba_marseille","lat":43.27375,"lon":5.36257,"is_reserved":false,"is_disabled":false,"rental_uris":{"android":"levelo://app?vid=023e9a9e-db6b-4f4e-a1a8-68b285de7f2a","ios":"levelo://app?vid=023e9a9e-db6b-4f4e-a1a8-68b285de7f2a"},"vehicle_type_id":"4","last_reported":1686848739,"current_range_meters":31600,"station_id":"ce4bhbh2rcd13ifvqeo0","pricing_plan_id":"free"},{"bike_id":"14729b10-ca16-4050-b4d5-a772eb158039","system_id":"levelo_inurba_marseille","lat":43.273609,"lon":5.362708,"is_reserved":false,"is_disabled":false,"rental_uris":{"android":"levelo://app?vid=14729b10-ca16-4050-b4d5-a772eb158039","ios":"levelo://app?vid=14729b10-ca16-4050-b4d5-a772eb158039"},"vehicle_type_id":"4","last_reported":1686848739,"current_range_meters":18800,"station_id":"ce4bhbh2rcd13ifvqeo0","pricing_plan_id":"free"},{"bike_id":"f264bc02-5ce6-4d2c-b555-aa121a8a15e8","system_id":"levelo_inurba_marseille","lat":43.27373,"lon":5.36259,"is_reserved":false,"is_disabled":false,"rental_uris":{"android":"levelo://app?vid=f264bc02-5ce6-4d2c-b555-aa121a8a15e8","ios":"levelo://app?vid=f264bc02-5ce6-4d2c-b555-aa121a8a15e8"},"vehicle_type_id":"4","last_reported":1686848739,"current_range_meters":0,"station_id":"ce4bhbh2rcd13ifvqeo0","pricing_plan_id":"free"},{"bike_id":"22edf628-67cc-444e-b156-45b088a1a80c","system_id":"levelo_inurba_marseille","lat":43.27372,"lon":5.36254,"is_reserved":false,"is_disabled":false,"rental_uris":{"android":"levelo://app?vid=22edf628-67cc-444e-b156-45b088a1a80c","ios":"levelo://app?vid=22edf628-67cc-444e-b156-45b088a1a80c"},"vehicle_type_id":"4","last_reported":1686848739,"current_range_meters":20800,"station_id":"ce4bhbh2rcd13ifvqeo0","pricing_plan_id":"free"},{"bike_id":"f82c4e0b-ce86-4de4-962b-f266d6ba506e","system_id":"levelo_inurba_marseille","lat":43.273119,"lon":5.390671,"is_reserved":false,"is_disabled":false,"rental_uris":{"android":"levelo://app?vid=f82c4e0b-ce86-4de4-962b-f266d6ba506e","ios":"levelo://app?vid=f82c4e0b-ce86-4de4-962b-f266d6ba506e"},"vehicle_type_id":"4","last_reported":1686848739,"current_range_meters":16400,"station_id":"ce4bhgp2rcd13ifvqfe0","pricing_plan_id":"free"},{"bike_id":"57c41816-3371-42c4-a11e-5f81b12ca51c","system_id":"levelo_inurba_marseille","lat":43.27421,"lon":5.39405,"is_reserved":false,"is_disabled":false,"rental_uris":{"android":"levelo://app?vid=57c41816-3371-42c4-a11e-5f81b12ca51c","ios":"levelo://app?vid=57c41816-3371-42c4-a11e-5f81b12ca51c"},"vehicle_type_id":"4","last_reported":1686848739,"current_range_meters":31200,"station_id":"ce4bhdp2rcd13ifvqf20","pricing_plan_id":"free"},{"bike_id":"6e287b09-82a7-4413-a7d6-d182f3d19a55","system_id":"levelo_inurba_marseille","lat":43.27422,"lon":5.39409,"is_reserved":false,"is_disabled":false,"rental_uris":{"android":"levelo://app?vid=6e287b09-82a7-4413-a7d6-d182f3d19a55","ios":"levelo://app?vid=6e287b09-82a7-4413-a7d6-d182f3d19a55"},"vehicle_type_id":"4","last_reported":1686848739,"current_range_meters":31200,"station_id":"ce4bhdp2rcd13ifvqf20","pricing_plan_id":"free"},{"bike_id":"326b453c-f42e-4f99-97cc-3c8ecf046add","system_id":"levelo_inurba_marseille","lat":43.274218,"lon":5.394154,"is_reserved":false,"is_disabled":false,"rental_uris":{"android":"levelo://app?vid=326b453c-f42e-4f99-97cc-3c8ecf046add","ios":"levelo://app?vid=326b453c-f42e-4f99-97cc-3c8ecf046add"},"vehicle_type_id":"4","last_reported":1686848739,"current_range_meters":31200,"station_id":"ce4bhdp2rcd13ifvqf20","pricing_plan_id":"free"},{"bike_id":"b6ae69e0-7c94-485c-91e3-c97468913591","system_id":"levelo_inurba_marseille","lat":43.295523,"lon":5.422926,"is_reserved":false,"is_disabled":false,"rental_uris":{"android":"levelo://app?vid=b6ae69e0-7c94-485c-91e3-c97468913591","ios":"levelo://app?vid=b6ae69e0-7c94-485c-91e3-c97468913591"},"vehicle_type_id":"4","last_reported":1686848739,"current_range_meters":1200,"station_id":"ce4bhph2rcd13ifvqhdg","pricing_plan_id":"free"},{"bike_id":"f7530379-6791-42af-8b5e-ee4ef4442522","system_id":"levelo_inurba_marseille","lat":43.27817,"lon":5.40721,"is_reserved":false,"is_disabled":false,"rental_uris":{"android":"levelo://app?vid=f7530379-6791-42af-8b5e-ee4ef4442522","ios":"levelo://app?vid=f7530379-6791-42af-8b5e-ee4ef4442522"},"vehicle_type_id":"4","last_reported":1686848739,"current_range_meters":2800,"station_id":"ce4bhnh2rcd13ifvqgtg","pricing_plan_id":"free"},{"bike_id":"539b9a64-b609-4266-9946-ee2326864026","system_id":"levelo_inurba_marseille","lat":43.27812,"lon":5.40713,"is_reserved":false,"is_disabled":false,"rental_uris":{"android":"levelo://app?vid=539b9a64-b609-4266-9946-ee2326864026","ios":"levelo://app?vid=539b9a64-b609-4266-9946-ee2326864026"},"vehicle_type_id":"4","last_reported":1686848739,"current_range_meters":9600,"station_id":"ce4bhnh2rcd13ifvqgtg","pricing_plan_id":"free"},{"bike_id":"74de59be-3028-4284-8a3c-f61b1b01df63","system_id":"levelo_inurba_marseille","lat":43.269467,"lon":5.386439,"is_reserved":false,"is_disabled":false,"rental_uris":{"android":"levelo://app?vid=74de59be-3028-4284-8a3c-f61b1b01df63","ios":"levelo://app?vid=74de59be-3028-4284-8a3c-f61b1b01df63"},"vehicle_type_id":"4","last_reported":1686848739,"current_range_meters":0,"station_id":"ce4bhh92rcd13ifvqfh0","pricing_plan_id":"free"},{"bike_id":"f4d1f65e-cc20-42a0-a2c8-03dbe9f06813","system_id":"levelo_inurba_marseille","lat":43.269467,"lon":5.386439,"is_reserved":false,"is_disabled":false,"rental_uris":{"android":"levelo://app?vid=f4d1f65e-cc20-42a0-a2c8-03dbe9f06813","ios":"levelo://app?vid=f4d1f65e-cc20-42a0-a2c8-03dbe9f06813"},"vehicle_type_id":"4","last_reported":1686848739,"current_range_meters":21200,"station_id":"ce4bhh92rcd13ifvqfh0","pricing_plan_id":"free"},{"bike_id":"aa0aed44-0cb7-4485-b3e7-93f7e688e406","system_id":"levelo_inurba_marseille","lat":43.269467,"lon":5.386439,"is_reserved":false,"is_disabled":false,"rental_uris":{"android":"levelo://app?vid=aa0aed44-0cb7-4485-b3e7-93f7e688e406","ios":"levelo://app?vid=aa0aed44-0cb7-4485-b3e7-93f7e688e406"},"vehicle_type_id":"4","last_reported":1686848739,"current_range_meters":12800,"station_id":"ce4bhh92rcd13ifvqfh0","pricing_plan_id":"free"},{"bike_id":"cfba2fbe-9ed5-423f-b411-8d6c38451715","system_id":"levelo_inurba_marseille","lat":43.26681,"lon":5.382694,"is_reserved":false,"is_disabled":false,"rental_uris":{"android":"levelo://app?vid=cfba2fbe-9ed5-423f-b411-8d6c38451715","ios":"levelo://app?vid=cfba2fbe-9ed5-423f-b411-8d6c38451715"},"vehicle_type_id":"4","last_reported":1686848739,"current_range_meters":31200,"station_id":"ce4bhg92rcd13ifvqf90","pricing_plan_id":"free"},{"bike_id":"6275aaca-a354-407f-be44-df40f2969d44","system_id":"levelo_inurba_marseille","lat":43.26681,"lon":5.382694,"is_reserved":false,"is_disabled":false,"rental_uris":{"android":"levelo://app?vid=6275aaca-a354-407f-be44-df40f2969d44","ios":"levelo://app?vid=6275aaca-a354-407f-be44-df40f2969d44"},"vehicle_type_id":"4","last_reported":1686848739,"current_range_meters":31200,"station_id":"ce4bhg92rcd13ifvqf90","pricing_plan_id":"free"},{"bike_id":"8f12b3e4-d904-4681-a504-f4abd09d4d5b","system_id":"levelo_inurba_marseille","lat":43.26424,"lon":5.37239,"is_reserved":false,"is_disabled":false,"rental_uris":{"android":"levelo://app?vid=8f12b3e4-d904-4681-a504-f4abd09d4d5b","ios":"levelo://app?vid=8f12b3e4-d904-4681-a504-f4abd09d4d5b"},"vehicle_type_id":"4","last_reported":1686848739,"current_range_meters":18800,"station_id":"","pricing_plan_id":"free"},{"bike_id":"1a99213b-7835-43f9-9650-2e4f75d6fbd1","system_id":"levelo_inurba_marseille","lat":43.27996,"lon":5.416624,"is_reserved":false,"is_disabled":false,"rental_uris":{"android":"levelo://app?vid=1a99213b-7835-43f9-9650-2e4f75d6fbd1","ios":"levelo://app?vid=1a99213b-7835-43f9-9650-2e4f75d6fbd1"},"vehicle_type_id":"4","last_reported":1686848739,"current_range_meters":13600,"station_id":"ce4bho12rcd13ifvqh1g","pricing_plan_id":"free"},{"bike_id":"3987290e-fd4b-4f2b-81c0-57fca98f9cde","system_id":"levelo_inurba_marseille","lat":43.26783,"lon":5.39419,"is_reserved":false,"is_disabled":false,"rental_uris":{"android":"levelo://app?vid=3987290e-fd4b-4f2b-81c0-57fca98f9cde","ios":"levelo://app?vid=3987290e-fd4b-4f2b-81c0-57fca98f9cde"},"vehicle_type_id":"4","last_reported":1686848739,"current_range_meters":30400,"station_id":"ce4bhh12rcd13ifvqfg0","pricing_plan_id":"free"},{"bike_id":"2498d148-a89a-406b-a9a2-de9a1921a7d4","system_id":"levelo_inurba_marseille","lat":43.261782,"lon":5.374515,"is_reserved":false,"is_disabled":false,"rental_uris":{"android":"levelo://app?vid=2498d148-a89a-406b-a9a2-de9a1921a7d4","ios":"levelo://app?vid=2498d148-a89a-406b-a9a2-de9a1921a7d4"},"vehicle_type_id":"4","last_reported":1686848739,"current_range_meters":0,"station_id":"ce4bhgp2rcd13ifvqfc0","pricing_plan_id":"free"},{"bike_id":"9be000a7-c6b6-4f12-98bc-f187ad54e568","system_id":"levelo_inurba_marseille","lat":43.30806,"lon":5.43531,"is_reserved":false,"is_disabled":false,"rental_uris":{"android":"levelo://app?vid=9be000a7-c6b6-4f12-98bc-f187ad54e568","ios":"levelo://app?vid=9be000a7-c6b6-4f12-98bc-f187ad54e568"},"vehicle_type_id":"4","last_reported":1686848739,"current_range_meters":18800,"station_id":"","pricing_plan_id":"free"},{"bike_id":"78e97d53-9c5c-46cb-b7c7-4d7a3e7a8100","system_id":"levelo_inurba_marseille","lat":43.30808,"lon":5.43534,"is_reserved":false,"is_disabled":false,"rental_uris":{"android":"levelo://app?vid=78e97d53-9c5c-46cb-b7c7-4d7a3e7a8100","ios":"levelo://app?vid=78e97d53-9c5c-46cb-b7c7-4d7a3e7a8100"},"vehicle_type_id":"4","last_reported":1686848739,"current_range_meters":19600,"station_id":"","pricing_plan_id":"free"},{"bike_id":"dbaa2de0-3207-477b-b6c3-01e818134a33","system_id":"levelo_inurba_marseille","lat":43.261782,"lon":5.374515,"is_reserved":false,"is_disabled":false,"rental_uris":{"android":"levelo://app?vid=dbaa2de0-3207-477b-b6c3-01e818134a33","ios":"levelo://app?vid=dbaa2de0-3207-477b-b6c3-01e818134a33"},"vehicle_type_id":"4","last_reported":1686848739,"current_range_meters":0,"station_id":"ce4bhgp2rcd13ifvqfc0","pricing_plan_id":"free"},{"bike_id":"00e5de6d-1a70-42a8-806b-e3965a0dd308","system_id":"levelo_inurba_marseille","lat":43.261782,"lon":5.374515,"is_reserved":false,"is_disabled":false,"rental_uris":{"android":"levelo://app?vid=00e5de6d-1a70-42a8-806b-e3965a0dd308","ios":"levelo://app?vid=00e5de6d-1a70-42a8-806b-e3965a0dd308"},"vehicle_type_id":"4","last_reported":1686848739,"current_range_meters":19600,"station_id":"ce4bhgp2rcd13ifvqfc0","pricing_plan_id":"free"},{"bike_id":"f9938518-c63f-4d80-bc36-ea3dddc8779f","system_id":"levelo_inurba_marseille","lat":43.317104,"lon":5.436818,"is_reserved":false,"is_disabled":false,"rental_uris":{"android":"levelo://app?vid=f9938518-c63f-4d80-bc36-ea3dddc8779f","ios":"levelo://app?vid=f9938518-c63f-4d80-bc36-ea3dddc8779f"},"vehicle_type_id":"4","last_reported":1686848739,"current_range_meters":29200,"station_id":"ce4bhp92rcd13ifvqhcg","pricing_plan_id":"free"},{"bike_id":"14d950e8-0be6-4d17-887e-2aa52ba454bf","system_id":"levelo_inurba_marseille","lat":43.27184,"lon":5.40991,"is_reserved":false,"is_disabled":false,"rental_uris":{"android":"levelo://app?vid=14d950e8-0be6-4d17-887e-2aa52ba454bf","ios":"levelo://app?vid=14d950e8-0be6-4d17-887e-2aa52ba454bf"},"vehicle_type_id":"4","last_reported":1686848739,"current_range_meters":21200,"station_id":"","pricing_plan_id":"free"},{"bike_id":"8cef4df0-69b8-4c21-a763-577c04b1e207","system_id":"levelo_inurba_marseille","lat":43.271849,"lon":5.40994,"is_reserved":false,"is_disabled":false,"rental_uris":{"android":"levelo://app?vid=8cef4df0-69b8-4c21-a763-577c04b1e207","ios":"levelo://app?vid=8cef4df0-69b8-4c21-a763-577c04b1e207"},"vehicle_type_id":"4","last_reported":1686848739,"current_range_meters":25200,"station_id":"","pricing_plan_id":"free"},{"bike_id":"78bfd6e1-405b-4aa6-abf0-061f070712e1","system_id":"levelo_inurba_marseille","lat":43.27179,"lon":5.40986,"is_reserved":false,"is_disabled":false,"rental_uris":{"android":"levelo://app?vid=78bfd6e1-405b-4aa6-abf0-061f070712e1","ios":"levelo://app?vid=78bfd6e1-405b-4aa6-abf0-061f070712e1"},"vehicle_type_id":"4","last_reported":1686848739,"current_range_meters":28400,"station_id":"","pricing_plan_id":"free"},{"bike_id":"5137a758-9a33-4c6f-8ca9-7bcf26cfab19","system_id":"levelo_inurba_marseille","lat":43.27176,"lon":5.40992,"is_reserved":false,"is_disabled":false,"rental_uris":{"android":"levelo://app?vid=5137a758-9a33-4c6f-8ca9-7bcf26cfab19","ios":"levelo://app?vid=5137a758-9a33-4c6f-8ca9-7bcf26cfab19"},"vehicle_type_id":"4","last_reported":1686848739,"current_range_meters":24000,"station_id":"","pricing_plan_id":"free"},{"bike_id":"105d388f-6463-4aeb-a083-d8b8ce680623","system_id":"levelo_inurba_marseille","lat":43.27173,"lon":5.40988,"is_reserved":false,"is_disabled":false,"rental_uris":{"android":"levelo://app?vid=105d388f-6463-4aeb-a083-d8b8ce680623","ios":"levelo://app?vid=105d388f-6463-4aeb-a083-d8b8ce680623"},"vehicle_type_id":"4","last_reported":1686848739,"current_range_meters":9200,"station_id":"","pricing_plan_id":"free"},{"bike_id":"0d341fef-2561-432e-b2dd-2cd2f632fe58","system_id":"levelo_inurba_marseille","lat":43.267959,"lon":5.402687,"is_reserved":false,"is_disabled":false,"rental_uris":{"android":"levelo://app?vid=0d341fef-2561-432e-b2dd-2cd2f632fe58","ios":"levelo://app?vid=0d341fef-2561-432e-b2dd-2cd2f632fe58"},"vehicle_type_id":"4","last_reported":1686848739,"current_range_meters":23600,"station_id":"ce501612rcd8frsf0b60","pricing_plan_id":"free"},{"bike_id":"33cdd131-4775-470b-887f-676336fb960b","system_id":"levelo_inurba_marseille","lat":43.267959,"lon":5.402685,"is_reserved":false,"is_disabled":false,"rental_uris":{"android":"levelo://app?vid=33cdd131-4775-470b-887f-676336fb960b","ios":"levelo://app?vid=33cdd131-4775-470b-887f-676336fb960b"},"vehicle_type_id":"4","last_reported":1686848739,"current_range_meters":5200,"station_id":"ce501612rcd8frsf0b60","pricing_plan_id":"free"},{"bike_id":"95dcc9c2-1bd7-410a-bde7-1ed97dc0b973","system_id":"levelo_inurba_marseille","lat":43.299,"lon":5.43668,"is_reserved":false,"is_disabled":false,"rental_uris":{"android":"levelo://app?vid=95dcc9c2-1bd7-410a-bde7-1ed97dc0b973","ios":"levelo://app?vid=95dcc9c2-1bd7-410a-bde7-1ed97dc0b973"},"vehicle_type_id":"4","last_reported":1686848739,"current_range_meters":17600,"station_id":"ce4bhpp2rcd13ifvqhfg","pricing_plan_id":"free"},{"bike_id":"9cbb3c98-ff46-48e2-869d-6af233e98ab6","system_id":"levelo_inurba_marseille","lat":43.26025,"lon":5.37552,"is_reserved":false,"is_disabled":false,"rental_uris":{"android":"levelo://app?vid=9cbb3c98-ff46-48e2-869d-6af233e98ab6","ios":"levelo://app?vid=9cbb3c98-ff46-48e2-869d-6af233e98ab6"},"vehicle_type_id":"4","last_reported":1686848739,"current_range_meters":0,"station_id":"ce4bhgh2rcd13ifvqfa0","pricing_plan_id":"free"},{"bike_id":"2b349d56-97e8-4e19-8e1e-c7ed30770f34","system_id":"levelo_inurba_marseille","lat":43.2607,"lon":5.393983,"is_reserved":false,"is_disabled":false,"rental_uris":{"android":"levelo://app?vid=2b349d56-97e8-4e19-8e1e-c7ed30770f34","ios":"levelo://app?vid=2b349d56-97e8-4e19-8e1e-c7ed30770f34"},"vehicle_type_id":"4","last_reported":1686848739,"current_range_meters":8400,"station_id":"ce4bhh92rcd13ifvqfj0","pricing_plan_id":"free"},{"bike_id":"d7ff504d-beb5-4f65-9fa6-eedf51fa45f1","system_id":"levelo_inurba_marseille","lat":43.2632,"lon":5.40278,"is_reserved":false,"is_disabled":false,"rental_uris":{"android":"levelo://app?vid=d7ff504d-beb5-4f65-9fa6-eedf51fa45f1","ios":"levelo://app?vid=d7ff504d-beb5-4f65-9fa6-eedf51fa45f1"},"vehicle_type_id":"4","last_reported":1686848739,"current_range_meters":14400,"station_id":"","pricing_plan_id":"free"},{"bike_id":"3a5e10cb-947e-4afa-94e0-2a7b2c6b4d23","system_id":"levelo_inurba_marseille","lat":43.254945,"lon":5.376454,"is_reserved":false,"is_disabled":false,"rental_uris":{"android":"levelo://app?vid=3a5e10cb-947e-4afa-94e0-2a7b2c6b4d23","ios":"levelo://app?vid=3a5e10cb-947e-4afa-94e0-2a7b2c6b4d23"},"vehicle_type_id":"4","last_reported":1686848739,"current_range_meters":0,"station_id":"ce4bhh12rcd13ifvqff0","pricing_plan_id":"free"},{"bike_id":"e3fab7f7-2750-4727-9d1e-2dd122514b69","system_id":"levelo_inurba_marseille","lat":43.254947,"lon":5.376454,"is_reserved":false,"is_disabled":false,"rental_uris":{"android":"levelo://app?vid=e3fab7f7-2750-4727-9d1e-2dd122514b69","ios":"levelo://app?vid=e3fab7f7-2750-4727-9d1e-2dd122514b69"},"vehicle_type_id":"4","last_reported":1686848739,"current_range_meters":9600,"station_id":"ce4bhh12rcd13ifvqff0","pricing_plan_id":"free"},{"bike_id":"fcd51637-dc5f-4022-b88d-a41dc12d5d28","system_id":"levelo_inurba_marseille","lat":43.27075,"lon":5.42279,"is_reserved":false,"is_disabled":false,"rental_uris":{"android":"levelo://app?vid=fcd51637-dc5f-4022-b88d-a41dc12d5d28","ios":"levelo://app?vid=fcd51637-dc5f-4022-b88d-a41dc12d5d28"},"vehicle_type_id":"4","last_reported":1686848739,"current_range_meters":12800,"station_id":"ce4bhk92rcd13ifvqgb0","pricing_plan_id":"free"},{"bike_id":"b8e22036-e2f3-40de-a574-a294ebc5d735","system_id":"levelo_inurba_marseille","lat":43.270721,"lon":5.422764,"is_reserved":false,"is_disabled":false,"rental_uris":{"android":"levelo://app?vid=b8e22036-e2f3-40de-a574-a294ebc5d735","ios":"levelo://app?vid=b8e22036-e2f3-40de-a574-a294ebc5d735"},"vehicle_type_id":"4","last_reported":1686848739,"current_range_meters":18000,"station_id":"ce4bhk92rcd13ifvqgb0","pricing_plan_id":"free"},{"bike_id":"31f3b8d9-413b-41d3-a70b-506db8a491b4","system_id":"levelo_inurba_marseille","lat":43.270721,"lon":5.422764,"is_reserved":false,"is_disabled":false,"rental_uris":{"android":"levelo://app?vid=31f3b8d9-413b-41d3-a70b-506db8a491b4","ios":"levelo://app?vid=31f3b8d9-413b-41d3-a70b-506db8a491b4"},"vehicle_type_id":"4","last_reported":1686848739,"current_range_meters":400,"station_id":"ce4bhk92rcd13ifvqgb0","pricing_plan_id":"free"},{"bike_id":"a41a6de0-ae6b-4231-bfee-e4c0e365e882","system_id":"levelo_inurba_marseille","lat":43.270721,"lon":5.422764,"is_reserved":false,"is_disabled":false,"rental_uris":{"android":"levelo://app?vid=a41a6de0-ae6b-4231-bfee-e4c0e365e882","ios":"levelo://app?vid=a41a6de0-ae6b-4231-bfee-e4c0e365e882"},"vehicle_type_id":"4","last_reported":1686848739,"current_range_meters":20000,"station_id":"ce4bhk92rcd13ifvqgb0","pricing_plan_id":"free"},{"bike_id":"8615e44e-9dfd-4d27-ab68-4d122e868ab2","system_id":"levelo_inurba_marseille","lat":43.25939,"lon":5.40902,"is_reserved":false,"is_disabled":false,"rental_uris":{"android":"levelo://app?vid=8615e44e-9dfd-4d27-ab68-4d122e868ab2","ios":"levelo://app?vid=8615e44e-9dfd-4d27-ab68-4d122e868ab2"},"vehicle_type_id":"4","last_reported":1686848739,"current_range_meters":8400,"station_id":"","pricing_plan_id":"free"},{"bike_id":"1bb27aa6-3259-4c75-adb8-ee8501ee9312","system_id":"levelo_inurba_marseille","lat":43.25937,"lon":5.40905,"is_reserved":false,"is_disabled":false,"rental_uris":{"android":"levelo://app?vid=1bb27aa6-3259-4c75-adb8-ee8501ee9312","ios":"levelo://app?vid=1bb27aa6-3259-4c75-adb8-ee8501ee9312"},"vehicle_type_id":"4","last_reported":1686848739,"current_range_meters":19600,"station_id":"","pricing_plan_id":"free"},{"bike_id":"7f12f6b3-4952-4c07-9efa-e3a4726889da","system_id":"levelo_inurba_marseille","lat":43.25937,"lon":5.40909,"is_reserved":false,"is_disabled":false,"rental_uris":{"android":"levelo://app?vid=7f12f6b3-4952-4c07-9efa-e3a4726889da","ios":"levelo://app?vid=7f12f6b3-4952-4c07-9efa-e3a4726889da"},"vehicle_type_id":"4","last_reported":1686848739,"current_range_meters":0,"station_id":"","pricing_plan_id":"free"},{"bike_id":"41a6831a-4c95-4d61-b7cb-57dbea61831a","system_id":"levelo_inurba_marseille","lat":43.25935,"lon":5.40909,"is_reserved":false,"is_disabled":false,"rental_uris":{"android":"levelo://app?vid=41a6831a-4c95-4d61-b7cb-57dbea61831a","ios":"levelo://app?vid=41a6831a-4c95-4d61-b7cb-57dbea61831a"},"vehicle_type_id":"4","last_reported":1686848739,"current_range_meters":8400,"station_id":"","pricing_plan_id":"free"},{"bike_id":"cdbec775-4120-486e-b411-d468191c7976","system_id":"levelo_inurba_marseille","lat":43.25935,"lon":5.4091,"is_reserved":false,"is_disabled":false,"rental_uris":{"android":"levelo://app?vid=cdbec775-4120-486e-b411-d468191c7976","ios":"levelo://app?vid=cdbec775-4120-486e-b411-d468191c7976"},"vehicle_type_id":"4","last_reported":1686848739,"current_range_meters":30800,"station_id":"","pricing_plan_id":"free"},{"bike_id":"cef15dc1-dc70-4afa-879c-ea9cca46e69e","system_id":"levelo_inurba_marseille","lat":43.259009,"lon":5.40929,"is_reserved":false,"is_disabled":false,"rental_uris":{"android":"levelo://app?vid=cef15dc1-dc70-4afa-879c-ea9cca46e69e","ios":"levelo://app?vid=cef15dc1-dc70-4afa-879c-ea9cca46e69e"},"vehicle_type_id":"4","last_reported":1686848739,"current_range_meters":29200,"station_id":"ce4bhm92rcd13ifvqglg","pricing_plan_id":"free"},{"bike_id":"7675f9c6-a252-48d9-84f3-c31274a6d5d4","system_id":"levelo_inurba_marseille","lat":43.259009,"lon":5.40929,"is_reserved":false,"is_disabled":false,"rental_uris":{"android":"levelo://app?vid=7675f9c6-a252-48d9-84f3-c31274a6d5d4","ios":"levelo://app?vid=7675f9c6-a252-48d9-84f3-c31274a6d5d4"},"vehicle_type_id":"4","last_reported":1686848739,"current_range_meters":17200,"station_id":"ce4bhm92rcd13ifvqglg","pricing_plan_id":"free"},{"bike_id":"ccbba35b-7694-4186-bec5-c9a2d65dc6cd","system_id":"levelo_inurba_marseille","lat":43.250009,"lon":5.389195,"is_reserved":false,"is_disabled":false,"rental_uris":{"android":"levelo://app?vid=ccbba35b-7694-4186-bec5-c9a2d65dc6cd","ios":"levelo://app?vid=ccbba35b-7694-4186-bec5-c9a2d65dc6cd"},"vehicle_type_id":"4","last_reported":1686848739,"current_range_meters":22800,"station_id":"ce4bhgp2rcd13ifvqfd0","pricing_plan_id":"free"},{"bike_id":"3cead590-d68d-4208-a895-bf8ffd328939","system_id":"levelo_inurba_marseille","lat":43.250009,"lon":5.389195,"is_reserved":false,"is_disabled":false,"rental_uris":{"android":"levelo://app?vid=3cead590-d68d-4208-a895-bf8ffd328939","ios":"levelo://app?vid=3cead590-d68d-4208-a895-bf8ffd328939"},"vehicle_type_id":"4","last_reported":1686848739,"current_range_meters":0,"station_id":"ce4bhgp2rcd13ifvqfd0","pricing_plan_id":"free"},{"bike_id":"c3d5c92f-cb0c-4563-bc40-3f885f6795f1","system_id":"levelo_inurba_marseille","lat":43.250023,"lon":5.38919,"is_reserved":false,"is_disabled":false,"rental_uris":{"android":"levelo://app?vid=c3d5c92f-cb0c-4563-bc40-3f885f6795f1","ios":"levelo://app?vid=c3d5c92f-cb0c-4563-bc40-3f885f6795f1"},"vehicle_type_id":"4","last_reported":1686848739,"current_range_meters":15200,"station_id":"ce4bhgp2rcd13ifvqfd0","pricing_plan_id":"free"},{"bike_id":"0c03a51f-d8b1-496c-9888-1aedede4676a","system_id":"levelo_inurba_marseille","lat":43.2479,"lon":5.374457,"is_reserved":false,"is_disabled":false,"rental_uris":{"android":"levelo://app?vid=0c03a51f-d8b1-496c-9888-1aedede4676a","ios":"levelo://app?vid=0c03a51f-d8b1-496c-9888-1aedede4676a"},"vehicle_type_id":"4","last_reported":1686848739,"current_range_meters":18000,"station_id":"ce4bhgh2rcd13ifvqfb0","pricing_plan_id":"free"},{"bike_id":"5e71dddf-46e4-40e4-9288-67d0635a6d20","system_id":"levelo_inurba_marseille","lat":43.2479,"lon":5.374457,"is_reserved":false,"is_disabled":false,"rental_uris":{"android":"levelo://app?vid=5e71dddf-46e4-40e4-9288-67d0635a6d20","ios":"levelo://app?vid=5e71dddf-46e4-40e4-9288-67d0635a6d20"},"vehicle_type_id":"4","last_reported":1686848739,"current_range_meters":0,"station_id":"ce4bhgh2rcd13ifvqfb0","pricing_plan_id":"free"},{"bike_id":"2989ebd0-3b35-497f-bba3-9d13ed40cf22","system_id":"levelo_inurba_marseille","lat":43.250966,"lon":5.395186,"is_reserved":false,"is_disabled":false,"rental_uris":{"android":"levelo://app?vid=2989ebd0-3b35-497f-bba3-9d13ed40cf22","ios":"levelo://app?vid=2989ebd0-3b35-497f-bba3-9d13ed40cf22"},"vehicle_type_id":"4","last_reported":1686848739,"current_range_meters":31200,"station_id":"ce4bhm12rcd13ifvqgkg","pricing_plan_id":"free"},{"bike_id":"0ff16645-48bc-4071-8af7-04b4fd01909a","system_id":"levelo_inurba_marseille","lat":43.250966,"lon":5.395186,"is_reserved":false,"is_disabled":false,"rental_uris":{"android":"levelo://app?vid=0ff16645-48bc-4071-8af7-04b4fd01909a","ios":"levelo://app?vid=0ff16645-48bc-4071-8af7-04b4fd01909a"},"vehicle_type_id":"4","last_reported":1686848739,"current_range_meters":1600,"station_id":"ce4bhm12rcd13ifvqgkg","pricing_plan_id":"free"},{"bike_id":"5e6a1957-d470-4e3e-b574-2eb5628a8cad","system_id":"levelo_inurba_marseille","lat":43.2466,"lon":5.38161,"is_reserved":false,"is_disabled":false,"rental_uris":{"android":"levelo://app?vid=5e6a1957-d470-4e3e-b574-2eb5628a8cad","ios":"levelo://app?vid=5e6a1957-d470-4e3e-b574-2eb5628a8cad"},"vehicle_type_id":"4","last_reported":1686848739,"current_range_meters":14000,"station_id":"ce4bhih2rcd13ifvqfs0","pricing_plan_id":"free"},{"bike_id":"eda89d8a-c014-4bfc-b908-9c1063c4b0cb","system_id":"levelo_inurba_marseille","lat":43.25102,"lon":5.403214,"is_reserved":false,"is_disabled":false,"rental_uris":{"android":"levelo://app?vid=eda89d8a-c014-4bfc-b908-9c1063c4b0cb","ios":"levelo://app?vid=eda89d8a-c014-4bfc-b908-9c1063c4b0cb"},"vehicle_type_id":"4","last_reported":1686848739,"current_range_meters":15600,"station_id":"ce4bhlh2rcd13ifvqgig","pricing_plan_id":"free"},{"bike_id":"d45fd46d-06b9-4150-a49c-afc562641701","system_id":"levelo_inurba_marseille","lat":43.25109,"lon":5.4033,"is_reserved":false,"is_disabled":false,"rental_uris":{"android":"levelo://app?vid=d45fd46d-06b9-4150-a49c-afc562641701","ios":"levelo://app?vid=d45fd46d-06b9-4150-a49c-afc562641701"},"vehicle_type_id":"4","last_reported":1686848739,"current_range_meters":0,"station_id":"ce4bhlh2rcd13ifvqgig","pricing_plan_id":"free"},{"bike_id":"e0a1a55f-2086-4ddd-9859-6bbae5c58ca0","system_id":"levelo_inurba_marseille","lat":43.25102,"lon":5.403214,"is_reserved":false,"is_disabled":false,"rental_uris":{"android":"levelo://app?vid=e0a1a55f-2086-4ddd-9859-6bbae5c58ca0","ios":"levelo://app?vid=e0a1a55f-2086-4ddd-9859-6bbae5c58ca0"},"vehicle_type_id":"4","last_reported":1686848739,"current_range_meters":1600,"station_id":"ce4bhlh2rcd13ifvqgig","pricing_plan_id":"free"},{"bike_id":"bd2759e4-9fa2-401a-983f-787868bcd0a9","system_id":"levelo_inurba_marseille","lat":43.246467,"lon":5.388984,"is_reserved":false,"is_disabled":false,"rental_uris":{"android":"levelo://app?vid=bd2759e4-9fa2-401a-983f-787868bcd0a9","ios":"levelo://app?vid=bd2759e4-9fa2-401a-983f-787868bcd0a9"},"vehicle_type_id":"4","last_reported":1686848739,"current_range_meters":6000,"station_id":"ce4bhg12rcd13ifvqf60","pricing_plan_id":"free"},{"bike_id":"8ba95a32-fee2-45f4-8769-76a22b5cb5fe","system_id":"levelo_inurba_marseille","lat":43.24418,"lon":5.37119,"is_reserved":false,"is_disabled":false,"rental_uris":{"android":"levelo://app?vid=8ba95a32-fee2-45f4-8769-76a22b5cb5fe","ios":"levelo://app?vid=8ba95a32-fee2-45f4-8769-76a22b5cb5fe"},"vehicle_type_id":"4","last_reported":1686848739,"current_range_meters":6000,"station_id":"","pricing_plan_id":"free"},{"bike_id":"bc94b5fe-ce87-446a-a866-1d77aaae2865","system_id":"levelo_inurba_marseille","lat":43.2439,"lon":5.37062,"is_reserved":false,"is_disabled":false,"rental_uris":{"android":"levelo://app?vid=bc94b5fe-ce87-446a-a866-1d77aaae2865","ios":"levelo://app?vid=bc94b5fe-ce87-446a-a866-1d77aaae2865"},"vehicle_type_id":"4","last_reported":1686848739,"current_range_meters":24800,"station_id":"ce4bhhh2rcd13ifvqfk0","pricing_plan_id":"free"},{"bike_id":"d6eda03e-2a9e-4dfe-bc04-9ae505eee75e","system_id":"levelo_inurba_marseille","lat":43.243884,"lon":5.370736,"is_reserved":false,"is_disabled":false,"rental_uris":{"android":"levelo://app?vid=d6eda03e-2a9e-4dfe-bc04-9ae505eee75e","ios":"levelo://app?vid=d6eda03e-2a9e-4dfe-bc04-9ae505eee75e"},"vehicle_type_id":"4","last_reported":1686848739,"current_range_meters":18400,"station_id":"ce4bhhh2rcd13ifvqfk0","pricing_plan_id":"free"},{"bike_id":"529bfde6-072e-47f3-aa6e-afe13d8c2fc2","system_id":"levelo_inurba_marseille","lat":43.243884,"lon":5.370736,"is_reserved":false,"is_disabled":false,"rental_uris":{"android":"levelo://app?vid=529bfde6-072e-47f3-aa6e-afe13d8c2fc2","ios":"levelo://app?vid=529bfde6-072e-47f3-aa6e-afe13d8c2fc2"},"vehicle_type_id":"4","last_reported":1686848739,"current_range_meters":1200,"station_id":"ce4bhhh2rcd13ifvqfk0","pricing_plan_id":"free"},{"bike_id":"6e73825e-b232-4377-af2c-13cb3700e62d","system_id":"levelo_inurba_marseille","lat":43.239588,"lon":5.366238,"is_reserved":false,"is_disabled":false,"rental_uris":{"android":"levelo://app?vid=6e73825e-b232-4377-af2c-13cb3700e62d","ios":"levelo://app?vid=6e73825e-b232-4377-af2c-13cb3700e62d"},"vehicle_type_id":"4","last_reported":1686848739,"current_range_meters":26400,"station_id":"ce4bhi12rcd13ifvqfp0","pricing_plan_id":"free"},{"bike_id":"9eb2cc76-a891-4276-a577-7916fc9843a6","system_id":"levelo_inurba_marseille","lat":43.239588,"lon":5.366238,"is_reserved":false,"is_disabled":false,"rental_uris":{"android":"levelo://app?vid=9eb2cc76-a891-4276-a577-7916fc9843a6","ios":"levelo://app?vid=9eb2cc76-a891-4276-a577-7916fc9843a6"},"vehicle_type_id":"4","last_reported":1686848739,"current_range_meters":7200,"station_id":"ce4bhi12rcd13ifvqfp0","pricing_plan_id":"free"},{"bike_id":"963d139f-afc1-4aee-b115-2345d8caf4df","system_id":"levelo_inurba_marseille","lat":43.239588,"lon":5.366238,"is_reserved":false,"is_disabled":false,"rental_uris":{"android":"levelo://app?vid=963d139f-afc1-4aee-b115-2345d8caf4df","ios":"levelo://app?vid=963d139f-afc1-4aee-b115-2345d8caf4df"},"vehicle_type_id":"4","last_reported":1686848739,"current_range_meters":29600,"station_id":"ce4bhi12rcd13ifvqfp0","pricing_plan_id":"free"},{"bike_id":"b4221346-4d9a-4f8f-bf0e-0c526a2cd0cd","system_id":"levelo_inurba_marseille","lat":43.2418,"lon":5.39721,"is_reserved":false,"is_disabled":false,"rental_uris":{"android":"levelo://app?vid=b4221346-4d9a-4f8f-bf0e-0c526a2cd0cd","ios":"levelo://app?vid=b4221346-4d9a-4f8f-bf0e-0c526a2cd0cd"},"vehicle_type_id":"4","last_reported":1686848739,"current_range_meters":16400,"station_id":"ce4bhn12rcd13ifvqgpg","pricing_plan_id":"free"},{"bike_id":"fc182d3e-d57b-4965-886a-c1e0c31fe82a","system_id":"levelo_inurba_marseille","lat":43.23305,"lon":5.35352,"is_reserved":false,"is_disabled":false,"rental_uris":{"android":"levelo://app?vid=fc182d3e-d57b-4965-886a-c1e0c31fe82a","ios":"levelo://app?vid=fc182d3e-d57b-4965-886a-c1e0c31fe82a"},"vehicle_type_id":"4","last_reported":1686848739,"current_range_meters":31200,"station_id":"","pricing_plan_id":"free"},