{"last_updated":1734253776,"ttl":60,"version":"2.2","data":{"bikes":[{"bike_id":"45c22bfb-3859-46ca-bbdd-b43970628095","system_id":"levelo_inurba_marseille","lat":43.231874,"lon":5.399914,"is_reserved":false,"is_disabled":false,"rental_uris":{"android":"levelo://app?vid=45c22bfb-3859-46ca-bbdd-b43970628095","ios":"levelo://app?vid=45c22bfb-3859-46ca-bbdd-b43970628095"},"vehicle_type_id":"4","last_reported":1734253776,"current_range_meters":16400,"station_id":"ce4bhn12rcd13ifvqgqg","pricing_plan_id":"cebpf4jnsgd1na2vs0mg"},{"bike_id":"816a8994-18eb-426d-a37f-38723b089506","system_id":"levelo_inurba_marseille","lat":43.26781,"lon":5.39417,"is_reserved":false,"is_disabled":false,"rental_uris":{"android":"levelo://app?vid=816a8994-18eb-426d-a37f-38723b089506","ios":"levelo://app?vid=816a8994-18eb-426d-a37f-38723b089506"},"vehicle_type_id":"4","last_reported":1734253776,"current_range_meters":39200,"station_id":"ce4bhh12rcd13ifvqfg0","pricing_plan_id":"cebpf4jnsgd1na2vs0mg"},{"bike_id":"35567123-a5c0-42eb-98df-4afc7cd4064f","system_id":"levelo_inurba_marseille","lat":43.28154,"lon":5.42653,"is_reserved":false,"is_disabled":false,"rental_uris":{"android":"levelo://app?vid=35567123-a5c0-42eb-98df-4afc7cd4064f","ios":"levelo://app?vid=35567123-a5c0-42eb-98df-4afc7cd4064f"},"vehicle_type_id":"4","last_reported":1734253776,"current_range_meters":38800,"station_id":"ce4bhnh2rcd13ifvqgug","pricing_plan_id":"cebpf4jnsgd1na2vs0mg"},{"bike_id":"6a684703-b86d-480c-a944-c1ff37dbc508","system_id":"levelo_inurba_marseille","lat":43.29314,"lon":5.37159,"is_reserved":false,"is_disabled":false,"rental_uris":{"android":"levelo://app?vid=6a684703-b86d-480c-a944-c1ff37dbc508","ios":"levelo://app?vid=6a684703-b86d-480c-a944-c1ff37dbc508"},"vehicle_type_id":"4","last_reported":1734253776,"current_range_meters":38800,"station_id":"ce4bgh92rcd13ifvqb40","pricing_plan_id":"cebpf4jnsgd1na2vs0mg"},{"bike_id":"04cc283c-4a8a-4234-8708-e04025859ea3","system_id":"levelo_inurba_marseille","lat":43.29561,"lon":5.42278,"is_reserved":false,"is_disabled":false,"rental_uris":{"android":"levelo://app?vid=04cc283c-4a8a-4234-8708-e04025859ea3","ios":"levelo://app?vid=04cc283c-4a8a-4234-8708-e04025859ea3"},"vehicle_type_id":"4","last_reported":1734253776,"current_range_meters":24000,"station_id":"ce4bhph2rcd13ifvqhdg","pricing_plan_id":"cebpf4jnsgd1na2vs0mg"},{"bike_id":"ed9edba7-d3f1-4e95-8555-1252dbf70dce","system_id":"levelo_inurba_marseille","lat":43.27549,"lon":5.38427,"is_reserved":false,"is_disabled":true,"rental_uris":{"android":"levelo://app?vid=ed9edba7-d3f1-4e95-8555-1252dbf70dce","ios":"levelo://app?vid=ed9edba7-d3f1-4e95-8555-1252dbf70dce"},"vehicle_type_id":"4","last_reported":1734253776,"current_range_meters":36400,"station_id":"ce4bhh92rcd13ifvqfi0","pricing_plan_id":"cebpf4jnsgd1na2vs0mg"},{"bike_id":"767bd7f7-f068-49b4-a91d-aee7712bfd36","system_id":"levelo_inurba_marseille","lat":43.31506,"lon":5.37285,"is_reserved":false,"is_disabled":false,"rental_uris":{"android":"levelo://app?vid=767bd7f7-f068-49b4-a91d-aee7712bfd36","ios":"levelo://app?vid=767bd7f7-f068-49b4-a91d-aee7712bfd36"},"vehicle_type_id":"4","last_reported":1734253776,"current_range_meters":38000,"station_id":"ce4bgt12rcd13ifvqcd0","pricing_plan_id":"cebpf4jnsgd1na2vs0mg"},{"bike_id":"8f707373-3be5-4311-8864-b4e38be26a8f","system_id":"levelo_inurba_marseille","lat":43.25721,"lon":5.4111,"is_reserved":false,"is_disabled":false,"rental_uris":{"android":"levelo://app?vid=8f707373-3be5-4311-8864-b4e38be26a8f","ios":"levelo://app?vid=8f707373-3be5-4311-8864-b4e38be26a8f"},"vehicle_type_id":"4","last_reported":1734253776,"current_range_meters":38800,"station_id":"ce4bhkp2rcd13ifvqgd0","pricing_plan_id":"cebpf4jnsgd1na2vs0mg"},{"bike_id":"b9909b1b-7dc0-43e0-9eac-af3c1c280ed0","system_id":"levelo_inurba_marseille","lat":43.2906,"lon":5.35776,"is_reserved":false,"is_disabled":false,"rental_uris":{"android":"levelo://app?vid=b9909b1b-7dc0-43e0-9eac-af3c1c280ed0","ios":"levelo://app?vid=b9909b1b-7dc0-43e0-9eac-af3c1c280ed0"},"vehicle_type_id":"4","last_reported":1734253776,"current_range_meters":8800,"station_id":"","pricing_plan_id":"cebpf4jnsgd1na2vs0mg"},{"bike_id":"7dc7a609-a9d0-477f-93f2-11eef9a5926e","system_id":"levelo_inurba_marseille","lat":43.3237,"lon":5.38869,"is_reserved":false,"is_disabled":false,"rental_uris":{"android":"levelo://app?vid=7dc7a609-a9d0-477f-93f2-11eef9a5926e","ios":"levelo://app?vid=7dc7a609-a9d0-477f-93f2-11eef9a5926e"},"vehicle_type_id":"4","last_reported":1734253776,"current_range_meters":9600,"station_id":"ce4bhqp2rcd13ifvqhog","pricing_plan_id":"cebpf4jnsgd1na2vs0mg"},{"bike_id":"02571e07-6209-42ab-a164-b7e18dc61c5a","system_id":"levelo_inurba_marseille","lat":43.30526,"lon":5.36553,"is_reserved":false,"is_disabled":false,"rental_uris":{"android":"levelo://app?vid=02571e07-6209-42ab-a164-b7e18dc61c5a","ios":"levelo://app?vid=02571e07-6209-42ab-a164-b7e18dc61c5a"},"vehicle_type_id":"4","last_reported":1734253776,"current_range_meters":38400,"station_id":"ce4bgs12rcd13ifvqcag","pricing_plan_id":"cebpf4jnsgd1na2vs0mg"},{"bike_id":"e5b116dd-48f6-4dd6-ab1b-bd37b4c12f91","system_id":"levelo_inurba_marseille","lat":43.28155,"lon":5.42642,"is_reserved":false,"is_disabled":false,"rental_uris":{"android":"levelo://app?vid=e5b116dd-48f6-4dd6-ab1b-bd37b4c12f91","ios":"levelo://app?vid=e5b116dd-48f6-4dd6-ab1b-bd37b4c12f91"},"vehicle_type_id":"4","last_reported":1734253776,"current_range_meters":25600,"station_id":"ce4bhnh2rcd13ifvqgug","pricing_plan_id":"cebpf4jnsgd1na2vs0mg"},{"bike_id":"86383fa8-f79d-40a6-af97-21378f0fafe2","system_id":"levelo_inurba_marseille","lat":43.2953,"lon":5.38544,"is_reserved":false,"is_disabled":false,"rental_uris":{"android":"levelo://app?vid=86383fa8-f79d-40a6-af97-21378f0fafe2","ios":"levelo://app?vid=86383fa8-f79d-40a6-af97-21378f0fafe2"},"vehicle_type_id":"4","last_reported":1734253776,"current_range_meters":25200,"station_id":"ce4bgih2rcd13ifvqba0","pricing_plan_id":"cebpf4jnsgd1na2vs0mg"},{"bike_id":"2aabb9e3-ae45-4b17-b10d-af50e235d80a","system_id":"levelo_inurba_marseille","lat":43.26787,"lon":5.39924,"is_reserved":false,"is_disabled":true,"rental_uris":{"android":"levelo://app?vid=2aabb9e3-ae45-4b17-b10d-af50e235d80a","ios":"levelo://app?vid=2aabb9e3-ae45-4b17-b10d-af50e235d80a"},"vehicle_type_id":"4","last_reported":1734253776,"current_range_meters":0,"station_id":"","pricing_plan_id":"cebpf4jnsgd1na2vs0mg"},{"bike_id":"152328ee-76df-40e3-a986-63f0788dab36","system_id":"levelo_inurba_marseille","lat":43.32339,"lon":5.40628,"is_reserved":false,"is_disabled":false,"rental_uris":{"android":"levelo://app?vid=152328ee-76df-40e3-a986-63f0788dab36","ios":"levelo://app?vid=152328ee-76df-40e3-a986-63f0788dab36"},"vehicle_type_id":"4","last_reported":1734253776,"current_range_meters":27200,"station_id":"ce4bhq92rcd13ifvqhjg","pricing_plan_id":"cebpf4jnsgd1na2vs0mg"},{"bike_id":"d0e85661-eea5-4b39-9df2-cda64a4c3cd6","system_id":"levelo_inurba_marseille","lat":43.30882,"lon":5.37197,"is_reserved":false,"is_disabled":false,"rental_uris":{"android":"levelo://app?vid=d0e85661-eea5-4b39-9df2-cda64a4c3cd6","ios":"levelo://app?vid=d0e85661-eea5-4b39-9df2-cda64a4c3cd6"},"vehicle_type_id":"4","last_reported":1734253776,"current_range_meters":38800,"station_id":"ce4bguh2rcd13ifvqckg","pricing_plan_id":"cebpf4jnsgd1na2vs0mg"},{"bike_id":"a839feba-19e0-43dc-accc-15584f393366","system_id":"levelo_inurba_marseille","lat":43.28472,"lon":5.35904,"is_reserved":false,"is_disabled":false,"rental_uris":{"android":"levelo://app?vid=a839feba-19e0-43dc-accc-15584f393366","ios":"levelo://app?vid=a839feba-19e0-43dc-accc-15584f393366"},"vehicle_type_id":"4","last_reported":1734253776,"current_range_meters":32400,"station_id":"ce4bhah2rcd13ifvqei0","pricing_plan_id":"cebpf4jnsgd1na2vs0mg"},{"bike_id":"3595e955-9243-4ebf-a4ff-5df2907e8d74","system_id":"levelo_inurba_marseille","lat":43.32285,"lon":5.38269,"is_reserved":false,"is_disabled":false,"rental_uris":{"android":"levelo://app?vid=3595e955-9243-4ebf-a4ff-5df2907e8d74","ios":"levelo://app?vid=3595e955-9243-4ebf-a4ff-5df2907e8d74"},"vehicle_type_id":"4","last_reported":1734253776,"current_range_meters":39200,"station_id":"ce4bhr12rcd13ifvqhqg","pricing_plan_id":"cebpf4jnsgd1na2vs0mg"},{"bike_id":"47e8d9d9-e775-482b-a956-a96defd5d851","system_id":"levelo_inurba_marseille","lat":43.27423,"lon":5.39411,"is_reserved":false,"is_disabled":false,"rental_uris":{"android":"levelo://app?vid=47e8d9d9-e775-482b-a956-a96defd5d851","ios":"levelo://app?vid=47e8d9d9-e775-482b-a956-a96defd5d851"},"vehicle_type_id":"4","last_reported":1734253776,"current_range_meters":38000,"station_id":"ce4bhdp2rcd13ifvqf20","pricing_plan_id":"cebpf4jnsgd1na2vs0mg"},{"bike_id":"e2e5ca26-ae0f-40ee-98f0-8a717fd53b58","system_id":"levelo_inurba_marseille","lat":43.31121,"lon":5.37758,"is_reserved":false,"is_disabled":false,"rental_uris":{"android":"levelo://app?vid=e2e5ca26-ae0f-40ee-98f0-8a717fd53b58","ios":"levelo://app?vid=e2e5ca26-ae0f-40ee-98f0-8a717fd53b58"},"vehicle_type_id":"4","last_reported":1734253776,"current_range_meters":38000,"station_id":"ce4bgt92rcd13ifvqcg0","pricing_plan_id":"cebpf4jnsgd1na2vs0mg"},{"bike_id":"496b9119-850a-49b3-bf98-295bb079ca7c","system_id":"levelo_inurba_marseille","lat":43.28196,"lon":5.44566,"is_reserved":false,"is_disabled":false,"rental_uris":{"android":"levelo://app?vid=496b9119-850a-49b3-bf98-295bb079ca7c","ios":"levelo://app?vid=496b9119-850a-49b3-bf98-295bb079ca7c"},"vehicle_type_id":"4","last_reported":1734253776,"current_range_meters":6000,"station_id":"","pricing_plan_id":"cebpf4jnsgd1na2vs0mg"},{"bike_id":"9a52e458-8a4a-419d-9f2b-3aa29fa14212","system_id":"levelo_inurba_marseille","lat":43.27998,"lon":5.41665,"is_reserved":false,"is_disabled":false,"rental_uris":{"android":"levelo://app?vid=9a52e458-8a4a-419d-9f2b-3aa29fa14212","ios":"levelo://app?vid=9a52e458-8a4a-419d-9f2b-3aa29fa14212"},"vehicle_type_id":"4","last_reported":1734253776,"current_range_meters":38800,"station_id":"ce4bho12rcd13ifvqh1g","pricing_plan_id":"cebpf4jnsgd1na2vs0mg"},{"bike_id":"756759df-30bb-4fc0-b7b8-d22004f554c8","system_id":"levelo_inurba_marseille","lat":43.32335,"lon":5.40619,"is_reserved":false,"is_disabled":false,"rental_uris":{"android":"levelo://app?vid=756759df-30bb-4fc0-b7b8-d22004f554c8","ios":"levelo://app?vid=756759df-30bb-4fc0-b7b8-d22004f554c8"},"vehicle_type_id":"4","last_reported":1734253776,"current_range_meters":8800,"station_id":"ce4bhq92rcd13ifvqhjg","pricing_plan_id":"cebpf4jnsgd1na2vs0mg"},{"bike_id":"5e6f02bf-6783-43f4-ac3e-e922e375a372","system_id":"levelo_inurba_marseille","lat":43.32062,"lon":5.41548,"is_reserved":false,"is_disabled":false,"rental_uris":{"android":"levelo://app?vid=5e6f02bf-6783-43f4-ac3e-e922e375a372","ios":"levelo://app?vid=5e6f02bf-6783-43f4-ac3e-e922e375a372"},"vehicle_type_id":"4","last_reported":1734253776,"current_range_meters":34800,"station_id":"ce4bhqh2rcd13ifvqhmg","pricing_plan_id":"cebpf4jnsgd1na2vs0mg"},{"bike_id":"63c34c25-bc30-47a7-940c-c8451b9d0774","system_id":"levelo_inurba_marseille","lat":43.30407,"lon":5.4129,"is_reserved":false,"is_disabled":false,"rental_uris":{"android":"levelo://app?vid=63c34c25-bc30-47a7-940c-c8451b9d0774","ios":"levelo://app?vid=63c34c25-bc30-47a7-940c-c8451b9d0774"},"vehicle_type_id":"4","last_reported":1734253776,"current_range_meters":20800,"station_id":"ce4bhop2rcd13ifvqh8g","pricing_plan_id":"cebpf4jnsgd1na2vs0mg"},{"bike_id":"09aa2f3c-9555-44b2-a34d-05acc5333b88","system_id":"levelo_inurba_marseille","lat":43.27948,"lon":5.41039,"is_reserved":false,"is_disabled":false,"rental_uris":{"android":"levelo://app?vid=09aa2f3c-9555-44b2-a34d-05acc5333b88","ios":"levelo://app?vid=09aa2f3c-9555-44b2-a34d-05acc5333b88"},"vehicle_type_id":"4","last_reported":1734253776,"current_range_meters":36800,"station_id":"ce4bhnp2rcd13ifvqh0g","pricing_plan_id":"cebpf4jnsgd1na2vs0mg"},{"bike_id":"243d8a32-8675-42ff-8a0a-1d7d8c05b7b1","system_id":"levelo_inurba_marseille","lat":43.32658,"lon":5.40995,"is_reserved":false,"is_disabled":false,"rental_uris":{"android":"levelo://app?vid=243d8a32-8675-42ff-8a0a-1d7d8c05b7b1","ios":"levelo://app?vid=243d8a32-8675-42ff-8a0a-1d7d8c05b7b1"},"vehicle_type_id":"4","last_reported":1734253776,"current_range_meters":8000,"station_id":"ce4bhpp2rcd13ifvqhgg","pricing_plan_id":"cebpf4jnsgd1na2vs0mg"},{"bike_id":"d5c89c1f-3bad-4af2-9449-e04c277a4696","system_id":"levelo_inurba_marseille","lat":43.29975,"lon":5.41308,"is_reserved":false,"is_disabled":true,"rental_uris":{"android":"levelo://app?vid=d5c89c1f-3bad-4af2-9449-e04c277a4696","ios":"levelo://app?vid=d5c89c1f-3bad-4af2-9449-e04c277a4696"},"vehicle_type_id":"4","last_reported":1734253776,"current_range_meters":38400,"station_id":"ce4bhp12rcd13ifvqh9g","pricing_plan_id":"cebpf4jnsgd1na2vs0mg"},{"bike_id":"e6c17fa1-6fd0-4ca1-9951-48e979ee6abc","system_id":"levelo_inurba_marseille","lat":43.26548,"lon":5.3729,"is_reserved":false,"is_disabled":false,"rental_uris":{"android":"levelo://app?vid=e6c17fa1-6fd0-4ca1-9951-48e979ee6abc","ios":"levelo://app?vid=e6c17fa1-6fd0-4ca1-9951-48e979ee6abc"},"vehicle_type_id":"4","last_reported":1734253776,"current_range_meters":38000,"station_id":"ce4bhg12rcd13ifvqf70","pricing_plan_id":"cebpf4jnsgd1na2vs0mg"},{"bike_id":"ce3a5e43-02d5-4734-9550-324d184ca02a","system_id":"levelo_inurba_marseille","lat":43.31115,"lon":5.37782,"is_reserved":false,"is_disabled":false,"rental_uris":{"android":"levelo://app?vid=ce3a5e43-02d5-4734-9550-324d184ca02a","ios":"levelo://app?vid=ce3a5e43-02d5-4734-9550-324d184ca02a"},"vehicle_type_id":"4","last_reported":1734253776,"current_range_meters":24800,"station_id":"ce4bgt92rcd13ifvqcg0","pricing_plan_id":"cebpf4jnsgd1na2vs0mg"},{"bike_id":"5dcb142e-3766-4e2c-b1fe-c9ebbc5d3c50","system_id":"levelo_inurba_marseille","lat":43.31993,"lon":5.38142,"is_reserved":false,"is_disabled":false,"rental_uris":{"android":"levelo://app?vid=5dcb142e-3766-4e2c-b1fe-c9ebbc5d3c50","ios":"levelo://app?vid=5dcb142e-3766-4e2c-b1fe-c9ebbc5d3c50"},"vehicle_type_id":"4","last_reported":1734253776,"current_range_meters":36400,"station_id":"ce4bhr12rcd13ifvqhpg","pricing_plan_id":"cebpf4jnsgd1na2vs0mg"},{"bike_id":"af84f0d6-0da8-41c2-b16a-2d81040dffb1","system_id":"levelo_inurba_marseille","lat":43.24172,"lon":5.3972,"is_reserved":false,"is_disabled":false,"rental_uris":{"android":"levelo://app?vid=af84f0d6-0da8-41c2-b16a-2d81040dffb1","ios":"levelo://app?vid=af84f0d6-0da8-41c2-b16a-2d81040dffb1"},"vehicle_type_id":"4","last_reported":1734253776,"current_range_meters":26000,"station_id":"ce4bhn12rcd13ifvqgpg","pricing_plan_id":"cebpf4jnsgd1na2vs0mg"},{"bike_id":"a2b907e2-1340-4913-b0c5-09137be7f823","system_id":"levelo_inurba_marseille","lat":43.31715,"lon":5.37743,"is_reserved":false,"is_disabled":false,"rental_uris":{"android":"levelo://app?vid=a2b907e2-1340-4913-b0c5-09137be7f823","ios":"levelo://app?vid=a2b907e2-1340-4913-b0c5-09137be7f823"},"vehicle_type_id":"4","last_reported":1734253776,"current_range_meters":22400,"station_id":"ce4bgth2rcd13ifvqch0","pricing_plan_id":"cebpf4jnsgd1na2vs0mg"},{"bike_id":"1145f840-7ca6-4e8a-b7fb-157b3b61dc7e","system_id":"levelo_inurba_marseille","lat":43.29293,"lon":5.37459,"is_reserved":false,"is_disabled":false,"rental_uris":{"android":"levelo://app?vid=1145f840-7ca6-4e8a-b7fb-157b3b61dc7e","ios":"levelo://app?vid=1145f840-7ca6-4e8a-b7fb-157b3b61dc7e"},"vehicle_type_id":"4","last_reported":1734253776,"current_range_meters":36000,"station_id":"ce4bgi12rcd13ifvqb70","pricing_plan_id":"cebpf4jnsgd1na2vs0mg"},{"bike_id":"be15b9e1-574c-45f1-b914-fc0b9a33b109","system_id":"levelo_inurba_marseille","lat":43.25043,"lon":5.41682,"is_reserved":false,"is_disabled":false,"rental_uris":{"android":"levelo://app?vid=be15b9e1-574c-45f1-b914-fc0b9a33b109","ios":"levelo://app?vid=be15b9e1-574c-45f1-b914-fc0b9a33b109"},"vehicle_type_id":"4","last_reported":1734253776,"current_range_meters":12800,"station_id":"","pricing_plan_id":"cebpf4jnsgd1na2vs0mg"},{"bike_id":"faeeed3d-e1ea-42b2-8154-c03c65ca9361","system_id":"levelo_inurba_marseille","lat":43.26221,"lon":5.37222,"is_reserved":false,"is_disabled":true,"rental_uris":{"android":"levelo://app?vid=faeeed3d-e1ea-42b2-8154-c03c65ca9361","ios":"levelo://app?vid=faeeed3d-e1ea-42b2-8154-c03c65ca9361"},"vehicle_type_id":"4","last_reported":1734253776,"current_range_meters":0,"station_id":"","pricing_plan_id":"cebpf4jnsgd1na2vs0mg"},{"bike_id":"6e9423be-845b-4e07-a6d0-0510ea06ae9a","system_id":"levelo_inurba_marseille","lat":43.28699,"lon":5.37393,"is_reserved":false,"is_disabled":false,"rental_uris":{"android":"levelo://app?vid=6e9423be-845b-4e07-a6d0-0510ea06ae9a","ios":"levelo://app?vid=6e9423be-845b-4e07-a6d0-0510ea06ae9a"},"vehicle_type_id":"4","last_reported":1734253776,"current_range_meters":38400,"station_id":"ce4bh3p2rcd13ifvqdq0","pricing_plan_id":"cebpf4jnsgd1na2vs0mg"},{"bike_id":"8bc2629d-782c-426d-a834-8e5e7d2d5eae","system_id":"levelo_inurba_marseille","lat":43.3133,"lon":5.39702,"is_reserved":false,"is_disabled":false,"rental_uris":{"android":"levelo://app?vid=8bc2629d-782c-426d-a834-8e5e7d2d5eae","ios":"levelo://app?vid=8bc2629d-782c-426d-a834-8e5e7d2d5eae"},"vehicle_type_id":"4","last_reported":1734253776,"current_range_meters":38800,"station_id":"ce4bgvp2rcd13ifvqcu0","pricing_plan_id":"cebpf4jnsgd1na2vs0mg"},{"bike_id":"8bd621e5-e0f9-46ae-945e-0e7644cb271c","system_id":"levelo_inurba_marseille","lat":43.26787,"lon":5.39412,"is_reserved":false,"is_disabled":false,"rental_uris":{"android":"levelo://app?vid=8bd621e5-e0f9-46ae-945e-0e7644cb271c","ios":"levelo://app?vid=8bd621e5-e0f9-46ae-945e-0e7644cb271c"},"vehicle_type_id":"4","last_reported":1734253776,"current_range_meters":36400,"station_id":"ce4bhh12rcd13ifvqfg0","pricing_plan_id":"cebpf4jnsgd1na2vs0mg"},{"bike_id":"6d233442-1f06-40c2-8154-9aabcfcd3454","system_id":"levelo_inurba_marseille","lat":43.31889,"lon":5.40736,"is_reserved":false,"is_disabled":false,"rental_uris":{"android":"levelo://app?vid=6d233442-1f06-40c2-8154-9aabcfcd3454","ios":"levelo://app?vid=6d233442-1f06-40c2-8154-9aabcfcd3454"},"vehicle_type_id":"4","last_reported":1734253776,"current_range_meters":39200,"station_id":"ce4bh0p2rcd13ifvqd70","pricing_plan_id":"cebpf4jnsgd1na2vs0mg"},{"bike_id":"a9d74c34-f2a9-46c2-b266-084deb35affb","system_id":"levelo_inurba_marseille","lat":43.29566,"lon":5.37506,"is_reserved":false,"is_disabled":false,"rental_uris":{"android":"levelo://app?vid=a9d74c34-f2a9-46c2-b266-084deb35affb","ios":"levelo://app?vid=a9d74c34-f2a9-46c2-b266-084deb35affb"},"vehicle_type_id":"4","last_reported":1734253776,"current_range_meters":27200,"station_id":"ce4bgh92rcd13ifvqb50","pricing_plan_id":"cebpf4jnsgd1na2vs0mg"},{"bike_id":"090c1954-0aa5-40e0-8058-ee65ba34b072","system_id":"levelo_inurba_marseille","lat":43.30123,"lon":5.39842,"is_reserved":true,"is_disabled":false,"rental_uris":{"android":"levelo://app?vid=090c1954-0aa5-40e0-8058-ee65ba34b072","ios":"levelo://app?vid=090c1954-0aa5-40e0-8058-ee65ba34b072"},"vehicle_type_id":"4","last_reported":1734253776,"current_range_meters":38800,"station_id":"ce4bh0h2rcd13ifvqd40","pricing_plan_id":"cebpf4jnsgd1na2vs0mg"},{"bike_id":"299cdfa7-55ab-45de-8dbe-4f564308fa76","system_id":"levelo_inurba_marseille","lat":43.28462,"lon":5.35873,"is_reserved":false,"is_disabled":false,"rental_uris":{"android":"levelo://app?vid=299cdfa7-55ab-45de-8dbe-4f564308fa76","ios":"levelo://app?vid=299cdfa7-55ab-45de-8dbe-4f564308fa76"},"vehicle_type_id":"4","last_reported":1734253776,"current_range_meters":35200,"station_id":"ce4bhah2rcd13ifvqei0","pricing_plan_id":"cebpf4jnsgd1na2vs0mg"},{"bike_id":"731fcd3d-6bcf-4d2f-97f8-625ae8dc2b90","system_id":"levelo_inurba_marseille","lat":43.31331,"lon":5.3969,"is_reserved":false,"is_disabled":false,"rental_uris":{"android":"levelo://app?vid=731fcd3d-6bcf-4d2f-97f8-625ae8dc2b90","ios":"levelo://app?vid=731fcd3d-6bcf-4d2f-97f8-625ae8dc2b90"},"vehicle_type_id":"4","last_reported":1734253776,"current_range_meters":33600,"station_id":"ce4bgvp2rcd13ifvqcu0","pricing_plan_id":"cebpf4jnsgd1na2vs0mg"},{"bike_id":"82bedb66-bb39-40ec-b039-044c08064bd0","system_id":"levelo_inurba_marseille","lat":43.25005,"lon":5.3894,"is_reserved":false,"is_disabled":false,"rental_uris":{"android":"levelo://app?vid=82bedb66-bb39-40ec-b039-044c08064bd0","ios":"levelo://app?vid=82bedb66-bb39-40ec-b039-044c08064bd0"},"vehicle_type_id":"4","last_reported":1734253776,"current_range_meters":18800,"station_id":"ce4bhgp2rcd13ifvqfd0","pricing_plan_id":"cebpf4jnsgd1na2vs0mg"},{"bike_id":"98a61bcc-2747-425a-bc3b-7f899982751f","system_id":"levelo_inurba_marseille","lat":43.29277,"lon":5.38389,"is_reserved":false,"is_disabled":false,"rental_uris":{"android":"levelo://app?vid=98a61bcc-2747-425a-bc3b-7f899982751f","ios":"levelo://app?vid=98a61bcc-2747-425a-bc3b-7f899982751f"},"vehicle_type_id":"4","last_reported":1734253776,"current_range_meters":3600,"station_id":"ce4bh692rcd13ifvqea0","pricing_plan_id":"cebpf4jnsgd1na2vs0mg"},{"bike_id":"88341ea4-6ea4-4722-b434-08ec41b7663f","system_id":"levelo_inurba_marseille","lat":43.30596,"lon":5.39349,"is_reserved":false,"is_disabled":true,"rental_uris":{"android":"levelo://app?vid=88341ea4-6ea4-4722-b434-08ec41b7663f","ios":"levelo://app?vid=88341ea4-6ea4-4722-b434-08ec41b7663f"},"vehicle_type_id":"4","last_reported":1734253776,"current_range_meters":29600,"station_id":"ce4bh0p2rcd13ifvqd80","pricing_plan_id":"cebpf4jnsgd1na2vs0mg"},{"bike_id":"edaea664-24e0-4d6c-aa7a-497f5c5f88f6","system_id":"levelo_inurba_marseille","lat":43.27009,"lon":5.39131,"is_reserved":false,"is_disabled":true,"rental_uris":{"android":"levelo://app?vid=edaea664-24e0-4d6c-aa7a-497f5c5f88f6","ios":"levelo://app?vid=edaea664-24e0-4d6c-aa7a-497f5c5f88f6"},"vehicle_type_id":"4","last_reported":1734253776,"current_range_meters":0,"station_id":"","pricing_plan_id":"cebpf4jnsgd1na2vs0mg"},{"bike_id":"1edf453c-8ef7-443f-a97f-313ce3ce8976","system_id":"levelo_inurba_marseille","lat":43.28847,"lon":5.35854,"is_reserved":false,"is_disabled":false,"rental_uris":{"android":"levelo://app?vid=1edf453c-8ef7-443f-a97f-313ce3ce8976","ios":"levelo://app?vid=1edf453c-8ef7-443f-a97f-313ce3ce8976"},"vehicle_type_id":"4","last_reported":1734253776,"current_range_meters":38400,"station_id":"ce4bhb12rcd13ifvqem0","pricing_plan_id":"cebpf4jnsgd1na2vs0mg"},{"bike_id":"596aeb59-a728-4bcc-818e-168911beb867","system_id":"levelo_inurba_marseille","lat":43.267813,"lon":5.39441,"is_reserved":false,"is_disabled":false,"rental_uris":{"android":"levelo://app?vid=596aeb59-a728-4bcc-818e-168911beb867","ios":"levelo://app?vid=596aeb59-a728-4bcc-818e-168911beb867"},"vehicle_type_id":"4","last_reported":1734253776,"current_range_meters":38000,"station_id":"ce4bhh12rcd13ifvqfg0","pricing_plan_id":"cebpf4jnsgd1na2vs0mg"},{"bike_id":"69857d31-3e9b-4dce-b358-dfbe653c1e88","system_id":"levelo_inurba_marseille","lat":43.25583,"lon":5.38235,"is_reserved":false,"is_disabled":false,"rental_uris":{"android":"levelo://app?vid=69857d31-3e9b-4dce-b358-dfbe653c1e88","ios":"levelo://app?vid=69857d31-3e9b-4dce-b358-dfbe653c1e88"},"vehicle_type_id":"4","last_reported":1734253776,"current_range_meters":39200,"station_id":"ce4bhih2rcd13ifvqfs0","pricing_plan_id":"cebpf4jnsgd1na2vs0mg"},{"bike_id":"9c4519df-ec25-4f0d-a94b-017e4806b007","system_id":"levelo_inurba_marseille","lat":43.30484,"lon":5.37918,"is_reserved":false,"is_disabled":false,"rental_uris":{"android":"levelo://app?vid=9c4519df-ec25-4f0d-a94b-017e4806b007","ios":"levelo://app?vid=9c4519df-ec25-4f0d-a94b-017e4806b007"},"vehicle_type_id":"4","last_reported":1734253776,"current_range_meters":37600,"station_id":"ce4bgup2rcd13ifvqcn0","pricing_plan_id":"cebpf4jnsgd1na2vs0mg"},{"bike_id":"fac72c8b-b934-474a-a4d1-1f7f43957d63","system_id":"levelo_inurba_marseille","lat":43.29259,"lon":5.40909,"is_reserved":false,"is_disabled":false,"rental_uris":{"android":"levelo://app?vid=fac72c8b-b934-474a-a4d1-1f7f43957d63","ios":"levelo://app?vid=fac72c8b-b934-474a-a4d1-1f7f43957d63"},"vehicle_type_id":"4","last_reported":1734253776,"current_range_meters":9200,"station_id":"ce4bh192rcd13ifvqdc0","pricing_plan_id":"cebpf4jnsgd1na2vs0mg"},{"bike_id":"0e545a65-9ae7-4ff9-8ddd-fa9316a710e3","system_id":"levelo_inurba_marseille","lat":43.287,"lon":5.37385,"is_reserved":false,"is_disabled":false,"rental_uris":{"android":"levelo://app?vid=0e545a65-9ae7-4ff9-8ddd-fa9316a710e3","ios":"levelo://app?vid=0e545a65-9ae7-4ff9-8ddd-fa9316a710e3"},"vehicle_type_id":"4","last_reported":1734253776,"current_range_meters":30800,"station_id":"ce4bh3p2rcd13ifvqdq0","pricing_plan_id":"cebpf4jnsgd1na2vs0mg"},{"bike_id":"0bf81dcc-c1c3-4e43-a815-57d9ca14a9a2","system_id":"levelo_inurba_marseille","lat":43.308,"lon":5.43521,"is_reserved":false,"is_disabled":false,"rental_uris":{"android":"levelo://app?vid=0bf81dcc-c1c3-4e43-a815-57d9ca14a9a2","ios":"levelo://app?vid=0bf81dcc-c1c3-4e43-a815-57d9ca14a9a2"},"vehicle_type_id":"4","last_reported":1734253776,"current_range_meters":32000,"station_id":"ce4bhph2rcd13ifvqheg","pricing_plan_id":"cebpf4jnsgd1na2vs0mg"},{"bike_id":"ba6abc17-2a1f-45c6-8711-b118d10bc680","system_id":"levelo_inurba_marseille","lat":43.28949,"lon":5.36392,"is_reserved":false,"is_disabled":false,"rental_uris":{"android":"levelo://app?vid=ba6abc17-2a1f-45c6-8711-b118d10bc680","ios":"levelo://app?vid=ba6abc17-2a1f-45c6-8711-b118d10bc680"},"vehicle_type_id":"4","last_reported":1734253776,"current_range_meters":32000,"station_id":"ce4bhc92rcd13ifvqetg","pricing_plan_id":"cebpf4jnsgd1na2vs0mg"},{"bike_id":"929cac19-cf91-4cad-a83b-ad72efe7dcb6","system_id":"levelo_inurba_marseille","lat":43.24669,"lon":5.38155,"is_reserved":false,"is_disabled":false,"rental_uris":{"android":"levelo://app?vid=929cac19-cf91-4cad-a83b-ad72efe7dcb6","ios":"levelo://app?vid=929cac19-cf91-4cad-a83b-ad72efe7dcb6"},"vehicle_type_id":"4","last_reported":1734253776,"current_range_meters":29600,"station_id":"ce4bhih2rcd13ifvqfr0","pricing_plan_id":"cebpf4jnsgd1na2vs0mg"},{"bike_id":"a248f6cc-82f3-4e75-a343-5582d9b4c2e1","system_id":"levelo_inurba_marseille","lat":43.31532,"lon":5.38019,"is_reserved":false,"is_disabled":false,"rental_uris":{"android":"levelo://app?vid=a248f6cc-82f3-4e75-a343-5582d9b4c2e1","ios":"levelo://app?vid=a248f6cc-82f3-4e75-a343-5582d9b4c2e1"},"vehicle_type_id":"4","last_reported":1734253776,"current_range_meters":27200,"station_id":"ce4bhsp2rcd13ifvqi50","pricing_plan_id":"cebpf4jnsgd1na2vs0mg"},{"bike_id":"3d99c312-8e32-4a61-b254-716154e4fc84","system_id":"levelo_inurba_marseille","lat":43.24078,"lon":5.37743,"is_reserved":false,"is_disabled":false,"rental_uris":{"android":"levelo://app?vid=3d99c312-8e32-4a61-b254-716154e4fc84","ios":"levelo://app?vid=3d99c312-8e32-4a61-b254-716154e4fc84"},"vehicle_type_id":"4","last_reported":1734253776,"current_range_meters":37600,"station_id":"ce4bhnp2rcd13ifvqgvg","pricing_plan_id":"cebpf4jnsgd1na2vs0mg"},{"bike_id":"1be8b304-8cfd-458b-96b0-7ea7e10db816","system_id":"levelo_inurba_marseille","lat":43.26941,"lon":5.40252,"is_reserved":false,"is_disabled":false,"rental_uris":{"android":"levelo://app?vid=1be8b304-8cfd-458b-96b0-7ea7e10db816","ios":"levelo://app?vid=1be8b304-8cfd-458b-96b0-7ea7e10db816"},"vehicle_type_id":"4","last_reported":1734253776,"current_range_meters":38800,"station_id":"cjm6bp8fraef2m0cb0m0","pricing_plan_id":"cebpf4jnsgd1na2vs0mg"},{"bike_id":"de13a942-6b49-4d19-a5ee-d0917b73f02e","system_id":"levelo_inurba_marseille","lat":43.2816,"lon":5.4265,"is_reserved":false,"is_disabled":false,"rental_uris":{"android":"levelo://app?vid=de13a942-6b49-4d19-a5ee-d0917b73f02e","ios":"levelo://app?vid=de13a942-6b49-4d19-a5ee-d0917b73f02e"},"vehicle_type_id":"4","last_reported":1734253776,"current_range_meters":38800,"station_id":"ce4bhnh2rcd13ifvqgug","pricing_plan_id":"cebpf4jnsgd1na2vs0mg"},{"bike_id":"478eb993-33e4-473c-bbd6-5f6655ff09d5","system_id":"levelo_inurba_marseille","lat":43.28476,"lon":5.38405,"is_reserved":false,"is_disabled":false,"rental_uris":{"android":"levelo://app?vid=478eb993-33e4-473c-bbd6-5f6655ff09d5","ios":"levelo://app?vid=478eb993-33e4-473c-bbd6-5f6655ff09d5"},"vehicle_type_id":"4","last_reported":1734253776,"current_range_meters":38800,"station_id":"ce4bh512rcd13ifvqe3g","pricing_plan_id":"cebpf4jnsgd1na2vs0mg"},{"bike_id":"fd4efec3-03a9-456d-9f3e-04aeb194cc68","system_id":"levelo_inurba_marseille","lat":43.2582,"lon":5.3944,"is_reserved":false,"is_disabled":false,"rental_uris":{"android":"levelo://app?vid=fd4efec3-03a9-456d-9f3e-04aeb194cc68","ios":"levelo://app?vid=fd4efec3-03a9-456d-9f3e-04aeb194cc68"},"vehicle_type_id":"4","last_reported":1734253776,"current_range_meters":30800,"station_id":"ce4bhip2rcd13ifvqft0","pricing_plan_id":"cebpf4jnsgd1na2vs0mg"},{"bike_id":"6994f3dd-5742-486e-b28b-ea715f1289aa","system_id":"levelo_inurba_marseille","lat":43.33604,"lon":5.40993,"is_reserved":false,"is_disabled":false,"rental_uris":{"android":"levelo://app?vid=6994f3dd-5742-486e-b28b-ea715f1289aa","ios":"levelo://app?vid=6994f3dd-5742-486e-b28b-ea715f1289aa"},"vehicle_type_id":"4","last_reported":1734253776,"current_range_meters":10000,"station_id":"ce4bhqh2rcd13ifvqhmg","pricing_plan_id":"cebpf4jnsgd1na2vs0mg"},{"bike_id":"dfdefa1a-36e5-482a-aafa-f01de140dff1","system_id":"levelo_inurba_marseille","lat":43.28462,"lon":5.35884,"is_reserved":false,"is_disabled":false,"rental_uris":{"android":"levelo://app?vid=dfdefa1a-36e5-482a-aafa-f01de140dff1","ios":"levelo://app?vid=dfdefa1a-36e5-482a-aafa-f01de140dff1"},"vehicle_type_id":"4","last_reported":1734253776,"current_range_meters":26800,"station_id":"ce4bhah2rcd13ifvqei0","pricing_plan_id":"cebpf4jnsgd1na2vs0mg"},{"bike_id":"7482f887-7952-4f02-a5dc-546e954acfc6","system_id":"levelo_inurba_marseille","lat":43.29417,"lon":5.38638,"is_reserved":false,"is_disabled":true,"rental_uris":{"android":"levelo://app?vid=7482f887-7952-4f02-a5dc-546e954acfc6","ios":"levelo://app?vid=7482f887-7952-4f02-a5dc-546e954acfc6"},"vehicle_type_id":"4","last_reported":1734253776,"current_range_meters":5600,"station_id":"ce4bh2h2rcd13ifvqdh0","pricing_plan_id":"cebpf4jnsgd1na2vs0mg"},{"bike_id":"a42b98a9-bd96-429c-b858-2d2c7b33eb2e","system_id":"levelo_inurba_marseille","lat":43.30349,"lon":5.41886,"is_reserved":false,"is_disabled":false,"rental_uris":{"android":"levelo://app?vid=a42b98a9-bd96-429c-b858-2d2c7b33eb2e","ios":"levelo://app?vid=a42b98a9-bd96-429c-b858-2d2c7b33eb2e"},"vehicle_type_id":"4","last_reported":1734253776,"current_range_meters":37600,"station_id":"ce4bhop2rcd13ifvqh7g","pricing_plan_id":"cebpf4jnsgd1na2vs0mg"},{"bike_id":"a833a9f3-c85d-46d1-9f00-941d5a79a2fb","system_id":"levelo_inurba_marseille","lat":43.2318,"lon":5.3553,"is_reserved":false,"is_disabled":false,"rental_uris":{"android":"levelo://app?vid=a833a9f3-c85d-46d1-9f00-941d5a79a2fb","ios":"levelo://app?vid=a833a9f3-c85d-46d1-9f00-941d5a79a2fb"},"vehicle_type_id":"4","last_reported":1734253776,"current_range_meters":36000,"station_id":"ce4bhu92rcd13ifvqi70","pricing_plan_id":"cebpf4jnsgd1na2vs0mg"},{"bike_id":"aa0d6ddf-c3e4-447c-9eb4-0cea75b5bbcd","system_id":"levelo_inurba_marseille","lat":43.30461,"lon":5.3791,"is_reserved":false,"is_disabled":false,"rental_uris":{"android":"levelo://app?vid=aa0d6ddf-c3e4-447c-9eb4-0cea75b5bbcd","ios":"levelo://app?vid=aa0d6ddf-c3e4-447c-9eb4-0cea75b5bbcd"},"vehicle_type_id":"4","last_reported":1734253776,"current_range_meters":6400,"station_id":"ce4bgup2rcd13ifvqcn0","pricing_plan_id":"cebpf4jnsgd1na2vs0mg"},{"bike_id":"56d38bff-b738-444e-a4ce-5b80a80f532a","system_id":"levelo_inurba_marseille","lat":43.29042,"lon":5.39945,"is_reserved":false,"is_disabled":false,"rental_uris":{"android":"levelo://app?vid=56d38bff-b738-444e-a4ce-5b80a80f532a","ios":"levelo://app?vid=56d38bff-b738-444e-a4ce-5b80a80f532a"},"vehicle_type_id":"4","last_reported":1734253776,"current_range_meters":38400,"station_id":"ce4bh392rcd13ifvqdm0","pricing_plan_id":"cebpf4jnsgd1na2vs0mg"},{"bike_id":"0e6e5fe9-00fb-4612-a30a-a69ff66f7186","system_id":"levelo_inurba_marseille","lat":43.32657,"lon":5.40996,"is_reserved":false,"is_disabled":false,"rental_uris":{"android":"levelo://app?vid=0e6e5fe9-00fb-4612-a30a-a69ff66f7186","ios":"levelo://app?vid=0e6e5fe9-00fb-4612-a30a-a69ff66f7186"},"vehicle_type_id":"4","last_reported":1734253776,"current_range_meters":19200,"station_id":"ce4bhpp2rcd13ifvqhgg","pricing_plan_id":"cebpf4jnsgd1na2vs0mg"},{"bike_id":"2fde2325-c422-42fb-bd6a-b015a704ab42","system_id":"levelo_inurba_marseille","lat":43.25107,"lon":5.40329,"is_reserved":false,"is_disabled":false,"rental_uris":{"android":"levelo://app?vid=2fde2325-c422-42fb-bd6a-b015a704ab42","ios":"levelo://app?vid=2fde2325-c422-42fb-bd6a-b015a704ab42"},"vehicle_type_id":"4","last_reported":1734253776,"current_range_meters":9600,"station_id":"ce4bhlh2rcd13ifvqgig","pricing_plan_id":"cebpf4jnsgd1na2vs0mg"},{"bike_id":"ab1a12ea-d28a-40ba-9a09-989f2befb6a9","system_id":"levelo_inurba_marseille","lat":43.30295,"lon":5.39326,"is_reserved":false,"is_disabled":false,"rental_uris":{"android":"levelo://app?vid=ab1a12ea-d28a-40ba-9a09-989f2befb6a9","ios":"levelo://app?vid=ab1a12ea-d28a-40ba-9a09-989f2befb6a9"},"vehicle_type_id":"4","last_reported":1734253776,"current_range_meters":23200,"station_id":"","pricing_plan_id":"cebpf4jnsgd1na2vs0mg"},{"bike_id":"4257f4ce-dc37-4826-bfda-d50aa53f31da","system_id":"levelo_inurba_marseille","lat":43.30476,"lon":5.37897,"is_reserved":false,"is_disabled":false,"rental_uris":{"android":"levelo://app?vid=4257f4ce-dc37-4826-bfda-d50aa53f31da","ios":"levelo://app?vid=4257f4ce-dc37-4826-bfda-d50aa53f31da"},"vehicle_type_id":"4","last_reported":1734253776,"current_range_meters":38800,"station_id":"ce4bgup2rcd13ifvqcn0","pricing_plan_id":"cebpf4jnsgd1na2vs0mg"},{"bike_id":"30c2d320-1958-4ebb-9a37-5650a90311fa","system_id":"levelo_inurba_marseille","lat":43.28707,"lon":5.39978,"is_reserved":false,"is_disabled":false,"rental_uris":{"android":"levelo://app?vid=30c2d320-1958-4ebb-9a37-5650a90311fa","ios":"levelo://app?vid=30c2d320-1958-4ebb-9a37-5650a90311fa"},"vehicle_type_id":"4","last_reported":1734253776,"current_range_meters":30800,"station_id":"ce4bho92rcd13ifvqh3g","pricing_plan_id":"cebpf4jnsgd1na2vs0mg"},{"bike_id":"ae0bdd7b-187c-409c-b2b3-37aac32d4db3","system_id":"levelo_inurba_marseille","lat":43.32367,"lon":5.36762,"is_reserved":false,"is_disabled":false,"rental_uris":{"android":"levelo://app?vid=ae0bdd7b-187c-409c-b2b3-37aac32d4db3","ios":"levelo://app?vid=ae0bdd7b-187c-409c-b2b3-37aac32d4db3"},"vehicle_type_id":"4","last_reported":1734253776,"current_range_meters":36800,"station_id":"ce4bhsh2rcd13ifvqi2g","pricing_plan_id":"cebpf4jnsgd1na2vs0mg"},{"bike_id":"59b259af-328b-4a37-b1cb-eeec53772a2b","system_id":"levelo_inurba_marseille","lat":43.3056,"lon":5.36689,"is_reserved":false,"is_disabled":false,"rental_uris":{"android":"levelo://app?vid=59b259af-328b-4a37-b1cb-eeec53772a2b","ios":"levelo://app?vid=59b259af-328b-4a37-b1cb-eeec53772a2b"},"vehicle_type_id":"4","last_reported":1734253776,"current_range_meters":38800,"station_id":"ce4bgrp2rcd13ifvqc9g","pricing_plan_id":"cebpf4jnsgd1na2vs0mg"},{"bike_id":"42cfffe7-8d2a-4a4f-b8f4-c4e4f1a96726","system_id":"levelo_inurba_marseille","lat":43.26542,"lon":5.37284,"is_reserved":false,"is_disabled":false,"rental_uris":{"android":"levelo://app?vid=42cfffe7-8d2a-4a4f-b8f4-c4e4f1a96726","ios":"levelo://app?vid=42cfffe7-8d2a-4a4f-b8f4-c4e4f1a96726"},"vehicle_type_id":"4","last_reported":1734253776,"current_range_meters":9200,"station_id":"ce4bhg12rcd13ifvqf70","pricing_plan_id":"cebpf4jnsgd1na2vs0mg"},{"bike_id":"9ad311dd-c450-4f09-933a-ef53d4559dc3","system_id":"levelo_inurba_marseille","lat":43.26981,"lon":5.3986,"is_reserved":false,"is_disabled":false,"rental_uris":{"android":"levelo://app?vid=9ad311dd-c450-4f09-933a-ef53d4559dc3","ios":"levelo://app?vid=9ad311dd-c450-4f09-933a-ef53d4559dc3"},"vehicle_type_id":"4","last_reported":1734253776,"current_range_meters":23200,"station_id":"","pricing_plan_id":"cebpf4jnsgd1na2vs0mg"},{"bike_id":"66c12efd-6e02-4a4e-ae9f-753a5d497800","system_id":"levelo_inurba_marseille","lat":43.304535,"lon":5.378901,"is_reserved":false,"is_disabled":false,"rental_uris":{"android":"levelo://app?vid=66c12efd-6e02-4a4e-ae9f-753a5d497800","ios":"levelo://app?vid=66c12efd-6e02-4a4e-ae9f-753a5d497800"},"vehicle_type_id":"4","last_reported":1734253776,"current_range_meters":27600,"station_id":"ce4bgup2rcd13ifvqcn0","pricing_plan_id":"cebpf4jnsgd1na2vs0mg"},{"bike_id":"37456efc-92e9-4863-91c7-bd4d94a41119","system_id":"levelo_inurba_marseille","lat":43.28493,"lon":5.40176,"is_reserved":false,"is_disabled":false,"rental_uris":{"android":"levelo://app?vid=37456efc-92e9-4863-91c7-bd4d94a41119","ios":"levelo://app?vid=37456efc-92e9-4863-91c7-bd4d94a41119"},"vehicle_type_id":"4","last_reported":1734253776,"current_range_meters":9600,"station_id":"","pricing_plan_id":"cebpf4jnsgd1na2vs0mg"},{"bike_id":"b3d14390-190b-440f-9051-81c25bf82452","system_id":"levelo_inurba_marseille","lat":43.3169,"lon":5.40447,"is_reserved":false,"is_disabled":false,"rental_uris":{"android":"levelo://app?vid=b3d14390-190b-440f-9051-81c25bf82452","ios":"levelo://app?vid=b3d14390-190b-440f-9051-81c25bf82452"},"vehicle_type_id":"4","last_reported":1734253776,"current_range_meters":37600,"station_id":"ce4bh012rcd13ifvqd00","pricing_plan_id":"cebpf4jnsgd1na2vs0mg"},{"bike_id":"4e65a034-df43-445b-b411-96d0c9702f35","system_id":"levelo_inurba_marseille","lat":43.25582,"lon":5.382147,"is_reserved":false,"is_disabled":false,"rental_uris":{"android":"levelo://app?vid=4e65a034-df43-445b-b411-96d0c9702f35","ios":"levelo://app?vid=4e65a034-df43-445b-b411-96d0c9702f35"},"vehicle_type_id":"4","last_reported":1734253776,"current_range_meters":11200,"station_id":"ce4bhih2rcd13ifvqfs0","pricing_plan_id":"cebpf4jnsgd1na2vs0mg"},{"bike_id":"af67ac53-ba21-4ff0-8334-95679e9ff2cc","system_id":"levelo_inurba_marseille","lat":43.278805,"lon":5.388003,"is_reserved":false,"is_disabled":true,"rental_uris":{"android":"levelo://app?vid=af67ac53-ba21-4ff0-8334-95679e9ff2cc","ios":"levelo://app?vid=af67ac53-ba21-4ff0-8334-95679e9ff2cc"},"vehicle_type_id":"4","last_reported":1734253776,"current_range_meters":0,"station_id":"","pricing_plan_id":"cebpf4jnsgd1na2vs0mg"},{"bike_id":"c30e4022-7ab9-4fa2-9a08-c19706eb4744","system_id":"levelo_inurba_marseille","lat":43.26488,"lon":5.39548,"is_reserved":false,"is_disabled":false,"rental_uris":{"android":"levelo://app?vid=c30e4022-7ab9-4fa2-9a08-c19706eb4744","ios":"levelo://app?vid=c30e4022-7ab9-4fa2-9a08-c19706eb4744"},"vehicle_type_id":"4","last_reported":1734253776,"current_range_meters":37600,"station_id":"ce4bhi12rcd13ifvqfq0","pricing_plan_id":"cebpf4jnsgd1na2vs0mg"},{"bike_id":"a1646859-c01a-4acf-9da8-f1ee179a778f","system_id":"levelo_inurba_marseille","lat":43.301001,"lon":5.390876,"is_reserved":false,"is_disabled":true,"rental_uris":{"android":"levelo://app?vid=a1646859-c01a-4acf-9da8-f1ee179a778f","ios":"levelo://app?vid=a1646859-c01a-4acf-9da8-f1ee179a778f"},"vehicle_type_id":"4","last_reported":1734253776,"current_range_meters":16800,"station_id":"ce4bh192rcd13ifvqdb0","pricing_plan_id":"cebpf4jnsgd1na2vs0mg"},{"bike_id":"d1689acb-91f8-44e3-8eb0-bfa5e0814331","system_id":"levelo_inurba_marseille","lat":43.299757,"lon":5.37174,"is_reserved":false,"is_disabled":false,"rental_uris":{"android":"levelo://app?vid=d1689acb-91f8-44e3-8eb0-bfa5e0814331","ios":"levelo://app?vid=d1689acb-91f8-44e3-8eb0-bfa5e0814331"},"vehicle_type_id":"4","last_reported":1734253776,"current_range_meters":34800,"station_id":"ce4bgr92rcd13ifvqc7g","pricing_plan_id":"cebpf4jnsgd1na2vs0mg"},{"bike_id":"99b59dbf-2e45-41eb-b792-b777dec89614","system_id":"levelo_inurba_marseille","lat":43.30144,"lon":5.37466,"is_reserved":false,"is_disabled":false,"rental_uris":{"android":"levelo://app?vid=99b59dbf-2e45-41eb-b792-b777dec89614","ios":"levelo://app?vid=99b59dbf-2e45-41eb-b792-b777dec89614"},"vehicle_type_id":"4","last_reported":1734253776,"current_range_meters":38800,"station_id":"ce4bgs92rcd13ifvqcc0","pricing_plan_id":"cebpf4jnsgd1na2vs0mg"},{"bike_id":"fc43bfe3-9f6d-4964-8d03-4526a28744ff","system_id":"levelo_inurba_marseille","lat":43.23959,"lon":5.36636,"is_reserved":false,"is_disabled":false,"rental_uris":{"android":"levelo://app?vid=fc43bfe3-9f6d-4964-8d03-4526a28744ff","ios":"levelo://app?vid=fc43bfe3-9f6d-4964-8d03-4526a28744ff"},"vehicle_type_id":"4","last_reported":1734253776,"current_range_meters":37600,"station_id":"ce4bhi12rcd13ifvqfp0","pricing_plan_id":"cebpf4jnsgd1na2vs0mg"},{"bike_id":"2d64560a-b3a3-4ef3-9e49-740a74128c4c","system_id":"levelo_inurba_marseille","lat":43.29017,"lon":5.38136,"is_reserved":false,"is_disabled":false,"rental_uris":{"android":"levelo://app?vid=2d64560a-b3a3-4ef3-9e49-740a74128c4c","ios":"levelo://app?vid=2d64560a-b3a3-4ef3-9e49-740a74128c4c"},"vehicle_type_id":"4","last_reported":1734253776,"current_range_meters":35200,"station_id":"ce4bh4p2rcd13ifvqe1g","pricing_plan_id":"cebpf4jnsgd1na2vs0mg"},{"bike_id":"f91ea277-a799-4a85-91a9-a41df21cda05","system_id":"levelo_inurba_marseille","lat":43.26552,"lon":5.37279,"is_reserved":false,"is_disabled":false,"rental_uris":{"android":"levelo://app?vid=f91ea277-a799-4a85-91a9-a41df21cda05","ios":"levelo://app?vid=f91ea277-a799-4a85-91a9-a41df21cda05"},"vehicle_type_id":"4","last_reported":1734253776,"current_range_meters":27600,"station_id":"ce4bhg12rcd13ifvqf70","pricing_plan_id":"cebpf4jnsgd1na2vs0mg"},{"bike_id":"d65fcea9-51ba-41f0-86fd-e798dfdd6f09","system_id":"levelo_inurba_marseille","lat":43.28714,"lon":5.38284,"is_reserved":false,"is_disabled":true,"rental_uris":{"android":"levelo://app?vid=d65fcea9-51ba-41f0-86fd-e798dfdd6f09","ios":"levelo://app?vid=d65fcea9-51ba-41f0-86fd-e798dfdd6f09"},"vehicle_type_id":"4","last_reported":1734253776,"current_range_meters":0,"station_id":"","pricing_plan_id":"cebpf4jnsgd1na2vs0mg"},{"bike_id":"656d8740-9b85-4a93-86ce-9d32a0e761f7","system_id":"levelo_inurba_marseille","lat":43.31053,"lon":5.38337,"is_reserved":false,"is_disabled":true,"rental_uris":{"android":"levelo://app?vid=656d8740-9b85-4a93-86ce-9d32a0e761f7","ios":"levelo://app?vid=656d8740-9b85-4a93-86ce-9d32a0e761f7"},"vehicle_type_id":"4","last_reported":1734253776,"current_range_meters":26800,"station_id":"ce4bgv92rcd13ifvqcr0","pricing_plan_id":"cebpf4jnsgd1na2vs0mg"},{"bike_id":"30b09c14-5db6-4bdd-8ec0-8d8fd355bef3","system_id":"levelo_inurba_marseille","lat":43.2988,"lon":5.39736,"is_reserved":false,"is_disabled":true,"rental_uris":{"android":"levelo://app?vid=30b09c14-5db6-4bdd-8ec0-8d8fd355bef3","ios":"levelo://app?vid=30b09c14-5db6-4bdd-8ec0-8d8fd355bef3"},"vehicle_type_id":"4","last_reported":1734253776,"current_range_meters":2800,"station_id":"ce4bh0h2rcd13ifvqd50","pricing_plan_id":"cebpf4jnsgd1na2vs0mg"},{"bike_id":"f08c808c-af08-40b8-81c3-97739c995b77","system_id":"levelo_inurba_marseille","lat":43.301359,"lon":5.398778,"is_reserved":false,"is_disabled":true,"rental_uris":{"android":"levelo://app?vid=f08c808c-af08-40b8-81c3-97739c995b77","ios":"levelo://app?vid=f08c808c-af08-40b8-81c3-97739c995b77"},"vehicle_type_id":"4","last_reported":1734253776,"current_range_meters":28800,"station_id":"ce4bh0h2rcd13ifvqd40","pricing_plan_id":"cebpf4jnsgd1na2vs0mg"},{"bike_id":"86970bbe-b814-43c9-89a2-85f507f309fa","system_id":"levelo_inurba_marseille","lat":43.30547,"lon":5.38445,"is_reserved":false,"is_disabled":true,"rental_uris":{"android":"levelo://app?vid=86970bbe-b814-43c9-89a2-85f507f309fa","ios":"levelo://app?vid=86970bbe-b814-43c9-89a2-85f507f309fa"},"vehicle_type_id":"4","last_reported":1734253776,"current_range_meters":5600,"station_id":"ce4bgg92rcd13ifvqb30","pricing_plan_id":"cebpf4jnsgd1na2vs0mg"},{"bike_id":"0a5563b7-4715-4244-9a6c-3df824957a16","system_id":"levelo_inurba_marseille","lat":43.30469,"lon":5.37903,"is_reserved":false,"is_disabled":false,"rental_uris":{"android":"levelo://app?vid=0a5563b7-4715-4244-9a6c-3df824957a16","ios":"levelo://app?vid=0a5563b7-4715-4244-9a6c-3df824957a16"},"vehicle_type_id":"4","last_reported":1734253776,"current_range_meters":33200,"station_id":"ce4bgup2rcd13ifvqcn0","pricing_plan_id":"cebpf4jnsgd1na2vs0mg"},{"bike_id":"96969163-05be-4d1c-a728-67794615bdfc","system_id":"levelo_inurba_marseille","lat":43.28998,"lon":5.38996,"is_reserved":false,"is_disabled":false,"rental_uris":{"android":"levelo://app?vid=96969163-05be-4d1c-a728-67794615bdfc","ios":"levelo://app?vid=96969163-05be-4d1c-a728-67794615bdfc"},"vehicle_type_id":"4","last_reported":1734253776,"current_range_meters":16800,"station_id":"","pricing_plan_id":"cebpf4jnsgd1na2vs0mg"},{"bike_id":"64203de9-e72b-4d66-9a84-7a315c7ed37f","system_id":"levelo_inurba_marseille","lat":43.29448,"lon":5.37359,"is_reserved":false,"is_disabled":true,"rental_uris":{"android":"levelo://app?vid=64203de9-e72b-4d66-9a84-7a315c7ed37f","ios":"levelo://app?vid=64203de9-e72b-4d66-9a84-7a315c7ed37f"},"vehicle_type_id":"4","last_reported":1734253776,"current_range_meters":0,"station_id":"","pricing_plan_id":"cebpf4jnsgd1na2vs0mg"},{"bike_id":"43a2fa1d-314c-4a4d-b7c9-aa2f198eb73b","system_id":"levelo_inurba_marseille","lat":43.30117,"lon":5.38768,"is_reserved":false,"is_disabled":true,"rental_uris":{"android":"levelo://app?vid=43a2fa1d-314c-4a4d-b7c9-aa2f198eb73b","ios":"levelo://app?vid=43a2fa1d-314c-4a4d-b7c9-aa2f198eb73b"},"vehicle_type_id":"4","last_reported":1734253776,"current_range_meters":30800,"station_id":"ce4bghh2rcd13ifvqb60","pricing_plan_id":"cebpf4jnsgd1na2vs0mg"},{"bike_id":"f40a8800-0282-4e19-ba2d-6a4b73090705","system_id":"levelo_inurba_marseille","lat":43.28678,"lon":5.38664,"is_reserved":false,"is_disabled":true,"rental_uris":{"android":"levelo://app?vid=f40a8800-0282-4e19-ba2d-6a4b73090705","ios":"levelo://app?vid=f40a8800-0282-4e19-ba2d-6a4b73090705"},"vehicle_type_id":"4","last_reported":1734253776,"current_range_meters":28000,"station_id":"ce4bh492rcd13ifvqdug","pricing_plan_id":"cebpf4jnsgd1na2vs0mg"},{"bike_id":"6d4bc041-fd4d-4267-988e-215244eed6dc","system_id":"levelo_inurba_marseille","lat":43.31321,"lon":5.39693,"is_reserved":false,"is_disabled":false,"rental_uris":{"android":"levelo://app?vid=6d4bc041-fd4d-4267-988e-215244eed6dc","ios":"levelo://app?vid=6d4bc041-fd4d-4267-988e-215244eed6dc"},"vehicle_type_id":"4","last_reported":1734253776,"current_range_meters":16800,"station_id":"ce4bgvp2rcd13ifvqcu0","pricing_plan_id":"cebpf4jnsgd1na2vs0mg"},{"bike_id":"69a4ee83-6e65-4f1b-888e-d2e1f2c2056c","system_id":"levelo_inurba_marseille","lat":43.23144,"lon":5.43716,"is_reserved":false,"is_disabled":false,"rental_uris":{"android":"levelo://app?vid=69a4ee83-6e65-4f1b-888e-d2e1f2c2056c","ios":"levelo://app?vid=69a4ee83-6e65-4f1b-888e-d2e1f2c2056c"},"vehicle_type_id":"4","last_reported":1734253776,"current_range_meters":4800,"station_id":"ce4bhmp2rcd13ifvqgog","pricing_plan_id":"cebpf4jnsgd1na2vs0mg"},{"bike_id":"e9c2da41-0cf3-4790-b1bd-5a8d9ecb7255","system_id":"levelo_inurba_marseille","lat":43.26205,"lon":5.37936,"is_reserved":false,"is_disabled":false,"rental_uris":{"android":"levelo://app?vid=e9c2da41-0cf3-4790-b1bd-5a8d9ecb7255","ios":"levelo://app?vid=e9c2da41-0cf3-4790-b1bd-5a8d9ecb7255"},"vehicle_type_id":"4","last_reported":1734253776,"current_range_meters":25600,"station_id":"ce4bhjp2rcd13ifvqg90","pricing_plan_id":"cebpf4jnsgd1na2vs0mg"},{"bike_id":"adee7da9-5311-47cf-803d-bf16909aede7","system_id":"levelo_inurba_marseille","lat":43.2926,"lon":5.36841,"is_reserved":false,"is_disabled":false,"rental_uris":{"android":"levelo://app?vid=adee7da9-5311-47cf-803d-bf16909aede7","ios":"levelo://app?vid=adee7da9-5311-47cf-803d-bf16909aede7"},"vehicle_type_id":"4","last_reported":1734253776,"current_range_meters":10800,"station_id":"ce4bhbp2rcd13ifvqesg","pricing_plan_id":"cebpf4jnsgd1na2vs0mg"},{"bike_id":"70c673d5-6066-4faf-b215-c0e7165e8d28","system_id":"levelo_inurba_marseille","lat":43.26064,"lon":5.39379,"is_reserved":false,"is_disabled":false,"rental_uris":{"android":"levelo://app?vid=70c673d5-6066-4faf-b215-c0e7165e8d28","ios":"levelo://app?vid=70c673d5-6066-4faf-b215-c0e7165e8d28"},"vehicle_type_id":"4","last_reported":1734253776,"current_range_meters":7200,"station_id":"ce4bhh92rcd13ifvqfj0","pricing_plan_id":"cebpf4jnsgd1na2vs0mg"},{"bike_id":"62f547f2-9db6-4920-88a7-271ba03ba5df","system_id":"levelo_inurba_marseille","lat":43.30536,"lon":5.36544,"is_reserved":false,"is_disabled":false,"rental_uris":{"android":"levelo://app?vid=62f547f2-9db6-4920-88a7-271ba03ba5df","ios":"levelo://app?vid=62f547f2-9db6-4920-88a7-271ba03ba5df"},"vehicle_type_id":"4","last_reported":1734253776,"current_range_meters":36800,"station_id":"ce4bgs12rcd13ifvqcag","pricing_plan_id":"cebpf4jnsgd1na2vs0mg"},{"bike_id":"6d8ef379-5d2c-41e5-bd8d-51a3cd22fbe0","system_id":"levelo_inurba_marseille","lat":43.24181,"lon":5.3972,"is_reserved":false,"is_disabled":true,"rental_uris":{"android":"levelo://app?vid=6d8ef379-5d2c-41e5-bd8d-51a3cd22fbe0","ios":"levelo://app?vid=6d8ef379-5d2c-41e5-bd8d-51a3cd22fbe0"},"vehicle_type_id":"4","last_reported":1734253776,"current_range_meters":24000,"station_id":"ce4bhn12rcd13ifvqgpg","pricing_plan_id":"cebpf4jnsgd1na2vs0mg"},{"bike_id":"7bfc9ced-d6e9-4647-9214-0be3719697fb","system_id":"levelo_inurba_marseille","lat":43.29723,"lon":5.36855,"is_reserved":false,"is_disabled":false,"rental_uris":{"android":"levelo://app?vid=7bfc9ced-d6e9-4647-9214-0be3719697fb","ios":"levelo://app?vid=7bfc9ced-d6e9-4647-9214-0be3719697fb"},"vehicle_type_id":"4","last_reported":1734253776,"current_range_meters":35200,"station_id":"ce4bgn12rcd13ifvqbt0","pricing_plan_id":"cebpf4jnsgd1na2vs0mg"},{"bike_id":"1e167604-e152-4bc7-9e09-fcd0608883de","system_id":"levelo_inurba_marseille","lat":43.26948,"lon":5.38641,"is_reserved":false,"is_disabled":false,"rental_uris":{"android":"levelo://app?vid=1e167604-e152-4bc7-9e09-fcd0608883de","ios":"levelo://app?vid=1e167604-e152-4bc7-9e09-fcd0608883de"},"vehicle_type_id":"4","last_reported":1734253776,"current_range_meters":34800,"station_id":"ce4bhh92rcd13ifvqfh0","pricing_plan_id":"cebpf4jnsgd1na2vs0mg"},{"bike_id":"7cacc848-3f0d-4c38-8750-80de5e7ed8af","system_id":"levelo_inurba_marseille","lat":43.29843,"lon":5.36276,"is_reserved":false,"is_disabled":false,"rental_uris":{"android":"levelo://app?vid=7cacc848-3f0d-4c38-8750-80de5e7ed8af","ios":"levelo://app?vid=7cacc848-3f0d-4c38-8750-80de5e7ed8af"},"vehicle_type_id":"4","last_reported":1734253776,"current_range_meters":4400,"station_id":"ce4bgpp2rcd13ifvqc3g","pricing_plan_id":"cebpf4jnsgd1na2vs0mg"},{"bike_id":"1439abaf-9b9f-43de-a744-5ac73d1106a7","system_id":"levelo_inurba_marseille","lat":43.26564,"lon":5.373,"is_reserved":false,"is_disabled":false,"rental_uris":{"android":"levelo://app?vid=1439abaf-9b9f-43de-a744-5ac73d1106a7","ios":"levelo://app?vid=1439abaf-9b9f-43de-a744-5ac73d1106a7"},"vehicle_type_id":"4","last_reported":1734253776,"current_range_meters":29600,"station_id":"ce4bhg12rcd13ifvqf70","pricing_plan_id":"cebpf4jnsgd1na2vs0mg"},{"bike_id":"c9169d90-4952-4442-b216-225cffd88fbb","system_id":"levelo_inurba_marseille","lat":43.287089,"lon":5.399886,"is_reserved":false,"is_disabled":true,"rental_uris":{"android":"levelo://app?vid=c9169d90-4952-4442-b216-225cffd88fbb","ios":"levelo://app?vid=c9169d90-4952-4442-b216-225cffd88fbb"},"vehicle_type_id":"4","last_reported":1734253776,"current_range_meters":0,"station_id":"ce4bho92rcd13ifvqh3g","pricing_plan_id":"cebpf4jnsgd1na2vs0mg"},{"bike_id":"54f55be3-8d0b-4636-9f46-da00c9aa10f1","system_id":"levelo_inurba_marseille","lat":43.3149,"lon":5.37313,"is_reserved":false,"is_disabled":false,"rental_uris":{"android":"levelo://app?vid=54f55be3-8d0b-4636-9f46-da00c9aa10f1","ios":"levelo://app?vid=54f55be3-8d0b-4636-9f46-da00c9aa10f1"},"vehicle_type_id":"4","last_reported":1734253776,"current_range_meters":38400,"station_id":"ce4bgt12rcd13ifvqcd0","pricing_plan_id":"cebpf4jnsgd1na2vs0mg"},{"bike_id":"8ee007d8-92b8-452a-9434-a06c84f8ae3f","system_id":"levelo_inurba_marseille","lat":43.28262,"lon":5.35069,"is_reserved":false,"is_disabled":true,"rental_uris":{"android":"levelo://app?vid=8ee007d8-92b8-452a-9434-a06c84f8ae3f","ios":"levelo://app?vid=8ee007d8-92b8-452a-9434-a06c84f8ae3f"},"vehicle_type_id":"4","last_reported":1734253776,"current_range_meters":1600,"station_id":"ce4bhbp2rcd13ifvqerg","pricing_plan_id":"cebpf4jnsgd1na2vs0mg"},{"bike_id":"9a70ab8e-45dd-444e-ad26-31b6478e5e8d","system_id":"levelo_inurba_marseille","lat":43.28604,"lon":5.37068,"is_reserved":false,"is_disabled":false,"rental_uris":{"android":"levelo://app?vid=9a70ab8e-45dd-444e-ad26-31b6478e5e8d","ios":"levelo://app?vid=9a70ab8e-45dd-444e-ad26-31b6478e5e8d"},"vehicle_type_id":"4","last_reported":1734253776,"current_range_meters":34800,"station_id":"ce4bht12rcd13ifvqi60","pricing_plan_id":"cebpf4jnsgd1na2vs0mg"},{"bike_id":"acda9170-8058-4395-be1d-4f9f6510eb74","system_id":"levelo_inurba_marseille","lat":43.278989,"lon":5.380073,"is_reserved":false,"is_disabled":false,"rental_uris":{"android":"levelo://app?vid=acda9170-8058-4395-be1d-4f9f6510eb74","ios":"levelo://app?vid=acda9170-8058-4395-be1d-4f9f6510eb74"},"vehicle_type_id":"4","last_reported":1734253776,"current_range_meters":26800,"station_id":"ce4bhf92rcd13ifvqf50","pricing_plan_id":"cebpf4jnsgd1na2vs0mg"},{"bike_id":"1246e9ab-e26b-445c-8a7b-5d79fd2ea41e","system_id":"levelo_inurba_marseille","lat":43.29023,"lon":5.38625,"is_reserved":false,"is_disabled":false,"rental_uris":{"android":"levelo://app?vid=1246e9ab-e26b-445c-8a7b-5d79fd2ea41e","ios":"levelo://app?vid=1246e9ab-e26b-445c-8a7b-5d79fd2ea41e"},"vehicle_type_id":"4","last_reported":1734253776,"current_range_meters":15200,"station_id":"ce4bh4p2rcd13ifvqe0g","pricing_plan_id":"cebpf4jnsgd1na2vs0mg"},{"bike_id":"2473bae3-7fe8-4e1b-b193-9ce7694fc0c8","system_id":"levelo_inurba_marseille","lat":43.28152,"lon":5.42639,"is_reserved":false,"is_disabled":false,"rental_uris":{"android":"levelo://app?vid=2473bae3-7fe8-4e1b-b193-9ce7694fc0c8","ios":"levelo://app?vid=2473bae3-7fe8-4e1b-b193-9ce7694fc0c8"},"vehicle_type_id":"4","last_reported":1734253776,"current_range_meters":14000,"station_id":"ce4bhnh2rcd13ifvqgug","pricing_plan_id":"cebpf4jnsgd1na2vs0mg"},{"bike_id":"92676c9b-b9d3-47dc-b554-520b4e0b8a37","system_id":"levelo_inurba_marseille","lat":43.30529,"lon":5.36717,"is_reserved":false,"is_disabled":false,"rental_uris":{"android":"levelo://app?vid=92676c9b-b9d3-47dc-b554-520b4e0b8a37","ios":"levelo://app?vid=92676c9b-b9d3-47dc-b554-520b4e0b8a37"},"vehicle_type_id":"4","last_reported":1734253776,"current_range_meters":28800,"station_id":"ce4bgrp2rcd13ifvqc9g","pricing_plan_id":"cebpf4jnsgd1na2vs0mg"},{"bike_id":"83e5b1f9-e512-4755-8dfd-f85222a054ac","system_id":"levelo_inurba_marseille","lat":43.26838,"lon":5.39634,"is_reserved":false,"is_disabled":false,"rental_uris":{"android":"levelo://app?vid=83e5b1f9-e512-4755-8dfd-f85222a054ac","ios":"levelo://app?vid=83e5b1f9-e512-4755-8dfd-f85222a054ac"},"vehicle_type_id":"4","last_reported":1734253776,"current_range_meters":17600,"station_id":"","pricing_plan_id":"cebpf4jnsgd1na2vs0mg"},{"bike_id":"6b10d37b-3846-4f7e-8b9d-57ca79bbb675","system_id":"levelo_inurba_marseille","lat":43.29523,"lon":5.38561,"is_reserved":false,"is_disabled":true,"rental_uris":{"android":"levelo://app?vid=6b10d37b-3846-4f7e-8b9d-57ca79bbb675","ios":"levelo://app?vid=6b10d37b-3846-4f7e-8b9d-57ca79bbb675"},"vehicle_type_id":"4","last_reported":1734253776,"current_range_meters":35200,"station_id":"ce4bgih2rcd13ifvqba0","pricing_plan_id":"cebpf4jnsgd1na2vs0mg"},{"bike_id":"9703c418-561c-4947-909b-5280aa1605c3","system_id":"levelo_inurba_marseille","lat":43.24188,"lon":5.39735,"is_reserved":false,"is_disabled":false,"rental_uris":{"android":"levelo://app?vid=9703c418-561c-4947-909b-5280aa1605c3","ios":"levelo://app?vid=9703c418-561c-4947-909b-5280aa1605c3"},"vehicle_type_id":"4","last_reported":1734253776,"current_range_meters":38000,"station_id":"ce4bhn12rcd13ifvqgpg","pricing_plan_id":"cebpf4jnsgd1na2vs0mg"},{"bike_id":"03e86f1e-329f-4f78-b183-eaaa3acb297d","system_id":"levelo_inurba_marseille","lat":43.2894,"lon":5.36395,"is_reserved":false,"is_disabled":false,"rental_uris":{"android":"levelo://app?vid=03e86f1e-329f-4f78-b183-eaaa3acb297d","ios":"levelo://app?vid=03e86f1e-329f-4f78-b183-eaaa3acb297d"},"vehicle_type_id":"4","last_reported":1734253776,"current_range_meters":38800,"station_id":"ce4bhc92rcd13ifvqetg","pricing_plan_id":"cebpf4jnsgd1na2vs0mg"},{"bike_id":"377ad416-b0ae-445f-b4f6-76ea4fd47056","system_id":"levelo_inurba_marseille","lat":43.27907,"lon":5.37999,"is_reserved":false,"is_disabled":false,"rental_uris":{"android":"levelo://app?vid=377ad416-b0ae-445f-b4f6-76ea4fd47056","ios":"levelo://app?vid=377ad416-b0ae-445f-b4f6-76ea4fd47056"},"vehicle_type_id":"4","last_reported":1734253776,"current_range_meters":10800,"station_id":"ce4bhf92rcd13ifvqf50","pricing_plan_id":"cebpf4jnsgd1na2vs0mg"},{"bike_id":"e4a468b9-29bc-4c02-a870-a052848ba59f","system_id":"levelo_inurba_marseille","lat":43.27306,"lon":5.39072,"is_reserved":false,"is_disabled":false,"rental_uris":{"android":"levelo://app?vid=e4a468b9-29bc-4c02-a870-a052848ba59f","ios":"levelo://app?vid=e4a468b9-29bc-4c02-a870-a052848ba59f"},"vehicle_type_id":"4","last_reported":1734253776,"current_range_meters":14400,"station_id":"ce4bhgp2rcd13ifvqfe0","pricing_plan_id":"cebpf4jnsgd1na2vs0mg"},{"bike_id":"cabbe712-3b5d-4139-bea3-e6e99a91f1e4","system_id":"levelo_inurba_marseille","lat":43.29534,"lon":5.37506,"is_reserved":false,"is_disabled":false,"rental_uris":{"android":"levelo://app?vid=cabbe712-3b5d-4139-bea3-e6e99a91f1e4","ios":"levelo://app?vid=cabbe712-3b5d-4139-bea3-e6e99a91f1e4"},"vehicle_type_id":"4","last_reported":1734253776,"current_range_meters":22800,"station_id":"ce4bgkp2rcd13ifvqbmg","pricing_plan_id":"cebpf4jnsgd1na2vs0mg"},{"bike_id":"2197cd6c-5f9c-484a-827f-be914afe4ada","system_id":"levelo_inurba_marseille","lat":43.31893,"lon":5.40719,"is_reserved":false,"is_disabled":false,"rental_uris":{"android":"levelo://app?vid=2197cd6c-5f9c-484a-827f-be914afe4ada","ios":"levelo://app?vid=2197cd6c-5f9c-484a-827f-be914afe4ada"},"vehicle_type_id":"4","last_reported":1734253776,"current_range_meters":8400,"station_id":"ce4bhq12rcd13ifvqhig","pricing_plan_id":"cebpf4jnsgd1na2vs0mg"},{"bike_id":"822ac743-8a59-4ac9-b1cd-071eed1f5a89","system_id":"levelo_inurba_marseille","lat":43.2619,"lon":5.3745,"is_reserved":false,"is_disabled":false,"rental_uris":{"android":"levelo://app?vid=822ac743-8a59-4ac9-b1cd-071eed1f5a89","ios":"levelo://app?vid=822ac743-8a59-4ac9-b1cd-071eed1f5a89"},"vehicle_type_id":"4","last_reported":1734253776,"current_range_meters":14800,"station_id":"ce4bhgp2rcd13ifvqfc0","pricing_plan_id":"cebpf4jnsgd1na2vs0mg"},{"bike_id":"891e2aa2-120f-4436-9ec9-521d4e6a01a3","system_id":"levelo_inurba_marseille","lat":43.29898,"lon":5.43664,"is_reserved":false,"is_disabled":false,"rental_uris":{"android":"levelo://app?vid=891e2aa2-120f-4436-9ec9-521d4e6a01a3","ios":"levelo://app?vid=891e2aa2-120f-4436-9ec9-521d4e6a01a3"},"vehicle_type_id":"4","last_reported":1734253776,"current_range_meters":38800,"station_id":"ce4bhpp2rcd13ifvqhfg","pricing_plan_id":"cebpf4jnsgd1na2vs0mg"},{"bike_id":"11e33244-ec01-4de3-8e76-eb20dfc59aff","system_id":"levelo_inurba_marseille","lat":43.25814,"lon":5.39436,"is_reserved":false,"is_disabled":false,"rental_uris":{"android":"levelo://app?vid=11e33244-ec01-4de3-8e76-eb20dfc59aff","ios":"levelo://app?vid=11e33244-ec01-4de3-8e76-eb20dfc59aff"},"vehicle_type_id":"4","last_reported":1734253776,"current_range_meters":23200,"station_id":"ce4bhip2rcd13ifvqft0","pricing_plan_id":"cebpf4jnsgd1na2vs0mg"},{"bike_id":"693c1ece-3329-4985-9a2b-c90b1fe06ddf","system_id":"levelo_inurba_marseille","lat":43.3176,"lon":5.39014,"is_reserved":false,"is_disabled":false,"rental_uris":{"android":"levelo://app?vid=693c1ece-3329-4985-9a2b-c90b1fe06ddf","ios":"levelo://app?vid=693c1ece-3329-4985-9a2b-c90b1fe06ddf"},"vehicle_type_id":"4","last_reported":1734253776,"current_range_meters":25200,"station_id":"ce4bhqp2rcd13ifvqhng","pricing_plan_id":"cebpf4jnsgd1na2vs0mg"},{"bike_id":"b4f28572-e9c3-4d89-a9c6-b22627fb6aff","system_id":"levelo_inurba_marseille","lat":43.32546,"lon":5.41456,"is_reserved":false,"is_disabled":false,"rental_uris":{"android":"levelo://app?vid=b4f28572-e9c3-4d89-a9c6-b22627fb6aff","ios":"levelo://app?vid=b4f28572-e9c3-4d89-a9c6-b22627fb6aff"},"vehicle_type_id":"4","last_reported":1734253776,"current_range_meters":20400,"station_id":"ce4bhq12rcd13ifvqhhg","pricing_plan_id":"cebpf4jnsgd1na2vs0mg"},{"bike_id":"b03c9901-9df1-47e0-b75b-f8a7d6b7ee02","system_id":"levelo_inurba_marseille","lat":43.27689,"lon":5.38872,"is_reserved":false,"is_disabled":false,"rental_uris":{"android":"levelo://app?vid=b03c9901-9df1-47e0-b75b-f8a7d6b7ee02","ios":"levelo://app?vid=b03c9901-9df1-47e0-b75b-f8a7d6b7ee02"},"vehicle_type_id":"4","last_reported":1734253776,"current_range_meters":38800,"station_id":"ce4bhi12rcd13ifvqfo0","pricing_plan_id":"cebpf4jnsgd1na2vs0mg"},{"bike_id":"f98e7e7f-5920-4770-8e6a-e1e9626c2cb5","system_id":"levelo_inurba_marseille","lat":43.25819,"lon":5.39418,"is_reserved":false,"is_disabled":false,"rental_uris":{"android":"levelo://app?vid=f98e7e7f-5920-4770-8e6a-e1e9626c2cb5","ios":"levelo://app?vid=f98e7e7f-5920-4770-8e6a-e1e9626c2cb5"},"vehicle_type_id":"4","last_reported":1734253776,"current_range_meters":8400,"station_id":"ce4bhip2rcd13ifvqft0","pricing_plan_id":"cebpf4jnsgd1na2vs0mg"},{"bike_id":"55ce578e-dec3-47c6-bc2a-3369d6d751b1","system_id":"levelo_inurba_marseille","lat":43.2319,"lon":5.39988,"is_reserved":false,"is_disabled":true,"rental_uris":{"android":"levelo://app?vid=55ce578e-dec3-47c6-bc2a-3369d6d751b1","ios":"levelo://app?vid=55ce578e-dec3-47c6-bc2a-3369d6d751b1"},"vehicle_type_id":"4","last_reported":1734253776,"current_range_meters":0,"station_id":"ce4bhn12rcd13ifvqgqg","pricing_plan_id":"cebpf4jnsgd1na2vs0mg"},{"bike_id":"3ceb8620-8a84-4dff-8047-301dc3087867","system_id":"levelo_inurba_marseille","lat":43.27687,"lon":5.38931,"is_reserved":false,"is_disabled":true,"rental_uris":{"android":"levelo://app?vid=3ceb8620-8a84-4dff-8047-301dc3087867","ios":"levelo://app?vid=3ceb8620-8a84-4dff-8047-301dc3087867"},"vehicle_type_id":"4","last_reported":1734253776,"current_range_meters":38800,"station_id":"ce4bhi12rcd13ifvqfo0","pricing_plan_id":"cebpf4jnsgd1na2vs0mg"},{"bike_id":"49a862ba-1a4c-4c55-9cb2-feb66c44392a","system_id":"levelo_inurba_marseille","lat":43.28074,"lon":5.39642,"is_reserved":false,"is_disabled":false,"rental_uris":{"android":"levelo://app?vid=49a862ba-1a4c-4c55-9cb2-feb66c44392a","ios":"levelo://app?vid=49a862ba-1a4c-4c55-9cb2-feb66c44392a"},"vehicle_type_id":"4","last_reported":1734253776,"current_range_meters":32400,"station_id":"ce4bho12rcd13ifvqh2g","pricing_plan_id":"cebpf4jnsgd1na2vs0mg"},{"bike_id":"4e3eebec-f009-4887-809b-5f30495d5092","system_id":"levelo_inurba_marseille","lat":43.286971,"lon":5.373996,"is_reserved":false,"is_disabled":true,"rental_uris":{"android":"levelo://app?vid=4e3eebec-f009-4887-809b-5f30495d5092","ios":"levelo://app?vid=4e3eebec-f009-4887-809b-5f30495d5092"},"vehicle_type_id":"4","last_reported":1734253776,"current_range_meters":20800,"station_id":"ce4bh3p2rcd13ifvqdq0","pricing_plan_id":"cebpf4jnsgd1na2vs0mg"},{"bike_id":"eb1496f4-67ed-47fd-8660-60023378367f","system_id":"levelo_inurba_marseille","lat":43.294212,"lon":5.374322,"is_reserved":false,"is_disabled":true,"rental_uris":{"android":"levelo://app?vid=eb1496f4-67ed-47fd-8660-60023378367f","ios":"levelo://app?vid=eb1496f4-67ed-47fd-8660-60023378367f"},"vehicle_type_id":"4","last_reported":1734253776,"current_range_meters":0,"station_id":"","pricing_plan_id":"cebpf4jnsgd1na2vs0mg"},{"bike_id":"71adf873-8534-4b4c-88ad-a35b28cb9554","system_id":"levelo_inurba_marseille","lat":43.24793,"lon":5.41176,"is_reserved":false,"is_disabled":false,"rental_uris":{"android":"levelo://app?vid=71adf873-8534-4b4c-88ad-a35b28cb9554","ios":"levelo://app?vid=71adf873-8534-4b4c-88ad-a35b28cb9554"},"vehicle_type_id":"4","last_reported":1734253776,"current_range_meters":22800,"station_id":"","pricing_plan_id":"cebpf4jnsgd1na2vs0mg"},{"bike_id":"c0c3fc51-3be3-4932-a397-78224f09cbb8","system_id":"levelo_inurba_marseille","lat":43.3124,"lon":5.36883,"is_reserved":false,"is_disabled":false,"rental_uris":{"android":"levelo://app?vid=c0c3fc51-3be3-4932-a397-78224f09cbb8","ios":"levelo://app?vid=c0c3fc51-3be3-4932-a397-78224f09cbb8"},"vehicle_type_id":"4","last_reported":1734253776,"current_range_meters":28800,"station_id":"ce4bgl92rcd13ifvqbq0","pricing_plan_id":"cebpf4jnsgd1na2vs0mg"},{"bike_id":"72b78e3c-9436-4602-b8f7-c3b4cfc6b4c9","system_id":"levelo_inurba_marseille","lat":43.28864,"lon":5.35858,"is_reserved":false,"is_disabled":false,"rental_uris":{"android":"levelo://app?vid=72b78e3c-9436-4602-b8f7-c3b4cfc6b4c9","ios":"levelo://app?vid=72b78e3c-9436-4602-b8f7-c3b4cfc6b4c9"},"vehicle_type_id":"4","last_reported":1734253776,"current_range_meters":38000,"station_id":"ce4bhb12rcd13ifvqem0","pricing_plan_id":"cebpf4jnsgd1na2vs0mg"},{"bike_id":"92d2efa5-a046-44e2-bcee-36b214696827","system_id":"levelo_inurba_marseille","lat":43.3047,"lon":5.3791,"is_reserved":false,"is_disabled":false,"rental_uris":{"android":"levelo://app?vid=92d2efa5-a046-44e2-bcee-36b214696827","ios":"levelo://app?vid=92d2efa5-a046-44e2-bcee-36b214696827"},"vehicle_type_id":"4","last_reported":1734253776,"current_range_meters":36000,"station_id":"ce4bgup2rcd13ifvqcn0","pricing_plan_id":"cebpf4jnsgd1na2vs0mg"},{"bike_id":"89279354-425a-43ed-88e0-e33589adca68","system_id":"levelo_inurba_marseille","lat":43.26938,"lon":5.38921,"is_reserved":false,"is_disabled":false,"rental_uris":{"android":"levelo://app?vid=89279354-425a-43ed-88e0-e33589adca68","ios":"levelo://app?vid=89279354-425a-43ed-88e0-e33589adca68"},"vehicle_type_id":"4","last_reported":1734253776,"current_range_meters":36800,"station_id":"ce4bhhh2rcd13ifvqfl0","pricing_plan_id":"cebpf4jnsgd1na2vs0mg"},{"bike_id":"e417af0d-29ea-459e-9bdd-15daa8ff17e0","system_id":"levelo_inurba_marseille","lat":43.29542,"lon":5.38541,"is_reserved":false,"is_disabled":true,"rental_uris":{"android":"levelo://app?vid=e417af0d-29ea-459e-9bdd-15daa8ff17e0","ios":"levelo://app?vid=e417af0d-29ea-459e-9bdd-15daa8ff17e0"},"vehicle_type_id":"4","last_reported":1734253776,"current_range_meters":38000,"station_id":"ce4bgih2rcd13ifvqba0","pricing_plan_id":"cebpf4jnsgd1na2vs0mg"},{"bike_id":"7d1db28c-edeb-4a91-9b40-97c4e6901127","system_id":"levelo_inurba_marseille","lat":43.25726,"lon":5.41097,"is_reserved":false,"is_disabled":false,"rental_uris":{"android":"levelo://app?vid=7d1db28c-edeb-4a91-9b40-97c4e6901127","ios":"levelo://app?vid=7d1db28c-edeb-4a91-9b40-97c4e6901127"},"vehicle_type_id":"4","last_reported":1734253776,"current_range_meters":24400,"station_id":"ce4bhkp2rcd13ifvqgd0","pricing_plan_id":"cebpf4jnsgd1na2vs0mg"},{"bike_id":"bf34e5ed-4707-4f30-8cfc-bbb932ab729f","system_id":"levelo_inurba_marseille","lat":43.31488,"lon":5.37309,"is_reserved":false,"is_disabled":false,"rental_uris":{"android":"levelo://app?vid=bf34e5ed-4707-4f30-8cfc-bbb932ab729f","ios":"levelo://app?vid=bf34e5ed-4707-4f30-8cfc-bbb932ab729f"},"vehicle_type_id":"4","last_reported":1734253776,"current_range_meters":36400,"station_id":"ce4bgt12rcd13ifvqcd0","pricing_plan_id":"cebpf4jnsgd1na2vs0mg"},{"bike_id":"143984d1-a74a-4048-850f-9945bd4e9e1a","system_id":"levelo_inurba_marseille","lat":43.24178,"lon":5.39717,"is_reserved":false,"is_disabled":false,"rental_uris":{"android":"levelo://app?vid=143984d1-a74a-4048-850f-9945bd4e9e1a","ios":"levelo://app?vid=143984d1-a74a-4048-850f-9945bd4e9e1a"},"vehicle_type_id":"4","last_reported":1734253776,"current_range_meters":11600,"station_id":"ce4bhn12rcd13ifvqgpg","pricing_plan_id":"cebpf4jnsgd1na2vs0mg"},{"bike_id":"abdf81ec-e98d-4dee-9e25-ca8f28442f23","system_id":"levelo_inurba_marseille","lat":43.2971,"lon":5.40714,"is_reserved":false,"is_disabled":true,"rental_uris":{"android":"levelo://app?vid=abdf81ec-e98d-4dee-9e25-ca8f28442f23","ios":"levelo://app?vid=abdf81ec-e98d-4dee-9e25-ca8f28442f23"},"vehicle_type_id":"4","last_reported":1734253776,"current_range_meters":0,"station_id":"","pricing_plan_id":"cebpf4jnsgd1na2vs0mg"},{"bike_id":"56a44aec-4383-4004-9164-02ac5de8f956","system_id":"levelo_inurba_marseille","lat":43.28874,"lon":5.3586,"is_reserved":false,"is_disabled":false,"rental_uris":{"android":"levelo://app?vid=56a44aec-4383-4004-9164-02ac5de8f956","ios":"levelo://app?vid=56a44aec-4383-4004-9164-02ac5de8f956"},"vehicle_type_id":"4","last_reported":1734253776,"current_range_meters":20000,"station_id":"ce4bhb12rcd13ifvqem0","pricing_plan_id":"cebpf4jnsgd1na2vs0mg"},{"bike_id":"748a382e-7fe2-4a58-a98a-ff4a5538255b","system_id":"levelo_inurba_marseille","lat":43.31356,"lon":5.38511,"is_reserved":false,"is_disabled":false,"rental_uris":{"android":"levelo://app?vid=748a382e-7fe2-4a58-a98a-ff4a5538255b","ios":"levelo://app?vid=748a382e-7fe2-4a58-a98a-ff4a5538255b"},"vehicle_type_id":"4","last_reported":1734253776,"current_range_meters":33200,"station_id":"ce4bgt92rcd13ifvqcf0","pricing_plan_id":"cebpf4jnsgd1na2vs0mg"},{"bike_id":"4a10ded7-00ff-4ff3-bc89-44b487cf8699","system_id":"levelo_inurba_marseille","lat":43.25132,"lon":5.40361,"is_reserved":false,"is_disabled":false,"rental_uris":{"android":"levelo://app?vid=4a10ded7-00ff-4ff3-bc89-44b487cf8699","ios":"levelo://app?vid=4a10ded7-00ff-4ff3-bc89-44b487cf8699"},"vehicle_type_id":"4","last_reported":1734253776,"current_range_meters":38000,"station_id":"ce4bhlh2rcd13ifvqgig","pricing_plan_id":"cebpf4jnsgd1na2vs0mg"},{"bike_id":"356dfda2-a9ff-4cfa-9890-45dec360cba0","system_id":"levelo_inurba_marseille","lat":43.29187,"lon":5.35796,"is_reserved":false,"is_disabled":false,"rental_uris":{"android":"levelo://app?vid=356dfda2-a9ff-4cfa-9890-45dec360cba0","ios":"levelo://app?vid=356dfda2-a9ff-4cfa-9890-45dec360cba0"},"vehicle_type_id":"4","last_reported":1734253776,"current_range_meters":28800,"station_id":"ce4bhb12rcd13ifvqel0","pricing_plan_id":"cebpf4jnsgd1na2vs0mg"},{"bike_id":"17cc4ddb-de8e-47e0-b9b2-0d9cd13f8f19","system_id":"levelo_inurba_marseille","lat":43.33609,"lon":5.41022,"is_reserved":false,"is_disabled":false,"rental_uris":{"android":"levelo://app?vid=17cc4ddb-de8e-47e0-b9b2-0d9cd13f8f19","ios":"levelo://app?vid=17cc4ddb-de8e-47e0-b9b2-0d9cd13f8f19"},"vehicle_type_id":"4","last_reported":1734253776,"current_range_meters":10000,"station_id":"ce4bhqh2rcd13ifvqhmg","pricing_plan_id":"cebpf4jnsgd1na2vs0mg"},{"bike_id":"4a3f8d2d-f364-4fd4-b613-fa3127f4f11e","system_id":"levelo_inurba_marseille","lat":43.30563,"lon":5.36691,"is_reserved":false,"is_disabled":false,"rental_uris":{"android":"levelo://app?vid=4a3f8d2d-f364-4fd4-b613-fa3127f4f11e","ios":"levelo://app?vid=4a3f8d2d-f364-4fd4-b613-fa3127f4f11e"},"vehicle_type_id":"4","last_reported":1734253776,"current_range_meters":38800,"station_id":"ce4bgrp2rcd13ifvqc9g","pricing_plan_id":"cebpf4jnsgd1na2vs0mg"},{"bike_id":"ecbfcd56-e2e9-411a-916b-327a5fa7e43b","system_id":"levelo_inurba_marseille","lat":43.30025,"lon":5.37353,"is_reserved":false,"is_disabled":false,"rental_uris":{"android":"levelo://app?vid=ecbfcd56-e2e9-411a-916b-327a5fa7e43b","ios":"levelo://app?vid=ecbfcd56-e2e9-411a-916b-327a5fa7e43b"},"vehicle_type_id":"4","last_reported":1734253776,"current_range_meters":25200,"station_id":"","pricing_plan_id":"cebpf4jnsgd1na2vs0mg"},{"bike_id":"a132d949-74e3-4004-a0b3-c7cf0996e5ee","system_id":"levelo_inurba_marseille","lat":43.286809,"lon":5.386651,"is_reserved":false,"is_disabled":false,"rental_uris":{"android":"levelo://app?vid=a132d949-74e3-4004-a0b3-c7cf0996e5ee","ios":"levelo://app?vid=a132d949-74e3-4004-a0b3-c7cf0996e5ee"},"vehicle_type_id":"4","last_reported":1734253776,"current_range_meters":26800,"station_id":"ce4bh492rcd13ifvqdug","pricing_plan_id":"cebpf4jnsgd1na2vs0mg"},{"bike_id":"1c87d241-7d02-4226-8a8e-579b690ff470","system_id":"levelo_inurba_marseille","lat":43.29793,"lon":5.37112,"is_reserved":false,"is_disabled":false,"rental_uris":{"android":"levelo://app?vid=1c87d241-7d02-4226-8a8e-579b690ff470","ios":"levelo://app?vid=1c87d241-7d02-4226-8a8e-579b690ff470"},"vehicle_type_id":"4","last_reported":1734253776,"current_range_meters":38400,"station_id":"ce4bgop2rcd13ifvqc1g","pricing_plan_id":"cebpf4jnsgd1na2vs0mg"},{"bike_id":"c49d0b36-a904-4989-989f-03e87e1e825d","system_id":"levelo_inurba_marseille","lat":43.29712,"lon":5.36615,"is_reserved":false,"is_disabled":false,"rental_uris":{"android":"levelo://app?vid=c49d0b36-a904-4989-989f-03e87e1e825d","ios":"levelo://app?vid=c49d0b36-a904-4989-989f-03e87e1e825d"},"vehicle_type_id":"4","last_reported":1734253776,"current_range_meters":30400,"station_id":"ce4bgn12rcd13ifvqbt0","pricing_plan_id":"cebpf4jnsgd1na2vs0mg"},{"bike_id":"a170ba40-17b7-4bf6-90f8-c07a5cf55709","system_id":"levelo_inurba_marseille","lat":43.24656,"lon":5.3889,"is_reserved":false,"is_disabled":true,"rental_uris":{"android":"levelo://app?vid=a170ba40-17b7-4bf6-90f8-c07a5cf55709","ios":"levelo://app?vid=a170ba40-17b7-4bf6-90f8-c07a5cf55709"},"vehicle_type_id":"4","last_reported":1734253776,"current_range_meters":38400,"station_id":"ce4bhg12rcd13ifvqf60","pricing_plan_id":"cebpf4jnsgd1na2vs0mg"},{"bike_id":"b89cd02a-44c8-4fbb-83be-fee20ca926ec","system_id":"levelo_inurba_marseille","lat":43.25112,"lon":5.40317,"is_reserved":false,"is_disabled":false,"rental_uris":{"android":"levelo://app?vid=b89cd02a-44c8-4fbb-83be-fee20ca926ec","ios":"levelo://app?vid=b89cd02a-44c8-4fbb-83be-fee20ca926ec"},"vehicle_type_id":"4","last_reported":1734253776,"current_range_meters":38800,"station_id":"ce4bhlh2rcd13ifvqgig","pricing_plan_id":"cebpf4jnsgd1na2vs0mg"},{"bike_id":"2f36d89a-fa07-49ea-8059-c80047b4799f","system_id":"levelo_inurba_marseille","lat":43.307983,"lon":5.381529,"is_reserved":false,"is_disabled":false,"rental_uris":{"android":"levelo://app?vid=2f36d89a-fa07-49ea-8059-c80047b4799f","ios":"levelo://app?vid=2f36d89a-fa07-49ea-8059-c80047b4799f"},"vehicle_type_id":"4","last_reported":1734253776,"current_range_meters":38800,"station_id":"ce4bgt12rcd13ifvqce0","pricing_plan_id":"cebpf4jnsgd1na2vs0mg"},{"bike_id":"5b6ca433-01a6-4103-9759-da4f588af137","system_id":"levelo_inurba_marseille","lat":43.279,"lon":5.37999,"is_reserved":false,"is_disabled":false,"rental_uris":{"android":"levelo://app?vid=5b6ca433-01a6-4103-9759-da4f588af137","ios":"levelo://app?vid=5b6ca433-01a6-4103-9759-da4f588af137"},"vehicle_type_id":"4","last_reported":1734253776,"current_range_meters":16000,"station_id":"ce4bhf92rcd13ifvqf50","pricing_plan_id":"cebpf4jnsgd1na2vs0mg"},{"bike_id":"275ee744-5d9b-4ac8-bb35-a47c0223f564","system_id":"levelo_inurba_marseille","lat":43.32539,"lon":5.41472,"is_reserved":false,"is_disabled":false,"rental_uris":{"android":"levelo://app?vid=275ee744-5d9b-4ac8-bb35-a47c0223f564","ios":"levelo://app?vid=275ee744-5d9b-4ac8-bb35-a47c0223f564"},"vehicle_type_id":"4","last_reported":1734253776,"current_range_meters":38800,"station_id":"ce4bhq12rcd13ifvqhhg","pricing_plan_id":"cebpf4jnsgd1na2vs0mg"},{"bike_id":"c51154b5-1034-4fc0-8fac-d1d2e91dba39","system_id":"levelo_inurba_marseille","lat":43.23062,"lon":5.3549,"is_reserved":false,"is_disabled":false,"rental_uris":{"android":"levelo://app?vid=c51154b5-1034-4fc0-8fac-d1d2e91dba39","ios":"levelo://app?vid=c51154b5-1034-4fc0-8fac-d1d2e91dba39"},"vehicle_type_id":"4","last_reported":1734253776,"current_range_meters":6800,"station_id":"cpo3342slgdg3j2ifvpg","pricing_plan_id":"cebpf4jnsgd1na2vs0mg"},{"bike_id":"81922913-025c-48aa-95f6-abda6a176a85","system_id":"levelo_inurba_marseille","lat":43.30779,"lon":5.37654,"is_reserved":false,"is_disabled":false,"rental_uris":{"android":"levelo://app?vid=81922913-025c-48aa-95f6-abda6a176a85","ios":"levelo://app?vid=81922913-025c-48aa-95f6-abda6a176a85"},"vehicle_type_id":"4","last_reported":1734253776,"current_range_meters":38000,"station_id":"ce4bgv92rcd13ifvqcq0","pricing_plan_id":"cebpf4jnsgd1na2vs0mg"},{"bike_id":"d361eec5-1d66-4054-83a1-879726484406","system_id":"levelo_inurba_marseille","lat":43.3131,"lon":5.39701,"is_reserved":false,"is_disabled":false,"rental_uris":{"android":"levelo://app?vid=d361eec5-1d66-4054-83a1-879726484406","ios":"levelo://app?vid=d361eec5-1d66-4054-83a1-879726484406"},"vehicle_type_id":"4","last_reported":1734253776,"current_range_meters":38800,"station_id":"ce4bgvp2rcd13ifvqcu0","pricing_plan_id":"cebpf4jnsgd1na2vs0mg"},{"bike_id":"70f7a315-b85d-4190-a2ce-fade8d3017ff","system_id":"levelo_inurba_marseille","lat":43.32366,"lon":5.38889,"is_reserved":false,"is_disabled":true,"rental_uris":{"android":"levelo://app?vid=70f7a315-b85d-4190-a2ce-fade8d3017ff","ios":"levelo://app?vid=70f7a315-b85d-4190-a2ce-fade8d3017ff"},"vehicle_type_id":"4","last_reported":1734253776,"current_range_meters":0,"station_id":"ce4bhqp2rcd13ifvqhog","pricing_plan_id":"cebpf4jnsgd1na2vs0mg"},{"bike_id":"266f7fca-62d8-462d-83ba-67663ab9bbef","system_id":"levelo_inurba_marseille","lat":43.2509,"lon":5.40317,"is_reserved":false,"is_disabled":false,"rental_uris":{"android":"levelo://app?vid=266f7fca-62d8-462d-83ba-67663ab9bbef","ios":"levelo://app?vid=266f7fca-62d8-462d-83ba-67663ab9bbef"},"vehicle_type_id":"4","last_reported":1734253776,"current_range_meters":36000,"station_id":"ce4bhlh2rcd13ifvqgig","pricing_plan_id":"cebpf4jnsgd1na2vs0mg"},{"bike_id":"2add9805-6fe1-496b-95ec-c3450a7c4a57","system_id":"levelo_inurba_marseille","lat":43.30047,"lon":5.37413,"is_reserved":false,"is_disabled":true,"rental_uris":{"android":"levelo://app?vid=2add9805-6fe1-496b-95ec-c3450a7c4a57","ios":"levelo://app?vid=2add9805-6fe1-496b-95ec-c3450a7c4a57"},"vehicle_type_id":"4","last_reported":1734253776,"current_range_meters":0,"station_id":"","pricing_plan_id":"cebpf4jnsgd1na2vs0mg"},{"bike_id":"30e02f78-6413-4f1d-aed2-3e9b5ec2d061","system_id":"levelo_inurba_marseille","lat":43.27998,"lon":5.41667,"is_reserved":false,"is_disabled":false,"rental_uris":{"android":"levelo://app?vid=30e02f78-6413-4f1d-aed2-3e9b5ec2d061","ios":"levelo://app?vid=30e02f78-6413-4f1d-aed2-3e9b5ec2d061"},"vehicle_type_id":"4","last_reported":1734253776,"current_range_meters":36400,"station_id":"ce4bho12rcd13ifvqh1g","pricing_plan_id":"cebpf4jnsgd1na2vs0mg"},{"bike_id":"023c2a7e-afdf-4417-b853-0b472b4b541b","system_id":"levelo_inurba_marseille","lat":43.33017,"lon":5.39025,"is_reserved":false,"is_disabled":false,"rental_uris":{"android":"levelo://app?vid=023c2a7e-afdf-4417-b853-0b472b4b541b","ios":"levelo://app?vid=023c2a7e-afdf-4417-b853-0b472b4b541b"},"vehicle_type_id":"4","last_reported":1734253776,"current_range_meters":26000,"station_id":"ce4bhr92rcd13ifvqhrg","pricing_plan_id":"cebpf4jnsgd1na2vs0mg"},{"bike_id":"e6daa3b0-d355-4eb9-8e91-304a7094997b","system_id":"levelo_inurba_marseille","lat":43.29896,"lon":5.43668,"is_reserved":false,"is_disabled":false,"rental_uris":{"android":"levelo://app?vid=e6daa3b0-d355-4eb9-8e91-304a7094997b","ios":"levelo://app?vid=e6daa3b0-d355-4eb9-8e91-304a7094997b"},"vehicle_type_id":"4","last_reported":1734253776,"current_range_meters":16000,"station_id":"ce4bhpp2rcd13ifvqhfg","pricing_plan_id":"cebpf4jnsgd1na2vs0mg"},{"bike_id":"0c21e2ca-701d-4cae-8b0d-0b30a4d7c20f","system_id":"levelo_inurba_marseille","lat":43.25116,"lon":5.4032,"is_reserved":false,"is_disabled":false,"rental_uris":{"android":"levelo://app?vid=0c21e2ca-701d-4cae-8b0d-0b30a4d7c20f","ios":"levelo://app?vid=0c21e2ca-701d-4cae-8b0d-0b30a4d7c20f"},"vehicle_type_id":"4","last_reported":1734253776,"current_range_meters":16800,"station_id":"ce4bhlh2rcd13ifvqgig","pricing_plan_id":"cebpf4jnsgd1na2vs0mg"},{"bike_id":"fabc0430-593f-48af-8609-5df6565dc6c4","system_id":"levelo_inurba_marseille","lat":43.25118,"lon":5.40319,"is_reserved":false,"is_disabled":false,"rental_uris":{"android":"levelo://app?vid=fabc0430-593f-48af-8609-5df6565dc6c4","ios":"levelo://app?vid=fabc0430-593f-48af-8609-5df6565dc6c4"},"vehicle_type_id":"4","last_reported":1734253776,"current_range_meters":37600,"station_id":"ce4bhlh2rcd13ifvqgig","pricing_plan_id":"cebpf4jnsgd1na2vs0mg"},{"bike_id":"e739486a-a11b-424b-994c-a3eb8bd887d7","system_id":"levelo_inurba_marseille","lat":43.27809,"lon":5.40704,"is_reserved":false,"is_disabled":false,"rental_uris":{"android":"levelo://app?vid=e739486a-a11b-424b-994c-a3eb8bd887d7","ios":"levelo://app?vid=e739486a-a11b-424b-994c-a3eb8bd887d7"},"vehicle_type_id":"4","last_reported":1734253776,"current_range_meters":27200,"station_id":"ce4bhnh2rcd13ifvqgtg","pricing_plan_id":"cebpf4jnsgd1na2vs0mg"},{"bike_id":"0a6c1b35-1288-4364-8606-6c3b6ea4431b","system_id":"levelo_inurba_marseille","lat":43.29617,"lon":5.37713,"is_reserved":false,"is_disabled":false,"rental_uris":{"android":"levelo://app?vid=0a6c1b35-1288-4364-8606-6c3b6ea4431b","ios":"levelo://app?vid=0a6c1b35-1288-4364-8606-6c3b6ea4431b"},"vehicle_type_id":"4","last_reported":1734253776,"current_range_meters":24800,"station_id":"ce4bgi92rcd13ifvqb90","pricing_plan_id":"cebpf4jnsgd1na2vs0mg"},{"bike_id":"dc647800-4e1f-44a3-b0cb-412fe3c0b522","system_id":"levelo_inurba_marseille","lat":43.24069,"lon":5.37741,"is_reserved":false,"is_disabled":false,"rental_uris":{"android":"levelo://app?vid=dc647800-4e1f-44a3-b0cb-412fe3c0b522","ios":"levelo://app?vid=dc647800-4e1f-44a3-b0cb-412fe3c0b522"},"vehicle_type_id":"4","last_reported":1734253776,"current_range_meters":38400,"station_id":"ce4bhnp2rcd13ifvqgvg","pricing_plan_id":"cebpf4jnsgd1na2vs0mg"},{"bike_id":"72bdc4f6-9d1d-42c9-ac9e-f6bf19c7da8a","system_id":"levelo_inurba_marseille","lat":43.24074,"lon":5.37756,"is_reserved":false,"is_disabled":false,"rental_uris":{"android":"levelo://app?vid=72bdc4f6-9d1d-42c9-ac9e-f6bf19c7da8a","ios":"levelo://app?vid=72bdc4f6-9d1d-42c9-ac9e-f6bf19c7da8a"},"vehicle_type_id":"4","last_reported":1734253776,"current_range_meters":38000,"station_id":"ce4bhnp2rcd13ifvqgvg","pricing_plan_id":"cebpf4jnsgd1na2vs0mg"},{"bike_id":"42a9fc7b-2157-484b-af45-9c4cfe567a80","system_id":"levelo_inurba_marseille","lat":43.25575,"lon":5.3823,"is_reserved":false,"is_disabled":false,"rental_uris":{"android":"levelo://app?vid=42a9fc7b-2157-484b-af45-9c4cfe567a80","ios":"levelo://app?vid=42a9fc7b-2157-484b-af45-9c4cfe567a80"},"vehicle_type_id":"4","last_reported":1734253776,"current_range_meters":8800,"station_id":"ce4bhih2rcd13ifvqfs0","pricing_plan_id":"cebpf4jnsgd1na2vs0mg"},{"bike_id":"fb1fc23b-d765-4e72-bd25-0de9c24e47e4","system_id":"levelo_inurba_marseille","lat":43.24666,"lon":5.38164,"is_reserved":false,"is_disabled":false,"rental_uris":{"android":"levelo://app?vid=fb1fc23b-d765-4e72-bd25-0de9c24e47e4","ios":"levelo://app?vid=fb1fc23b-d765-4e72-bd25-0de9c24e47e4"},"vehicle_type_id":"4","last_reported":1734253776,"current_range_meters":36000,"station_id":"ce4bhih2rcd13ifvqfr0","pricing_plan_id":"cebpf4jnsgd1na2vs0mg"},{"bike_id":"c200ae5a-1bfc-41c1-b6e0-48b629950315","system_id":"levelo_inurba_marseille","lat":43.25493,"lon":5.37652,"is_reserved":false,"is_disabled":false,"rental_uris":{"android":"levelo://app?vid=c200ae5a-1bfc-41c1-b6e0-48b629950315","ios":"levelo://app?vid=c200ae5a-1bfc-41c1-b6e0-48b629950315"},"vehicle_type_id":"4","last_reported":1734253776,"current_range_meters":38000,"station_id":"ce4bhh12rcd13ifvqff0","pricing_plan_id":"cebpf4jnsgd1na2vs0mg"},{"bike_id":"af5005fc-d058-4152-a2f0-a599ec2fe143","system_id":"levelo_inurba_marseille","lat":43.32291,"lon":5.38283,"is_reserved":false,"is_disabled":false,"rental_uris":{"android":"levelo://app?vid=af5005fc-d058-4152-a2f0-a599ec2fe143","ios":"levelo://app?vid=af5005fc-d058-4152-a2f0-a599ec2fe143"},"vehicle_type_id":"4","last_reported":1734253776,"current_range_meters":39200,"station_id":"ce4bhr12rcd13ifvqhqg","pricing_plan_id":"cebpf4jnsgd1na2vs0mg"},{"bike_id":"3650d84c-d2fd-4728-abeb-b9accdfa7210","system_id":"levelo_inurba_marseille","lat":43.302432,"lon":5.400674,"is_reserved":false,"is_disabled":true,"rental_uris":{"android":"levelo://app?vid=3650d84c-d2fd-4728-abeb-b9accdfa7210","ios":"levelo://app?vid=3650d84c-d2fd-4728-abeb-b9accdfa7210"},"vehicle_type_id":"4","last_reported":1734253776,"current_range_meters":23200,"station_id":"ce4bgvh2rcd13ifvqcs0","pricing_plan_id":"cebpf4jnsgd1na2vs0mg"},{"bike_id":"b76bfadb-6288-4939-8ca7-fc00e8227f70","system_id":"levelo_inurba_marseille","lat":43.31061,"lon":5.38348,"is_reserved":false,"is_disabled":true,"rental_uris":{"android":"levelo://app?vid=b76bfadb-6288-4939-8ca7-fc00e8227f70","ios":"levelo://app?vid=b76bfadb-6288-4939-8ca7-fc00e8227f70"},"vehicle_type_id":"4","last_reported":1734253776,"current_range_meters":0,"station_id":"ce4bgv92rcd13ifvqcr0","pricing_plan_id":"cebpf4jnsgd1na2vs0mg"},{"bike_id":"991ae0a8-b5f9-4df1-af61-73bc38679fbc","system_id":"levelo_inurba_marseille","lat":43.29978,"lon":5.37157,"is_reserved":false,"is_disabled":false,"rental_uris":{"android":"levelo://app?vid=991ae0a8-b5f9-4df1-af61-73bc38679fbc","ios":"levelo://app?vid=991ae0a8-b5f9-4df1-af61-73bc38679fbc"},"vehicle_type_id":"4","last_reported":1734253776,"current_range_meters":39200,"station_id":"ce4bgr92rcd13ifvqc7g","pricing_plan_id":"cebpf4jnsgd1na2vs0mg"},{"bike_id":"be3cc1f6-59b3-48d9-8415-8e7c09047a60","system_id":"levelo_inurba_marseille","lat":43.25121,"lon":5.40352,"is_reserved":false,"is_disabled":false,"rental_uris":{"android":"levelo://app?vid=be3cc1f6-59b3-48d9-8415-8e7c09047a60","ios":"levelo://app?vid=be3cc1f6-59b3-48d9-8415-8e7c09047a60"},"vehicle_type_id":"4","last_reported":1734253776,"current_range_meters":38400,"station_id":"ce4bhlh2rcd13ifvqgig","pricing_plan_id":"cebpf4jnsgd1na2vs0mg"},{"bike_id":"b2313dc6-ce87-4506-95f2-ae16210a1d62","system_id":"levelo_inurba_marseille","lat":43.29043,"lon":5.35918,"is_reserved":false,"is_disabled":false,"rental_uris":{"android":"levelo://app?vid=b2313dc6-ce87-4506-95f2-ae16210a1d62","ios":"levelo://app?vid=b2313dc6-ce87-4506-95f2-ae16210a1d62"},"vehicle_type_id":"4","last_reported":1734253776,"current_range_meters":39200,"station_id":"ce4bha92rcd13ifvqeg0","pricing_plan_id":"cebpf4jnsgd1na2vs0mg"},{"bike_id":"425f721e-4481-4245-9dd4-65f65f07aa6c","system_id":"levelo_inurba_marseille","lat":43.28462,"lon":5.35876,"is_reserved":false,"is_disabled":false,"rental_uris":{"android":"levelo://app?vid=425f721e-4481-4245-9dd4-65f65f07aa6c","ios":"levelo://app?vid=425f721e-4481-4245-9dd4-65f65f07aa6c"},"vehicle_type_id":"4","last_reported":1734253776,"current_range_meters":26800,"station_id":"ce4bhah2rcd13ifvqei0","pricing_plan_id":"cebpf4jnsgd1na2vs0mg"},{"bike_id":"5c31622a-37cb-4477-83d5-54b29f5a0e5f","system_id":"levelo_inurba_marseille","lat":43.295217,"lon":5.390434,"is_reserved":false,"is_disabled":false,"rental_uris":{"android":"levelo://app?vid=5c31622a-37cb-4477-83d5-54b29f5a0e5f","ios":"levelo://app?vid=5c31622a-37cb-4477-83d5-54b29f5a0e5f"},"vehicle_type_id":"4","last_reported":1734253776,"current_range_meters":38400,"station_id":"ce4bh3p2rcd13ifvqdp0","pricing_plan_id":"cebpf4jnsgd1na2vs0mg"},{"bike_id":"6069fe6f-3d12-436c-ba1a-a6e9607abbd3","system_id":"levelo_inurba_marseille","lat":43.32546,"lon":5.41449,"is_reserved":false,"is_disabled":false,"rental_uris":{"android":"levelo://app?vid=6069fe6f-3d12-436c-ba1a-a6e9607abbd3","ios":"levelo://app?vid=6069fe6f-3d12-436c-ba1a-a6e9607abbd3"},"vehicle_type_id":"4","last_reported":1734253776,"current_range_meters":28000,"station_id":"ce4bhq12rcd13ifvqhhg","pricing_plan_id":"cebpf4jnsgd1na2vs0mg"},{"bike_id":"6a020032-a209-4ad0-9c62-7ad903b5bebd","system_id":"levelo_inurba_marseille","lat":43.24181,"lon":5.39717,"is_reserved":false,"is_disabled":false,"rental_uris":{"android":"levelo://app?vid=6a020032-a209-4ad0-9c62-7ad903b5bebd","ios":"levelo://app?vid=6a020032-a209-4ad0-9c62-7ad903b5bebd"},"vehicle_type_id":"4","last_reported":1734253776,"current_range_meters":30800,"station_id":"ce4bhn12rcd13ifvqgpg","pricing_plan_id":"cebpf4jnsgd1na2vs0mg"},{"bike_id":"fd422230-c23b-4144-b3b9-87722e776f35","system_id":"levelo_inurba_marseille","lat":43.29089,"lon":5.38148,"is_reserved":false,"is_disabled":false,"rental_uris":{"android":"levelo://app?vid=fd422230-c23b-4144-b3b9-87722e776f35","ios":"levelo://app?vid=fd422230-c23b-4144-b3b9-87722e776f35"},"vehicle_type_id":"4","last_reported":1734253776,"current_range_meters":38000,"station_id":"ce4bh512rcd13ifvqe2g","pricing_plan_id":"cebpf4jnsgd1na2vs0mg"},{"bike_id":"6cb5f94f-eade-4b7c-b995-84c805be74f9","system_id":"levelo_inurba_marseille","lat":43.33779,"lon":5.37414,"is_reserved":false,"is_disabled":false,"rental_uris":{"android":"levelo://app?vid=6cb5f94f-eade-4b7c-b995-84c805be74f9","ios":"levelo://app?vid=6cb5f94f-eade-4b7c-b995-84c805be74f9"},"vehicle_type_id":"4","last_reported":1734253776,"current_range_meters":35600,"station_id":"","pricing_plan_id":"cebpf4jnsgd1na2vs0mg"},{"bike_id":"5cded315-570b-4c0b-b015-bac53bb71581","system_id":"levelo_inurba_marseille","lat":43.28536,"lon":5.38998,"is_reserved":false,"is_disabled":true,"rental_uris":{"android":"levelo://app?vid=5cded315-570b-4c0b-b015-bac53bb71581","ios":"levelo://app?vid=5cded315-570b-4c0b-b015-bac53bb71581"},"vehicle_type_id":"4","last_reported":1734253776,"current_range_meters":0,"station_id":"","pricing_plan_id":"cebpf4jnsgd1na2vs0mg"},{"bike_id":"dfd7df50-b96e-4d10-81c7-84ad94dd9a10","system_id":"levelo_inurba_marseille","lat":43.31759,"lon":5.39016,"is_reserved":false,"is_disabled":false,"rental_uris":{"android":"levelo://app?vid=dfd7df50-b96e-4d10-81c7-84ad94dd9a10","ios":"levelo://app?vid=dfd7df50-b96e-4d10-81c7-84ad94dd9a10"},"vehicle_type_id":"4","last_reported":1734253776,"current_range_meters":38000,"station_id":"ce4bhqp2rcd13ifvqhng","pricing_plan_id":"cebpf4jnsgd1na2vs0mg"},{"bike_id":"2dfb4615-27da-4ecb-beab-2ca1b1f31481","system_id":"levelo_inurba_marseille","lat":43.27569,"lon":5.38424,"is_reserved":false,"is_disabled":false,"rental_uris":{"android":"levelo://app?vid=2dfb4615-27da-4ecb-beab-2ca1b1f31481","ios":"levelo://app?vid=2dfb4615-27da-4ecb-beab-2ca1b1f31481"},"vehicle_type_id":"4","last_reported":1734253776,"current_range_meters":38800,"station_id":"ce4bhh92rcd13ifvqfi0","pricing_plan_id":"cebpf4jnsgd1na2vs0mg"},{"bike_id":"5698604e-aaa5-42b6-9f56-06778c2d2e5a","system_id":"levelo_inurba_marseille","lat":43.25108,"lon":5.40329,"is_reserved":false,"is_disabled":false,"rental_uris":{"android":"levelo://app?vid=5698604e-aaa5-42b6-9f56-06778c2d2e5a","ios":"levelo://app?vid=5698604e-aaa5-42b6-9f56-06778c2d2e5a"},"vehicle_type_id":"4","last_reported":1734253776,"current_range_meters":38800,"station_id":"ce4bhlh2rcd13ifvqgig","pricing_plan_id":"cebpf4jnsgd1na2vs0mg"},{"bike_id":"0a646241-c519-49e3-958d-6acd5fe9c130","system_id":"levelo_inurba_marseille","lat":43.33023,"lon":5.39038,"is_reserved":false,"is_disabled":false,"rental_uris":{"android":"levelo://app?vid=0a646241-c519-49e3-958d-6acd5fe9c130","ios":"levelo://app?vid=0a646241-c519-49e3-958d-6acd5fe9c130"},"vehicle_type_id":"4","last_reported":1734253776,"current_range_meters":39200,"station_id":"ce4bhr92rcd13ifvqhrg","pricing_plan_id":"cebpf4jnsgd1na2vs0mg"},{"bike_id":"7ec5f114-71b7-4d43-afcf-855cd4dc6106","system_id":"levelo_inurba_marseille","lat":43.27018,"lon":5.40069,"is_reserved":false,"is_disabled":false,"rental_uris":{"android":"levelo://app?vid=7ec5f114-71b7-4d43-afcf-855cd4dc6106","ios":"levelo://app?vid=7ec5f114-71b7-4d43-afcf-855cd4dc6106"},"vehicle_type_id":"4","last_reported":1734253776,"current_range_meters":14400,"station_id":"","pricing_plan_id":"cebpf4jnsgd1na2vs0mg"},{"bike_id":"62be7227-74b7-4792-b3e9-793f45ae0003","system_id":"levelo_inurba_marseille","lat":43.24542,"lon":5.39513,"is_reserved":false,"is_disabled":false,"rental_uris":{"android":"levelo://app?vid=62be7227-74b7-4792-b3e9-793f45ae0003","ios":"levelo://app?vid=62be7227-74b7-4792-b3e9-793f45ae0003"},"vehicle_type_id":"4","last_reported":1734253776,"current_range_meters":30400,"station_id":"ce4bhlp2rcd13ifvqgjg","pricing_plan_id":"cebpf4jnsgd1na2vs0mg"},{"bike_id":"4a0ac162-8ef0-476e-844b-35b992cda30c","system_id":"levelo_inurba_marseille","lat":43.29849,"lon":5.3627,"is_reserved":false,"is_disabled":false,"rental_uris":{"android":"levelo://app?vid=4a0ac162-8ef0-476e-844b-35b992cda30c","ios":"levelo://app?vid=4a0ac162-8ef0-476e-844b-35b992cda30c"},"vehicle_type_id":"4","last_reported":1734253776,"current_range_meters":39200,"station_id":"ce4bgpp2rcd13ifvqc3g","pricing_plan_id":"cebpf4jnsgd1na2vs0mg"},{"bike_id":"ca59d865-1951-4846-a717-a349b9e50e7c","system_id":"levelo_inurba_marseille","lat":43.27607,"lon":5.36109,"is_reserved":false,"is_disabled":true,"rental_uris":{"android":"levelo://app?vid=ca59d865-1951-4846-a717-a349b9e50e7c","ios":"levelo://app?vid=ca59d865-1951-4846-a717-a349b9e50e7c"},"vehicle_type_id":"4","last_reported":1734253776,"current_range_meters":32400,"station_id":"ce4bgj92rcd13ifvqbe0","pricing_plan_id":"cebpf4jnsgd1na2vs0mg"},{"bike_id":"5295c8df-2428-4c41-90b6-7595d6a56f38","system_id":"levelo_inurba_marseille","lat":43.273711,"lon":5.362561,"is_reserved":false,"is_disabled":true,"rental_uris":{"android":"levelo://app?vid=5295c8df-2428-4c41-90b6-7595d6a56f38","ios":"levelo://app?vid=5295c8df-2428-4c41-90b6-7595d6a56f38"},"vehicle_type_id":"4","last_reported":1734253776,"current_range_meters":0,"station_id":"ce4bhbh2rcd13ifvqeo0","pricing_plan_id":"cebpf4jnsgd1na2vs0mg"},{"bike_id":"283ec910-2b59-4ffd-bbff-9867d116f826","system_id":"levelo_inurba_marseille","lat":43.337444,"lon":5.374475,"is_reserved":false,"is_disabled":true,"rental_uris":{"android":"levelo://app?vid=283ec910-2b59-4ffd-bbff-9867d116f826","ios":"levelo://app?vid=283ec910-2b59-4ffd-bbff-9867d116f826"},"vehicle_type_id":"4","last_reported":1734253776,"current_range_meters":0,"station_id":"","pricing_plan_id":"cebpf4jnsgd1na2vs0mg"},{"bike_id":"44bb1ee1-6608-426b-ad9e-5efdc1a7eac0","system_id":"levelo_inurba_marseille","lat":43.337659,"lon":5.374423,"is_reserved":false,"is_disabled":false,"rental_uris":{"android":"levelo://app?vid=44bb1ee1-6608-426b-ad9e-5efdc1a7eac0","ios":"levelo://app?vid=44bb1ee1-6608-426b-ad9e-5efdc1a7eac0"},"vehicle_type_id":"4","last_reported":1734253776,"current_range_meters":22000,"station_id":"","pricing_plan_id":"cebpf4jnsgd1na2vs0mg"},{"bike_id":"fb7e1849-9459-4869-a89e-9b7992e645fc","system_id":"levelo_inurba_marseille","lat":43.30809,"lon":5.397,"is_reserved":false,"is_disabled":false,"rental_uris":{"android":"levelo://app?vid=fb7e1849-9459-4869-a89e-9b7992e645fc","ios":"levelo://app?vid=fb7e1849-9459-4869-a89e-9b7992e645fc"},"vehicle_type_id":"4","last_reported":1734253776,"current_range_meters":38800,"station_id":"ce4bh012rcd13ifvqcv0","pricing_plan_id":"cebpf4jnsgd1na2vs0mg"},{"bike_id":"bbffd889-750b-4762-ae94-78458d50ea91","system_id":"levelo_inurba_marseille","lat":43.33729,"lon":5.39187,"is_reserved":false,"is_disabled":false,"rental_uris":{"android":"levelo://app?vid=bbffd889-750b-4762-ae94-78458d50ea91","ios":"levelo://app?vid=bbffd889-750b-4762-ae94-78458d50ea91"},"vehicle_type_id":"4","last_reported":1734253776,"current_range_meters":38800,"station_id":"ce4bhr92rcd13ifvqhsg","pricing_plan_id":"cebpf4jnsgd1na2vs0mg"},{"bike_id":"bcbf2202-4564-4986-9c42-f377be3d8a29","system_id":"levelo_inurba_marseille","lat":43.30534,"lon":5.36545,"is_reserved":false,"is_disabled":false,"rental_uris":{"android":"levelo://app?vid=bcbf2202-4564-4986-9c42-f377be3d8a29","ios":"levelo://app?vid=bcbf2202-4564-4986-9c42-f377be3d8a29"},"vehicle_type_id":"4","last_reported":1734253776,"current_range_meters":36400,"station_id":"ce4bgs12rcd13ifvqcag","pricing_plan_id":"cebpf4jnsgd1na2vs0mg"},{"bike_id":"6af93c5c-2369-4249-9874-540f27f0edd3","system_id":"levelo_inurba_marseille","lat":43.33721,"lon":5.39176,"is_reserved":false,"is_disabled":false,"rental_uris":{"android":"levelo://app?vid=6af93c5c-2369-4249-9874-540f27f0edd3","ios":"levelo://app?vid=6af93c5c-2369-4249-9874-540f27f0edd3"},"vehicle_type_id":"4","last_reported":1734253776,"current_range_meters":9200,"station_id":"ce4bhr92rcd13ifvqhsg","pricing_plan_id":"cebpf4jnsgd1na2vs0mg"},{"bike_id":"1bb0b17c-d3b3-41bf-888b-7d0ebbc73b59","system_id":"levelo_inurba_marseille","lat":43.24062,"lon":5.37728,"is_reserved":false,"is_disabled":false,"rental_uris":{"android":"levelo://app?vid=1bb0b17c-d3b3-41bf-888b-7d0ebbc73b59","ios":"levelo://app?vid=1bb0b17c-d3b3-41bf-888b-7d0ebbc73b59"},"vehicle_type_id":"4","last_reported":1734253776,"current_range_meters":20000,"station_id":"ce4bhnp2rcd13ifvqgvg","pricing_plan_id":"cebpf4jnsgd1na2vs0mg"},{"bike_id":"7a6fbafa-c405-41ec-babd-da89473cb281","system_id":"levelo_inurba_marseille","lat":43.27493,"lon":5.42457,"is_reserved":false,"is_disabled":false,"rental_uris":{"android":"levelo://app?vid=7a6fbafa-c405-41ec-babd-da89473cb281","ios":"levelo://app?vid=7a6fbafa-c405-41ec-babd-da89473cb281"},"vehicle_type_id":"4","last_reported":1734253776,"current_range_meters":38800,"station_id":"ce4bhn92rcd13ifvqgrg","pricing_plan_id":"cebpf4jnsgd1na2vs0mg"},{"bike_id":"6e6a004b-462d-4b03-aeaa-2611256f0d89","system_id":"levelo_inurba_marseille","lat":43.28123,"lon":5.38934,"is_reserved":false,"is_disabled":true,"rental_uris":{"android":"levelo://app?vid=6e6a004b-462d-4b03-aeaa-2611256f0d89","ios":"levelo://app?vid=6e6a004b-462d-4b03-aeaa-2611256f0d89"},"vehicle_type_id":"4","last_reported":1734253776,"current_range_meters":0,"station_id":"","pricing_plan_id":"cebpf4jnsgd1na2vs0mg"},{"bike_id":"11d893ab-f252-455b-a66b-f65433a8f29e","system_id":"levelo_inurba_marseille","lat":43.27683,"lon":5.38897,"is_reserved":false,"is_disabled":false,"rental_uris":{"android":"levelo://app?vid=11d893ab-f252-455b-a66b-f65433a8f29e","ios":"levelo://app?vid=11d893ab-f252-455b-a66b-f65433a8f29e"},"vehicle_type_id":"4","last_reported":1734253776,"current_range_meters":39200,"station_id":"ce4bhi12rcd13ifvqfo0","pricing_plan_id":"cebpf4jnsgd1na2vs0mg"},{"bike_id":"a42f5994-229b-4ba6-b3f2-7045ec6149a1","system_id":"levelo_inurba_marseille","lat":43.24648,"lon":5.38896,"is_reserved":false,"is_disabled":false,"rental_uris":{"android":"levelo://app?vid=a42f5994-229b-4ba6-b3f2-7045ec6149a1","ios":"levelo://app?vid=a42f5994-229b-4ba6-b3f2-7045ec6149a1"},"vehicle_type_id":"4","last_reported":1734253776,"current_range_meters":36400,"station_id":"ce4bhg12rcd13ifvqf60","pricing_plan_id":"cebpf4jnsgd1na2vs0mg"},{"bike_id":"b6604a83-0149-48df-b9e4-986fd078aebd","system_id":"levelo_inurba_marseille","lat":43.28693,"lon":5.37387,"is_reserved":false,"is_disabled":false,"rental_uris":{"android":"levelo://app?vid=b6604a83-0149-48df-b9e4-986fd078aebd","ios":"levelo://app?vid=b6604a83-0149-48df-b9e4-986fd078aebd"},"vehicle_type_id":"4","last_reported":1734253776,"current_range_meters":27200,"station_id":"ce4bh3p2rcd13ifvqdq0","pricing_plan_id":"cebpf4jnsgd1na2vs0mg"},{"bike_id":"fa8fabdf-8787-4822-beb1-82eb2b713949","system_id":"levelo_inurba_marseille","lat":43.30806,"lon":5.38151,"is_reserved":false,"is_disabled":false,"rental_uris":{"android":"levelo://app?vid=fa8fabdf-8787-4822-beb1-82eb2b713949","ios":"levelo://app?vid=fa8fabdf-8787-4822-beb1-82eb2b713949"},"vehicle_type_id":"4","last_reported":1734253776,"current_range_meters":30400,"station_id":"ce4bgt12rcd13ifvqce0","pricing_plan_id":"cebpf4jnsgd1na2vs0mg"},{"bike_id":"1d5387fc-6024-4476-b7f5-9fba1f086153","system_id":"levelo_inurba_marseille","lat":43.26949,"lon":5.38928,"is_reserved":false,"is_disabled":false,"rental_uris":{"android":"levelo://app?vid=1d5387fc-6024-4476-b7f5-9fba1f086153","ios":"levelo://app?vid=1d5387fc-6024-4476-b7f5-9fba1f086153"},"vehicle_type_id":"4","last_reported":1734253776,"current_range_meters":38800,"station_id":"ce4bhhh2rcd13ifvqfl0","pricing_plan_id":"cebpf4jnsgd1na2vs0mg"},{"bike_id":"884285b9-3b7d-4eac-b8cf-21405854c52c","system_id":"levelo_inurba_marseille","lat":43.30548,"lon":5.36514,"is_reserved":false,"is_disabled":false,"rental_uris":{"android":"levelo://app?vid=884285b9-3b7d-4eac-b8cf-21405854c52c","ios":"levelo://app?vid=884285b9-3b7d-4eac-b8cf-21405854c52c"},"vehicle_type_id":"4","last_reported":1734253776,"current_range_meters":29600,"station_id":"ce4bgs12rcd13ifvqcag","pricing_plan_id":"cebpf4jnsgd1na2vs0mg"},