{"last_updated":1756562881,"ttl":60,"version":"2.2","data":{"bikes":[{"bike_id":"3786bc3f-a1ef-4971-82b5-53ee21f255a9","system_id":"levelo_inurba_marseille","lat":43.337444,"lon":5.374475,"is_reserved":false,"is_disabled":true,"rental_uris":{"android":"levelo://app?vid=3786bc3f-a1ef-4971-82b5-53ee21f255a9","ios":"levelo://app?vid=3786bc3f-a1ef-4971-82b5-53ee21f255a9"},"vehicle_type_id":"4","last_reported":1756562881,"current_range_meters":0,"station_id":"","pricing_plan_id":"cebpf4jnsgd1na2vs0mg"},{"bike_id":"d165ff19-8e79-4669-a0ec-2766941625b3","system_id":"levelo_inurba_marseille","lat":43.337444,"lon":5.374475,"is_reserved":false,"is_disabled":true,"rental_uris":{"android":"levelo://app?vid=d165ff19-8e79-4669-a0ec-2766941625b3","ios":"levelo://app?vid=d165ff19-8e79-4669-a0ec-2766941625b3"},"vehicle_type_id":"4","last_reported":1756562881,"current_range_meters":0,"station_id":"","pricing_plan_id":"cebpf4jnsgd1na2vs0mg"},{"bike_id":"fee6e365-1410-47ff-aac6-460fe19870cf","system_id":"levelo_inurba_marseille","lat":43.33771,"lon":5.37424,"is_reserved":false,"is_disabled":true,"rental_uris":{"android":"levelo://app?vid=fee6e365-1410-47ff-aac6-460fe19870cf","ios":"levelo://app?vid=fee6e365-1410-47ff-aac6-460fe19870cf"},"vehicle_type_id":"4","last_reported":1756562881,"current_range_meters":0,"station_id":"","pricing_plan_id":"cebpf4jnsgd1na2vs0mg"},{"bike_id":"e7907bf2-9f85-4fec-b00b-f77b1a4a873c","system_id":"levelo_inurba_marseille","lat":43.33751,"lon":5.37456,"is_reserved":false,"is_disabled":true,"rental_uris":{"android":"levelo://app?vid=e7907bf2-9f85-4fec-b00b-f77b1a4a873c","ios":"levelo://app?vid=e7907bf2-9f85-4fec-b00b-f77b1a4a873c"},"vehicle_type_id":"4","last_reported":1756562881,"current_range_meters":0,"station_id":"","pricing_plan_id":"cebpf4jnsgd1na2vs0mg"},{"bike_id":"c060c1ec-0d33-42db-9a3d-6fb7fae5ea5e","system_id":"levelo_inurba_marseille","lat":43.33747,"lon":5.37463,"is_reserved":false,"is_disabled":true,"rental_uris":{"android":"levelo://app?vid=c060c1ec-0d33-42db-9a3d-6fb7fae5ea5e","ios":"levelo://app?vid=c060c1ec-0d33-42db-9a3d-6fb7fae5ea5e"},"vehicle_type_id":"1","last_reported":1756562881,"current_range_meters":0,"station_id":"","pricing_plan_id":"cebpf4jnsgd1na2vs0mg"},{"bike_id":"e6546109-cd3c-4cd0-ac12-e78c09da4ae6","system_id":"levelo_inurba_marseille","lat":43.33737,"lon":5.37465,"is_reserved":false,"is_disabled":true,"rental_uris":{"android":"levelo://app?vid=e6546109-cd3c-4cd0-ac12-e78c09da4ae6","ios":"levelo://app?vid=e6546109-cd3c-4cd0-ac12-e78c09da4ae6"},"vehicle_type_id":"4","last_reported":1756562881,"current_range_meters":0,"station_id":"","pricing_plan_id":"cebpf4jnsgd1na2vs0mg"},{"bike_id":"8facfda0-e588-46c6-8323-70578ba699b1","system_id":"levelo_inurba_marseille","lat":43.30501,"lon":5.37043,"is_reserved":false,"is_disabled":true,"rental_uris":{"android":"levelo://app?vid=8facfda0-e588-46c6-8323-70578ba699b1","ios":"levelo://app?vid=8facfda0-e588-46c6-8323-70578ba699b1"},"vehicle_type_id":"4","last_reported":1756562881,"current_range_meters":0,"station_id":"","pricing_plan_id":"cebpf4jnsgd1na2vs0mg"},{"bike_id":"b3fa04f4-753f-44ec-9319-e8b6b49d76a7","system_id":"levelo_inurba_marseille","lat":43.28837,"lon":5.38521,"is_reserved":false,"is_disabled":true,"rental_uris":{"android":"levelo://app?vid=b3fa04f4-753f-44ec-9319-e8b6b49d76a7","ios":"levelo://app?vid=b3fa04f4-753f-44ec-9319-e8b6b49d76a7"},"vehicle_type_id":"4","last_reported":1756562881,"current_range_meters":0,"station_id":"","pricing_plan_id":"cebpf4jnsgd1na2vs0mg"},{"bike_id":"47308bd1-5b1e-4b75-8530-31511209c845","system_id":"levelo_inurba_marseille","lat":43.24544,"lon":5.403137,"is_reserved":false,"is_disabled":true,"rental_uris":{"android":"levelo://app?vid=47308bd1-5b1e-4b75-8530-31511209c845","ios":"levelo://app?vid=47308bd1-5b1e-4b75-8530-31511209c845"},"vehicle_type_id":"4","last_reported":1756562881,"current_range_meters":0,"station_id":"","pricing_plan_id":"cebpf4jnsgd1na2vs0mg"},{"bike_id":"5d315e57-bb67-481f-b455-26ecfe9889ad","system_id":"levelo_inurba_marseille","lat":43.28069,"lon":5.34773,"is_reserved":false,"is_disabled":true,"rental_uris":{"android":"levelo://app?vid=5d315e57-bb67-481f-b455-26ecfe9889ad","ios":"levelo://app?vid=5d315e57-bb67-481f-b455-26ecfe9889ad"},"vehicle_type_id":"4","last_reported":1756562881,"current_range_meters":0,"station_id":"","pricing_plan_id":"cebpf4jnsgd1na2vs0mg"},{"bike_id":"46c28713-bb2b-45d5-98fc-8d5e885d13cf","system_id":"levelo_inurba_marseille","lat":43.337444,"lon":5.374475,"is_reserved":false,"is_disabled":true,"rental_uris":{"android":"levelo://app?vid=46c28713-bb2b-45d5-98fc-8d5e885d13cf","ios":"levelo://app?vid=46c28713-bb2b-45d5-98fc-8d5e885d13cf"},"vehicle_type_id":"4","last_reported":1756562881,"current_range_meters":0,"station_id":"","pricing_plan_id":"cebpf4jnsgd1na2vs0mg"},{"bike_id":"a0694e39-95ef-4780-a7d3-06a17d4b8162","system_id":"levelo_inurba_marseille","lat":43.225387,"lon":5.348301,"is_reserved":false,"is_disabled":true,"rental_uris":{"android":"levelo://app?vid=a0694e39-95ef-4780-a7d3-06a17d4b8162","ios":"levelo://app?vid=a0694e39-95ef-4780-a7d3-06a17d4b8162"},"vehicle_type_id":"4","last_reported":1756562881,"current_range_meters":0,"station_id":"","pricing_plan_id":"cebpf4jnsgd1na2vs0mg"},{"bike_id":"8fdef09c-2e7a-4a65-80df-a2d08d66be1e","system_id":"levelo_inurba_marseille","lat":43.225287,"lon":5.348464,"is_reserved":false,"is_disabled":true,"rental_uris":{"android":"levelo://app?vid=8fdef09c-2e7a-4a65-80df-a2d08d66be1e","ios":"levelo://app?vid=8fdef09c-2e7a-4a65-80df-a2d08d66be1e"},"vehicle_type_id":"4","last_reported":1756562881,"current_range_meters":0,"station_id":"","pricing_plan_id":"cebpf4jnsgd1na2vs0mg"},{"bike_id":"4e73ff7f-9a37-434b-a763-e40741c379e1","system_id":"levelo_inurba_marseille","lat":43.24882,"lon":5.40189,"is_reserved":false,"is_disabled":true,"rental_uris":{"android":"levelo://app?vid=4e73ff7f-9a37-434b-a763-e40741c379e1","ios":"levelo://app?vid=4e73ff7f-9a37-434b-a763-e40741c379e1"},"vehicle_type_id":"4","last_reported":1756562881,"current_range_meters":0,"station_id":"","pricing_plan_id":"cebpf4jnsgd1na2vs0mg"},{"bike_id":"bba73187-e40d-4fc1-aca5-92c82a80a125","system_id":"levelo_inurba_marseille","lat":43.279496,"lon":5.405815,"is_reserved":false,"is_disabled":true,"rental_uris":{"android":"levelo://app?vid=bba73187-e40d-4fc1-aca5-92c82a80a125","ios":"levelo://app?vid=bba73187-e40d-4fc1-aca5-92c82a80a125"},"vehicle_type_id":"4","last_reported":1756562881,"current_range_meters":0,"station_id":"","pricing_plan_id":"cebpf4jnsgd1na2vs0mg"},{"bike_id":"a6ef8657-5b8a-423b-993f-c3df43dec0a0","system_id":"levelo_inurba_marseille","lat":43.337595,"lon":5.374806,"is_reserved":false,"is_disabled":true,"rental_uris":{"android":"levelo://app?vid=a6ef8657-5b8a-423b-993f-c3df43dec0a0","ios":"levelo://app?vid=a6ef8657-5b8a-423b-993f-c3df43dec0a0"},"vehicle_type_id":"4","last_reported":1756562881,"current_range_meters":0,"station_id":"","pricing_plan_id":"cebpf4jnsgd1na2vs0mg"},{"bike_id":"13900560-f316-4122-b787-8830a097e555","system_id":"levelo_inurba_marseille","lat":43.22543,"lon":5.34834,"is_reserved":false,"is_disabled":true,"rental_uris":{"android":"levelo://app?vid=13900560-f316-4122-b787-8830a097e555","ios":"levelo://app?vid=13900560-f316-4122-b787-8830a097e555"},"vehicle_type_id":"4","last_reported":1756562881,"current_range_meters":0,"station_id":"","pricing_plan_id":"cebpf4jnsgd1na2vs0mg"},{"bike_id":"4130c537-2bb8-4edd-8a6c-2d7770015be1","system_id":"levelo_inurba_marseille","lat":43.22552,"lon":5.3482,"is_reserved":false,"is_disabled":true,"rental_uris":{"android":"levelo://app?vid=4130c537-2bb8-4edd-8a6c-2d7770015be1","ios":"levelo://app?vid=4130c537-2bb8-4edd-8a6c-2d7770015be1"},"vehicle_type_id":"4","last_reported":1756562881,"current_range_meters":0,"station_id":"","pricing_plan_id":"cebpf4jnsgd1na2vs0mg"},{"bike_id":"97a751c7-2b22-4a3b-892c-fcf4bfc5491b","system_id":"levelo_inurba_marseille","lat":43.30797,"lon":5.37358,"is_reserved":false,"is_disabled":true,"rental_uris":{"android":"levelo://app?vid=97a751c7-2b22-4a3b-892c-fcf4bfc5491b","ios":"levelo://app?vid=97a751c7-2b22-4a3b-892c-fcf4bfc5491b"},"vehicle_type_id":"4","last_reported":1756562881,"current_range_meters":0,"station_id":"","pricing_plan_id":"cebpf4jnsgd1na2vs0mg"},{"bike_id":"fa02fd8a-8b7a-46b5-b440-d4c4b27215e2","system_id":"levelo_inurba_marseille","lat":43.2656,"lon":5.37286,"is_reserved":false,"is_disabled":true,"rental_uris":{"android":"levelo://app?vid=fa02fd8a-8b7a-46b5-b440-d4c4b27215e2","ios":"levelo://app?vid=fa02fd8a-8b7a-46b5-b440-d4c4b27215e2"},"vehicle_type_id":"4","last_reported":1756562881,"current_range_meters":0,"station_id":"","pricing_plan_id":"cebpf4jnsgd1na2vs0mg"},{"bike_id":"af4f6e33-6e5d-4909-9f22-5e13b6ab9f19","system_id":"levelo_inurba_marseille","lat":43.30952,"lon":5.3903,"is_reserved":false,"is_disabled":true,"rental_uris":{"android":"levelo://app?vid=af4f6e33-6e5d-4909-9f22-5e13b6ab9f19","ios":"levelo://app?vid=af4f6e33-6e5d-4909-9f22-5e13b6ab9f19"},"vehicle_type_id":"4","last_reported":1756562881,"current_range_meters":0,"station_id":"ce4bgup2rcd13ifvqco0","pricing_plan_id":"cebpf4jnsgd1na2vs0mg"},{"bike_id":"f17430fb-c104-4526-984c-2fac6dfd575e","system_id":"levelo_inurba_marseille","lat":43.30602,"lon":5.39342,"is_reserved":false,"is_disabled":true,"rental_uris":{"android":"levelo://app?vid=f17430fb-c104-4526-984c-2fac6dfd575e","ios":"levelo://app?vid=f17430fb-c104-4526-984c-2fac6dfd575e"},"vehicle_type_id":"4","last_reported":1756562881,"current_range_meters":0,"station_id":"ce4bh0p2rcd13ifvqd80","pricing_plan_id":"cebpf4jnsgd1na2vs0mg"},{"bike_id":"f0cbd59a-7c01-4bf4-99ff-aa50b895cd21","system_id":"levelo_inurba_marseille","lat":43.30648,"lon":5.4011,"is_reserved":false,"is_disabled":true,"rental_uris":{"android":"levelo://app?vid=f0cbd59a-7c01-4bf4-99ff-aa50b895cd21","ios":"levelo://app?vid=f0cbd59a-7c01-4bf4-99ff-aa50b895cd21"},"vehicle_type_id":"4","last_reported":1756562881,"current_range_meters":0,"station_id":"ce4bh112rcd13ifvqda0","pricing_plan_id":"cebpf4jnsgd1na2vs0mg"},{"bike_id":"c36d7862-3147-43c2-b79c-0a1f7c0f6b56","system_id":"levelo_inurba_marseille","lat":43.29207,"lon":5.39319,"is_reserved":false,"is_disabled":true,"rental_uris":{"android":"levelo://app?vid=c36d7862-3147-43c2-b79c-0a1f7c0f6b56","ios":"levelo://app?vid=c36d7862-3147-43c2-b79c-0a1f7c0f6b56"},"vehicle_type_id":"4","last_reported":1756562881,"current_range_meters":0,"station_id":"ce4bh192rcd13ifvqdd0","pricing_plan_id":"cebpf4jnsgd1na2vs0mg"},{"bike_id":"b21f7e80-c8d2-41cc-b589-d01e3a800360","system_id":"levelo_inurba_marseille","lat":43.292774,"lon":5.401169,"is_reserved":false,"is_disabled":true,"rental_uris":{"android":"levelo://app?vid=b21f7e80-c8d2-41cc-b589-d01e3a800360","ios":"levelo://app?vid=b21f7e80-c8d2-41cc-b589-d01e3a800360"},"vehicle_type_id":"4","last_reported":1756562881,"current_range_meters":0,"station_id":"ce4bh312rcd13ifvqdk0","pricing_plan_id":"cebpf4jnsgd1na2vs0mg"},{"bike_id":"ef4cfdd3-8ed4-42f3-8acc-98e00a1a01d3","system_id":"levelo_inurba_marseille","lat":43.28685,"lon":5.38665,"is_reserved":false,"is_disabled":true,"rental_uris":{"android":"levelo://app?vid=ef4cfdd3-8ed4-42f3-8acc-98e00a1a01d3","ios":"levelo://app?vid=ef4cfdd3-8ed4-42f3-8acc-98e00a1a01d3"},"vehicle_type_id":"4","last_reported":1756562881,"current_range_meters":0,"station_id":"ce4bh492rcd13ifvqdug","pricing_plan_id":"cebpf4jnsgd1na2vs0mg"},{"bike_id":"2b19a68c-0cbe-434c-89d3-e699d5048b72","system_id":"levelo_inurba_marseille","lat":43.29254,"lon":5.38434,"is_reserved":false,"is_disabled":true,"rental_uris":{"android":"levelo://app?vid=2b19a68c-0cbe-434c-89d3-e699d5048b72","ios":"levelo://app?vid=2b19a68c-0cbe-434c-89d3-e699d5048b72"},"vehicle_type_id":"4","last_reported":1756562881,"current_range_meters":0,"station_id":"ce4bh692rcd13ifvqea0","pricing_plan_id":"cebpf4jnsgd1na2vs0mg"},{"bike_id":"2b19b90c-723b-45e4-93aa-8019e92f1d72","system_id":"levelo_inurba_marseille","lat":43.29003,"lon":5.35611,"is_reserved":false,"is_disabled":true,"rental_uris":{"android":"levelo://app?vid=2b19b90c-723b-45e4-93aa-8019e92f1d72","ios":"levelo://app?vid=2b19b90c-723b-45e4-93aa-8019e92f1d72"},"vehicle_type_id":"4","last_reported":1756562881,"current_range_meters":0,"station_id":"ce4bhb92rcd13ifvqen0","pricing_plan_id":"cebpf4jnsgd1na2vs0mg"},{"bike_id":"88ec9a7b-bd1f-45ce-a0d1-0a7add0f371f","system_id":"levelo_inurba_marseille","lat":43.29003,"lon":5.35617,"is_reserved":false,"is_disabled":true,"rental_uris":{"android":"levelo://app?vid=88ec9a7b-bd1f-45ce-a0d1-0a7add0f371f","ios":"levelo://app?vid=88ec9a7b-bd1f-45ce-a0d1-0a7add0f371f"},"vehicle_type_id":"4","last_reported":1756562881,"current_range_meters":0,"station_id":"ce4bhb92rcd13ifvqen0","pricing_plan_id":"cebpf4jnsgd1na2vs0mg"},{"bike_id":"b6541cfb-445a-48ef-95d6-aed0fc1e0048","system_id":"levelo_inurba_marseille","lat":43.27375,"lon":5.36255,"is_reserved":false,"is_disabled":true,"rental_uris":{"android":"levelo://app?vid=b6541cfb-445a-48ef-95d6-aed0fc1e0048","ios":"levelo://app?vid=b6541cfb-445a-48ef-95d6-aed0fc1e0048"},"vehicle_type_id":"4","last_reported":1756562881,"current_range_meters":0,"station_id":"ce4bhbh2rcd13ifvqeo0","pricing_plan_id":"cebpf4jnsgd1na2vs0mg"},{"bike_id":"5e93d5f3-edc6-4e6b-8fb5-58955c6129d6","system_id":"levelo_inurba_marseille","lat":43.27371,"lon":5.36249,"is_reserved":false,"is_disabled":true,"rental_uris":{"android":"levelo://app?vid=5e93d5f3-edc6-4e6b-8fb5-58955c6129d6","ios":"levelo://app?vid=5e93d5f3-edc6-4e6b-8fb5-58955c6129d6"},"vehicle_type_id":"4","last_reported":1756562881,"current_range_meters":0,"station_id":"ce4bhbh2rcd13ifvqeo0","pricing_plan_id":"cebpf4jnsgd1na2vs0mg"},{"bike_id":"35c8a2f4-4592-44d5-bae6-9aad52d79fb0","system_id":"levelo_inurba_marseille","lat":43.2827,"lon":5.35061,"is_reserved":false,"is_disabled":true,"rental_uris":{"android":"levelo://app?vid=35c8a2f4-4592-44d5-bae6-9aad52d79fb0","ios":"levelo://app?vid=35c8a2f4-4592-44d5-bae6-9aad52d79fb0"},"vehicle_type_id":"4","last_reported":1756562881,"current_range_meters":0,"station_id":"ce4bhbp2rcd13ifvqerg","pricing_plan_id":"cebpf4jnsgd1na2vs0mg"},{"bike_id":"750f297e-f018-4348-a57a-9a5d96907b12","system_id":"levelo_inurba_marseille","lat":43.26551,"lon":5.37285,"is_reserved":false,"is_disabled":true,"rental_uris":{"android":"levelo://app?vid=750f297e-f018-4348-a57a-9a5d96907b12","ios":"levelo://app?vid=750f297e-f018-4348-a57a-9a5d96907b12"},"vehicle_type_id":"4","last_reported":1756562881,"current_range_meters":0,"station_id":"ce4bhg12rcd13ifvqf70","pricing_plan_id":"cebpf4jnsgd1na2vs0mg"},{"bike_id":"947a02c8-8faa-4690-ac34-83e32e8df6df","system_id":"levelo_inurba_marseille","lat":43.27218,"lon":5.39198,"is_reserved":false,"is_disabled":true,"rental_uris":{"android":"levelo://app?vid=947a02c8-8faa-4690-ac34-83e32e8df6df","ios":"levelo://app?vid=947a02c8-8faa-4690-ac34-83e32e8df6df"},"vehicle_type_id":"4","last_reported":1756562881,"current_range_meters":0,"station_id":"ce4bhhp2rcd13ifvqfm0","pricing_plan_id":"cebpf4jnsgd1na2vs0mg"},{"bike_id":"cd7783ee-26e3-4ffa-b7ee-aa46724331a2","system_id":"levelo_inurba_marseille","lat":43.23139,"lon":5.4371,"is_reserved":false,"is_disabled":true,"rental_uris":{"android":"levelo://app?vid=cd7783ee-26e3-4ffa-b7ee-aa46724331a2","ios":"levelo://app?vid=cd7783ee-26e3-4ffa-b7ee-aa46724331a2"},"vehicle_type_id":"4","last_reported":1756562881,"current_range_meters":0,"station_id":"ce4bhmp2rcd13ifvqgog","pricing_plan_id":"cebpf4jnsgd1na2vs0mg"},{"bike_id":"909be848-1a9f-463b-b29f-63a646906044","system_id":"levelo_inurba_marseille","lat":43.317212,"lon":5.424062,"is_reserved":false,"is_disabled":true,"rental_uris":{"android":"levelo://app?vid=909be848-1a9f-463b-b29f-63a646906044","ios":"levelo://app?vid=909be848-1a9f-463b-b29f-63a646906044"},"vehicle_type_id":"4","last_reported":1756562881,"current_range_meters":0,"station_id":"ce4bhp92rcd13ifvqhbg","pricing_plan_id":"cebpf4jnsgd1na2vs0mg"},{"bike_id":"9b7c2b9d-93d5-429e-9731-ed841f1da7c9","system_id":"levelo_inurba_marseille","lat":43.23194,"lon":5.35552,"is_reserved":false,"is_disabled":true,"rental_uris":{"android":"levelo://app?vid=9b7c2b9d-93d5-429e-9731-ed841f1da7c9","ios":"levelo://app?vid=9b7c2b9d-93d5-429e-9731-ed841f1da7c9"},"vehicle_type_id":"4","last_reported":1756562881,"current_range_meters":0,"station_id":"ce4bhu92rcd13ifvqi70","pricing_plan_id":"cebpf4jnsgd1na2vs0mg"},{"bike_id":"3222b977-3c97-4531-bc87-c914b62b755e","system_id":"levelo_inurba_marseille","lat":43.225331,"lon":5.348355,"is_reserved":false,"is_disabled":true,"rental_uris":{"android":"levelo://app?vid=3222b977-3c97-4531-bc87-c914b62b755e","ios":"levelo://app?vid=3222b977-3c97-4531-bc87-c914b62b755e"},"vehicle_type_id":"4","last_reported":1756562881,"current_range_meters":0,"station_id":"st_cvj6r9ubvosntc0bgbag","pricing_plan_id":"cebpf4jnsgd1na2vs0mg"},{"bike_id":"33ac57af-52ae-4a2e-bc98-fbbaa457d8d6","system_id":"levelo_inurba_marseille","lat":43.21768,"lon":5.34596,"is_reserved":false,"is_disabled":true,"rental_uris":{"android":"levelo://app?vid=33ac57af-52ae-4a2e-bc98-fbbaa457d8d6","ios":"levelo://app?vid=33ac57af-52ae-4a2e-bc98-fbbaa457d8d6"},"vehicle_type_id":"4","last_reported":1756562881,"current_range_meters":0,"station_id":"st_cvj6r9ubvosntc0bgbag","pricing_plan_id":"cebpf4jnsgd1na2vs0mg"},{"bike_id":"e6840a59-6666-4cd5-b83a-803346c3260a","system_id":"levelo_inurba_marseille","lat":43.21185,"lon":5.35051,"is_reserved":false,"is_disabled":true,"rental_uris":{"android":"levelo://app?vid=e6840a59-6666-4cd5-b83a-803346c3260a","ios":"levelo://app?vid=e6840a59-6666-4cd5-b83a-803346c3260a"},"vehicle_type_id":"4","last_reported":1756562881,"current_range_meters":0,"station_id":"st_cvj6sg6p6f1abm77japg","pricing_plan_id":"cebpf4jnsgd1na2vs0mg"},{"bike_id":"d483eb89-e9cb-45dc-9ad8-740686752c91","system_id":"levelo_inurba_marseille","lat":43.21163,"lon":5.35089,"is_reserved":false,"is_disabled":true,"rental_uris":{"android":"levelo://app?vid=d483eb89-e9cb-45dc-9ad8-740686752c91","ios":"levelo://app?vid=d483eb89-e9cb-45dc-9ad8-740686752c91"},"vehicle_type_id":"4","last_reported":1756562881,"current_range_meters":0,"station_id":"st_cvj6sg6p6f1abm77japg","pricing_plan_id":"cebpf4jnsgd1na2vs0mg"},{"bike_id":"d84fbb73-29b3-4e8d-b65a-027064ccb595","system_id":"levelo_inurba_marseille","lat":43.225547,"lon":5.416371,"is_reserved":false,"is_disabled":true,"rental_uris":{"android":"levelo://app?vid=d84fbb73-29b3-4e8d-b65a-027064ccb595","ios":"levelo://app?vid=d84fbb73-29b3-4e8d-b65a-027064ccb595"},"vehicle_type_id":"4","last_reported":1756562881,"current_range_meters":0,"station_id":"st_d2o4gvlbi1j2169b742g","pricing_plan_id":"cebpf4jnsgd1na2vs0mg"},{"bike_id":"9481811d-4e70-4754-882e-dc0d43212e0d","system_id":"levelo_inurba_marseille","lat":43.29938,"lon":5.39757,"is_reserved":false,"is_disabled":true,"rental_uris":{"android":"levelo://app?vid=9481811d-4e70-4754-882e-dc0d43212e0d","ios":"levelo://app?vid=9481811d-4e70-4754-882e-dc0d43212e0d"},"vehicle_type_id":"4","last_reported":1756562881,"current_range_meters":400,"station_id":"","pricing_plan_id":"cebpf4jnsgd1na2vs0mg"},{"bike_id":"52e2ab91-6c79-4a2c-9112-008b6466017c","system_id":"levelo_inurba_marseille","lat":43.25636,"lon":5.39369,"is_reserved":false,"is_disabled":true,"rental_uris":{"android":"levelo://app?vid=52e2ab91-6c79-4a2c-9112-008b6466017c","ios":"levelo://app?vid=52e2ab91-6c79-4a2c-9112-008b6466017c"},"vehicle_type_id":"4","last_reported":1756562881,"current_range_meters":400,"station_id":"","pricing_plan_id":"cebpf4jnsgd1na2vs0mg"},{"bike_id":"346c670e-c05e-48f2-a62a-a47665483664","system_id":"levelo_inurba_marseille","lat":43.301501,"lon":5.380591,"is_reserved":false,"is_disabled":true,"rental_uris":{"android":"levelo://app?vid=346c670e-c05e-48f2-a62a-a47665483664","ios":"levelo://app?vid=346c670e-c05e-48f2-a62a-a47665483664"},"vehicle_type_id":"4","last_reported":1756562881,"current_range_meters":400,"station_id":"ce4bgjp2rcd13ifvqbh0","pricing_plan_id":"cebpf4jnsgd1na2vs0mg"},{"bike_id":"a70e48b3-2edd-496c-b39b-c1d8d23a4fad","system_id":"levelo_inurba_marseille","lat":43.30426,"lon":5.38892,"is_reserved":false,"is_disabled":true,"rental_uris":{"android":"levelo://app?vid=a70e48b3-2edd-496c-b39b-c1d8d23a4fad","ios":"levelo://app?vid=a70e48b3-2edd-496c-b39b-c1d8d23a4fad"},"vehicle_type_id":"4","last_reported":1756562881,"current_range_meters":400,"station_id":"ce4bgk12rcd13ifvqbi0","pricing_plan_id":"cebpf4jnsgd1na2vs0mg"},{"bike_id":"c56f7537-2573-415d-bbea-fcc446a3dfc9","system_id":"levelo_inurba_marseille","lat":43.23963,"lon":5.3663,"is_reserved":false,"is_disabled":true,"rental_uris":{"android":"levelo://app?vid=c56f7537-2573-415d-bbea-fcc446a3dfc9","ios":"levelo://app?vid=c56f7537-2573-415d-bbea-fcc446a3dfc9"},"vehicle_type_id":"4","last_reported":1756562881,"current_range_meters":400,"station_id":"ce4bhi12rcd13ifvqfp0","pricing_plan_id":"cebpf4jnsgd1na2vs0mg"},{"bike_id":"c28d9710-12f9-43ac-bf75-2b972d942561","system_id":"levelo_inurba_marseille","lat":43.29905,"lon":5.38121,"is_reserved":false,"is_disabled":true,"rental_uris":{"android":"levelo://app?vid=c28d9710-12f9-43ac-bf75-2b972d942561","ios":"levelo://app?vid=c28d9710-12f9-43ac-bf75-2b972d942561"},"vehicle_type_id":"4","last_reported":1756562881,"current_range_meters":800,"station_id":"ce4bgj12rcd13ifvqbc0","pricing_plan_id":"cebpf4jnsgd1na2vs0mg"},{"bike_id":"b5d86bd4-babc-41e9-b3e5-5fd62b22a3d6","system_id":"levelo_inurba_marseille","lat":43.31071,"lon":5.38357,"is_reserved":false,"is_disabled":true,"rental_uris":{"android":"levelo://app?vid=b5d86bd4-babc-41e9-b3e5-5fd62b22a3d6","ios":"levelo://app?vid=b5d86bd4-babc-41e9-b3e5-5fd62b22a3d6"},"vehicle_type_id":"4","last_reported":1756562881,"current_range_meters":800,"station_id":"ce4bgv92rcd13ifvqcr0","pricing_plan_id":"cebpf4jnsgd1na2vs0mg"},{"bike_id":"223f2944-12cc-41c7-af8d-cfcabd2b1463","system_id":"levelo_inurba_marseille","lat":43.302496,"lon":5.400844,"is_reserved":false,"is_disabled":true,"rental_uris":{"android":"levelo://app?vid=223f2944-12cc-41c7-af8d-cfcabd2b1463","ios":"levelo://app?vid=223f2944-12cc-41c7-af8d-cfcabd2b1463"},"vehicle_type_id":"4","last_reported":1756562881,"current_range_meters":800,"station_id":"ce4bgvh2rcd13ifvqcs0","pricing_plan_id":"cebpf4jnsgd1na2vs0mg"},{"bike_id":"37d75875-2d22-4867-b9a5-c9a17c074877","system_id":"levelo_inurba_marseille","lat":43.21748,"lon":5.34604,"is_reserved":false,"is_disabled":true,"rental_uris":{"android":"levelo://app?vid=37d75875-2d22-4867-b9a5-c9a17c074877","ios":"levelo://app?vid=37d75875-2d22-4867-b9a5-c9a17c074877"},"vehicle_type_id":"4","last_reported":1756562881,"current_range_meters":800,"station_id":"st_cvj6r9ubvosntc0bgbag","pricing_plan_id":"cebpf4jnsgd1na2vs0mg"},{"bike_id":"db29c746-da2d-4672-b244-3c683577f904","system_id":"levelo_inurba_marseille","lat":43.301771,"lon":5.372779,"is_reserved":false,"is_disabled":true,"rental_uris":{"android":"levelo://app?vid=db29c746-da2d-4672-b244-3c683577f904","ios":"levelo://app?vid=db29c746-da2d-4672-b244-3c683577f904"},"vehicle_type_id":"4","last_reported":1756562881,"current_range_meters":1200,"station_id":"","pricing_plan_id":"cebpf4jnsgd1na2vs0mg"},{"bike_id":"dec5d3c8-2eaa-4760-8eed-ed4eb697628e","system_id":"levelo_inurba_marseille","lat":43.31068,"lon":5.38353,"is_reserved":false,"is_disabled":true,"rental_uris":{"android":"levelo://app?vid=dec5d3c8-2eaa-4760-8eed-ed4eb697628e","ios":"levelo://app?vid=dec5d3c8-2eaa-4760-8eed-ed4eb697628e"},"vehicle_type_id":"4","last_reported":1756562881,"current_range_meters":1200,"station_id":"ce4bgv92rcd13ifvqcr0","pricing_plan_id":"cebpf4jnsgd1na2vs0mg"},{"bike_id":"7a2d84cb-0454-4670-b854-2015dc4d5771","system_id":"levelo_inurba_marseille","lat":43.204277,"lon":5.493739,"is_reserved":false,"is_disabled":true,"rental_uris":{"android":"levelo://app?vid=7a2d84cb-0454-4670-b854-2015dc4d5771","ios":"levelo://app?vid=7a2d84cb-0454-4670-b854-2015dc4d5771"},"vehicle_type_id":"4","last_reported":1756562881,"current_range_meters":1200,"station_id":"ce4bhmp2rcd13ifvqgog","pricing_plan_id":"cebpf4jnsgd1na2vs0mg"},{"bike_id":"84d6c0b0-63eb-4927-8203-9e37b46baeac","system_id":"levelo_inurba_marseille","lat":43.30734,"lon":5.42434,"is_reserved":false,"is_disabled":true,"rental_uris":{"android":"levelo://app?vid=84d6c0b0-63eb-4927-8203-9e37b46baeac","ios":"levelo://app?vid=84d6c0b0-63eb-4927-8203-9e37b46baeac"},"vehicle_type_id":"4","last_reported":1756562881,"current_range_meters":1200,"station_id":"st_cvj6ca6bvosntc0bfgr0","pricing_plan_id":"cebpf4jnsgd1na2vs0mg"},{"bike_id":"ef7d6492-f1c5-41ef-b717-d1c5cc793164","system_id":"levelo_inurba_marseille","lat":43.21748,"lon":5.34599,"is_reserved":false,"is_disabled":true,"rental_uris":{"android":"levelo://app?vid=ef7d6492-f1c5-41ef-b717-d1c5cc793164","ios":"levelo://app?vid=ef7d6492-f1c5-41ef-b717-d1c5cc793164"},"vehicle_type_id":"4","last_reported":1756562881,"current_range_meters":1200,"station_id":"st_cvj6r9ubvosntc0bgbag","pricing_plan_id":"cebpf4jnsgd1na2vs0mg"},{"bike_id":"c4c599ac-b19e-4d4e-8948-71de0ae3f446","system_id":"levelo_inurba_marseille","lat":43.21196,"lon":5.35065,"is_reserved":false,"is_disabled":true,"rental_uris":{"android":"levelo://app?vid=c4c599ac-b19e-4d4e-8948-71de0ae3f446","ios":"levelo://app?vid=c4c599ac-b19e-4d4e-8948-71de0ae3f446"},"vehicle_type_id":"4","last_reported":1756562881,"current_range_meters":1200,"station_id":"st_cvj6sg6p6f1abm77japg","pricing_plan_id":"cebpf4jnsgd1na2vs0mg"},{"bike_id":"ec159fe1-1e8e-4dff-a5d5-6612234f170d","system_id":"levelo_inurba_marseille","lat":43.21211,"lon":5.35076,"is_reserved":false,"is_disabled":true,"rental_uris":{"android":"levelo://app?vid=ec159fe1-1e8e-4dff-a5d5-6612234f170d","ios":"levelo://app?vid=ec159fe1-1e8e-4dff-a5d5-6612234f170d"},"vehicle_type_id":"4","last_reported":1756562881,"current_range_meters":1200,"station_id":"st_cvj6sg6p6f1abm77japg","pricing_plan_id":"cebpf4jnsgd1na2vs0mg"},{"bike_id":"58a499e7-433f-46a6-9e88-665656116883","system_id":"levelo_inurba_marseille","lat":43.2656,"lon":5.37284,"is_reserved":false,"is_disabled":true,"rental_uris":{"android":"levelo://app?vid=58a499e7-433f-46a6-9e88-665656116883","ios":"levelo://app?vid=58a499e7-433f-46a6-9e88-665656116883"},"vehicle_type_id":"4","last_reported":1756562881,"current_range_meters":1600,"station_id":"","pricing_plan_id":"cebpf4jnsgd1na2vs0mg"},{"bike_id":"f7eaea78-3b6f-4dc1-a768-bf76d4803edf","system_id":"levelo_inurba_marseille","lat":43.29617,"lon":5.37719,"is_reserved":false,"is_disabled":true,"rental_uris":{"android":"levelo://app?vid=f7eaea78-3b6f-4dc1-a768-bf76d4803edf","ios":"levelo://app?vid=f7eaea78-3b6f-4dc1-a768-bf76d4803edf"},"vehicle_type_id":"4","last_reported":1756562881,"current_range_meters":1600,"station_id":"ce4bgi92rcd13ifvqb90","pricing_plan_id":"cebpf4jnsgd1na2vs0mg"},{"bike_id":"c0bcb158-cc61-4698-92a8-0cd63f4b72dd","system_id":"levelo_inurba_marseille","lat":43.29526,"lon":5.38545,"is_reserved":false,"is_disabled":true,"rental_uris":{"android":"levelo://app?vid=c0bcb158-cc61-4698-92a8-0cd63f4b72dd","ios":"levelo://app?vid=c0bcb158-cc61-4698-92a8-0cd63f4b72dd"},"vehicle_type_id":"4","last_reported":1756562881,"current_range_meters":1600,"station_id":"ce4bgih2rcd13ifvqba0","pricing_plan_id":"cebpf4jnsgd1na2vs0mg"},{"bike_id":"76180021-b39d-46ac-95b7-b6afc37fa661","system_id":"levelo_inurba_marseille","lat":43.29806,"lon":5.38097,"is_reserved":false,"is_disabled":true,"rental_uris":{"android":"levelo://app?vid=76180021-b39d-46ac-95b7-b6afc37fa661","ios":"levelo://app?vid=76180021-b39d-46ac-95b7-b6afc37fa661"},"vehicle_type_id":"4","last_reported":1756562881,"current_range_meters":1600,"station_id":"ce4bgip2rcd13ifvqbb0","pricing_plan_id":"cebpf4jnsgd1na2vs0mg"},{"bike_id":"0909f1da-470f-4e6c-9f8b-efb7d63cbb02","system_id":"levelo_inurba_marseille","lat":43.309346,"lon":5.401384,"is_reserved":false,"is_disabled":true,"rental_uris":{"android":"levelo://app?vid=0909f1da-470f-4e6c-9f8b-efb7d63cbb02","ios":"levelo://app?vid=0909f1da-470f-4e6c-9f8b-efb7d63cbb02"},"vehicle_type_id":"4","last_reported":1756562881,"current_range_meters":1600,"station_id":"ce4bgvp2rcd13ifvqct0","pricing_plan_id":"cebpf4jnsgd1na2vs0mg"},{"bike_id":"b20404ec-b7cf-48da-84e5-76998e6a369b","system_id":"levelo_inurba_marseille","lat":43.29214,"lon":5.36046,"is_reserved":false,"is_disabled":true,"rental_uris":{"android":"levelo://app?vid=b20404ec-b7cf-48da-84e5-76998e6a369b","ios":"levelo://app?vid=b20404ec-b7cf-48da-84e5-76998e6a369b"},"vehicle_type_id":"4","last_reported":1756562881,"current_range_meters":1600,"station_id":"ce4bhbh2rcd13ifvqeqg","pricing_plan_id":"cebpf4jnsgd1na2vs0mg"},{"bike_id":"3c884817-bd34-4eb1-8eb8-7bb616fe6d16","system_id":"levelo_inurba_marseille","lat":43.313218,"lon":5.397036,"is_reserved":false,"is_disabled":false,"rental_uris":{"android":"levelo://app?vid=3c884817-bd34-4eb1-8eb8-7bb616fe6d16","ios":"levelo://app?vid=3c884817-bd34-4eb1-8eb8-7bb616fe6d16"},"vehicle_type_id":"4","last_reported":1756562881,"current_range_meters":2000,"station_id":"ce4bgvp2rcd13ifvqcu0","pricing_plan_id":"cebpf4jnsgd1na2vs0mg"},{"bike_id":"54c54796-a5e6-4e32-94c4-744431c38f55","system_id":"levelo_inurba_marseille","lat":43.27369,"lon":5.3625,"is_reserved":false,"is_disabled":true,"rental_uris":{"android":"levelo://app?vid=54c54796-a5e6-4e32-94c4-744431c38f55","ios":"levelo://app?vid=54c54796-a5e6-4e32-94c4-744431c38f55"},"vehicle_type_id":"4","last_reported":1756562881,"current_range_meters":2000,"station_id":"ce4bhbh2rcd13ifvqeo0","pricing_plan_id":"cebpf4jnsgd1na2vs0mg"},{"bike_id":"a6c50e8d-ca9f-491a-a3fe-5e94fc9999af","system_id":"levelo_inurba_marseille","lat":43.29278,"lon":5.3685,"is_reserved":false,"is_disabled":true,"rental_uris":{"android":"levelo://app?vid=a6c50e8d-ca9f-491a-a3fe-5e94fc9999af","ios":"levelo://app?vid=a6c50e8d-ca9f-491a-a3fe-5e94fc9999af"},"vehicle_type_id":"4","last_reported":1756562881,"current_range_meters":2000,"station_id":"ce4bhbp2rcd13ifvqesg","pricing_plan_id":"cebpf4jnsgd1na2vs0mg"},{"bike_id":"bc6a53ab-eec8-4c53-aa54-b20e2465102d","system_id":"levelo_inurba_marseille","lat":43.3042,"lon":5.41301,"is_reserved":false,"is_disabled":true,"rental_uris":{"android":"levelo://app?vid=bc6a53ab-eec8-4c53-aa54-b20e2465102d","ios":"levelo://app?vid=bc6a53ab-eec8-4c53-aa54-b20e2465102d"},"vehicle_type_id":"4","last_reported":1756562881,"current_range_meters":2000,"station_id":"ce4bhop2rcd13ifvqh8g","pricing_plan_id":"cebpf4jnsgd1na2vs0mg"},{"bike_id":"b76bd5e7-c577-4d6a-ab37-b0bb2b09e583","system_id":"levelo_inurba_marseille","lat":43.225342,"lon":5.348349,"is_reserved":false,"is_disabled":true,"rental_uris":{"android":"levelo://app?vid=b76bd5e7-c577-4d6a-ab37-b0bb2b09e583","ios":"levelo://app?vid=b76bd5e7-c577-4d6a-ab37-b0bb2b09e583"},"vehicle_type_id":"4","last_reported":1756562881,"current_range_meters":2000,"station_id":"st_cvj5dfep6f1abm77gieg","pricing_plan_id":"cebpf4jnsgd1na2vs0mg"},{"bike_id":"c16b4811-3ffe-45f6-b147-21e020c05d83","system_id":"levelo_inurba_marseille","lat":43.29911,"lon":5.3747,"is_reserved":false,"is_disabled":false,"rental_uris":{"android":"levelo://app?vid=c16b4811-3ffe-45f6-b147-21e020c05d83","ios":"levelo://app?vid=c16b4811-3ffe-45f6-b147-21e020c05d83"},"vehicle_type_id":"4","last_reported":1756562881,"current_range_meters":2800,"station_id":"ce4bgjh2rcd13ifvqbg0","pricing_plan_id":"cebpf4jnsgd1na2vs0mg"},{"bike_id":"e530336a-835b-44f0-820d-a769a30232a7","system_id":"levelo_inurba_marseille","lat":43.262018,"lon":5.39734,"is_reserved":false,"is_disabled":false,"rental_uris":{"android":"levelo://app?vid=e530336a-835b-44f0-820d-a769a30232a7","ios":"levelo://app?vid=e530336a-835b-44f0-820d-a769a30232a7"},"vehicle_type_id":"4","last_reported":1756562881,"current_range_meters":3600,"station_id":"","pricing_plan_id":"cebpf4jnsgd1na2vs0mg"},{"bike_id":"d3e470f2-3576-4524-b25f-9f3bfece22ed","system_id":"levelo_inurba_marseille","lat":43.26549,"lon":5.37293,"is_reserved":false,"is_disabled":false,"rental_uris":{"android":"levelo://app?vid=d3e470f2-3576-4524-b25f-9f3bfece22ed","ios":"levelo://app?vid=d3e470f2-3576-4524-b25f-9f3bfece22ed"},"vehicle_type_id":"4","last_reported":1756562881,"current_range_meters":3600,"station_id":"","pricing_plan_id":"cebpf4jnsgd1na2vs0mg"},{"bike_id":"f1f52bf4-3df2-431e-9238-c6a82592a0ad","system_id":"levelo_inurba_marseille","lat":43.30222,"lon":5.38359,"is_reserved":false,"is_disabled":false,"rental_uris":{"android":"levelo://app?vid=f1f52bf4-3df2-431e-9238-c6a82592a0ad","ios":"levelo://app?vid=f1f52bf4-3df2-431e-9238-c6a82592a0ad"},"vehicle_type_id":"4","last_reported":1756562881,"current_range_meters":3600,"station_id":"","pricing_plan_id":"cebpf4jnsgd1na2vs0mg"},{"bike_id":"10332a6d-e1dd-4e44-8b65-dd32a60782db","system_id":"levelo_inurba_marseille","lat":43.27614,"lon":5.36111,"is_reserved":false,"is_disabled":false,"rental_uris":{"android":"levelo://app?vid=10332a6d-e1dd-4e44-8b65-dd32a60782db","ios":"levelo://app?vid=10332a6d-e1dd-4e44-8b65-dd32a60782db"},"vehicle_type_id":"4","last_reported":1756562881,"current_range_meters":3600,"station_id":"ce4bgj92rcd13ifvqbe0","pricing_plan_id":"cebpf4jnsgd1na2vs0mg"},{"bike_id":"4191c8db-64c2-43df-87f4-5956beac239e","system_id":"levelo_inurba_marseille","lat":43.296162,"lon":5.371522,"is_reserved":false,"is_disabled":false,"rental_uris":{"android":"levelo://app?vid=4191c8db-64c2-43df-87f4-5956beac239e","ios":"levelo://app?vid=4191c8db-64c2-43df-87f4-5956beac239e"},"vehicle_type_id":"4","last_reported":1756562881,"current_range_meters":3600,"station_id":"ce4bgnh2rcd13ifvqc0g","pricing_plan_id":"cebpf4jnsgd1na2vs0mg"},{"bike_id":"5a4b27eb-e402-4986-8923-5d99211fe225","system_id":"levelo_inurba_marseille","lat":43.29004,"lon":5.35613,"is_reserved":false,"is_disabled":false,"rental_uris":{"android":"levelo://app?vid=5a4b27eb-e402-4986-8923-5d99211fe225","ios":"levelo://app?vid=5a4b27eb-e402-4986-8923-5d99211fe225"},"vehicle_type_id":"4","last_reported":1756562881,"current_range_meters":3600,"station_id":"ce4bhb92rcd13ifvqen0","pricing_plan_id":"cebpf4jnsgd1na2vs0mg"},{"bike_id":"3572dc9b-4b91-421c-9637-a228fbcd70d6","system_id":"levelo_inurba_marseille","lat":43.28266,"lon":5.35069,"is_reserved":false,"is_disabled":false,"rental_uris":{"android":"levelo://app?vid=3572dc9b-4b91-421c-9637-a228fbcd70d6","ios":"levelo://app?vid=3572dc9b-4b91-421c-9637-a228fbcd70d6"},"vehicle_type_id":"4","last_reported":1756562881,"current_range_meters":3600,"station_id":"ce4bhbp2rcd13ifvqerg","pricing_plan_id":"cebpf4jnsgd1na2vs0mg"},{"bike_id":"55a82956-7b4b-4563-95ef-7a701343ebf0","system_id":"levelo_inurba_marseille","lat":43.2827,"lon":5.35065,"is_reserved":false,"is_disabled":false,"rental_uris":{"android":"levelo://app?vid=55a82956-7b4b-4563-95ef-7a701343ebf0","ios":"levelo://app?vid=55a82956-7b4b-4563-95ef-7a701343ebf0"},"vehicle_type_id":"4","last_reported":1756562881,"current_range_meters":4000,"station_id":"ce4bhbp2rcd13ifvqerg","pricing_plan_id":"cebpf4jnsgd1na2vs0mg"},{"bike_id":"73be054b-568a-4646-9920-2cd3ea678c9a","system_id":"levelo_inurba_marseille","lat":43.26566,"lon":5.39025,"is_reserved":false,"is_disabled":false,"rental_uris":{"android":"levelo://app?vid=73be054b-568a-4646-9920-2cd3ea678c9a","ios":"levelo://app?vid=73be054b-568a-4646-9920-2cd3ea678c9a"},"vehicle_type_id":"4","last_reported":1756562881,"current_range_meters":4000,"station_id":"ce4bhe12rcd13ifvqf30","pricing_plan_id":"cebpf4jnsgd1na2vs0mg"},{"bike_id":"8d9ddadc-f845-45bb-b214-d8719a2ed41d","system_id":"levelo_inurba_marseille","lat":43.23663,"lon":5.399259,"is_reserved":false,"is_disabled":false,"rental_uris":{"android":"levelo://app?vid=8d9ddadc-f845-45bb-b214-d8719a2ed41d","ios":"levelo://app?vid=8d9ddadc-f845-45bb-b214-d8719a2ed41d"},"vehicle_type_id":"4","last_reported":1756562881,"current_range_meters":4000,"station_id":"ce4bhn12rcd13ifvqgqg","pricing_plan_id":"cebpf4jnsgd1na2vs0mg"},{"bike_id":"437ed912-3db8-447e-84a3-67e8a6b10367","system_id":"levelo_inurba_marseille","lat":43.29571,"lon":5.39994,"is_reserved":false,"is_disabled":false,"rental_uris":{"android":"levelo://app?vid=437ed912-3db8-447e-84a3-67e8a6b10367","ios":"levelo://app?vid=437ed912-3db8-447e-84a3-67e8a6b10367"},"vehicle_type_id":"4","last_reported":1756562881,"current_range_meters":4400,"station_id":"ce4bh312rcd13ifvqdj0","pricing_plan_id":"cebpf4jnsgd1na2vs0mg"},{"bike_id":"2cbea3ef-710e-4ce9-ab8f-0a08acda9410","system_id":"levelo_inurba_marseille","lat":43.251,"lon":5.4032,"is_reserved":false,"is_disabled":false,"rental_uris":{"android":"levelo://app?vid=2cbea3ef-710e-4ce9-ab8f-0a08acda9410","ios":"levelo://app?vid=2cbea3ef-710e-4ce9-ab8f-0a08acda9410"},"vehicle_type_id":"4","last_reported":1756562881,"current_range_meters":4400,"station_id":"ce4bhlh2rcd13ifvqgig","pricing_plan_id":"cebpf4jnsgd1na2vs0mg"},{"bike_id":"ed9d0aca-c790-4b30-9319-8f26a86f9975","system_id":"levelo_inurba_marseille","lat":43.26565,"lon":5.37282,"is_reserved":false,"is_disabled":false,"rental_uris":{"android":"levelo://app?vid=ed9d0aca-c790-4b30-9319-8f26a86f9975","ios":"levelo://app?vid=ed9d0aca-c790-4b30-9319-8f26a86f9975"},"vehicle_type_id":"4","last_reported":1756562881,"current_range_meters":4800,"station_id":"","pricing_plan_id":"cebpf4jnsgd1na2vs0mg"},{"bike_id":"a2658ebb-fe19-424e-bd65-048f0a17273e","system_id":"levelo_inurba_marseille","lat":43.29004,"lon":5.35594,"is_reserved":false,"is_disabled":false,"rental_uris":{"android":"levelo://app?vid=a2658ebb-fe19-424e-bd65-048f0a17273e","ios":"levelo://app?vid=a2658ebb-fe19-424e-bd65-048f0a17273e"},"vehicle_type_id":"4","last_reported":1756562881,"current_range_meters":4800,"station_id":"ce4bhb92rcd13ifvqen0","pricing_plan_id":"cebpf4jnsgd1na2vs0mg"},{"bike_id":"04e75825-2906-4906-95b1-3f7abdf4d14d","system_id":"levelo_inurba_marseille","lat":43.25868,"lon":5.39897,"is_reserved":false,"is_disabled":false,"rental_uris":{"android":"levelo://app?vid=04e75825-2906-4906-95b1-3f7abdf4d14d","ios":"levelo://app?vid=04e75825-2906-4906-95b1-3f7abdf4d14d"},"vehicle_type_id":"4","last_reported":1756562881,"current_range_meters":4800,"station_id":"ce4bhl92rcd13ifvqghg","pricing_plan_id":"cebpf4jnsgd1na2vs0mg"},{"bike_id":"09021194-c905-453e-b123-2d696aeb0768","system_id":"levelo_inurba_marseille","lat":43.28159,"lon":5.40638,"is_reserved":false,"is_disabled":false,"rental_uris":{"android":"levelo://app?vid=09021194-c905-453e-b123-2d696aeb0768","ios":"levelo://app?vid=09021194-c905-453e-b123-2d696aeb0768"},"vehicle_type_id":"4","last_reported":1756562881,"current_range_meters":5600,"station_id":"","pricing_plan_id":"cebpf4jnsgd1na2vs0mg"},{"bike_id":"ee1b88cb-6a8d-4388-acc5-196518d650d7","system_id":"levelo_inurba_marseille","lat":43.21193,"lon":5.35078,"is_reserved":false,"is_disabled":false,"rental_uris":{"android":"levelo://app?vid=ee1b88cb-6a8d-4388-acc5-196518d650d7","ios":"levelo://app?vid=ee1b88cb-6a8d-4388-acc5-196518d650d7"},"vehicle_type_id":"4","last_reported":1756562881,"current_range_meters":5600,"station_id":"st_cvj6sg6p6f1abm77japg","pricing_plan_id":"cebpf4jnsgd1na2vs0mg"},{"bike_id":"b4080877-c5dc-476f-8ab3-3d8c6f3bb6ad","system_id":"levelo_inurba_marseille","lat":43.22534,"lon":5.348349,"is_reserved":false,"is_disabled":false,"rental_uris":{"android":"levelo://app?vid=b4080877-c5dc-476f-8ab3-3d8c6f3bb6ad","ios":"levelo://app?vid=b4080877-c5dc-476f-8ab3-3d8c6f3bb6ad"},"vehicle_type_id":"4","last_reported":1756562881,"current_range_meters":6000,"station_id":"","pricing_plan_id":"cebpf4jnsgd1na2vs0mg"},{"bike_id":"11e3b63a-7498-4037-a1da-178dcd0fbd98","system_id":"levelo_inurba_marseille","lat":43.337444,"lon":5.374475,"is_reserved":false,"is_disabled":false,"rental_uris":{"android":"levelo://app?vid=11e3b63a-7498-4037-a1da-178dcd0fbd98","ios":"levelo://app?vid=11e3b63a-7498-4037-a1da-178dcd0fbd98"},"vehicle_type_id":"4","last_reported":1756562881,"current_range_meters":6000,"station_id":"","pricing_plan_id":"cebpf4jnsgd1na2vs0mg"},{"bike_id":"78e73532-474a-4236-a6db-2e99c3025f2e","system_id":"levelo_inurba_marseille","lat":43.21762,"lon":5.34589,"is_reserved":false,"is_disabled":false,"rental_uris":{"android":"levelo://app?vid=78e73532-474a-4236-a6db-2e99c3025f2e","ios":"levelo://app?vid=78e73532-474a-4236-a6db-2e99c3025f2e"},"vehicle_type_id":"4","last_reported":1756562881,"current_range_meters":6000,"station_id":"st_cvj6r9ubvosntc0bgbag","pricing_plan_id":"cebpf4jnsgd1na2vs0mg"},{"bike_id":"d2aab16d-8244-41fb-89a0-a0eb1201ef2c","system_id":"levelo_inurba_marseille","lat":43.299685,"lon":5.384761,"is_reserved":false,"is_disabled":false,"rental_uris":{"android":"levelo://app?vid=d2aab16d-8244-41fb-89a0-a0eb1201ef2c","ios":"levelo://app?vid=d2aab16d-8244-41fb-89a0-a0eb1201ef2c"},"vehicle_type_id":"4","last_reported":1756562881,"current_range_meters":6400,"station_id":"","pricing_plan_id":"cebpf4jnsgd1na2vs0mg"},{"bike_id":"1e9ef9e0-7c5c-47c5-b260-f0847a268d96","system_id":"levelo_inurba_marseille","lat":43.30148,"lon":5.38086,"is_reserved":false,"is_disabled":false,"rental_uris":{"android":"levelo://app?vid=1e9ef9e0-7c5c-47c5-b260-f0847a268d96","ios":"levelo://app?vid=1e9ef9e0-7c5c-47c5-b260-f0847a268d96"},"vehicle_type_id":"4","last_reported":1756562881,"current_range_meters":6400,"station_id":"ce4bgjp2rcd13ifvqbh0","pricing_plan_id":"cebpf4jnsgd1na2vs0mg"},{"bike_id":"d632fd16-6d32-4dfa-ba90-dc666b37472d","system_id":"levelo_inurba_marseille","lat":43.29847,"lon":5.36289,"is_reserved":false,"is_disabled":false,"rental_uris":{"android":"levelo://app?vid=d632fd16-6d32-4dfa-ba90-dc666b37472d","ios":"levelo://app?vid=d632fd16-6d32-4dfa-ba90-dc666b37472d"},"vehicle_type_id":"4","last_reported":1756562881,"current_range_meters":6400,"station_id":"ce4bgpp2rcd13ifvqc3g","pricing_plan_id":"cebpf4jnsgd1na2vs0mg"},{"bike_id":"f5410771-5ce5-4f9e-b9ce-4f5d969dc46a","system_id":"levelo_inurba_marseille","lat":43.23972,"lon":5.36614,"is_reserved":false,"is_disabled":false,"rental_uris":{"android":"levelo://app?vid=f5410771-5ce5-4f9e-b9ce-4f5d969dc46a","ios":"levelo://app?vid=f5410771-5ce5-4f9e-b9ce-4f5d969dc46a"},"vehicle_type_id":"4","last_reported":1756562881,"current_range_meters":6400,"station_id":"ce4bhi12rcd13ifvqfp0","pricing_plan_id":"cebpf4jnsgd1na2vs0mg"},{"bike_id":"fdeeaf90-79aa-43f0-ae43-fadd7edaa2b3","system_id":"levelo_inurba_marseille","lat":43.25585,"lon":5.3824,"is_reserved":false,"is_disabled":false,"rental_uris":{"android":"levelo://app?vid=fdeeaf90-79aa-43f0-ae43-fadd7edaa2b3","ios":"levelo://app?vid=fdeeaf90-79aa-43f0-ae43-fadd7edaa2b3"},"vehicle_type_id":"4","last_reported":1756562881,"current_range_meters":6400,"station_id":"ce4bhih2rcd13ifvqfs0","pricing_plan_id":"cebpf4jnsgd1na2vs0mg"},{"bike_id":"96b5e545-6a63-44fe-a678-45e69869a9c0","system_id":"levelo_inurba_marseille","lat":43.29786,"lon":5.38105,"is_reserved":false,"is_disabled":false,"rental_uris":{"android":"levelo://app?vid=96b5e545-6a63-44fe-a678-45e69869a9c0","ios":"levelo://app?vid=96b5e545-6a63-44fe-a678-45e69869a9c0"},"vehicle_type_id":"4","last_reported":1756562881,"current_range_meters":6800,"station_id":"ce4bgip2rcd13ifvqbb0","pricing_plan_id":"cebpf4jnsgd1na2vs0mg"},{"bike_id":"f73222fe-3ec0-42eb-bc35-7cea9988c726","system_id":"levelo_inurba_marseille","lat":43.26222,"lon":5.40451,"is_reserved":false,"is_disabled":false,"rental_uris":{"android":"levelo://app?vid=f73222fe-3ec0-42eb-bc35-7cea9988c726","ios":"levelo://app?vid=f73222fe-3ec0-42eb-bc35-7cea9988c726"},"vehicle_type_id":"4","last_reported":1756562881,"current_range_meters":6800,"station_id":"ce4bhmh2rcd13ifvqgmg","pricing_plan_id":"cebpf4jnsgd1na2vs0mg"},{"bike_id":"59521d5b-78d8-4d56-91a3-95a35d06475c","system_id":"levelo_inurba_marseille","lat":43.22528,"lon":5.34833,"is_reserved":false,"is_disabled":false,"rental_uris":{"android":"levelo://app?vid=59521d5b-78d8-4d56-91a3-95a35d06475c","ios":"levelo://app?vid=59521d5b-78d8-4d56-91a3-95a35d06475c"},"vehicle_type_id":"4","last_reported":1756562881,"current_range_meters":6800,"station_id":"st_cvj5dfep6f1abm77gieg","pricing_plan_id":"cebpf4jnsgd1na2vs0mg"},{"bike_id":"5fd5df87-18a0-47cc-8cc5-2edf55a684fc","system_id":"levelo_inurba_marseille","lat":43.272919,"lon":5.429309,"is_reserved":false,"is_disabled":false,"rental_uris":{"android":"levelo://app?vid=5fd5df87-18a0-47cc-8cc5-2edf55a684fc","ios":"levelo://app?vid=5fd5df87-18a0-47cc-8cc5-2edf55a684fc"},"vehicle_type_id":"4","last_reported":1756562881,"current_range_meters":7200,"station_id":"","pricing_plan_id":"cebpf4jnsgd1na2vs0mg"},{"bike_id":"c6450df6-6780-4c10-b4a2-edac64ddae37","system_id":"levelo_inurba_marseille","lat":43.26558,"lon":5.37285,"is_reserved":false,"is_disabled":false,"rental_uris":{"android":"levelo://app?vid=c6450df6-6780-4c10-b4a2-edac64ddae37","ios":"levelo://app?vid=c6450df6-6780-4c10-b4a2-edac64ddae37"},"vehicle_type_id":"4","last_reported":1756562881,"current_range_meters":7200,"station_id":"","pricing_plan_id":"cebpf4jnsgd1na2vs0mg"},{"bike_id":"a782b8e3-0ef4-49e6-afba-0afa001b190c","system_id":"levelo_inurba_marseille","lat":43.283497,"lon":5.434098,"is_reserved":false,"is_disabled":false,"rental_uris":{"android":"levelo://app?vid=a782b8e3-0ef4-49e6-afba-0afa001b190c","ios":"levelo://app?vid=a782b8e3-0ef4-49e6-afba-0afa001b190c"},"vehicle_type_id":"4","last_reported":1756562881,"current_range_meters":7200,"station_id":"","pricing_plan_id":"cebpf4jnsgd1na2vs0mg"},{"bike_id":"2f5ffaad-52f6-4dd1-84cf-b17c469d049e","system_id":"levelo_inurba_marseille","lat":43.29526,"lon":5.38543,"is_reserved":false,"is_disabled":false,"rental_uris":{"android":"levelo://app?vid=2f5ffaad-52f6-4dd1-84cf-b17c469d049e","ios":"levelo://app?vid=2f5ffaad-52f6-4dd1-84cf-b17c469d049e"},"vehicle_type_id":"4","last_reported":1756562881,"current_range_meters":7200,"station_id":"ce4bgih2rcd13ifvqba0","pricing_plan_id":"cebpf4jnsgd1na2vs0mg"},{"bike_id":"215c737d-44f3-4c5e-9dfa-d247acebbf84","system_id":"levelo_inurba_marseille","lat":43.30462,"lon":5.37909,"is_reserved":false,"is_disabled":false,"rental_uris":{"android":"levelo://app?vid=215c737d-44f3-4c5e-9dfa-d247acebbf84","ios":"levelo://app?vid=215c737d-44f3-4c5e-9dfa-d247acebbf84"},"vehicle_type_id":"4","last_reported":1756562881,"current_range_meters":7200,"station_id":"ce4bgup2rcd13ifvqcn0","pricing_plan_id":"cebpf4jnsgd1na2vs0mg"},{"bike_id":"4fc621cd-3859-43e4-b7a4-3925f8c463e3","system_id":"levelo_inurba_marseille","lat":43.24657,"lon":5.38903,"is_reserved":false,"is_disabled":false,"rental_uris":{"android":"levelo://app?vid=4fc621cd-3859-43e4-b7a4-3925f8c463e3","ios":"levelo://app?vid=4fc621cd-3859-43e4-b7a4-3925f8c463e3"},"vehicle_type_id":"4","last_reported":1756562881,"current_range_meters":7200,"station_id":"ce4bhg12rcd13ifvqf60","pricing_plan_id":"cebpf4jnsgd1na2vs0mg"},{"bike_id":"2785e56f-72bc-4b0d-bf47-484e8f4cbdd3","system_id":"levelo_inurba_marseille","lat":43.33027,"lon":5.39028,"is_reserved":false,"is_disabled":false,"rental_uris":{"android":"levelo://app?vid=2785e56f-72bc-4b0d-bf47-484e8f4cbdd3","ios":"levelo://app?vid=2785e56f-72bc-4b0d-bf47-484e8f4cbdd3"},"vehicle_type_id":"4","last_reported":1756562881,"current_range_meters":7200,"station_id":"ce4bhr92rcd13ifvqhrg","pricing_plan_id":"cebpf4jnsgd1na2vs0mg"},{"bike_id":"d810acf0-5bd2-4bf1-848d-31cd30d105e6","system_id":"levelo_inurba_marseille","lat":43.24629,"lon":5.43146,"is_reserved":false,"is_disabled":true,"rental_uris":{"android":"levelo://app?vid=d810acf0-5bd2-4bf1-848d-31cd30d105e6","ios":"levelo://app?vid=d810acf0-5bd2-4bf1-848d-31cd30d105e6"},"vehicle_type_id":"4","last_reported":1756562881,"current_range_meters":7200,"station_id":"st_d2m6c4gdas8pm72e190g","pricing_plan_id":"cebpf4jnsgd1na2vs0mg"},{"bike_id":"81efe023-822a-4564-839c-f2118bfd4062","system_id":"levelo_inurba_marseille","lat":43.297122,"lon":5.376972,"is_reserved":false,"is_disabled":false,"rental_uris":{"android":"levelo://app?vid=81efe023-822a-4564-839c-f2118bfd4062","ios":"levelo://app?vid=81efe023-822a-4564-839c-f2118bfd4062"},"vehicle_type_id":"4","last_reported":1756562881,"current_range_meters":8000,"station_id":"ce4bgkh2rcd13ifvqbl0","pricing_plan_id":"cebpf4jnsgd1na2vs0mg"},{"bike_id":"b5869bf3-798f-449c-9b7e-69df8a1c45f3","system_id":"levelo_inurba_marseille","lat":43.31341,"lon":5.36724,"is_reserved":false,"is_disabled":false,"rental_uris":{"android":"levelo://app?vid=b5869bf3-798f-449c-9b7e-69df8a1c45f3","ios":"levelo://app?vid=b5869bf3-798f-449c-9b7e-69df8a1c45f3"},"vehicle_type_id":"4","last_reported":1756562881,"current_range_meters":8000,"station_id":"ce4bgr92rcd13ifvqc6g","pricing_plan_id":"cebpf4jnsgd1na2vs0mg"},{"bike_id":"1db5c029-6827-426e-9608-bd56384601c2","system_id":"levelo_inurba_marseille","lat":43.217485,"lon":5.345979,"is_reserved":false,"is_disabled":false,"rental_uris":{"android":"levelo://app?vid=1db5c029-6827-426e-9608-bd56384601c2","ios":"levelo://app?vid=1db5c029-6827-426e-9608-bd56384601c2"},"vehicle_type_id":"4","last_reported":1756562881,"current_range_meters":8000,"station_id":"st_cvj6r9ubvosntc0bgbag","pricing_plan_id":"cebpf4jnsgd1na2vs0mg"},{"bike_id":"ac6e2454-d958-4351-9788-4108bc8bad07","system_id":"levelo_inurba_marseille","lat":43.21768,"lon":5.34586,"is_reserved":false,"is_disabled":false,"rental_uris":{"android":"levelo://app?vid=ac6e2454-d958-4351-9788-4108bc8bad07","ios":"levelo://app?vid=ac6e2454-d958-4351-9788-4108bc8bad07"},"vehicle_type_id":"4","last_reported":1756562881,"current_range_meters":8000,"station_id":"st_cvj6r9ubvosntc0bgbag","pricing_plan_id":"cebpf4jnsgd1na2vs0mg"},{"bike_id":"cb60d631-d59d-453b-ba6f-c5e62e29a7db","system_id":"levelo_inurba_marseille","lat":43.21184,"lon":5.35067,"is_reserved":false,"is_disabled":false,"rental_uris":{"android":"levelo://app?vid=cb60d631-d59d-453b-ba6f-c5e62e29a7db","ios":"levelo://app?vid=cb60d631-d59d-453b-ba6f-c5e62e29a7db"},"vehicle_type_id":"4","last_reported":1756562881,"current_range_meters":8000,"station_id":"st_cvj6sg6p6f1abm77japg","pricing_plan_id":"cebpf4jnsgd1na2vs0mg"},{"bike_id":"c08c473f-3344-4548-ad8c-2fbfdcff43a5","system_id":"levelo_inurba_marseille","lat":43.24541,"lon":5.39518,"is_reserved":false,"is_disabled":false,"rental_uris":{"android":"levelo://app?vid=c08c473f-3344-4548-ad8c-2fbfdcff43a5","ios":"levelo://app?vid=c08c473f-3344-4548-ad8c-2fbfdcff43a5"},"vehicle_type_id":"4","last_reported":1756562881,"current_range_meters":8400,"station_id":"ce4bhlp2rcd13ifvqgjg","pricing_plan_id":"cebpf4jnsgd1na2vs0mg"},{"bike_id":"1573763f-ee8c-4dc5-9568-d325002028a6","system_id":"levelo_inurba_marseille","lat":43.23154,"lon":5.43693,"is_reserved":false,"is_disabled":false,"rental_uris":{"android":"levelo://app?vid=1573763f-ee8c-4dc5-9568-d325002028a6","ios":"levelo://app?vid=1573763f-ee8c-4dc5-9568-d325002028a6"},"vehicle_type_id":"4","last_reported":1756562881,"current_range_meters":8400,"station_id":"ce4bhmp2rcd13ifvqgog","pricing_plan_id":"cebpf4jnsgd1na2vs0mg"},{"bike_id":"297deff4-397d-4d19-90db-a1305710e19d","system_id":"levelo_inurba_marseille","lat":43.24074,"lon":5.37752,"is_reserved":false,"is_disabled":false,"rental_uris":{"android":"levelo://app?vid=297deff4-397d-4d19-90db-a1305710e19d","ios":"levelo://app?vid=297deff4-397d-4d19-90db-a1305710e19d"},"vehicle_type_id":"4","last_reported":1756562881,"current_range_meters":8400,"station_id":"ce4bhnp2rcd13ifvqgvg","pricing_plan_id":"cebpf4jnsgd1na2vs0mg"},{"bike_id":"756f47e4-18df-438d-9119-2702e196eb1f","system_id":"levelo_inurba_marseille","lat":43.23192,"lon":5.35553,"is_reserved":false,"is_disabled":false,"rental_uris":{"android":"levelo://app?vid=756f47e4-18df-438d-9119-2702e196eb1f","ios":"levelo://app?vid=756f47e4-18df-438d-9119-2702e196eb1f"},"vehicle_type_id":"4","last_reported":1756562881,"current_range_meters":8400,"station_id":"ce4bhu92rcd13ifvqi70","pricing_plan_id":"cebpf4jnsgd1na2vs0mg"},{"bike_id":"fc1e738e-c72b-403e-9111-cc618f342c2d","system_id":"levelo_inurba_marseille","lat":43.211826,"lon":5.350762,"is_reserved":false,"is_disabled":false,"rental_uris":{"android":"levelo://app?vid=fc1e738e-c72b-403e-9111-cc618f342c2d","ios":"levelo://app?vid=fc1e738e-c72b-403e-9111-cc618f342c2d"},"vehicle_type_id":"4","last_reported":1756562881,"current_range_meters":8400,"station_id":"st_cvj6sg6p6f1abm77japg","pricing_plan_id":"cebpf4jnsgd1na2vs0mg"},{"bike_id":"cc45445d-a41d-443d-9dd4-2b2e6d2a490f","system_id":"levelo_inurba_marseille","lat":43.30187,"lon":5.38049,"is_reserved":false,"is_disabled":false,"rental_uris":{"android":"levelo://app?vid=cc45445d-a41d-443d-9dd4-2b2e6d2a490f","ios":"levelo://app?vid=cc45445d-a41d-443d-9dd4-2b2e6d2a490f"},"vehicle_type_id":"4","last_reported":1756562881,"current_range_meters":8800,"station_id":"ce4bgjp2rcd13ifvqbh0","pricing_plan_id":"cebpf4jnsgd1na2vs0mg"},{"bike_id":"b1ad68f6-734d-4aba-a87b-56128e0ea5e5","system_id":"levelo_inurba_marseille","lat":43.29599,"lon":5.38111,"is_reserved":false,"is_disabled":false,"rental_uris":{"android":"levelo://app?vid=b1ad68f6-734d-4aba-a87b-56128e0ea5e5","ios":"levelo://app?vid=b1ad68f6-734d-4aba-a87b-56128e0ea5e5"},"vehicle_type_id":"4","last_reported":1756562881,"current_range_meters":8800,"station_id":"ce4bgl12rcd13ifvqbo0","pricing_plan_id":"cebpf4jnsgd1na2vs0mg"},{"bike_id":"e52f4bcb-6865-4cdb-95ee-bf868d8f085d","system_id":"levelo_inurba_marseille","lat":43.27361,"lon":5.36244,"is_reserved":false,"is_disabled":false,"rental_uris":{"android":"levelo://app?vid=e52f4bcb-6865-4cdb-95ee-bf868d8f085d","ios":"levelo://app?vid=e52f4bcb-6865-4cdb-95ee-bf868d8f085d"},"vehicle_type_id":"4","last_reported":1756562881,"current_range_meters":8800,"station_id":"ce4bhbh2rcd13ifvqeo0","pricing_plan_id":"cebpf4jnsgd1na2vs0mg"},{"bike_id":"0054a56f-bd9c-46b2-87b3-e90fa08af430","system_id":"levelo_inurba_marseille","lat":43.25492,"lon":5.37654,"is_reserved":false,"is_disabled":false,"rental_uris":{"android":"levelo://app?vid=0054a56f-bd9c-46b2-87b3-e90fa08af430","ios":"levelo://app?vid=0054a56f-bd9c-46b2-87b3-e90fa08af430"},"vehicle_type_id":"4","last_reported":1756562881,"current_range_meters":8800,"station_id":"ce4bhh12rcd13ifvqff0","pricing_plan_id":"cebpf4jnsgd1na2vs0mg"},{"bike_id":"e992905a-71bb-4cda-b64c-730bd960afce","system_id":"levelo_inurba_marseille","lat":43.31116,"lon":5.37766,"is_reserved":false,"is_disabled":false,"rental_uris":{"android":"levelo://app?vid=e992905a-71bb-4cda-b64c-730bd960afce","ios":"levelo://app?vid=e992905a-71bb-4cda-b64c-730bd960afce"},"vehicle_type_id":"4","last_reported":1756562881,"current_range_meters":9200,"station_id":"ce4bgt92rcd13ifvqcg0","pricing_plan_id":"cebpf4jnsgd1na2vs0mg"},{"bike_id":"10b145c5-f9f9-4cdd-b58c-c18667c969cc","system_id":"levelo_inurba_marseille","lat":43.225342,"lon":5.348385,"is_reserved":false,"is_disabled":false,"rental_uris":{"android":"levelo://app?vid=10b145c5-f9f9-4cdd-b58c-c18667c969cc","ios":"levelo://app?vid=10b145c5-f9f9-4cdd-b58c-c18667c969cc"},"vehicle_type_id":"4","last_reported":1756562881,"current_range_meters":9600,"station_id":"","pricing_plan_id":"cebpf4jnsgd1na2vs0mg"},{"bike_id":"97763564-0038-405d-9569-489c5b49309f","system_id":"levelo_inurba_marseille","lat":43.31266,"lon":5.40169,"is_reserved":false,"is_disabled":false,"rental_uris":{"android":"levelo://app?vid=97763564-0038-405d-9569-489c5b49309f","ios":"levelo://app?vid=97763564-0038-405d-9569-489c5b49309f"},"vehicle_type_id":"4","last_reported":1756562881,"current_range_meters":9600,"station_id":"ce4bh092rcd13ifvqd30","pricing_plan_id":"cebpf4jnsgd1na2vs0mg"},{"bike_id":"17542071-2c50-44a1-a122-8cd949e1d164","system_id":"levelo_inurba_marseille","lat":43.21764,"lon":5.34588,"is_reserved":false,"is_disabled":false,"rental_uris":{"android":"levelo://app?vid=17542071-2c50-44a1-a122-8cd949e1d164","ios":"levelo://app?vid=17542071-2c50-44a1-a122-8cd949e1d164"},"vehicle_type_id":"4","last_reported":1756562881,"current_range_meters":9600,"station_id":"st_cvj6r9ubvosntc0bgbag","pricing_plan_id":"cebpf4jnsgd1na2vs0mg"},{"bike_id":"80e46fa9-e449-46f6-a48d-ed194388e28b","system_id":"levelo_inurba_marseille","lat":43.2257,"lon":5.41645,"is_reserved":false,"is_disabled":false,"rental_uris":{"android":"levelo://app?vid=80e46fa9-e449-46f6-a48d-ed194388e28b","ios":"levelo://app?vid=80e46fa9-e449-46f6-a48d-ed194388e28b"},"vehicle_type_id":"4","last_reported":1756562881,"current_range_meters":9600,"station_id":"st_d2o4gvlbi1j2169b742g","pricing_plan_id":"cebpf4jnsgd1na2vs0mg"},{"bike_id":"f93632be-8dce-46d1-9872-3305b03422bf","system_id":"levelo_inurba_marseille","lat":43.26561,"lon":5.37285,"is_reserved":false,"is_disabled":false,"rental_uris":{"android":"levelo://app?vid=f93632be-8dce-46d1-9872-3305b03422bf","ios":"levelo://app?vid=f93632be-8dce-46d1-9872-3305b03422bf"},"vehicle_type_id":"4","last_reported":1756562881,"current_range_meters":10000,"station_id":"","pricing_plan_id":"cebpf4jnsgd1na2vs0mg"},{"bike_id":"bb9faaff-032e-4f32-a311-e01d94d7b7db","system_id":"levelo_inurba_marseille","lat":43.28281,"lon":5.43139,"is_reserved":false,"is_disabled":false,"rental_uris":{"android":"levelo://app?vid=bb9faaff-032e-4f32-a311-e01d94d7b7db","ios":"levelo://app?vid=bb9faaff-032e-4f32-a311-e01d94d7b7db"},"vehicle_type_id":"4","last_reported":1756562881,"current_range_meters":10000,"station_id":"","pricing_plan_id":"cebpf4jnsgd1na2vs0mg"},{"bike_id":"2479c181-f9c4-4ac9-b18a-4dd41e30b198","system_id":"levelo_inurba_marseille","lat":43.29905,"lon":5.36513,"is_reserved":false,"is_disabled":false,"rental_uris":{"android":"levelo://app?vid=2479c181-f9c4-4ac9-b18a-4dd41e30b198","ios":"levelo://app?vid=2479c181-f9c4-4ac9-b18a-4dd41e30b198"},"vehicle_type_id":"4","last_reported":1756562881,"current_range_meters":10000,"station_id":"ce4bgm92rcd13ifvqbr0","pricing_plan_id":"cebpf4jnsgd1na2vs0mg"},{"bike_id":"87a46caf-d871-4343-b9a6-5d308c346ce3","system_id":"levelo_inurba_marseille","lat":43.29028,"lon":5.3865,"is_reserved":false,"is_disabled":false,"rental_uris":{"android":"levelo://app?vid=87a46caf-d871-4343-b9a6-5d308c346ce3","ios":"levelo://app?vid=87a46caf-d871-4343-b9a6-5d308c346ce3"},"vehicle_type_id":"4","last_reported":1756562881,"current_range_meters":10000,"station_id":"ce4bh4p2rcd13ifvqe0g","pricing_plan_id":"cebpf4jnsgd1na2vs0mg"},{"bike_id":"fb128b00-f575-478f-ba6e-305a67bd1cac","system_id":"levelo_inurba_marseille","lat":43.23204,"lon":5.35554,"is_reserved":false,"is_disabled":false,"rental_uris":{"android":"levelo://app?vid=fb128b00-f575-478f-ba6e-305a67bd1cac","ios":"levelo://app?vid=fb128b00-f575-478f-ba6e-305a67bd1cac"},"vehicle_type_id":"4","last_reported":1756562881,"current_range_meters":10000,"station_id":"ce4bhu92rcd13ifvqi70","pricing_plan_id":"cebpf4jnsgd1na2vs0mg"},{"bike_id":"f0e4e14d-436d-474b-b725-f5d49cc614a0","system_id":"levelo_inurba_marseille","lat":43.211977,"lon":5.350917,"is_reserved":false,"is_disabled":false,"rental_uris":{"android":"levelo://app?vid=f0e4e14d-436d-474b-b725-f5d49cc614a0","ios":"levelo://app?vid=f0e4e14d-436d-474b-b725-f5d49cc614a0"},"vehicle_type_id":"4","last_reported":1756562881,"current_range_meters":10000,"station_id":"st_cvj6sg6p6f1abm77japg","pricing_plan_id":"cebpf4jnsgd1na2vs0mg"},{"bike_id":"e66b3941-edc1-47d2-a508-6af05bed5109","system_id":"levelo_inurba_marseille","lat":43.22533,"lon":5.34838,"is_reserved":false,"is_disabled":false,"rental_uris":{"android":"levelo://app?vid=e66b3941-edc1-47d2-a508-6af05bed5109","ios":"levelo://app?vid=e66b3941-edc1-47d2-a508-6af05bed5109"},"vehicle_type_id":"4","last_reported":1756562881,"current_range_meters":10800,"station_id":"","pricing_plan_id":"cebpf4jnsgd1na2vs0mg"},{"bike_id":"1f477a8a-1f1f-44f1-8301-72f79294067c","system_id":"levelo_inurba_marseille","lat":43.31277,"lon":5.40178,"is_reserved":false,"is_disabled":false,"rental_uris":{"android":"levelo://app?vid=1f477a8a-1f1f-44f1-8301-72f79294067c","ios":"levelo://app?vid=1f477a8a-1f1f-44f1-8301-72f79294067c"},"vehicle_type_id":"4","last_reported":1756562881,"current_range_meters":10800,"station_id":"ce4bh092rcd13ifvqd30","pricing_plan_id":"cebpf4jnsgd1na2vs0mg"},{"bike_id":"c42f072f-ce5d-4664-9f13-bd7fe80ab8ed","system_id":"levelo_inurba_marseille","lat":43.265649,"lon":5.390204,"is_reserved":false,"is_disabled":false,"rental_uris":{"android":"levelo://app?vid=c42f072f-ce5d-4664-9f13-bd7fe80ab8ed","ios":"levelo://app?vid=c42f072f-ce5d-4664-9f13-bd7fe80ab8ed"},"vehicle_type_id":"4","last_reported":1756562881,"current_range_meters":10800,"station_id":"ce4bhe12rcd13ifvqf30","pricing_plan_id":"cebpf4jnsgd1na2vs0mg"},{"bike_id":"eeb853bb-de51-47c3-b839-530face915ec","system_id":"levelo_inurba_marseille","lat":43.2655,"lon":5.37274,"is_reserved":false,"is_disabled":false,"rental_uris":{"android":"levelo://app?vid=eeb853bb-de51-47c3-b839-530face915ec","ios":"levelo://app?vid=eeb853bb-de51-47c3-b839-530face915ec"},"vehicle_type_id":"4","last_reported":1756562881,"current_range_meters":10800,"station_id":"ce4bhg12rcd13ifvqf70","pricing_plan_id":"cebpf4jnsgd1na2vs0mg"},{"bike_id":"b88e64bb-0da7-4357-8ab3-60cb8481fe43","system_id":"levelo_inurba_marseille","lat":43.23193,"lon":5.35553,"is_reserved":false,"is_disabled":false,"rental_uris":{"android":"levelo://app?vid=b88e64bb-0da7-4357-8ab3-60cb8481fe43","ios":"levelo://app?vid=b88e64bb-0da7-4357-8ab3-60cb8481fe43"},"vehicle_type_id":"4","last_reported":1756562881,"current_range_meters":10800,"station_id":"ce4bhu92rcd13ifvqi70","pricing_plan_id":"cebpf4jnsgd1na2vs0mg"},{"bike_id":"355a8e96-55c5-4cc5-9872-7da6847dec8b","system_id":"levelo_inurba_marseille","lat":43.2118,"lon":5.35069,"is_reserved":false,"is_disabled":false,"rental_uris":{"android":"levelo://app?vid=355a8e96-55c5-4cc5-9872-7da6847dec8b","ios":"levelo://app?vid=355a8e96-55c5-4cc5-9872-7da6847dec8b"},"vehicle_type_id":"4","last_reported":1756562881,"current_range_meters":10800,"station_id":"st_cvj6sg6p6f1abm77japg","pricing_plan_id":"cebpf4jnsgd1na2vs0mg"},{"bike_id":"65754fe9-00bd-42fa-9d95-185ac750ba35","system_id":"levelo_inurba_marseille","lat":43.28265,"lon":5.350796,"is_reserved":false,"is_disabled":false,"rental_uris":{"android":"levelo://app?vid=65754fe9-00bd-42fa-9d95-185ac750ba35","ios":"levelo://app?vid=65754fe9-00bd-42fa-9d95-185ac750ba35"},"vehicle_type_id":"4","last_reported":1756562881,"current_range_meters":11200,"station_id":"ce4bhbp2rcd13ifvqerg","pricing_plan_id":"cebpf4jnsgd1na2vs0mg"},{"bike_id":"98bf4087-ac51-4ffe-8f82-9218ca0aaf26","system_id":"levelo_inurba_marseille","lat":43.29894,"lon":5.43669,"is_reserved":false,"is_disabled":false,"rental_uris":{"android":"levelo://app?vid=98bf4087-ac51-4ffe-8f82-9218ca0aaf26","ios":"levelo://app?vid=98bf4087-ac51-4ffe-8f82-9218ca0aaf26"},"vehicle_type_id":"4","last_reported":1756562881,"current_range_meters":11200,"station_id":"ce4bhpp2rcd13ifvqhfg","pricing_plan_id":"cebpf4jnsgd1na2vs0mg"},{"bike_id":"0e16483d-7c29-42d6-90d2-d9cb7ef31592","system_id":"levelo_inurba_marseille","lat":43.32357,"lon":5.36759,"is_reserved":false,"is_disabled":false,"rental_uris":{"android":"levelo://app?vid=0e16483d-7c29-42d6-90d2-d9cb7ef31592","ios":"levelo://app?vid=0e16483d-7c29-42d6-90d2-d9cb7ef31592"},"vehicle_type_id":"4","last_reported":1756562881,"current_range_meters":11200,"station_id":"ce4bhsh2rcd13ifvqi2g","pricing_plan_id":"cebpf4jnsgd1na2vs0mg"},{"bike_id":"067fe6a9-46b2-4077-9314-2707d6f75d92","system_id":"levelo_inurba_marseille","lat":43.23189,"lon":5.35555,"is_reserved":false,"is_disabled":false,"rental_uris":{"android":"levelo://app?vid=067fe6a9-46b2-4077-9314-2707d6f75d92","ios":"levelo://app?vid=067fe6a9-46b2-4077-9314-2707d6f75d92"},"vehicle_type_id":"4","last_reported":1756562881,"current_range_meters":11200,"station_id":"ce4bhu92rcd13ifvqi70","pricing_plan_id":"cebpf4jnsgd1na2vs0mg"},{"bike_id":"1a6c55c3-5641-49f7-836d-fbf2e21984d7","system_id":"levelo_inurba_marseille","lat":43.31836,"lon":5.37359,"is_reserved":false,"is_disabled":false,"rental_uris":{"android":"levelo://app?vid=1a6c55c3-5641-49f7-836d-fbf2e21984d7","ios":"levelo://app?vid=1a6c55c3-5641-49f7-836d-fbf2e21984d7"},"vehicle_type_id":"4","last_reported":1756562881,"current_range_meters":11600,"station_id":"","pricing_plan_id":"cebpf4jnsgd1na2vs0mg"},{"bike_id":"f96a4493-aa16-4b8a-958e-fd2ff9cc0844","system_id":"levelo_inurba_marseille","lat":43.29991,"lon":5.388624,"is_reserved":false,"is_disabled":false,"rental_uris":{"android":"levelo://app?vid=f96a4493-aa16-4b8a-958e-fd2ff9cc0844","ios":"levelo://app?vid=f96a4493-aa16-4b8a-958e-fd2ff9cc0844"},"vehicle_type_id":"4","last_reported":1756562881,"current_range_meters":11600,"station_id":"","pricing_plan_id":"cebpf4jnsgd1na2vs0mg"},{"bike_id":"a7829acb-2794-4eb3-a106-ce60302a08f9","system_id":"levelo_inurba_marseille","lat":43.31362,"lon":5.38493,"is_reserved":false,"is_disabled":false,"rental_uris":{"android":"levelo://app?vid=a7829acb-2794-4eb3-a106-ce60302a08f9","ios":"levelo://app?vid=a7829acb-2794-4eb3-a106-ce60302a08f9"},"vehicle_type_id":"4","last_reported":1756562881,"current_range_meters":11600,"station_id":"ce4bgt92rcd13ifvqcf0","pricing_plan_id":"cebpf4jnsgd1na2vs0mg"},{"bike_id":"6196a3e4-640f-4dd4-b2c0-6eb7c06eee67","system_id":"levelo_inurba_marseille","lat":43.23189,"lon":5.35547,"is_reserved":false,"is_disabled":false,"rental_uris":{"android":"levelo://app?vid=6196a3e4-640f-4dd4-b2c0-6eb7c06eee67","ios":"levelo://app?vid=6196a3e4-640f-4dd4-b2c0-6eb7c06eee67"},"vehicle_type_id":"4","last_reported":1756562881,"current_range_meters":11600,"station_id":"ce4bhu92rcd13ifvqi70","pricing_plan_id":"cebpf4jnsgd1na2vs0mg"},{"bike_id":"c341797e-53bb-4d47-b3be-bfcff3d5c502","system_id":"levelo_inurba_marseille","lat":43.21753,"lon":5.34594,"is_reserved":false,"is_disabled":false,"rental_uris":{"android":"levelo://app?vid=c341797e-53bb-4d47-b3be-bfcff3d5c502","ios":"levelo://app?vid=c341797e-53bb-4d47-b3be-bfcff3d5c502"},"vehicle_type_id":"4","last_reported":1756562881,"current_range_meters":11600,"station_id":"st_cvj6r9ubvosntc0bgbag","pricing_plan_id":"cebpf4jnsgd1na2vs0mg"},{"bike_id":"c1dbc3cb-b8a3-4614-81a9-9af25605794f","system_id":"levelo_inurba_marseille","lat":43.25469,"lon":5.37667,"is_reserved":false,"is_disabled":false,"rental_uris":{"android":"levelo://app?vid=c1dbc3cb-b8a3-4614-81a9-9af25605794f","ios":"levelo://app?vid=c1dbc3cb-b8a3-4614-81a9-9af25605794f"},"vehicle_type_id":"4","last_reported":1756562881,"current_range_meters":12000,"station_id":"","pricing_plan_id":"cebpf4jnsgd1na2vs0mg"},{"bike_id":"f2b35bf3-e536-447e-ab87-733338a77ec3","system_id":"levelo_inurba_marseille","lat":43.26573,"lon":5.37271,"is_reserved":false,"is_disabled":false,"rental_uris":{"android":"levelo://app?vid=f2b35bf3-e536-447e-ab87-733338a77ec3","ios":"levelo://app?vid=f2b35bf3-e536-447e-ab87-733338a77ec3"},"vehicle_type_id":"4","last_reported":1756562881,"current_range_meters":12000,"station_id":"ce4bhg12rcd13ifvqf70","pricing_plan_id":"cebpf4jnsgd1na2vs0mg"},{"bike_id":"329cd2e3-3f50-464b-b205-37b738369eeb","system_id":"levelo_inurba_marseille","lat":43.32363,"lon":5.36744,"is_reserved":false,"is_disabled":false,"rental_uris":{"android":"levelo://app?vid=329cd2e3-3f50-464b-b205-37b738369eeb","ios":"levelo://app?vid=329cd2e3-3f50-464b-b205-37b738369eeb"},"vehicle_type_id":"4","last_reported":1756562881,"current_range_meters":12000,"station_id":"ce4bhsh2rcd13ifvqi2g","pricing_plan_id":"cebpf4jnsgd1na2vs0mg"},{"bike_id":"7fdadbc2-b3da-4161-87fa-41e1c44ab903","system_id":"levelo_inurba_marseille","lat":43.28358,"lon":5.38095,"is_reserved":false,"is_disabled":false,"rental_uris":{"android":"levelo://app?vid=7fdadbc2-b3da-4161-87fa-41e1c44ab903","ios":"levelo://app?vid=7fdadbc2-b3da-4161-87fa-41e1c44ab903"},"vehicle_type_id":"4","last_reported":1756562881,"current_range_meters":12400,"station_id":"ce4bh412rcd13ifvqdr0","pricing_plan_id":"cebpf4jnsgd1na2vs0mg"},{"bike_id":"76c0fe25-68d7-4446-9406-515b9555b363","system_id":"levelo_inurba_marseille","lat":43.25514,"lon":5.37659,"is_reserved":false,"is_disabled":false,"rental_uris":{"android":"levelo://app?vid=76c0fe25-68d7-4446-9406-515b9555b363","ios":"levelo://app?vid=76c0fe25-68d7-4446-9406-515b9555b363"},"vehicle_type_id":"4","last_reported":1756562881,"current_range_meters":12400,"station_id":"ce4bhh12rcd13ifvqff0","pricing_plan_id":"cebpf4jnsgd1na2vs0mg"},{"bike_id":"c0881cb5-357f-468d-a3c1-b313679c3509","system_id":"levelo_inurba_marseille","lat":43.337587,"lon":5.374364,"is_reserved":false,"is_disabled":false,"rental_uris":{"android":"levelo://app?vid=c0881cb5-357f-468d-a3c1-b313679c3509","ios":"levelo://app?vid=c0881cb5-357f-468d-a3c1-b313679c3509"},"vehicle_type_id":"4","last_reported":1756562881,"current_range_meters":12800,"station_id":"","pricing_plan_id":"cebpf4jnsgd1na2vs0mg"},{"bike_id":"255e565c-ed7e-443f-aea8-e29cf56355c0","system_id":"levelo_inurba_marseille","lat":43.3029,"lon":5.36884,"is_reserved":false,"is_disabled":false,"rental_uris":{"android":"levelo://app?vid=255e565c-ed7e-443f-aea8-e29cf56355c0","ios":"levelo://app?vid=255e565c-ed7e-443f-aea8-e29cf56355c0"},"vehicle_type_id":"4","last_reported":1756562881,"current_range_meters":12800,"station_id":"ce4bgqh2rcd13ifvqc5g","pricing_plan_id":"cebpf4jnsgd1na2vs0mg"},{"bike_id":"18eb3607-36e9-45b8-965f-bf832a7ee787","system_id":"levelo_inurba_marseille","lat":43.31367,"lon":5.38496,"is_reserved":false,"is_disabled":false,"rental_uris":{"android":"levelo://app?vid=18eb3607-36e9-45b8-965f-bf832a7ee787","ios":"levelo://app?vid=18eb3607-36e9-45b8-965f-bf832a7ee787"},"vehicle_type_id":"4","last_reported":1756562881,"current_range_meters":12800,"station_id":"ce4bgt92rcd13ifvqcf0","pricing_plan_id":"cebpf4jnsgd1na2vs0mg"},{"bike_id":"1d680462-3886-4781-831a-c498eb31d0ce","system_id":"levelo_inurba_marseille","lat":43.24084,"lon":5.37737,"is_reserved":false,"is_disabled":false,"rental_uris":{"android":"levelo://app?vid=1d680462-3886-4781-831a-c498eb31d0ce","ios":"levelo://app?vid=1d680462-3886-4781-831a-c498eb31d0ce"},"vehicle_type_id":"4","last_reported":1756562881,"current_range_meters":12800,"station_id":"ce4bhnp2rcd13ifvqgvg","pricing_plan_id":"cebpf4jnsgd1na2vs0mg"},{"bike_id":"43b66363-b3f0-4b56-8513-647419da7876","system_id":"levelo_inurba_marseille","lat":43.295589,"lon":5.422784,"is_reserved":false,"is_disabled":false,"rental_uris":{"android":"levelo://app?vid=43b66363-b3f0-4b56-8513-647419da7876","ios":"levelo://app?vid=43b66363-b3f0-4b56-8513-647419da7876"},"vehicle_type_id":"4","last_reported":1756562881,"current_range_meters":12800,"station_id":"ce4bhph2rcd13ifvqhdg","pricing_plan_id":"cebpf4jnsgd1na2vs0mg"},{"bike_id":"4423a38f-442d-437f-b336-f8116cb5faa4","system_id":"levelo_inurba_marseille","lat":43.24162,"lon":5.36396,"is_reserved":false,"is_disabled":false,"rental_uris":{"android":"levelo://app?vid=4423a38f-442d-437f-b336-f8116cb5faa4","ios":"levelo://app?vid=4423a38f-442d-437f-b336-f8116cb5faa4"},"vehicle_type_id":"4","last_reported":1756562881,"current_range_meters":12800,"station_id":"cpo36qri1sfpv3e86is0","pricing_plan_id":"cebpf4jnsgd1na2vs0mg"},{"bike_id":"f36995ef-1a8a-46f8-89c8-5bb5578c461b","system_id":"levelo_inurba_marseille","lat":43.24155,"lon":5.36394,"is_reserved":false,"is_disabled":false,"rental_uris":{"android":"levelo://app?vid=f36995ef-1a8a-46f8-89c8-5bb5578c461b","ios":"levelo://app?vid=f36995ef-1a8a-46f8-89c8-5bb5578c461b"},"vehicle_type_id":"4","last_reported":1756562881,"current_range_meters":12800,"station_id":"cpo36qri1sfpv3e86is0","pricing_plan_id":"cebpf4jnsgd1na2vs0mg"},{"bike_id":"651e6b87-820b-45e1-b234-24de5daeabe1","system_id":"levelo_inurba_marseille","lat":43.24166,"lon":5.36393,"is_reserved":false,"is_disabled":false,"rental_uris":{"android":"levelo://app?vid=651e6b87-820b-45e1-b234-24de5daeabe1","ios":"levelo://app?vid=651e6b87-820b-45e1-b234-24de5daeabe1"},"vehicle_type_id":"4","last_reported":1756562881,"current_range_meters":12800,"station_id":"cpo36qri1sfpv3e86is0","pricing_plan_id":"cebpf4jnsgd1na2vs0mg"},{"bike_id":"fc9b7f13-7e12-4e22-a2e9-4d73e71fe40c","system_id":"levelo_inurba_marseille","lat":43.30148,"lon":5.37404,"is_reserved":false,"is_disabled":false,"rental_uris":{"android":"levelo://app?vid=fc9b7f13-7e12-4e22-a2e9-4d73e71fe40c","ios":"levelo://app?vid=fc9b7f13-7e12-4e22-a2e9-4d73e71fe40c"},"vehicle_type_id":"4","last_reported":1756562881,"current_range_meters":13600,"station_id":"","pricing_plan_id":"cebpf4jnsgd1na2vs0mg"},{"bike_id":"ea2f8247-55d8-4e5b-9ad1-338615b6c0c9","system_id":"levelo_inurba_marseille","lat":43.2867,"lon":5.39978,"is_reserved":false,"is_disabled":false,"rental_uris":{"android":"levelo://app?vid=ea2f8247-55d8-4e5b-9ad1-338615b6c0c9","ios":"levelo://app?vid=ea2f8247-55d8-4e5b-9ad1-338615b6c0c9"},"vehicle_type_id":"4","last_reported":1756562881,"current_range_meters":13600,"station_id":"","pricing_plan_id":"cebpf4jnsgd1na2vs0mg"},{"bike_id":"5904766c-9f35-4034-abda-58c7286fea2b","system_id":"levelo_inurba_marseille","lat":43.30515,"lon":5.37077,"is_reserved":false,"is_disabled":false,"rental_uris":{"android":"levelo://app?vid=5904766c-9f35-4034-abda-58c7286fea2b","ios":"levelo://app?vid=5904766c-9f35-4034-abda-58c7286fea2b"},"vehicle_type_id":"4","last_reported":1756562881,"current_range_meters":13600,"station_id":"","pricing_plan_id":"cebpf4jnsgd1na2vs0mg"},{"bike_id":"f6eb943e-4860-4023-be82-7791bbff1d13","system_id":"levelo_inurba_marseille","lat":43.3015,"lon":5.38103,"is_reserved":false,"is_disabled":false,"rental_uris":{"android":"levelo://app?vid=f6eb943e-4860-4023-be82-7791bbff1d13","ios":"levelo://app?vid=f6eb943e-4860-4023-be82-7791bbff1d13"},"vehicle_type_id":"4","last_reported":1756562881,"current_range_meters":13600,"station_id":"ce4bgjp2rcd13ifvqbh0","pricing_plan_id":"cebpf4jnsgd1na2vs0mg"},{"bike_id":"0edd86bf-4747-41be-aef8-0fb289af9fa2","system_id":"levelo_inurba_marseille","lat":43.28415,"lon":5.34993,"is_reserved":false,"is_disabled":false,"rental_uris":{"android":"levelo://app?vid=0edd86bf-4747-41be-aef8-0fb289af9fa2","ios":"levelo://app?vid=0edd86bf-4747-41be-aef8-0fb289af9fa2"},"vehicle_type_id":"4","last_reported":1756562881,"current_range_meters":13600,"station_id":"ce4bhbh2rcd13ifvqepg","pricing_plan_id":"cebpf4jnsgd1na2vs0mg"},{"bike_id":"94a4aae1-6393-475f-ac83-502e498bc8e4","system_id":"levelo_inurba_marseille","lat":43.26939,"lon":5.40251,"is_reserved":false,"is_disabled":false,"rental_uris":{"android":"levelo://app?vid=94a4aae1-6393-475f-ac83-502e498bc8e4","ios":"levelo://app?vid=94a4aae1-6393-475f-ac83-502e498bc8e4"},"vehicle_type_id":"4","last_reported":1756562881,"current_range_meters":13600,"station_id":"cjm6bp8fraef2m0cb0m0","pricing_plan_id":"cebpf4jnsgd1na2vs0mg"},{"bike_id":"17e4f107-3379-45e5-9f7d-44963762ab33","system_id":"levelo_inurba_marseille","lat":43.241738,"lon":5.36401,"is_reserved":false,"is_disabled":false,"rental_uris":{"android":"levelo://app?vid=17e4f107-3379-45e5-9f7d-44963762ab33","ios":"levelo://app?vid=17e4f107-3379-45e5-9f7d-44963762ab33"},"vehicle_type_id":"4","last_reported":1756562881,"current_range_meters":13600,"station_id":"cpo36qri1sfpv3e86is0","pricing_plan_id":"cebpf4jnsgd1na2vs0mg"},{"bike_id":"d161821a-1ec9-4ea7-8f5c-a46efb63c948","system_id":"levelo_inurba_marseille","lat":43.2416,"lon":5.3639,"is_reserved":false,"is_disabled":false,"rental_uris":{"android":"levelo://app?vid=d161821a-1ec9-4ea7-8f5c-a46efb63c948","ios":"levelo://app?vid=d161821a-1ec9-4ea7-8f5c-a46efb63c948"},"vehicle_type_id":"4","last_reported":1756562881,"current_range_meters":13600,"station_id":"cpo36qri1sfpv3e86is0","pricing_plan_id":"cebpf4jnsgd1na2vs0mg"},{"bike_id":"f9ae6c14-cd03-4c62-b600-9d6cc2d50a4c","system_id":"levelo_inurba_marseille","lat":43.28349,"lon":5.40805,"is_reserved":false,"is_disabled":false,"rental_uris":{"android":"levelo://app?vid=f9ae6c14-cd03-4c62-b600-9d6cc2d50a4c","ios":"levelo://app?vid=f9ae6c14-cd03-4c62-b600-9d6cc2d50a4c"},"vehicle_type_id":"4","last_reported":1756562881,"current_range_meters":14000,"station_id":"","pricing_plan_id":"cebpf4jnsgd1na2vs0mg"},{"bike_id":"acf1cb4b-bd0b-4e82-b817-fed75f06dde0","system_id":"levelo_inurba_marseille","lat":43.30241,"lon":5.40059,"is_reserved":false,"is_disabled":false,"rental_uris":{"android":"levelo://app?vid=acf1cb4b-bd0b-4e82-b817-fed75f06dde0","ios":"levelo://app?vid=acf1cb4b-bd0b-4e82-b817-fed75f06dde0"},"vehicle_type_id":"4","last_reported":1756562881,"current_range_meters":14000,"station_id":"ce4bgvh2rcd13ifvqcs0","pricing_plan_id":"cebpf4jnsgd1na2vs0mg"},{"bike_id":"f9853fda-df88-4418-8c03-1498cf898752","system_id":"levelo_inurba_marseille","lat":43.26562,"lon":5.37278,"is_reserved":false,"is_disabled":false,"rental_uris":{"android":"levelo://app?vid=f9853fda-df88-4418-8c03-1498cf898752","ios":"levelo://app?vid=f9853fda-df88-4418-8c03-1498cf898752"},"vehicle_type_id":"4","last_reported":1756562881,"current_range_meters":14000,"station_id":"ce4bhg12rcd13ifvqf70","pricing_plan_id":"cebpf4jnsgd1na2vs0mg"},{"bike_id":"ce36ba6f-41be-4aca-bded-36679e9042b1","system_id":"levelo_inurba_marseille","lat":43.26032,"lon":5.37537,"is_reserved":false,"is_disabled":false,"rental_uris":{"android":"levelo://app?vid=ce36ba6f-41be-4aca-bded-36679e9042b1","ios":"levelo://app?vid=ce36ba6f-41be-4aca-bded-36679e9042b1"},"vehicle_type_id":"4","last_reported":1756562881,"current_range_meters":14000,"station_id":"ce4bhgh2rcd13ifvqfa0","pricing_plan_id":"cebpf4jnsgd1na2vs0mg"},{"bike_id":"e3e463fc-2c90-498c-9aca-4c36431d5561","system_id":"levelo_inurba_marseille","lat":43.26496,"lon":5.39537,"is_reserved":false,"is_disabled":false,"rental_uris":{"android":"levelo://app?vid=e3e463fc-2c90-498c-9aca-4c36431d5561","ios":"levelo://app?vid=e3e463fc-2c90-498c-9aca-4c36431d5561"},"vehicle_type_id":"4","last_reported":1756562881,"current_range_meters":14000,"station_id":"ce4bhi12rcd13ifvqfq0","pricing_plan_id":"cebpf4jnsgd1na2vs0mg"},{"bike_id":"34b6356a-8acb-485a-9538-883fa7a42d70","system_id":"levelo_inurba_marseille","lat":43.27074,"lon":5.42277,"is_reserved":false,"is_disabled":false,"rental_uris":{"android":"levelo://app?vid=34b6356a-8acb-485a-9538-883fa7a42d70","ios":"levelo://app?vid=34b6356a-8acb-485a-9538-883fa7a42d70"},"vehicle_type_id":"4","last_reported":1756562881,"current_range_meters":14000,"station_id":"ce4bhk92rcd13ifvqgb0","pricing_plan_id":"cebpf4jnsgd1na2vs0mg"},{"bike_id":"05955278-86d9-47b6-8d3a-f6df9e3a30d4","system_id":"levelo_inurba_marseille","lat":43.321,"lon":5.36805,"is_reserved":false,"is_disabled":false,"rental_uris":{"android":"levelo://app?vid=05955278-86d9-47b6-8d3a-f6df9e3a30d4","ios":"levelo://app?vid=05955278-86d9-47b6-8d3a-f6df9e3a30d4"},"vehicle_type_id":"4","last_reported":1756562881,"current_range_meters":14000,"station_id":"ce4bhrh2rcd13ifvqhug","pricing_plan_id":"cebpf4jnsgd1na2vs0mg"},{"bike_id":"66ab05e3-5fb4-49ea-9d40-847222fed897","system_id":"levelo_inurba_marseille","lat":43.225284,"lon":5.348295,"is_reserved":false,"is_disabled":false,"rental_uris":{"android":"levelo://app?vid=66ab05e3-5fb4-49ea-9d40-847222fed897","ios":"levelo://app?vid=66ab05e3-5fb4-49ea-9d40-847222fed897"},"vehicle_type_id":"4","last_reported":1756562881,"current_range_meters":14400,"station_id":"","pricing_plan_id":"cebpf4jnsgd1na2vs0mg"},{"bike_id":"0a970b1a-fec7-47b9-b961-c1faf331c304","system_id":"levelo_inurba_marseille","lat":43.28452,"lon":5.35895,"is_reserved":false,"is_disabled":false,"rental_uris":{"android":"levelo://app?vid=0a970b1a-fec7-47b9-b961-c1faf331c304","ios":"levelo://app?vid=0a970b1a-fec7-47b9-b961-c1faf331c304"},"vehicle_type_id":"4","last_reported":1756562881,"current_range_meters":14400,"station_id":"ce4bhah2rcd13ifvqei0","pricing_plan_id":"cebpf4jnsgd1na2vs0mg"},{"bike_id":"e8366c05-e69e-4327-a749-d8e51d8902fb","system_id":"levelo_inurba_marseille","lat":43.28417,"lon":5.34991,"is_reserved":false,"is_disabled":false,"rental_uris":{"android":"levelo://app?vid=e8366c05-e69e-4327-a749-d8e51d8902fb","ios":"levelo://app?vid=e8366c05-e69e-4327-a749-d8e51d8902fb"},"vehicle_type_id":"4","last_reported":1756562881,"current_range_meters":14400,"station_id":"ce4bhbh2rcd13ifvqepg","pricing_plan_id":"cebpf4jnsgd1na2vs0mg"},{"bike_id":"e0b4c03b-1691-4b36-9ebc-35fa149798e4","system_id":"levelo_inurba_marseille","lat":43.337609,"lon":5.374408,"is_reserved":false,"is_disabled":false,"rental_uris":{"android":"levelo://app?vid=e0b4c03b-1691-4b36-9ebc-35fa149798e4","ios":"levelo://app?vid=e0b4c03b-1691-4b36-9ebc-35fa149798e4"},"vehicle_type_id":"4","last_reported":1756562881,"current_range_meters":14800,"station_id":"","pricing_plan_id":"cebpf4jnsgd1na2vs0mg"},{"bike_id":"f8b21b3a-d87a-45c2-ae7b-fb531bb1ffb4","system_id":"levelo_inurba_marseille","lat":43.31343,"lon":5.3672,"is_reserved":false,"is_disabled":false,"rental_uris":{"android":"levelo://app?vid=f8b21b3a-d87a-45c2-ae7b-fb531bb1ffb4","ios":"levelo://app?vid=f8b21b3a-d87a-45c2-ae7b-fb531bb1ffb4"},"vehicle_type_id":"4","last_reported":1756562881,"current_range_meters":14800,"station_id":"ce4bgr92rcd13ifvqc6g","pricing_plan_id":"cebpf4jnsgd1na2vs0mg"},{"bike_id":"01fe4e97-3ee8-49dd-a3d9-d37ca39662c0","system_id":"levelo_inurba_marseille","lat":43.217499,"lon":5.346,"is_reserved":false,"is_disabled":false,"rental_uris":{"android":"levelo://app?vid=01fe4e97-3ee8-49dd-a3d9-d37ca39662c0","ios":"levelo://app?vid=01fe4e97-3ee8-49dd-a3d9-d37ca39662c0"},"vehicle_type_id":"4","last_reported":1756562881,"current_range_meters":15200,"station_id":"","pricing_plan_id":"cebpf4jnsgd1na2vs0mg"},{"bike_id":"043820da-0ebe-4d63-bb8d-d3512b40a78d","system_id":"levelo_inurba_marseille","lat":43.27368,"lon":5.36242,"is_reserved":false,"is_disabled":false,"rental_uris":{"android":"levelo://app?vid=043820da-0ebe-4d63-bb8d-d3512b40a78d","ios":"levelo://app?vid=043820da-0ebe-4d63-bb8d-d3512b40a78d"},"vehicle_type_id":"4","last_reported":1756562881,"current_range_meters":15200,"station_id":"ce4bhbh2rcd13ifvqeo0","pricing_plan_id":"cebpf4jnsgd1na2vs0mg"},{"bike_id":"a63ef54e-d189-4d5c-b564-04cefb97ad0b","system_id":"levelo_inurba_marseille","lat":43.25581,"lon":5.38235,"is_reserved":false,"is_disabled":false,"rental_uris":{"android":"levelo://app?vid=a63ef54e-d189-4d5c-b564-04cefb97ad0b","ios":"levelo://app?vid=a63ef54e-d189-4d5c-b564-04cefb97ad0b"},"vehicle_type_id":"4","last_reported":1756562881,"current_range_meters":15200,"station_id":"ce4bhih2rcd13ifvqfs0","pricing_plan_id":"cebpf4jnsgd1na2vs0mg"},{"bike_id":"950d6b99-d783-43f9-8092-1306b2213715","system_id":"levelo_inurba_marseille","lat":43.24177,"lon":5.39713,"is_reserved":false,"is_disabled":false,"rental_uris":{"android":"levelo://app?vid=950d6b99-d783-43f9-8092-1306b2213715","ios":"levelo://app?vid=950d6b99-d783-43f9-8092-1306b2213715"},"vehicle_type_id":"4","last_reported":1756562881,"current_range_meters":15200,"station_id":"ce4bhn12rcd13ifvqgpg","pricing_plan_id":"cebpf4jnsgd1na2vs0mg"},{"bike_id":"240b787f-67d9-44f7-be37-69f82eb5edf1","system_id":"levelo_inurba_marseille","lat":43.24158,"lon":5.36398,"is_reserved":false,"is_disabled":false,"rental_uris":{"android":"levelo://app?vid=240b787f-67d9-44f7-be37-69f82eb5edf1","ios":"levelo://app?vid=240b787f-67d9-44f7-be37-69f82eb5edf1"},"vehicle_type_id":"4","last_reported":1756562881,"current_range_meters":15200,"station_id":"cpo36qri1sfpv3e86is0","pricing_plan_id":"cebpf4jnsgd1na2vs0mg"},{"bike_id":"2f3ab8ca-bcf0-42a3-b7af-3ed488a6ade2","system_id":"levelo_inurba_marseille","lat":43.26543,"lon":5.37287,"is_reserved":false,"is_disabled":false,"rental_uris":{"android":"levelo://app?vid=2f3ab8ca-bcf0-42a3-b7af-3ed488a6ade2","ios":"levelo://app?vid=2f3ab8ca-bcf0-42a3-b7af-3ed488a6ade2"},"vehicle_type_id":"4","last_reported":1756562881,"current_range_meters":16000,"station_id":"","pricing_plan_id":"cebpf4jnsgd1na2vs0mg"},{"bike_id":"e02828ea-53f1-42a2-8077-ad94eac3d5c1","system_id":"levelo_inurba_marseille","lat":43.314868,"lon":5.373127,"is_reserved":false,"is_disabled":false,"rental_uris":{"android":"levelo://app?vid=e02828ea-53f1-42a2-8077-ad94eac3d5c1","ios":"levelo://app?vid=e02828ea-53f1-42a2-8077-ad94eac3d5c1"},"vehicle_type_id":"4","last_reported":1756562881,"current_range_meters":16000,"station_id":"ce4bgt12rcd13ifvqcd0","pricing_plan_id":"cebpf4jnsgd1na2vs0mg"},{"bike_id":"5c17da7f-e138-4cf3-9f99-00e4e0c9bff1","system_id":"levelo_inurba_marseille","lat":43.2804,"lon":5.36941,"is_reserved":false,"is_disabled":false,"rental_uris":{"android":"levelo://app?vid=5c17da7f-e138-4cf3-9f99-00e4e0c9bff1","ios":"levelo://app?vid=5c17da7f-e138-4cf3-9f99-00e4e0c9bff1"},"vehicle_type_id":"4","last_reported":1756562881,"current_range_meters":16000,"station_id":"ce4bha12rcd13ifvqef0","pricing_plan_id":"cebpf4jnsgd1na2vs0mg"},{"bike_id":"e19a25e0-fafb-4ceb-a011-9986420c91c3","system_id":"levelo_inurba_marseille","lat":43.28414,"lon":5.34987,"is_reserved":false,"is_disabled":false,"rental_uris":{"android":"levelo://app?vid=e19a25e0-fafb-4ceb-a011-9986420c91c3","ios":"levelo://app?vid=e19a25e0-fafb-4ceb-a011-9986420c91c3"},"vehicle_type_id":"4","last_reported":1756562881,"current_range_meters":16000,"station_id":"ce4bhbh2rcd13ifvqepg","pricing_plan_id":"cebpf4jnsgd1na2vs0mg"},{"bike_id":"dc749b48-f9e4-4912-8750-0ecf092467d4","system_id":"levelo_inurba_marseille","lat":43.28619,"lon":5.350975,"is_reserved":false,"is_disabled":false,"rental_uris":{"android":"levelo://app?vid=dc749b48-f9e4-4912-8750-0ecf092467d4","ios":"levelo://app?vid=dc749b48-f9e4-4912-8750-0ecf092467d4"},"vehicle_type_id":"4","last_reported":1756562881,"current_range_meters":16000,"station_id":"ce4bhch2rcd13ifvqeug","pricing_plan_id":"cebpf4jnsgd1na2vs0mg"},{"bike_id":"657b063a-1fba-4af5-818a-819f48cd46f4","system_id":"levelo_inurba_marseille","lat":43.25111,"lon":5.40322,"is_reserved":false,"is_disabled":false,"rental_uris":{"android":"levelo://app?vid=657b063a-1fba-4af5-818a-819f48cd46f4","ios":"levelo://app?vid=657b063a-1fba-4af5-818a-819f48cd46f4"},"vehicle_type_id":"4","last_reported":1756562881,"current_range_meters":16000,"station_id":"ce4bhlh2rcd13ifvqgig","pricing_plan_id":"cebpf4jnsgd1na2vs0mg"},{"bike_id":"87d82908-c7a1-44cb-a393-738fe5b15be9","system_id":"levelo_inurba_marseille","lat":43.26571,"lon":5.40334,"is_reserved":false,"is_disabled":false,"rental_uris":{"android":"levelo://app?vid=87d82908-c7a1-44cb-a393-738fe5b15be9","ios":"levelo://app?vid=87d82908-c7a1-44cb-a393-738fe5b15be9"},"vehicle_type_id":"4","last_reported":1756562881,"current_range_meters":16000,"station_id":"ce4bhmp2rcd13ifvqgng","pricing_plan_id":"cebpf4jnsgd1na2vs0mg"},{"bike_id":"f89c1bca-a54b-4404-ae42-61d38ca15025","system_id":"levelo_inurba_marseille","lat":43.231934,"lon":5.355544,"is_reserved":false,"is_disabled":false,"rental_uris":{"android":"levelo://app?vid=f89c1bca-a54b-4404-ae42-61d38ca15025","ios":"levelo://app?vid=f89c1bca-a54b-4404-ae42-61d38ca15025"},"vehicle_type_id":"4","last_reported":1756562881,"current_range_meters":16000,"station_id":"ce4bhu92rcd13ifvqi70","pricing_plan_id":"cebpf4jnsgd1na2vs0mg"},{"bike_id":"ccdd7871-b069-4616-b239-9faaa61d5065","system_id":"levelo_inurba_marseille","lat":43.21766,"lon":5.34583,"is_reserved":false,"is_disabled":false,"rental_uris":{"android":"levelo://app?vid=ccdd7871-b069-4616-b239-9faaa61d5065","ios":"levelo://app?vid=ccdd7871-b069-4616-b239-9faaa61d5065"},"vehicle_type_id":"4","last_reported":1756562881,"current_range_meters":16000,"station_id":"st_cvj6r9ubvosntc0bgbag","pricing_plan_id":"cebpf4jnsgd1na2vs0mg"},{"bike_id":"94469496-96ae-450e-adaf-a7663bfd0e82","system_id":"levelo_inurba_marseille","lat":43.33765,"lon":5.37491,"is_reserved":false,"is_disabled":false,"rental_uris":{"android":"levelo://app?vid=94469496-96ae-450e-adaf-a7663bfd0e82","ios":"levelo://app?vid=94469496-96ae-450e-adaf-a7663bfd0e82"},"vehicle_type_id":"4","last_reported":1756562881,"current_range_meters":16400,"station_id":"","pricing_plan_id":"cebpf4jnsgd1na2vs0mg"},{"bike_id":"f4d178dc-2313-4f0f-aa76-b69f452c4f86","system_id":"levelo_inurba_marseille","lat":43.29247,"lon":5.37627,"is_reserved":false,"is_disabled":false,"rental_uris":{"android":"levelo://app?vid=f4d178dc-2313-4f0f-aa76-b69f452c4f86","ios":"levelo://app?vid=f4d178dc-2313-4f0f-aa76-b69f452c4f86"},"vehicle_type_id":"4","last_reported":1756562881,"current_range_meters":16400,"station_id":"ce4bgi12rcd13ifvqb80","pricing_plan_id":"cebpf4jnsgd1na2vs0mg"},{"bike_id":"f86cdfd0-0758-496b-b95b-b95d20d5b288","system_id":"levelo_inurba_marseille","lat":43.28637,"lon":5.35087,"is_reserved":false,"is_disabled":false,"rental_uris":{"android":"levelo://app?vid=f86cdfd0-0758-496b-b95b-b95d20d5b288","ios":"levelo://app?vid=f86cdfd0-0758-496b-b95b-b95d20d5b288"},"vehicle_type_id":"4","last_reported":1756562881,"current_range_meters":16400,"station_id":"ce4bhch2rcd13ifvqeug","pricing_plan_id":"cebpf4jnsgd1na2vs0mg"},{"bike_id":"8b30c300-aad4-4afe-80cf-0926ed380f24","system_id":"levelo_inurba_marseille","lat":43.24072,"lon":5.3775,"is_reserved":false,"is_disabled":false,"rental_uris":{"android":"levelo://app?vid=8b30c300-aad4-4afe-80cf-0926ed380f24","ios":"levelo://app?vid=8b30c300-aad4-4afe-80cf-0926ed380f24"},"vehicle_type_id":"4","last_reported":1756562881,"current_range_meters":16400,"station_id":"ce4bhnp2rcd13ifvqgvg","pricing_plan_id":"cebpf4jnsgd1na2vs0mg"},{"bike_id":"ce076832-46db-43ed-ab13-c21f5b0e7751","system_id":"levelo_inurba_marseille","lat":43.31879,"lon":5.40737,"is_reserved":false,"is_disabled":false,"rental_uris":{"android":"levelo://app?vid=ce076832-46db-43ed-ab13-c21f5b0e7751","ios":"levelo://app?vid=ce076832-46db-43ed-ab13-c21f5b0e7751"},"vehicle_type_id":"4","last_reported":1756562881,"current_range_meters":16400,"station_id":"ce4bhq12rcd13ifvqhig","pricing_plan_id":"cebpf4jnsgd1na2vs0mg"},{"bike_id":"d7bc08f6-88e7-4eec-8bdd-75be8e240dc2","system_id":"levelo_inurba_marseille","lat":43.21199,"lon":5.35074,"is_reserved":false,"is_disabled":false,"rental_uris":{"android":"levelo://app?vid=d7bc08f6-88e7-4eec-8bdd-75be8e240dc2","ios":"levelo://app?vid=d7bc08f6-88e7-4eec-8bdd-75be8e240dc2"},"vehicle_type_id":"4","last_reported":1756562881,"current_range_meters":16400,"station_id":"st_cvj6sg6p6f1abm77japg","pricing_plan_id":"cebpf4jnsgd1na2vs0mg"},{"bike_id":"5bce688b-fc81-4596-8277-b66f54be87c1","system_id":"levelo_inurba_marseille","lat":43.337558,"lon":5.374329,"is_reserved":false,"is_disabled":false,"rental_uris":{"android":"levelo://app?vid=5bce688b-fc81-4596-8277-b66f54be87c1","ios":"levelo://app?vid=5bce688b-fc81-4596-8277-b66f54be87c1"},"vehicle_type_id":"4","last_reported":1756562881,"current_range_meters":16800,"station_id":"","pricing_plan_id":"cebpf4jnsgd1na2vs0mg"},{"bike_id":"f8b1cffd-cca4-4a6b-b7ac-7d140d9570bf","system_id":"levelo_inurba_marseille","lat":43.31251,"lon":5.38474,"is_reserved":false,"is_disabled":false,"rental_uris":{"android":"levelo://app?vid=f8b1cffd-cca4-4a6b-b7ac-7d140d9570bf","ios":"levelo://app?vid=f8b1cffd-cca4-4a6b-b7ac-7d140d9570bf"},"vehicle_type_id":"4","last_reported":1756562881,"current_range_meters":16800,"station_id":"","pricing_plan_id":"cebpf4jnsgd1na2vs0mg"},{"bike_id":"96e7ff90-6cff-401e-9fde-f42b1159137f","system_id":"levelo_inurba_marseille","lat":43.25518,"lon":5.37631,"is_reserved":false,"is_disabled":false,"rental_uris":{"android":"levelo://app?vid=96e7ff90-6cff-401e-9fde-f42b1159137f","ios":"levelo://app?vid=96e7ff90-6cff-401e-9fde-f42b1159137f"},"vehicle_type_id":"4","last_reported":1756562881,"current_range_meters":16800,"station_id":"ce4bhh12rcd13ifvqff0","pricing_plan_id":"cebpf4jnsgd1na2vs0mg"},{"bike_id":"4815962c-5d1b-40ee-85c6-52e69bbe8d02","system_id":"levelo_inurba_marseille","lat":43.21747,"lon":5.34616,"is_reserved":false,"is_disabled":false,"rental_uris":{"android":"levelo://app?vid=4815962c-5d1b-40ee-85c6-52e69bbe8d02","ios":"levelo://app?vid=4815962c-5d1b-40ee-85c6-52e69bbe8d02"},"vehicle_type_id":"4","last_reported":1756562881,"current_range_meters":16800,"station_id":"st_cvj6r9ubvosntc0bgbag","pricing_plan_id":"cebpf4jnsgd1na2vs0mg"},{"bike_id":"54efdf14-9ec0-40ec-9aa6-51b1842989dc","system_id":"levelo_inurba_marseille","lat":43.21189,"lon":5.35064,"is_reserved":false,"is_disabled":false,"rental_uris":{"android":"levelo://app?vid=54efdf14-9ec0-40ec-9aa6-51b1842989dc","ios":"levelo://app?vid=54efdf14-9ec0-40ec-9aa6-51b1842989dc"},"vehicle_type_id":"4","last_reported":1756562881,"current_range_meters":16800,"station_id":"st_cvj6sg6p6f1abm77japg","pricing_plan_id":"cebpf4jnsgd1na2vs0mg"},{"bike_id":"33a3d4ee-8f69-4f1c-91c7-7b5292ce0978","system_id":"levelo_inurba_marseille","lat":43.28304,"lon":5.35041,"is_reserved":false,"is_disabled":false,"rental_uris":{"android":"levelo://app?vid=33a3d4ee-8f69-4f1c-91c7-7b5292ce0978","ios":"levelo://app?vid=33a3d4ee-8f69-4f1c-91c7-7b5292ce0978"},"vehicle_type_id":"4","last_reported":1756562881,"current_range_meters":17200,"station_id":"ce4bhbp2rcd13ifvqerg","pricing_plan_id":"cebpf4jnsgd1na2vs0mg"},{"bike_id":"a0a0750c-e677-4154-b0b9-d8f02b69bf78","system_id":"levelo_inurba_marseille","lat":43.26031,"lon":5.3754,"is_reserved":false,"is_disabled":false,"rental_uris":{"android":"levelo://app?vid=a0a0750c-e677-4154-b0b9-d8f02b69bf78","ios":"levelo://app?vid=a0a0750c-e677-4154-b0b9-d8f02b69bf78"},"vehicle_type_id":"4","last_reported":1756562881,"current_range_meters":17200,"station_id":"ce4bhgh2rcd13ifvqfa0","pricing_plan_id":"cebpf4jnsgd1na2vs0mg"},{"bike_id":"2d68068a-858b-4477-ba2e-c28c1edd3a75","system_id":"levelo_inurba_marseille","lat":43.2791,"lon":5.41056,"is_reserved":false,"is_disabled":false,"rental_uris":{"android":"levelo://app?vid=2d68068a-858b-4477-ba2e-c28c1edd3a75","ios":"levelo://app?vid=2d68068a-858b-4477-ba2e-c28c1edd3a75"},"vehicle_type_id":"4","last_reported":1756562881,"current_range_meters":17200,"station_id":"ce4bhnp2rcd13ifvqh0g","pricing_plan_id":"cebpf4jnsgd1na2vs0mg"},{"bike_id":"20bd74cc-f315-4635-a9d5-68aef21e2f98","system_id":"levelo_inurba_marseille","lat":43.231918,"lon":5.355458,"is_reserved":false,"is_disabled":false,"rental_uris":{"android":"levelo://app?vid=20bd74cc-f315-4635-a9d5-68aef21e2f98","ios":"levelo://app?vid=20bd74cc-f315-4635-a9d5-68aef21e2f98"},"vehicle_type_id":"4","last_reported":1756562881,"current_range_meters":17200,"station_id":"ce4bhu92rcd13ifvqi70","pricing_plan_id":"cebpf4jnsgd1na2vs0mg"},{"bike_id":"5d7c9008-7d5b-4dd6-85df-1a28b70a7a94","system_id":"levelo_inurba_marseille","lat":43.21177,"lon":5.35055,"is_reserved":false,"is_disabled":false,"rental_uris":{"android":"levelo://app?vid=5d7c9008-7d5b-4dd6-85df-1a28b70a7a94","ios":"levelo://app?vid=5d7c9008-7d5b-4dd6-85df-1a28b70a7a94"},"vehicle_type_id":"4","last_reported":1756562881,"current_range_meters":17200,"station_id":"st_cvj6sg6p6f1abm77japg","pricing_plan_id":"cebpf4jnsgd1na2vs0mg"},{"bike_id":"05c890ce-53ef-4b45-9f0a-d9bfae25bfe3","system_id":"levelo_inurba_marseille","lat":43.26559,"lon":5.37289,"is_reserved":false,"is_disabled":false,"rental_uris":{"android":"levelo://app?vid=05c890ce-53ef-4b45-9f0a-d9bfae25bfe3","ios":"levelo://app?vid=05c890ce-53ef-4b45-9f0a-d9bfae25bfe3"},"vehicle_type_id":"4","last_reported":1756562881,"current_range_meters":17600,"station_id":"","pricing_plan_id":"cebpf4jnsgd1na2vs0mg"},{"bike_id":"dc1a2fce-194a-4624-af01-fbfb7e0744f2","system_id":"levelo_inurba_marseille","lat":43.29372,"lon":5.37856,"is_reserved":false,"is_disabled":false,"rental_uris":{"android":"levelo://app?vid=dc1a2fce-194a-4624-af01-fbfb7e0744f2","ios":"levelo://app?vid=dc1a2fce-194a-4624-af01-fbfb7e0744f2"},"vehicle_type_id":"4","last_reported":1756562881,"current_range_meters":17600,"station_id":"","pricing_plan_id":"cebpf4jnsgd1na2vs0mg"},{"bike_id":"eece80e2-53e8-4797-bc16-c5ffe190830a","system_id":"levelo_inurba_marseille","lat":43.225327,"lon":5.348357,"is_reserved":false,"is_disabled":false,"rental_uris":{"android":"levelo://app?vid=eece80e2-53e8-4797-bc16-c5ffe190830a","ios":"levelo://app?vid=eece80e2-53e8-4797-bc16-c5ffe190830a"},"vehicle_type_id":"4","last_reported":1756562881,"current_range_meters":17600,"station_id":"","pricing_plan_id":"cebpf4jnsgd1na2vs0mg"},{"bike_id":"2a3c92a7-93e0-4305-95cf-d31780ffd746","system_id":"levelo_inurba_marseille","lat":43.22534,"lon":5.34835,"is_reserved":false,"is_disabled":false,"rental_uris":{"android":"levelo://app?vid=2a3c92a7-93e0-4305-95cf-d31780ffd746","ios":"levelo://app?vid=2a3c92a7-93e0-4305-95cf-d31780ffd746"},"vehicle_type_id":"4","last_reported":1756562881,"current_range_meters":17600,"station_id":"","pricing_plan_id":"cebpf4jnsgd1na2vs0mg"},{"bike_id":"fe58ff5d-b33c-42c1-96cc-b90acd6541d0","system_id":"levelo_inurba_marseille","lat":43.30437,"lon":5.38883,"is_reserved":false,"is_disabled":false,"rental_uris":{"android":"levelo://app?vid=fe58ff5d-b33c-42c1-96cc-b90acd6541d0","ios":"levelo://app?vid=fe58ff5d-b33c-42c1-96cc-b90acd6541d0"},"vehicle_type_id":"4","last_reported":1756562881,"current_range_meters":17600,"station_id":"ce4bgk12rcd13ifvqbi0","pricing_plan_id":"cebpf4jnsgd1na2vs0mg"},{"bike_id":"e6fdec5a-eadf-45dd-b9e3-6694d578bd12","system_id":"levelo_inurba_marseille","lat":43.321,"lon":5.36788,"is_reserved":false,"is_disabled":false,"rental_uris":{"android":"levelo://app?vid=e6fdec5a-eadf-45dd-b9e3-6694d578bd12","ios":"levelo://app?vid=e6fdec5a-eadf-45dd-b9e3-6694d578bd12"},"vehicle_type_id":"4","last_reported":1756562881,"current_range_meters":17600,"station_id":"ce4bhrh2rcd13ifvqhug","pricing_plan_id":"cebpf4jnsgd1na2vs0mg"},{"bike_id":"243415a8-0dfb-425e-a59f-efc6a71b60b7","system_id":"levelo_inurba_marseille","lat":43.23197,"lon":5.35559,"is_reserved":false,"is_disabled":false,"rental_uris":{"android":"levelo://app?vid=243415a8-0dfb-425e-a59f-efc6a71b60b7","ios":"levelo://app?vid=243415a8-0dfb-425e-a59f-efc6a71b60b7"},"vehicle_type_id":"4","last_reported":1756562881,"current_range_meters":17600,"station_id":"ce4bhu92rcd13ifvqi70","pricing_plan_id":"cebpf4jnsgd1na2vs0mg"},{"bike_id":"64097b32-d920-4657-b94d-b3bade984467","system_id":"levelo_inurba_marseille","lat":43.22912,"lon":5.35385,"is_reserved":false,"is_disabled":false,"rental_uris":{"android":"levelo://app?vid=64097b32-d920-4657-b94d-b3bade984467","ios":"levelo://app?vid=64097b32-d920-4657-b94d-b3bade984467"},"vehicle_type_id":"4","last_reported":1756562881,"current_range_meters":17600,"station_id":"cpo3532slgdg3j2ikp40","pricing_plan_id":"cebpf4jnsgd1na2vs0mg"},{"bike_id":"2d4ceaa5-16df-4c66-8a23-679ccceb7d79","system_id":"levelo_inurba_marseille","lat":43.21181,"lon":5.35072,"is_reserved":false,"is_disabled":false,"rental_uris":{"android":"levelo://app?vid=2d4ceaa5-16df-4c66-8a23-679ccceb7d79","ios":"levelo://app?vid=2d4ceaa5-16df-4c66-8a23-679ccceb7d79"},"vehicle_type_id":"4","last_reported":1756562881,"current_range_meters":17600,"station_id":"st_cvj6sg6p6f1abm77japg","pricing_plan_id":"cebpf4jnsgd1na2vs0mg"},{"bike_id":"bbe1c36a-1813-42cb-ace1-dd587f635f79","system_id":"levelo_inurba_marseille","lat":43.22588,"lon":5.41618,"is_reserved":false,"is_disabled":false,"rental_uris":{"android":"levelo://app?vid=bbe1c36a-1813-42cb-ace1-dd587f635f79","ios":"levelo://app?vid=bbe1c36a-1813-42cb-ace1-dd587f635f79"},"vehicle_type_id":"4","last_reported":1756562881,"current_range_meters":17600,"station_id":"st_d2o4gvlbi1j2169b742g","pricing_plan_id":"cebpf4jnsgd1na2vs0mg"},{"bike_id":"24b820d4-1a73-43bf-b608-3ee9455ed982","system_id":"levelo_inurba_marseille","lat":43.2255,"lon":5.34824,"is_reserved":false,"is_disabled":false,"rental_uris":{"android":"levelo://app?vid=24b820d4-1a73-43bf-b608-3ee9455ed982","ios":"levelo://app?vid=24b820d4-1a73-43bf-b608-3ee9455ed982"},"vehicle_type_id":"4","last_reported":1756562881,"current_range_meters":18000,"station_id":"","pricing_plan_id":"cebpf4jnsgd1na2vs0mg"},{"bike_id":"395aef85-9c3f-49ba-8a75-40656c305d94","system_id":"levelo_inurba_marseille","lat":43.212,"lon":5.3506,"is_reserved":false,"is_disabled":false,"rental_uris":{"android":"levelo://app?vid=395aef85-9c3f-49ba-8a75-40656c305d94","ios":"levelo://app?vid=395aef85-9c3f-49ba-8a75-40656c305d94"},"vehicle_type_id":"4","last_reported":1756562881,"current_range_meters":18000,"station_id":"","pricing_plan_id":"cebpf4jnsgd1na2vs0mg"},{"bike_id":"2fb8df59-909b-4329-bdf8-6b93519a97f9","system_id":"levelo_inurba_marseille","lat":43.2737,"lon":5.36259,"is_reserved":false,"is_disabled":false,"rental_uris":{"android":"levelo://app?vid=2fb8df59-909b-4329-bdf8-6b93519a97f9","ios":"levelo://app?vid=2fb8df59-909b-4329-bdf8-6b93519a97f9"},