{"last_updated":1762518062,"ttl":60,"version":"2.2","data":{"bikes":[{"bike_id":"e7002296-a724-4792-9c77-9aa7da662e7d","system_id":"levelo_inurba_marseille","lat":43.29752,"lon":5.36248,"is_reserved":false,"is_disabled":false,"rental_uris":{"android":"levelo://app?vid=e7002296-a724-4792-9c77-9aa7da662e7d","ios":"levelo://app?vid=e7002296-a724-4792-9c77-9aa7da662e7d"},"vehicle_type_id":"4","last_reported":1762518062,"current_range_meters":2800,"station_id":"","pricing_plan_id":"cebpf4jnsgd1na2vs0mg"},{"bike_id":"5a7c6acf-bda1-47ef-a8f6-21f2c09782b4","system_id":"levelo_inurba_marseille","lat":43.265,"lon":5.39532,"is_reserved":false,"is_disabled":false,"rental_uris":{"android":"levelo://app?vid=5a7c6acf-bda1-47ef-a8f6-21f2c09782b4","ios":"levelo://app?vid=5a7c6acf-bda1-47ef-a8f6-21f2c09782b4"},"vehicle_type_id":"4","last_reported":1762518062,"current_range_meters":3200,"station_id":"ce4bhi12rcd13ifvqfq0","pricing_plan_id":"cebpf4jnsgd1na2vs0mg"},{"bike_id":"54cb4499-577d-41b7-bc10-839306a33cc2","system_id":"levelo_inurba_marseille","lat":43.262102,"lon":5.402176,"is_reserved":false,"is_disabled":false,"rental_uris":{"android":"levelo://app?vid=54cb4499-577d-41b7-bc10-839306a33cc2","ios":"levelo://app?vid=54cb4499-577d-41b7-bc10-839306a33cc2"},"vehicle_type_id":"4","last_reported":1762518062,"current_range_meters":3200,"station_id":"","pricing_plan_id":"cebpf4jnsgd1na2vs0mg"},{"bike_id":"df4dad98-634e-40df-8cf9-7e98355252c0","system_id":"levelo_inurba_marseille","lat":43.31713,"lon":5.43703,"is_reserved":false,"is_disabled":false,"rental_uris":{"android":"levelo://app?vid=df4dad98-634e-40df-8cf9-7e98355252c0","ios":"levelo://app?vid=df4dad98-634e-40df-8cf9-7e98355252c0"},"vehicle_type_id":"4","last_reported":1762518062,"current_range_meters":3200,"station_id":"ce4bhp92rcd13ifvqhcg","pricing_plan_id":"cebpf4jnsgd1na2vs0mg"},{"bike_id":"074b7785-ce8d-4bc8-a416-9c80197daf90","system_id":"levelo_inurba_marseille","lat":43.307983,"lon":5.381579,"is_reserved":false,"is_disabled":false,"rental_uris":{"android":"levelo://app?vid=074b7785-ce8d-4bc8-a416-9c80197daf90","ios":"levelo://app?vid=074b7785-ce8d-4bc8-a416-9c80197daf90"},"vehicle_type_id":"4","last_reported":1762518062,"current_range_meters":3200,"station_id":"ce4bgt12rcd13ifvqce0","pricing_plan_id":"cebpf4jnsgd1na2vs0mg"},{"bike_id":"571bd3a6-912b-44a3-9841-50c558a61481","system_id":"levelo_inurba_marseille","lat":43.280968,"lon":5.405488,"is_reserved":false,"is_disabled":false,"rental_uris":{"android":"levelo://app?vid=571bd3a6-912b-44a3-9841-50c558a61481","ios":"levelo://app?vid=571bd3a6-912b-44a3-9841-50c558a61481"},"vehicle_type_id":"4","last_reported":1762518062,"current_range_meters":3600,"station_id":"","pricing_plan_id":"cebpf4jnsgd1na2vs0mg"},{"bike_id":"46ea1783-79a5-4ee9-b0e7-3de645166e70","system_id":"levelo_inurba_marseille","lat":43.22568,"lon":5.41624,"is_reserved":false,"is_disabled":false,"rental_uris":{"android":"levelo://app?vid=46ea1783-79a5-4ee9-b0e7-3de645166e70","ios":"levelo://app?vid=46ea1783-79a5-4ee9-b0e7-3de645166e70"},"vehicle_type_id":"4","last_reported":1762518062,"current_range_meters":3600,"station_id":"st_d2o4gvlbi1j2169b742g","pricing_plan_id":"cebpf4jnsgd1na2vs0mg"},{"bike_id":"42971e05-5f52-4ddb-be59-802f6451d0de","system_id":"levelo_inurba_marseille","lat":43.23967,"lon":5.36631,"is_reserved":false,"is_disabled":false,"rental_uris":{"android":"levelo://app?vid=42971e05-5f52-4ddb-be59-802f6451d0de","ios":"levelo://app?vid=42971e05-5f52-4ddb-be59-802f6451d0de"},"vehicle_type_id":"4","last_reported":1762518062,"current_range_meters":3600,"station_id":"ce4bhi12rcd13ifvqfp0","pricing_plan_id":"cebpf4jnsgd1na2vs0mg"},{"bike_id":"28acdc45-59c8-465c-9610-94ab4c3c61c9","system_id":"levelo_inurba_marseille","lat":43.284723,"lon":5.484027,"is_reserved":false,"is_disabled":false,"rental_uris":{"android":"levelo://app?vid=28acdc45-59c8-465c-9610-94ab4c3c61c9","ios":"levelo://app?vid=28acdc45-59c8-465c-9610-94ab4c3c61c9"},"vehicle_type_id":"4","last_reported":1762518062,"current_range_meters":4000,"station_id":"st_d3svhcjqgbts73a3dn0g","pricing_plan_id":"cebpf4jnsgd1na2vs0mg"},{"bike_id":"7124918b-cc3f-42ab-a562-f762f704ecb0","system_id":"levelo_inurba_marseille","lat":43.30132,"lon":5.38773,"is_reserved":false,"is_disabled":false,"rental_uris":{"android":"levelo://app?vid=7124918b-cc3f-42ab-a562-f762f704ecb0","ios":"levelo://app?vid=7124918b-cc3f-42ab-a562-f762f704ecb0"},"vehicle_type_id":"4","last_reported":1762518062,"current_range_meters":4000,"station_id":"ce4bghh2rcd13ifvqb60","pricing_plan_id":"cebpf4jnsgd1na2vs0mg"},{"bike_id":"52cdc194-7690-446d-baff-a8d556a9f404","system_id":"levelo_inurba_marseille","lat":43.26037,"lon":5.37543,"is_reserved":false,"is_disabled":false,"rental_uris":{"android":"levelo://app?vid=52cdc194-7690-446d-baff-a8d556a9f404","ios":"levelo://app?vid=52cdc194-7690-446d-baff-a8d556a9f404"},"vehicle_type_id":"4","last_reported":1762518062,"current_range_meters":4400,"station_id":"ce4bhgh2rcd13ifvqfa0","pricing_plan_id":"cebpf4jnsgd1na2vs0mg"},{"bike_id":"fd264b3e-de5e-46e6-8fbf-e9cac9b2053a","system_id":"levelo_inurba_marseille","lat":43.26572,"lon":5.39001,"is_reserved":false,"is_disabled":false,"rental_uris":{"android":"levelo://app?vid=fd264b3e-de5e-46e6-8fbf-e9cac9b2053a","ios":"levelo://app?vid=fd264b3e-de5e-46e6-8fbf-e9cac9b2053a"},"vehicle_type_id":"4","last_reported":1762518062,"current_range_meters":4400,"station_id":"ce4bhe12rcd13ifvqf30","pricing_plan_id":"cebpf4jnsgd1na2vs0mg"},{"bike_id":"4584c9fd-83e5-4aaa-85f2-dfe0c474e7d1","system_id":"levelo_inurba_marseille","lat":43.301417,"lon":5.374184,"is_reserved":false,"is_disabled":false,"rental_uris":{"android":"levelo://app?vid=4584c9fd-83e5-4aaa-85f2-dfe0c474e7d1","ios":"levelo://app?vid=4584c9fd-83e5-4aaa-85f2-dfe0c474e7d1"},"vehicle_type_id":"4","last_reported":1762518062,"current_range_meters":4800,"station_id":"ce4bgs92rcd13ifvqcc0","pricing_plan_id":"cebpf4jnsgd1na2vs0mg"},{"bike_id":"d3a8c452-bd73-4909-9cfe-f1c0285f3d0c","system_id":"levelo_inurba_marseille","lat":43.284795,"lon":5.484006,"is_reserved":false,"is_disabled":false,"rental_uris":{"android":"levelo://app?vid=d3a8c452-bd73-4909-9cfe-f1c0285f3d0c","ios":"levelo://app?vid=d3a8c452-bd73-4909-9cfe-f1c0285f3d0c"},"vehicle_type_id":"4","last_reported":1762518062,"current_range_meters":5600,"station_id":"","pricing_plan_id":"cebpf4jnsgd1na2vs0mg"},{"bike_id":"b3f96f90-6ee1-40df-977b-556ba81502c8","system_id":"levelo_inurba_marseille","lat":43.28615,"lon":5.35104,"is_reserved":false,"is_disabled":false,"rental_uris":{"android":"levelo://app?vid=b3f96f90-6ee1-40df-977b-556ba81502c8","ios":"levelo://app?vid=b3f96f90-6ee1-40df-977b-556ba81502c8"},"vehicle_type_id":"4","last_reported":1762518062,"current_range_meters":5600,"station_id":"ce4bhch2rcd13ifvqeug","pricing_plan_id":"cebpf4jnsgd1na2vs0mg"},{"bike_id":"7f681d58-39ad-4b2b-97a8-833702d6a5bc","system_id":"levelo_inurba_marseille","lat":43.29264,"lon":5.38431,"is_reserved":false,"is_disabled":false,"rental_uris":{"android":"levelo://app?vid=7f681d58-39ad-4b2b-97a8-833702d6a5bc","ios":"levelo://app?vid=7f681d58-39ad-4b2b-97a8-833702d6a5bc"},"vehicle_type_id":"4","last_reported":1762518062,"current_range_meters":5600,"station_id":"ce4bh692rcd13ifvqea0","pricing_plan_id":"cebpf4jnsgd1na2vs0mg"},{"bike_id":"fd56d2bc-6f60-4008-a2cc-ba3081efc60a","system_id":"levelo_inurba_marseille","lat":43.295869,"lon":5.374445,"is_reserved":false,"is_disabled":false,"rental_uris":{"android":"levelo://app?vid=fd56d2bc-6f60-4008-a2cc-ba3081efc60a","ios":"levelo://app?vid=fd56d2bc-6f60-4008-a2cc-ba3081efc60a"},"vehicle_type_id":"4","last_reported":1762518062,"current_range_meters":6000,"station_id":"ce4bgh92rcd13ifvqb50","pricing_plan_id":"cebpf4jnsgd1na2vs0mg"},{"bike_id":"77807b52-a342-4413-b550-e7560c391773","system_id":"levelo_inurba_marseille","lat":43.3127,"lon":5.40166,"is_reserved":false,"is_disabled":false,"rental_uris":{"android":"levelo://app?vid=77807b52-a342-4413-b550-e7560c391773","ios":"levelo://app?vid=77807b52-a342-4413-b550-e7560c391773"},"vehicle_type_id":"4","last_reported":1762518062,"current_range_meters":6000,"station_id":"ce4bh092rcd13ifvqd30","pricing_plan_id":"cebpf4jnsgd1na2vs0mg"},{"bike_id":"917a8640-94a2-49fe-853b-4fb33bf87830","system_id":"levelo_inurba_marseille","lat":43.28018,"lon":5.38683,"is_reserved":false,"is_disabled":false,"rental_uris":{"android":"levelo://app?vid=917a8640-94a2-49fe-853b-4fb33bf87830","ios":"levelo://app?vid=917a8640-94a2-49fe-853b-4fb33bf87830"},"vehicle_type_id":"4","last_reported":1762518062,"current_range_meters":6000,"station_id":"ce4bhg12rcd13ifvqf80","pricing_plan_id":"cebpf4jnsgd1na2vs0mg"},{"bike_id":"b7bacdc8-fe24-419d-a1a7-194cc9df7143","system_id":"levelo_inurba_marseille","lat":43.24996,"lon":5.38933,"is_reserved":false,"is_disabled":false,"rental_uris":{"android":"levelo://app?vid=b7bacdc8-fe24-419d-a1a7-194cc9df7143","ios":"levelo://app?vid=b7bacdc8-fe24-419d-a1a7-194cc9df7143"},"vehicle_type_id":"4","last_reported":1762518062,"current_range_meters":6000,"station_id":"ce4bhgp2rcd13ifvqfd0","pricing_plan_id":"cebpf4jnsgd1na2vs0mg"},{"bike_id":"f3eadd45-5b60-4c17-bbc4-678d1d3be3f0","system_id":"levelo_inurba_marseille","lat":43.30189,"lon":5.36622,"is_reserved":false,"is_disabled":false,"rental_uris":{"android":"levelo://app?vid=f3eadd45-5b60-4c17-bbc4-678d1d3be3f0","ios":"levelo://app?vid=f3eadd45-5b60-4c17-bbc4-678d1d3be3f0"},"vehicle_type_id":"4","last_reported":1762518062,"current_range_meters":6000,"station_id":"ce4bgrh2rcd13ifvqc8g","pricing_plan_id":"cebpf4jnsgd1na2vs0mg"},{"bike_id":"2d116c56-b87b-44a1-acde-9034b9d70d1a","system_id":"levelo_inurba_marseille","lat":43.26552,"lon":5.37289,"is_reserved":false,"is_disabled":false,"rental_uris":{"android":"levelo://app?vid=2d116c56-b87b-44a1-acde-9034b9d70d1a","ios":"levelo://app?vid=2d116c56-b87b-44a1-acde-9034b9d70d1a"},"vehicle_type_id":"4","last_reported":1762518062,"current_range_meters":6000,"station_id":"ce4bhg12rcd13ifvqf70","pricing_plan_id":"cebpf4jnsgd1na2vs0mg"},{"bike_id":"00065666-b382-40c8-87f2-d52ded706b03","system_id":"levelo_inurba_marseille","lat":43.30183,"lon":5.3919,"is_reserved":false,"is_disabled":false,"rental_uris":{"android":"levelo://app?vid=00065666-b382-40c8-87f2-d52ded706b03","ios":"levelo://app?vid=00065666-b382-40c8-87f2-d52ded706b03"},"vehicle_type_id":"4","last_reported":1762518062,"current_range_meters":6400,"station_id":"","pricing_plan_id":"cebpf4jnsgd1na2vs0mg"},{"bike_id":"d63e2b4b-5ac2-4d08-9660-82891f74dabe","system_id":"levelo_inurba_marseille","lat":43.26555,"lon":5.37283,"is_reserved":false,"is_disabled":false,"rental_uris":{"android":"levelo://app?vid=d63e2b4b-5ac2-4d08-9660-82891f74dabe","ios":"levelo://app?vid=d63e2b4b-5ac2-4d08-9660-82891f74dabe"},"vehicle_type_id":"4","last_reported":1762518062,"current_range_meters":6400,"station_id":"ce4bhg12rcd13ifvqf70","pricing_plan_id":"cebpf4jnsgd1na2vs0mg"},{"bike_id":"88eeda10-3d91-4ac1-9c71-9c517dde034b","system_id":"levelo_inurba_marseille","lat":43.2721,"lon":5.39174,"is_reserved":false,"is_disabled":false,"rental_uris":{"android":"levelo://app?vid=88eeda10-3d91-4ac1-9c71-9c517dde034b","ios":"levelo://app?vid=88eeda10-3d91-4ac1-9c71-9c517dde034b"},"vehicle_type_id":"4","last_reported":1762518062,"current_range_meters":6400,"station_id":"ce4bhhp2rcd13ifvqfm0","pricing_plan_id":"cebpf4jnsgd1na2vs0mg"},{"bike_id":"a1b1c01c-e4b8-4603-9cba-d83fcd8e4b96","system_id":"levelo_inurba_marseille","lat":43.29043,"lon":5.39959,"is_reserved":false,"is_disabled":false,"rental_uris":{"android":"levelo://app?vid=a1b1c01c-e4b8-4603-9cba-d83fcd8e4b96","ios":"levelo://app?vid=a1b1c01c-e4b8-4603-9cba-d83fcd8e4b96"},"vehicle_type_id":"4","last_reported":1762518062,"current_range_meters":6800,"station_id":"ce4bh392rcd13ifvqdm0","pricing_plan_id":"cebpf4jnsgd1na2vs0mg"},{"bike_id":"1429fa01-256c-4037-bf14-f7e4da268e66","system_id":"levelo_inurba_marseille","lat":43.29906,"lon":5.37471,"is_reserved":false,"is_disabled":false,"rental_uris":{"android":"levelo://app?vid=1429fa01-256c-4037-bf14-f7e4da268e66","ios":"levelo://app?vid=1429fa01-256c-4037-bf14-f7e4da268e66"},"vehicle_type_id":"4","last_reported":1762518062,"current_range_meters":6800,"station_id":"ce4bgjh2rcd13ifvqbg0","pricing_plan_id":"cebpf4jnsgd1na2vs0mg"},{"bike_id":"aeef36c3-4fc9-4d7f-ad59-b016d63a2a2e","system_id":"levelo_inurba_marseille","lat":43.337444,"lon":5.374475,"is_reserved":false,"is_disabled":false,"rental_uris":{"android":"levelo://app?vid=aeef36c3-4fc9-4d7f-ad59-b016d63a2a2e","ios":"levelo://app?vid=aeef36c3-4fc9-4d7f-ad59-b016d63a2a2e"},"vehicle_type_id":"4","last_reported":1762518062,"current_range_meters":6800,"station_id":"ce4bgqh2rcd13ifvqc5g","pricing_plan_id":"cebpf4jnsgd1na2vs0mg"},{"bike_id":"d2409660-181e-42b6-8dbe-eacff3578e50","system_id":"levelo_inurba_marseille","lat":43.28482,"lon":5.38417,"is_reserved":false,"is_disabled":false,"rental_uris":{"android":"levelo://app?vid=d2409660-181e-42b6-8dbe-eacff3578e50","ios":"levelo://app?vid=d2409660-181e-42b6-8dbe-eacff3578e50"},"vehicle_type_id":"4","last_reported":1762518062,"current_range_meters":6800,"station_id":"ce4bh512rcd13ifvqe3g","pricing_plan_id":"cebpf4jnsgd1na2vs0mg"},{"bike_id":"a6b5c354-bbc4-46b2-9356-4b84838966f9","system_id":"levelo_inurba_marseille","lat":43.30681,"lon":5.40344,"is_reserved":false,"is_disabled":false,"rental_uris":{"android":"levelo://app?vid=a6b5c354-bbc4-46b2-9356-4b84838966f9","ios":"levelo://app?vid=a6b5c354-bbc4-46b2-9356-4b84838966f9"},"vehicle_type_id":"4","last_reported":1762518062,"current_range_meters":6800,"station_id":"","pricing_plan_id":"cebpf4jnsgd1na2vs0mg"},{"bike_id":"81dcc136-dea2-46c0-98af-42dbdee92b54","system_id":"levelo_inurba_marseille","lat":43.28476,"lon":5.483875,"is_reserved":false,"is_disabled":false,"rental_uris":{"android":"levelo://app?vid=81dcc136-dea2-46c0-98af-42dbdee92b54","ios":"levelo://app?vid=81dcc136-dea2-46c0-98af-42dbdee92b54"},"vehicle_type_id":"4","last_reported":1762518062,"current_range_meters":6800,"station_id":"","pricing_plan_id":"cebpf4jnsgd1na2vs0mg"},{"bike_id":"e801309f-63fd-43ec-a3dc-713c291627ad","system_id":"levelo_inurba_marseille","lat":43.29102,"lon":5.38127,"is_reserved":false,"is_disabled":false,"rental_uris":{"android":"levelo://app?vid=e801309f-63fd-43ec-a3dc-713c291627ad","ios":"levelo://app?vid=e801309f-63fd-43ec-a3dc-713c291627ad"},"vehicle_type_id":"4","last_reported":1762518062,"current_range_meters":6800,"station_id":"ce4bh512rcd13ifvqe2g","pricing_plan_id":"cebpf4jnsgd1na2vs0mg"},{"bike_id":"d012c465-cdb7-4003-9985-594ee89d6969","system_id":"levelo_inurba_marseille","lat":43.278858,"lon":5.405513,"is_reserved":false,"is_disabled":false,"rental_uris":{"android":"levelo://app?vid=d012c465-cdb7-4003-9985-594ee89d6969","ios":"levelo://app?vid=d012c465-cdb7-4003-9985-594ee89d6969"},"vehicle_type_id":"4","last_reported":1762518062,"current_range_meters":6800,"station_id":"ce4bhnh2rcd13ifvqgtg","pricing_plan_id":"cebpf4jnsgd1na2vs0mg"},{"bike_id":"efc9b75c-5580-4fe4-b010-05fdbfef4d2e","system_id":"levelo_inurba_marseille","lat":43.26573,"lon":5.39008,"is_reserved":false,"is_disabled":false,"rental_uris":{"android":"levelo://app?vid=efc9b75c-5580-4fe4-b010-05fdbfef4d2e","ios":"levelo://app?vid=efc9b75c-5580-4fe4-b010-05fdbfef4d2e"},"vehicle_type_id":"4","last_reported":1762518062,"current_range_meters":6800,"station_id":"ce4bhe12rcd13ifvqf30","pricing_plan_id":"cebpf4jnsgd1na2vs0mg"},{"bike_id":"16536794-597a-4f67-b2d1-c8fb057cc244","system_id":"levelo_inurba_marseille","lat":43.29094,"lon":5.3813,"is_reserved":false,"is_disabled":false,"rental_uris":{"android":"levelo://app?vid=16536794-597a-4f67-b2d1-c8fb057cc244","ios":"levelo://app?vid=16536794-597a-4f67-b2d1-c8fb057cc244"},"vehicle_type_id":"4","last_reported":1762518062,"current_range_meters":7200,"station_id":"ce4bh512rcd13ifvqe2g","pricing_plan_id":"cebpf4jnsgd1na2vs0mg"},{"bike_id":"6e9601c8-3a9b-4c4f-8a50-e778f7d9a229","system_id":"levelo_inurba_marseille","lat":43.29932,"lon":5.36569,"is_reserved":false,"is_disabled":false,"rental_uris":{"android":"levelo://app?vid=6e9601c8-3a9b-4c4f-8a50-e778f7d9a229","ios":"levelo://app?vid=6e9601c8-3a9b-4c4f-8a50-e778f7d9a229"},"vehicle_type_id":"4","last_reported":1762518062,"current_range_meters":7200,"station_id":"ce4bgm92rcd13ifvqbr0","pricing_plan_id":"cebpf4jnsgd1na2vs0mg"},{"bike_id":"7cfd895d-ac07-4659-8cbf-b904095aa855","system_id":"levelo_inurba_marseille","lat":43.28614,"lon":5.35104,"is_reserved":false,"is_disabled":false,"rental_uris":{"android":"levelo://app?vid=7cfd895d-ac07-4659-8cbf-b904095aa855","ios":"levelo://app?vid=7cfd895d-ac07-4659-8cbf-b904095aa855"},"vehicle_type_id":"4","last_reported":1762518062,"current_range_meters":7200,"station_id":"ce4bhch2rcd13ifvqeug","pricing_plan_id":"cebpf4jnsgd1na2vs0mg"},{"bike_id":"6f8be490-fbd4-4e32-be34-b25a27b465ad","system_id":"levelo_inurba_marseille","lat":43.25925,"lon":5.40926,"is_reserved":false,"is_disabled":false,"rental_uris":{"android":"levelo://app?vid=6f8be490-fbd4-4e32-be34-b25a27b465ad","ios":"levelo://app?vid=6f8be490-fbd4-4e32-be34-b25a27b465ad"},"vehicle_type_id":"4","last_reported":1762518062,"current_range_meters":7200,"station_id":"ce4bhm92rcd13ifvqglg","pricing_plan_id":"cebpf4jnsgd1na2vs0mg"},{"bike_id":"faf02dba-a063-4be7-b738-20d510b602ef","system_id":"levelo_inurba_marseille","lat":43.298214,"lon":5.382894,"is_reserved":false,"is_disabled":false,"rental_uris":{"android":"levelo://app?vid=faf02dba-a063-4be7-b738-20d510b602ef","ios":"levelo://app?vid=faf02dba-a063-4be7-b738-20d510b602ef"},"vehicle_type_id":"4","last_reported":1762518062,"current_range_meters":7200,"station_id":"","pricing_plan_id":"cebpf4jnsgd1na2vs0mg"},{"bike_id":"278da52f-952b-4e8b-bd2c-ed938d569e58","system_id":"levelo_inurba_marseille","lat":43.30541,"lon":5.36716,"is_reserved":false,"is_disabled":false,"rental_uris":{"android":"levelo://app?vid=278da52f-952b-4e8b-bd2c-ed938d569e58","ios":"levelo://app?vid=278da52f-952b-4e8b-bd2c-ed938d569e58"},"vehicle_type_id":"4","last_reported":1762518062,"current_range_meters":7200,"station_id":"ce4bgrp2rcd13ifvqc9g","pricing_plan_id":"cebpf4jnsgd1na2vs0mg"},{"bike_id":"127069fc-0b0b-40d3-8236-46db95e6035f","system_id":"levelo_inurba_marseille","lat":43.30526,"lon":5.36522,"is_reserved":false,"is_disabled":false,"rental_uris":{"android":"levelo://app?vid=127069fc-0b0b-40d3-8236-46db95e6035f","ios":"levelo://app?vid=127069fc-0b0b-40d3-8236-46db95e6035f"},"vehicle_type_id":"4","last_reported":1762518062,"current_range_meters":7200,"station_id":"ce4bgs12rcd13ifvqcag","pricing_plan_id":"cebpf4jnsgd1na2vs0mg"},{"bike_id":"f8fd6d69-23e2-4808-9815-5680c0ea9021","system_id":"levelo_inurba_marseille","lat":43.29303,"lon":5.37171,"is_reserved":false,"is_disabled":false,"rental_uris":{"android":"levelo://app?vid=f8fd6d69-23e2-4808-9815-5680c0ea9021","ios":"levelo://app?vid=f8fd6d69-23e2-4808-9815-5680c0ea9021"},"vehicle_type_id":"4","last_reported":1762518062,"current_range_meters":8000,"station_id":"ce4bgh92rcd13ifvqb40","pricing_plan_id":"cebpf4jnsgd1na2vs0mg"},{"bike_id":"524ec682-9eda-4766-ab30-300116a67d10","system_id":"levelo_inurba_marseille","lat":43.30819,"lon":5.37135,"is_reserved":false,"is_disabled":false,"rental_uris":{"android":"levelo://app?vid=524ec682-9eda-4766-ab30-300116a67d10","ios":"levelo://app?vid=524ec682-9eda-4766-ab30-300116a67d10"},"vehicle_type_id":"4","last_reported":1762518062,"current_range_meters":8000,"station_id":"","pricing_plan_id":"cebpf4jnsgd1na2vs0mg"},{"bike_id":"2bf36e34-bd92-48f5-8dea-90c768c096ad","system_id":"levelo_inurba_marseille","lat":43.23179,"lon":5.39985,"is_reserved":false,"is_disabled":false,"rental_uris":{"android":"levelo://app?vid=2bf36e34-bd92-48f5-8dea-90c768c096ad","ios":"levelo://app?vid=2bf36e34-bd92-48f5-8dea-90c768c096ad"},"vehicle_type_id":"4","last_reported":1762518062,"current_range_meters":8000,"station_id":"ce4bhn12rcd13ifvqgqg","pricing_plan_id":"cebpf4jnsgd1na2vs0mg"},{"bike_id":"dc5c7b7c-9f2e-4ddb-8395-78aeeb30bf5d","system_id":"levelo_inurba_marseille","lat":43.301885,"lon":5.375228,"is_reserved":false,"is_disabled":false,"rental_uris":{"android":"levelo://app?vid=dc5c7b7c-9f2e-4ddb-8395-78aeeb30bf5d","ios":"levelo://app?vid=dc5c7b7c-9f2e-4ddb-8395-78aeeb30bf5d"},"vehicle_type_id":"4","last_reported":1762518062,"current_range_meters":8000,"station_id":"ce4bguh2rcd13ifvqcj0","pricing_plan_id":"cebpf4jnsgd1na2vs0mg"},{"bike_id":"71967476-752a-4f5e-b222-99c0eea95f39","system_id":"levelo_inurba_marseille","lat":43.323208,"lon":5.384094,"is_reserved":false,"is_disabled":false,"rental_uris":{"android":"levelo://app?vid=71967476-752a-4f5e-b222-99c0eea95f39","ios":"levelo://app?vid=71967476-752a-4f5e-b222-99c0eea95f39"},"vehicle_type_id":"4","last_reported":1762518062,"current_range_meters":8000,"station_id":"","pricing_plan_id":"cebpf4jnsgd1na2vs0mg"},{"bike_id":"74a83f19-4620-4517-be1e-697db6f72f0b","system_id":"levelo_inurba_marseille","lat":43.32343,"lon":5.36728,"is_reserved":false,"is_disabled":false,"rental_uris":{"android":"levelo://app?vid=74a83f19-4620-4517-be1e-697db6f72f0b","ios":"levelo://app?vid=74a83f19-4620-4517-be1e-697db6f72f0b"},"vehicle_type_id":"4","last_reported":1762518062,"current_range_meters":8000,"station_id":"ce4bhsh2rcd13ifvqi2g","pricing_plan_id":"cebpf4jnsgd1na2vs0mg"},{"bike_id":"78a2ab8f-4f7c-4ddc-9701-1001c917a1ce","system_id":"levelo_inurba_marseille","lat":43.29658,"lon":5.42483,"is_reserved":false,"is_disabled":true,"rental_uris":{"android":"levelo://app?vid=78a2ab8f-4f7c-4ddc-9701-1001c917a1ce","ios":"levelo://app?vid=78a2ab8f-4f7c-4ddc-9701-1001c917a1ce"},"vehicle_type_id":"4","last_reported":1762518062,"current_range_meters":8000,"station_id":"","pricing_plan_id":"cebpf4jnsgd1na2vs0mg"},{"bike_id":"2f5f9704-99b6-4693-bf1a-38051893d58d","system_id":"levelo_inurba_marseille","lat":43.296202,"lon":5.371657,"is_reserved":false,"is_disabled":false,"rental_uris":{"android":"levelo://app?vid=2f5f9704-99b6-4693-bf1a-38051893d58d","ios":"levelo://app?vid=2f5f9704-99b6-4693-bf1a-38051893d58d"},"vehicle_type_id":"4","last_reported":1762518062,"current_range_meters":8400,"station_id":"ce4bgnh2rcd13ifvqc0g","pricing_plan_id":"cebpf4jnsgd1na2vs0mg"},{"bike_id":"596ceb5a-bde7-43f1-b394-2fa2b7923b03","system_id":"levelo_inurba_marseille","lat":43.30326,"lon":5.4043,"is_reserved":false,"is_disabled":false,"rental_uris":{"android":"levelo://app?vid=596ceb5a-bde7-43f1-b394-2fa2b7923b03","ios":"levelo://app?vid=596ceb5a-bde7-43f1-b394-2fa2b7923b03"},"vehicle_type_id":"4","last_reported":1762518062,"current_range_meters":8800,"station_id":"ce4bh012rcd13ifvqd10","pricing_plan_id":"cebpf4jnsgd1na2vs0mg"},{"bike_id":"106a28ac-3911-445c-b5df-7b6bc07969e6","system_id":"levelo_inurba_marseille","lat":43.26497,"lon":5.39538,"is_reserved":false,"is_disabled":false,"rental_uris":{"android":"levelo://app?vid=106a28ac-3911-445c-b5df-7b6bc07969e6","ios":"levelo://app?vid=106a28ac-3911-445c-b5df-7b6bc07969e6"},"vehicle_type_id":"4","last_reported":1762518062,"current_range_meters":8800,"station_id":"ce4bhi12rcd13ifvqfq0","pricing_plan_id":"cebpf4jnsgd1na2vs0mg"},{"bike_id":"e6439787-6dc3-4f99-a81b-4b26017fc920","system_id":"levelo_inurba_marseille","lat":43.29296,"lon":5.37457,"is_reserved":false,"is_disabled":false,"rental_uris":{"android":"levelo://app?vid=e6439787-6dc3-4f99-a81b-4b26017fc920","ios":"levelo://app?vid=e6439787-6dc3-4f99-a81b-4b26017fc920"},"vehicle_type_id":"4","last_reported":1762518062,"current_range_meters":8800,"station_id":"ce4bgi12rcd13ifvqb70","pricing_plan_id":"cebpf4jnsgd1na2vs0mg"},{"bike_id":"59b31ef2-3fe3-46e5-b5a5-685f264695ce","system_id":"levelo_inurba_marseille","lat":43.28491,"lon":5.4838,"is_reserved":false,"is_disabled":false,"rental_uris":{"android":"levelo://app?vid=59b31ef2-3fe3-46e5-b5a5-685f264695ce","ios":"levelo://app?vid=59b31ef2-3fe3-46e5-b5a5-685f264695ce"},"vehicle_type_id":"4","last_reported":1762518062,"current_range_meters":8800,"station_id":"","pricing_plan_id":"cebpf4jnsgd1na2vs0mg"},{"bike_id":"3ffe2c7b-f27f-49bd-95c3-0ecfbf0880d2","system_id":"levelo_inurba_marseille","lat":43.30703,"lon":5.38431,"is_reserved":false,"is_disabled":false,"rental_uris":{"android":"levelo://app?vid=3ffe2c7b-f27f-49bd-95c3-0ecfbf0880d2","ios":"levelo://app?vid=3ffe2c7b-f27f-49bd-95c3-0ecfbf0880d2"},"vehicle_type_id":"4","last_reported":1762518062,"current_range_meters":8800,"station_id":"","pricing_plan_id":"cebpf4jnsgd1na2vs0mg"},{"bike_id":"5291e761-ad82-4fd6-b404-f3d844156ec1","system_id":"levelo_inurba_marseille","lat":43.23185,"lon":5.399915,"is_reserved":false,"is_disabled":false,"rental_uris":{"android":"levelo://app?vid=5291e761-ad82-4fd6-b404-f3d844156ec1","ios":"levelo://app?vid=5291e761-ad82-4fd6-b404-f3d844156ec1"},"vehicle_type_id":"4","last_reported":1762518062,"current_range_meters":8800,"station_id":"ce4bhn12rcd13ifvqgqg","pricing_plan_id":"cebpf4jnsgd1na2vs0mg"},{"bike_id":"be35adea-aa4e-429a-b235-707eab222fa2","system_id":"levelo_inurba_marseille","lat":43.282709,"lon":5.350528,"is_reserved":false,"is_disabled":true,"rental_uris":{"android":"levelo://app?vid=be35adea-aa4e-429a-b235-707eab222fa2","ios":"levelo://app?vid=be35adea-aa4e-429a-b235-707eab222fa2"},"vehicle_type_id":"4","last_reported":1762518062,"current_range_meters":9200,"station_id":"ce4bhbp2rcd13ifvqerg","pricing_plan_id":"cebpf4jnsgd1na2vs0mg"},{"bike_id":"ab3a4d6b-b442-44b9-8f02-c1c222f445ba","system_id":"levelo_inurba_marseille","lat":43.274521,"lon":5.392654,"is_reserved":false,"is_disabled":false,"rental_uris":{"android":"levelo://app?vid=ab3a4d6b-b442-44b9-8f02-c1c222f445ba","ios":"levelo://app?vid=ab3a4d6b-b442-44b9-8f02-c1c222f445ba"},"vehicle_type_id":"4","last_reported":1762518062,"current_range_meters":9200,"station_id":"","pricing_plan_id":"cebpf4jnsgd1na2vs0mg"},{"bike_id":"4eb1198b-5ee5-432a-9cc9-a19aa9ba44c5","system_id":"levelo_inurba_marseille","lat":43.30526,"lon":5.36547,"is_reserved":false,"is_disabled":false,"rental_uris":{"android":"levelo://app?vid=4eb1198b-5ee5-432a-9cc9-a19aa9ba44c5","ios":"levelo://app?vid=4eb1198b-5ee5-432a-9cc9-a19aa9ba44c5"},"vehicle_type_id":"4","last_reported":1762518062,"current_range_meters":9200,"station_id":"ce4bgs12rcd13ifvqcag","pricing_plan_id":"cebpf4jnsgd1na2vs0mg"},{"bike_id":"10091c97-a7c3-4931-b435-1726be8d5e2a","system_id":"levelo_inurba_marseille","lat":43.29032,"lon":5.38132,"is_reserved":false,"is_disabled":false,"rental_uris":{"android":"levelo://app?vid=10091c97-a7c3-4931-b435-1726be8d5e2a","ios":"levelo://app?vid=10091c97-a7c3-4931-b435-1726be8d5e2a"},"vehicle_type_id":"4","last_reported":1762518062,"current_range_meters":9200,"station_id":"ce4bh4p2rcd13ifvqe1g","pricing_plan_id":"cebpf4jnsgd1na2vs0mg"},{"bike_id":"aa073d3c-91f3-4920-9d1e-90bf82850b1e","system_id":"levelo_inurba_marseille","lat":43.337652,"lon":5.374393,"is_reserved":false,"is_disabled":false,"rental_uris":{"android":"levelo://app?vid=aa073d3c-91f3-4920-9d1e-90bf82850b1e","ios":"levelo://app?vid=aa073d3c-91f3-4920-9d1e-90bf82850b1e"},"vehicle_type_id":"4","last_reported":1762518062,"current_range_meters":9200,"station_id":"","pricing_plan_id":"cebpf4jnsgd1na2vs0mg"},{"bike_id":"bceab136-953a-4f70-8d1b-53de0dc52351","system_id":"levelo_inurba_marseille","lat":43.23103,"lon":5.43771,"is_reserved":false,"is_disabled":false,"rental_uris":{"android":"levelo://app?vid=bceab136-953a-4f70-8d1b-53de0dc52351","ios":"levelo://app?vid=bceab136-953a-4f70-8d1b-53de0dc52351"},"vehicle_type_id":"4","last_reported":1762518062,"current_range_meters":9200,"station_id":"","pricing_plan_id":"cebpf4jnsgd1na2vs0mg"},{"bike_id":"957dedc2-44bd-40ee-a718-ca0ffd0efaef","system_id":"levelo_inurba_marseille","lat":43.27651,"lon":5.38917,"is_reserved":false,"is_disabled":true,"rental_uris":{"android":"levelo://app?vid=957dedc2-44bd-40ee-a718-ca0ffd0efaef","ios":"levelo://app?vid=957dedc2-44bd-40ee-a718-ca0ffd0efaef"},"vehicle_type_id":"4","last_reported":1762518062,"current_range_meters":9600,"station_id":"ce4bhi12rcd13ifvqfo0","pricing_plan_id":"cebpf4jnsgd1na2vs0mg"},{"bike_id":"319ffc4e-7711-40e6-a5bd-4d90d7a995da","system_id":"levelo_inurba_marseille","lat":43.3108,"lon":5.42427,"is_reserved":false,"is_disabled":false,"rental_uris":{"android":"levelo://app?vid=319ffc4e-7711-40e6-a5bd-4d90d7a995da","ios":"levelo://app?vid=319ffc4e-7711-40e6-a5bd-4d90d7a995da"},"vehicle_type_id":"4","last_reported":1762518062,"current_range_meters":9600,"station_id":"ce4bhp92rcd13ifvqhag","pricing_plan_id":"cebpf4jnsgd1na2vs0mg"},{"bike_id":"62b597ad-0183-45ab-83ea-6b1f25540269","system_id":"levelo_inurba_marseille","lat":43.32751,"lon":5.45212,"is_reserved":false,"is_disabled":false,"rental_uris":{"android":"levelo://app?vid=62b597ad-0183-45ab-83ea-6b1f25540269","ios":"levelo://app?vid=62b597ad-0183-45ab-83ea-6b1f25540269"},"vehicle_type_id":"4","last_reported":1762518062,"current_range_meters":9600,"station_id":"","pricing_plan_id":"cebpf4jnsgd1na2vs0mg"},{"bike_id":"cf546126-4294-4c83-8d9f-f5cb2b26d32d","system_id":"levelo_inurba_marseille","lat":43.30466,"lon":5.37903,"is_reserved":false,"is_disabled":false,"rental_uris":{"android":"levelo://app?vid=cf546126-4294-4c83-8d9f-f5cb2b26d32d","ios":"levelo://app?vid=cf546126-4294-4c83-8d9f-f5cb2b26d32d"},"vehicle_type_id":"4","last_reported":1762518062,"current_range_meters":9600,"station_id":"ce4bgup2rcd13ifvqcn0","pricing_plan_id":"cebpf4jnsgd1na2vs0mg"},{"bike_id":"aa476944-7152-4c5d-b42c-efeffe5b0337","system_id":"levelo_inurba_marseille","lat":43.27982,"lon":5.3874,"is_reserved":false,"is_disabled":false,"rental_uris":{"android":"levelo://app?vid=aa476944-7152-4c5d-b42c-efeffe5b0337","ios":"levelo://app?vid=aa476944-7152-4c5d-b42c-efeffe5b0337"},"vehicle_type_id":"4","last_reported":1762518062,"current_range_meters":9600,"station_id":"ce4bhg12rcd13ifvqf80","pricing_plan_id":"cebpf4jnsgd1na2vs0mg"},{"bike_id":"3df6bfda-db80-475a-88ab-b10a24ae6e4f","system_id":"levelo_inurba_marseille","lat":43.2318,"lon":5.39986,"is_reserved":false,"is_disabled":false,"rental_uris":{"android":"levelo://app?vid=3df6bfda-db80-475a-88ab-b10a24ae6e4f","ios":"levelo://app?vid=3df6bfda-db80-475a-88ab-b10a24ae6e4f"},"vehicle_type_id":"4","last_reported":1762518062,"current_range_meters":10000,"station_id":"ce4bhn12rcd13ifvqgqg","pricing_plan_id":"cebpf4jnsgd1na2vs0mg"},{"bike_id":"3963e6f3-0ad9-443b-8490-013ffbc76d1b","system_id":"levelo_inurba_marseille","lat":43.30337,"lon":5.40431,"is_reserved":false,"is_disabled":false,"rental_uris":{"android":"levelo://app?vid=3963e6f3-0ad9-443b-8490-013ffbc76d1b","ios":"levelo://app?vid=3963e6f3-0ad9-443b-8490-013ffbc76d1b"},"vehicle_type_id":"4","last_reported":1762518062,"current_range_meters":10000,"station_id":"ce4bh012rcd13ifvqd10","pricing_plan_id":"cebpf4jnsgd1na2vs0mg"},{"bike_id":"1c1406c3-ccbf-4c7e-948d-af3d562996c8","system_id":"levelo_inurba_marseille","lat":43.29813,"lon":5.44065,"is_reserved":false,"is_disabled":false,"rental_uris":{"android":"levelo://app?vid=1c1406c3-ccbf-4c7e-948d-af3d562996c8","ios":"levelo://app?vid=1c1406c3-ccbf-4c7e-948d-af3d562996c8"},"vehicle_type_id":"4","last_reported":1762518062,"current_range_meters":10000,"station_id":"st_d3jp68qikq2c7381ktn0","pricing_plan_id":"cebpf4jnsgd1na2vs0mg"},{"bike_id":"5368198b-d43d-42dc-9d96-75407f2494fe","system_id":"levelo_inurba_marseille","lat":43.246429,"lon":5.388898,"is_reserved":false,"is_disabled":false,"rental_uris":{"android":"levelo://app?vid=5368198b-d43d-42dc-9d96-75407f2494fe","ios":"levelo://app?vid=5368198b-d43d-42dc-9d96-75407f2494fe"},"vehicle_type_id":"4","last_reported":1762518062,"current_range_meters":10000,"station_id":"","pricing_plan_id":"cebpf4jnsgd1na2vs0mg"},{"bike_id":"1e89aa19-8456-4398-b70e-ce2874dd6d89","system_id":"levelo_inurba_marseille","lat":43.21551,"lon":5.34449,"is_reserved":false,"is_disabled":false,"rental_uris":{"android":"levelo://app?vid=1e89aa19-8456-4398-b70e-ce2874dd6d89","ios":"levelo://app?vid=1e89aa19-8456-4398-b70e-ce2874dd6d89"},"vehicle_type_id":"4","last_reported":1762518062,"current_range_meters":10000,"station_id":"","pricing_plan_id":"cebpf4jnsgd1na2vs0mg"},{"bike_id":"f9a84438-123e-4caa-9547-9df9964b1ae5","system_id":"levelo_inurba_marseille","lat":43.33599,"lon":5.41027,"is_reserved":false,"is_disabled":false,"rental_uris":{"android":"levelo://app?vid=f9a84438-123e-4caa-9547-9df9964b1ae5","ios":"levelo://app?vid=f9a84438-123e-4caa-9547-9df9964b1ae5"},"vehicle_type_id":"4","last_reported":1762518062,"current_range_meters":10000,"station_id":"ce4bhqh2rcd13ifvqhmg","pricing_plan_id":"cebpf4jnsgd1na2vs0mg"},{"bike_id":"f836077b-742e-4239-bef2-34e1fd9f23b4","system_id":"levelo_inurba_marseille","lat":43.29508,"lon":5.39401,"is_reserved":false,"is_disabled":false,"rental_uris":{"android":"levelo://app?vid=f836077b-742e-4239-bef2-34e1fd9f23b4","ios":"levelo://app?vid=f836077b-742e-4239-bef2-34e1fd9f23b4"},"vehicle_type_id":"4","last_reported":1762518062,"current_range_meters":10000,"station_id":"ce4bh292rcd13ifvqdf0","pricing_plan_id":"cebpf4jnsgd1na2vs0mg"},{"bike_id":"2d487ed6-0b70-4418-af8a-39c6a90fced4","system_id":"levelo_inurba_marseille","lat":43.26559,"lon":5.37287,"is_reserved":false,"is_disabled":false,"rental_uris":{"android":"levelo://app?vid=2d487ed6-0b70-4418-af8a-39c6a90fced4","ios":"levelo://app?vid=2d487ed6-0b70-4418-af8a-39c6a90fced4"},"vehicle_type_id":"4","last_reported":1762518062,"current_range_meters":10000,"station_id":"ce4bhg12rcd13ifvqf70","pricing_plan_id":"cebpf4jnsgd1na2vs0mg"},{"bike_id":"81c176cb-3f38-4f06-8196-5e14f46cabff","system_id":"levelo_inurba_marseille","lat":43.30289,"lon":5.37696,"is_reserved":false,"is_disabled":false,"rental_uris":{"android":"levelo://app?vid=81c176cb-3f38-4f06-8196-5e14f46cabff","ios":"levelo://app?vid=81c176cb-3f38-4f06-8196-5e14f46cabff"},"vehicle_type_id":"4","last_reported":1762518062,"current_range_meters":10000,"station_id":"ce4bguh2rcd13ifvqcj0","pricing_plan_id":"cebpf4jnsgd1na2vs0mg"},{"bike_id":"af21ff5a-01f2-4099-8fc5-31cb4e3e5cf2","system_id":"levelo_inurba_marseille","lat":43.28697,"lon":5.351814,"is_reserved":false,"is_disabled":false,"rental_uris":{"android":"levelo://app?vid=af21ff5a-01f2-4099-8fc5-31cb4e3e5cf2","ios":"levelo://app?vid=af21ff5a-01f2-4099-8fc5-31cb4e3e5cf2"},"vehicle_type_id":"4","last_reported":1762518062,"current_range_meters":10800,"station_id":"ce4bhb92rcd13ifvqen0","pricing_plan_id":"cebpf4jnsgd1na2vs0mg"},{"bike_id":"0990d13d-02e1-4e54-9d32-bff81dbbfd6f","system_id":"levelo_inurba_marseille","lat":43.30135,"lon":5.37406,"is_reserved":false,"is_disabled":false,"rental_uris":{"android":"levelo://app?vid=0990d13d-02e1-4e54-9d32-bff81dbbfd6f","ios":"levelo://app?vid=0990d13d-02e1-4e54-9d32-bff81dbbfd6f"},"vehicle_type_id":"4","last_reported":1762518062,"current_range_meters":10800,"station_id":"ce4bgs92rcd13ifvqcc0","pricing_plan_id":"cebpf4jnsgd1na2vs0mg"},{"bike_id":"0e20a5d9-0ab3-4e71-a3ef-c9be28fc5551","system_id":"levelo_inurba_marseille","lat":43.28543,"lon":5.44095,"is_reserved":false,"is_disabled":false,"rental_uris":{"android":"levelo://app?vid=0e20a5d9-0ab3-4e71-a3ef-c9be28fc5551","ios":"levelo://app?vid=0e20a5d9-0ab3-4e71-a3ef-c9be28fc5551"},"vehicle_type_id":"4","last_reported":1762518062,"current_range_meters":10800,"station_id":"st_d3j3df2ikq2c7380ej80","pricing_plan_id":"cebpf4jnsgd1na2vs0mg"},{"bike_id":"acd11f1f-a797-4d8a-ac97-7cfd85277af2","system_id":"levelo_inurba_marseille","lat":43.22929,"lon":5.35377,"is_reserved":false,"is_disabled":false,"rental_uris":{"android":"levelo://app?vid=acd11f1f-a797-4d8a-ac97-7cfd85277af2","ios":"levelo://app?vid=acd11f1f-a797-4d8a-ac97-7cfd85277af2"},"vehicle_type_id":"4","last_reported":1762518062,"current_range_meters":10800,"station_id":"cpo3532slgdg3j2ikp40","pricing_plan_id":"cebpf4jnsgd1na2vs0mg"},{"bike_id":"ffa5d8bc-dc29-442b-9bde-fb634315a3a0","system_id":"levelo_inurba_marseille","lat":43.29539,"lon":5.39038,"is_reserved":false,"is_disabled":false,"rental_uris":{"android":"levelo://app?vid=ffa5d8bc-dc29-442b-9bde-fb634315a3a0","ios":"levelo://app?vid=ffa5d8bc-dc29-442b-9bde-fb634315a3a0"},"vehicle_type_id":"4","last_reported":1762518062,"current_range_meters":10800,"station_id":"ce4bh3p2rcd13ifvqdp0","pricing_plan_id":"cebpf4jnsgd1na2vs0mg"},{"bike_id":"a5cc1c4d-d76a-4e1a-ae17-58958137ca5d","system_id":"levelo_inurba_marseille","lat":43.30595,"lon":5.37228,"is_reserved":false,"is_disabled":false,"rental_uris":{"android":"levelo://app?vid=a5cc1c4d-d76a-4e1a-ae17-58958137ca5d","ios":"levelo://app?vid=a5cc1c4d-d76a-4e1a-ae17-58958137ca5d"},"vehicle_type_id":"4","last_reported":1762518062,"current_range_meters":11200,"station_id":"ce4bgqh2rcd13ifvqc4g","pricing_plan_id":"cebpf4jnsgd1na2vs0mg"},{"bike_id":"b7f5030c-6b1e-4b5a-b7cc-633e21ce2eb3","system_id":"levelo_inurba_marseille","lat":43.27939,"lon":5.41046,"is_reserved":false,"is_disabled":false,"rental_uris":{"android":"levelo://app?vid=b7f5030c-6b1e-4b5a-b7cc-633e21ce2eb3","ios":"levelo://app?vid=b7f5030c-6b1e-4b5a-b7cc-633e21ce2eb3"},"vehicle_type_id":"4","last_reported":1762518062,"current_range_meters":11200,"station_id":"ce4bhnp2rcd13ifvqh0g","pricing_plan_id":"cebpf4jnsgd1na2vs0mg"},{"bike_id":"e09d71a1-91e8-40fe-bd95-7b2ba48cf59c","system_id":"levelo_inurba_marseille","lat":43.33303,"lon":5.36423,"is_reserved":false,"is_disabled":false,"rental_uris":{"android":"levelo://app?vid=e09d71a1-91e8-40fe-bd95-7b2ba48cf59c","ios":"levelo://app?vid=e09d71a1-91e8-40fe-bd95-7b2ba48cf59c"},"vehicle_type_id":"4","last_reported":1762518062,"current_range_meters":11200,"station_id":"","pricing_plan_id":"cebpf4jnsgd1na2vs0mg"},{"bike_id":"c07abe9e-82ff-4e65-96a5-c4cf6b8297d0","system_id":"levelo_inurba_marseille","lat":43.292642,"lon":5.376259,"is_reserved":false,"is_disabled":false,"rental_uris":{"android":"levelo://app?vid=c07abe9e-82ff-4e65-96a5-c4cf6b8297d0","ios":"levelo://app?vid=c07abe9e-82ff-4e65-96a5-c4cf6b8297d0"},"vehicle_type_id":"4","last_reported":1762518062,"current_range_meters":11200,"station_id":"ce4bgi12rcd13ifvqb80","pricing_plan_id":"cebpf4jnsgd1na2vs0mg"},{"bike_id":"b7b6a1c6-d86b-40f5-8181-a823f2813537","system_id":"levelo_inurba_marseille","lat":43.29531,"lon":5.39044,"is_reserved":false,"is_disabled":false,"rental_uris":{"android":"levelo://app?vid=b7b6a1c6-d86b-40f5-8181-a823f2813537","ios":"levelo://app?vid=b7b6a1c6-d86b-40f5-8181-a823f2813537"},"vehicle_type_id":"4","last_reported":1762518062,"current_range_meters":11200,"station_id":"ce4bh3p2rcd13ifvqdp0","pricing_plan_id":"cebpf4jnsgd1na2vs0mg"},{"bike_id":"fdef9327-beed-4f50-bbb2-578ade70fe76","system_id":"levelo_inurba_marseille","lat":43.29751,"lon":5.42796,"is_reserved":false,"is_disabled":false,"rental_uris":{"android":"levelo://app?vid=fdef9327-beed-4f50-bbb2-578ade70fe76","ios":"levelo://app?vid=fdef9327-beed-4f50-bbb2-578ade70fe76"},"vehicle_type_id":"4","last_reported":1762518062,"current_range_meters":11200,"station_id":"st_d3md5207bmas73dh9klg","pricing_plan_id":"cebpf4jnsgd1na2vs0mg"},{"bike_id":"2dc2b748-6133-4c98-85f8-ed7138b762a3","system_id":"levelo_inurba_marseille","lat":43.295154,"lon":5.390414,"is_reserved":false,"is_disabled":false,"rental_uris":{"android":"levelo://app?vid=2dc2b748-6133-4c98-85f8-ed7138b762a3","ios":"levelo://app?vid=2dc2b748-6133-4c98-85f8-ed7138b762a3"},"vehicle_type_id":"4","last_reported":1762518062,"current_range_meters":11600,"station_id":"ce4bh3p2rcd13ifvqdp0","pricing_plan_id":"cebpf4jnsgd1na2vs0mg"},{"bike_id":"711b5184-06a1-46c6-b1ad-270408b914a4","system_id":"levelo_inurba_marseille","lat":43.29995,"lon":5.40971,"is_reserved":false,"is_disabled":false,"rental_uris":{"android":"levelo://app?vid=711b5184-06a1-46c6-b1ad-270408b914a4","ios":"levelo://app?vid=711b5184-06a1-46c6-b1ad-270408b914a4"},"vehicle_type_id":"4","last_reported":1762518062,"current_range_meters":11600,"station_id":"","pricing_plan_id":"cebpf4jnsgd1na2vs0mg"},{"bike_id":"735af335-66bf-4340-87fb-78f795989dcc","system_id":"levelo_inurba_marseille","lat":43.29947,"lon":5.38241,"is_reserved":false,"is_disabled":false,"rental_uris":{"android":"levelo://app?vid=735af335-66bf-4340-87fb-78f795989dcc","ios":"levelo://app?vid=735af335-66bf-4340-87fb-78f795989dcc"},"vehicle_type_id":"4","last_reported":1762518062,"current_range_meters":11600,"station_id":"","pricing_plan_id":"cebpf4jnsgd1na2vs0mg"},{"bike_id":"b6d6ed38-4c87-427d-b530-709237f9a962","system_id":"levelo_inurba_marseille","lat":43.231527,"lon":5.437042,"is_reserved":false,"is_disabled":false,"rental_uris":{"android":"levelo://app?vid=b6d6ed38-4c87-427d-b530-709237f9a962","ios":"levelo://app?vid=b6d6ed38-4c87-427d-b530-709237f9a962"},"vehicle_type_id":"4","last_reported":1762518062,"current_range_meters":11600,"station_id":"ce4bhmp2rcd13ifvqgog","pricing_plan_id":"cebpf4jnsgd1na2vs0mg"},{"bike_id":"8df9b6f8-06c3-4a6b-b526-e0964b0b1f1b","system_id":"levelo_inurba_marseille","lat":43.30934,"lon":5.40148,"is_reserved":false,"is_disabled":false,"rental_uris":{"android":"levelo://app?vid=8df9b6f8-06c3-4a6b-b526-e0964b0b1f1b","ios":"levelo://app?vid=8df9b6f8-06c3-4a6b-b526-e0964b0b1f1b"},"vehicle_type_id":"4","last_reported":1762518062,"current_range_meters":11600,"station_id":"ce4bgvp2rcd13ifvqct0","pricing_plan_id":"cebpf4jnsgd1na2vs0mg"},{"bike_id":"8f01e68a-0a05-4db6-b791-b8beaba42366","system_id":"levelo_inurba_marseille","lat":43.2978,"lon":5.38105,"is_reserved":false,"is_disabled":false,"rental_uris":{"android":"levelo://app?vid=8f01e68a-0a05-4db6-b791-b8beaba42366","ios":"levelo://app?vid=8f01e68a-0a05-4db6-b791-b8beaba42366"},"vehicle_type_id":"4","last_reported":1762518062,"current_range_meters":12000,"station_id":"ce4bgip2rcd13ifvqbb0","pricing_plan_id":"cebpf4jnsgd1na2vs0mg"},{"bike_id":"527d7509-5999-455e-8049-aa10100ace62","system_id":"levelo_inurba_marseille","lat":43.29304,"lon":5.37467,"is_reserved":false,"is_disabled":false,"rental_uris":{"android":"levelo://app?vid=527d7509-5999-455e-8049-aa10100ace62","ios":"levelo://app?vid=527d7509-5999-455e-8049-aa10100ace62"},"vehicle_type_id":"4","last_reported":1762518062,"current_range_meters":12000,"station_id":"ce4bgi12rcd13ifvqb70","pricing_plan_id":"cebpf4jnsgd1na2vs0mg"},{"bike_id":"99f6d2f5-f0fe-4ac1-b0d7-2a94cac9a723","system_id":"levelo_inurba_marseille","lat":43.29043,"lon":5.39975,"is_reserved":false,"is_disabled":false,"rental_uris":{"android":"levelo://app?vid=99f6d2f5-f0fe-4ac1-b0d7-2a94cac9a723","ios":"levelo://app?vid=99f6d2f5-f0fe-4ac1-b0d7-2a94cac9a723"},"vehicle_type_id":"4","last_reported":1762518062,"current_range_meters":12000,"station_id":"ce4bh392rcd13ifvqdm0","pricing_plan_id":"cebpf4jnsgd1na2vs0mg"},{"bike_id":"bf54311a-6347-4b36-aaaf-ce1a0ecc323a","system_id":"levelo_inurba_marseille","lat":43.24171,"lon":5.36391,"is_reserved":false,"is_disabled":false,"rental_uris":{"android":"levelo://app?vid=bf54311a-6347-4b36-aaaf-ce1a0ecc323a","ios":"levelo://app?vid=bf54311a-6347-4b36-aaaf-ce1a0ecc323a"},"vehicle_type_id":"4","last_reported":1762518062,"current_range_meters":12000,"station_id":"cpo36qri1sfpv3e86is0","pricing_plan_id":"cebpf4jnsgd1na2vs0mg"},{"bike_id":"5bee8f0f-57fe-4257-a72a-04a4967570b5","system_id":"levelo_inurba_marseille","lat":43.30055,"lon":5.37708,"is_reserved":false,"is_disabled":false,"rental_uris":{"android":"levelo://app?vid=5bee8f0f-57fe-4257-a72a-04a4967570b5","ios":"levelo://app?vid=5bee8f0f-57fe-4257-a72a-04a4967570b5"},"vehicle_type_id":"4","last_reported":1762518062,"current_range_meters":12000,"station_id":"","pricing_plan_id":"cebpf4jnsgd1na2vs0mg"},{"bike_id":"df436567-b5dd-47ff-82cb-66b373039810","system_id":"levelo_inurba_marseille","lat":43.2593,"lon":5.40904,"is_reserved":false,"is_disabled":false,"rental_uris":{"android":"levelo://app?vid=df436567-b5dd-47ff-82cb-66b373039810","ios":"levelo://app?vid=df436567-b5dd-47ff-82cb-66b373039810"},"vehicle_type_id":"4","last_reported":1762518062,"current_range_meters":12400,"station_id":"ce4bhm92rcd13ifvqglg","pricing_plan_id":"cebpf4jnsgd1na2vs0mg"},{"bike_id":"7e50e8da-5299-4aa1-849c-f5ceadbf07e2","system_id":"levelo_inurba_marseille","lat":43.25568,"lon":5.38248,"is_reserved":false,"is_disabled":false,"rental_uris":{"android":"levelo://app?vid=7e50e8da-5299-4aa1-849c-f5ceadbf07e2","ios":"levelo://app?vid=7e50e8da-5299-4aa1-849c-f5ceadbf07e2"},"vehicle_type_id":"4","last_reported":1762518062,"current_range_meters":12400,"station_id":"ce4bhih2rcd13ifvqfs0","pricing_plan_id":"cebpf4jnsgd1na2vs0mg"},{"bike_id":"b795a457-d7fa-4350-a9af-7d4cd37e6ebe","system_id":"levelo_inurba_marseille","lat":43.272212,"lon":5.391766,"is_reserved":false,"is_disabled":false,"rental_uris":{"android":"levelo://app?vid=b795a457-d7fa-4350-a9af-7d4cd37e6ebe","ios":"levelo://app?vid=b795a457-d7fa-4350-a9af-7d4cd37e6ebe"},"vehicle_type_id":"4","last_reported":1762518062,"current_range_meters":12400,"station_id":"ce4bhhp2rcd13ifvqfm0","pricing_plan_id":"cebpf4jnsgd1na2vs0mg"},{"bike_id":"ff52e6d2-0126-428b-8241-f19a2cd5a014","system_id":"levelo_inurba_marseille","lat":43.26946,"lon":5.38632,"is_reserved":false,"is_disabled":true,"rental_uris":{"android":"levelo://app?vid=ff52e6d2-0126-428b-8241-f19a2cd5a014","ios":"levelo://app?vid=ff52e6d2-0126-428b-8241-f19a2cd5a014"},"vehicle_type_id":"4","last_reported":1762518062,"current_range_meters":12400,"station_id":"ce4bhh92rcd13ifvqfh0","pricing_plan_id":"cebpf4jnsgd1na2vs0mg"},{"bike_id":"c541d6c6-d855-480d-9416-ad1e26b18f93","system_id":"levelo_inurba_marseille","lat":43.29522,"lon":5.39401,"is_reserved":false,"is_disabled":true,"rental_uris":{"android":"levelo://app?vid=c541d6c6-d855-480d-9416-ad1e26b18f93","ios":"levelo://app?vid=c541d6c6-d855-480d-9416-ad1e26b18f93"},"vehicle_type_id":"4","last_reported":1762518062,"current_range_meters":12400,"station_id":"ce4bh292rcd13ifvqdf0","pricing_plan_id":"cebpf4jnsgd1na2vs0mg"},{"bike_id":"47fe472a-584f-43c1-989e-cc29d650cbff","system_id":"levelo_inurba_marseille","lat":43.3123,"lon":5.36862,"is_reserved":false,"is_disabled":false,"rental_uris":{"android":"levelo://app?vid=47fe472a-584f-43c1-989e-cc29d650cbff","ios":"levelo://app?vid=47fe472a-584f-43c1-989e-cc29d650cbff"},"vehicle_type_id":"4","last_reported":1762518062,"current_range_meters":12400,"station_id":"ce4bgl92rcd13ifvqbq0","pricing_plan_id":"cebpf4jnsgd1na2vs0mg"},{"bike_id":"91195dc3-7219-4139-a8eb-8e52bb6d271e","system_id":"levelo_inurba_marseille","lat":43.231895,"lon":5.355517,"is_reserved":false,"is_disabled":false,"rental_uris":{"android":"levelo://app?vid=91195dc3-7219-4139-a8eb-8e52bb6d271e","ios":"levelo://app?vid=91195dc3-7219-4139-a8eb-8e52bb6d271e"},"vehicle_type_id":"4","last_reported":1762518062,"current_range_meters":12800,"station_id":"ce4bhu92rcd13ifvqi70","pricing_plan_id":"cebpf4jnsgd1na2vs0mg"},{"bike_id":"27b410b1-4f32-446f-b24b-6fd710d540fd","system_id":"levelo_inurba_marseille","lat":43.29253,"lon":5.38449,"is_reserved":false,"is_disabled":false,"rental_uris":{"android":"levelo://app?vid=27b410b1-4f32-446f-b24b-6fd710d540fd","ios":"levelo://app?vid=27b410b1-4f32-446f-b24b-6fd710d540fd"},"vehicle_type_id":"4","last_reported":1762518062,"current_range_meters":12800,"station_id":"ce4bh692rcd13ifvqea0","pricing_plan_id":"cebpf4jnsgd1na2vs0mg"},{"bike_id":"6727f9f3-72a7-42bf-8903-142a51cc263a","system_id":"levelo_inurba_marseille","lat":43.30894,"lon":5.37194,"is_reserved":false,"is_disabled":false,"rental_uris":{"android":"levelo://app?vid=6727f9f3-72a7-42bf-8903-142a51cc263a","ios":"levelo://app?vid=6727f9f3-72a7-42bf-8903-142a51cc263a"},"vehicle_type_id":"4","last_reported":1762518062,"current_range_meters":12800,"station_id":"ce4bguh2rcd13ifvqckg","pricing_plan_id":"cebpf4jnsgd1na2vs0mg"},{"bike_id":"ec44e195-cde1-4252-aadf-701a64256dd7","system_id":"levelo_inurba_marseille","lat":43.24595,"lon":5.43174,"is_reserved":false,"is_disabled":false,"rental_uris":{"android":"levelo://app?vid=ec44e195-cde1-4252-aadf-701a64256dd7","ios":"levelo://app?vid=ec44e195-cde1-4252-aadf-701a64256dd7"},"vehicle_type_id":"4","last_reported":1762518062,"current_range_meters":12800,"station_id":"st_d2m6c4gdas8pm72e190g","pricing_plan_id":"cebpf4jnsgd1na2vs0mg"},{"bike_id":"decad613-875f-4e39-a5cc-a2636a2419c6","system_id":"levelo_inurba_marseille","lat":43.23157,"lon":5.43714,"is_reserved":false,"is_disabled":false,"rental_uris":{"android":"levelo://app?vid=decad613-875f-4e39-a5cc-a2636a2419c6","ios":"levelo://app?vid=decad613-875f-4e39-a5cc-a2636a2419c6"},"vehicle_type_id":"4","last_reported":1762518062,"current_range_meters":12800,"station_id":"ce4bhmp2rcd13ifvqgog","pricing_plan_id":"cebpf4jnsgd1na2vs0mg"},{"bike_id":"49f72977-a3b0-4756-91f7-bfd8da95f1b4","system_id":"levelo_inurba_marseille","lat":43.25929,"lon":5.40905,"is_reserved":false,"is_disabled":false,"rental_uris":{"android":"levelo://app?vid=49f72977-a3b0-4756-91f7-bfd8da95f1b4","ios":"levelo://app?vid=49f72977-a3b0-4756-91f7-bfd8da95f1b4"},"vehicle_type_id":"4","last_reported":1762518062,"current_range_meters":12800,"station_id":"ce4bhm92rcd13ifvqglg","pricing_plan_id":"cebpf4jnsgd1na2vs0mg"},{"bike_id":"1c3b6b02-c345-419e-acff-2ea38bcab5a6","system_id":"levelo_inurba_marseille","lat":43.23149,"lon":5.43694,"is_reserved":false,"is_disabled":false,"rental_uris":{"android":"levelo://app?vid=1c3b6b02-c345-419e-acff-2ea38bcab5a6","ios":"levelo://app?vid=1c3b6b02-c345-419e-acff-2ea38bcab5a6"},"vehicle_type_id":"4","last_reported":1762518062,"current_range_meters":12800,"station_id":"ce4bhmp2rcd13ifvqgog","pricing_plan_id":"cebpf4jnsgd1na2vs0mg"},{"bike_id":"9064393f-773e-4aa0-bc38-b7f831e07745","system_id":"levelo_inurba_marseille","lat":43.29932,"lon":5.3655,"is_reserved":false,"is_disabled":false,"rental_uris":{"android":"levelo://app?vid=9064393f-773e-4aa0-bc38-b7f831e07745","ios":"levelo://app?vid=9064393f-773e-4aa0-bc38-b7f831e07745"},"vehicle_type_id":"4","last_reported":1762518062,"current_range_meters":12800,"station_id":"ce4bgm92rcd13ifvqbr0","pricing_plan_id":"cebpf4jnsgd1na2vs0mg"},{"bike_id":"e2c6f10f-9a39-45e5-b59e-f10053add70c","system_id":"levelo_inurba_marseille","lat":43.34139,"lon":5.40908,"is_reserved":false,"is_disabled":false,"rental_uris":{"android":"levelo://app?vid=e2c6f10f-9a39-45e5-b59e-f10053add70c","ios":"levelo://app?vid=e2c6f10f-9a39-45e5-b59e-f10053add70c"},"vehicle_type_id":"4","last_reported":1762518062,"current_range_meters":12800,"station_id":"ce4bhqh2rcd13ifvqhlg","pricing_plan_id":"cebpf4jnsgd1na2vs0mg"},{"bike_id":"b363fa4c-6a4e-493f-bc83-599e519c6594","system_id":"levelo_inurba_marseille","lat":43.31365,"lon":5.38485,"is_reserved":false,"is_disabled":false,"rental_uris":{"android":"levelo://app?vid=b363fa4c-6a4e-493f-bc83-599e519c6594","ios":"levelo://app?vid=b363fa4c-6a4e-493f-bc83-599e519c6594"},"vehicle_type_id":"4","last_reported":1762518062,"current_range_meters":13600,"station_id":"ce4bgt92rcd13ifvqcf0","pricing_plan_id":"cebpf4jnsgd1na2vs0mg"},{"bike_id":"d7f0d846-054a-45f6-8970-4d42abc12044","system_id":"levelo_inurba_marseille","lat":43.26805,"lon":5.40268,"is_reserved":false,"is_disabled":false,"rental_uris":{"android":"levelo://app?vid=d7f0d846-054a-45f6-8970-4d42abc12044","ios":"levelo://app?vid=d7f0d846-054a-45f6-8970-4d42abc12044"},"vehicle_type_id":"4","last_reported":1762518062,"current_range_meters":13600,"station_id":"ce501612rcd8frsf0b60","pricing_plan_id":"cebpf4jnsgd1na2vs0mg"},{"bike_id":"8537479d-e703-477a-af1b-92c15a4c6d70","system_id":"levelo_inurba_marseille","lat":43.28202,"lon":5.38856,"is_reserved":false,"is_disabled":false,"rental_uris":{"android":"levelo://app?vid=8537479d-e703-477a-af1b-92c15a4c6d70","ios":"levelo://app?vid=8537479d-e703-477a-af1b-92c15a4c6d70"},"vehicle_type_id":"4","last_reported":1762518062,"current_range_meters":13600,"station_id":"","pricing_plan_id":"cebpf4jnsgd1na2vs0mg"},{"bike_id":"06d8a6d4-cde1-4774-80e5-91004a4fe543","system_id":"levelo_inurba_marseille","lat":43.29863,"lon":5.3631,"is_reserved":false,"is_disabled":false,"rental_uris":{"android":"levelo://app?vid=06d8a6d4-cde1-4774-80e5-91004a4fe543","ios":"levelo://app?vid=06d8a6d4-cde1-4774-80e5-91004a4fe543"},"vehicle_type_id":"4","last_reported":1762518062,"current_range_meters":13600,"station_id":"ce4bgpp2rcd13ifvqc3g","pricing_plan_id":"cebpf4jnsgd1na2vs0mg"},{"bike_id":"e19a3d8f-8bd0-4ca4-936d-c55737452c5b","system_id":"levelo_inurba_marseille","lat":43.32536,"lon":5.41424,"is_reserved":false,"is_disabled":false,"rental_uris":{"android":"levelo://app?vid=e19a3d8f-8bd0-4ca4-936d-c55737452c5b","ios":"levelo://app?vid=e19a3d8f-8bd0-4ca4-936d-c55737452c5b"},"vehicle_type_id":"4","last_reported":1762518062,"current_range_meters":13600,"station_id":"ce4bhq12rcd13ifvqhhg","pricing_plan_id":"cebpf4jnsgd1na2vs0mg"},{"bike_id":"2214147d-b2bc-47a5-8262-b29a2f3cbd90","system_id":"levelo_inurba_marseille","lat":43.288647,"lon":5.425124,"is_reserved":false,"is_disabled":false,"rental_uris":{"android":"levelo://app?vid=2214147d-b2bc-47a5-8262-b29a2f3cbd90","ios":"levelo://app?vid=2214147d-b2bc-47a5-8262-b29a2f3cbd90"},"vehicle_type_id":"4","last_reported":1762518062,"current_range_meters":13600,"station_id":"st_d3b462108ojc7389ooeg","pricing_plan_id":"cebpf4jnsgd1na2vs0mg"},{"bike_id":"f10fa7b0-e208-42c4-869e-568c2dce8bee","system_id":"levelo_inurba_marseille","lat":43.29895,"lon":5.4367,"is_reserved":false,"is_disabled":false,"rental_uris":{"android":"levelo://app?vid=f10fa7b0-e208-42c4-869e-568c2dce8bee","ios":"levelo://app?vid=f10fa7b0-e208-42c4-869e-568c2dce8bee"},"vehicle_type_id":"4","last_reported":1762518062,"current_range_meters":13600,"station_id":"ce4bhpp2rcd13ifvqhfg","pricing_plan_id":"cebpf4jnsgd1na2vs0mg"},{"bike_id":"2e0f5b64-65ed-42b3-9deb-fc4f03eedfcc","system_id":"levelo_inurba_marseille","lat":43.28527,"lon":5.44119,"is_reserved":false,"is_disabled":false,"rental_uris":{"android":"levelo://app?vid=2e0f5b64-65ed-42b3-9deb-fc4f03eedfcc","ios":"levelo://app?vid=2e0f5b64-65ed-42b3-9deb-fc4f03eedfcc"},"vehicle_type_id":"4","last_reported":1762518062,"current_range_meters":13600,"station_id":"st_d3j3df2ikq2c7380ej80","pricing_plan_id":"cebpf4jnsgd1na2vs0mg"},{"bike_id":"ada7c068-07f5-4885-8cb5-5c4f9b537ace","system_id":"levelo_inurba_marseille","lat":43.23137,"lon":5.43715,"is_reserved":false,"is_disabled":false,"rental_uris":{"android":"levelo://app?vid=ada7c068-07f5-4885-8cb5-5c4f9b537ace","ios":"levelo://app?vid=ada7c068-07f5-4885-8cb5-5c4f9b537ace"},"vehicle_type_id":"4","last_reported":1762518062,"current_range_meters":14000,"station_id":"ce4bhmp2rcd13ifvqgog","pricing_plan_id":"cebpf4jnsgd1na2vs0mg"},{"bike_id":"3b350de2-695c-42e3-a80c-fe5d0f1d9920","system_id":"levelo_inurba_marseille","lat":43.25922,"lon":5.40904,"is_reserved":false,"is_disabled":false,"rental_uris":{"android":"levelo://app?vid=3b350de2-695c-42e3-a80c-fe5d0f1d9920","ios":"levelo://app?vid=3b350de2-695c-42e3-a80c-fe5d0f1d9920"},"vehicle_type_id":"4","last_reported":1762518062,"current_range_meters":14000,"station_id":"ce4bhm92rcd13ifvqglg","pricing_plan_id":"cebpf4jnsgd1na2vs0mg"},{"bike_id":"cac9bd2a-a5fe-49c6-85d1-4ecab2f78de0","system_id":"levelo_inurba_marseille","lat":43.29079,"lon":5.38608,"is_reserved":false,"is_disabled":false,"rental_uris":{"android":"levelo://app?vid=cac9bd2a-a5fe-49c6-85d1-4ecab2f78de0","ios":"levelo://app?vid=cac9bd2a-a5fe-49c6-85d1-4ecab2f78de0"},"vehicle_type_id":"4","last_reported":1762518062,"current_range_meters":14000,"station_id":"","pricing_plan_id":"cebpf4jnsgd1na2vs0mg"},{"bike_id":"b0980694-f6f1-4d8c-85b3-e9837a238966","system_id":"levelo_inurba_marseille","lat":43.23183,"lon":5.39995,"is_reserved":false,"is_disabled":false,"rental_uris":{"android":"levelo://app?vid=b0980694-f6f1-4d8c-85b3-e9837a238966","ios":"levelo://app?vid=b0980694-f6f1-4d8c-85b3-e9837a238966"},"vehicle_type_id":"4","last_reported":1762518062,"current_range_meters":14000,"station_id":"ce4bhn12rcd13ifvqgqg","pricing_plan_id":"cebpf4jnsgd1na2vs0mg"},{"bike_id":"789e5b52-1886-4b1f-bffe-cce0db045b3b","system_id":"levelo_inurba_marseille","lat":43.28232,"lon":5.39069,"is_reserved":false,"is_disabled":false,"rental_uris":{"android":"levelo://app?vid=789e5b52-1886-4b1f-bffe-cce0db045b3b","ios":"levelo://app?vid=789e5b52-1886-4b1f-bffe-cce0db045b3b"},"vehicle_type_id":"4","last_reported":1762518062,"current_range_meters":14400,"station_id":"ce4bhn92rcd13ifvqgsg","pricing_plan_id":"cebpf4jnsgd1na2vs0mg"},{"bike_id":"fe37d973-bdaf-4f6f-be3c-d0c47ed8fd74","system_id":"levelo_inurba_marseille","lat":43.27837,"lon":5.40658,"is_reserved":false,"is_disabled":false,"rental_uris":{"android":"levelo://app?vid=fe37d973-bdaf-4f6f-be3c-d0c47ed8fd74","ios":"levelo://app?vid=fe37d973-bdaf-4f6f-be3c-d0c47ed8fd74"},"vehicle_type_id":"4","last_reported":1762518062,"current_range_meters":14400,"station_id":"","pricing_plan_id":"cebpf4jnsgd1na2vs0mg"},{"bike_id":"7c392732-2900-41fd-8c6d-e5b49cdf67b5","system_id":"levelo_inurba_marseille","lat":43.29722,"lon":5.38246,"is_reserved":false,"is_disabled":false,"rental_uris":{"android":"levelo://app?vid=7c392732-2900-41fd-8c6d-e5b49cdf67b5","ios":"levelo://app?vid=7c392732-2900-41fd-8c6d-e5b49cdf67b5"},"vehicle_type_id":"4","last_reported":1762518062,"current_range_meters":14400,"station_id":"","pricing_plan_id":"cebpf4jnsgd1na2vs0mg"},{"bike_id":"fbe1980c-28b3-44ff-94bc-1a822c9d6de7","system_id":"levelo_inurba_marseille","lat":43.30928,"lon":5.37256,"is_reserved":false,"is_disabled":false,"rental_uris":{"android":"levelo://app?vid=fbe1980c-28b3-44ff-94bc-1a822c9d6de7","ios":"levelo://app?vid=fbe1980c-28b3-44ff-94bc-1a822c9d6de7"},"vehicle_type_id":"4","last_reported":1762518062,"current_range_meters":14400,"station_id":"","pricing_plan_id":"cebpf4jnsgd1na2vs0mg"},{"bike_id":"51b9afea-e3f9-46da-a79d-624b2847ee35","system_id":"levelo_inurba_marseille","lat":43.29936,"lon":5.36521,"is_reserved":false,"is_disabled":false,"rental_uris":{"android":"levelo://app?vid=51b9afea-e3f9-46da-a79d-624b2847ee35","ios":"levelo://app?vid=51b9afea-e3f9-46da-a79d-624b2847ee35"},"vehicle_type_id":"4","last_reported":1762518062,"current_range_meters":14400,"station_id":"ce4bgm92rcd13ifvqbr0","pricing_plan_id":"cebpf4jnsgd1na2vs0mg"},{"bike_id":"23d4b732-c785-4a74-a220-93191f06591d","system_id":"levelo_inurba_marseille","lat":43.21191,"lon":5.35073,"is_reserved":false,"is_disabled":true,"rental_uris":{"android":"levelo://app?vid=23d4b732-c785-4a74-a220-93191f06591d","ios":"levelo://app?vid=23d4b732-c785-4a74-a220-93191f06591d"},"vehicle_type_id":"4","last_reported":1762518062,"current_range_meters":14400,"station_id":"","pricing_plan_id":"cebpf4jnsgd1na2vs0mg"},{"bike_id":"a6f6a0d8-fd69-4a0f-9fd3-954c800a7979","system_id":"levelo_inurba_marseille","lat":43.27425,"lon":5.39424,"is_reserved":false,"is_disabled":false,"rental_uris":{"android":"levelo://app?vid=a6f6a0d8-fd69-4a0f-9fd3-954c800a7979","ios":"levelo://app?vid=a6f6a0d8-fd69-4a0f-9fd3-954c800a7979"},"vehicle_type_id":"4","last_reported":1762518062,"current_range_meters":14400,"station_id":"ce4bhdp2rcd13ifvqf20","pricing_plan_id":"cebpf4jnsgd1na2vs0mg"},{"bike_id":"8f179736-e02b-4c43-b599-d5affe0d07fc","system_id":"levelo_inurba_marseille","lat":43.28943,"lon":5.36399,"is_reserved":false,"is_disabled":false,"rental_uris":{"android":"levelo://app?vid=8f179736-e02b-4c43-b599-d5affe0d07fc","ios":"levelo://app?vid=8f179736-e02b-4c43-b599-d5affe0d07fc"},"vehicle_type_id":"4","last_reported":1762518062,"current_range_meters":14400,"station_id":"ce4bhc92rcd13ifvqetg","pricing_plan_id":"cebpf4jnsgd1na2vs0mg"},{"bike_id":"ba00a797-bc94-42f1-aba8-9bf207fe458c","system_id":"levelo_inurba_marseille","lat":43.30562,"lon":5.36483,"is_reserved":false,"is_disabled":false,"rental_uris":{"android":"levelo://app?vid=ba00a797-bc94-42f1-aba8-9bf207fe458c","ios":"levelo://app?vid=ba00a797-bc94-42f1-aba8-9bf207fe458c"},"vehicle_type_id":"4","last_reported":1762518062,"current_range_meters":14400,"station_id":"","pricing_plan_id":"cebpf4jnsgd1na2vs0mg"},{"bike_id":"1e46fe04-89da-46eb-9bd6-7b3e33687c2a","system_id":"levelo_inurba_marseille","lat":43.28596,"lon":5.35121,"is_reserved":false,"is_disabled":false,"rental_uris":{"android":"levelo://app?vid=1e46fe04-89da-46eb-9bd6-7b3e33687c2a","ios":"levelo://app?vid=1e46fe04-89da-46eb-9bd6-7b3e33687c2a"},"vehicle_type_id":"4","last_reported":1762518062,"current_range_meters":14800,"station_id":"ce4bhch2rcd13ifvqeug","pricing_plan_id":"cebpf4jnsgd1na2vs0mg"},{"bike_id":"04d717a8-88c2-4971-8600-fb70f3d4a4b4","system_id":"levelo_inurba_marseille","lat":43.28715,"lon":5.37938,"is_reserved":false,"is_disabled":false,"rental_uris":{"android":"levelo://app?vid=04d717a8-88c2-4971-8600-fb70f3d4a4b4","ios":"levelo://app?vid=04d717a8-88c2-4971-8600-fb70f3d4a4b4"},"vehicle_type_id":"4","last_reported":1762518062,"current_range_meters":14800,"station_id":"ce4bh9p2rcd13ifvqec0","pricing_plan_id":"cebpf4jnsgd1na2vs0mg"},{"bike_id":"8e06ea3d-d716-474e-a567-cb8429ce3537","system_id":"levelo_inurba_marseille","lat":43.26056,"lon":5.39399,"is_reserved":false,"is_disabled":false,"rental_uris":{"android":"levelo://app?vid=8e06ea3d-d716-474e-a567-cb8429ce3537","ios":"levelo://app?vid=8e06ea3d-d716-474e-a567-cb8429ce3537"},"vehicle_type_id":"4","last_reported":1762518062,"current_range_meters":14800,"station_id":"ce4bhh92rcd13ifvqfj0","pricing_plan_id":"cebpf4jnsgd1na2vs0mg"},{"bike_id":"4da52325-1288-448d-88b3-9e1e5f383137","system_id":"levelo_inurba_marseille","lat":43.239477,"lon":5.366562,"is_reserved":false,"is_disabled":false,"rental_uris":{"android":"levelo://app?vid=4da52325-1288-448d-88b3-9e1e5f383137","ios":"levelo://app?vid=4da52325-1288-448d-88b3-9e1e5f383137"},"vehicle_type_id":"4","last_reported":1762518062,"current_range_meters":14800,"station_id":"ce4bhi12rcd13ifvqfp0","pricing_plan_id":"cebpf4jnsgd1na2vs0mg"},{"bike_id":"3a6b939b-8483-4a00-8652-d825cdd856d7","system_id":"levelo_inurba_marseille","lat":43.22547,"lon":5.41634,"is_reserved":false,"is_disabled":false,"rental_uris":{"android":"levelo://app?vid=3a6b939b-8483-4a00-8652-d825cdd856d7","ios":"levelo://app?vid=3a6b939b-8483-4a00-8652-d825cdd856d7"},"vehicle_type_id":"4","last_reported":1762518062,"current_range_meters":14800,"station_id":"st_d2o4gvlbi1j2169b742g","pricing_plan_id":"cebpf4jnsgd1na2vs0mg"},{"bike_id":"5f48118e-e9dd-40cf-a954-36eea361da07","system_id":"levelo_inurba_marseille","lat":43.330209,"lon":5.390435,"is_reserved":false,"is_disabled":false,"rental_uris":{"android":"levelo://app?vid=5f48118e-e9dd-40cf-a954-36eea361da07","ios":"levelo://app?vid=5f48118e-e9dd-40cf-a954-36eea361da07"},"vehicle_type_id":"4","last_reported":1762518062,"current_range_meters":14800,"station_id":"ce4bhr92rcd13ifvqhrg","pricing_plan_id":"cebpf4jnsgd1na2vs0mg"},{"bike_id":"a88522c2-7f31-460d-8b59-1c10109fed19","system_id":"levelo_inurba_marseille","lat":43.31448,"lon":5.37597,"is_reserved":false,"is_disabled":false,"rental_uris":{"android":"levelo://app?vid=a88522c2-7f31-460d-8b59-1c10109fed19","ios":"levelo://app?vid=a88522c2-7f31-460d-8b59-1c10109fed19"},"vehicle_type_id":"4","last_reported":1762518062,"current_range_meters":15200,"station_id":"","pricing_plan_id":"cebpf4jnsgd1na2vs0mg"},{"bike_id":"43cfab9e-f547-4304-9999-4a8329474751","system_id":"levelo_inurba_marseille","lat":43.21161,"lon":5.35082,"is_reserved":false,"is_disabled":false,"rental_uris":{"android":"levelo://app?vid=43cfab9e-f547-4304-9999-4a8329474751","ios":"levelo://app?vid=43cfab9e-f547-4304-9999-4a8329474751"},"vehicle_type_id":"4","last_reported":1762518062,"current_range_meters":15200,"station_id":"st_cvj6sg6p6f1abm77japg","pricing_plan_id":"cebpf4jnsgd1na2vs0mg"},{"bike_id":"0129d5e3-887c-4b82-9486-db9b5dbeeb12","system_id":"levelo_inurba_marseille","lat":43.24632,"lon":5.38907,"is_reserved":false,"is_disabled":false,"rental_uris":{"android":"levelo://app?vid=0129d5e3-887c-4b82-9486-db9b5dbeeb12","ios":"levelo://app?vid=0129d5e3-887c-4b82-9486-db9b5dbeeb12"},"vehicle_type_id":"4","last_reported":1762518062,"current_range_meters":15200,"station_id":"ce4bhg12rcd13ifvqf60","pricing_plan_id":"cebpf4jnsgd1na2vs0mg"},{"bike_id":"46609da1-1a56-4a2e-8fd3-da507a08e8ac","system_id":"levelo_inurba_marseille","lat":43.2315,"lon":5.43726,"is_reserved":false,"is_disabled":false,"rental_uris":{"android":"levelo://app?vid=46609da1-1a56-4a2e-8fd3-da507a08e8ac","ios":"levelo://app?vid=46609da1-1a56-4a2e-8fd3-da507a08e8ac"},"vehicle_type_id":"4","last_reported":1762518062,"current_range_meters":15200,"station_id":"ce4bhmp2rcd13ifvqgog","pricing_plan_id":"cebpf4jnsgd1na2vs0mg"},{"bike_id":"310115a0-7bf2-4a4a-9d53-56bf6918e4d0","system_id":"levelo_inurba_marseille","lat":43.284873,"lon":5.484085,"is_reserved":false,"is_disabled":false,"rental_uris":{"android":"levelo://app?vid=310115a0-7bf2-4a4a-9d53-56bf6918e4d0","ios":"levelo://app?vid=310115a0-7bf2-4a4a-9d53-56bf6918e4d0"},"vehicle_type_id":"4","last_reported":1762518062,"current_range_meters":16000,"station_id":"st_d3svhcjqgbts73a3dn0g","pricing_plan_id":"cebpf4jnsgd1na2vs0mg"},{"bike_id":"ab57a438-ae7d-432c-b302-3fda6242e506","system_id":"levelo_inurba_marseille","lat":43.23144,"lon":5.43709,"is_reserved":false,"is_disabled":false,"rental_uris":{"android":"levelo://app?vid=ab57a438-ae7d-432c-b302-3fda6242e506","ios":"levelo://app?vid=ab57a438-ae7d-432c-b302-3fda6242e506"},"vehicle_type_id":"4","last_reported":1762518062,"current_range_meters":16000,"station_id":"ce4bhmp2rcd13ifvqgog","pricing_plan_id":"cebpf4jnsgd1na2vs0mg"},{"bike_id":"80419adc-9f12-4355-9595-b406f8c0ab99","system_id":"levelo_inurba_marseille","lat":43.306033,"lon":5.372231,"is_reserved":false,"is_disabled":false,"rental_uris":{"android":"levelo://app?vid=80419adc-9f12-4355-9595-b406f8c0ab99","ios":"levelo://app?vid=80419adc-9f12-4355-9595-b406f8c0ab99"},"vehicle_type_id":"4","last_reported":1762518062,"current_range_meters":16000,"station_id":"ce4bgqh2rcd13ifvqc4g","pricing_plan_id":"cebpf4jnsgd1na2vs0mg"},{"bike_id":"4b2c77ce-fc6b-4f43-88a7-cffef20cd205","system_id":"levelo_inurba_marseille","lat":43.30435,"lon":5.38893,"is_reserved":false,"is_disabled":false,"rental_uris":{"android":"levelo://app?vid=4b2c77ce-fc6b-4f43-88a7-cffef20cd205","ios":"levelo://app?vid=4b2c77ce-fc6b-4f43-88a7-cffef20cd205"},"vehicle_type_id":"4","last_reported":1762518062,"current_range_meters":16000,"station_id":"ce4bgk12rcd13ifvqbi0","pricing_plan_id":"cebpf4jnsgd1na2vs0mg"},{"bike_id":"36ce460e-9691-43b6-8ef4-551bff3766f3","system_id":"levelo_inurba_marseille","lat":43.30468,"lon":5.37903,"is_reserved":false,"is_disabled":false,"rental_uris":{"android":"levelo://app?vid=36ce460e-9691-43b6-8ef4-551bff3766f3","ios":"levelo://app?vid=36ce460e-9691-43b6-8ef4-551bff3766f3"},"vehicle_type_id":"4","last_reported":1762518062,"current_range_meters":16400,"station_id":"ce4bgup2rcd13ifvqcn0","pricing_plan_id":"cebpf4jnsgd1na2vs0mg"},{"bike_id":"2c54771e-bc90-4fcb-a7c7-984aebd4a9b2","system_id":"levelo_inurba_marseille","lat":43.30131,"lon":5.38781,"is_reserved":false,"is_disabled":false,"rental_uris":{"android":"levelo://app?vid=2c54771e-bc90-4fcb-a7c7-984aebd4a9b2","ios":"levelo://app?vid=2c54771e-bc90-4fcb-a7c7-984aebd4a9b2"},"vehicle_type_id":"4","last_reported":1762518062,"current_range_meters":16400,"station_id":"ce4bghh2rcd13ifvqb60","pricing_plan_id":"cebpf4jnsgd1na2vs0mg"},{"bike_id":"ac9b2307-8532-4e5b-acbf-4475959117d2","system_id":"levelo_inurba_marseille","lat":43.257196,"lon":5.4111,"is_reserved":false,"is_disabled":false,"rental_uris":{"android":"levelo://app?vid=ac9b2307-8532-4e5b-acbf-4475959117d2","ios":"levelo://app?vid=ac9b2307-8532-4e5b-acbf-4475959117d2"},"vehicle_type_id":"4","last_reported":1762518062,"current_range_meters":16400,"station_id":"ce4bhkp2rcd13ifvqgd0","pricing_plan_id":"cebpf4jnsgd1na2vs0mg"},{"bike_id":"1a4ba095-f025-43c2-ae3a-27243c56430d","system_id":"levelo_inurba_marseille","lat":43.28226,"lon":5.39002,"is_reserved":false,"is_disabled":false,"rental_uris":{"android":"levelo://app?vid=1a4ba095-f025-43c2-ae3a-27243c56430d","ios":"levelo://app?vid=1a4ba095-f025-43c2-ae3a-27243c56430d"},"vehicle_type_id":"4","last_reported":1762518062,"current_range_meters":16400,"station_id":"","pricing_plan_id":"cebpf4jnsgd1na2vs0mg"},{"bike_id":"5b03e0a7-e5b7-4bb1-a15f-78dcdc45fd57","system_id":"levelo_inurba_marseille","lat":43.23148,"lon":5.43736,"is_reserved":false,"is_disabled":false,"rental_uris":{"android":"levelo://app?vid=5b03e0a7-e5b7-4bb1-a15f-78dcdc45fd57","ios":"levelo://app?vid=5b03e0a7-e5b7-4bb1-a15f-78dcdc45fd57"},"vehicle_type_id":"4","last_reported":1762518062,"current_range_meters":16400,"station_id":"ce4bhmp2rcd13ifvqgog","pricing_plan_id":"cebpf4jnsgd1na2vs0mg"},{"bike_id":"401209f9-1098-407a-9275-182f209531f6","system_id":"levelo_inurba_marseille","lat":43.29543,"lon":5.42276,"is_reserved":false,"is_disabled":false,"rental_uris":{"android":"levelo://app?vid=401209f9-1098-407a-9275-182f209531f6","ios":"levelo://app?vid=401209f9-1098-407a-9275-182f209531f6"},"vehicle_type_id":"4","last_reported":1762518062,"current_range_meters":16400,"station_id":"ce4bhph2rcd13ifvqhdg","pricing_plan_id":"cebpf4jnsgd1na2vs0mg"},{"bike_id":"2cfcdfac-4400-4cc0-8d4b-f0a6de641271","system_id":"levelo_inurba_marseille","lat":43.29905,"lon":5.37464,"is_reserved":false,"is_disabled":false,"rental_uris":{"android":"levelo://app?vid=2cfcdfac-4400-4cc0-8d4b-f0a6de641271","ios":"levelo://app?vid=2cfcdfac-4400-4cc0-8d4b-f0a6de641271"},"vehicle_type_id":"4","last_reported":1762518062,"current_range_meters":16400,"station_id":"ce4bgjh2rcd13ifvqbg0","pricing_plan_id":"cebpf4jnsgd1na2vs0mg"},{"bike_id":"e071e82c-cdb6-459f-b22d-eefcbaca951d","system_id":"levelo_inurba_marseille","lat":43.31143,"lon":5.38731,"is_reserved":false,"is_disabled":false,"rental_uris":{"android":"levelo://app?vid=e071e82c-cdb6-459f-b22d-eefcbaca951d","ios":"levelo://app?vid=e071e82c-cdb6-459f-b22d-eefcbaca951d"},"vehicle_type_id":"4","last_reported":1762518062,"current_range_meters":16800,"station_id":"ce4bgv12rcd13ifvqcp0","pricing_plan_id":"cebpf4jnsgd1na2vs0mg"},{"bike_id":"6cf51eb6-7cbd-4fcb-aab7-498625df0f11","system_id":"levelo_inurba_marseille","lat":43.23151,"lon":5.43713,"is_reserved":false,"is_disabled":false,"rental_uris":{"android":"levelo://app?vid=6cf51eb6-7cbd-4fcb-aab7-498625df0f11","ios":"levelo://app?vid=6cf51eb6-7cbd-4fcb-aab7-498625df0f11"},"vehicle_type_id":"4","last_reported":1762518062,"current_range_meters":16800,"station_id":"ce4bhmp2rcd13ifvqgog","pricing_plan_id":"cebpf4jnsgd1na2vs0mg"},{"bike_id":"a24ecaa7-dc5d-4c8e-a910-6021da3d40da","system_id":"levelo_inurba_marseille","lat":43.2257,"lon":5.41621,"is_reserved":false,"is_disabled":false,"rental_uris":{"android":"levelo://app?vid=a24ecaa7-dc5d-4c8e-a910-6021da3d40da","ios":"levelo://app?vid=a24ecaa7-dc5d-4c8e-a910-6021da3d40da"},"vehicle_type_id":"4","last_reported":1762518062,"current_range_meters":16800,"station_id":"st_d2o4gvlbi1j2169b742g","pricing_plan_id":"cebpf4jnsgd1na2vs0mg"},{"bike_id":"7f999d9c-f27f-45cb-9ed2-e5eb812dc450","system_id":"levelo_inurba_marseille","lat":43.27907,"lon":5.38011,"is_reserved":false,"is_disabled":false,"rental_uris":{"android":"levelo://app?vid=7f999d9c-f27f-45cb-9ed2-e5eb812dc450","ios":"levelo://app?vid=7f999d9c-f27f-45cb-9ed2-e5eb812dc450"},"vehicle_type_id":"4","last_reported":1762518062,"current_range_meters":16800,"station_id":"ce4bhf92rcd13ifvqf50","pricing_plan_id":"cebpf4jnsgd1na2vs0mg"},{"bike_id":"22918fb7-a391-4f35-8c21-8eb60e2ab03f","system_id":"levelo_inurba_marseille","lat":43.22552,"lon":5.41629,"is_reserved":false,"is_disabled":false,"rental_uris":{"android":"levelo://app?vid=22918fb7-a391-4f35-8c21-8eb60e2ab03f","ios":"levelo://app?vid=22918fb7-a391-4f35-8c21-8eb60e2ab03f"},"vehicle_type_id":"4","last_reported":1762518062,"current_range_meters":16800,"station_id":"st_d2o4gvlbi1j2169b742g","pricing_plan_id":"cebpf4jnsgd1na2vs0mg"},{"bike_id":"9af0687b-3e79-4e11-b844-dd239618aeba","system_id":"levelo_inurba_marseille","lat":43.28871,"lon":5.42529,"is_reserved":false,"is_disabled":false,"rental_uris":{"android":"levelo://app?vid=9af0687b-3e79-4e11-b844-dd239618aeba","ios":"levelo://app?vid=9af0687b-3e79-4e11-b844-dd239618aeba"},"vehicle_type_id":"4","last_reported":1762518062,"current_range_meters":16800,"station_id":"st_d3b462108ojc7389ooeg","pricing_plan_id":"cebpf4jnsgd1na2vs0mg"},{"bike_id":"33fcdbb0-2f2f-418c-a9e2-8bfbd62dc3a5","system_id":"levelo_inurba_marseille","lat":43.30516,"lon":5.36708,"is_reserved":false,"is_disabled":false,"rental_uris":{"android":"levelo://app?vid=33fcdbb0-2f2f-418c-a9e2-8bfbd62dc3a5","ios":"levelo://app?vid=33fcdbb0-2f2f-418c-a9e2-8bfbd62dc3a5"},"vehicle_type_id":"4","last_reported":1762518062,"current_range_meters":16800,"station_id":"ce4bgrp2rcd13ifvqc9g","pricing_plan_id":"cebpf4jnsgd1na2vs0mg"},{"bike_id":"0ee3a2cd-bf73-412d-acd4-59beb849ed7e","system_id":"levelo_inurba_marseille","lat":43.31124,"lon":5.37799,"is_reserved":false,"is_disabled":false,"rental_uris":{"android":"levelo://app?vid=0ee3a2cd-bf73-412d-acd4-59beb849ed7e","ios":"levelo://app?vid=0ee3a2cd-bf73-412d-acd4-59beb849ed7e"},"vehicle_type_id":"4","last_reported":1762518062,"current_range_meters":17200,"station_id":"ce4bgt92rcd13ifvqcg0","pricing_plan_id":"cebpf4jnsgd1na2vs0mg"},{"bike_id":"1ebd380b-2e10-4d72-a354-0de22c37246a","system_id":"levelo_inurba_marseille","lat":43.26558,"lon":5.37278,"is_reserved":false,"is_disabled":false,"rental_uris":{"android":"levelo://app?vid=1ebd380b-2e10-4d72-a354-0de22c37246a","ios":"levelo://app?vid=1ebd380b-2e10-4d72-a354-0de22c37246a"},"vehicle_type_id":"4","last_reported":1762518062,"current_range_meters":17200,"station_id":"ce4bhg12rcd13ifvqf70","pricing_plan_id":"cebpf4jnsgd1na2vs0mg"},{"bike_id":"05c639a2-6660-40ed-a12f-85b485fe188e","system_id":"levelo_inurba_marseille","lat":43.2922,"lon":5.35781,"is_reserved":false,"is_disabled":false,"rental_uris":{"android":"levelo://app?vid=05c639a2-6660-40ed-a12f-85b485fe188e","ios":"levelo://app?vid=05c639a2-6660-40ed-a12f-85b485fe188e"},"vehicle_type_id":"4","last_reported":1762518062,"current_range_meters":17200,"station_id":"ce4bhb12rcd13ifvqel0","pricing_plan_id":"cebpf4jnsgd1na2vs0mg"},{"bike_id":"65d83eaf-428a-43cd-a356-ecaed95948ff","system_id":"levelo_inurba_marseille","lat":43.24821,"lon":5.39816,"is_reserved":false,"is_disabled":false,"rental_uris":{"android":"levelo://app?vid=65d83eaf-428a-43cd-a356-ecaed95948ff","ios":"levelo://app?vid=65d83eaf-428a-43cd-a356-ecaed95948ff"},"vehicle_type_id":"4","last_reported":1762518062,"current_range_meters":17200,"station_id":"","pricing_plan_id":"cebpf4jnsgd1na2vs0mg"},{"bike_id":"cbaf6e70-be37-4c92-8bb7-677f9be0a37d","system_id":"levelo_inurba_marseille","lat":43.301209,"lon":5.431304,"is_reserved":false,"is_disabled":false,"rental_uris":{"android":"levelo://app?vid=cbaf6e70-be37-4c92-8bb7-677f9be0a37d","ios":"levelo://app?vid=cbaf6e70-be37-4c92-8bb7-677f9be0a37d"},"vehicle_type_id":"4","last_reported":1762518062,"current_range_meters":17200,"station_id":"st_d3js3co5814s73ftftug","pricing_plan_id":"cebpf4jnsgd1na2vs0mg"},{"bike_id":"80d6028b-d102-4553-996c-40c70fdfb53c","system_id":"levelo_inurba_marseille","lat":43.262017,"lon":5.379356,"is_reserved":false,"is_disabled":false,"rental_uris":{"android":"levelo://app?vid=80d6028b-d102-4553-996c-40c70fdfb53c","ios":"levelo://app?vid=80d6028b-d102-4553-996c-40c70fdfb53c"},"vehicle_type_id":"4","last_reported":1762518062,"current_range_meters":17200,"station_id":"ce4bhjp2rcd13ifvqg90","pricing_plan_id":"cebpf4jnsgd1na2vs0mg"},{"bike_id":"d5e45c37-0865-4611-a409-3e2658c643ab","system_id":"levelo_inurba_marseille","lat":43.303166,"lon":5.379578,"is_reserved":false,"is_disabled":false,"rental_uris":{"android":"levelo://app?vid=d5e45c37-0865-4611-a409-3e2658c643ab","ios":"levelo://app?vid=d5e45c37-0865-4611-a409-3e2658c643ab"},"vehicle_type_id":"4","last_reported":1762518062,"current_range_meters":17200,"station_id":"ce4bguh2rcd13ifvqcj0","pricing_plan_id":"cebpf4jnsgd1na2vs0mg"},{"bike_id":"476530d7-9c32-4dff-bb12-afe5652e8adf","system_id":"levelo_inurba_marseille","lat":43.28727,"lon":5.3794,"is_reserved":false,"is_disabled":false,"rental_uris":{"android":"levelo://app?vid=476530d7-9c32-4dff-bb12-afe5652e8adf","ios":"levelo://app?vid=476530d7-9c32-4dff-bb12-afe5652e8adf"},"vehicle_type_id":"4","last_reported":1762518062,"current_range_meters":17200,"station_id":"ce4bh9p2rcd13ifvqec0","pricing_plan_id":"cebpf4jnsgd1na2vs0mg"},{"bike_id":"07d4a740-67e7-417b-9820-14faa44cc7d6","system_id":"levelo_inurba_marseille","lat":43.28868,"lon":5.42532,"is_reserved":false,"is_disabled":false,"rental_uris":{"android":"levelo://app?vid=07d4a740-67e7-417b-9820-14faa44cc7d6","ios":"levelo://app?vid=07d4a740-67e7-417b-9820-14faa44cc7d6"},"vehicle_type_id":"4","last_reported":1762518062,"current_range_meters":17200,"station_id":"st_d3b462108ojc7389ooeg","pricing_plan_id":"cebpf4jnsgd1na2vs0mg"},{"bike_id":"8294fb7c-61b8-46dd-8a0d-07e729b72143","system_id":"levelo_inurba_marseille","lat":43.2315,"lon":5.43701,"is_reserved":false,"is_disabled":false,"rental_uris":{"android":"levelo://app?vid=8294fb7c-61b8-46dd-8a0d-07e729b72143","ios":"levelo://app?vid=8294fb7c-61b8-46dd-8a0d-07e729b72143"},"vehicle_type_id":"4","last_reported":1762518062,"current_range_meters":17200,"station_id":"ce4bhmp2rcd13ifvqgog","pricing_plan_id":"cebpf4jnsgd1na2vs0mg"},{"bike_id":"b24ba5c8-3e88-4641-a1f1-96275b80a60d","system_id":"levelo_inurba_marseille","lat":43.29955,"lon":5.41312,"is_reserved":false,"is_disabled":false,"rental_uris":{"android":"levelo://app?vid=b24ba5c8-3e88-4641-a1f1-96275b80a60d","ios":"levelo://app?vid=b24ba5c8-3e88-4641-a1f1-96275b80a60d"},"vehicle_type_id":"4","last_reported":1762518062,"current_range_meters":17600,"station_id":"ce4bhp12rcd13ifvqh9g","pricing_plan_id":"cebpf4jnsgd1na2vs0mg"},{"bike_id":"244c382f-0699-4f38-b2aa-ec05a424bed5","system_id":"levelo_inurba_marseille","lat":43.24956,"lon":5.40471,"is_reserved":false,"is_disabled":false,"rental_uris":{"android":"levelo://app?vid=244c382f-0699-4f38-b2aa-ec05a424bed5","ios":"levelo://app?vid=244c382f-0699-4f38-b2aa-ec05a424bed5"},"vehicle_type_id":"4","last_reported":1762518062,"current_range_meters":17600,"station_id":"st_d2ngiaodas8pm72gd1h0","pricing_plan_id":"cebpf4jnsgd1na2vs0mg"},{"bike_id":"6a5ddfdf-eda2-4c9a-bd10-fba552af5b58","system_id":"levelo_inurba_marseille","lat":43.26948,"lon":5.38917,"is_reserved":false,"is_disabled":false,"rental_uris":{"android":"levelo://app?vid=6a5ddfdf-eda2-4c9a-bd10-fba552af5b58","ios":"levelo://app?vid=6a5ddfdf-eda2-4c9a-bd10-fba552af5b58"},"vehicle_type_id":"4","last_reported":1762518062,"current_range_meters":17600,"station_id":"ce4bhhh2rcd13ifvqfl0","pricing_plan_id":"cebpf4jnsgd1na2vs0mg"},{"bike_id":"becc05ef-c148-4583-bfb3-696549166a2f","system_id":"levelo_inurba_marseille","lat":43.26949,"lon":5.38633,"is_reserved":false,"is_disabled":false,"rental_uris":{"android":"levelo://app?vid=becc05ef-c148-4583-bfb3-696549166a2f","ios":"levelo://app?vid=becc05ef-c148-4583-bfb3-696549166a2f"},"vehicle_type_id":"4","last_reported":1762518062,"current_range_meters":17600,"station_id":"ce4bhh92rcd13ifvqfh0","pricing_plan_id":"cebpf4jnsgd1na2vs0mg"},{"bike_id":"b42f9b52-51b0-44ec-94b5-5a5bf48a552c","system_id":"levelo_inurba_marseille","lat":43.29015,"lon":5.381,"is_reserved":false,"is_disabled":false,"rental_uris":{"android":"levelo://app?vid=b42f9b52-51b0-44ec-94b5-5a5bf48a552c","ios":"levelo://app?vid=b42f9b52-51b0-44ec-94b5-5a5bf48a552c"},"vehicle_type_id":"4","last_reported":1762518062,"current_range_meters":17600,"station_id":"ce4bh4p2rcd13ifvqe1g","pricing_plan_id":"cebpf4jnsgd1na2vs0mg"},{"bike_id":"a718cc29-6f54-49e3-862a-351d7a32001f","system_id":"levelo_inurba_marseille","lat":43.284864,"lon":5.484098,"is_reserved":false,"is_disabled":false,"rental_uris":{"android":"levelo://app?vid=a718cc29-6f54-49e3-862a-351d7a32001f","ios":"levelo://app?vid=a718cc29-6f54-49e3-862a-351d7a32001f"},"vehicle_type_id":"4","last_reported":1762518062,"current_range_meters":17600,"station_id":"","pricing_plan_id":"cebpf4jnsgd1na2vs0mg"},{"bike_id":"113d1871-94d4-4705-92b3-0b76015598f3","system_id":"levelo_inurba_marseille","lat":43.31888,"lon":5.40728,"is_reserved":false,"is_disabled":false,"rental_uris":{"android":"levelo://app?vid=113d1871-94d4-4705-92b3-0b76015598f3","ios":"levelo://app?vid=113d1871-94d4-4705-92b3-0b76015598f3"},"vehicle_type_id":"4","last_reported":1762518062,"current_range_meters":17600,"station_id":"ce4bhq12rcd13ifvqhig","pricing_plan_id":"cebpf4jnsgd1na2vs0mg"},{"bike_id":"1aab166c-688a-4c29-a6f3-3b16e78cedf9","system_id":"levelo_inurba_marseille","lat":43.31331,"lon":5.39686,"is_reserved":false,"is_disabled":false,"rental_uris":{"android":"levelo://app?vid=1aab166c-688a-4c29-a6f3-3b16e78cedf9","ios":"levelo://app?vid=1aab166c-688a-4c29-a6f3-3b16e78cedf9"},"vehicle_type_id":"4","last_reported":1762518062,"current_range_meters":17600,"station_id":"ce4bgvp2rcd13ifvqcu0","pricing_plan_id":"cebpf4jnsgd1na2vs0mg"},{"bike_id":"026711f1-c640-4e28-8a55-fae57096ee2c","system_id":"levelo_inurba_marseille","lat":43.25924,"lon":5.40903,"is_reserved":false,"is_disabled":false,"rental_uris":{"android":"levelo://app?vid=026711f1-c640-4e28-8a55-fae57096ee2c","ios":"levelo://app?vid=026711f1-c640-4e28-8a55-fae57096ee2c"},"vehicle_type_id":"4","last_reported":1762518062,"current_range_meters":17600,"station_id":"ce4bhm92rcd13ifvqglg","pricing_plan_id":"cebpf4jnsgd1na2vs0mg"},{"bike_id":"2c9fa20f-0f87-450a-bec7-1109627a102e","system_id":"levelo_inurba_marseille","lat":43.28398,"lon":5.37528,"is_reserved":false,"is_disabled":false,"rental_uris":{"android":"levelo://app?vid=2c9fa20f-0f87-450a-bec7-1109627a102e","ios":"levelo://app?vid=2c9fa20f-0f87-450a-bec7-1109627a102e"},"vehicle_type_id":"4","last_reported":1762518062,"current_range_meters":17600,"station_id":"ce4bh412rcd13ifvqds0","pricing_plan_id":"cebpf4jnsgd1na2vs0mg"},{"bike_id":"c3fa59d0-9a8e-43ec-8625-6437ba3bd142","system_id":"levelo_inurba_marseille","lat":43.335388,"lon":5.410453,"is_reserved":false,"is_disabled":false,"rental_uris":{"android":"levelo://app?vid=c3fa59d0-9a8e-43ec-8625-6437ba3bd142","ios":"levelo://app?vid=c3fa59d0-9a8e-43ec-8625-6437ba3bd142"},"vehicle_type_id":"4","last_reported":1762518062,"current_range_meters":18000,"station_id":"ce4bhqh2rcd13ifvqhmg","pricing_plan_id":"cebpf4jnsgd1na2vs0mg"},{"bike_id":"79146798-e673-48be-9e57-9da0e00fb319","system_id":"levelo_inurba_marseille","lat":43.2903,"lon":5.38648,"is_reserved":false,"is_disabled":false,"rental_uris":{"android":"levelo://app?vid=79146798-e673-48be-9e57-9da0e00fb319","ios":"levelo://app?vid=79146798-e673-48be-9e57-9da0e00fb319"},"vehicle_type_id":"4","last_reported":1762518062,"current_range_meters":18000,"station_id":"ce4bh4p2rcd13ifvqe0g","pricing_plan_id":"cebpf4jnsgd1na2vs0mg"},{"bike_id":"c448769d-72a1-4a2a-80b2-791ccf525608","system_id":"levelo_inurba_marseille","lat":43.25755,"lon":5.41129,"is_reserved":false,"is_disabled":false,"rental_uris":{"android":"levelo://app?vid=c448769d-72a1-4a2a-80b2-791ccf525608","ios":"levelo://app?vid=c448769d-72a1-4a2a-80b2-791ccf525608"},"vehicle_type_id":"4","last_reported":1762518062,"current_range_meters":18000,"station_id":"","pricing_plan_id":"cebpf4jnsgd1na2vs0mg"},{"bike_id":"75d7dc47-dceb-471d-8668-ef13189f4f02","system_id":"levelo_inurba_marseille","lat":43.32325,"lon":5.36756,"is_reserved":false,"is_disabled":false,"rental_uris":{"android":"levelo://app?vid=75d7dc47-dceb-471d-8668-ef13189f4f02","ios":"levelo://app?vid=75d7dc47-dceb-471d-8668-ef13189f4f02"},"vehicle_type_id":"4","last_reported":1762518062,"current_range_meters":18000,"station_id":"ce4bhsh2rcd13ifvqi2g","pricing_plan_id":"cebpf4jnsgd1na2vs0mg"},{"bike_id":"6d50bdc0-5f2c-43b6-bf1d-fa91b1758752","system_id":"levelo_inurba_marseille","lat":43.25918,"lon":5.40904,"is_reserved":false,"is_disabled":false,"rental_uris":{"android":"levelo://app?vid=6d50bdc0-5f2c-43b6-bf1d-fa91b1758752","ios":"levelo://app?vid=6d50bdc0-5f2c-43b6-bf1d-fa91b1758752"},"vehicle_type_id":"4","last_reported":1762518062,"current_range_meters":18000,"station_id":"ce4bhm92rcd13ifvqglg","pricing_plan_id":"cebpf4jnsgd1na2vs0mg"},{"bike_id":"092662f4-cb99-4ed5-9060-629f92de8ff1","system_id":"levelo_inurba_marseille","lat":43.27812,"lon":5.40709,"is_reserved":false,"is_disabled":false,"rental_uris":{"android":"levelo://app?vid=092662f4-cb99-4ed5-9060-629f92de8ff1","ios":"levelo://app?vid=092662f4-cb99-4ed5-9060-629f92de8ff1"},"vehicle_type_id":"4","last_reported":1762518062,"current_range_meters":18000,"station_id":"ce4bhnh2rcd13ifvqgtg","pricing_plan_id":"cebpf4jnsgd1na2vs0mg"},{"bike_id":"20967eda-00ce-4afc-b2ec-93bac5bc3b41","system_id":"levelo_inurba_marseille","lat":43.29019,"lon":5.38086,"is_reserved":false,"is_disabled":false,"rental_uris":{"android":"levelo://app?vid=20967eda-00ce-4afc-b2ec-93bac5bc3b41","ios":"levelo://app?vid=20967eda-00ce-4afc-b2ec-93bac5bc3b41"},"vehicle_type_id":"4","last_reported":1762518062,"current_range_meters":18000,"station_id":"ce4bh4p2rcd13ifvqe1g","pricing_plan_id":"cebpf4jnsgd1na2vs0mg"},{"bike_id":"74bb8ce2-1ec5-4414-94bf-bc4889d1e14c","system_id":"levelo_inurba_marseille","lat":43.3248,"lon":5.39527,"is_reserved":false,"is_disabled":false,"rental_uris":{"android":"levelo://app?vid=74bb8ce2-1ec5-4414-94bf-bc4889d1e14c","ios":"levelo://app?vid=74bb8ce2-1ec5-4414-94bf-bc4889d1e14c"},"vehicle_type_id":"4","last_reported":1762518062,"current_range_meters":18000,"station_id":"","pricing_plan_id":"cebpf4jnsgd1na2vs0mg"},{"bike_id":"21c2fc77-6cc7-4713-a17b-797d3e4bb82c","system_id":"levelo_inurba_marseille","lat":43.24665,"lon":5.38167,"is_reserved":false,"is_disabled":false,"rental_uris":{"android":"levelo://app?vid=21c2fc77-6cc7-4713-a17b-797d3e4bb82c","ios":"levelo://app?vid=21c2fc77-6cc7-4713-a17b-797d3e4bb82c"},"vehicle_type_id":"4","last_reported":1762518062,"current_range_meters":18000,"station_id":"ce4bhih2rcd13ifvqfr0","pricing_plan_id":"cebpf4jnsgd1na2vs0mg"},{"bike_id":"e5011005-3807-4044-b27f-c44a27e55594","system_id":"levelo_inurba_marseille","lat":43.29621,"lon":5.37162,"is_reserved":false,"is_disabled":false,"rental_uris":{"android":"levelo://app?vid=e5011005-3807-4044-b27f-c44a27e55594","ios":"levelo://app?vid=e5011005-3807-4044-b27f-c44a27e55594"},"vehicle_type_id":"4","last_reported":1762518062,"current_range_meters":18000,"station_id":"","pricing_plan_id":"cebpf4jnsgd1na2vs0mg"},{"bike_id":"d8e5a2ae-7558-4ca1-8f51-3799e24ce1ed","system_id":"levelo_inurba_marseille","lat":43.312174,"lon":5.368414,"is_reserved":false,"is_disabled":true,"rental_uris":{"android":"levelo://app?vid=d8e5a2ae-7558-4ca1-8f51-3799e24ce1ed","ios":"levelo://app?vid=d8e5a2ae-7558-4ca1-8f51-3799e24ce1ed"},"vehicle_type_id":"4","last_reported":1762518062,"current_range_meters":18800,"station_id":"ce4bgl92rcd13ifvqbq0","pricing_plan_id":"cebpf4jnsgd1na2vs0mg"},{"bike_id":"7e2f8f1c-d16c-43c6-b735-214741806923","system_id":"levelo_inurba_marseille","lat":43.2737,"lon":5.36269,"is_reserved":false,"is_disabled":false,"rental_uris":{"android":"levelo://app?vid=7e2f8f1c-d16c-43c6-b735-214741806923","ios":"levelo://app?vid=7e2f8f1c-d16c-43c6-b735-214741806923"},"vehicle_type_id":"4","last_reported":1762518062,"current_range_meters":18800,"station_id":"ce4bhbh2rcd13ifvqeo0","pricing_plan_id":"cebpf4jnsgd1na2vs0mg"},{"bike_id":"4267b514-ba5d-4574-adbd-2f1d6552ba83","system_id":"levelo_inurba_marseille","lat":43.29862,"lon":5.36275,"is_reserved":false,"is_disabled":false,"rental_uris":{"android":"levelo://app?vid=4267b514-ba5d-4574-adbd-2f1d6552ba83","ios":"levelo://app?vid=4267b514-ba5d-4574-adbd-2f1d6552ba83"},"vehicle_type_id":"4","last_reported":1762518062,"current_range_meters":18800,"station_id":"ce4bgpp2rcd13ifvqc3g","pricing_plan_id":"cebpf4jnsgd1na2vs0mg"},{"bike_id":"a52e199a-b6c0-46a6-81c2-ed40b23c08f7","system_id":"levelo_inurba_marseille","lat":43.242124,"lon":5.367317,"is_reserved":false,"is_disabled":false,"rental_uris":{"android":"levelo://app?vid=a52e199a-b6c0-46a6-81c2-ed40b23c08f7","ios":"levelo://app?vid=a52e199a-b6c0-46a6-81c2-ed40b23c08f7"},"vehicle_type_id":"4","last_reported":1762518062,"current_range_meters":18800,"station_id":"","pricing_plan_id":"cebpf4jnsgd1na2vs0mg"},{"bike_id":"106efc4b-3629-4c83-a1c4-3f4ee9d12cb6","system_id":"levelo_inurba_marseille","lat":43.30904,"lon":5.37307,"is_reserved":false,"is_disabled":false,"rental_uris":{"android":"levelo://app?vid=106efc4b-3629-4c83-a1c4-3f4ee9d12cb6","ios":"levelo://app?vid=106efc4b-3629-4c83-a1c4-3f4ee9d12cb6"},"vehicle_type_id":"4","last_reported":1762518062,"current_range_meters":18800,"station_id":"","pricing_plan_id":"cebpf4jnsgd1na2vs0mg"},{"bike_id":"c508dfa6-c4b6-4cea-a4ec-947e346a8310","system_id":"levelo_inurba_marseille","lat":43.33584,"lon":5.41009,"is_reserved":false,"is_disabled":true,"rental_uris":{"android":"levelo://app?vid=c508dfa6-c4b6-4cea-a4ec-947e346a8310","ios":"levelo://app?vid=c508dfa6-c4b6-4cea-a4ec-947e346a8310"},"vehicle_type_id":"4","last_reported":1762518062,"current_range_meters":18800,"station_id":"ce4bhqh2rcd13ifvqhmg","pricing_plan_id":"cebpf4jnsgd1na2vs0mg"},{"bike_id":"5430dbad-1cf4-4aed-b79e-a3de7d44f7f4","system_id":"levelo_inurba_marseille","lat":43.25935,"lon":5.40926,"is_reserved":false,"is_disabled":false,"rental_uris":{"android":"levelo://app?vid=5430dbad-1cf4-4aed-b79e-a3de7d44f7f4","ios":"levelo://app?vid=5430dbad-1cf4-4aed-b79e-a3de7d44f7f4"},"vehicle_type_id":"4","last_reported":1762518062,"current_range_meters":18800,"station_id":"ce4bhm92rcd13ifvqglg","pricing_plan_id":"cebpf4jnsgd1na2vs0mg"},{"bike_id":"9f6ec81b-2246-4666-92ef-add3d889a730","system_id":"levelo_inurba_marseille","lat":43.32325,"lon":5.385,"is_reserved":false,"is_disabled":false,"rental_uris":{"android":"levelo://app?vid=9f6ec81b-2246-4666-92ef-add3d889a730","ios":"levelo://app?vid=9f6ec81b-2246-4666-92ef-add3d889a730"},"vehicle_type_id":"4","last_reported":1762518062,"current_range_meters":18800,"station_id":"st_d45171o9ee8s73djdqug","pricing_plan_id":"cebpf4jnsgd1na2vs0mg"},{"bike_id":"a9a7f2fd-bccb-4766-9b76-6ebd00485992","system_id":"levelo_inurba_marseille","lat":43.29573,"lon":5.37508,"is_reserved":false,"is_disabled":false,"rental_uris":{"android":"levelo://app?vid=a9a7f2fd-bccb-4766-9b76-6ebd00485992","ios":"levelo://app?vid=a9a7f2fd-bccb-4766-9b76-6ebd00485992"},"vehicle_type_id":"4","last_reported":1762518062,"current_range_meters":18800,"station_id":"ce4bgh92rcd13ifvqb50","pricing_plan_id":"cebpf4jnsgd1na2vs0mg"},{"bike_id":"73db838f-62c6-4ff4-b0c4-ce9867c8af75","system_id":"levelo_inurba_marseille","lat":43.2953,"lon":5.38536,"is_reserved":false,"is_disabled":false,"rental_uris":{"android":"levelo://app?vid=73db838f-62c6-4ff4-b0c4-ce9867c8af75","ios":"levelo://app?vid=73db838f-62c6-4ff4-b0c4-ce9867c8af75"},"vehicle_type_id":"4","last_reported":1762518062,"current_range_meters":19200,"station_id":"ce4bgih2rcd13ifvqba0","pricing_plan_id":"cebpf4jnsgd1na2vs0mg"},{"bike_id":"39502855-e34d-4c4c-8471-722267809259","system_id":"levelo_inurba_marseille","lat":43.32479,"lon":5.36559,"is_reserved":false,"is_disabled":false,"rental_uris":{"android":"levelo://app?vid=39502855-e34d-4c4c-8471-722267809259","ios":"levelo://app?vid=39502855-e34d-4c4c-8471-722267809259"},"vehicle_type_id":"4","last_reported":1762518062,"current_range_meters":19200,"station_id":"ce4bhs12rcd13ifvqhvg","pricing_plan_id":"cebpf4jnsgd1na2vs0mg"},{"bike_id":"a80148b1-df9f-4be1-816f-5b66e875135c","system_id":"levelo_inurba_marseille","lat":43.24545,"lon":5.39522,"is_reserved":false,"is_disabled":false,"rental_uris":{"android":"levelo://app?vid=a80148b1-df9f-4be1-816f-5b66e875135c","ios":"levelo://app?vid=a80148b1-df9f-4be1-816f-5b66e875135c"},"vehicle_type_id":"4","last_reported":1762518062,"current_range_meters":19200,"station_id":"ce4bhlp2rcd13ifvqgjg","pricing_plan_id":"cebpf4jnsgd1na2vs0mg"},{"bike_id":"60b8aeeb-a62e-4fad-af10-b25ac3570115","system_id":"levelo_inurba_marseille","lat":43.25115,"lon":5.4032,"is_reserved":false,"is_disabled":false,"rental_uris":{"android":"levelo://app?vid=60b8aeeb-a62e-4fad-af10-b25ac3570115","ios":"levelo://app?vid=60b8aeeb-a62e-4fad-af10-b25ac3570115"},"vehicle_type_id":"4","last_reported":1762518062,"current_range_meters":19200,"station_id":"ce4bhlh2rcd13ifvqgig","pricing_plan_id":"cebpf4jnsgd1na2vs0mg"},{"bike_id":"58df984d-f6ad-47ef-818a-7818e887c7c9","system_id":"levelo_inurba_marseille","lat":43.30131,"lon":5.43109,"is_reserved":false,"is_disabled":false,"rental_uris":{"android":"levelo://app?vid=58df984d-f6ad-47ef-818a-7818e887c7c9","ios":"levelo://app?vid=58df984d-f6ad-47ef-818a-7818e887c7c9"},"vehicle_type_id":"4","last_reported":1762518062,"current_range_meters":19200,"station_id":"st_d3js3co5814s73ftftug","pricing_plan_id":"cebpf4jnsgd1na2vs0mg"},{"bike_id":"b5a4094a-84ce-4df7-9446-0f7cfecaa3c8","system_id":"levelo_inurba_marseille","lat":43.26056,"lon":5.39402,"is_reserved":false,"is_disabled":false,"rental_uris":{"android":"levelo://app?vid=b5a4094a-84ce-4df7-9446-0f7cfecaa3c8","ios":"levelo://app?vid=b5a4094a-84ce-4df7-9446-0f7cfecaa3c8"},"vehicle_type_id":"4","last_reported":1762518062,"current_range_meters":19200,"station_id":"ce4bhh92rcd13ifvqfj0","pricing_plan_id":"cebpf4jnsgd1na2vs0mg"},{"bike_id":"76a99130-27d1-43f4-b229-3de797b3043a","system_id":"levelo_inurba_marseille","lat":43.272119,"lon":5.391799,"is_reserved":false,"is_disabled":false,"rental_uris":{"android":"levelo://app?vid=76a99130-27d1-43f4-b229-3de797b3043a","ios":"levelo://app?vid=76a99130-27d1-43f4-b229-3de797b3043a"},"vehicle_type_id":"4","last_reported":1762518062,"current_range_meters":19200,"station_id":"ce4bhhp2rcd13ifvqfm0","pricing_plan_id":"cebpf4jnsgd1na2vs0mg"},{"bike_id":"a7074784-7394-4575-9b19-f3061e86a019","system_id":"levelo_inurba_marseille","lat":43.25942,"lon":5.40901,"is_reserved":false,"is_disabled":false,"rental_uris":{"android":"levelo://app?vid=a7074784-7394-4575-9b19-f3061e86a019","ios":"levelo://app?vid=a7074784-7394-4575-9b19-f3061e86a019"},"vehicle_type_id":"4","last_reported":1762518062,"current_range_meters":19200,"station_id":"ce4bhm92rcd13ifvqglg","pricing_plan_id":"cebpf4jnsgd1na2vs0mg"},{"bike_id":"9dd1cd83-17be-490b-acba-0640a7408c5b","system_id":"levelo_inurba_marseille","lat":43.29024,"lon":5.38137,"is_reserved":false,"is_disabled":false,"rental_uris":{"android":"levelo://app?vid=9dd1cd83-17be-490b-acba-0640a7408c5b","ios":"levelo://app?vid=9dd1cd83-17be-490b-acba-0640a7408c5b"},"vehicle_type_id":"4","last_reported":1762518062,"current_range_meters":19200,"station_id":"ce4bh4p2rcd13ifvqe1g","pricing_plan_id":"cebpf4jnsgd1na2vs0mg"},{"bike_id":"adc728c4-7d88-468c-be89-220c19218372","system_id":"levelo_inurba_marseille","lat":43.31615,"lon":5.38339,"is_reserved":false,"is_disabled":false,"rental_uris":{"android":"levelo://app?vid=adc728c4-7d88-468c-be89-220c19218372","ios":"levelo://app?vid=adc728c4-7d88-468c-be89-220c19218372"},"vehicle_type_id":"4","last_reported":1762518062,"current_range_meters":19600,"station_id":"","pricing_plan_id":"cebpf4jnsgd1na2vs0mg"},{"bike_id":"8f31393f-2e30-46a4-81df-56f26a8088fe","system_id":"levelo_inurba_marseille","lat":43.239663,"lon":5.366224,"is_reserved":false,"is_disabled":false,"rental_uris":{"android":"levelo://app?vid=8f31393f-2e30-46a4-81df-56f26a8088fe","ios":"levelo://app?vid=8f31393f-2e30-46a4-81df-56f26a8088fe"},"vehicle_type_id":"4","last_reported":1762518062,"current_range_meters":19600,"station_id":"ce4bhi12rcd13ifvqfp0","pricing_plan_id":"cebpf4jnsgd1na2vs0mg"},{"bike_id":"5098c842-5e48-40e2-b457-cc6766f8dfac","system_id":"levelo_inurba_marseille","lat":43.257285,"lon":5.411066,"is_reserved":false,"is_disabled":false,"rental_uris":{"android":"levelo://app?vid=5098c842-5e48-40e2-b457-cc6766f8dfac","ios":"levelo://app?vid=5098c842-5e48-40e2-b457-cc6766f8dfac"},"vehicle_type_id":"4","last_reported":1762518062,"current_range_meters":19600,"station_id":"ce4bhkp2rcd13ifvqgd0","pricing_plan_id":"cebpf4jnsgd1na2vs0mg"},{"bike_id":"dbee49ee-a6a4-424c-8899-e49861d4509e","system_id":"levelo_inurba_marseille","lat":43.28201,"lon":5.38652,"is_reserved":false,"is_disabled":false,"rental_uris":{"android":"levelo://app?vid=dbee49ee-a6a4-424c-8899-e49861d4509e","ios":"levelo://app?vid=dbee49ee-a6a4-424c-8899-e49861d4509e"},"vehicle_type_id":"4","last_reported":1762518062,"current_range_meters":19600,"station_id":"","pricing_plan_id":"cebpf4jnsgd1na2vs0mg"},{"bike_id":"12a262df-0435-4377-8388-5f6d89a6a6e0","system_id":"levelo_inurba_marseille","lat":43.29917,"lon":5.37474,"is_reserved":false,"is_disabled":false,"rental_uris":{"android":"levelo://app?vid=12a262df-0435-4377-8388-5f6d89a6a6e0","ios":"levelo://app?vid=12a262df-0435-4377-8388-5f6d89a6a6e0"},"vehicle_type_id":"4","last_reported":1762518062,"current_range_meters":19600,"station_id":"ce4bgjh2rcd13ifvqbg0","pricing_plan_id":"cebpf4jnsgd1na2vs0mg"},{"bike_id":"d2991a60-dcfa-4252-8f9d-bfff4b1dc433","system_id":"levelo_inurba_marseille","lat":43.310534,"lon":5.371365,"is_reserved":false,"is_disabled":false,"rental_uris":{"android":"levelo://app?vid=d2991a60-dcfa-4252-8f9d-bfff4b1dc433","ios":"levelo://app?vid=d2991a60-dcfa-4252-8f9d-bfff4b1dc433"},"vehicle_type_id":"4","last_reported":1762518062,"current_range_meters":19600,"station_id":"","pricing_plan_id":"cebpf4jnsgd1na2vs0mg"},{"bike_id":"4bce02cb-bdba-488a-a39f-eae80d4c7da8","system_id":"levelo_inurba_marseille","lat":43.282243,"lon":5.390753,"is_reserved":false,"is_disabled":true,"rental_uris":{"android":"levelo://app?vid=4bce02cb-bdba-488a-a39f-eae80d4c7da8","ios":"levelo://app?vid=4bce02cb-bdba-488a-a39f-eae80d4c7da8"},"vehicle_type_id":"4","last_reported":1762518062,"current_range_meters":19600,"station_id":"ce4bhn92rcd13ifvqgsg","pricing_plan_id":"cebpf4jnsgd1na2vs0mg"},{"bike_id":"1db37ddb-c1d7-4181-9057-2b050d14e0b6","system_id":"levelo_inurba_marseille","lat":43.311135,"lon":5.377541,"is_reserved":false,"is_disabled":false,"rental_uris":{"android":"levelo://app?vid=1db37ddb-c1d7-4181-9057-2b050d14e0b6","ios":"levelo://app?vid=1db37ddb-c1d7-4181-9057-2b050d14e0b6"},"vehicle_type_id":"4","last_reported":1762518062,"current_range_meters":19600,"station_id":"ce4bgt92rcd13ifvqcg0","pricing_plan_id":"cebpf4jnsgd1na2vs0mg"},{"bike_id":"d9b70e7d-c3bc-4f53-93da-b5ce7b3e0d4f","system_id":"levelo_inurba_marseille","lat":43.30526,"lon":5.36549,"is_reserved":false,"is_disabled":false,"rental_uris":{"android":"levelo://app?vid=d9b70e7d-c3bc-4f53-93da-b5ce7b3e0d4f","ios":"levelo://app?vid=d9b70e7d-c3bc-4f53-93da-b5ce7b3e0d4f"},"vehicle_type_id":"4","last_reported":1762518062,"current_range_meters":20000,"station_id":"ce4bgs12rcd13ifvqcag","pricing_plan_id":"cebpf4jnsgd1na2vs0mg"},{"bike_id":"d71e32df-de87-4820-9243-a6eaa7144314","system_id":"levelo_inurba_marseille","lat":43.33603,"lon":5.41034,"is_reserved":false,"is_disabled":false,"rental_uris":{"android":"levelo://app?vid=d71e32df-de87-4820-9243-a6eaa7144314","ios":"levelo://app?vid=d71e32df-de87-4820-9243-a6eaa7144314"},"vehicle_type_id":"4","last_reported":1762518062,"current_range_meters":20000,"station_id":"ce4bhqh2rcd13ifvqhmg","pricing_plan_id":"cebpf4jnsgd1na2vs0mg"},{"bike_id":"e5401a18-805a-42ca-a5b1-fdb4c62a401c","system_id":"levelo_inurba_marseille","lat":43.29533,"lon":5.38538,"is_reserved":false,"is_disabled":false,"rental_uris":{"android":"levelo://app?vid=e5401a18-805a-42ca-a5b1-fdb4c62a401c","ios":"levelo://app?vid=e5401a18-805a-42ca-a5b1-fdb4c62a401c"},"vehicle_type_id":"4","last_reported":1762518062,"current_range_meters":20000,"station_id":"ce4bgih2rcd13ifvqba0","pricing_plan_id":"cebpf4jnsgd1na2vs0mg"},{"bike_id":"30bdb5e2-e90a-43d5-bf90-d66effcd0ded","system_id":"levelo_inurba_marseille","lat":43.30468,"lon":5.37903,"is_reserved":false,"is_disabled":false,"rental_uris":{"android":"levelo://app?vid=30bdb5e2-e90a-43d5-bf90-d66effcd0ded","ios":"levelo://app?vid=30bdb5e2-e90a-43d5-bf90-d66effcd0ded"},"vehicle_type_id":"4","last_reported":1762518062,"current_range_meters":20000,"station_id":"ce4bgup2rcd13ifvqcn0","pricing_plan_id":"cebpf4jnsgd1na2vs0mg"},