{"last_updated":1685894878,"ttl":30,"version":"2.2","data":{"bikes":[{"bike_id":"765bb8a7-6cfa-4969-821d-37f09af5fb46","system_id":"levelo_inurba_marseille","lat":43.314811,"lon":5.373103,"is_reserved":false,"is_disabled":false,"rental_uris":{"android":"levelo://app?vid=765bb8a7-6cfa-4969-821d-37f09af5fb46","ios":"levelo://app?vid=765bb8a7-6cfa-4969-821d-37f09af5fb46"},"vehicle_type_id":"4","last_reported":1685894879,"current_range_meters":23600,"station_id":"ce4bgt12rcd13ifvqcd0","pricing_plan_id":"free"},{"bike_id":"048be98a-d3e1-4397-bf58-9e37d125046f","system_id":"levelo_inurba_marseille","lat":43.31756,"lon":5.36939,"is_reserved":false,"is_disabled":false,"rental_uris":{"android":"levelo://app?vid=048be98a-d3e1-4397-bf58-9e37d125046f","ios":"levelo://app?vid=048be98a-d3e1-4397-bf58-9e37d125046f"},"vehicle_type_id":"4","last_reported":1685894879,"current_range_meters":10800,"station_id":"","pricing_plan_id":"free"},{"bike_id":"b9a91186-8d63-4d5b-b806-2341189f4f66","system_id":"levelo_inurba_marseille","lat":43.308614,"lon":5.372098,"is_reserved":false,"is_disabled":false,"rental_uris":{"android":"levelo://app?vid=b9a91186-8d63-4d5b-b806-2341189f4f66","ios":"levelo://app?vid=b9a91186-8d63-4d5b-b806-2341189f4f66"},"vehicle_type_id":"4","last_reported":1685894879,"current_range_meters":19200,"station_id":"ce4bguh2rcd13ifvqckg","pricing_plan_id":"free"},{"bike_id":"4d43e892-ec90-4fce-8475-f727fed3851f","system_id":"levelo_inurba_marseille","lat":43.31796,"lon":5.3682,"is_reserved":false,"is_disabled":false,"rental_uris":{"android":"levelo://app?vid=4d43e892-ec90-4fce-8475-f727fed3851f","ios":"levelo://app?vid=4d43e892-ec90-4fce-8475-f727fed3851f"},"vehicle_type_id":"4","last_reported":1685894879,"current_range_meters":400,"station_id":"","pricing_plan_id":"free"},{"bike_id":"e91e9d3d-4be1-4088-9b07-7d3f10b598d6","system_id":"levelo_inurba_marseille","lat":43.3079,"lon":5.37333,"is_reserved":false,"is_disabled":false,"rental_uris":{"android":"levelo://app?vid=e91e9d3d-4be1-4088-9b07-7d3f10b598d6","ios":"levelo://app?vid=e91e9d3d-4be1-4088-9b07-7d3f10b598d6"},"vehicle_type_id":"4","last_reported":1685894879,"current_range_meters":7200,"station_id":"","pricing_plan_id":"free"},{"bike_id":"a2bcefb7-d80b-474e-a9b3-abecb50796eb","system_id":"levelo_inurba_marseille","lat":43.30791,"lon":5.37348,"is_reserved":false,"is_disabled":false,"rental_uris":{"android":"levelo://app?vid=a2bcefb7-d80b-474e-a9b3-abecb50796eb","ios":"levelo://app?vid=a2bcefb7-d80b-474e-a9b3-abecb50796eb"},"vehicle_type_id":"4","last_reported":1685894879,"current_range_meters":30000,"station_id":"","pricing_plan_id":"free"},{"bike_id":"f51b3cb8-f96d-4658-a3b4-0d41559754f9","system_id":"levelo_inurba_marseille","lat":43.30785,"lon":5.3734,"is_reserved":false,"is_disabled":false,"rental_uris":{"android":"levelo://app?vid=f51b3cb8-f96d-4658-a3b4-0d41559754f9","ios":"levelo://app?vid=f51b3cb8-f96d-4658-a3b4-0d41559754f9"},"vehicle_type_id":"4","last_reported":1685894879,"current_range_meters":28000,"station_id":"","pricing_plan_id":"free"},{"bike_id":"1ebd0928-1fba-4e6c-b794-31a38f27c067","system_id":"levelo_inurba_marseille","lat":43.30786,"lon":5.37349,"is_reserved":false,"is_disabled":false,"rental_uris":{"android":"levelo://app?vid=1ebd0928-1fba-4e6c-b794-31a38f27c067","ios":"levelo://app?vid=1ebd0928-1fba-4e6c-b794-31a38f27c067"},"vehicle_type_id":"4","last_reported":1685894879,"current_range_meters":24400,"station_id":"","pricing_plan_id":"free"},{"bike_id":"8a1657d6-0842-4465-a6f2-0079f46bf27b","system_id":"levelo_inurba_marseille","lat":43.305368,"lon":5.367343,"is_reserved":false,"is_disabled":false,"rental_uris":{"android":"levelo://app?vid=8a1657d6-0842-4465-a6f2-0079f46bf27b","ios":"levelo://app?vid=8a1657d6-0842-4465-a6f2-0079f46bf27b"},"vehicle_type_id":"4","last_reported":1685894879,"current_range_meters":2400,"station_id":"ce4bgrp2rcd13ifvqc9g","pricing_plan_id":"free"},{"bike_id":"e57b3d1e-03c2-4419-b34f-c709c9b896e3","system_id":"levelo_inurba_marseille","lat":43.30544,"lon":5.36547,"is_reserved":false,"is_disabled":false,"rental_uris":{"android":"levelo://app?vid=e57b3d1e-03c2-4419-b34f-c709c9b896e3","ios":"levelo://app?vid=e57b3d1e-03c2-4419-b34f-c709c9b896e3"},"vehicle_type_id":"4","last_reported":1685894879,"current_range_meters":2400,"station_id":"","pricing_plan_id":"free"},{"bike_id":"8f02d943-6bbe-4eeb-a15d-4723cb39f7bd","system_id":"levelo_inurba_marseille","lat":43.30541,"lon":5.36561,"is_reserved":false,"is_disabled":false,"rental_uris":{"android":"levelo://app?vid=8f02d943-6bbe-4eeb-a15d-4723cb39f7bd","ios":"levelo://app?vid=8f02d943-6bbe-4eeb-a15d-4723cb39f7bd"},"vehicle_type_id":"4","last_reported":1685894879,"current_range_meters":0,"station_id":"","pricing_plan_id":"free"},{"bike_id":"99417c18-177c-4ba5-ab68-51d8f29bbc8c","system_id":"levelo_inurba_marseille","lat":43.305368,"lon":5.367343,"is_reserved":false,"is_disabled":false,"rental_uris":{"android":"levelo://app?vid=99417c18-177c-4ba5-ab68-51d8f29bbc8c","ios":"levelo://app?vid=99417c18-177c-4ba5-ab68-51d8f29bbc8c"},"vehicle_type_id":"4","last_reported":1685894879,"current_range_meters":9200,"station_id":"ce4bgrp2rcd13ifvqc9g","pricing_plan_id":"free"},{"bike_id":"b4050533-ab57-41df-8b2c-d3104497a341","system_id":"levelo_inurba_marseille","lat":43.3054,"lon":5.36542,"is_reserved":false,"is_disabled":false,"rental_uris":{"android":"levelo://app?vid=b4050533-ab57-41df-8b2c-d3104497a341","ios":"levelo://app?vid=b4050533-ab57-41df-8b2c-d3104497a341"},"vehicle_type_id":"4","last_reported":1685894879,"current_range_meters":0,"station_id":"","pricing_plan_id":"free"},{"bike_id":"290b6954-facb-4fa7-b109-8f7a8b722a00","system_id":"levelo_inurba_marseille","lat":43.305989,"lon":5.37225,"is_reserved":false,"is_disabled":false,"rental_uris":{"android":"levelo://app?vid=290b6954-facb-4fa7-b109-8f7a8b722a00","ios":"levelo://app?vid=290b6954-facb-4fa7-b109-8f7a8b722a00"},"vehicle_type_id":"4","last_reported":1685894879,"current_range_meters":5200,"station_id":"ce4bgqh2rcd13ifvqc4g","pricing_plan_id":"free"},{"bike_id":"eeffbaa8-591b-46e8-8e62-b7c9333cefee","system_id":"levelo_inurba_marseille","lat":43.311175,"lon":5.377713,"is_reserved":false,"is_disabled":false,"rental_uris":{"android":"levelo://app?vid=eeffbaa8-591b-46e8-8e62-b7c9333cefee","ios":"levelo://app?vid=eeffbaa8-591b-46e8-8e62-b7c9333cefee"},"vehicle_type_id":"4","last_reported":1685894879,"current_range_meters":16800,"station_id":"","pricing_plan_id":"free"},{"bike_id":"571e3afa-55ba-4f67-87ce-85de1704e419","system_id":"levelo_inurba_marseille","lat":43.317075,"lon":5.377367,"is_reserved":false,"is_disabled":false,"rental_uris":{"android":"levelo://app?vid=571e3afa-55ba-4f67-87ce-85de1704e419","ios":"levelo://app?vid=571e3afa-55ba-4f67-87ce-85de1704e419"},"vehicle_type_id":"4","last_reported":1685894879,"current_range_meters":27200,"station_id":"ce4bgth2rcd13ifvqch0","pricing_plan_id":"free"},{"bike_id":"9dfdef4a-fcbb-444e-9025-b395fc567a1f","system_id":"levelo_inurba_marseille","lat":43.303046,"lon":5.368981,"is_reserved":false,"is_disabled":false,"rental_uris":{"android":"levelo://app?vid=9dfdef4a-fcbb-444e-9025-b395fc567a1f","ios":"levelo://app?vid=9dfdef4a-fcbb-444e-9025-b395fc567a1f"},"vehicle_type_id":"4","last_reported":1685894879,"current_range_meters":19200,"station_id":"ce4bgqh2rcd13ifvqc5g","pricing_plan_id":"free"},{"bike_id":"e931ce23-b3e4-4bb7-81c3-c6d5cc78e83b","system_id":"levelo_inurba_marseille","lat":43.31553,"lon":5.38036,"is_reserved":false,"is_disabled":false,"rental_uris":{"android":"levelo://app?vid=e931ce23-b3e4-4bb7-81c3-c6d5cc78e83b","ios":"levelo://app?vid=e931ce23-b3e4-4bb7-81c3-c6d5cc78e83b"},"vehicle_type_id":"4","last_reported":1685894879,"current_range_meters":18800,"station_id":"ce4bhsp2rcd13ifvqi50","pricing_plan_id":"free"},{"bike_id":"c280ad7b-c290-4548-bfbd-9eddf498f966","system_id":"levelo_inurba_marseille","lat":43.3243,"lon":5.36978,"is_reserved":false,"is_disabled":false,"rental_uris":{"android":"levelo://app?vid=c280ad7b-c290-4548-bfbd-9eddf498f966","ios":"levelo://app?vid=c280ad7b-c290-4548-bfbd-9eddf498f966"},"vehicle_type_id":"4","last_reported":1685894879,"current_range_meters":12800,"station_id":"","pricing_plan_id":"free"},{"bike_id":"fac00b41-f822-4228-8057-64ca02427c74","system_id":"levelo_inurba_marseille","lat":43.32436,"lon":5.36979,"is_reserved":false,"is_disabled":false,"rental_uris":{"android":"levelo://app?vid=fac00b41-f822-4228-8057-64ca02427c74","ios":"levelo://app?vid=fac00b41-f822-4228-8057-64ca02427c74"},"vehicle_type_id":"4","last_reported":1685894879,"current_range_meters":26400,"station_id":"","pricing_plan_id":"free"},{"bike_id":"a1b47506-3af6-49ce-aaf8-d41e1009a432","system_id":"levelo_inurba_marseille","lat":43.304606,"lon":5.379026,"is_reserved":false,"is_disabled":false,"rental_uris":{"android":"levelo://app?vid=a1b47506-3af6-49ce-aaf8-d41e1009a432","ios":"levelo://app?vid=a1b47506-3af6-49ce-aaf8-d41e1009a432"},"vehicle_type_id":"4","last_reported":1685894879,"current_range_meters":26800,"station_id":"ce4bgup2rcd13ifvqcn0","pricing_plan_id":"free"},{"bike_id":"994fd81e-6db6-4408-acc8-bec511d624f9","system_id":"levelo_inurba_marseille","lat":43.32,"lon":5.3815,"is_reserved":false,"is_disabled":false,"rental_uris":{"android":"levelo://app?vid=994fd81e-6db6-4408-acc8-bec511d624f9","ios":"levelo://app?vid=994fd81e-6db6-4408-acc8-bec511d624f9"},"vehicle_type_id":"4","last_reported":1685894879,"current_range_meters":16000,"station_id":"ce4bhr12rcd13ifvqhpg","pricing_plan_id":"free"},{"bike_id":"1f1dc83b-8ccb-4689-a2db-9ce7e1fda49c","system_id":"levelo_inurba_marseille","lat":43.319935,"lon":5.381699,"is_reserved":false,"is_disabled":false,"rental_uris":{"android":"levelo://app?vid=1f1dc83b-8ccb-4689-a2db-9ce7e1fda49c","ios":"levelo://app?vid=1f1dc83b-8ccb-4689-a2db-9ce7e1fda49c"},"vehicle_type_id":"4","last_reported":1685894879,"current_range_meters":2800,"station_id":"ce4bhr12rcd13ifvqhpg","pricing_plan_id":"free"},{"bike_id":"36136d78-2be3-4b19-a90a-7711a04c3c3a","system_id":"levelo_inurba_marseille","lat":43.31378,"lon":5.38508,"is_reserved":false,"is_disabled":false,"rental_uris":{"android":"levelo://app?vid=36136d78-2be3-4b19-a90a-7711a04c3c3a","ios":"levelo://app?vid=36136d78-2be3-4b19-a90a-7711a04c3c3a"},"vehicle_type_id":"4","last_reported":1685894879,"current_range_meters":15200,"station_id":"","pricing_plan_id":"free"},{"bike_id":"187303ab-37dc-4398-9e32-12ce603d1df2","system_id":"levelo_inurba_marseille","lat":43.29849,"lon":5.36288,"is_reserved":false,"is_disabled":false,"rental_uris":{"android":"levelo://app?vid=187303ab-37dc-4398-9e32-12ce603d1df2","ios":"levelo://app?vid=187303ab-37dc-4398-9e32-12ce603d1df2"},"vehicle_type_id":"4","last_reported":1685894879,"current_range_meters":17200,"station_id":"ce4bgpp2rcd13ifvqc3g","pricing_plan_id":"free"},{"bike_id":"e528ebe3-b001-40fe-a2d8-b8383e45a40d","system_id":"levelo_inurba_marseille","lat":43.298433,"lon":5.362774,"is_reserved":false,"is_disabled":false,"rental_uris":{"android":"levelo://app?vid=e528ebe3-b001-40fe-a2d8-b8383e45a40d","ios":"levelo://app?vid=e528ebe3-b001-40fe-a2d8-b8383e45a40d"},"vehicle_type_id":"4","last_reported":1685894879,"current_range_meters":31200,"station_id":"ce4bgpp2rcd13ifvqc3g","pricing_plan_id":"free"},{"bike_id":"1c135fe6-598b-40b1-8d5f-76dd9aad31fe","system_id":"levelo_inurba_marseille","lat":43.29846,"lon":5.36277,"is_reserved":false,"is_disabled":false,"rental_uris":{"android":"levelo://app?vid=1c135fe6-598b-40b1-8d5f-76dd9aad31fe","ios":"levelo://app?vid=1c135fe6-598b-40b1-8d5f-76dd9aad31fe"},"vehicle_type_id":"4","last_reported":1685894879,"current_range_meters":28400,"station_id":"ce4bgpp2rcd13ifvqc3g","pricing_plan_id":"free"},{"bike_id":"ea298bee-86cf-4842-bffc-fdf168c61a17","system_id":"levelo_inurba_marseille","lat":43.299243,"lon":5.374807,"is_reserved":false,"is_disabled":false,"rental_uris":{"android":"levelo://app?vid=ea298bee-86cf-4842-bffc-fdf168c61a17","ios":"levelo://app?vid=ea298bee-86cf-4842-bffc-fdf168c61a17"},"vehicle_type_id":"4","last_reported":1685894879,"current_range_meters":14000,"station_id":"ce4bgjh2rcd13ifvqbg0","pricing_plan_id":"free"},{"bike_id":"9089e0b8-46be-4db6-80f4-7c11463a4fda","system_id":"levelo_inurba_marseille","lat":43.311722,"lon":5.387247,"is_reserved":false,"is_disabled":false,"rental_uris":{"android":"levelo://app?vid=9089e0b8-46be-4db6-80f4-7c11463a4fda","ios":"levelo://app?vid=9089e0b8-46be-4db6-80f4-7c11463a4fda"},"vehicle_type_id":"4","last_reported":1685894879,"current_range_meters":12800,"station_id":"ce4bgv12rcd13ifvqcp0","pricing_plan_id":"free"},{"bike_id":"394a7b0d-6f86-4017-a31e-1c147e2f2d97","system_id":"levelo_inurba_marseille","lat":43.311722,"lon":5.387247,"is_reserved":false,"is_disabled":false,"rental_uris":{"android":"levelo://app?vid=394a7b0d-6f86-4017-a31e-1c147e2f2d97","ios":"levelo://app?vid=394a7b0d-6f86-4017-a31e-1c147e2f2d97"},"vehicle_type_id":"4","last_reported":1685894879,"current_range_meters":16400,"station_id":"ce4bgv12rcd13ifvqcp0","pricing_plan_id":"free"},{"bike_id":"9cdfc76d-fefe-4e3f-886b-5d7fa5465a0e","system_id":"levelo_inurba_marseille","lat":43.32822,"lon":5.36692,"is_reserved":false,"is_disabled":false,"rental_uris":{"android":"levelo://app?vid=9cdfc76d-fefe-4e3f-886b-5d7fa5465a0e","ios":"levelo://app?vid=9cdfc76d-fefe-4e3f-886b-5d7fa5465a0e"},"vehicle_type_id":"4","last_reported":1685894879,"current_range_meters":2400,"station_id":"ce4bhs92rcd13ifvqi0g","pricing_plan_id":"free"},{"bike_id":"0a2644ee-3284-46a4-b383-c1008b4493c6","system_id":"levelo_inurba_marseille","lat":43.32826,"lon":5.36692,"is_reserved":false,"is_disabled":false,"rental_uris":{"android":"levelo://app?vid=0a2644ee-3284-46a4-b383-c1008b4493c6","ios":"levelo://app?vid=0a2644ee-3284-46a4-b383-c1008b4493c6"},"vehicle_type_id":"4","last_reported":1685894879,"current_range_meters":25200,"station_id":"ce4bhs92rcd13ifvqi0g","pricing_plan_id":"free"},{"bike_id":"5d164296-04e4-43b5-9d1b-9779a41e0d7b","system_id":"levelo_inurba_marseille","lat":43.328371,"lon":5.366912,"is_reserved":false,"is_disabled":false,"rental_uris":{"android":"levelo://app?vid=5d164296-04e4-43b5-9d1b-9779a41e0d7b","ios":"levelo://app?vid=5d164296-04e4-43b5-9d1b-9779a41e0d7b"},"vehicle_type_id":"4","last_reported":1685894879,"current_range_meters":7600,"station_id":"ce4bhs92rcd13ifvqi0g","pricing_plan_id":"free"},{"bike_id":"edbe0225-6ecb-41d9-ad7e-59924a9f08a7","system_id":"levelo_inurba_marseille","lat":43.328371,"lon":5.366912,"is_reserved":false,"is_disabled":false,"rental_uris":{"android":"levelo://app?vid=edbe0225-6ecb-41d9-ad7e-59924a9f08a7","ios":"levelo://app?vid=edbe0225-6ecb-41d9-ad7e-59924a9f08a7"},"vehicle_type_id":"4","last_reported":1685894879,"current_range_meters":6800,"station_id":"ce4bhs92rcd13ifvqi0g","pricing_plan_id":"free"},{"bike_id":"93fe580d-71c0-4856-a27e-71bfe60b8232","system_id":"levelo_inurba_marseille","lat":43.32834,"lon":5.36689,"is_reserved":false,"is_disabled":false,"rental_uris":{"android":"levelo://app?vid=93fe580d-71c0-4856-a27e-71bfe60b8232","ios":"levelo://app?vid=93fe580d-71c0-4856-a27e-71bfe60b8232"},"vehicle_type_id":"4","last_reported":1685894879,"current_range_meters":20400,"station_id":"ce4bhs92rcd13ifvqi0g","pricing_plan_id":"free"},{"bike_id":"eb8e4412-a3fa-4a69-9d75-1a8b980ed125","system_id":"levelo_inurba_marseille","lat":43.29874,"lon":5.37646,"is_reserved":false,"is_disabled":false,"rental_uris":{"android":"levelo://app?vid=eb8e4412-a3fa-4a69-9d75-1a8b980ed125","ios":"levelo://app?vid=eb8e4412-a3fa-4a69-9d75-1a8b980ed125"},"vehicle_type_id":"4","last_reported":1685894879,"current_range_meters":26000,"station_id":"","pricing_plan_id":"free"},{"bike_id":"c957c23a-5f71-48b3-920d-3eb9d16491cd","system_id":"levelo_inurba_marseille","lat":43.32841,"lon":5.36682,"is_reserved":false,"is_disabled":false,"rental_uris":{"android":"levelo://app?vid=c957c23a-5f71-48b3-920d-3eb9d16491cd","ios":"levelo://app?vid=c957c23a-5f71-48b3-920d-3eb9d16491cd"},"vehicle_type_id":"4","last_reported":1685894879,"current_range_meters":25600,"station_id":"ce4bhs92rcd13ifvqi0g","pricing_plan_id":"free"},{"bike_id":"b9cf6557-2db2-4828-97f1-13a369745ef6","system_id":"levelo_inurba_marseille","lat":43.32761,"lon":5.3747,"is_reserved":false,"is_disabled":false,"rental_uris":{"android":"levelo://app?vid=b9cf6557-2db2-4828-97f1-13a369745ef6","ios":"levelo://app?vid=b9cf6557-2db2-4828-97f1-13a369745ef6"},"vehicle_type_id":"4","last_reported":1685894879,"current_range_meters":4400,"station_id":"","pricing_plan_id":"free"},{"bike_id":"b99848e4-cffd-44e8-9ddb-01be716b7b0c","system_id":"levelo_inurba_marseille","lat":43.296131,"lon":5.370773,"is_reserved":false,"is_disabled":false,"rental_uris":{"android":"levelo://app?vid=b99848e4-cffd-44e8-9ddb-01be716b7b0c","ios":"levelo://app?vid=b99848e4-cffd-44e8-9ddb-01be716b7b0c"},"vehicle_type_id":"4","last_reported":1685894879,"current_range_meters":22400,"station_id":"ce4bgnh2rcd13ifvqc0g","pricing_plan_id":"free"},{"bike_id":"9d075944-f456-456d-b38b-be26ab41bb73","system_id":"levelo_inurba_marseille","lat":43.309589,"lon":5.390258,"is_reserved":false,"is_disabled":false,"rental_uris":{"android":"levelo://app?vid=9d075944-f456-456d-b38b-be26ab41bb73","ios":"levelo://app?vid=9d075944-f456-456d-b38b-be26ab41bb73"},"vehicle_type_id":"4","last_reported":1685894879,"current_range_meters":23200,"station_id":"ce4bgup2rcd13ifvqco0","pricing_plan_id":"free"},{"bike_id":"07f62f98-919e-4b71-a429-5882e11679b6","system_id":"levelo_inurba_marseille","lat":43.317557,"lon":5.390173,"is_reserved":false,"is_disabled":false,"rental_uris":{"android":"levelo://app?vid=07f62f98-919e-4b71-a429-5882e11679b6","ios":"levelo://app?vid=07f62f98-919e-4b71-a429-5882e11679b6"},"vehicle_type_id":"4","last_reported":1685894879,"current_range_meters":26400,"station_id":"ce4bhqp2rcd13ifvqhng","pricing_plan_id":"free"},{"bike_id":"8a1e2e67-abfb-4bf6-9b20-2284fff3d6a5","system_id":"levelo_inurba_marseille","lat":43.304274,"lon":5.388873,"is_reserved":false,"is_disabled":false,"rental_uris":{"android":"levelo://app?vid=8a1e2e67-abfb-4bf6-9b20-2284fff3d6a5","ios":"levelo://app?vid=8a1e2e67-abfb-4bf6-9b20-2284fff3d6a5"},"vehicle_type_id":"4","last_reported":1685894879,"current_range_meters":16000,"station_id":"ce4bgk12rcd13ifvqbi0","pricing_plan_id":"free"},{"bike_id":"4062d92a-8d47-495d-ab1b-47eb747482b6","system_id":"levelo_inurba_marseille","lat":43.29748,"lon":5.38105,"is_reserved":false,"is_disabled":false,"rental_uris":{"android":"levelo://app?vid=4062d92a-8d47-495d-ab1b-47eb747482b6","ios":"levelo://app?vid=4062d92a-8d47-495d-ab1b-47eb747482b6"},"vehicle_type_id":"4","last_reported":1685894879,"current_range_meters":29600,"station_id":"","pricing_plan_id":"free"},{"bike_id":"17546d8f-f7c9-4e18-8c45-849b5062e26c","system_id":"levelo_inurba_marseille","lat":43.299765,"lon":5.384885,"is_reserved":false,"is_disabled":false,"rental_uris":{"android":"levelo://app?vid=17546d8f-f7c9-4e18-8c45-849b5062e26c","ios":"levelo://app?vid=17546d8f-f7c9-4e18-8c45-849b5062e26c"},"vehicle_type_id":"4","last_reported":1685894879,"current_range_meters":2800,"station_id":"ce4bgih2rcd13ifvqba0","pricing_plan_id":"free"},{"bike_id":"07d4f555-0b76-4fbb-bfb4-924a0eab1d37","system_id":"levelo_inurba_marseille","lat":43.32367,"lon":5.388836,"is_reserved":false,"is_disabled":false,"rental_uris":{"android":"levelo://app?vid=07d4f555-0b76-4fbb-bfb4-924a0eab1d37","ios":"levelo://app?vid=07d4f555-0b76-4fbb-bfb4-924a0eab1d37"},"vehicle_type_id":"4","last_reported":1685894879,"current_range_meters":19600,"station_id":"ce4bhqp2rcd13ifvqhog","pricing_plan_id":"free"},{"bike_id":"e06f3354-a0d2-47ef-bd3d-ca8321070c24","system_id":"levelo_inurba_marseille","lat":43.32367,"lon":5.388836,"is_reserved":false,"is_disabled":false,"rental_uris":{"android":"levelo://app?vid=e06f3354-a0d2-47ef-bd3d-ca8321070c24","ios":"levelo://app?vid=e06f3354-a0d2-47ef-bd3d-ca8321070c24"},"vehicle_type_id":"4","last_reported":1685894879,"current_range_meters":5200,"station_id":"ce4bhqp2rcd13ifvqhog","pricing_plan_id":"free"},{"bike_id":"7fe7d289-ac92-4ba9-be7d-6c298b53fba3","system_id":"levelo_inurba_marseille","lat":43.32367,"lon":5.388836,"is_reserved":false,"is_disabled":false,"rental_uris":{"android":"levelo://app?vid=7fe7d289-ac92-4ba9-be7d-6c298b53fba3","ios":"levelo://app?vid=7fe7d289-ac92-4ba9-be7d-6c298b53fba3"},"vehicle_type_id":"4","last_reported":1685894879,"current_range_meters":0,"station_id":"ce4bhqp2rcd13ifvqhog","pricing_plan_id":"free"},{"bike_id":"aeb5ead0-c09c-49ca-84ce-d23b7cb0491f","system_id":"levelo_inurba_marseille","lat":43.32367,"lon":5.388836,"is_reserved":false,"is_disabled":false,"rental_uris":{"android":"levelo://app?vid=aeb5ead0-c09c-49ca-84ce-d23b7cb0491f","ios":"levelo://app?vid=aeb5ead0-c09c-49ca-84ce-d23b7cb0491f"},"vehicle_type_id":"4","last_reported":1685894879,"current_range_meters":10800,"station_id":"ce4bhqp2rcd13ifvqhog","pricing_plan_id":"free"},{"bike_id":"771e86d4-89a4-4293-a485-094de8726f68","system_id":"levelo_inurba_marseille","lat":43.32367,"lon":5.388836,"is_reserved":false,"is_disabled":false,"rental_uris":{"android":"levelo://app?vid=771e86d4-89a4-4293-a485-094de8726f68","ios":"levelo://app?vid=771e86d4-89a4-4293-a485-094de8726f68"},"vehicle_type_id":"4","last_reported":1685894879,"current_range_meters":1200,"station_id":"ce4bhqp2rcd13ifvqhog","pricing_plan_id":"free"},{"bike_id":"66f8c606-ccf7-4b48-a7cf-8cb90cfbfb49","system_id":"levelo_inurba_marseille","lat":43.32367,"lon":5.388836,"is_reserved":false,"is_disabled":false,"rental_uris":{"android":"levelo://app?vid=66f8c606-ccf7-4b48-a7cf-8cb90cfbfb49","ios":"levelo://app?vid=66f8c606-ccf7-4b48-a7cf-8cb90cfbfb49"},"vehicle_type_id":"4","last_reported":1685894879,"current_range_meters":4400,"station_id":"ce4bhqp2rcd13ifvqhog","pricing_plan_id":"free"},{"bike_id":"706294e2-91a1-4312-a323-14a2e01a061f","system_id":"levelo_inurba_marseille","lat":43.29601,"lon":5.381084,"is_reserved":false,"is_disabled":false,"rental_uris":{"android":"levelo://app?vid=706294e2-91a1-4312-a323-14a2e01a061f","ios":"levelo://app?vid=706294e2-91a1-4312-a323-14a2e01a061f"},"vehicle_type_id":"4","last_reported":1685894879,"current_range_meters":0,"station_id":"ce4bgl12rcd13ifvqbo0","pricing_plan_id":"free"},{"bike_id":"5481a9b0-2abd-4462-a86e-77d87844129b","system_id":"levelo_inurba_marseille","lat":43.29298,"lon":5.37459,"is_reserved":false,"is_disabled":false,"rental_uris":{"android":"levelo://app?vid=5481a9b0-2abd-4462-a86e-77d87844129b","ios":"levelo://app?vid=5481a9b0-2abd-4462-a86e-77d87844129b"},"vehicle_type_id":"4","last_reported":1685894879,"current_range_meters":8000,"station_id":"ce4bgi12rcd13ifvqb70","pricing_plan_id":"free"},{"bike_id":"315b5b82-d524-4735-b4d0-a5280928f0f2","system_id":"levelo_inurba_marseille","lat":43.293009,"lon":5.374584,"is_reserved":false,"is_disabled":false,"rental_uris":{"android":"levelo://app?vid=315b5b82-d524-4735-b4d0-a5280928f0f2","ios":"levelo://app?vid=315b5b82-d524-4735-b4d0-a5280928f0f2"},"vehicle_type_id":"4","last_reported":1685894879,"current_range_meters":30400,"station_id":"ce4bgi12rcd13ifvqb70","pricing_plan_id":"free"},{"bike_id":"c775db90-ce45-4170-9843-212e963d0c90","system_id":"levelo_inurba_marseille","lat":43.292311,"lon":5.360731,"is_reserved":false,"is_disabled":false,"rental_uris":{"android":"levelo://app?vid=c775db90-ce45-4170-9843-212e963d0c90","ios":"levelo://app?vid=c775db90-ce45-4170-9843-212e963d0c90"},"vehicle_type_id":"4","last_reported":1685894879,"current_range_meters":31200,"station_id":"ce4bhbh2rcd13ifvqeqg","pricing_plan_id":"free"},{"bike_id":"f6706e43-d593-4246-84a9-5a904b5127ad","system_id":"levelo_inurba_marseille","lat":43.292311,"lon":5.360731,"is_reserved":false,"is_disabled":false,"rental_uris":{"android":"levelo://app?vid=f6706e43-d593-4246-84a9-5a904b5127ad","ios":"levelo://app?vid=f6706e43-d593-4246-84a9-5a904b5127ad"},"vehicle_type_id":"4","last_reported":1685894879,"current_range_meters":20400,"station_id":"ce4bhbh2rcd13ifvqeqg","pricing_plan_id":"free"},{"bike_id":"e5cb7b27-6167-4dd6-aa84-1d3a50269676","system_id":"levelo_inurba_marseille","lat":43.30085,"lon":5.390856,"is_reserved":false,"is_disabled":false,"rental_uris":{"android":"levelo://app?vid=e5cb7b27-6167-4dd6-aa84-1d3a50269676","ios":"levelo://app?vid=e5cb7b27-6167-4dd6-aa84-1d3a50269676"},"vehicle_type_id":"4","last_reported":1685894879,"current_range_meters":2400,"station_id":"ce4bh192rcd13ifvqdb0","pricing_plan_id":"free"},{"bike_id":"05a2b8e3-8c22-4818-a775-db2edf8927a8","system_id":"levelo_inurba_marseille","lat":43.298764,"lon":5.388973,"is_reserved":false,"is_disabled":false,"rental_uris":{"android":"levelo://app?vid=05a2b8e3-8c22-4818-a775-db2edf8927a8","ios":"levelo://app?vid=05a2b8e3-8c22-4818-a775-db2edf8927a8"},"vehicle_type_id":"4","last_reported":1685894879,"current_range_meters":20800,"station_id":"ce4bh392rcd13ifvqdl0","pricing_plan_id":"free"},{"bike_id":"e590b2fb-237f-4659-9ceb-a32ea7e48e92","system_id":"levelo_inurba_marseille","lat":43.29197,"lon":5.35789,"is_reserved":false,"is_disabled":false,"rental_uris":{"android":"levelo://app?vid=e590b2fb-237f-4659-9ceb-a32ea7e48e92","ios":"levelo://app?vid=e590b2fb-237f-4659-9ceb-a32ea7e48e92"},"vehicle_type_id":"4","last_reported":1685894879,"current_range_meters":0,"station_id":"ce4bhb12rcd13ifvqel0","pricing_plan_id":"free"},{"bike_id":"65b07f62-8bc2-42ab-adbb-b99338c90d23","system_id":"levelo_inurba_marseille","lat":43.313291,"lon":5.396838,"is_reserved":false,"is_disabled":false,"rental_uris":{"android":"levelo://app?vid=65b07f62-8bc2-42ab-adbb-b99338c90d23","ios":"levelo://app?vid=65b07f62-8bc2-42ab-adbb-b99338c90d23"},"vehicle_type_id":"4","last_reported":1685894879,"current_range_meters":400,"station_id":"ce4bgvp2rcd13ifvqcu0","pricing_plan_id":"free"},{"bike_id":"0b0f4b4f-49e7-4390-8f65-c2810c5c8e8b","system_id":"levelo_inurba_marseille","lat":43.31325,"lon":5.3969,"is_reserved":false,"is_disabled":false,"rental_uris":{"android":"levelo://app?vid=0b0f4b4f-49e7-4390-8f65-c2810c5c8e8b","ios":"levelo://app?vid=0b0f4b4f-49e7-4390-8f65-c2810c5c8e8b"},"vehicle_type_id":"4","last_reported":1685894879,"current_range_meters":17200,"station_id":"ce4bgvp2rcd13ifvqcu0","pricing_plan_id":"free"},{"bike_id":"446f7967-75a1-4d22-b6a2-9c967e2d9e40","system_id":"levelo_inurba_marseille","lat":43.31327,"lon":5.39694,"is_reserved":false,"is_disabled":false,"rental_uris":{"android":"levelo://app?vid=446f7967-75a1-4d22-b6a2-9c967e2d9e40","ios":"levelo://app?vid=446f7967-75a1-4d22-b6a2-9c967e2d9e40"},"vehicle_type_id":"4","last_reported":1685894879,"current_range_meters":12800,"station_id":"","pricing_plan_id":"free"},{"bike_id":"c528a869-4a62-4a62-84f1-88320546cc5f","system_id":"levelo_inurba_marseille","lat":43.290779,"lon":5.371482,"is_reserved":false,"is_disabled":false,"rental_uris":{"android":"levelo://app?vid=c528a869-4a62-4a62-84f1-88320546cc5f","ios":"levelo://app?vid=c528a869-4a62-4a62-84f1-88320546cc5f"},"vehicle_type_id":"4","last_reported":1685894879,"current_range_meters":21600,"station_id":"ce4bh5p2rcd13ifvqe4g","pricing_plan_id":"free"},{"bike_id":"2b5dc6aa-f791-4415-9599-911e57e3829e","system_id":"levelo_inurba_marseille","lat":43.290624,"lon":5.359245,"is_reserved":false,"is_disabled":false,"rental_uris":{"android":"levelo://app?vid=2b5dc6aa-f791-4415-9599-911e57e3829e","ios":"levelo://app?vid=2b5dc6aa-f791-4415-9599-911e57e3829e"},"vehicle_type_id":"4","last_reported":1685894879,"current_range_meters":15200,"station_id":"ce4bha92rcd13ifvqeg0","pricing_plan_id":"free"},{"bike_id":"3baff3e1-c131-4b2e-8e04-06a7423eb992","system_id":"levelo_inurba_marseille","lat":43.29041,"lon":5.37576,"is_reserved":false,"is_disabled":false,"rental_uris":{"android":"levelo://app?vid=3baff3e1-c131-4b2e-8e04-06a7423eb992","ios":"levelo://app?vid=3baff3e1-c131-4b2e-8e04-06a7423eb992"},"vehicle_type_id":"4","last_reported":1685894879,"current_range_meters":5200,"station_id":"ce4bh692rcd13ifvqe90","pricing_plan_id":"free"},{"bike_id":"ac087eb8-e53b-4cbb-93c5-2621156ddbb5","system_id":"levelo_inurba_marseille","lat":43.294153,"lon":5.386305,"is_reserved":false,"is_disabled":false,"rental_uris":{"android":"levelo://app?vid=ac087eb8-e53b-4cbb-93c5-2621156ddbb5","ios":"levelo://app?vid=ac087eb8-e53b-4cbb-93c5-2621156ddbb5"},"vehicle_type_id":"4","last_reported":1685894879,"current_range_meters":21200,"station_id":"ce4bh2h2rcd13ifvqdh0","pricing_plan_id":"free"},{"bike_id":"f07a375d-2e6c-4afc-b92d-2d432f2f2c9e","system_id":"levelo_inurba_marseille","lat":43.294162,"lon":5.386292,"is_reserved":false,"is_disabled":false,"rental_uris":{"android":"levelo://app?vid=f07a375d-2e6c-4afc-b92d-2d432f2f2c9e","ios":"levelo://app?vid=f07a375d-2e6c-4afc-b92d-2d432f2f2c9e"},"vehicle_type_id":"4","last_reported":1685894879,"current_range_meters":6000,"station_id":"ce4bh2h2rcd13ifvqdh0","pricing_plan_id":"free"},{"bike_id":"4fce8665-8d40-40b6-ac24-1af9a4a77f0a","system_id":"levelo_inurba_marseille","lat":43.289184,"lon":5.366408,"is_reserved":false,"is_disabled":false,"rental_uris":{"android":"levelo://app?vid=4fce8665-8d40-40b6-ac24-1af9a4a77f0a","ios":"levelo://app?vid=4fce8665-8d40-40b6-ac24-1af9a4a77f0a"},"vehicle_type_id":"4","last_reported":1685894879,"current_range_meters":21600,"station_id":"ce4bhap2rcd13ifvqek0","pricing_plan_id":"free"},{"bike_id":"9cabf8b0-cc43-452b-baee-3b50d49cc0d6","system_id":"levelo_inurba_marseille","lat":43.28941,"lon":5.36639,"is_reserved":false,"is_disabled":false,"rental_uris":{"android":"levelo://app?vid=9cabf8b0-cc43-452b-baee-3b50d49cc0d6","ios":"levelo://app?vid=9cabf8b0-cc43-452b-baee-3b50d49cc0d6"},"vehicle_type_id":"4","last_reported":1685894879,"current_range_meters":0,"station_id":"ce4bhap2rcd13ifvqek0","pricing_plan_id":"free"},{"bike_id":"0a8aba60-b51b-427d-be66-8709066b23d1","system_id":"levelo_inurba_marseille","lat":43.33286,"lon":5.38433,"is_reserved":false,"is_disabled":false,"rental_uris":{"android":"levelo://app?vid=0a8aba60-b51b-427d-be66-8709066b23d1","ios":"levelo://app?vid=0a8aba60-b51b-427d-be66-8709066b23d1"},"vehicle_type_id":"4","last_reported":1685894879,"current_range_meters":25200,"station_id":"","pricing_plan_id":"free"},{"bike_id":"0456b2c1-8a4f-4e94-ae33-a548e7711bcf","system_id":"levelo_inurba_marseille","lat":43.33041,"lon":5.38914,"is_reserved":false,"is_disabled":false,"rental_uris":{"android":"levelo://app?vid=0456b2c1-8a4f-4e94-ae33-a548e7711bcf","ios":"levelo://app?vid=0456b2c1-8a4f-4e94-ae33-a548e7711bcf"},"vehicle_type_id":"4","last_reported":1685894879,"current_range_meters":12000,"station_id":"ce4bhr92rcd13ifvqhrg","pricing_plan_id":"free"},{"bike_id":"e2b942e0-3901-4124-a71d-a8535684af38","system_id":"levelo_inurba_marseille","lat":43.33044,"lon":5.38916,"is_reserved":false,"is_disabled":false,"rental_uris":{"android":"levelo://app?vid=e2b942e0-3901-4124-a71d-a8535684af38","ios":"levelo://app?vid=e2b942e0-3901-4124-a71d-a8535684af38"},"vehicle_type_id":"4","last_reported":1685894879,"current_range_meters":26000,"station_id":"ce4bhr92rcd13ifvqhrg","pricing_plan_id":"free"},{"bike_id":"b8525e20-3071-4629-a576-507a2f45d755","system_id":"levelo_inurba_marseille","lat":43.33044,"lon":5.38921,"is_reserved":false,"is_disabled":false,"rental_uris":{"android":"levelo://app?vid=b8525e20-3071-4629-a576-507a2f45d755","ios":"levelo://app?vid=b8525e20-3071-4629-a576-507a2f45d755"},"vehicle_type_id":"4","last_reported":1685894879,"current_range_meters":29200,"station_id":"ce4bhr92rcd13ifvqhrg","pricing_plan_id":"free"},{"bike_id":"dcb00244-aef9-4eec-91cd-42ea75ebd82c","system_id":"levelo_inurba_marseille","lat":43.33054,"lon":5.38906,"is_reserved":false,"is_disabled":false,"rental_uris":{"android":"levelo://app?vid=dcb00244-aef9-4eec-91cd-42ea75ebd82c","ios":"levelo://app?vid=dcb00244-aef9-4eec-91cd-42ea75ebd82c"},"vehicle_type_id":"4","last_reported":1685894879,"current_range_meters":3200,"station_id":"ce4bhr92rcd13ifvqhrg","pricing_plan_id":"free"},{"bike_id":"75704bc5-cf05-4a26-b337-a1abb617deb1","system_id":"levelo_inurba_marseille","lat":43.33045,"lon":5.38922,"is_reserved":false,"is_disabled":false,"rental_uris":{"android":"levelo://app?vid=75704bc5-cf05-4a26-b337-a1abb617deb1","ios":"levelo://app?vid=75704bc5-cf05-4a26-b337-a1abb617deb1"},"vehicle_type_id":"4","last_reported":1685894879,"current_range_meters":1200,"station_id":"ce4bhr92rcd13ifvqhrg","pricing_plan_id":"free"},{"bike_id":"3ccff086-9f54-4ac6-8165-0af7012049d3","system_id":"levelo_inurba_marseille","lat":43.290104,"lon":5.356111,"is_reserved":false,"is_disabled":false,"rental_uris":{"android":"levelo://app?vid=3ccff086-9f54-4ac6-8165-0af7012049d3","ios":"levelo://app?vid=3ccff086-9f54-4ac6-8165-0af7012049d3"},"vehicle_type_id":"4","last_reported":1685894879,"current_range_meters":15600,"station_id":"ce4bhb92rcd13ifvqen0","pricing_plan_id":"free"},{"bike_id":"e58ab37b-32a7-4253-a443-812665bd871e","system_id":"levelo_inurba_marseille","lat":43.28856,"lon":5.358371,"is_reserved":false,"is_disabled":false,"rental_uris":{"android":"levelo://app?vid=e58ab37b-32a7-4253-a443-812665bd871e","ios":"levelo://app?vid=e58ab37b-32a7-4253-a443-812665bd871e"},"vehicle_type_id":"4","last_reported":1685894879,"current_range_meters":13600,"station_id":"ce4bhb12rcd13ifvqem0","pricing_plan_id":"free"},{"bike_id":"906c92d3-e27e-493a-a6d4-6f465d8a62b6","system_id":"levelo_inurba_marseille","lat":43.29027,"lon":5.38141,"is_reserved":false,"is_disabled":false,"rental_uris":{"android":"levelo://app?vid=906c92d3-e27e-493a-a6d4-6f465d8a62b6","ios":"levelo://app?vid=906c92d3-e27e-493a-a6d4-6f465d8a62b6"},"vehicle_type_id":"4","last_reported":1685894879,"current_range_meters":0,"station_id":"ce4bh4p2rcd13ifvqe1g","pricing_plan_id":"free"},{"bike_id":"184158e4-bf50-429e-886a-50ab7bc33b2b","system_id":"levelo_inurba_marseille","lat":43.29012,"lon":5.38129,"is_reserved":false,"is_disabled":false,"rental_uris":{"android":"levelo://app?vid=184158e4-bf50-429e-886a-50ab7bc33b2b","ios":"levelo://app?vid=184158e4-bf50-429e-886a-50ab7bc33b2b"},"vehicle_type_id":"4","last_reported":1685894879,"current_range_meters":10000,"station_id":"ce4bh4p2rcd13ifvqe1g","pricing_plan_id":"free"},{"bike_id":"5ddc618e-f562-4841-bd40-e4eaa92baa09","system_id":"levelo_inurba_marseille","lat":43.29012,"lon":5.38133,"is_reserved":false,"is_disabled":false,"rental_uris":{"android":"levelo://app?vid=5ddc618e-f562-4841-bd40-e4eaa92baa09","ios":"levelo://app?vid=5ddc618e-f562-4841-bd40-e4eaa92baa09"},"vehicle_type_id":"4","last_reported":1685894879,"current_range_meters":22400,"station_id":"ce4bh4p2rcd13ifvqe1g","pricing_plan_id":"free"},{"bike_id":"9c02aafe-b0d2-4105-b15b-ae3419a830b4","system_id":"levelo_inurba_marseille","lat":43.28856,"lon":5.358371,"is_reserved":false,"is_disabled":false,"rental_uris":{"android":"levelo://app?vid=9c02aafe-b0d2-4105-b15b-ae3419a830b4","ios":"levelo://app?vid=9c02aafe-b0d2-4105-b15b-ae3419a830b4"},"vehicle_type_id":"4","last_reported":1685894879,"current_range_meters":20400,"station_id":"ce4bhb12rcd13ifvqem0","pricing_plan_id":"free"},{"bike_id":"675927e0-ab95-41a0-80be-7ee111a218f5","system_id":"levelo_inurba_marseille","lat":43.3375,"lon":5.37472,"is_reserved":false,"is_disabled":false,"rental_uris":{"android":"levelo://app?vid=675927e0-ab95-41a0-80be-7ee111a218f5","ios":"levelo://app?vid=675927e0-ab95-41a0-80be-7ee111a218f5"},"vehicle_type_id":"4","last_reported":1685894879,"current_range_meters":27200,"station_id":"","pricing_plan_id":"free"},{"bike_id":"57da526b-0952-4249-a379-e6f5262607a7","system_id":"levelo_inurba_marseille","lat":43.33752,"lon":5.37465,"is_reserved":false,"is_disabled":false,"rental_uris":{"android":"levelo://app?vid=57da526b-0952-4249-a379-e6f5262607a7","ios":"levelo://app?vid=57da526b-0952-4249-a379-e6f5262607a7"},"vehicle_type_id":"4","last_reported":1685894879,"current_range_meters":31200,"station_id":"","pricing_plan_id":"free"},{"bike_id":"cf0caa37-cec8-408b-98f7-37211a80813c","system_id":"levelo_inurba_marseille","lat":43.3377,"lon":5.37429,"is_reserved":false,"is_disabled":false,"rental_uris":{"android":"levelo://app?vid=cf0caa37-cec8-408b-98f7-37211a80813c","ios":"levelo://app?vid=cf0caa37-cec8-408b-98f7-37211a80813c"},"vehicle_type_id":"4","last_reported":1685894879,"current_range_meters":30000,"station_id":"","pricing_plan_id":"free"},{"bike_id":"68f5e440-860d-4f75-85ef-eb5477ec91b4","system_id":"levelo_inurba_marseille","lat":43.30642,"lon":5.401031,"is_reserved":false,"is_disabled":false,"rental_uris":{"android":"levelo://app?vid=68f5e440-860d-4f75-85ef-eb5477ec91b4","ios":"levelo://app?vid=68f5e440-860d-4f75-85ef-eb5477ec91b4"},"vehicle_type_id":"4","last_reported":1685894879,"current_range_meters":12400,"station_id":"ce4bh112rcd13ifvqda0","pricing_plan_id":"free"},{"bike_id":"6fc16052-d20d-45d7-809a-ced5b6dd56f0","system_id":"levelo_inurba_marseille","lat":43.286591,"lon":5.363346,"is_reserved":false,"is_disabled":false,"rental_uris":{"android":"levelo://app?vid=6fc16052-d20d-45d7-809a-ced5b6dd56f0","ios":"levelo://app?vid=6fc16052-d20d-45d7-809a-ced5b6dd56f0"},"vehicle_type_id":"4","last_reported":1685894879,"current_range_meters":15200,"station_id":"ce4bhah2rcd13ifvqej0","pricing_plan_id":"free"},{"bike_id":"62ed84c2-cb8b-4acf-8c00-7076fc44bf83","system_id":"levelo_inurba_marseille","lat":43.30415,"lon":5.40093,"is_reserved":false,"is_disabled":false,"rental_uris":{"android":"levelo://app?vid=62ed84c2-cb8b-4acf-8c00-7076fc44bf83","ios":"levelo://app?vid=62ed84c2-cb8b-4acf-8c00-7076fc44bf83"},"vehicle_type_id":"4","last_reported":1685894879,"current_range_meters":11200,"station_id":"","pricing_plan_id":"free"},{"bike_id":"af98d9a2-c0db-4227-9b4d-8b2ea657f207","system_id":"levelo_inurba_marseille","lat":43.286591,"lon":5.363346,"is_reserved":false,"is_disabled":false,"rental_uris":{"android":"levelo://app?vid=af98d9a2-c0db-4227-9b4d-8b2ea657f207","ios":"levelo://app?vid=af98d9a2-c0db-4227-9b4d-8b2ea657f207"},"vehicle_type_id":"4","last_reported":1685894879,"current_range_meters":24400,"station_id":"ce4bhah2rcd13ifvqej0","pricing_plan_id":"free"},{"bike_id":"123530f4-4255-49ea-a0ee-3df58958b8a2","system_id":"levelo_inurba_marseille","lat":43.286593,"lon":5.363346,"is_reserved":false,"is_disabled":false,"rental_uris":{"android":"levelo://app?vid=123530f4-4255-49ea-a0ee-3df58958b8a2","ios":"levelo://app?vid=123530f4-4255-49ea-a0ee-3df58958b8a2"},"vehicle_type_id":"4","last_reported":1685894879,"current_range_meters":24400,"station_id":"ce4bhah2rcd13ifvqej0","pricing_plan_id":"free"},{"bike_id":"0f8b363b-3888-4a1f-93ab-cef1391af450","system_id":"levelo_inurba_marseille","lat":43.302759,"lon":5.400793,"is_reserved":false,"is_disabled":false,"rental_uris":{"android":"levelo://app?vid=0f8b363b-3888-4a1f-93ab-cef1391af450","ios":"levelo://app?vid=0f8b363b-3888-4a1f-93ab-cef1391af450"},"vehicle_type_id":"4","last_reported":1685894879,"current_range_meters":20400,"station_id":"ce4bgvh2rcd13ifvqcs0","pricing_plan_id":"free"},{"bike_id":"eacc540f-7bd2-4ed6-9bba-db74f9b05224","system_id":"levelo_inurba_marseille","lat":43.290336,"lon":5.386425,"is_reserved":false,"is_disabled":false,"rental_uris":{"android":"levelo://app?vid=eacc540f-7bd2-4ed6-9bba-db74f9b05224","ios":"levelo://app?vid=eacc540f-7bd2-4ed6-9bba-db74f9b05224"},"vehicle_type_id":"4","last_reported":1685894879,"current_range_meters":24400,"station_id":"ce4bh4p2rcd13ifvqe0g","pricing_plan_id":"free"},{"bike_id":"cdc15bfb-b94a-4bda-908b-410bd6b56fad","system_id":"levelo_inurba_marseille","lat":43.286039,"lon":5.370681,"is_reserved":false,"is_disabled":false,"rental_uris":{"android":"levelo://app?vid=cdc15bfb-b94a-4bda-908b-410bd6b56fad","ios":"levelo://app?vid=cdc15bfb-b94a-4bda-908b-410bd6b56fad"},"vehicle_type_id":"4","last_reported":1685894879,"current_range_meters":18400,"station_id":"ce4bht12rcd13ifvqi60","pricing_plan_id":"free"},{"bike_id":"e44e859a-2508-4e38-b375-5b7532ab5a10","system_id":"levelo_inurba_marseille","lat":43.286039,"lon":5.370681,"is_reserved":false,"is_disabled":false,"rental_uris":{"android":"levelo://app?vid=e44e859a-2508-4e38-b375-5b7532ab5a10","ios":"levelo://app?vid=e44e859a-2508-4e38-b375-5b7532ab5a10"},"vehicle_type_id":"4","last_reported":1685894879,"current_range_meters":26000,"station_id":"ce4bht12rcd13ifvqi60","pricing_plan_id":"free"},{"bike_id":"b1189fa7-dcdf-48e1-aaa6-72e57109692e","system_id":"levelo_inurba_marseille","lat":43.286039,"lon":5.370681,"is_reserved":false,"is_disabled":false,"rental_uris":{"android":"levelo://app?vid=b1189fa7-dcdf-48e1-aaa6-72e57109692e","ios":"levelo://app?vid=b1189fa7-dcdf-48e1-aaa6-72e57109692e"},"vehicle_type_id":"4","last_reported":1685894879,"current_range_meters":3200,"station_id":"ce4bht12rcd13ifvqi60","pricing_plan_id":"free"},{"bike_id":"7823915d-2f4a-429e-a31c-490738109537","system_id":"levelo_inurba_marseille","lat":43.3165,"lon":5.40438,"is_reserved":false,"is_disabled":false,"rental_uris":{"android":"levelo://app?vid=7823915d-2f4a-429e-a31c-490738109537","ios":"levelo://app?vid=7823915d-2f4a-429e-a31c-490738109537"},"vehicle_type_id":"4","last_reported":1685894879,"current_range_meters":18000,"station_id":"ce4bh012rcd13ifvqd00","pricing_plan_id":"free"},{"bike_id":"d3fcddc3-da99-4749-babe-9c44e0da430f","system_id":"levelo_inurba_marseille","lat":43.2908,"lon":5.39143,"is_reserved":false,"is_disabled":false,"rental_uris":{"android":"levelo://app?vid=d3fcddc3-da99-4749-babe-9c44e0da430f","ios":"levelo://app?vid=d3fcddc3-da99-4749-babe-9c44e0da430f"},"vehicle_type_id":"4","last_reported":1685894879,"current_range_meters":21600,"station_id":"","pricing_plan_id":"free"},{"bike_id":"6be19690-cf5c-4119-820e-cf31ce24d5cf","system_id":"levelo_inurba_marseille","lat":43.284534,"lon":5.358662,"is_reserved":false,"is_disabled":false,"rental_uris":{"android":"levelo://app?vid=6be19690-cf5c-4119-820e-cf31ce24d5cf","ios":"levelo://app?vid=6be19690-cf5c-4119-820e-cf31ce24d5cf"},"vehicle_type_id":"4","last_reported":1685894879,"current_range_meters":21200,"station_id":"ce4bhah2rcd13ifvqei0","pricing_plan_id":"free"},{"bike_id":"5bed1239-532a-41d5-8288-399b14b4b38e","system_id":"levelo_inurba_marseille","lat":43.284534,"lon":5.358662,"is_reserved":false,"is_disabled":false,"rental_uris":{"android":"levelo://app?vid=5bed1239-532a-41d5-8288-399b14b4b38e","ios":"levelo://app?vid=5bed1239-532a-41d5-8288-399b14b4b38e"},"vehicle_type_id":"4","last_reported":1685894879,"current_range_meters":10800,"station_id":"ce4bhah2rcd13ifvqei0","pricing_plan_id":"free"},{"bike_id":"723fb825-7fef-41fb-b1f2-5aa161bf770a","system_id":"levelo_inurba_marseille","lat":43.284534,"lon":5.358662,"is_reserved":false,"is_disabled":false,"rental_uris":{"android":"levelo://app?vid=723fb825-7fef-41fb-b1f2-5aa161bf770a","ios":"levelo://app?vid=723fb825-7fef-41fb-b1f2-5aa161bf770a"},"vehicle_type_id":"4","last_reported":1685894879,"current_range_meters":800,"station_id":"ce4bhah2rcd13ifvqei0","pricing_plan_id":"free"},{"bike_id":"3de73dc3-6e22-4ecc-af0d-56b698b4d7ba","system_id":"levelo_inurba_marseille","lat":43.28621,"lon":5.35105,"is_reserved":false,"is_disabled":false,"rental_uris":{"android":"levelo://app?vid=3de73dc3-6e22-4ecc-af0d-56b698b4d7ba","ios":"levelo://app?vid=3de73dc3-6e22-4ecc-af0d-56b698b4d7ba"},"vehicle_type_id":"4","last_reported":1685894879,"current_range_meters":5200,"station_id":"","pricing_plan_id":"free"},{"bike_id":"31f374dc-469f-4b45-a54e-200e5a661d26","system_id":"levelo_inurba_marseille","lat":43.28621,"lon":5.35104,"is_reserved":false,"is_disabled":false,"rental_uris":{"android":"levelo://app?vid=31f374dc-469f-4b45-a54e-200e5a661d26","ios":"levelo://app?vid=31f374dc-469f-4b45-a54e-200e5a661d26"},"vehicle_type_id":"4","last_reported":1685894879,"current_range_meters":16000,"station_id":"","pricing_plan_id":"free"},{"bike_id":"d4a6ca93-d80c-4945-89a9-3876b89c03d3","system_id":"levelo_inurba_marseille","lat":43.28615,"lon":5.351,"is_reserved":false,"is_disabled":false,"rental_uris":{"android":"levelo://app?vid=d4a6ca93-d80c-4945-89a9-3876b89c03d3","ios":"levelo://app?vid=d4a6ca93-d80c-4945-89a9-3876b89c03d3"},"vehicle_type_id":"4","last_reported":1685894879,"current_range_meters":15200,"station_id":"","pricing_plan_id":"free"},{"bike_id":"b205e703-9cc6-479d-b47b-dcec15459f4d","system_id":"levelo_inurba_marseille","lat":43.32643,"lon":5.40395,"is_reserved":false,"is_disabled":false,"rental_uris":{"android":"levelo://app?vid=b205e703-9cc6-479d-b47b-dcec15459f4d","ios":"levelo://app?vid=b205e703-9cc6-479d-b47b-dcec15459f4d"},"vehicle_type_id":"4","last_reported":1685894879,"current_range_meters":12800,"station_id":"","pricing_plan_id":"free"},{"bike_id":"762b48a7-acab-4a07-bc9b-72ecd2700e6f","system_id":"levelo_inurba_marseille","lat":43.284219,"lon":5.3497,"is_reserved":false,"is_disabled":false,"rental_uris":{"android":"levelo://app?vid=762b48a7-acab-4a07-bc9b-72ecd2700e6f","ios":"levelo://app?vid=762b48a7-acab-4a07-bc9b-72ecd2700e6f"},"vehicle_type_id":"4","last_reported":1685894879,"current_range_meters":16400,"station_id":"ce4bhbh2rcd13ifvqepg","pricing_plan_id":"free"},{"bike_id":"fd1ae73f-0c39-4aed-b046-de6025809a18","system_id":"levelo_inurba_marseille","lat":43.284219,"lon":5.3497,"is_reserved":false,"is_disabled":false,"rental_uris":{"android":"levelo://app?vid=fd1ae73f-0c39-4aed-b046-de6025809a18","ios":"levelo://app?vid=fd1ae73f-0c39-4aed-b046-de6025809a18"},"vehicle_type_id":"4","last_reported":1685894879,"current_range_meters":22000,"station_id":"ce4bhbh2rcd13ifvqepg","pricing_plan_id":"free"},{"bike_id":"b61dcad8-d4ab-44c8-9fef-d5749b0bb6fd","system_id":"levelo_inurba_marseille","lat":43.28426,"lon":5.34988,"is_reserved":false,"is_disabled":false,"rental_uris":{"android":"levelo://app?vid=b61dcad8-d4ab-44c8-9fef-d5749b0bb6fd","ios":"levelo://app?vid=b61dcad8-d4ab-44c8-9fef-d5749b0bb6fd"},"vehicle_type_id":"4","last_reported":1685894879,"current_range_meters":20400,"station_id":"ce4bhbh2rcd13ifvqepg","pricing_plan_id":"free"},{"bike_id":"6c78af84-1cde-407b-9e59-1e6d787f33f8","system_id":"levelo_inurba_marseille","lat":43.284219,"lon":5.3497,"is_reserved":false,"is_disabled":false,"rental_uris":{"android":"levelo://app?vid=6c78af84-1cde-407b-9e59-1e6d787f33f8","ios":"levelo://app?vid=6c78af84-1cde-407b-9e59-1e6d787f33f8"},"vehicle_type_id":"4","last_reported":1685894879,"current_range_meters":8000,"station_id":"ce4bhbh2rcd13ifvqepg","pricing_plan_id":"free"},{"bike_id":"ca62f7a3-aaba-42b4-b168-2447dc347f0c","system_id":"levelo_inurba_marseille","lat":43.28419,"lon":5.34984,"is_reserved":false,"is_disabled":false,"rental_uris":{"android":"levelo://app?vid=ca62f7a3-aaba-42b4-b168-2447dc347f0c","ios":"levelo://app?vid=ca62f7a3-aaba-42b4-b168-2447dc347f0c"},"vehicle_type_id":"4","last_reported":1685894879,"current_range_meters":0,"station_id":"ce4bhbh2rcd13ifvqepg","pricing_plan_id":"free"},{"bike_id":"4173cd39-10b7-438d-b69d-9e9ce3c82e95","system_id":"levelo_inurba_marseille","lat":43.28123,"lon":5.36903,"is_reserved":false,"is_disabled":false,"rental_uris":{"android":"levelo://app?vid=4173cd39-10b7-438d-b69d-9e9ce3c82e95","ios":"levelo://app?vid=4173cd39-10b7-438d-b69d-9e9ce3c82e95"},"vehicle_type_id":"4","last_reported":1685894879,"current_range_meters":24800,"station_id":"","pricing_plan_id":"free"},{"bike_id":"5471a7bb-2e78-4d6d-be60-46f5d77fd16b","system_id":"levelo_inurba_marseille","lat":43.289363,"lon":5.396322,"is_reserved":false,"is_disabled":false,"rental_uris":{"android":"levelo://app?vid=5471a7bb-2e78-4d6d-be60-46f5d77fd16b","ios":"levelo://app?vid=5471a7bb-2e78-4d6d-be60-46f5d77fd16b"},"vehicle_type_id":"4","last_reported":1685894879,"current_range_meters":7200,"station_id":"ce4bh3h2rcd13ifvqdn0","pricing_plan_id":"free"},{"bike_id":"1e960876-f43d-4cae-a635-53e020469412","system_id":"levelo_inurba_marseille","lat":43.289363,"lon":5.396322,"is_reserved":false,"is_disabled":false,"rental_uris":{"android":"levelo://app?vid=1e960876-f43d-4cae-a635-53e020469412","ios":"levelo://app?vid=1e960876-f43d-4cae-a635-53e020469412"},"vehicle_type_id":"4","last_reported":1685894879,"current_range_meters":2400,"station_id":"ce4bh3h2rcd13ifvqdn0","pricing_plan_id":"free"},{"bike_id":"c9da6231-79b0-406f-a079-cb3c4d043466","system_id":"levelo_inurba_marseille","lat":43.282754,"lon":5.350519,"is_reserved":false,"is_disabled":false,"rental_uris":{"android":"levelo://app?vid=c9da6231-79b0-406f-a079-cb3c4d043466","ios":"levelo://app?vid=c9da6231-79b0-406f-a079-cb3c4d043466"},"vehicle_type_id":"4","last_reported":1685894879,"current_range_meters":22800,"station_id":"ce4bhbp2rcd13ifvqerg","pricing_plan_id":"free"},{"bike_id":"2fda70d7-538a-4a99-be5f-5d3720388873","system_id":"levelo_inurba_marseille","lat":43.282754,"lon":5.350519,"is_reserved":false,"is_disabled":false,"rental_uris":{"android":"levelo://app?vid=2fda70d7-538a-4a99-be5f-5d3720388873","ios":"levelo://app?vid=2fda70d7-538a-4a99-be5f-5d3720388873"},"vehicle_type_id":"4","last_reported":1685894879,"current_range_meters":23200,"station_id":"ce4bhbp2rcd13ifvqerg","pricing_plan_id":"free"},{"bike_id":"ab9a2eb4-6ceb-46e8-8aa1-2636f1d3db3a","system_id":"levelo_inurba_marseille","lat":43.282744,"lon":5.350533,"is_reserved":false,"is_disabled":false,"rental_uris":{"android":"levelo://app?vid=ab9a2eb4-6ceb-46e8-8aa1-2636f1d3db3a","ios":"levelo://app?vid=ab9a2eb4-6ceb-46e8-8aa1-2636f1d3db3a"},"vehicle_type_id":"4","last_reported":1685894879,"current_range_meters":11200,"station_id":"ce4bhbp2rcd13ifvqerg","pricing_plan_id":"free"},{"bike_id":"4e4e6365-4115-46a6-ad59-216a344f0a87","system_id":"levelo_inurba_marseille","lat":43.282754,"lon":5.350519,"is_reserved":false,"is_disabled":false,"rental_uris":{"android":"levelo://app?vid=4e4e6365-4115-46a6-ad59-216a344f0a87","ios":"levelo://app?vid=4e4e6365-4115-46a6-ad59-216a344f0a87"},"vehicle_type_id":"4","last_reported":1685894879,"current_range_meters":14800,"station_id":"ce4bhbp2rcd13ifvqerg","pricing_plan_id":"free"},{"bike_id":"1e4bddf1-c6d2-410f-96ab-e48684f1aac8","system_id":"levelo_inurba_marseille","lat":43.284462,"lon":5.392121,"is_reserved":false,"is_disabled":false,"rental_uris":{"android":"levelo://app?vid=1e4bddf1-c6d2-410f-96ab-e48684f1aac8","ios":"levelo://app?vid=1e4bddf1-c6d2-410f-96ab-e48684f1aac8"},"vehicle_type_id":"4","last_reported":1685894879,"current_range_meters":24000,"station_id":"ce4bhoh2rcd13ifvqh5g","pricing_plan_id":"free"},{"bike_id":"6925f1e3-8765-4319-a224-7e5cc9091d07","system_id":"levelo_inurba_marseille","lat":43.304188,"lon":5.412904,"is_reserved":false,"is_disabled":false,"rental_uris":{"android":"levelo://app?vid=6925f1e3-8765-4319-a224-7e5cc9091d07","ios":"levelo://app?vid=6925f1e3-8765-4319-a224-7e5cc9091d07"},"vehicle_type_id":"4","last_reported":1685894879,"current_range_meters":1600,"station_id":"ce4bhop2rcd13ifvqh8g","pricing_plan_id":"free"},{"bike_id":"d318a382-3fd3-48b8-92b1-14b21d77ee67","system_id":"levelo_inurba_marseille","lat":43.304188,"lon":5.412904,"is_reserved":false,"is_disabled":false,"rental_uris":{"android":"levelo://app?vid=d318a382-3fd3-48b8-92b1-14b21d77ee67","ios":"levelo://app?vid=d318a382-3fd3-48b8-92b1-14b21d77ee67"},"vehicle_type_id":"4","last_reported":1685894879,"current_range_meters":12800,"station_id":"ce4bhop2rcd13ifvqh8g","pricing_plan_id":"free"},{"bike_id":"0374daea-1f90-4804-b94c-0d5f20fae05b","system_id":"levelo_inurba_marseille","lat":43.30423,"lon":5.41287,"is_reserved":false,"is_disabled":false,"rental_uris":{"android":"levelo://app?vid=0374daea-1f90-4804-b94c-0d5f20fae05b","ios":"levelo://app?vid=0374daea-1f90-4804-b94c-0d5f20fae05b"},"vehicle_type_id":"4","last_reported":1685894879,"current_range_meters":30400,"station_id":"ce4bhop2rcd13ifvqh8g","pricing_plan_id":"free"},{"bike_id":"d0af90bf-a9d6-4e0a-bb03-ec3a7c4a21ff","system_id":"levelo_inurba_marseille","lat":43.320045,"lon":5.415046,"is_reserved":false,"is_disabled":false,"rental_uris":{"android":"levelo://app?vid=d0af90bf-a9d6-4e0a-bb03-ec3a7c4a21ff","ios":"levelo://app?vid=d0af90bf-a9d6-4e0a-bb03-ec3a7c4a21ff"},"vehicle_type_id":"4","last_reported":1685894879,"current_range_meters":31600,"station_id":"ce4bhq92rcd13ifvqhkg","pricing_plan_id":"free"},{"bike_id":"8f583682-bb3f-4a61-94d0-accd616865d0","system_id":"levelo_inurba_marseille","lat":43.320045,"lon":5.415048,"is_reserved":false,"is_disabled":false,"rental_uris":{"android":"levelo://app?vid=8f583682-bb3f-4a61-94d0-accd616865d0","ios":"levelo://app?vid=8f583682-bb3f-4a61-94d0-accd616865d0"},"vehicle_type_id":"4","last_reported":1685894879,"current_range_meters":19200,"station_id":"ce4bhq92rcd13ifvqhkg","pricing_plan_id":"free"},{"bike_id":"f3fe6d10-5bd1-464a-a33e-b928a7c130db","system_id":"levelo_inurba_marseille","lat":43.320045,"lon":5.415046,"is_reserved":false,"is_disabled":false,"rental_uris":{"android":"levelo://app?vid=f3fe6d10-5bd1-464a-a33e-b928a7c130db","ios":"levelo://app?vid=f3fe6d10-5bd1-464a-a33e-b928a7c130db"},"vehicle_type_id":"4","last_reported":1685894879,"current_range_meters":2000,"station_id":"ce4bhq92rcd13ifvqhkg","pricing_plan_id":"free"},{"bike_id":"9b0864a2-4eed-4b54-8c3c-16e492dcf29d","system_id":"levelo_inurba_marseille","lat":43.320045,"lon":5.415048,"is_reserved":false,"is_disabled":false,"rental_uris":{"android":"levelo://app?vid=9b0864a2-4eed-4b54-8c3c-16e492dcf29d","ios":"levelo://app?vid=9b0864a2-4eed-4b54-8c3c-16e492dcf29d"},"vehicle_type_id":"4","last_reported":1685894879,"current_range_meters":25200,"station_id":"ce4bhq92rcd13ifvqhkg","pricing_plan_id":"free"},{"bike_id":"69e386d1-7433-4cdc-b124-41af3fb6143d","system_id":"levelo_inurba_marseille","lat":43.320045,"lon":5.415048,"is_reserved":false,"is_disabled":false,"rental_uris":{"android":"levelo://app?vid=69e386d1-7433-4cdc-b124-41af3fb6143d","ios":"levelo://app?vid=69e386d1-7433-4cdc-b124-41af3fb6143d"},"vehicle_type_id":"4","last_reported":1685894879,"current_range_meters":29600,"station_id":"ce4bhq92rcd13ifvqhkg","pricing_plan_id":"free"},{"bike_id":"0c739346-4d08-4d79-a607-c879a11b59ec","system_id":"levelo_inurba_marseille","lat":43.32046,"lon":5.41558,"is_reserved":false,"is_disabled":false,"rental_uris":{"android":"levelo://app?vid=0c739346-4d08-4d79-a607-c879a11b59ec","ios":"levelo://app?vid=0c739346-4d08-4d79-a607-c879a11b59ec"},"vehicle_type_id":"4","last_reported":1685894879,"current_range_meters":29600,"station_id":"","pricing_plan_id":"free"},{"bike_id":"ae6cf5cf-9fd5-42c0-8466-eb012fc96d25","system_id":"levelo_inurba_marseille","lat":43.32037,"lon":5.41563,"is_reserved":false,"is_disabled":false,"rental_uris":{"android":"levelo://app?vid=ae6cf5cf-9fd5-42c0-8466-eb012fc96d25","ios":"levelo://app?vid=ae6cf5cf-9fd5-42c0-8466-eb012fc96d25"},"vehicle_type_id":"4","last_reported":1685894879,"current_range_meters":31200,"station_id":"","pricing_plan_id":"free"},{"bike_id":"85080033-a16e-4ce2-a186-35d0563746cb","system_id":"levelo_inurba_marseille","lat":43.32035,"lon":5.41564,"is_reserved":false,"is_disabled":false,"rental_uris":{"android":"levelo://app?vid=85080033-a16e-4ce2-a186-35d0563746cb","ios":"levelo://app?vid=85080033-a16e-4ce2-a186-35d0563746cb"},"vehicle_type_id":"4","last_reported":1685894879,"current_range_meters":30000,"station_id":"","pricing_plan_id":"free"},{"bike_id":"bc4dc0e7-b26e-44c4-b47d-2893123703b2","system_id":"levelo_inurba_marseille","lat":43.32057,"lon":5.41562,"is_reserved":false,"is_disabled":false,"rental_uris":{"android":"levelo://app?vid=bc4dc0e7-b26e-44c4-b47d-2893123703b2","ios":"levelo://app?vid=bc4dc0e7-b26e-44c4-b47d-2893123703b2"},"vehicle_type_id":"4","last_reported":1685894879,"current_range_meters":31200,"station_id":"","pricing_plan_id":"free"},{"bike_id":"15292a35-debd-4d55-ab66-e14fe147b2b9","system_id":"levelo_inurba_marseille","lat":43.32039,"lon":5.41568,"is_reserved":false,"is_disabled":false,"rental_uris":{"android":"levelo://app?vid=15292a35-debd-4d55-ab66-e14fe147b2b9","ios":"levelo://app?vid=15292a35-debd-4d55-ab66-e14fe147b2b9"},"vehicle_type_id":"4","last_reported":1685894879,"current_range_meters":31200,"station_id":"","pricing_plan_id":"free"},{"bike_id":"d87c4170-9846-4bf6-aec8-6aaf25824d18","system_id":"levelo_inurba_marseille","lat":43.320336,"lon":5.415704,"is_reserved":false,"is_disabled":false,"rental_uris":{"android":"levelo://app?vid=d87c4170-9846-4bf6-aec8-6aaf25824d18","ios":"levelo://app?vid=d87c4170-9846-4bf6-aec8-6aaf25824d18"},"vehicle_type_id":"4","last_reported":1685894879,"current_range_meters":12000,"station_id":"","pricing_plan_id":"free"},{"bike_id":"781b2f7b-81ba-4c34-9163-b045dafe359c","system_id":"levelo_inurba_marseille","lat":43.3204,"lon":5.41573,"is_reserved":false,"is_disabled":false,"rental_uris":{"android":"levelo://app?vid=781b2f7b-81ba-4c34-9163-b045dafe359c","ios":"levelo://app?vid=781b2f7b-81ba-4c34-9163-b045dafe359c"},"vehicle_type_id":"4","last_reported":1685894879,"current_range_meters":31200,"station_id":"","pricing_plan_id":"free"},{"bike_id":"6f39e626-cec6-43d8-a9ec-47ee0e02527c","system_id":"levelo_inurba_marseille","lat":43.32046,"lon":5.4158,"is_reserved":false,"is_disabled":false,"rental_uris":{"android":"levelo://app?vid=6f39e626-cec6-43d8-a9ec-47ee0e02527c","ios":"levelo://app?vid=6f39e626-cec6-43d8-a9ec-47ee0e02527c"},"vehicle_type_id":"4","last_reported":1685894879,"current_range_meters":12000,"station_id":"","pricing_plan_id":"free"},{"bike_id":"6b324200-1f51-4daf-9a1b-c9d0569e8798","system_id":"levelo_inurba_marseille","lat":43.292569,"lon":5.409107,"is_reserved":false,"is_disabled":false,"rental_uris":{"android":"levelo://app?vid=6b324200-1f51-4daf-9a1b-c9d0569e8798","ios":"levelo://app?vid=6b324200-1f51-4daf-9a1b-c9d0569e8798"},"vehicle_type_id":"4","last_reported":1685894879,"current_range_meters":11600,"station_id":"ce4bh192rcd13ifvqdc0","pricing_plan_id":"free"},{"bike_id":"6346fc42-ef4a-4c42-84b0-5cc247ea6494","system_id":"levelo_inurba_marseille","lat":43.27621,"lon":5.36105,"is_reserved":false,"is_disabled":false,"rental_uris":{"android":"levelo://app?vid=6346fc42-ef4a-4c42-84b0-5cc247ea6494","ios":"levelo://app?vid=6346fc42-ef4a-4c42-84b0-5cc247ea6494"},"vehicle_type_id":"4","last_reported":1685894879,"current_range_meters":17200,"station_id":"ce4bgj92rcd13ifvqbe0","pricing_plan_id":"free"},{"bike_id":"f731ca43-6b29-4198-a4dd-ebcc419e4b44","system_id":"levelo_inurba_marseille","lat":43.325233,"lon":5.414318,"is_reserved":false,"is_disabled":false,"rental_uris":{"android":"levelo://app?vid=f731ca43-6b29-4198-a4dd-ebcc419e4b44","ios":"levelo://app?vid=f731ca43-6b29-4198-a4dd-ebcc419e4b44"},"vehicle_type_id":"4","last_reported":1685894879,"current_range_meters":28000,"station_id":"ce4bhq12rcd13ifvqhhg","pricing_plan_id":"free"},{"bike_id":"b280ed67-8658-4f47-ab8d-ae16cd4df20e","system_id":"levelo_inurba_marseille","lat":43.273613,"lon":5.362705,"is_reserved":false,"is_disabled":false,"rental_uris":{"android":"levelo://app?vid=b280ed67-8658-4f47-ab8d-ae16cd4df20e","ios":"levelo://app?vid=b280ed67-8658-4f47-ab8d-ae16cd4df20e"},"vehicle_type_id":"4","last_reported":1685894879,"current_range_meters":12400,"station_id":"ce4bhbh2rcd13ifvqeo0","pricing_plan_id":"free"},{"bike_id":"d6a99f7a-64fb-4ab5-92b1-37b41cf04cdf","system_id":"levelo_inurba_marseille","lat":43.273609,"lon":5.362708,"is_reserved":false,"is_disabled":false,"rental_uris":{"android":"levelo://app?vid=d6a99f7a-64fb-4ab5-92b1-37b41cf04cdf","ios":"levelo://app?vid=d6a99f7a-64fb-4ab5-92b1-37b41cf04cdf"},"vehicle_type_id":"4","last_reported":1685894879,"current_range_meters":2400,"station_id":"ce4bhbh2rcd13ifvqeo0","pricing_plan_id":"free"},{"bike_id":"a6a51b25-54d5-4d90-80c8-709dc35323af","system_id":"levelo_inurba_marseille","lat":43.273609,"lon":5.362708,"is_reserved":false,"is_disabled":false,"rental_uris":{"android":"levelo://app?vid=a6a51b25-54d5-4d90-80c8-709dc35323af","ios":"levelo://app?vid=a6a51b25-54d5-4d90-80c8-709dc35323af"},"vehicle_type_id":"4","last_reported":1685894879,"current_range_meters":800,"station_id":"ce4bhbh2rcd13ifvqeo0","pricing_plan_id":"free"},{"bike_id":"a10577e8-7094-4a1e-986d-568ac193ee59","system_id":"levelo_inurba_marseille","lat":43.273609,"lon":5.362708,"is_reserved":false,"is_disabled":false,"rental_uris":{"android":"levelo://app?vid=a10577e8-7094-4a1e-986d-568ac193ee59","ios":"levelo://app?vid=a10577e8-7094-4a1e-986d-568ac193ee59"},"vehicle_type_id":"4","last_reported":1685894879,"current_range_meters":31200,"station_id":"ce4bhbh2rcd13ifvqeo0","pricing_plan_id":"free"},{"bike_id":"fec1815f-32db-4780-963e-6b2e28bce57e","system_id":"levelo_inurba_marseille","lat":43.33612,"lon":5.410321,"is_reserved":false,"is_disabled":false,"rental_uris":{"android":"levelo://app?vid=fec1815f-32db-4780-963e-6b2e28bce57e","ios":"levelo://app?vid=fec1815f-32db-4780-963e-6b2e28bce57e"},"vehicle_type_id":"4","last_reported":1685894879,"current_range_meters":28400,"station_id":"ce4bhqh2rcd13ifvqhmg","pricing_plan_id":"free"},{"bike_id":"a53f8b5a-b83e-4adc-8f38-daf415614b08","system_id":"levelo_inurba_marseille","lat":43.33612,"lon":5.410321,"is_reserved":false,"is_disabled":false,"rental_uris":{"android":"levelo://app?vid=a53f8b5a-b83e-4adc-8f38-daf415614b08","ios":"levelo://app?vid=a53f8b5a-b83e-4adc-8f38-daf415614b08"},"vehicle_type_id":"4","last_reported":1685894879,"current_range_meters":24000,"station_id":"ce4bhqh2rcd13ifvqhmg","pricing_plan_id":"free"},{"bike_id":"1a09aded-ce8d-407b-b02e-97c537f48f57","system_id":"levelo_inurba_marseille","lat":43.33612,"lon":5.410321,"is_reserved":false,"is_disabled":false,"rental_uris":{"android":"levelo://app?vid=1a09aded-ce8d-407b-b02e-97c537f48f57","ios":"levelo://app?vid=1a09aded-ce8d-407b-b02e-97c537f48f57"},"vehicle_type_id":"4","last_reported":1685894879,"current_range_meters":18800,"station_id":"ce4bhqh2rcd13ifvqhmg","pricing_plan_id":"free"},{"bike_id":"9908a2eb-cceb-4359-b2f6-31b6ef3dee84","system_id":"levelo_inurba_marseille","lat":43.275243,"lon":5.384237,"is_reserved":false,"is_disabled":false,"rental_uris":{"android":"levelo://app?vid=9908a2eb-cceb-4359-b2f6-31b6ef3dee84","ios":"levelo://app?vid=9908a2eb-cceb-4359-b2f6-31b6ef3dee84"},"vehicle_type_id":"4","last_reported":1685894879,"current_range_meters":21600,"station_id":"ce4bhe12rcd13ifvqf30","pricing_plan_id":"free"},{"bike_id":"e59acce4-3c30-4b53-8515-ded770fac2b5","system_id":"levelo_inurba_marseille","lat":43.310785,"lon":5.424305,"is_reserved":false,"is_disabled":false,"rental_uris":{"android":"levelo://app?vid=e59acce4-3c30-4b53-8515-ded770fac2b5","ios":"levelo://app?vid=e59acce4-3c30-4b53-8515-ded770fac2b5"},"vehicle_type_id":"4","last_reported":1685894879,"current_range_meters":20800,"station_id":"ce4bhp92rcd13ifvqhag","pricing_plan_id":"free"},{"bike_id":"614248b1-45a8-4e50-888d-7fc5e10acfb3","system_id":"levelo_inurba_marseille","lat":43.310785,"lon":5.424305,"is_reserved":false,"is_disabled":false,"rental_uris":{"android":"levelo://app?vid=614248b1-45a8-4e50-888d-7fc5e10acfb3","ios":"levelo://app?vid=614248b1-45a8-4e50-888d-7fc5e10acfb3"},"vehicle_type_id":"4","last_reported":1685894879,"current_range_meters":20800,"station_id":"ce4bhp92rcd13ifvqhag","pricing_plan_id":"free"},{"bike_id":"55bd2b65-b388-4073-a28e-6e4f87948410","system_id":"levelo_inurba_marseille","lat":43.310785,"lon":5.424305,"is_reserved":false,"is_disabled":false,"rental_uris":{"android":"levelo://app?vid=55bd2b65-b388-4073-a28e-6e4f87948410","ios":"levelo://app?vid=55bd2b65-b388-4073-a28e-6e4f87948410"},"vehicle_type_id":"4","last_reported":1685894879,"current_range_meters":23200,"station_id":"ce4bhp92rcd13ifvqhag","pricing_plan_id":"free"},{"bike_id":"ca64bed7-0455-4a75-9384-6f4bb75fe4ac","system_id":"levelo_inurba_marseille","lat":43.310785,"lon":5.424305,"is_reserved":false,"is_disabled":false,"rental_uris":{"android":"levelo://app?vid=ca64bed7-0455-4a75-9384-6f4bb75fe4ac","ios":"levelo://app?vid=ca64bed7-0455-4a75-9384-6f4bb75fe4ac"},"vehicle_type_id":"4","last_reported":1685894879,"current_range_meters":19600,"station_id":"ce4bhp92rcd13ifvqhag","pricing_plan_id":"free"},{"bike_id":"2c6a46ce-5902-4760-8d3c-3f4e8d73ad0d","system_id":"levelo_inurba_marseille","lat":43.31727,"lon":5.42404,"is_reserved":false,"is_disabled":false,"rental_uris":{"android":"levelo://app?vid=2c6a46ce-5902-4760-8d3c-3f4e8d73ad0d","ios":"levelo://app?vid=2c6a46ce-5902-4760-8d3c-3f4e8d73ad0d"},"vehicle_type_id":"4","last_reported":1685894879,"current_range_meters":30400,"station_id":"ce4bhp92rcd13ifvqhbg","pricing_plan_id":"free"},{"bike_id":"c4b5dd40-68ed-4b2a-978e-3db11b46faea","system_id":"levelo_inurba_marseille","lat":43.310785,"lon":5.424305,"is_reserved":false,"is_disabled":false,"rental_uris":{"android":"levelo://app?vid=c4b5dd40-68ed-4b2a-978e-3db11b46faea","ios":"levelo://app?vid=c4b5dd40-68ed-4b2a-978e-3db11b46faea"},"vehicle_type_id":"4","last_reported":1685894879,"current_range_meters":28800,"station_id":"ce4bhp92rcd13ifvqhag","pricing_plan_id":"free"},{"bike_id":"9db9545d-f63d-42be-a674-9c25625f916b","system_id":"levelo_inurba_marseille","lat":43.294,"lon":5.41928,"is_reserved":false,"is_disabled":false,"rental_uris":{"android":"levelo://app?vid=9db9545d-f63d-42be-a674-9c25625f916b","ios":"levelo://app?vid=9db9545d-f63d-42be-a674-9c25625f916b"},"vehicle_type_id":"4","last_reported":1685894879,"current_range_meters":7200,"station_id":"","pricing_plan_id":"free"},{"bike_id":"792ca2a6-f06b-4eb4-a2d6-3cb87e32b1f1","system_id":"levelo_inurba_marseille","lat":43.273125,"lon":5.390731,"is_reserved":false,"is_disabled":false,"rental_uris":{"android":"levelo://app?vid=792ca2a6-f06b-4eb4-a2d6-3cb87e32b1f1","ios":"levelo://app?vid=792ca2a6-f06b-4eb4-a2d6-3cb87e32b1f1"},"vehicle_type_id":"4","last_reported":1685894879,"current_range_meters":15200,"station_id":"ce4bhgp2rcd13ifvqfe0","pricing_plan_id":"free"},{"bike_id":"4d80717c-1ab1-4ff1-8e16-4b8981f90281","system_id":"levelo_inurba_marseille","lat":43.32717,"lon":5.42351,"is_reserved":false,"is_disabled":false,"rental_uris":{"android":"levelo://app?vid=4d80717c-1ab1-4ff1-8e16-4b8981f90281","ios":"levelo://app?vid=4d80717c-1ab1-4ff1-8e16-4b8981f90281"},"vehicle_type_id":"4","last_reported":1685894879,"current_range_meters":25600,"station_id":"","pricing_plan_id":"free"},{"bike_id":"ecc5192b-e8e2-43ac-9460-80bb6e5894ee","system_id":"levelo_inurba_marseille","lat":43.26554,"lon":5.37284,"is_reserved":false,"is_disabled":false,"rental_uris":{"android":"levelo://app?vid=ecc5192b-e8e2-43ac-9460-80bb6e5894ee","ios":"levelo://app?vid=ecc5192b-e8e2-43ac-9460-80bb6e5894ee"},"vehicle_type_id":"4","last_reported":1685894879,"current_range_meters":14400,"station_id":"ce4bhg12rcd13ifvqf70","pricing_plan_id":"free"},{"bike_id":"477c9b24-a1bd-4af2-9e3a-7a10b9af13d1","system_id":"levelo_inurba_marseille","lat":43.3171,"lon":5.43335,"is_reserved":false,"is_disabled":false,"rental_uris":{"android":"levelo://app?vid=477c9b24-a1bd-4af2-9e3a-7a10b9af13d1","ios":"levelo://app?vid=477c9b24-a1bd-4af2-9e3a-7a10b9af13d1"},"vehicle_type_id":"4","last_reported":1685894879,"current_range_meters":0,"station_id":"","pricing_plan_id":"free"},{"bike_id":"57143554-6bd2-4ac3-a9a3-581bc0ed1a91","system_id":"levelo_inurba_marseille","lat":43.27996,"lon":5.416624,"is_reserved":false,"is_disabled":false,"rental_uris":{"android":"levelo://app?vid=57143554-6bd2-4ac3-a9a3-581bc0ed1a91","ios":"levelo://app?vid=57143554-6bd2-4ac3-a9a3-581bc0ed1a91"},"vehicle_type_id":"4","last_reported":1685894879,"current_range_meters":25600,"station_id":"ce4bho12rcd13ifvqh1g","pricing_plan_id":"free"},{"bike_id":"49b21e3a-5ba5-44b4-a97e-addecb9cc27b","system_id":"levelo_inurba_marseille","lat":43.27996,"lon":5.416624,"is_reserved":false,"is_disabled":false,"rental_uris":{"android":"levelo://app?vid=49b21e3a-5ba5-44b4-a97e-addecb9cc27b","ios":"levelo://app?vid=49b21e3a-5ba5-44b4-a97e-addecb9cc27b"},"vehicle_type_id":"4","last_reported":1685894879,"current_range_meters":29600,"station_id":"ce4bho12rcd13ifvqh1g","pricing_plan_id":"free"},{"bike_id":"59a67545-dfb4-4eec-b120-ef5858dbc3bb","system_id":"levelo_inurba_marseille","lat":43.26779,"lon":5.3942,"is_reserved":false,"is_disabled":false,"rental_uris":{"android":"levelo://app?vid=59a67545-dfb4-4eec-b120-ef5858dbc3bb","ios":"levelo://app?vid=59a67545-dfb4-4eec-b120-ef5858dbc3bb"},"vehicle_type_id":"4","last_reported":1685894879,"current_range_meters":17600,"station_id":"ce4bhh12rcd13ifvqfg0","pricing_plan_id":"free"},{"bike_id":"f20d6d55-9ebc-44bf-9272-e5018088f54c","system_id":"levelo_inurba_marseille","lat":43.26569,"lon":5.39011,"is_reserved":false,"is_disabled":false,"rental_uris":{"android":"levelo://app?vid=f20d6d55-9ebc-44bf-9272-e5018088f54c","ios":"levelo://app?vid=f20d6d55-9ebc-44bf-9272-e5018088f54c"},"vehicle_type_id":"4","last_reported":1685894879,"current_range_meters":3600,"station_id":"ce4bhe12rcd13ifvqf30","pricing_plan_id":"free"},{"bike_id":"9d9dcdd0-65ca-4fc7-bd66-0f88c11fb308","system_id":"levelo_inurba_marseille","lat":43.265569,"lon":5.390047,"is_reserved":false,"is_disabled":false,"rental_uris":{"android":"levelo://app?vid=9d9dcdd0-65ca-4fc7-bd66-0f88c11fb308","ios":"levelo://app?vid=9d9dcdd0-65ca-4fc7-bd66-0f88c11fb308"},"vehicle_type_id":"4","last_reported":1685894879,"current_range_meters":14400,"station_id":"ce4bhe12rcd13ifvqf30","pricing_plan_id":"free"},{"bike_id":"f5236276-e859-4218-87e7-aabdce2e73d3","system_id":"levelo_inurba_marseille","lat":43.26209,"lon":5.37046,"is_reserved":false,"is_disabled":false,"rental_uris":{"android":"levelo://app?vid=f5236276-e859-4218-87e7-aabdce2e73d3","ios":"levelo://app?vid=f5236276-e859-4218-87e7-aabdce2e73d3"},"vehicle_type_id":"4","last_reported":1685894879,"current_range_meters":9200,"station_id":"","pricing_plan_id":"free"},{"bike_id":"06d00ffb-f349-4d5e-bf9f-ffeeda7e4e37","system_id":"levelo_inurba_marseille","lat":43.261782,"lon":5.374515,"is_reserved":false,"is_disabled":false,"rental_uris":{"android":"levelo://app?vid=06d00ffb-f349-4d5e-bf9f-ffeeda7e4e37","ios":"levelo://app?vid=06d00ffb-f349-4d5e-bf9f-ffeeda7e4e37"},"vehicle_type_id":"4","last_reported":1685894879,"current_range_meters":10800,"station_id":"ce4bhgp2rcd13ifvqfc0","pricing_plan_id":"free"},{"bike_id":"197d1ea7-59ea-463c-82cc-f7d932d9da2d","system_id":"levelo_inurba_marseille","lat":43.261782,"lon":5.374515,"is_reserved":false,"is_disabled":false,"rental_uris":{"android":"levelo://app?vid=197d1ea7-59ea-463c-82cc-f7d932d9da2d","ios":"levelo://app?vid=197d1ea7-59ea-463c-82cc-f7d932d9da2d"},"vehicle_type_id":"4","last_reported":1685894879,"current_range_meters":2400,"station_id":"ce4bhgp2rcd13ifvqfc0","pricing_plan_id":"free"},{"bike_id":"566b7c7e-ee44-4abc-93f6-e08342a6f48d","system_id":"levelo_inurba_marseille","lat":43.26186,"lon":5.37444,"is_reserved":false,"is_disabled":false,"rental_uris":{"android":"levelo://app?vid=566b7c7e-ee44-4abc-93f6-e08342a6f48d","ios":"levelo://app?vid=566b7c7e-ee44-4abc-93f6-e08342a6f48d"},"vehicle_type_id":"4","last_reported":1685894879,"current_range_meters":0,"station_id":"ce4bhgp2rcd13ifvqfc0","pricing_plan_id":"free"},{"bike_id":"2a48043e-0223-418b-bf9b-d91374083f1f","system_id":"levelo_inurba_marseille","lat":43.317104,"lon":5.436818,"is_reserved":false,"is_disabled":false,"rental_uris":{"android":"levelo://app?vid=2a48043e-0223-418b-bf9b-d91374083f1f","ios":"levelo://app?vid=2a48043e-0223-418b-bf9b-d91374083f1f"},"vehicle_type_id":"4","last_reported":1685894879,"current_range_meters":24800,"station_id":"ce4bhp92rcd13ifvqhcg","pricing_plan_id":"free"},{"bike_id":"c2b397fb-dd16-4a5f-9688-8c8813307451","system_id":"levelo_inurba_marseille","lat":43.317104,"lon":5.436818,"is_reserved":false,"is_disabled":false,"rental_uris":{"android":"levelo://app?vid=c2b397fb-dd16-4a5f-9688-8c8813307451","ios":"levelo://app?vid=c2b397fb-dd16-4a5f-9688-8c8813307451"},"vehicle_type_id":"4","last_reported":1685894879,"current_range_meters":28000,"station_id":"ce4bhp92rcd13ifvqhcg","pricing_plan_id":"free"},{"bike_id":"5bfc0c87-c9b3-41cb-a2de-1fca98bb2c6f","system_id":"levelo_inurba_marseille","lat":43.26178,"lon":5.37443,"is_reserved":false,"is_disabled":false,"rental_uris":{"android":"levelo://app?vid=5bfc0c87-c9b3-41cb-a2de-1fca98bb2c6f","ios":"levelo://app?vid=5bfc0c87-c9b3-41cb-a2de-1fca98bb2c6f"},"vehicle_type_id":"4","last_reported":1685894879,"current_range_meters":29600,"station_id":"ce4bhgp2rcd13ifvqfc0","pricing_plan_id":"free"},{"bike_id":"8d24ae20-a116-4f11-9d57-7073b96e4f5b","system_id":"levelo_inurba_marseille","lat":43.29896,"lon":5.43676,"is_reserved":false,"is_disabled":false,"rental_uris":{"android":"levelo://app?vid=8d24ae20-a116-4f11-9d57-7073b96e4f5b","ios":"levelo://app?vid=8d24ae20-a116-4f11-9d57-7073b96e4f5b"},"vehicle_type_id":"4","last_reported":1685894879,"current_range_meters":4800,"station_id":"","pricing_plan_id":"free"},{"bike_id":"178dd281-50b2-4e21-884c-d1300e656755","system_id":"levelo_inurba_marseille","lat":43.25957,"lon":5.38045,"is_reserved":false,"is_disabled":false,"rental_uris":{"android":"levelo://app?vid=178dd281-50b2-4e21-884c-d1300e656755","ios":"levelo://app?vid=178dd281-50b2-4e21-884c-d1300e656755"},"vehicle_type_id":"4","last_reported":1685894879,"current_range_meters":18400,"station_id":"","pricing_plan_id":"free"},{"bike_id":"2d3aba6d-33ff-46ce-804c-85ba01d4a514","system_id":"levelo_inurba_marseille","lat":43.28836,"lon":5.43544,"is_reserved":false,"is_disabled":false,"rental_uris":{"android":"levelo://app?vid=2d3aba6d-33ff-46ce-804c-85ba01d4a514","ios":"levelo://app?vid=2d3aba6d-33ff-46ce-804c-85ba01d4a514"},"vehicle_type_id":"4","last_reported":1685894879,"current_range_meters":7600,"station_id":"","pricing_plan_id":"free"},{"bike_id":"68377ca7-e970-4376-af3b-eae95aa66337","system_id":"levelo_inurba_marseille","lat":43.2607,"lon":5.393983,"is_reserved":false,"is_disabled":false,"rental_uris":{"android":"levelo://app?vid=68377ca7-e970-4376-af3b-eae95aa66337","ios":"levelo://app?vid=68377ca7-e970-4376-af3b-eae95aa66337"},"vehicle_type_id":"4","last_reported":1685894879,"current_range_meters":1200,"station_id":"ce4bhh92rcd13ifvqfj0","pricing_plan_id":"free"},{"bike_id":"15846ad5-bf86-4e7b-b8aa-7e842c5fbce6","system_id":"levelo_inurba_marseille","lat":43.2607,"lon":5.393983,"is_reserved":false,"is_disabled":false,"rental_uris":{"android":"levelo://app?vid=15846ad5-bf86-4e7b-b8aa-7e842c5fbce6","ios":"levelo://app?vid=15846ad5-bf86-4e7b-b8aa-7e842c5fbce6"},"vehicle_type_id":"4","last_reported":1685894879,"current_range_meters":6400,"station_id":"ce4bhh92rcd13ifvqfj0","pricing_plan_id":"free"},{"bike_id":"75922dd4-77ac-403f-bb44-abf66b4ee641","system_id":"levelo_inurba_marseille","lat":43.28805,"lon":5.43568,"is_reserved":false,"is_disabled":false,"rental_uris":{"android":"levelo://app?vid=75922dd4-77ac-403f-bb44-abf66b4ee641","ios":"levelo://app?vid=75922dd4-77ac-403f-bb44-abf66b4ee641"},"vehicle_type_id":"4","last_reported":1685894879,"current_range_meters":20800,"station_id":"","pricing_plan_id":"free"},{"bike_id":"2aed13f7-7478-4339-be18-f760526dbb2e","system_id":"levelo_inurba_marseille","lat":43.254945,"lon":5.376454,"is_reserved":false,"is_disabled":false,"rental_uris":{"android":"levelo://app?vid=2aed13f7-7478-4339-be18-f760526dbb2e","ios":"levelo://app?vid=2aed13f7-7478-4339-be18-f760526dbb2e"},"vehicle_type_id":"4","last_reported":1685894879,"current_range_meters":0,"station_id":"ce4bhh12rcd13ifvqff0","pricing_plan_id":"free"},{"bike_id":"0c7557bf-9a29-4567-982f-8c19e4013233","system_id":"levelo_inurba_marseille","lat":43.255756,"lon":5.382303,"is_reserved":false,"is_disabled":false,"rental_uris":{"android":"levelo://app?vid=0c7557bf-9a29-4567-982f-8c19e4013233","ios":"levelo://app?vid=0c7557bf-9a29-4567-982f-8c19e4013233"},"vehicle_type_id":"4","last_reported":1685894879,"current_range_meters":28800,"station_id":"ce4bhih2rcd13ifvqfs0","pricing_plan_id":"free"},{"bike_id":"0036ffeb-f8ba-4f83-85e6-d79c885e170e","system_id":"levelo_inurba_marseille","lat":43.255756,"lon":5.382303,"is_reserved":false,"is_disabled":false,"rental_uris":{"android":"levelo://app?vid=0036ffeb-f8ba-4f83-85e6-d79c885e170e","ios":"levelo://app?vid=0036ffeb-f8ba-4f83-85e6-d79c885e170e"},"vehicle_type_id":"4","last_reported":1685894879,"current_range_meters":22000,"station_id":"ce4bhih2rcd13ifvqfs0","pricing_plan_id":"free"},{"bike_id":"5266ce40-87b7-4d7a-b2e6-29dd6b05c5d0","system_id":"levelo_inurba_marseille","lat":43.255756,"lon":5.382303,"is_reserved":false,"is_disabled":false,"rental_uris":{"android":"levelo://app?vid=5266ce40-87b7-4d7a-b2e6-29dd6b05c5d0","ios":"levelo://app?vid=5266ce40-87b7-4d7a-b2e6-29dd6b05c5d0"},"vehicle_type_id":"4","last_reported":1685894879,"current_range_meters":1600,"station_id":"ce4bhih2rcd13ifvqfs0","pricing_plan_id":"free"},{"bike_id":"2aee7ea6-9856-4ccc-996a-e7c5bff21676","system_id":"levelo_inurba_marseille","lat":43.255756,"lon":5.382303,"is_reserved":false,"is_disabled":false,"rental_uris":{"android":"levelo://app?vid=2aee7ea6-9856-4ccc-996a-e7c5bff21676","ios":"levelo://app?vid=2aee7ea6-9856-4ccc-996a-e7c5bff21676"},"vehicle_type_id":"4","last_reported":1685894879,"current_range_meters":15200,"station_id":"ce4bhih2rcd13ifvqfs0","pricing_plan_id":"free"},{"bike_id":"6a5052da-a240-44be-80e0-463b7de4174a","system_id":"levelo_inurba_marseille","lat":43.255756,"lon":5.382303,"is_reserved":false,"is_disabled":false,"rental_uris":{"android":"levelo://app?vid=6a5052da-a240-44be-80e0-463b7de4174a","ios":"levelo://app?vid=6a5052da-a240-44be-80e0-463b7de4174a"},"vehicle_type_id":"4","last_reported":1685894879,"current_range_meters":0,"station_id":"ce4bhih2rcd13ifvqfs0","pricing_plan_id":"free"},{"bike_id":"ae62fb6c-6067-4d43-b86b-9105671367cb","system_id":"levelo_inurba_marseille","lat":43.25494,"lon":5.37648,"is_reserved":false,"is_disabled":false,"rental_uris":{"android":"levelo://app?vid=ae62fb6c-6067-4d43-b86b-9105671367cb","ios":"levelo://app?vid=ae62fb6c-6067-4d43-b86b-9105671367cb"},"vehicle_type_id":"4","last_reported":1685894879,"current_range_meters":6800,"station_id":"ce4bhh12rcd13ifvqff0","pricing_plan_id":"free"},{"bike_id":"c0017406-555c-41f0-a788-fcaf5f67b3c6","system_id":"levelo_inurba_marseille","lat":43.27081,"lon":5.4228,"is_reserved":false,"is_disabled":false,"rental_uris":{"android":"levelo://app?vid=c0017406-555c-41f0-a788-fcaf5f67b3c6","ios":"levelo://app?vid=c0017406-555c-41f0-a788-fcaf5f67b3c6"},"vehicle_type_id":"4","last_reported":1685894879,"current_range_meters":29200,"station_id":"ce4bhk92rcd13ifvqgb0","pricing_plan_id":"free"},{"bike_id":"c3cde939-5db8-4375-a3e9-0e3228cc92cd","system_id":"levelo_inurba_marseille","lat":43.270721,"lon":5.422764,"is_reserved":false,"is_disabled":false,"rental_uris":{"android":"levelo://app?vid=c3cde939-5db8-4375-a3e9-0e3228cc92cd","ios":"levelo://app?vid=c3cde939-5db8-4375-a3e9-0e3228cc92cd"},"vehicle_type_id":"4","last_reported":1685894879,"current_range_meters":31200,"station_id":"ce4bhk92rcd13ifvqgb0","pricing_plan_id":"free"},{"bike_id":"0b2e7a19-1538-43bf-9f9d-718dead8b83e","system_id":"levelo_inurba_marseille","lat":43.27069,"lon":5.42271,"is_reserved":false,"is_disabled":false,"rental_uris":{"android":"levelo://app?vid=0b2e7a19-1538-43bf-9f9d-718dead8b83e","ios":"levelo://app?vid=0b2e7a19-1538-43bf-9f9d-718dead8b83e"},"vehicle_type_id":"4","last_reported":1685894879,"current_range_meters":29200,"station_id":"ce4bhk92rcd13ifvqgb0","pricing_plan_id":"free"},{"bike_id":"3d36ccf3-2034-4be0-845e-3e97b0bc6287","system_id":"levelo_inurba_marseille","lat":43.27073,"lon":5.42277,"is_reserved":false,"is_disabled":false,"rental_uris":{"android":"levelo://app?vid=3d36ccf3-2034-4be0-845e-3e97b0bc6287","ios":"levelo://app?vid=3d36ccf3-2034-4be0-845e-3e97b0bc6287"},"vehicle_type_id":"4","last_reported":1685894879,"current_range_meters":8400,"station_id":"ce4bhk92rcd13ifvqgb0","pricing_plan_id":"free"},{"bike_id":"8f87b84b-9bce-42d0-b2f6-5811a0549e80","system_id":"levelo_inurba_marseille","lat":43.27072,"lon":5.42278,"is_reserved":false,"is_disabled":false,"rental_uris":{"android":"levelo://app?vid=8f87b84b-9bce-42d0-b2f6-5811a0549e80","ios":"levelo://app?vid=8f87b84b-9bce-42d0-b2f6-5811a0549e80"},"vehicle_type_id":"4","last_reported":1685894879,"current_range_meters":29600,"station_id":"ce4bhk92rcd13ifvqgb0","pricing_plan_id":"free"},{"bike_id":"1c6e109b-6357-48f1-9d8d-cfdb19d9e54c","system_id":"levelo_inurba_marseille","lat":43.270721,"lon":5.422764,"is_reserved":false,"is_disabled":false,"rental_uris":{"android":"levelo://app?vid=1c6e109b-6357-48f1-9d8d-cfdb19d9e54c","ios":"levelo://app?vid=1c6e109b-6357-48f1-9d8d-cfdb19d9e54c"},"vehicle_type_id":"4","last_reported":1685894879,"current_range_meters":28800,"station_id":"ce4bhk92rcd13ifvqgb0","pricing_plan_id":"free"},{"bike_id":"9d8211f6-74ca-4d7f-8a5d-e649f5c73955","system_id":"levelo_inurba_marseille","lat":43.27069,"lon":5.4228,"is_reserved":false,"is_disabled":false,"rental_uris":{"android":"levelo://app?vid=9d8211f6-74ca-4d7f-8a5d-e649f5c73955","ios":"levelo://app?vid=9d8211f6-74ca-4d7f-8a5d-e649f5c73955"},"vehicle_type_id":"4","last_reported":1685894879,"current_range_meters":8800,"station_id":"ce4bhk92rcd13ifvqgb0","pricing_plan_id":"free"},{"bike_id":"6a0ad850-d1de-4983-932c-73973b0dcff0","system_id":"levelo_inurba_marseille","lat":43.270721,"lon":5.422764,"is_reserved":false,"is_disabled":false,"rental_uris":{"android":"levelo://app?vid=6a0ad850-d1de-4983-932c-73973b0dcff0","ios":"levelo://app?vid=6a0ad850-d1de-4983-932c-73973b0dcff0"},"vehicle_type_id":"4","last_reported":1685894879,"current_range_meters":31200,"station_id":"ce4bhk92rcd13ifvqgb0","pricing_plan_id":"free"},{"bike_id":"06210bb0-1c2f-44c9-a2f5-d6b247a20695","system_id":"levelo_inurba_marseille","lat":43.33412,"lon":5.44228,"is_reserved":false,"is_disabled":false,"rental_uris":{"android":"levelo://app?vid=06210bb0-1c2f-44c9-a2f5-d6b247a20695","ios":"levelo://app?vid=06210bb0-1c2f-44c9-a2f5-d6b247a20695"},"vehicle_type_id":"4","last_reported":1685894879,"current_range_meters":28800,"station_id":"","pricing_plan_id":"free"},{"bike_id":"8a065f1c-914c-4e39-9a27-b733ec5a900d","system_id":"levelo_inurba_marseille","lat":43.25301,"lon":5.3788,"is_reserved":false,"is_disabled":false,"rental_uris":{"android":"levelo://app?vid=8a065f1c-914c-4e39-9a27-b733ec5a900d","ios":"levelo://app?vid=8a065f1c-914c-4e39-9a27-b733ec5a900d"},"vehicle_type_id":"4","last_reported":1685894879,"current_range_meters":22400,"station_id":"","pricing_plan_id":"free"},{"bike_id":"33e81459-8629-4b64-b95c-a02b3080d474","system_id":"levelo_inurba_marseille","lat":43.259013,"lon":5.409301,"is_reserved":false,"is_disabled":false,"rental_uris":{"android":"levelo://app?vid=33e81459-8629-4b64-b95c-a02b3080d474","ios":"levelo://app?vid=33e81459-8629-4b64-b95c-a02b3080d474"},"vehicle_type_id":"4","last_reported":1685894879,"current_range_meters":16800,"station_id":"ce4bhm92rcd13ifvqglg","pricing_plan_id":"free"},{"bike_id":"7bf06965-eea4-4de2-a87c-7ab86f76ebc6","system_id":"levelo_inurba_marseille","lat":43.250009,"lon":5.389195,"is_reserved":false,"is_disabled":false,"rental_uris":{"android":"levelo://app?vid=7bf06965-eea4-4de2-a87c-7ab86f76ebc6","ios":"levelo://app?vid=7bf06965-eea4-4de2-a87c-7ab86f76ebc6"},"vehicle_type_id":"4","last_reported":1685894879,"current_range_meters":0,"station_id":"ce4bhgp2rcd13ifvqfd0","pricing_plan_id":"free"},{"bike_id":"2a6ea9c4-cb38-4605-8d0b-fe05a6e10a19","system_id":"levelo_inurba_marseille","lat":43.250009,"lon":5.389195,"is_reserved":false,"is_disabled":false,"rental_uris":{"android":"levelo://app?vid=2a6ea9c4-cb38-4605-8d0b-fe05a6e10a19","ios":"levelo://app?vid=2a6ea9c4-cb38-4605-8d0b-fe05a6e10a19"},"vehicle_type_id":"4","last_reported":1685894879,"current_range_meters":26400,"station_id":"ce4bhgp2rcd13ifvqfd0","pricing_plan_id":"free"},{"bike_id":"a0a5e8e3-015d-46a6-ba0a-834ebf706b18","system_id":"levelo_inurba_marseille","lat":43.24812,"lon":5.37461,"is_reserved":false,"is_disabled":false,"rental_uris":{"android":"levelo://app?vid=a0a5e8e3-015d-46a6-ba0a-834ebf706b18","ios":"levelo://app?vid=a0a5e8e3-015d-46a6-ba0a-834ebf706b18"},"vehicle_type_id":"4","last_reported":1685894879,"current_range_meters":2000,"station_id":"","pricing_plan_id":"free"},{"bike_id":"9c9a2e3a-3815-4c39-abbd-2de4bc66e707","system_id":"levelo_inurba_marseille","lat":43.2479,"lon":5.374457,"is_reserved":false,"is_disabled":false,"rental_uris":{"android":"levelo://app?vid=9c9a2e3a-3815-4c39-abbd-2de4bc66e707","ios":"levelo://app?vid=9c9a2e3a-3815-4c39-abbd-2de4bc66e707"},"vehicle_type_id":"4","last_reported":1685894879,"current_range_meters":13200,"station_id":"ce4bhgh2rcd13ifvqfb0","pricing_plan_id":"free"},{"bike_id":"109da74e-8be5-464c-909f-d19f31c37c0e","system_id":"levelo_inurba_marseille","lat":43.24809,"lon":5.37454,"is_reserved":false,"is_disabled":false,"rental_uris":{"android":"levelo://app?vid=109da74e-8be5-464c-909f-d19f31c37c0e","ios":"levelo://app?vid=109da74e-8be5-464c-909f-d19f31c37c0e"},"vehicle_type_id":"4","last_reported":1685894879,"current_range_meters":2800,"station_id":"ce4bhgh2rcd13ifvqfb0","pricing_plan_id":"free"},{"bike_id":"a638279c-0d61-4225-b3cb-a1ba1279c1c9","system_id":"levelo_inurba_marseille","lat":43.2479,"lon":5.374457,"is_reserved":false,"is_disabled":false,"rental_uris":{"android":"levelo://app?vid=a638279c-0d61-4225-b3cb-a1ba1279c1c9","ios":"levelo://app?vid=a638279c-0d61-4225-b3cb-a1ba1279c1c9"},"vehicle_type_id":"4","last_reported":1685894879,"current_range_meters":19600,"station_id":"ce4bhgh2rcd13ifvqfb0","pricing_plan_id":"free"},{"bike_id":"5ddf5ddc-0bfb-4462-8fb5-3cb8cacaed16","system_id":"levelo_inurba_marseille","lat":43.24808,"lon":5.37455,"is_reserved":false,"is_disabled":false,"rental_uris":{"android":"levelo://app?vid=5ddf5ddc-0bfb-4462-8fb5-3cb8cacaed16","ios":"levelo://app?vid=5ddf5ddc-0bfb-4462-8fb5-3cb8cacaed16"},"vehicle_type_id":"4","last_reported":1685894879,"current_range_meters":16800,"station_id":"ce4bhgh2rcd13ifvqfb0","pricing_plan_id":"free"},{"bike_id":"dc4c9f9b-8e6a-457e-a4db-9dd92f0336ba","system_id":"levelo_inurba_marseille","lat":43.2479,"lon":5.374457,"is_reserved":false,"is_disabled":false,"rental_uris":{"android":"levelo://app?vid=dc4c9f9b-8e6a-457e-a4db-9dd92f0336ba","ios":"levelo://app?vid=dc4c9f9b-8e6a-457e-a4db-9dd92f0336ba"},"vehicle_type_id":"4","last_reported":1685894879,"current_range_meters":20400,"station_id":"ce4bhgh2rcd13ifvqfb0","pricing_plan_id":"free"},{"bike_id":"8e92b759-e687-4bab-9c06-b625bf0e206f","system_id":"levelo_inurba_marseille","lat":43.24805,"lon":5.37453,"is_reserved":false,"is_disabled":false,"rental_uris":{"android":"levelo://app?vid=8e92b759-e687-4bab-9c06-b625bf0e206f","ios":"levelo://app?vid=8e92b759-e687-4bab-9c06-b625bf0e206f"},"vehicle_type_id":"4","last_reported":1685894879,"current_range_meters":11200,"station_id":"ce4bhgh2rcd13ifvqfb0","pricing_plan_id":"free"},{"bike_id":"058d48de-be8f-4a3d-bb83-388d1cf547e0","system_id":"levelo_inurba_marseille","lat":43.24805,"lon":5.3746,"is_reserved":false,"is_disabled":false,"rental_uris":{"android":"levelo://app?vid=058d48de-be8f-4a3d-bb83-388d1cf547e0","ios":"levelo://app?vid=058d48de-be8f-4a3d-bb83-388d1cf547e0"},"vehicle_type_id":"4","last_reported":1685894879,"current_range_meters":0,"station_id":"ce4bhgh2rcd13ifvqfb0","pricing_plan_id":"free"},{"bike_id":"d43ad189-6d44-4ee2-8ca4-82766fc1de07","system_id":"levelo_inurba_marseille","lat":43.250023,"lon":5.38919,"is_reserved":false,"is_disabled":false,"rental_uris":{"android":"levelo://app?vid=d43ad189-6d44-4ee2-8ca4-82766fc1de07","ios":"levelo://app?vid=d43ad189-6d44-4ee2-8ca4-82766fc1de07"},"vehicle_type_id":"4","last_reported":1685894879,"current_range_meters":8800,"station_id":"ce4bhgp2rcd13ifvqfd0","pricing_plan_id":"free"},{"bike_id":"5a8e1066-3c50-4474-87e4-14bb01036464","system_id":"levelo_inurba_marseille","lat":43.2479,"lon":5.374457,"is_reserved":false,"is_disabled":false,"rental_uris":{"android":"levelo://app?vid=5a8e1066-3c50-4474-87e4-14bb01036464","ios":"levelo://app?vid=5a8e1066-3c50-4474-87e4-14bb01036464"},"vehicle_type_id":"4","last_reported":1685894879,"current_range_meters":29200,"station_id":"ce4bhgh2rcd13ifvqfb0","pricing_plan_id":"free"},{"bike_id":"bc707ff4-64ea-4dec-b360-a8ff759a08cd","system_id":"levelo_inurba_marseille","lat":43.24666,"lon":5.38165,"is_reserved":false,"is_disabled":false,"rental_uris":{"android":"levelo://app?vid=bc707ff4-64ea-4dec-b360-a8ff759a08cd","ios":"levelo://app?vid=bc707ff4-64ea-4dec-b360-a8ff759a08cd"},"vehicle_type_id":"4","last_reported":1685894879,"current_range_meters":7600,"station_id":"","pricing_plan_id":"free"},{"bike_id":"5afecec3-e341-4b63-b11d-be3f0fa60e2f","system_id":"levelo_inurba_marseille","lat":43.24693,"lon":5.382096,"is_reserved":false,"is_disabled":false,"rental_uris":{"android":"levelo://app?vid=5afecec3-e341-4b63-b11d-be3f0fa60e2f","ios":"levelo://app?vid=5afecec3-e341-4b63-b11d-be3f0fa60e2f"},"vehicle_type_id":"4","last_reported":1685894879,"current_range_meters":23200,"station_id":"ce4bhih2rcd13ifvqfr0","pricing_plan_id":"free"},{"bike_id":"46793d19-acf7-433e-978c-dcfd001c6599","system_id":"levelo_inurba_marseille","lat":43.24649,"lon":5.3889,"is_reserved":false,"is_disabled":false,"rental_uris":{"android":"levelo://app?vid=46793d19-acf7-433e-978c-dcfd001c6599","ios":"levelo://app?vid=46793d19-acf7-433e-978c-dcfd001c6599"},"vehicle_type_id":"4","last_reported":1685894879,"current_range_meters":6000,"station_id":"","pricing_plan_id":"free"},{"bike_id":"8ae77b5e-541a-4803-94e5-50e8fc075cbd","system_id":"levelo_inurba_marseille","lat":43.24457,"lon":5.36916,"is_reserved":false,"is_disabled":false,"rental_uris":{"android":"levelo://app?vid=8ae77b5e-541a-4803-94e5-50e8fc075cbd","ios":"levelo://app?vid=8ae77b5e-541a-4803-94e5-50e8fc075cbd"},"vehicle_type_id":"4","last_reported":1685894879,"current_range_meters":30000,"station_id":"","pricing_plan_id":"free"},{"bike_id":"9dd349a3-bfb2-4d90-908c-67f48d04c4e5","system_id":"levelo_inurba_marseille","lat":43.24616,"lon":5.39012,"is_reserved":false,"is_disabled":false,"rental_uris":{"android":"levelo://app?vid=9dd349a3-bfb2-4d90-908c-67f48d04c4e5","ios":"levelo://app?vid=9dd349a3-bfb2-4d90-908c-67f48d04c4e5"},"vehicle_type_id":"4","last_reported":1685894879,"current_range_meters":23200,"station_id":"","pricing_plan_id":"free"},{"bike_id":"f19d8a72-c419-4a51-ae62-bbbcb0e9bfb4","system_id":"levelo_inurba_marseille","lat":43.24612,"lon":5.39012,"is_reserved":false,"is_disabled":false,"rental_uris":{"android":"levelo://app?vid=f19d8a72-c419-4a51-ae62-bbbcb0e9bfb4","ios":"levelo://app?vid=f19d8a72-c419-4a51-ae62-bbbcb0e9bfb4"},"vehicle_type_id":"4","last_reported":1685894879,"current_range_meters":16000,"station_id":"","pricing_plan_id":"free"},{"bike_id":"f01c54fc-aabe-4c1f-a94e-060e8b9cce10","system_id":"levelo_inurba_marseille","lat":43.243884,"lon":5.370736,"is_reserved":false,"is_disabled":false,"rental_uris":{"android":"levelo://app?vid=f01c54fc-aabe-4c1f-a94e-060e8b9cce10","ios":"levelo://app?vid=f01c54fc-aabe-4c1f-a94e-060e8b9cce10"},"vehicle_type_id":"4","last_reported":1685894879,"current_range_meters":30000,"station_id":"ce4bhhh2rcd13ifvqfk0","pricing_plan_id":"free"},{"bike_id":"193745ff-0ea5-4979-9063-55d5c8ab607a","system_id":"levelo_inurba_marseille","lat":43.243884,"lon":5.370736,"is_reserved":false,"is_disabled":false,"rental_uris":{"android":"levelo://app?vid=193745ff-0ea5-4979-9063-55d5c8ab607a","ios":"levelo://app?vid=193745ff-0ea5-4979-9063-55d5c8ab607a"},"vehicle_type_id":"4","last_reported":1685894879,"current_range_meters":30000,"station_id":"ce4bhhh2rcd13ifvqfk0","pricing_plan_id":"free"},{"bike_id":"22491f4e-d14b-4805-99bf-c62f029047f7","system_id":"levelo_inurba_marseille","lat":43.24389,"lon":5.37057,"is_reserved":false,"is_disabled":false,"rental_uris":{"android":"levelo://app?vid=22491f4e-d14b-4805-99bf-c62f029047f7","ios":"levelo://app?vid=22491f4e-d14b-4805-99bf-c62f029047f7"},"vehicle_type_id":"4","last_reported":1685894879,"current_range_meters":14400,"station_id":"ce4bhhh2rcd13ifvqfk0","pricing_plan_id":"free"},{"bike_id":"015c60a4-f15a-4d5c-9042-c0b36628878f","system_id":"levelo_inurba_marseille","lat":43.24388,"lon":5.37055,"is_reserved":false,"is_disabled":false,"rental_uris":{"android":"levelo://app?vid=015c60a4-f15a-4d5c-9042-c0b36628878f","ios":"levelo://app?vid=015c60a4-f15a-4d5c-9042-c0b36628878f"},"vehicle_type_id":"4","last_reported":1685894879,"current_range_meters":9600,"station_id":"ce4bhhh2rcd13ifvqfk0","pricing_plan_id":"free"},{"bike_id":"3ee586cf-8989-4392-b6fa-6b70bf941d99","system_id":"levelo_inurba_marseille","lat":43.243884,"lon":5.370737,"is_reserved":false,"is_disabled":false,"rental_uris":{"android":"levelo://app?vid=3ee586cf-8989-4392-b6fa-6b70bf941d99","ios":"levelo://app?vid=3ee586cf-8989-4392-b6fa-6b70bf941d99"},"vehicle_type_id":"4","last_reported":1685894879,"current_range_meters":31200,"station_id":"ce4bhhh2rcd13ifvqfk0","pricing_plan_id":"free"},{"bike_id":"34e9f8f3-a909-49b2-9ae6-a2eef4ccf674","system_id":"levelo_inurba_marseille","lat":43.243884,"lon":5.370736,"is_reserved":false,"is_disabled":false,"rental_uris":{"android":"levelo://app?vid=34e9f8f3-a909-49b2-9ae6-a2eef4ccf674","ios":"levelo://app?vid=34e9f8f3-a909-49b2-9ae6-a2eef4ccf674"},"vehicle_type_id":"4","last_reported":1685894879,"current_range_meters":31200,"station_id":"ce4bhhh2rcd13ifvqfk0","pricing_plan_id":"free"},{"bike_id":"2537beb5-c874-4554-b2c1-e4077252b866","system_id":"levelo_inurba_marseille","lat":43.239588,"lon":5.366238,"is_reserved":false,"is_disabled":false,"rental_uris":{"android":"levelo://app?vid=2537beb5-c874-4554-b2c1-e4077252b866","ios":"levelo://app?vid=2537beb5-c874-4554-b2c1-e4077252b866"},"vehicle_type_id":"4","last_reported":1685894879,"current_range_meters":7200,"station_id":"ce4bhi12rcd13ifvqfp0","pricing_plan_id":"free"},{"bike_id":"239a31a4-c0ea-4afd-847f-011d922ba3ac","system_id":"levelo_inurba_marseille","lat":43.239588,"lon":5.366238,"is_reserved":false,"is_disabled":false,"rental_uris":{"android":"levelo://app?vid=239a31a4-c0ea-4afd-847f-011d922ba3ac","ios":"levelo://app?vid=239a31a4-c0ea-4afd-847f-011d922ba3ac"},"vehicle_type_id":"4","last_reported":1685894879,"current_range_meters":16000,"station_id":"ce4bhi12rcd13ifvqfp0","pricing_plan_id":"free"},{"bike_id":"4c1d3c44-3800-4c45-8eb3-e7f8e5d85c2f","system_id":"levelo_inurba_marseille","lat":43.23895,"lon":5.38422,"is_reserved":false,"is_disabled":false,"rental_uris":{"android":"levelo://app?vid=4c1d3c44-3800-4c45-8eb3-e7f8e5d85c2f","ios":"levelo://app?vid=4c1d3c44-3800-4c45-8eb3-e7f8e5d85c2f"},"vehicle_type_id":"4","last_reported":1685894879,"current_range_meters":12000,"station_id":"","pricing_plan_id":"free"},{"bike_id":"36be0654-a594-495b-a31c-6463ea32f1be","system_id":"levelo_inurba_marseille","lat":43.3039,"lon":5.47471,"is_reserved":false,"is_disabled":false,"rental_uris":{"android":"levelo://app?vid=36be0654-a594-495b-a31c-6463ea32f1be","ios":"levelo://app?vid=36be0654-a594-495b-a31c-6463ea32f1be"},"vehicle_type_id":"4","last_reported":1685894879,"current_range_meters":0,"station_id":"","pricing_plan_id":"free"},{"bike_id":"9fa6ea85-8b03-43c5-a9a8-fe3e3d756428","system_id":"levelo_inurba_marseille","lat":43.231923,"lon":5.355545,"is_reserved":false,"is_disabled":false,"rental_uris":{"android":"levelo://app?vid=9fa6ea85-8b03-43c5-a9a8-fe3e3d756428","ios":"levelo://app?vid=9fa6ea85-8b03-43c5-a9a8-fe3e3d756428"},"vehicle_type_id":"4","last_reported":1685894879,"current_range_meters":12400,"station_id":"ce4bhu92rcd13ifvqi70","pricing_plan_id":"free"},{"bike_id":"ca30738e-f575-48a0-907f-561606a5d670","system_id":"levelo_inurba_marseille","lat":43.231923,"lon":5.355545,"is_reserved":false,"is_disabled":false,"rental_uris":{"android":"levelo://app?vid=ca30738e-f575-48a0-907f-561606a5d670","ios":"levelo://app?vid=ca30738e-f575-48a0-907f-561606a5d670"},"vehicle_type_id":"4","last_reported":1685894879,"current_range_meters":18000,"station_id":"ce4bhu92rcd13ifvqi70","pricing_plan_id":"free"},{"bike_id":"9db3ce4d-62fe-409b-a0b9-6e921812c904","system_id":"levelo_inurba_marseille","lat":43.231923,"lon":5.355545,"is_reserved":false,"is_disabled":false,"rental_uris":{"android":"levelo://app?vid=9db3ce4d-62fe-409b-a0b9-6e921812c904","ios":"levelo://app?vid=9db3ce4d-62fe-409b-a0b9-6e921812c904"},"vehicle_type_id":"4","last_reported":1685894879,"current_range_meters":22800,"station_id":"ce4bhu92rcd13ifvqi70","pricing_plan_id":"free"},{"bike_id":"44ea22e9-e5cf-4221-b50c-2baa83e7cb99","system_id":"levelo_inurba_marseille","lat":43.231923,"lon":5.355545,"is_reserved":false,"is_disabled":false,"rental_uris":{"android":"levelo://app?vid=44ea22e9-e5cf-4221-b50c-2baa83e7cb99","ios":"levelo://app?vid=44ea22e9-e5cf-4221-b50c-2baa83e7cb99"},"vehicle_type_id":"4","last_reported":1685894879,"current_range_meters":22400,"station_id":"ce4bhu92rcd13ifvqi70","pricing_plan_id":"free"},{"bike_id":"b2f1686f-71f7-4790-b56a-953ea5e8f9fe","system_id":"levelo_inurba_marseille","lat":43.23191,"lon":5.39991,"is_reserved":false,"is_disabled":false,"rental_uris":{"android":"levelo://app?vid=b2f1686f-71f7-4790-b56a-953ea5e8f9fe","ios":"levelo://app?vid=b2f1686f-71f7-4790-b56a-953ea5e8f9fe"},"vehicle_type_id":"4","last_reported":1685894879,"current_range_meters":0,"station_id":"ce4bhn12rcd13ifvqgqg","pricing_plan_id":"free"}]}}