{"last_updated":1739812065,"ttl":60,"version":"2.2","data":{"bikes":[{"bike_id":"6b4c1b70-3ced-44e7-adaa-803071cfc444","system_id":"levelo_inurba_marseille","lat":43.2656,"lon":5.39007,"is_reserved":false,"is_disabled":false,"rental_uris":{"android":"levelo://app?vid=6b4c1b70-3ced-44e7-adaa-803071cfc444","ios":"levelo://app?vid=6b4c1b70-3ced-44e7-adaa-803071cfc444"},"vehicle_type_id":"4","last_reported":1739812065,"current_range_meters":2800,"station_id":"","pricing_plan_id":"cebpf4jnsgd1na2vs0mg"},{"bike_id":"47820753-dd76-4855-b4aa-3590bd72fb99","system_id":"levelo_inurba_marseille","lat":43.295588,"lon":5.37484,"is_reserved":false,"is_disabled":false,"rental_uris":{"android":"levelo://app?vid=47820753-dd76-4855-b4aa-3590bd72fb99","ios":"levelo://app?vid=47820753-dd76-4855-b4aa-3590bd72fb99"},"vehicle_type_id":"4","last_reported":1739812065,"current_range_meters":2800,"station_id":"ce4bh412rcd13ifvqds0","pricing_plan_id":"cebpf4jnsgd1na2vs0mg"},{"bike_id":"18332cc9-0f16-4941-9018-c3813354a900","system_id":"levelo_inurba_marseille","lat":43.27612,"lon":5.3934,"is_reserved":false,"is_disabled":true,"rental_uris":{"android":"levelo://app?vid=18332cc9-0f16-4941-9018-c3813354a900","ios":"levelo://app?vid=18332cc9-0f16-4941-9018-c3813354a900"},"vehicle_type_id":"4","last_reported":1739812065,"current_range_meters":2800,"station_id":"","pricing_plan_id":"cebpf4jnsgd1na2vs0mg"},{"bike_id":"3a2be998-b804-4503-a326-82dee7e3f9fa","system_id":"levelo_inurba_marseille","lat":43.29937,"lon":5.36555,"is_reserved":false,"is_disabled":false,"rental_uris":{"android":"levelo://app?vid=3a2be998-b804-4503-a326-82dee7e3f9fa","ios":"levelo://app?vid=3a2be998-b804-4503-a326-82dee7e3f9fa"},"vehicle_type_id":"4","last_reported":1739812065,"current_range_meters":2800,"station_id":"ce4bgm92rcd13ifvqbr0","pricing_plan_id":"cebpf4jnsgd1na2vs0mg"},{"bike_id":"f9caf327-9c61-4375-8bdf-927854ae18db","system_id":"levelo_inurba_marseille","lat":43.27614,"lon":5.36112,"is_reserved":false,"is_disabled":false,"rental_uris":{"android":"levelo://app?vid=f9caf327-9c61-4375-8bdf-927854ae18db","ios":"levelo://app?vid=f9caf327-9c61-4375-8bdf-927854ae18db"},"vehicle_type_id":"4","last_reported":1739812065,"current_range_meters":3200,"station_id":"ce4bgj92rcd13ifvqbe0","pricing_plan_id":"cebpf4jnsgd1na2vs0mg"},{"bike_id":"9f3436fc-23ca-4472-a0df-f13136b659e4","system_id":"levelo_inurba_marseille","lat":43.27068,"lon":5.42282,"is_reserved":false,"is_disabled":false,"rental_uris":{"android":"levelo://app?vid=9f3436fc-23ca-4472-a0df-f13136b659e4","ios":"levelo://app?vid=9f3436fc-23ca-4472-a0df-f13136b659e4"},"vehicle_type_id":"4","last_reported":1739812065,"current_range_meters":3600,"station_id":"ce4bhk92rcd13ifvqgb0","pricing_plan_id":"cebpf4jnsgd1na2vs0mg"},{"bike_id":"625c8a97-44ab-419a-8964-af49dc7b4984","system_id":"levelo_inurba_marseille","lat":43.27911,"lon":5.39582,"is_reserved":false,"is_disabled":false,"rental_uris":{"android":"levelo://app?vid=625c8a97-44ab-419a-8964-af49dc7b4984","ios":"levelo://app?vid=625c8a97-44ab-419a-8964-af49dc7b4984"},"vehicle_type_id":"4","last_reported":1739812065,"current_range_meters":0,"station_id":"ce4bhf92rcd13ifvqf40","pricing_plan_id":"cebpf4jnsgd1na2vs0mg"},{"bike_id":"3d023f4b-03a8-47ec-95f7-cc156442d324","system_id":"levelo_inurba_marseille","lat":43.3042,"lon":5.38904,"is_reserved":false,"is_disabled":false,"rental_uris":{"android":"levelo://app?vid=3d023f4b-03a8-47ec-95f7-cc156442d324","ios":"levelo://app?vid=3d023f4b-03a8-47ec-95f7-cc156442d324"},"vehicle_type_id":"4","last_reported":1739812065,"current_range_meters":4000,"station_id":"ce4bgk12rcd13ifvqbi0","pricing_plan_id":"cebpf4jnsgd1na2vs0mg"},{"bike_id":"75efef81-4207-49f1-9ab5-586ad644153b","system_id":"levelo_inurba_marseille","lat":43.23178,"lon":5.39987,"is_reserved":false,"is_disabled":false,"rental_uris":{"android":"levelo://app?vid=75efef81-4207-49f1-9ab5-586ad644153b","ios":"levelo://app?vid=75efef81-4207-49f1-9ab5-586ad644153b"},"vehicle_type_id":"4","last_reported":1739812065,"current_range_meters":3600,"station_id":"ce4bhn12rcd13ifvqgqg","pricing_plan_id":"cebpf4jnsgd1na2vs0mg"},{"bike_id":"b8249ba0-2892-422a-8155-8ed98b490578","system_id":"levelo_inurba_marseille","lat":43.32661,"lon":5.40992,"is_reserved":false,"is_disabled":false,"rental_uris":{"android":"levelo://app?vid=b8249ba0-2892-422a-8155-8ed98b490578","ios":"levelo://app?vid=b8249ba0-2892-422a-8155-8ed98b490578"},"vehicle_type_id":"4","last_reported":1739812065,"current_range_meters":2000,"station_id":"ce4bhpp2rcd13ifvqhgg","pricing_plan_id":"cebpf4jnsgd1na2vs0mg"},{"bike_id":"b620e2fa-210e-4b23-a9ef-d033177163c5","system_id":"levelo_inurba_marseille","lat":43.28004,"lon":5.40012,"is_reserved":false,"is_disabled":false,"rental_uris":{"android":"levelo://app?vid=b620e2fa-210e-4b23-a9ef-d033177163c5","ios":"levelo://app?vid=b620e2fa-210e-4b23-a9ef-d033177163c5"},"vehicle_type_id":"4","last_reported":1739812065,"current_range_meters":4000,"station_id":"ce4bho92rcd13ifvqh4g","pricing_plan_id":"cebpf4jnsgd1na2vs0mg"},{"bike_id":"3ef5e7c4-474f-441a-ad4f-51720c30cd1a","system_id":"levelo_inurba_marseille","lat":43.31408,"lon":5.37364,"is_reserved":false,"is_disabled":false,"rental_uris":{"android":"levelo://app?vid=3ef5e7c4-474f-441a-ad4f-51720c30cd1a","ios":"levelo://app?vid=3ef5e7c4-474f-441a-ad4f-51720c30cd1a"},"vehicle_type_id":"4","last_reported":1739812065,"current_range_meters":3600,"station_id":"","pricing_plan_id":"cebpf4jnsgd1na2vs0mg"},{"bike_id":"4e7beed8-3f51-4c59-a37c-0ac46140a818","system_id":"levelo_inurba_marseille","lat":43.26945,"lon":5.38622,"is_reserved":false,"is_disabled":true,"rental_uris":{"android":"levelo://app?vid=4e7beed8-3f51-4c59-a37c-0ac46140a818","ios":"levelo://app?vid=4e7beed8-3f51-4c59-a37c-0ac46140a818"},"vehicle_type_id":"4","last_reported":1739812065,"current_range_meters":4000,"station_id":"","pricing_plan_id":"cebpf4jnsgd1na2vs0mg"},{"bike_id":"810fbf5b-8e68-44c6-80be-a8f2ea8aff3b","system_id":"levelo_inurba_marseille","lat":43.27616,"lon":5.36102,"is_reserved":false,"is_disabled":false,"rental_uris":{"android":"levelo://app?vid=810fbf5b-8e68-44c6-80be-a8f2ea8aff3b","ios":"levelo://app?vid=810fbf5b-8e68-44c6-80be-a8f2ea8aff3b"},"vehicle_type_id":"4","last_reported":1739812065,"current_range_meters":4400,"station_id":"ce4bgj92rcd13ifvqbe0","pricing_plan_id":"cebpf4jnsgd1na2vs0mg"},{"bike_id":"dd97d4a6-289d-4a09-a598-8c7566910834","system_id":"levelo_inurba_marseille","lat":43.28616,"lon":5.3511,"is_reserved":false,"is_disabled":false,"rental_uris":{"android":"levelo://app?vid=dd97d4a6-289d-4a09-a598-8c7566910834","ios":"levelo://app?vid=dd97d4a6-289d-4a09-a598-8c7566910834"},"vehicle_type_id":"4","last_reported":1739812065,"current_range_meters":4400,"station_id":"","pricing_plan_id":"cebpf4jnsgd1na2vs0mg"},{"bike_id":"daa92f0d-de43-40a9-9825-258b7fac6edc","system_id":"levelo_inurba_marseille","lat":43.27495,"lon":5.42451,"is_reserved":false,"is_disabled":false,"rental_uris":{"android":"levelo://app?vid=daa92f0d-de43-40a9-9825-258b7fac6edc","ios":"levelo://app?vid=daa92f0d-de43-40a9-9825-258b7fac6edc"},"vehicle_type_id":"4","last_reported":1739812065,"current_range_meters":4400,"station_id":"ce4bhn92rcd13ifvqgrg","pricing_plan_id":"cebpf4jnsgd1na2vs0mg"},{"bike_id":"02e76c7b-517e-4561-8903-ff78e0b543f0","system_id":"levelo_inurba_marseille","lat":43.27805,"lon":5.40713,"is_reserved":false,"is_disabled":false,"rental_uris":{"android":"levelo://app?vid=02e76c7b-517e-4561-8903-ff78e0b543f0","ios":"levelo://app?vid=02e76c7b-517e-4561-8903-ff78e0b543f0"},"vehicle_type_id":"4","last_reported":1739812065,"current_range_meters":4400,"station_id":"ce4bhnh2rcd13ifvqgtg","pricing_plan_id":"cebpf4jnsgd1na2vs0mg"},{"bike_id":"d7ed5e92-27b2-4465-bf19-f668c03f8e1e","system_id":"levelo_inurba_marseille","lat":43.28352,"lon":5.38101,"is_reserved":false,"is_disabled":false,"rental_uris":{"android":"levelo://app?vid=d7ed5e92-27b2-4465-bf19-f668c03f8e1e","ios":"levelo://app?vid=d7ed5e92-27b2-4465-bf19-f668c03f8e1e"},"vehicle_type_id":"4","last_reported":1739812065,"current_range_meters":6000,"station_id":"ce4bh412rcd13ifvqdr0","pricing_plan_id":"cebpf4jnsgd1na2vs0mg"},{"bike_id":"458f44e2-37dd-48dd-8470-babd18691b9c","system_id":"levelo_inurba_marseille","lat":43.2464,"lon":5.38905,"is_reserved":false,"is_disabled":true,"rental_uris":{"android":"levelo://app?vid=458f44e2-37dd-48dd-8470-babd18691b9c","ios":"levelo://app?vid=458f44e2-37dd-48dd-8470-babd18691b9c"},"vehicle_type_id":"4","last_reported":1739812065,"current_range_meters":4800,"station_id":"ce4bhg12rcd13ifvqf60","pricing_plan_id":"cebpf4jnsgd1na2vs0mg"},{"bike_id":"0c3962dd-b5e9-4281-8f65-3b70c31df2fc","system_id":"levelo_inurba_marseille","lat":43.26219,"lon":5.37438,"is_reserved":false,"is_disabled":false,"rental_uris":{"android":"levelo://app?vid=0c3962dd-b5e9-4281-8f65-3b70c31df2fc","ios":"levelo://app?vid=0c3962dd-b5e9-4281-8f65-3b70c31df2fc"},"vehicle_type_id":"4","last_reported":1739812065,"current_range_meters":5600,"station_id":"ce4bhgp2rcd13ifvqfc0","pricing_plan_id":"cebpf4jnsgd1na2vs0mg"},{"bike_id":"4b62baaf-0754-47c4-8b8f-37c6001aae0a","system_id":"levelo_inurba_marseille","lat":43.29532,"lon":5.37519,"is_reserved":false,"is_disabled":false,"rental_uris":{"android":"levelo://app?vid=4b62baaf-0754-47c4-8b8f-37c6001aae0a","ios":"levelo://app?vid=4b62baaf-0754-47c4-8b8f-37c6001aae0a"},"vehicle_type_id":"4","last_reported":1739812065,"current_range_meters":5600,"station_id":"ce4bgh92rcd13ifvqb50","pricing_plan_id":"cebpf4jnsgd1na2vs0mg"},{"bike_id":"6b21d320-52d0-422d-a96b-25dc166ffb72","system_id":"levelo_inurba_marseille","lat":43.30419,"lon":5.41284,"is_reserved":false,"is_disabled":true,"rental_uris":{"android":"levelo://app?vid=6b21d320-52d0-422d-a96b-25dc166ffb72","ios":"levelo://app?vid=6b21d320-52d0-422d-a96b-25dc166ffb72"},"vehicle_type_id":"4","last_reported":1739812065,"current_range_meters":6000,"station_id":"ce4bhop2rcd13ifvqh8g","pricing_plan_id":"cebpf4jnsgd1na2vs0mg"},{"bike_id":"055d9ad1-13c1-43b8-b639-1bc2dcfc824c","system_id":"levelo_inurba_marseille","lat":43.27494,"lon":5.42451,"is_reserved":false,"is_disabled":false,"rental_uris":{"android":"levelo://app?vid=055d9ad1-13c1-43b8-b639-1bc2dcfc824c","ios":"levelo://app?vid=055d9ad1-13c1-43b8-b639-1bc2dcfc824c"},"vehicle_type_id":"4","last_reported":1739812065,"current_range_meters":6000,"station_id":"ce4bhn92rcd13ifvqgrg","pricing_plan_id":"cebpf4jnsgd1na2vs0mg"},{"bike_id":"dbb915cd-0837-4666-9007-86508e1b31db","system_id":"levelo_inurba_marseille","lat":43.29932,"lon":5.36547,"is_reserved":false,"is_disabled":false,"rental_uris":{"android":"levelo://app?vid=dbb915cd-0837-4666-9007-86508e1b31db","ios":"levelo://app?vid=dbb915cd-0837-4666-9007-86508e1b31db"},"vehicle_type_id":"4","last_reported":1739812065,"current_range_meters":6000,"station_id":"ce4bgm92rcd13ifvqbr0","pricing_plan_id":"cebpf4jnsgd1na2vs0mg"},{"bike_id":"f3286808-b363-406a-9268-990de55986b6","system_id":"levelo_inurba_marseille","lat":43.25489,"lon":5.37646,"is_reserved":false,"is_disabled":false,"rental_uris":{"android":"levelo://app?vid=f3286808-b363-406a-9268-990de55986b6","ios":"levelo://app?vid=f3286808-b363-406a-9268-990de55986b6"},"vehicle_type_id":"4","last_reported":1739812065,"current_range_meters":6000,"station_id":"ce4bhh12rcd13ifvqff0","pricing_plan_id":"cebpf4jnsgd1na2vs0mg"},{"bike_id":"d0e0a89a-0d81-4148-ba85-59442b59d06e","system_id":"levelo_inurba_marseille","lat":43.28615,"lon":5.35109,"is_reserved":false,"is_disabled":false,"rental_uris":{"android":"levelo://app?vid=d0e0a89a-0d81-4148-ba85-59442b59d06e","ios":"levelo://app?vid=d0e0a89a-0d81-4148-ba85-59442b59d06e"},"vehicle_type_id":"4","last_reported":1739812065,"current_range_meters":6000,"station_id":"","pricing_plan_id":"cebpf4jnsgd1na2vs0mg"},{"bike_id":"d44236ba-71a5-47f7-b336-30d61a0779fa","system_id":"levelo_inurba_marseille","lat":43.24184,"lon":5.39729,"is_reserved":false,"is_disabled":false,"rental_uris":{"android":"levelo://app?vid=d44236ba-71a5-47f7-b336-30d61a0779fa","ios":"levelo://app?vid=d44236ba-71a5-47f7-b336-30d61a0779fa"},"vehicle_type_id":"4","last_reported":1739812065,"current_range_meters":6000,"station_id":"ce4bhn12rcd13ifvqgpg","pricing_plan_id":"cebpf4jnsgd1na2vs0mg"},{"bike_id":"323c888b-d2f8-4b9f-aa75-726e8a6ab6b2","system_id":"levelo_inurba_marseille","lat":43.27072,"lon":5.42283,"is_reserved":false,"is_disabled":false,"rental_uris":{"android":"levelo://app?vid=323c888b-d2f8-4b9f-aa75-726e8a6ab6b2","ios":"levelo://app?vid=323c888b-d2f8-4b9f-aa75-726e8a6ab6b2"},"vehicle_type_id":"4","last_reported":1739812065,"current_range_meters":6400,"station_id":"ce4bhk92rcd13ifvqgb0","pricing_plan_id":"cebpf4jnsgd1na2vs0mg"},{"bike_id":"51412dc6-c40f-4da4-a3a9-768c7d440222","system_id":"levelo_inurba_marseille","lat":43.28362,"lon":5.38643,"is_reserved":false,"is_disabled":false,"rental_uris":{"android":"levelo://app?vid=51412dc6-c40f-4da4-a3a9-768c7d440222","ios":"levelo://app?vid=51412dc6-c40f-4da4-a3a9-768c7d440222"},"vehicle_type_id":"4","last_reported":1739812065,"current_range_meters":8800,"station_id":"ce4bh492rcd13ifvqdvg","pricing_plan_id":"cebpf4jnsgd1na2vs0mg"},{"bike_id":"ce61429a-686f-445d-80d9-4b10876ed4ef","system_id":"levelo_inurba_marseille","lat":43.337444,"lon":5.374475,"is_reserved":false,"is_disabled":true,"rental_uris":{"android":"levelo://app?vid=ce61429a-686f-445d-80d9-4b10876ed4ef","ios":"levelo://app?vid=ce61429a-686f-445d-80d9-4b10876ed4ef"},"vehicle_type_id":"4","last_reported":1739812065,"current_range_meters":6400,"station_id":"","pricing_plan_id":"cebpf4jnsgd1na2vs0mg"},{"bike_id":"809cf213-6737-468b-b233-c26bf016ca47","system_id":"levelo_inurba_marseille","lat":43.28154,"lon":5.42644,"is_reserved":false,"is_disabled":false,"rental_uris":{"android":"levelo://app?vid=809cf213-6737-468b-b233-c26bf016ca47","ios":"levelo://app?vid=809cf213-6737-468b-b233-c26bf016ca47"},"vehicle_type_id":"4","last_reported":1739812065,"current_range_meters":6400,"station_id":"ce4bhnh2rcd13ifvqgug","pricing_plan_id":"cebpf4jnsgd1na2vs0mg"},{"bike_id":"1d6f5a5a-bf78-4d12-91e4-6dc8a2b7ed98","system_id":"levelo_inurba_marseille","lat":43.27496,"lon":5.42454,"is_reserved":false,"is_disabled":true,"rental_uris":{"android":"levelo://app?vid=1d6f5a5a-bf78-4d12-91e4-6dc8a2b7ed98","ios":"levelo://app?vid=1d6f5a5a-bf78-4d12-91e4-6dc8a2b7ed98"},"vehicle_type_id":"4","last_reported":1739812065,"current_range_meters":6400,"station_id":"ce4bhn92rcd13ifvqgrg","pricing_plan_id":"cebpf4jnsgd1na2vs0mg"},{"bike_id":"8c75056a-7815-4dc4-bac4-c86fcaddfb3c","system_id":"levelo_inurba_marseille","lat":43.24798,"lon":5.37448,"is_reserved":false,"is_disabled":false,"rental_uris":{"android":"levelo://app?vid=8c75056a-7815-4dc4-bac4-c86fcaddfb3c","ios":"levelo://app?vid=8c75056a-7815-4dc4-bac4-c86fcaddfb3c"},"vehicle_type_id":"4","last_reported":1739812065,"current_range_meters":6400,"station_id":"ce4bhgh2rcd13ifvqfb0","pricing_plan_id":"cebpf4jnsgd1na2vs0mg"},{"bike_id":"57965d21-571b-40d2-8071-b3d4535ccbfb","system_id":"levelo_inurba_marseille","lat":43.2587,"lon":5.39899,"is_reserved":false,"is_disabled":false,"rental_uris":{"android":"levelo://app?vid=57965d21-571b-40d2-8071-b3d4535ccbfb","ios":"levelo://app?vid=57965d21-571b-40d2-8071-b3d4535ccbfb"},"vehicle_type_id":"4","last_reported":1739812065,"current_range_meters":6800,"station_id":"ce4bhl92rcd13ifvqghg","pricing_plan_id":"cebpf4jnsgd1na2vs0mg"},{"bike_id":"96a96649-77a9-44c4-824f-d3e92f79f91f","system_id":"levelo_inurba_marseille","lat":43.2397,"lon":5.36635,"is_reserved":false,"is_disabled":false,"rental_uris":{"android":"levelo://app?vid=96a96649-77a9-44c4-824f-d3e92f79f91f","ios":"levelo://app?vid=96a96649-77a9-44c4-824f-d3e92f79f91f"},"vehicle_type_id":"4","last_reported":1739812065,"current_range_meters":6800,"station_id":"ce4bhi12rcd13ifvqfp0","pricing_plan_id":"cebpf4jnsgd1na2vs0mg"},{"bike_id":"c4916927-7d10-4eb6-bf80-df6fa900d439","system_id":"levelo_inurba_marseille","lat":43.29555,"lon":5.42294,"is_reserved":false,"is_disabled":true,"rental_uris":{"android":"levelo://app?vid=c4916927-7d10-4eb6-bf80-df6fa900d439","ios":"levelo://app?vid=c4916927-7d10-4eb6-bf80-df6fa900d439"},"vehicle_type_id":"4","last_reported":1739812065,"current_range_meters":6800,"station_id":"ce4bhph2rcd13ifvqhdg","pricing_plan_id":"cebpf4jnsgd1na2vs0mg"},{"bike_id":"e6e8fcca-b2f3-4992-8b56-c5a46339a819","system_id":"levelo_inurba_marseille","lat":43.31998,"lon":5.3815,"is_reserved":false,"is_disabled":false,"rental_uris":{"android":"levelo://app?vid=e6e8fcca-b2f3-4992-8b56-c5a46339a819","ios":"levelo://app?vid=e6e8fcca-b2f3-4992-8b56-c5a46339a819"},"vehicle_type_id":"4","last_reported":1739812065,"current_range_meters":6800,"station_id":"ce4bhr12rcd13ifvqhpg","pricing_plan_id":"cebpf4jnsgd1na2vs0mg"},{"bike_id":"1ccb8148-d5a9-45e8-a79b-603264947ba2","system_id":"levelo_inurba_marseille","lat":43.22934,"lon":5.35378,"is_reserved":false,"is_disabled":false,"rental_uris":{"android":"levelo://app?vid=1ccb8148-d5a9-45e8-a79b-603264947ba2","ios":"levelo://app?vid=1ccb8148-d5a9-45e8-a79b-603264947ba2"},"vehicle_type_id":"4","last_reported":1739812065,"current_range_meters":6800,"station_id":"cpo3532slgdg3j2ikp40","pricing_plan_id":"cebpf4jnsgd1na2vs0mg"},{"bike_id":"f206266f-bb9f-443a-8521-7cc97a6d54b8","system_id":"levelo_inurba_marseille","lat":43.32724,"lon":5.39257,"is_reserved":false,"is_disabled":false,"rental_uris":{"android":"levelo://app?vid=f206266f-bb9f-443a-8521-7cc97a6d54b8","ios":"levelo://app?vid=f206266f-bb9f-443a-8521-7cc97a6d54b8"},"vehicle_type_id":"4","last_reported":1739812065,"current_range_meters":6800,"station_id":"ce4bhr92rcd13ifvqhrg","pricing_plan_id":"cebpf4jnsgd1na2vs0mg"},{"bike_id":"5ad330bc-f407-4dce-bee2-d975f7fa2cf5","system_id":"levelo_inurba_marseille","lat":43.30211,"lon":5.39465,"is_reserved":false,"is_disabled":false,"rental_uris":{"android":"levelo://app?vid=5ad330bc-f407-4dce-bee2-d975f7fa2cf5","ios":"levelo://app?vid=5ad330bc-f407-4dce-bee2-d975f7fa2cf5"},"vehicle_type_id":"4","last_reported":1739812065,"current_range_meters":7200,"station_id":"","pricing_plan_id":"cebpf4jnsgd1na2vs0mg"},{"bike_id":"68c9ec09-efa3-42b7-9d9b-298456b6ded4","system_id":"levelo_inurba_marseille","lat":43.30477,"lon":5.36961,"is_reserved":false,"is_disabled":false,"rental_uris":{"android":"levelo://app?vid=68c9ec09-efa3-42b7-9d9b-298456b6ded4","ios":"levelo://app?vid=68c9ec09-efa3-42b7-9d9b-298456b6ded4"},"vehicle_type_id":"4","last_reported":1739812065,"current_range_meters":7200,"station_id":"","pricing_plan_id":"cebpf4jnsgd1na2vs0mg"},{"bike_id":"c72dd471-889d-41d7-939b-cdf433bd5acf","system_id":"levelo_inurba_marseille","lat":43.26213,"lon":5.37443,"is_reserved":false,"is_disabled":false,"rental_uris":{"android":"levelo://app?vid=c72dd471-889d-41d7-939b-cdf433bd5acf","ios":"levelo://app?vid=c72dd471-889d-41d7-939b-cdf433bd5acf"},"vehicle_type_id":"4","last_reported":1739812065,"current_range_meters":3200,"station_id":"ce4bhgp2rcd13ifvqfc0","pricing_plan_id":"cebpf4jnsgd1na2vs0mg"},{"bike_id":"e74fef04-4797-4a8d-83a6-0b69a0bb01fb","system_id":"levelo_inurba_marseille","lat":43.27939,"lon":5.41048,"is_reserved":false,"is_disabled":false,"rental_uris":{"android":"levelo://app?vid=e74fef04-4797-4a8d-83a6-0b69a0bb01fb","ios":"levelo://app?vid=e74fef04-4797-4a8d-83a6-0b69a0bb01fb"},"vehicle_type_id":"4","last_reported":1739812065,"current_range_meters":7200,"station_id":"ce4bhnp2rcd13ifvqh0g","pricing_plan_id":"cebpf4jnsgd1na2vs0mg"},{"bike_id":"4089f1a0-cd12-42d3-a6c3-01d445970a86","system_id":"levelo_inurba_marseille","lat":43.31272,"lon":5.37407,"is_reserved":false,"is_disabled":false,"rental_uris":{"android":"levelo://app?vid=4089f1a0-cd12-42d3-a6c3-01d445970a86","ios":"levelo://app?vid=4089f1a0-cd12-42d3-a6c3-01d445970a86"},"vehicle_type_id":"4","last_reported":1739812065,"current_range_meters":7200,"station_id":"","pricing_plan_id":"cebpf4jnsgd1na2vs0mg"},{"bike_id":"30fe6385-92b9-4b96-9ceb-8a7e55699a18","system_id":"levelo_inurba_marseille","lat":43.29011,"lon":5.35619,"is_reserved":false,"is_disabled":false,"rental_uris":{"android":"levelo://app?vid=30fe6385-92b9-4b96-9ceb-8a7e55699a18","ios":"levelo://app?vid=30fe6385-92b9-4b96-9ceb-8a7e55699a18"},"vehicle_type_id":"4","last_reported":1739812065,"current_range_meters":7200,"station_id":"","pricing_plan_id":"cebpf4jnsgd1na2vs0mg"},{"bike_id":"3a9a968d-dcc9-4ffb-90af-aadcb8469a1d","system_id":"levelo_inurba_marseille","lat":43.32253,"lon":5.39398,"is_reserved":false,"is_disabled":false,"rental_uris":{"android":"levelo://app?vid=3a9a968d-dcc9-4ffb-90af-aadcb8469a1d","ios":"levelo://app?vid=3a9a968d-dcc9-4ffb-90af-aadcb8469a1d"},"vehicle_type_id":"4","last_reported":1739812065,"current_range_meters":7200,"station_id":"","pricing_plan_id":"cebpf4jnsgd1na2vs0mg"},{"bike_id":"46481938-f771-4850-9f30-a9720de5aa36","system_id":"levelo_inurba_marseille","lat":43.27543,"lon":5.36001,"is_reserved":false,"is_disabled":false,"rental_uris":{"android":"levelo://app?vid=46481938-f771-4850-9f30-a9720de5aa36","ios":"levelo://app?vid=46481938-f771-4850-9f30-a9720de5aa36"},"vehicle_type_id":"4","last_reported":1739812065,"current_range_meters":7200,"station_id":"ce4bgn12rcd13ifvqbt0","pricing_plan_id":"cebpf4jnsgd1na2vs0mg"},{"bike_id":"9a193c84-0a45-4fdb-952f-0df1111018ef","system_id":"levelo_inurba_marseille","lat":43.30591,"lon":5.37217,"is_reserved":false,"is_disabled":false,"rental_uris":{"android":"levelo://app?vid=9a193c84-0a45-4fdb-952f-0df1111018ef","ios":"levelo://app?vid=9a193c84-0a45-4fdb-952f-0df1111018ef"},"vehicle_type_id":"4","last_reported":1739812065,"current_range_meters":7200,"station_id":"ce4bgqh2rcd13ifvqc4g","pricing_plan_id":"cebpf4jnsgd1na2vs0mg"},{"bike_id":"b5f673c8-ea0f-45f9-bef9-f4820eb0eb48","system_id":"levelo_inurba_marseille","lat":43.308867,"lon":5.371953,"is_reserved":false,"is_disabled":false,"rental_uris":{"android":"levelo://app?vid=b5f673c8-ea0f-45f9-bef9-f4820eb0eb48","ios":"levelo://app?vid=b5f673c8-ea0f-45f9-bef9-f4820eb0eb48"},"vehicle_type_id":"4","last_reported":1739812065,"current_range_meters":7200,"station_id":"ce4bh512rcd13ifvqe3g","pricing_plan_id":"cebpf4jnsgd1na2vs0mg"},{"bike_id":"33a2f713-59cf-4dee-bd5e-cf5438338de0","system_id":"levelo_inurba_marseille","lat":43.3047,"lon":5.36968,"is_reserved":false,"is_disabled":false,"rental_uris":{"android":"levelo://app?vid=33a2f713-59cf-4dee-bd5e-cf5438338de0","ios":"levelo://app?vid=33a2f713-59cf-4dee-bd5e-cf5438338de0"},"vehicle_type_id":"4","last_reported":1739812065,"current_range_meters":7200,"station_id":"","pricing_plan_id":"cebpf4jnsgd1na2vs0mg"},{"bike_id":"e2a40e08-4a05-4254-862b-b58cc14c7904","system_id":"levelo_inurba_marseille","lat":43.25088,"lon":5.39534,"is_reserved":false,"is_disabled":false,"rental_uris":{"android":"levelo://app?vid=e2a40e08-4a05-4254-862b-b58cc14c7904","ios":"levelo://app?vid=e2a40e08-4a05-4254-862b-b58cc14c7904"},"vehicle_type_id":"4","last_reported":1739812065,"current_range_meters":8000,"station_id":"ce4bhm12rcd13ifvqgkg","pricing_plan_id":"cebpf4jnsgd1na2vs0mg"},{"bike_id":"81cedbb6-46f3-45e8-8f32-22e78033433a","system_id":"levelo_inurba_marseille","lat":43.27562,"lon":5.38427,"is_reserved":false,"is_disabled":false,"rental_uris":{"android":"levelo://app?vid=81cedbb6-46f3-45e8-8f32-22e78033433a","ios":"levelo://app?vid=81cedbb6-46f3-45e8-8f32-22e78033433a"},"vehicle_type_id":"4","last_reported":1739812065,"current_range_meters":8000,"station_id":"ce4bhh92rcd13ifvqfi0","pricing_plan_id":"cebpf4jnsgd1na2vs0mg"},{"bike_id":"9711cf59-b26b-4649-a1fb-c7ae8109ab9b","system_id":"levelo_inurba_marseille","lat":43.31881,"lon":5.40744,"is_reserved":false,"is_disabled":false,"rental_uris":{"android":"levelo://app?vid=9711cf59-b26b-4649-a1fb-c7ae8109ab9b","ios":"levelo://app?vid=9711cf59-b26b-4649-a1fb-c7ae8109ab9b"},"vehicle_type_id":"4","last_reported":1739812065,"current_range_meters":11600,"station_id":"ce4bhq12rcd13ifvqhig","pricing_plan_id":"cebpf4jnsgd1na2vs0mg"},{"bike_id":"3cd172dc-409c-4f9d-ae5e-8ae10a3bbe6d","system_id":"levelo_inurba_marseille","lat":43.29606,"lon":5.37714,"is_reserved":false,"is_disabled":false,"rental_uris":{"android":"levelo://app?vid=3cd172dc-409c-4f9d-ae5e-8ae10a3bbe6d","ios":"levelo://app?vid=3cd172dc-409c-4f9d-ae5e-8ae10a3bbe6d"},"vehicle_type_id":"4","last_reported":1739812065,"current_range_meters":8000,"station_id":"","pricing_plan_id":"cebpf4jnsgd1na2vs0mg"},{"bike_id":"9f72b035-42cd-4ed2-9def-93c83a040988","system_id":"levelo_inurba_marseille","lat":43.24072,"lon":5.37744,"is_reserved":false,"is_disabled":false,"rental_uris":{"android":"levelo://app?vid=9f72b035-42cd-4ed2-9def-93c83a040988","ios":"levelo://app?vid=9f72b035-42cd-4ed2-9def-93c83a040988"},"vehicle_type_id":"4","last_reported":1739812065,"current_range_meters":8400,"station_id":"ce4bhnp2rcd13ifvqgvg","pricing_plan_id":"cebpf4jnsgd1na2vs0mg"},{"bike_id":"2b278cf2-594f-4230-8154-882e1df047f2","system_id":"levelo_inurba_marseille","lat":43.24048,"lon":5.37699,"is_reserved":false,"is_disabled":false,"rental_uris":{"android":"levelo://app?vid=2b278cf2-594f-4230-8154-882e1df047f2","ios":"levelo://app?vid=2b278cf2-594f-4230-8154-882e1df047f2"},"vehicle_type_id":"4","last_reported":1739812065,"current_range_meters":8400,"station_id":"ce4bhnp2rcd13ifvqgvg","pricing_plan_id":"cebpf4jnsgd1na2vs0mg"},{"bike_id":"7909b27e-2768-4ffe-bf4b-780b2a75e2a4","system_id":"levelo_inurba_marseille","lat":43.286091,"lon":5.351029,"is_reserved":false,"is_disabled":false,"rental_uris":{"android":"levelo://app?vid=7909b27e-2768-4ffe-bf4b-780b2a75e2a4","ios":"levelo://app?vid=7909b27e-2768-4ffe-bf4b-780b2a75e2a4"},"vehicle_type_id":"4","last_reported":1739812065,"current_range_meters":8000,"station_id":"ce4bhqp2rcd13ifvqhng","pricing_plan_id":"cebpf4jnsgd1na2vs0mg"},{"bike_id":"1028d825-a809-400b-a433-b2f52b266986","system_id":"levelo_inurba_marseille","lat":43.30943,"lon":5.379152,"is_reserved":false,"is_disabled":false,"rental_uris":{"android":"levelo://app?vid=1028d825-a809-400b-a433-b2f52b266986","ios":"levelo://app?vid=1028d825-a809-400b-a433-b2f52b266986"},"vehicle_type_id":"4","last_reported":1739812065,"current_range_meters":8400,"station_id":"","pricing_plan_id":"cebpf4jnsgd1na2vs0mg"},{"bike_id":"ce7eb203-df1a-4323-a126-50fb5e9416e8","system_id":"levelo_inurba_marseille","lat":43.25003,"lon":5.3893,"is_reserved":false,"is_disabled":false,"rental_uris":{"android":"levelo://app?vid=ce7eb203-df1a-4323-a126-50fb5e9416e8","ios":"levelo://app?vid=ce7eb203-df1a-4323-a126-50fb5e9416e8"},"vehicle_type_id":"4","last_reported":1739812065,"current_range_meters":8800,"station_id":"ce4bhgp2rcd13ifvqfd0","pricing_plan_id":"cebpf4jnsgd1na2vs0mg"},{"bike_id":"000490d8-ae0e-45b4-809b-d565eaa84643","system_id":"levelo_inurba_marseille","lat":43.28441,"lon":5.39208,"is_reserved":false,"is_disabled":false,"rental_uris":{"android":"levelo://app?vid=000490d8-ae0e-45b4-809b-d565eaa84643","ios":"levelo://app?vid=000490d8-ae0e-45b4-809b-d565eaa84643"},"vehicle_type_id":"4","last_reported":1739812065,"current_range_meters":8000,"station_id":"ce4bhoh2rcd13ifvqh5g","pricing_plan_id":"cebpf4jnsgd1na2vs0mg"},{"bike_id":"01bec25a-ce9b-41ff-8b8e-4879fb269a23","system_id":"levelo_inurba_marseille","lat":43.24174,"lon":5.36371,"is_reserved":false,"is_disabled":false,"rental_uris":{"android":"levelo://app?vid=01bec25a-ce9b-41ff-8b8e-4879fb269a23","ios":"levelo://app?vid=01bec25a-ce9b-41ff-8b8e-4879fb269a23"},"vehicle_type_id":"4","last_reported":1739812065,"current_range_meters":8800,"station_id":"","pricing_plan_id":"cebpf4jnsgd1na2vs0mg"},{"bike_id":"2af45b9a-8c0d-4f01-a654-0c80764127bf","system_id":"levelo_inurba_marseille","lat":43.28723,"lon":5.36111,"is_reserved":false,"is_disabled":true,"rental_uris":{"android":"levelo://app?vid=2af45b9a-8c0d-4f01-a654-0c80764127bf","ios":"levelo://app?vid=2af45b9a-8c0d-4f01-a654-0c80764127bf"},"vehicle_type_id":"4","last_reported":1739812065,"current_range_meters":8800,"station_id":"cki0cbj6b192h4jlfktg","pricing_plan_id":"cebpf4jnsgd1na2vs0mg"},{"bike_id":"65a36bf8-d927-443e-bdd7-b23e6c691214","system_id":"levelo_inurba_marseille","lat":43.24183,"lon":5.39734,"is_reserved":false,"is_disabled":false,"rental_uris":{"android":"levelo://app?vid=65a36bf8-d927-443e-bdd7-b23e6c691214","ios":"levelo://app?vid=65a36bf8-d927-443e-bdd7-b23e6c691214"},"vehicle_type_id":"4","last_reported":1739812065,"current_range_meters":8800,"station_id":"ce4bhn12rcd13ifvqgpg","pricing_plan_id":"cebpf4jnsgd1na2vs0mg"},{"bike_id":"a94b2393-6151-4e54-a8c9-5eb2e870c612","system_id":"levelo_inurba_marseille","lat":43.30545,"lon":5.36571,"is_reserved":false,"is_disabled":false,"rental_uris":{"android":"levelo://app?vid=a94b2393-6151-4e54-a8c9-5eb2e870c612","ios":"levelo://app?vid=a94b2393-6151-4e54-a8c9-5eb2e870c612"},"vehicle_type_id":"4","last_reported":1739812065,"current_range_meters":8800,"station_id":"","pricing_plan_id":"cebpf4jnsgd1na2vs0mg"},{"bike_id":"8a49e737-2dba-437e-b0e4-c61d64b4fa11","system_id":"levelo_inurba_marseille","lat":43.24548,"lon":5.3952,"is_reserved":false,"is_disabled":false,"rental_uris":{"android":"levelo://app?vid=8a49e737-2dba-437e-b0e4-c61d64b4fa11","ios":"levelo://app?vid=8a49e737-2dba-437e-b0e4-c61d64b4fa11"},"vehicle_type_id":"4","last_reported":1739812065,"current_range_meters":9200,"station_id":"ce4bhlp2rcd13ifvqgjg","pricing_plan_id":"cebpf4jnsgd1na2vs0mg"},{"bike_id":"8dbe617a-73bb-43b1-955a-f0b57c2f6fa2","system_id":"levelo_inurba_marseille","lat":43.27379,"lon":5.36251,"is_reserved":false,"is_disabled":false,"rental_uris":{"android":"levelo://app?vid=8dbe617a-73bb-43b1-955a-f0b57c2f6fa2","ios":"levelo://app?vid=8dbe617a-73bb-43b1-955a-f0b57c2f6fa2"},"vehicle_type_id":"4","last_reported":1739812065,"current_range_meters":9200,"station_id":"ce4bhbh2rcd13ifvqeo0","pricing_plan_id":"cebpf4jnsgd1na2vs0mg"},{"bike_id":"449f54a1-b722-4e31-9bab-ee149e3e5b71","system_id":"levelo_inurba_marseille","lat":43.32336,"lon":5.40626,"is_reserved":false,"is_disabled":false,"rental_uris":{"android":"levelo://app?vid=449f54a1-b722-4e31-9bab-ee149e3e5b71","ios":"levelo://app?vid=449f54a1-b722-4e31-9bab-ee149e3e5b71"},"vehicle_type_id":"4","last_reported":1739812065,"current_range_meters":9200,"station_id":"ce4bhq92rcd13ifvqhjg","pricing_plan_id":"cebpf4jnsgd1na2vs0mg"},{"bike_id":"3622f01d-3fdd-4061-ab6c-d2c25254235d","system_id":"levelo_inurba_marseille","lat":43.29017,"lon":5.38139,"is_reserved":false,"is_disabled":false,"rental_uris":{"android":"levelo://app?vid=3622f01d-3fdd-4061-ab6c-d2c25254235d","ios":"levelo://app?vid=3622f01d-3fdd-4061-ab6c-d2c25254235d"},"vehicle_type_id":"4","last_reported":1739812065,"current_range_meters":9200,"station_id":"ce4bh4p2rcd13ifvqe1g","pricing_plan_id":"cebpf4jnsgd1na2vs0mg"},{"bike_id":"52a69a5b-b76c-4700-8c1b-8d4f3bcd73c6","system_id":"levelo_inurba_marseille","lat":43.26566,"lon":5.3901,"is_reserved":false,"is_disabled":false,"rental_uris":{"android":"levelo://app?vid=52a69a5b-b76c-4700-8c1b-8d4f3bcd73c6","ios":"levelo://app?vid=52a69a5b-b76c-4700-8c1b-8d4f3bcd73c6"},"vehicle_type_id":"4","last_reported":1739812065,"current_range_meters":9600,"station_id":"ce4bhe12rcd13ifvqf30","pricing_plan_id":"cebpf4jnsgd1na2vs0mg"},{"bike_id":"98dafedc-f25b-409d-b3e2-803b47ffb900","system_id":"levelo_inurba_marseille","lat":43.24496,"lon":5.37281,"is_reserved":false,"is_disabled":false,"rental_uris":{"android":"levelo://app?vid=98dafedc-f25b-409d-b3e2-803b47ffb900","ios":"levelo://app?vid=98dafedc-f25b-409d-b3e2-803b47ffb900"},"vehicle_type_id":"4","last_reported":1739812065,"current_range_meters":10000,"station_id":"","pricing_plan_id":"cebpf4jnsgd1na2vs0mg"},{"bike_id":"506e9171-84b0-4415-9193-58b19ec236bb","system_id":"levelo_inurba_marseille","lat":43.28284,"lon":5.35057,"is_reserved":false,"is_disabled":false,"rental_uris":{"android":"levelo://app?vid=506e9171-84b0-4415-9193-58b19ec236bb","ios":"levelo://app?vid=506e9171-84b0-4415-9193-58b19ec236bb"},"vehicle_type_id":"4","last_reported":1739812065,"current_range_meters":9600,"station_id":"ce4bhbp2rcd13ifvqerg","pricing_plan_id":"cebpf4jnsgd1na2vs0mg"},{"bike_id":"91218955-2464-4b0b-818f-8a7c910ccbc9","system_id":"levelo_inurba_marseille","lat":43.24179,"lon":5.3973,"is_reserved":false,"is_disabled":false,"rental_uris":{"android":"levelo://app?vid=91218955-2464-4b0b-818f-8a7c910ccbc9","ios":"levelo://app?vid=91218955-2464-4b0b-818f-8a7c910ccbc9"},"vehicle_type_id":"4","last_reported":1739812065,"current_range_meters":10000,"station_id":"ce4bhn12rcd13ifvqgpg","pricing_plan_id":"cebpf4jnsgd1na2vs0mg"},{"bike_id":"5a526824-0a51-426c-bf69-def735343d26","system_id":"levelo_inurba_marseille","lat":43.2481,"lon":5.37461,"is_reserved":false,"is_disabled":false,"rental_uris":{"android":"levelo://app?vid=5a526824-0a51-426c-bf69-def735343d26","ios":"levelo://app?vid=5a526824-0a51-426c-bf69-def735343d26"},"vehicle_type_id":"4","last_reported":1739812065,"current_range_meters":9600,"station_id":"ce4bhgh2rcd13ifvqfb0","pricing_plan_id":"cebpf4jnsgd1na2vs0mg"},{"bike_id":"33139fe5-dc2c-4472-82de-0d91fe25824c","system_id":"levelo_inurba_marseille","lat":43.29576,"lon":5.39986,"is_reserved":false,"is_disabled":false,"rental_uris":{"android":"levelo://app?vid=33139fe5-dc2c-4472-82de-0d91fe25824c","ios":"levelo://app?vid=33139fe5-dc2c-4472-82de-0d91fe25824c"},"vehicle_type_id":"4","last_reported":1739812065,"current_range_meters":10000,"station_id":"ce4bhpp2rcd13ifvqhfg","pricing_plan_id":"cebpf4jnsgd1na2vs0mg"},{"bike_id":"037bd50b-30e7-44c8-bf51-85de0e85e239","system_id":"levelo_inurba_marseille","lat":43.255,"lon":5.37657,"is_reserved":false,"is_disabled":false,"rental_uris":{"android":"levelo://app?vid=037bd50b-30e7-44c8-bf51-85de0e85e239","ios":"levelo://app?vid=037bd50b-30e7-44c8-bf51-85de0e85e239"},"vehicle_type_id":"4","last_reported":1739812065,"current_range_meters":10000,"station_id":"","pricing_plan_id":"cebpf4jnsgd1na2vs0mg"},{"bike_id":"acf08369-ac35-43e7-909c-97ce21488c58","system_id":"levelo_inurba_marseille","lat":43.23151,"lon":5.43715,"is_reserved":false,"is_disabled":false,"rental_uris":{"android":"levelo://app?vid=acf08369-ac35-43e7-909c-97ce21488c58","ios":"levelo://app?vid=acf08369-ac35-43e7-909c-97ce21488c58"},"vehicle_type_id":"4","last_reported":1739812065,"current_range_meters":9600,"station_id":"ce4bhmp2rcd13ifvqgog","pricing_plan_id":"cebpf4jnsgd1na2vs0mg"},{"bike_id":"1eed0003-c3c5-459e-ba94-a9f0cf4ebd3f","system_id":"levelo_inurba_marseille","lat":43.28854,"lon":5.39312,"is_reserved":false,"is_disabled":false,"rental_uris":{"android":"levelo://app?vid=1eed0003-c3c5-459e-ba94-a9f0cf4ebd3f","ios":"levelo://app?vid=1eed0003-c3c5-459e-ba94-a9f0cf4ebd3f"},"vehicle_type_id":"4","last_reported":1739812065,"current_range_meters":7200,"station_id":"ce4bh2p2rcd13ifvqdi0","pricing_plan_id":"cebpf4jnsgd1na2vs0mg"},{"bike_id":"fed5900f-ddc6-45f2-bddc-1a57cc7e4963","system_id":"levelo_inurba_marseille","lat":43.28076,"lon":5.39653,"is_reserved":false,"is_disabled":false,"rental_uris":{"android":"levelo://app?vid=fed5900f-ddc6-45f2-bddc-1a57cc7e4963","ios":"levelo://app?vid=fed5900f-ddc6-45f2-bddc-1a57cc7e4963"},"vehicle_type_id":"4","last_reported":1739812065,"current_range_meters":10800,"station_id":"ce4bho12rcd13ifvqh2g","pricing_plan_id":"cebpf4jnsgd1na2vs0mg"},{"bike_id":"60c3622c-8e35-4a3d-b492-b30d879603a0","system_id":"levelo_inurba_marseille","lat":43.30682,"lon":5.4005,"is_reserved":false,"is_disabled":false,"rental_uris":{"android":"levelo://app?vid=60c3622c-8e35-4a3d-b492-b30d879603a0","ios":"levelo://app?vid=60c3622c-8e35-4a3d-b492-b30d879603a0"},"vehicle_type_id":"4","last_reported":1739812065,"current_range_meters":10800,"station_id":"ce4bh112rcd13ifvqda0","pricing_plan_id":"cebpf4jnsgd1na2vs0mg"},{"bike_id":"d86dfb12-e53b-4663-b0b1-0753b604c6ce","system_id":"levelo_inurba_marseille","lat":43.29276,"lon":5.40107,"is_reserved":false,"is_disabled":true,"rental_uris":{"android":"levelo://app?vid=d86dfb12-e53b-4663-b0b1-0753b604c6ce","ios":"levelo://app?vid=d86dfb12-e53b-4663-b0b1-0753b604c6ce"},"vehicle_type_id":"4","last_reported":1739812065,"current_range_meters":10800,"station_id":"ce4bh312rcd13ifvqdk0","pricing_plan_id":"cebpf4jnsgd1na2vs0mg"},{"bike_id":"52252b6b-4773-4030-bdaa-d7ee629b6b90","system_id":"levelo_inurba_marseille","lat":43.28271,"lon":5.35083,"is_reserved":false,"is_disabled":false,"rental_uris":{"android":"levelo://app?vid=52252b6b-4773-4030-bdaa-d7ee629b6b90","ios":"levelo://app?vid=52252b6b-4773-4030-bdaa-d7ee629b6b90"},"vehicle_type_id":"4","last_reported":1739812065,"current_range_meters":10800,"station_id":"","pricing_plan_id":"cebpf4jnsgd1na2vs0mg"},{"bike_id":"c0dd3d98-1e2d-4ec3-aa46-9eecfbbbafd9","system_id":"levelo_inurba_marseille","lat":43.27371,"lon":5.3626,"is_reserved":false,"is_disabled":false,"rental_uris":{"android":"levelo://app?vid=c0dd3d98-1e2d-4ec3-aa46-9eecfbbbafd9","ios":"levelo://app?vid=c0dd3d98-1e2d-4ec3-aa46-9eecfbbbafd9"},"vehicle_type_id":"4","last_reported":1739812065,"current_range_meters":11600,"station_id":"ce4bhbh2rcd13ifvqeo0","pricing_plan_id":"cebpf4jnsgd1na2vs0mg"},{"bike_id":"7c7c0f20-4ebe-4ae9-a466-5bcf5fc08c06","system_id":"levelo_inurba_marseille","lat":43.2919,"lon":5.35728,"is_reserved":false,"is_disabled":true,"rental_uris":{"android":"levelo://app?vid=7c7c0f20-4ebe-4ae9-a466-5bcf5fc08c06","ios":"levelo://app?vid=7c7c0f20-4ebe-4ae9-a466-5bcf5fc08c06"},"vehicle_type_id":"4","last_reported":1739812065,"current_range_meters":10800,"station_id":"","pricing_plan_id":"cebpf4jnsgd1na2vs0mg"},{"bike_id":"ca81ffdf-d79f-44d1-818b-c2eb46a195b6","system_id":"levelo_inurba_marseille","lat":43.28615,"lon":5.35096,"is_reserved":false,"is_disabled":false,"rental_uris":{"android":"levelo://app?vid=ca81ffdf-d79f-44d1-818b-c2eb46a195b6","ios":"levelo://app?vid=ca81ffdf-d79f-44d1-818b-c2eb46a195b6"},"vehicle_type_id":"4","last_reported":1739812065,"current_range_meters":11200,"station_id":"ce4bhch2rcd13ifvqeug","pricing_plan_id":"cebpf4jnsgd1na2vs0mg"},{"bike_id":"63213ce8-ab3b-490e-8b8e-c1a55a68b2ca","system_id":"levelo_inurba_marseille","lat":43.2951,"lon":5.38198,"is_reserved":false,"is_disabled":true,"rental_uris":{"android":"levelo://app?vid=63213ce8-ab3b-490e-8b8e-c1a55a68b2ca","ios":"levelo://app?vid=63213ce8-ab3b-490e-8b8e-c1a55a68b2ca"},"vehicle_type_id":"4","last_reported":1739812065,"current_range_meters":11200,"station_id":"","pricing_plan_id":"cebpf4jnsgd1na2vs0mg"},{"bike_id":"dcf310c5-15ca-498b-bf9c-cd6c77922408","system_id":"levelo_inurba_marseille","lat":43.23963,"lon":5.3663,"is_reserved":false,"is_disabled":false,"rental_uris":{"android":"levelo://app?vid=dcf310c5-15ca-498b-bf9c-cd6c77922408","ios":"levelo://app?vid=dcf310c5-15ca-498b-bf9c-cd6c77922408"},"vehicle_type_id":"4","last_reported":1739812065,"current_range_meters":11600,"station_id":"ce4bhi12rcd13ifvqfp0","pricing_plan_id":"cebpf4jnsgd1na2vs0mg"},{"bike_id":"2aef7b3e-6346-4c25-8736-5f49d9749908","system_id":"levelo_inurba_marseille","lat":43.32361,"lon":5.38884,"is_reserved":false,"is_disabled":false,"rental_uris":{"android":"levelo://app?vid=2aef7b3e-6346-4c25-8736-5f49d9749908","ios":"levelo://app?vid=2aef7b3e-6346-4c25-8736-5f49d9749908"},"vehicle_type_id":"4","last_reported":1739812065,"current_range_meters":11600,"station_id":"","pricing_plan_id":"cebpf4jnsgd1na2vs0mg"},{"bike_id":"8b63e0ad-cd01-451b-b808-f6fd0d4a46d0","system_id":"levelo_inurba_marseille","lat":43.2418,"lon":5.39728,"is_reserved":false,"is_disabled":false,"rental_uris":{"android":"levelo://app?vid=8b63e0ad-cd01-451b-b808-f6fd0d4a46d0","ios":"levelo://app?vid=8b63e0ad-cd01-451b-b808-f6fd0d4a46d0"},"vehicle_type_id":"4","last_reported":1739812065,"current_range_meters":12000,"station_id":"","pricing_plan_id":"cebpf4jnsgd1na2vs0mg"},{"bike_id":"3078dec7-f9e9-4096-ad70-5407f7948c23","system_id":"levelo_inurba_marseille","lat":43.298451,"lon":5.397455,"is_reserved":false,"is_disabled":false,"rental_uris":{"android":"levelo://app?vid=3078dec7-f9e9-4096-ad70-5407f7948c23","ios":"levelo://app?vid=3078dec7-f9e9-4096-ad70-5407f7948c23"},"vehicle_type_id":"4","last_reported":1739812065,"current_range_meters":11600,"station_id":"ce4bhh12rcd13ifvqff0","pricing_plan_id":"cebpf4jnsgd1na2vs0mg"},{"bike_id":"6528e792-6c2b-41ab-b102-37d30001a0e7","system_id":"levelo_inurba_marseille","lat":43.27224,"lon":5.40047,"is_reserved":false,"is_disabled":false,"rental_uris":{"android":"levelo://app?vid=6528e792-6c2b-41ab-b102-37d30001a0e7","ios":"levelo://app?vid=6528e792-6c2b-41ab-b102-37d30001a0e7"},"vehicle_type_id":"4","last_reported":1739812065,"current_range_meters":12400,"station_id":"","pricing_plan_id":"cebpf4jnsgd1na2vs0mg"},{"bike_id":"cb8372d6-bad2-4555-89ad-5b495afb0b59","system_id":"levelo_inurba_marseille","lat":43.24818,"lon":5.37464,"is_reserved":false,"is_disabled":false,"rental_uris":{"android":"levelo://app?vid=cb8372d6-bad2-4555-89ad-5b495afb0b59","ios":"levelo://app?vid=cb8372d6-bad2-4555-89ad-5b495afb0b59"},"vehicle_type_id":"4","last_reported":1739812065,"current_range_meters":12400,"station_id":"ce4bhgh2rcd13ifvqfb0","pricing_plan_id":"cebpf4jnsgd1na2vs0mg"},{"bike_id":"e7280e88-843b-4de6-9d1c-a9a1d825ea80","system_id":"levelo_inurba_marseille","lat":43.24651,"lon":5.3889,"is_reserved":false,"is_disabled":false,"rental_uris":{"android":"levelo://app?vid=e7280e88-843b-4de6-9d1c-a9a1d825ea80","ios":"levelo://app?vid=e7280e88-843b-4de6-9d1c-a9a1d825ea80"},"vehicle_type_id":"4","last_reported":1739812065,"current_range_meters":12800,"station_id":"ce4bhg12rcd13ifvqf60","pricing_plan_id":"cebpf4jnsgd1na2vs0mg"},{"bike_id":"a5abfbd3-4a5c-45f8-b1f3-20c242e4823d","system_id":"levelo_inurba_marseille","lat":43.26203,"lon":5.37919,"is_reserved":false,"is_disabled":false,"rental_uris":{"android":"levelo://app?vid=a5abfbd3-4a5c-45f8-b1f3-20c242e4823d","ios":"levelo://app?vid=a5abfbd3-4a5c-45f8-b1f3-20c242e4823d"},"vehicle_type_id":"4","last_reported":1739812065,"current_range_meters":12400,"station_id":"ce4bhjp2rcd13ifvqg90","pricing_plan_id":"cebpf4jnsgd1na2vs0mg"},{"bike_id":"ed33dbdd-4a52-4877-893a-f270a1b1cfd0","system_id":"levelo_inurba_marseille","lat":43.28106,"lon":5.37838,"is_reserved":false,"is_disabled":false,"rental_uris":{"android":"levelo://app?vid=ed33dbdd-4a52-4877-893a-f270a1b1cfd0","ios":"levelo://app?vid=ed33dbdd-4a52-4877-893a-f270a1b1cfd0"},"vehicle_type_id":"4","last_reported":1739812065,"current_range_meters":12400,"station_id":"ce4bha12rcd13ifvqee0","pricing_plan_id":"cebpf4jnsgd1na2vs0mg"},{"bike_id":"4e2b468f-8f4a-4d73-8517-62fa28d3fb4c","system_id":"levelo_inurba_marseille","lat":43.248,"lon":5.37437,"is_reserved":false,"is_disabled":false,"rental_uris":{"android":"levelo://app?vid=4e2b468f-8f4a-4d73-8517-62fa28d3fb4c","ios":"levelo://app?vid=4e2b468f-8f4a-4d73-8517-62fa28d3fb4c"},"vehicle_type_id":"4","last_reported":1739812065,"current_range_meters":12800,"station_id":"ce4bhgh2rcd13ifvqfb0","pricing_plan_id":"cebpf4jnsgd1na2vs0mg"},{"bike_id":"ebebf9ec-1c1c-49de-99cb-4ad1af8c855f","system_id":"levelo_inurba_marseille","lat":43.28722,"lon":5.36092,"is_reserved":false,"is_disabled":false,"rental_uris":{"android":"levelo://app?vid=ebebf9ec-1c1c-49de-99cb-4ad1af8c855f","ios":"levelo://app?vid=ebebf9ec-1c1c-49de-99cb-4ad1af8c855f"},"vehicle_type_id":"4","last_reported":1739812065,"current_range_meters":12800,"station_id":"cki0cbj6b192h4jlfktg","pricing_plan_id":"cebpf4jnsgd1na2vs0mg"},{"bike_id":"71f77547-c5e0-4d47-b065-f51c23f01847","system_id":"levelo_inurba_marseille","lat":43.28792,"lon":5.35241,"is_reserved":false,"is_disabled":false,"rental_uris":{"android":"levelo://app?vid=71f77547-c5e0-4d47-b065-f51c23f01847","ios":"levelo://app?vid=71f77547-c5e0-4d47-b065-f51c23f01847"},"vehicle_type_id":"4","last_reported":1739812065,"current_range_meters":12800,"station_id":"ce4bh5p2rcd13ifvqe4g","pricing_plan_id":"cebpf4jnsgd1na2vs0mg"},{"bike_id":"f0a05cc5-8fe2-460c-9d07-4b402da07bf7","system_id":"levelo_inurba_marseille","lat":43.276217,"lon":5.361116,"is_reserved":false,"is_disabled":false,"rental_uris":{"android":"levelo://app?vid=f0a05cc5-8fe2-460c-9d07-4b402da07bf7","ios":"levelo://app?vid=f0a05cc5-8fe2-460c-9d07-4b402da07bf7"},"vehicle_type_id":"4","last_reported":1739812065,"current_range_meters":12800,"station_id":"ce4bgj92rcd13ifvqbe0","pricing_plan_id":"cebpf4jnsgd1na2vs0mg"},{"bike_id":"0a225e25-8f12-4d82-abfc-03cfb3f80f43","system_id":"levelo_inurba_marseille","lat":43.29435,"lon":5.38594,"is_reserved":false,"is_disabled":false,"rental_uris":{"android":"levelo://app?vid=0a225e25-8f12-4d82-abfc-03cfb3f80f43","ios":"levelo://app?vid=0a225e25-8f12-4d82-abfc-03cfb3f80f43"},"vehicle_type_id":"4","last_reported":1739812065,"current_range_meters":13600,"station_id":"ce4bh2h2rcd13ifvqdh0","pricing_plan_id":"cebpf4jnsgd1na2vs0mg"},{"bike_id":"a8d7e7ed-4414-4f8f-97c8-2ee56cb923c4","system_id":"levelo_inurba_marseille","lat":43.28077,"lon":5.39658,"is_reserved":false,"is_disabled":false,"rental_uris":{"android":"levelo://app?vid=a8d7e7ed-4414-4f8f-97c8-2ee56cb923c4","ios":"levelo://app?vid=a8d7e7ed-4414-4f8f-97c8-2ee56cb923c4"},"vehicle_type_id":"4","last_reported":1739812065,"current_range_meters":12800,"station_id":"ce4bho12rcd13ifvqh2g","pricing_plan_id":"cebpf4jnsgd1na2vs0mg"},{"bike_id":"020f9db3-6048-4a83-8c59-4acc533112c8","system_id":"levelo_inurba_marseille","lat":43.28158,"lon":5.42645,"is_reserved":false,"is_disabled":false,"rental_uris":{"android":"levelo://app?vid=020f9db3-6048-4a83-8c59-4acc533112c8","ios":"levelo://app?vid=020f9db3-6048-4a83-8c59-4acc533112c8"},"vehicle_type_id":"4","last_reported":1739812065,"current_range_meters":13600,"station_id":"ce4bhnh2rcd13ifvqgug","pricing_plan_id":"cebpf4jnsgd1na2vs0mg"},{"bike_id":"0a2bce1f-87d5-4f6f-80ec-2fd47e543b4a","system_id":"levelo_inurba_marseille","lat":43.299714,"lon":5.384757,"is_reserved":false,"is_disabled":false,"rental_uris":{"android":"levelo://app?vid=0a2bce1f-87d5-4f6f-80ec-2fd47e543b4a","ios":"levelo://app?vid=0a2bce1f-87d5-4f6f-80ec-2fd47e543b4a"},"vehicle_type_id":"4","last_reported":1739812065,"current_range_meters":10000,"station_id":"ce4bgi12rcd13ifvqb70","pricing_plan_id":"cebpf4jnsgd1na2vs0mg"},{"bike_id":"cbfe3f3c-9375-40f2-a4d5-b62bc2b2737e","system_id":"levelo_inurba_marseille","lat":43.27379,"lon":5.36248,"is_reserved":false,"is_disabled":false,"rental_uris":{"android":"levelo://app?vid=cbfe3f3c-9375-40f2-a4d5-b62bc2b2737e","ios":"levelo://app?vid=cbfe3f3c-9375-40f2-a4d5-b62bc2b2737e"},"vehicle_type_id":"4","last_reported":1739812065,"current_range_meters":14400,"station_id":"ce4bhbh2rcd13ifvqeo0","pricing_plan_id":"cebpf4jnsgd1na2vs0mg"},{"bike_id":"64627059-f94e-4aa2-a301-7dfa05f02d32","system_id":"levelo_inurba_marseille","lat":43.28848,"lon":5.35851,"is_reserved":false,"is_disabled":false,"rental_uris":{"android":"levelo://app?vid=64627059-f94e-4aa2-a301-7dfa05f02d32","ios":"levelo://app?vid=64627059-f94e-4aa2-a301-7dfa05f02d32"},"vehicle_type_id":"4","last_reported":1739812065,"current_range_meters":14400,"station_id":"ce4bhb12rcd13ifvqem0","pricing_plan_id":"cebpf4jnsgd1na2vs0mg"},{"bike_id":"c5c59f41-6de9-4286-8e47-0b749ef897bc","system_id":"levelo_inurba_marseille","lat":43.28626,"lon":5.35108,"is_reserved":false,"is_disabled":false,"rental_uris":{"android":"levelo://app?vid=c5c59f41-6de9-4286-8e47-0b749ef897bc","ios":"levelo://app?vid=c5c59f41-6de9-4286-8e47-0b749ef897bc"},"vehicle_type_id":"4","last_reported":1739812065,"current_range_meters":14400,"station_id":"ce4bhch2rcd13ifvqeug","pricing_plan_id":"cebpf4jnsgd1na2vs0mg"},{"bike_id":"93df6ec3-df52-4683-9ca5-ed11ffff1ca6","system_id":"levelo_inurba_marseille","lat":43.27172,"lon":5.40995,"is_reserved":false,"is_disabled":false,"rental_uris":{"android":"levelo://app?vid=93df6ec3-df52-4683-9ca5-ed11ffff1ca6","ios":"levelo://app?vid=93df6ec3-df52-4683-9ca5-ed11ffff1ca6"},"vehicle_type_id":"4","last_reported":1739812065,"current_range_meters":14400,"station_id":"ce4bhl12rcd13ifvqgf0","pricing_plan_id":"cebpf4jnsgd1na2vs0mg"},{"bike_id":"aefefd11-ec1a-445e-8a88-74e7266722e8","system_id":"levelo_inurba_marseille","lat":43.31476,"lon":5.37309,"is_reserved":false,"is_disabled":false,"rental_uris":{"android":"levelo://app?vid=aefefd11-ec1a-445e-8a88-74e7266722e8","ios":"levelo://app?vid=aefefd11-ec1a-445e-8a88-74e7266722e8"},"vehicle_type_id":"4","last_reported":1739812065,"current_range_meters":14400,"station_id":"ce4bgt12rcd13ifvqcd0","pricing_plan_id":"cebpf4jnsgd1na2vs0mg"},{"bike_id":"4767ce61-083b-49b6-b6bd-c77650019e8f","system_id":"levelo_inurba_marseille","lat":43.32106,"lon":5.36792,"is_reserved":false,"is_disabled":false,"rental_uris":{"android":"levelo://app?vid=4767ce61-083b-49b6-b6bd-c77650019e8f","ios":"levelo://app?vid=4767ce61-083b-49b6-b6bd-c77650019e8f"},"vehicle_type_id":"4","last_reported":1739812065,"current_range_meters":14800,"station_id":"","pricing_plan_id":"cebpf4jnsgd1na2vs0mg"},{"bike_id":"f8e06fc7-00b7-4831-828e-752a95e98412","system_id":"levelo_inurba_marseille","lat":43.28849,"lon":5.35875,"is_reserved":false,"is_disabled":false,"rental_uris":{"android":"levelo://app?vid=f8e06fc7-00b7-4831-828e-752a95e98412","ios":"levelo://app?vid=f8e06fc7-00b7-4831-828e-752a95e98412"},"vehicle_type_id":"4","last_reported":1739812065,"current_range_meters":14800,"station_id":"ce4bhb12rcd13ifvqem0","pricing_plan_id":"cebpf4jnsgd1na2vs0mg"},{"bike_id":"3ddb672d-727c-4bad-97df-04022ec2c642","system_id":"levelo_inurba_marseille","lat":43.31522,"lon":5.38038,"is_reserved":false,"is_disabled":false,"rental_uris":{"android":"levelo://app?vid=3ddb672d-727c-4bad-97df-04022ec2c642","ios":"levelo://app?vid=3ddb672d-727c-4bad-97df-04022ec2c642"},"vehicle_type_id":"4","last_reported":1739812065,"current_range_meters":13600,"station_id":"ce4bhsp2rcd13ifvqi50","pricing_plan_id":"cebpf4jnsgd1na2vs0mg"},{"bike_id":"c5f918be-f3af-4de4-8ebd-915c3fd4088d","system_id":"levelo_inurba_marseille","lat":43.28348,"lon":5.38094,"is_reserved":false,"is_disabled":false,"rental_uris":{"android":"levelo://app?vid=c5f918be-f3af-4de4-8ebd-915c3fd4088d","ios":"levelo://app?vid=c5f918be-f3af-4de4-8ebd-915c3fd4088d"},"vehicle_type_id":"4","last_reported":1739812065,"current_range_meters":16800,"station_id":"ce4bh412rcd13ifvqdr0","pricing_plan_id":"cebpf4jnsgd1na2vs0mg"},{"bike_id":"f2ed1939-a611-4c0c-b834-6691e0118b72","system_id":"levelo_inurba_marseille","lat":43.23199,"lon":5.35552,"is_reserved":false,"is_disabled":false,"rental_uris":{"android":"levelo://app?vid=f2ed1939-a611-4c0c-b834-6691e0118b72","ios":"levelo://app?vid=f2ed1939-a611-4c0c-b834-6691e0118b72"},"vehicle_type_id":"4","last_reported":1739812065,"current_range_meters":15200,"station_id":"ce4bhu92rcd13ifvqi70","pricing_plan_id":"cebpf4jnsgd1na2vs0mg"},{"bike_id":"87e2735d-c6f1-4171-8b64-ebec0fcd7eb7","system_id":"levelo_inurba_marseille","lat":43.33611,"lon":5.41038,"is_reserved":false,"is_disabled":false,"rental_uris":{"android":"levelo://app?vid=87e2735d-c6f1-4171-8b64-ebec0fcd7eb7","ios":"levelo://app?vid=87e2735d-c6f1-4171-8b64-ebec0fcd7eb7"},"vehicle_type_id":"4","last_reported":1739812065,"current_range_meters":14800,"station_id":"ce4bhqh2rcd13ifvqhmg","pricing_plan_id":"cebpf4jnsgd1na2vs0mg"},{"bike_id":"364a1e36-768d-46cb-9882-d5a6e311e5cd","system_id":"levelo_inurba_marseille","lat":43.28725,"lon":5.36088,"is_reserved":false,"is_disabled":false,"rental_uris":{"android":"levelo://app?vid=364a1e36-768d-46cb-9882-d5a6e311e5cd","ios":"levelo://app?vid=364a1e36-768d-46cb-9882-d5a6e311e5cd"},"vehicle_type_id":"4","last_reported":1739812065,"current_range_meters":15200,"station_id":"cki0cbj6b192h4jlfktg","pricing_plan_id":"cebpf4jnsgd1na2vs0mg"},{"bike_id":"9084f880-c05c-41d9-962e-1ab7add2848e","system_id":"levelo_inurba_marseille","lat":43.2407,"lon":5.37757,"is_reserved":false,"is_disabled":false,"rental_uris":{"android":"levelo://app?vid=9084f880-c05c-41d9-962e-1ab7add2848e","ios":"levelo://app?vid=9084f880-c05c-41d9-962e-1ab7add2848e"},"vehicle_type_id":"4","last_reported":1739812065,"current_range_meters":15200,"station_id":"ce4bhnp2rcd13ifvqgvg","pricing_plan_id":"cebpf4jnsgd1na2vs0mg"},{"bike_id":"7e1bcd16-719a-4da9-aa93-fa68923adaea","system_id":"levelo_inurba_marseille","lat":43.240727,"lon":5.377667,"is_reserved":false,"is_disabled":false,"rental_uris":{"android":"levelo://app?vid=7e1bcd16-719a-4da9-aa93-fa68923adaea","ios":"levelo://app?vid=7e1bcd16-719a-4da9-aa93-fa68923adaea"},"vehicle_type_id":"4","last_reported":1739812065,"current_range_meters":15200,"station_id":"ce4bhnp2rcd13ifvqgvg","pricing_plan_id":"cebpf4jnsgd1na2vs0mg"},{"bike_id":"70ed3810-41e7-48f0-a6e9-c9445456f32c","system_id":"levelo_inurba_marseille","lat":43.26932,"lon":5.38939,"is_reserved":false,"is_disabled":false,"rental_uris":{"android":"levelo://app?vid=70ed3810-41e7-48f0-a6e9-c9445456f32c","ios":"levelo://app?vid=70ed3810-41e7-48f0-a6e9-c9445456f32c"},"vehicle_type_id":"4","last_reported":1739812065,"current_range_meters":16000,"station_id":"ce4bhhh2rcd13ifvqfl0","pricing_plan_id":"cebpf4jnsgd1na2vs0mg"},{"bike_id":"91bf3218-0a05-4226-acc9-b3131b7d5a8d","system_id":"levelo_inurba_marseille","lat":43.23959,"lon":5.36626,"is_reserved":false,"is_disabled":false,"rental_uris":{"android":"levelo://app?vid=91bf3218-0a05-4226-acc9-b3131b7d5a8d","ios":"levelo://app?vid=91bf3218-0a05-4226-acc9-b3131b7d5a8d"},"vehicle_type_id":"4","last_reported":1739812065,"current_range_meters":16000,"station_id":"ce4bhi12rcd13ifvqfp0","pricing_plan_id":"cebpf4jnsgd1na2vs0mg"},{"bike_id":"085f975e-f80f-40c8-8c97-4c4e0a22eba2","system_id":"levelo_inurba_marseille","lat":43.23968,"lon":5.36637,"is_reserved":false,"is_disabled":false,"rental_uris":{"android":"levelo://app?vid=085f975e-f80f-40c8-8c97-4c4e0a22eba2","ios":"levelo://app?vid=085f975e-f80f-40c8-8c97-4c4e0a22eba2"},"vehicle_type_id":"4","last_reported":1739812065,"current_range_meters":16000,"station_id":"ce4bhi12rcd13ifvqfp0","pricing_plan_id":"cebpf4jnsgd1na2vs0mg"},{"bike_id":"b4f7951e-a8d9-4f42-b03f-b06ba82daa83","system_id":"levelo_inurba_marseille","lat":43.27175,"lon":5.40994,"is_reserved":false,"is_disabled":false,"rental_uris":{"android":"levelo://app?vid=b4f7951e-a8d9-4f42-b03f-b06ba82daa83","ios":"levelo://app?vid=b4f7951e-a8d9-4f42-b03f-b06ba82daa83"},"vehicle_type_id":"4","last_reported":1739812065,"current_range_meters":16000,"station_id":"ce4bhl12rcd13ifvqgf0","pricing_plan_id":"cebpf4jnsgd1na2vs0mg"},{"bike_id":"d1dec037-ee4c-4db9-a655-1087d8ee1f4f","system_id":"levelo_inurba_marseille","lat":43.28441,"lon":5.39189,"is_reserved":false,"is_disabled":true,"rental_uris":{"android":"levelo://app?vid=d1dec037-ee4c-4db9-a655-1087d8ee1f4f","ios":"levelo://app?vid=d1dec037-ee4c-4db9-a655-1087d8ee1f4f"},"vehicle_type_id":"4","last_reported":1739812065,"current_range_meters":16000,"station_id":"","pricing_plan_id":"cebpf4jnsgd1na2vs0mg"},{"bike_id":"d49b7767-7a10-4de3-a6d6-e4df1901ae19","system_id":"levelo_inurba_marseille","lat":43.28626,"lon":5.35113,"is_reserved":false,"is_disabled":false,"rental_uris":{"android":"levelo://app?vid=d49b7767-7a10-4de3-a6d6-e4df1901ae19","ios":"levelo://app?vid=d49b7767-7a10-4de3-a6d6-e4df1901ae19"},"vehicle_type_id":"4","last_reported":1739812065,"current_range_meters":16000,"station_id":"ce4bhch2rcd13ifvqeug","pricing_plan_id":"cebpf4jnsgd1na2vs0mg"},{"bike_id":"e57f9313-8443-49d5-820a-e3f0c205b6f2","system_id":"levelo_inurba_marseille","lat":43.24074,"lon":5.37756,"is_reserved":false,"is_disabled":false,"rental_uris":{"android":"levelo://app?vid=e57f9313-8443-49d5-820a-e3f0c205b6f2","ios":"levelo://app?vid=e57f9313-8443-49d5-820a-e3f0c205b6f2"},"vehicle_type_id":"4","last_reported":1739812065,"current_range_meters":16000,"station_id":"ce4bhnp2rcd13ifvqgvg","pricing_plan_id":"cebpf4jnsgd1na2vs0mg"},{"bike_id":"855e00a6-9e8c-4de0-bc87-12b351c5db28","system_id":"levelo_inurba_marseille","lat":43.28419,"lon":5.34984,"is_reserved":false,"is_disabled":false,"rental_uris":{"android":"levelo://app?vid=855e00a6-9e8c-4de0-bc87-12b351c5db28","ios":"levelo://app?vid=855e00a6-9e8c-4de0-bc87-12b351c5db28"},"vehicle_type_id":"4","last_reported":1739812065,"current_range_meters":16000,"station_id":"ce4bhbh2rcd13ifvqepg","pricing_plan_id":"cebpf4jnsgd1na2vs0mg"},{"bike_id":"5877cd3f-1431-415d-b73b-3a46db319178","system_id":"levelo_inurba_marseille","lat":43.29916,"lon":5.3746,"is_reserved":false,"is_disabled":false,"rental_uris":{"android":"levelo://app?vid=5877cd3f-1431-415d-b73b-3a46db319178","ios":"levelo://app?vid=5877cd3f-1431-415d-b73b-3a46db319178"},"vehicle_type_id":"4","last_reported":1739812065,"current_range_meters":16400,"station_id":"ce4bgjh2rcd13ifvqbg0","pricing_plan_id":"cebpf4jnsgd1na2vs0mg"},{"bike_id":"fa26596f-385b-467a-983c-09a503967e29","system_id":"levelo_inurba_marseille","lat":43.28234,"lon":5.3501,"is_reserved":false,"is_disabled":true,"rental_uris":{"android":"levelo://app?vid=fa26596f-385b-467a-983c-09a503967e29","ios":"levelo://app?vid=fa26596f-385b-467a-983c-09a503967e29"},"vehicle_type_id":"4","last_reported":1739812065,"current_range_meters":16400,"station_id":"","pricing_plan_id":"cebpf4jnsgd1na2vs0mg"},{"bike_id":"e125e83c-267a-4b4e-a40c-ce16b6c526ef","system_id":"levelo_inurba_marseille","lat":43.2766,"lon":5.38387,"is_reserved":false,"is_disabled":false,"rental_uris":{"android":"levelo://app?vid=e125e83c-267a-4b4e-a40c-ce16b6c526ef","ios":"levelo://app?vid=e125e83c-267a-4b4e-a40c-ce16b6c526ef"},"vehicle_type_id":"4","last_reported":1739812065,"current_range_meters":16400,"station_id":"ce4bhh92rcd13ifvqfh0","pricing_plan_id":"cebpf4jnsgd1na2vs0mg"},{"bike_id":"7981d054-b61b-47e1-9637-0cc83261e996","system_id":"levelo_inurba_marseille","lat":43.27983,"lon":5.39536,"is_reserved":false,"is_disabled":false,"rental_uris":{"android":"levelo://app?vid=7981d054-b61b-47e1-9637-0cc83261e996","ios":"levelo://app?vid=7981d054-b61b-47e1-9637-0cc83261e996"},"vehicle_type_id":"4","last_reported":1739812065,"current_range_meters":16400,"station_id":"ce4bho12rcd13ifvqh2g","pricing_plan_id":"cebpf4jnsgd1na2vs0mg"},{"bike_id":"87bece01-4c06-4271-ac36-86d36c9f89ea","system_id":"levelo_inurba_marseille","lat":43.30323,"lon":5.38962,"is_reserved":false,"is_disabled":false,"rental_uris":{"android":"levelo://app?vid=87bece01-4c06-4271-ac36-86d36c9f89ea","ios":"levelo://app?vid=87bece01-4c06-4271-ac36-86d36c9f89ea"},"vehicle_type_id":"4","last_reported":1739812065,"current_range_meters":16400,"station_id":"ce4bgkh2rcd13ifvqbk0","pricing_plan_id":"cebpf4jnsgd1na2vs0mg"},{"bike_id":"a0ff65f0-2119-4ccc-a3d3-b56b9dcc82d8","system_id":"levelo_inurba_marseille","lat":43.28609,"lon":5.35109,"is_reserved":false,"is_disabled":false,"rental_uris":{"android":"levelo://app?vid=a0ff65f0-2119-4ccc-a3d3-b56b9dcc82d8","ios":"levelo://app?vid=a0ff65f0-2119-4ccc-a3d3-b56b9dcc82d8"},"vehicle_type_id":"4","last_reported":1739812065,"current_range_meters":16400,"station_id":"ce4bhch2rcd13ifvqeug","pricing_plan_id":"cebpf4jnsgd1na2vs0mg"},{"bike_id":"c0d86084-3909-4011-9150-758c12f3336b","system_id":"levelo_inurba_marseille","lat":43.26031,"lon":5.37549,"is_reserved":false,"is_disabled":false,"rental_uris":{"android":"levelo://app?vid=c0d86084-3909-4011-9150-758c12f3336b","ios":"levelo://app?vid=c0d86084-3909-4011-9150-758c12f3336b"},"vehicle_type_id":"4","last_reported":1739812065,"current_range_meters":16400,"station_id":"ce4bhgh2rcd13ifvqfa0","pricing_plan_id":"cebpf4jnsgd1na2vs0mg"},{"bike_id":"bb4a3648-09cb-4cc2-9947-bf380533d03f","system_id":"levelo_inurba_marseille","lat":43.31668,"lon":5.37226,"is_reserved":false,"is_disabled":true,"rental_uris":{"android":"levelo://app?vid=bb4a3648-09cb-4cc2-9947-bf380533d03f","ios":"levelo://app?vid=bb4a3648-09cb-4cc2-9947-bf380533d03f"},"vehicle_type_id":"4","last_reported":1739812065,"current_range_meters":16800,"station_id":"","pricing_plan_id":"cebpf4jnsgd1na2vs0mg"},{"bike_id":"55b7d10d-f706-4638-bd6a-e4ab59b7e2cb","system_id":"levelo_inurba_marseille","lat":43.27997,"lon":5.41664,"is_reserved":false,"is_disabled":false,"rental_uris":{"android":"levelo://app?vid=55b7d10d-f706-4638-bd6a-e4ab59b7e2cb","ios":"levelo://app?vid=55b7d10d-f706-4638-bd6a-e4ab59b7e2cb"},"vehicle_type_id":"4","last_reported":1739812065,"current_range_meters":10000,"station_id":"ce4bho12rcd13ifvqh1g","pricing_plan_id":"cebpf4jnsgd1na2vs0mg"},{"bike_id":"4b1d347b-1874-4c44-89c1-2897bc6c3447","system_id":"levelo_inurba_marseille","lat":43.28153,"lon":5.42638,"is_reserved":false,"is_disabled":false,"rental_uris":{"android":"levelo://app?vid=4b1d347b-1874-4c44-89c1-2897bc6c3447","ios":"levelo://app?vid=4b1d347b-1874-4c44-89c1-2897bc6c3447"},"vehicle_type_id":"4","last_reported":1739812065,"current_range_meters":16800,"station_id":"ce4bhnh2rcd13ifvqgug","pricing_plan_id":"cebpf4jnsgd1na2vs0mg"},{"bike_id":"4ea423c2-79eb-4fb2-b78f-5433ad34e1e6","system_id":"levelo_inurba_marseille","lat":43.29267,"lon":5.37646,"is_reserved":false,"is_disabled":false,"rental_uris":{"android":"levelo://app?vid=4ea423c2-79eb-4fb2-b78f-5433ad34e1e6","ios":"levelo://app?vid=4ea423c2-79eb-4fb2-b78f-5433ad34e1e6"},"vehicle_type_id":"4","last_reported":1739812065,"current_range_meters":16800,"station_id":"ce4bgi12rcd13ifvqb80","pricing_plan_id":"cebpf4jnsgd1na2vs0mg"},{"bike_id":"1c4ab1c1-f8e5-4ceb-8507-e3b252ef908b","system_id":"levelo_inurba_marseille","lat":43.24177,"lon":5.3641,"is_reserved":false,"is_disabled":false,"rental_uris":{"android":"levelo://app?vid=1c4ab1c1-f8e5-4ceb-8507-e3b252ef908b","ios":"levelo://app?vid=1c4ab1c1-f8e5-4ceb-8507-e3b252ef908b"},"vehicle_type_id":"4","last_reported":1739812065,"current_range_meters":16800,"station_id":"cpo36qri1sfpv3e86is0","pricing_plan_id":"cebpf4jnsgd1na2vs0mg"},{"bike_id":"0a881256-a41c-40dd-bb09-691f93b000e9","system_id":"levelo_inurba_marseille","lat":43.28419,"lon":5.34981,"is_reserved":false,"is_disabled":false,"rental_uris":{"android":"levelo://app?vid=0a881256-a41c-40dd-bb09-691f93b000e9","ios":"levelo://app?vid=0a881256-a41c-40dd-bb09-691f93b000e9"},"vehicle_type_id":"4","last_reported":1739812065,"current_range_meters":16800,"station_id":"ce4bhbh2rcd13ifvqepg","pricing_plan_id":"cebpf4jnsgd1na2vs0mg"},{"bike_id":"e46ad52b-d861-4d04-a2c4-ea45df01633c","system_id":"levelo_inurba_marseille","lat":43.26805,"lon":5.40272,"is_reserved":false,"is_disabled":true,"rental_uris":{"android":"levelo://app?vid=e46ad52b-d861-4d04-a2c4-ea45df01633c","ios":"levelo://app?vid=e46ad52b-d861-4d04-a2c4-ea45df01633c"},"vehicle_type_id":"4","last_reported":1739812065,"current_range_meters":16800,"station_id":"ce501612rcd8frsf0b60","pricing_plan_id":"cebpf4jnsgd1na2vs0mg"},{"bike_id":"eb2206c5-e33a-420f-8d00-99bbb1e8cab9","system_id":"levelo_inurba_marseille","lat":43.28295,"lon":5.37872,"is_reserved":false,"is_disabled":false,"rental_uris":{"android":"levelo://app?vid=eb2206c5-e33a-420f-8d00-99bbb1e8cab9","ios":"levelo://app?vid=eb2206c5-e33a-420f-8d00-99bbb1e8cab9"},"vehicle_type_id":"4","last_reported":1739812065,"current_range_meters":16800,"station_id":"ce4bha12rcd13ifvqee0","pricing_plan_id":"cebpf4jnsgd1na2vs0mg"},{"bike_id":"9137561a-27d5-4605-8b06-196b154b88d2","system_id":"levelo_inurba_marseille","lat":43.30783,"lon":5.37649,"is_reserved":false,"is_disabled":false,"rental_uris":{"android":"levelo://app?vid=9137561a-27d5-4605-8b06-196b154b88d2","ios":"levelo://app?vid=9137561a-27d5-4605-8b06-196b154b88d2"},"vehicle_type_id":"4","last_reported":1739812065,"current_range_meters":12400,"station_id":"ce4bgv92rcd13ifvqcq0","pricing_plan_id":"cebpf4jnsgd1na2vs0mg"},{"bike_id":"e493d32f-c7df-48a8-8644-e6c67b333882","system_id":"levelo_inurba_marseille","lat":43.30168,"lon":5.37083,"is_reserved":false,"is_disabled":false,"rental_uris":{"android":"levelo://app?vid=e493d32f-c7df-48a8-8644-e6c67b333882","ios":"levelo://app?vid=e493d32f-c7df-48a8-8644-e6c67b333882"},"vehicle_type_id":"4","last_reported":1739812065,"current_range_meters":16800,"station_id":"","pricing_plan_id":"cebpf4jnsgd1na2vs0mg"},{"bike_id":"7cf3d8e7-1098-48dd-b43b-342c29077f3b","system_id":"levelo_inurba_marseille","lat":43.309307,"lon":5.401473,"is_reserved":false,"is_disabled":false,"rental_uris":{"android":"levelo://app?vid=7cf3d8e7-1098-48dd-b43b-342c29077f3b","ios":"levelo://app?vid=7cf3d8e7-1098-48dd-b43b-342c29077f3b"},"vehicle_type_id":"4","last_reported":1739812065,"current_range_meters":17200,"station_id":"ce4bgvp2rcd13ifvqct0","pricing_plan_id":"cebpf4jnsgd1na2vs0mg"},{"bike_id":"d3841060-765b-4867-afe3-b22e19e61cc5","system_id":"levelo_inurba_marseille","lat":43.297237,"lon":5.363725,"is_reserved":false,"is_disabled":false,"rental_uris":{"android":"levelo://app?vid=d3841060-765b-4867-afe3-b22e19e61cc5","ios":"levelo://app?vid=d3841060-765b-4867-afe3-b22e19e61cc5"},"vehicle_type_id":"4","last_reported":1739812065,"current_range_meters":17200,"station_id":"","pricing_plan_id":"cebpf4jnsgd1na2vs0mg"},{"bike_id":"2bd553fe-a826-4205-96cb-06189690aea1","system_id":"levelo_inurba_marseille","lat":43.300789,"lon":5.399559,"is_reserved":false,"is_disabled":false,"rental_uris":{"android":"levelo://app?vid=2bd553fe-a826-4205-96cb-06189690aea1","ios":"levelo://app?vid=2bd553fe-a826-4205-96cb-06189690aea1"},"vehicle_type_id":"4","last_reported":1739812065,"current_range_meters":17200,"station_id":"ce4bh0h2rcd13ifvqd40","pricing_plan_id":"cebpf4jnsgd1na2vs0mg"},{"bike_id":"37e2f382-4e5f-4068-ac65-99779f2fa91a","system_id":"levelo_inurba_marseille","lat":43.30431,"lon":5.38885,"is_reserved":false,"is_disabled":false,"rental_uris":{"android":"levelo://app?vid=37e2f382-4e5f-4068-ac65-99779f2fa91a","ios":"levelo://app?vid=37e2f382-4e5f-4068-ac65-99779f2fa91a"},"vehicle_type_id":"4","last_reported":1739812065,"current_range_meters":17200,"station_id":"ce4bgk12rcd13ifvqbi0","pricing_plan_id":"cebpf4jnsgd1na2vs0mg"},{"bike_id":"a9e8daf3-70cf-4ca0-a2bf-a2ff80ebc918","system_id":"levelo_inurba_marseille","lat":43.30474,"lon":5.36952,"is_reserved":false,"is_disabled":false,"rental_uris":{"android":"levelo://app?vid=a9e8daf3-70cf-4ca0-a2bf-a2ff80ebc918","ios":"levelo://app?vid=a9e8daf3-70cf-4ca0-a2bf-a2ff80ebc918"},"vehicle_type_id":"4","last_reported":1739812065,"current_range_meters":17200,"station_id":"","pricing_plan_id":"cebpf4jnsgd1na2vs0mg"},{"bike_id":"c74b4dbc-e6ae-47cb-9ea7-91e74f12ab36","system_id":"levelo_inurba_marseille","lat":43.28353,"lon":5.38106,"is_reserved":false,"is_disabled":false,"rental_uris":{"android":"levelo://app?vid=c74b4dbc-e6ae-47cb-9ea7-91e74f12ab36","ios":"levelo://app?vid=c74b4dbc-e6ae-47cb-9ea7-91e74f12ab36"},"vehicle_type_id":"4","last_reported":1739812065,"current_range_meters":17200,"station_id":"ce4bh412rcd13ifvqdr0","pricing_plan_id":"cebpf4jnsgd1na2vs0mg"},{"bike_id":"c1a6f2bf-0ac0-493f-9767-e660178b648c","system_id":"levelo_inurba_marseille","lat":43.298248,"lon":5.38638,"is_reserved":false,"is_disabled":false,"rental_uris":{"android":"levelo://app?vid=c1a6f2bf-0ac0-493f-9767-e660178b648c","ios":"levelo://app?vid=c1a6f2bf-0ac0-493f-9767-e660178b648c"},"vehicle_type_id":"4","last_reported":1739812065,"current_range_meters":16800,"station_id":"ce4bgvp2rcd13ifvqct0","pricing_plan_id":"cebpf4jnsgd1na2vs0mg"},{"bike_id":"84dc2dc8-69f2-4813-a36e-4d36b9136b36","system_id":"levelo_inurba_marseille","lat":43.32289,"lon":5.38266,"is_reserved":false,"is_disabled":false,"rental_uris":{"android":"levelo://app?vid=84dc2dc8-69f2-4813-a36e-4d36b9136b36","ios":"levelo://app?vid=84dc2dc8-69f2-4813-a36e-4d36b9136b36"},"vehicle_type_id":"4","last_reported":1739812065,"current_range_meters":17200,"station_id":"ce4bhr12rcd13ifvqhqg","pricing_plan_id":"cebpf4jnsgd1na2vs0mg"},{"bike_id":"a81f047e-2602-4d29-8821-508c11538471","system_id":"levelo_inurba_marseille","lat":43.229354,"lon":5.353778,"is_reserved":false,"is_disabled":false,"rental_uris":{"android":"levelo://app?vid=a81f047e-2602-4d29-8821-508c11538471","ios":"levelo://app?vid=a81f047e-2602-4d29-8821-508c11538471"},"vehicle_type_id":"4","last_reported":1739812065,"current_range_meters":17600,"station_id":"cpo3532slgdg3j2ikp40","pricing_plan_id":"cebpf4jnsgd1na2vs0mg"},{"bike_id":"a5fe03d0-8995-45ba-b4fa-91cc42a80969","system_id":"levelo_inurba_marseille","lat":43.28281,"lon":5.35061,"is_reserved":false,"is_disabled":false,"rental_uris":{"android":"levelo://app?vid=a5fe03d0-8995-45ba-b4fa-91cc42a80969","ios":"levelo://app?vid=a5fe03d0-8995-45ba-b4fa-91cc42a80969"},"vehicle_type_id":"4","last_reported":1739812065,"current_range_meters":17600,"station_id":"","pricing_plan_id":"cebpf4jnsgd1na2vs0mg"},{"bike_id":"8011ff83-fda2-4ac2-819f-ecd50dd80360","system_id":"levelo_inurba_marseille","lat":43.32053,"lon":5.41542,"is_reserved":false,"is_disabled":false,"rental_uris":{"android":"levelo://app?vid=8011ff83-fda2-4ac2-819f-ecd50dd80360","ios":"levelo://app?vid=8011ff83-fda2-4ac2-819f-ecd50dd80360"},"vehicle_type_id":"4","last_reported":1739812065,"current_range_meters":17600,"station_id":"ce4bhq92rcd13ifvqhkg","pricing_plan_id":"cebpf4jnsgd1na2vs0mg"},{"bike_id":"aac23864-abbf-4655-a26e-cbc4126210ba","system_id":"levelo_inurba_marseille","lat":43.295715,"lon":5.399927,"is_reserved":false,"is_disabled":false,"rental_uris":{"android":"levelo://app?vid=aac23864-abbf-4655-a26e-cbc4126210ba","ios":"levelo://app?vid=aac23864-abbf-4655-a26e-cbc4126210ba"},"vehicle_type_id":"4","last_reported":1739812065,"current_range_meters":17600,"station_id":"ce4bh312rcd13ifvqdj0","pricing_plan_id":"cebpf4jnsgd1na2vs0mg"},{"bike_id":"47571b7b-5f27-43dd-a2cc-d48926c58063","system_id":"levelo_inurba_marseille","lat":43.30129,"lon":5.39883,"is_reserved":false,"is_disabled":false,"rental_uris":{"android":"levelo://app?vid=47571b7b-5f27-43dd-a2cc-d48926c58063","ios":"levelo://app?vid=47571b7b-5f27-43dd-a2cc-d48926c58063"},"vehicle_type_id":"4","last_reported":1739812065,"current_range_meters":18000,"station_id":"ce4bh0h2rcd13ifvqd40","pricing_plan_id":"cebpf4jnsgd1na2vs0mg"},{"bike_id":"9885c601-2cbe-4ea7-9b6c-479dc416387c","system_id":"levelo_inurba_marseille","lat":43.29891,"lon":5.43665,"is_reserved":false,"is_disabled":false,"rental_uris":{"android":"levelo://app?vid=9885c601-2cbe-4ea7-9b6c-479dc416387c","ios":"levelo://app?vid=9885c601-2cbe-4ea7-9b6c-479dc416387c"},"vehicle_type_id":"4","last_reported":1739812065,"current_range_meters":18000,"station_id":"ce4bhpp2rcd13ifvqhfg","pricing_plan_id":"cebpf4jnsgd1na2vs0mg"},{"bike_id":"2b78a580-f064-4192-a68d-8925275237ea","system_id":"levelo_inurba_marseille","lat":43.28275,"lon":5.35073,"is_reserved":false,"is_disabled":false,"rental_uris":{"android":"levelo://app?vid=2b78a580-f064-4192-a68d-8925275237ea","ios":"levelo://app?vid=2b78a580-f064-4192-a68d-8925275237ea"},"vehicle_type_id":"4","last_reported":1739812065,"current_range_meters":18000,"station_id":"ce4bhbp2rcd13ifvqerg","pricing_plan_id":"cebpf4jnsgd1na2vs0mg"},{"bike_id":"1b144307-f47d-433f-b2a7-817187d819c3","system_id":"levelo_inurba_marseille","lat":43.29071,"lon":5.37165,"is_reserved":false,"is_disabled":false,"rental_uris":{"android":"levelo://app?vid=1b144307-f47d-433f-b2a7-817187d819c3","ios":"levelo://app?vid=1b144307-f47d-433f-b2a7-817187d819c3"},"vehicle_type_id":"4","last_reported":1739812065,"current_range_meters":17600,"station_id":"ce4bh5p2rcd13ifvqe4g","pricing_plan_id":"cebpf4jnsgd1na2vs0mg"},{"bike_id":"7f239b80-080c-4216-8d97-8449b9813e5d","system_id":"levelo_inurba_marseille","lat":43.29074,"lon":5.37159,"is_reserved":false,"is_disabled":false,"rental_uris":{"android":"levelo://app?vid=7f239b80-080c-4216-8d97-8449b9813e5d","ios":"levelo://app?vid=7f239b80-080c-4216-8d97-8449b9813e5d"},"vehicle_type_id":"4","last_reported":1739812065,"current_range_meters":18000,"station_id":"ce4bh5p2rcd13ifvqe4g","pricing_plan_id":"cebpf4jnsgd1na2vs0mg"},{"bike_id":"249c3242-c47f-4bed-b30a-b7c16d724477","system_id":"levelo_inurba_marseille","lat":43.28155,"lon":5.42648,"is_reserved":false,"is_disabled":false,"rental_uris":{"android":"levelo://app?vid=249c3242-c47f-4bed-b30a-b7c16d724477","ios":"levelo://app?vid=249c3242-c47f-4bed-b30a-b7c16d724477"},"vehicle_type_id":"4","last_reported":1739812065,"current_range_meters":18000,"station_id":"","pricing_plan_id":"cebpf4jnsgd1na2vs0mg"},{"bike_id":"eccd8f50-0d44-405a-897c-7354c541adab","system_id":"levelo_inurba_marseille","lat":43.23187,"lon":5.3999,"is_reserved":false,"is_disabled":false,"rental_uris":{"android":"levelo://app?vid=eccd8f50-0d44-405a-897c-7354c541adab","ios":"levelo://app?vid=eccd8f50-0d44-405a-897c-7354c541adab"},"vehicle_type_id":"4","last_reported":1739812065,"current_range_meters":18000,"station_id":"ce4bhn12rcd13ifvqgqg","pricing_plan_id":"cebpf4jnsgd1na2vs0mg"},{"bike_id":"c36da817-8dc7-4129-86b4-f2f40234ec4e","system_id":"levelo_inurba_marseille","lat":43.30802,"lon":5.38139,"is_reserved":false,"is_disabled":false,"rental_uris":{"android":"levelo://app?vid=c36da817-8dc7-4129-86b4-f2f40234ec4e","ios":"levelo://app?vid=c36da817-8dc7-4129-86b4-f2f40234ec4e"},"vehicle_type_id":"4","last_reported":1739812065,"current_range_meters":18000,"station_id":"ce4bgt12rcd13ifvqce0","pricing_plan_id":"cebpf4jnsgd1na2vs0mg"},{"bike_id":"132a99df-ea1e-4e08-a3d1-bb8528869b65","system_id":"levelo_inurba_marseille","lat":43.29443,"lon":5.39741,"is_reserved":false,"is_disabled":false,"rental_uris":{"android":"levelo://app?vid=132a99df-ea1e-4e08-a3d1-bb8528869b65","ios":"levelo://app?vid=132a99df-ea1e-4e08-a3d1-bb8528869b65"},"vehicle_type_id":"4","last_reported":1739812065,"current_range_meters":16400,"station_id":"ce4bh3h2rcd13ifvqdo0","pricing_plan_id":"cebpf4jnsgd1na2vs0mg"},{"bike_id":"db90dd96-e348-4c68-ac8b-20428675b838","system_id":"levelo_inurba_marseille","lat":43.27185,"lon":5.40011,"is_reserved":false,"is_disabled":false,"rental_uris":{"android":"levelo://app?vid=db90dd96-e348-4c68-ac8b-20428675b838","ios":"levelo://app?vid=db90dd96-e348-4c68-ac8b-20428675b838"},"vehicle_type_id":"4","last_reported":1739812065,"current_range_meters":18000,"station_id":"","pricing_plan_id":"cebpf4jnsgd1na2vs0mg"},{"bike_id":"ffd81bdb-ad2a-483d-9bdd-9d1b08192da2","system_id":"levelo_inurba_marseille","lat":43.29876,"lon":5.3973,"is_reserved":false,"is_disabled":false,"rental_uris":{"android":"levelo://app?vid=ffd81bdb-ad2a-483d-9bdd-9d1b08192da2","ios":"levelo://app?vid=ffd81bdb-ad2a-483d-9bdd-9d1b08192da2"},"vehicle_type_id":"4","last_reported":1739812065,"current_range_meters":18000,"station_id":"ce4bh0h2rcd13ifvqd50","pricing_plan_id":"cebpf4jnsgd1na2vs0mg"},{"bike_id":"e4db6648-7ab7-414f-8776-1c9cf7bf85bb","system_id":"levelo_inurba_marseille","lat":43.2762,"lon":5.36105,"is_reserved":false,"is_disabled":false,"rental_uris":{"android":"levelo://app?vid=e4db6648-7ab7-414f-8776-1c9cf7bf85bb","ios":"levelo://app?vid=e4db6648-7ab7-414f-8776-1c9cf7bf85bb"},"vehicle_type_id":"4","last_reported":1739812065,"current_range_meters":18800,"station_id":"","pricing_plan_id":"cebpf4jnsgd1na2vs0mg"},{"bike_id":"75bedbbb-50db-4fa2-ab08-b4d7f701d0e6","system_id":"levelo_inurba_marseille","lat":43.27672,"lon":5.38881,"is_reserved":false,"is_disabled":false,"rental_uris":{"android":"levelo://app?vid=75bedbbb-50db-4fa2-ab08-b4d7f701d0e6","ios":"levelo://app?vid=75bedbbb-50db-4fa2-ab08-b4d7f701d0e6"},"vehicle_type_id":"4","last_reported":1739812065,"current_range_meters":18800,"station_id":"ce4bhi12rcd13ifvqfo0","pricing_plan_id":"cebpf4jnsgd1na2vs0mg"},{"bike_id":"91cbf23e-625e-494b-8a91-23259a23b15d","system_id":"levelo_inurba_marseille","lat":43.22933,"lon":5.35378,"is_reserved":false,"is_disabled":false,"rental_uris":{"android":"levelo://app?vid=91cbf23e-625e-494b-8a91-23259a23b15d","ios":"levelo://app?vid=91cbf23e-625e-494b-8a91-23259a23b15d"},"vehicle_type_id":"4","last_reported":1739812065,"current_range_meters":18800,"station_id":"cpo3532slgdg3j2ikp40","pricing_plan_id":"cebpf4jnsgd1na2vs0mg"},{"bike_id":"66bcdfdb-2327-402d-a1ea-728bbf59678f","system_id":"levelo_inurba_marseille","lat":43.28947,"lon":5.36412,"is_reserved":false,"is_disabled":false,"rental_uris":{"android":"levelo://app?vid=66bcdfdb-2327-402d-a1ea-728bbf59678f","ios":"levelo://app?vid=66bcdfdb-2327-402d-a1ea-728bbf59678f"},"vehicle_type_id":"4","last_reported":1739812065,"current_range_meters":18000,"station_id":"ce4bhc92rcd13ifvqetg","pricing_plan_id":"cebpf4jnsgd1na2vs0mg"},{"bike_id":"8796c4a1-cf69-4acb-819d-b56299eee9b7","system_id":"levelo_inurba_marseille","lat":43.33227,"lon":5.37923,"is_reserved":false,"is_disabled":false,"rental_uris":{"android":"levelo://app?vid=8796c4a1-cf69-4acb-819d-b56299eee9b7","ios":"levelo://app?vid=8796c4a1-cf69-4acb-819d-b56299eee9b7"},"vehicle_type_id":"4","last_reported":1739812065,"current_range_meters":18800,"station_id":"","pricing_plan_id":"cebpf4jnsgd1na2vs0mg"},{"bike_id":"9d75e686-ca7c-402c-b2a6-6cb50e8387f3","system_id":"levelo_inurba_marseille","lat":43.28836,"lon":5.35865,"is_reserved":false,"is_disabled":false,"rental_uris":{"android":"levelo://app?vid=9d75e686-ca7c-402c-b2a6-6cb50e8387f3","ios":"levelo://app?vid=9d75e686-ca7c-402c-b2a6-6cb50e8387f3"},"vehicle_type_id":"4","last_reported":1739812065,"current_range_meters":18800,"station_id":"ce4bhb12rcd13ifvqem0","pricing_plan_id":"cebpf4jnsgd1na2vs0mg"},{"bike_id":"954882ad-f997-48eb-8b49-af0b0b38bc7e","system_id":"levelo_inurba_marseille","lat":43.31064,"lon":5.36978,"is_reserved":false,"is_disabled":false,"rental_uris":{"android":"levelo://app?vid=954882ad-f997-48eb-8b49-af0b0b38bc7e","ios":"levelo://app?vid=954882ad-f997-48eb-8b49-af0b0b38bc7e"},"vehicle_type_id":"4","last_reported":1739812065,"current_range_meters":18800,"station_id":"","pricing_plan_id":"cebpf4jnsgd1na2vs0mg"},{"bike_id":"fc3d0e95-8796-49d4-9757-c2e320f1ae2d","system_id":"levelo_inurba_marseille","lat":43.30146,"lon":5.38086,"is_reserved":false,"is_disabled":true,"rental_uris":{"android":"levelo://app?vid=fc3d0e95-8796-49d4-9757-c2e320f1ae2d","ios":"levelo://app?vid=fc3d0e95-8796-49d4-9757-c2e320f1ae2d"},"vehicle_type_id":"4","last_reported":1739812065,"current_range_meters":17600,"station_id":"ce4bgjp2rcd13ifvqbh0","pricing_plan_id":"cebpf4jnsgd1na2vs0mg"},{"bike_id":"c5efa856-709e-4297-b09a-40263ea67577","system_id":"levelo_inurba_marseille","lat":43.291624,"lon":5.383001,"is_reserved":false,"is_disabled":false,"rental_uris":{"android":"levelo://app?vid=c5efa856-709e-4297-b09a-40263ea67577","ios":"levelo://app?vid=c5efa856-709e-4297-b09a-40263ea67577"},"vehicle_type_id":"4","last_reported":1739812065,"current_range_meters":18000,"station_id":"ce4bh612rcd13ifvqe6g","pricing_plan_id":"cebpf4jnsgd1na2vs0mg"},{"bike_id":"58a5c712-9d46-4329-afac-796b4051eca6","system_id":"levelo_inurba_marseille","lat":43.25015,"lon":5.38919,"is_reserved":false,"is_disabled":true,"rental_uris":{"android":"levelo://app?vid=58a5c712-9d46-4329-afac-796b4051eca6","ios":"levelo://app?vid=58a5c712-9d46-4329-afac-796b4051eca6"},"vehicle_type_id":"4","last_reported":1739812065,"current_range_meters":18800,"station_id":"ce4bhgp2rcd13ifvqfd0","pricing_plan_id":"cebpf4jnsgd1na2vs0mg"},{"bike_id":"44b1995c-03c7-4df1-b8a6-4a0ad58df5c2","system_id":"levelo_inurba_marseille","lat":43.2993,"lon":5.36551,"is_reserved":false,"is_disabled":false,"rental_uris":{"android":"levelo://app?vid=44b1995c-03c7-4df1-b8a6-4a0ad58df5c2","ios":"levelo://app?vid=44b1995c-03c7-4df1-b8a6-4a0ad58df5c2"},"vehicle_type_id":"4","last_reported":1739812065,"current_range_meters":18800,"station_id":"ce4bgm92rcd13ifvqbr0","pricing_plan_id":"cebpf4jnsgd1na2vs0mg"},{"bike_id":"e2f9fba6-fa77-491d-89c7-1f1924d04be4","system_id":"levelo_inurba_marseille","lat":43.29419,"lon":5.3863,"is_reserved":false,"is_disabled":false,"rental_uris":{"android":"levelo://app?vid=e2f9fba6-fa77-491d-89c7-1f1924d04be4","ios":"levelo://app?vid=e2f9fba6-fa77-491d-89c7-1f1924d04be4"},"vehicle_type_id":"4","last_reported":1739812065,"current_range_meters":19200,"station_id":"ce4bh2h2rcd13ifvqdh0","pricing_plan_id":"cebpf4jnsgd1na2vs0mg"},{"bike_id":"7312cda3-bba1-47e6-b097-bd447e567723","system_id":"levelo_inurba_marseille","lat":43.24071,"lon":5.37751,"is_reserved":false,"is_disabled":false,"rental_uris":{"android":"levelo://app?vid=7312cda3-bba1-47e6-b097-bd447e567723","ios":"levelo://app?vid=7312cda3-bba1-47e6-b097-bd447e567723"},"vehicle_type_id":"4","last_reported":1739812065,"current_range_meters":18800,"station_id":"ce4bhnp2rcd13ifvqgvg","pricing_plan_id":"cebpf4jnsgd1na2vs0mg"},{"bike_id":"eab31898-d3d3-4356-867b-a31aa919e6f7","system_id":"levelo_inurba_marseille","lat":43.27379,"lon":5.36262,"is_reserved":false,"is_disabled":false,"rental_uris":{"android":"levelo://app?vid=eab31898-d3d3-4356-867b-a31aa919e6f7","ios":"levelo://app?vid=eab31898-d3d3-4356-867b-a31aa919e6f7"},"vehicle_type_id":"4","last_reported":1739812065,"current_range_meters":18800,"station_id":"ce4bhbh2rcd13ifvqeo0","pricing_plan_id":"cebpf4jnsgd1na2vs0mg"},{"bike_id":"87e4e3d9-887e-4f25-bf58-279367bc8327","system_id":"levelo_inurba_marseille","lat":43.30665,"lon":5.40106,"is_reserved":false,"is_disabled":true,"rental_uris":{"android":"levelo://app?vid=87e4e3d9-887e-4f25-bf58-279367bc8327","ios":"levelo://app?vid=87e4e3d9-887e-4f25-bf58-279367bc8327"},"vehicle_type_id":"4","last_reported":1739812065,"current_range_meters":19200,"station_id":"ce4bh112rcd13ifvqda0","pricing_plan_id":"cebpf4jnsgd1na2vs0mg"},{"bike_id":"950461d3-a02e-4e1c-879c-e540cfb25abc","system_id":"levelo_inurba_marseille","lat":43.28997,"lon":5.3561,"is_reserved":false,"is_disabled":false,"rental_uris":{"android":"levelo://app?vid=950461d3-a02e-4e1c-879c-e540cfb25abc","ios":"levelo://app?vid=950461d3-a02e-4e1c-879c-e540cfb25abc"},"vehicle_type_id":"4","last_reported":1739812065,"current_range_meters":19200,"station_id":"ce4bhb92rcd13ifvqen0","pricing_plan_id":"cebpf4jnsgd1na2vs0mg"},{"bike_id":"ec7eb08a-1a7d-43c4-99f5-444e73b522c8","system_id":"levelo_inurba_marseille","lat":43.29897,"lon":5.43666,"is_reserved":false,"is_disabled":false,"rental_uris":{"android":"levelo://app?vid=ec7eb08a-1a7d-43c4-99f5-444e73b522c8","ios":"levelo://app?vid=ec7eb08a-1a7d-43c4-99f5-444e73b522c8"},"vehicle_type_id":"4","last_reported":1739812065,"current_range_meters":19200,"station_id":"ce4bhpp2rcd13ifvqhfg","pricing_plan_id":"cebpf4jnsgd1na2vs0mg"},{"bike_id":"42b24930-0b58-4b13-95de-70c79139f85a","system_id":"levelo_inurba_marseille","lat":43.285334,"lon":5.35045,"is_reserved":false,"is_disabled":false,"rental_uris":{"android":"levelo://app?vid=42b24930-0b58-4b13-95de-70c79139f85a","ios":"levelo://app?vid=42b24930-0b58-4b13-95de-70c79139f85a"},"vehicle_type_id":"4","last_reported":1739812065,"current_range_meters":19200,"station_id":"ce4bh0h2rcd13ifvqd40","pricing_plan_id":"cebpf4jnsgd1na2vs0mg"},{"bike_id":"a479a7d4-f0d2-4058-9154-ed47f47e33ac","system_id":"levelo_inurba_marseille","lat":43.2846,"lon":5.35891,"is_reserved":false,"is_disabled":false,"rental_uris":{"android":"levelo://app?vid=a479a7d4-f0d2-4058-9154-ed47f47e33ac","ios":"levelo://app?vid=a479a7d4-f0d2-4058-9154-ed47f47e33ac"},"vehicle_type_id":"4","last_reported":1739812065,"current_range_meters":19200,"station_id":"ce4bhah2rcd13ifvqei0","pricing_plan_id":"cebpf4jnsgd1na2vs0mg"},{"bike_id":"1129ec66-bba0-417b-a8e8-8f5d9dd16838","system_id":"levelo_inurba_marseille","lat":43.26936,"lon":5.38897,"is_reserved":false,"is_disabled":false,"rental_uris":{"android":"levelo://app?vid=1129ec66-bba0-417b-a8e8-8f5d9dd16838","ios":"levelo://app?vid=1129ec66-bba0-417b-a8e8-8f5d9dd16838"},"vehicle_type_id":"4","last_reported":1739812065,"current_range_meters":19200,"station_id":"ce4bhh92rcd13ifvqfh0","pricing_plan_id":"cebpf4jnsgd1na2vs0mg"},{"bike_id":"5b9bee3f-8111-4fa9-b02b-c43612940302","system_id":"levelo_inurba_marseille","lat":43.269775,"lon":5.387413,"is_reserved":false,"is_disabled":false,"rental_uris":{"android":"levelo://app?vid=5b9bee3f-8111-4fa9-b02b-c43612940302","ios":"levelo://app?vid=5b9bee3f-8111-4fa9-b02b-c43612940302"},"vehicle_type_id":"4","last_reported":1739812065,"current_range_meters":19600,"station_id":"ce4bhh92rcd13ifvqfh0","pricing_plan_id":"cebpf4jnsgd1na2vs0mg"},{"bike_id":"6dda2f23-46bb-4bc4-9193-80a071d223c9","system_id":"levelo_inurba_marseille","lat":43.30623,"lon":5.3674,"is_reserved":false,"is_disabled":false,"rental_uris":{"android":"levelo://app?vid=6dda2f23-46bb-4bc4-9193-80a071d223c9","ios":"levelo://app?vid=6dda2f23-46bb-4bc4-9193-80a071d223c9"},"vehicle_type_id":"4","last_reported":1739812065,"current_range_meters":19600,"station_id":"","pricing_plan_id":"cebpf4jnsgd1na2vs0mg"},{"bike_id":"5d9f75d7-ea2d-49cd-aa32-3c186580dce1","system_id":"levelo_inurba_marseille","lat":43.2862,"lon":5.35106,"is_reserved":false,"is_disabled":false,"rental_uris":{"android":"levelo://app?vid=5d9f75d7-ea2d-49cd-aa32-3c186580dce1","ios":"levelo://app?vid=5d9f75d7-ea2d-49cd-aa32-3c186580dce1"},"vehicle_type_id":"4","last_reported":1739812065,"current_range_meters":19600,"station_id":"","pricing_plan_id":"cebpf4jnsgd1na2vs0mg"},{"bike_id":"5c3e56f9-b7df-4b47-b1a7-e9fb85099b05","system_id":"levelo_inurba_marseille","lat":43.24546,"lon":5.39517,"is_reserved":false,"is_disabled":false,"rental_uris":{"android":"levelo://app?vid=5c3e56f9-b7df-4b47-b1a7-e9fb85099b05","ios":"levelo://app?vid=5c3e56f9-b7df-4b47-b1a7-e9fb85099b05"},"vehicle_type_id":"4","last_reported":1739812065,"current_range_meters":19600,"station_id":"ce4bhlp2rcd13ifvqgjg","pricing_plan_id":"cebpf4jnsgd1na2vs0mg"},{"bike_id":"4a91b333-6a77-4577-8ba1-05a7eb488c3f","system_id":"levelo_inurba_marseille","lat":43.3033,"lon":5.40427,"is_reserved":false,"is_disabled":false,"rental_uris":{"android":"levelo://app?vid=4a91b333-6a77-4577-8ba1-05a7eb488c3f","ios":"levelo://app?vid=4a91b333-6a77-4577-8ba1-05a7eb488c3f"},"vehicle_type_id":"4","last_reported":1739812065,"current_range_meters":19200,"station_id":"ce4bh012rcd13ifvqd10","pricing_plan_id":"cebpf4jnsgd1na2vs0mg"},{"bike_id":"25ea9eec-29d9-4063-8007-929ebb2d1ef2","system_id":"levelo_inurba_marseille","lat":43.25499,"lon":5.37652,"is_reserved":false,"is_disabled":false,"rental_uris":{"android":"levelo://app?vid=25ea9eec-29d9-4063-8007-929ebb2d1ef2","ios":"levelo://app?vid=25ea9eec-29d9-4063-8007-929ebb2d1ef2"},"vehicle_type_id":"4","last_reported":1739812065,"current_range_meters":19600,"station_id":"ce4bhh12rcd13ifvqff0","pricing_plan_id":"cebpf4jnsgd1na2vs0mg"},{"bike_id":"3a582d70-b23f-4aa8-bb69-d9d4a3eb0ba1","system_id":"levelo_inurba_marseille","lat":43.33716,"lon":5.39206,"is_reserved":false,"is_disabled":true,"rental_uris":{"android":"levelo://app?vid=3a582d70-b23f-4aa8-bb69-d9d4a3eb0ba1","ios":"levelo://app?vid=3a582d70-b23f-4aa8-bb69-d9d4a3eb0ba1"},"vehicle_type_id":"4","last_reported":1739812065,"current_range_meters":19600,"station_id":"ce4bhr92rcd13ifvqhsg","pricing_plan_id":"cebpf4jnsgd1na2vs0mg"},{"bike_id":"a0cb7617-98bc-4987-912a-05bc308b0128","system_id":"levelo_inurba_marseille","lat":43.27918,"lon":5.3958,"is_reserved":false,"is_disabled":false,"rental_uris":{"android":"levelo://app?vid=a0cb7617-98bc-4987-912a-05bc308b0128","ios":"levelo://app?vid=a0cb7617-98bc-4987-912a-05bc308b0128"},"vehicle_type_id":"4","last_reported":1739812065,"current_range_meters":20000,"station_id":"ce4bhf92rcd13ifvqf40","pricing_plan_id":"cebpf4jnsgd1na2vs0mg"},{"bike_id":"dd91866e-bfab-436b-8c20-1f77e4f73900","system_id":"levelo_inurba_marseille","lat":43.28271,"lon":5.35082,"is_reserved":false,"is_disabled":false,"rental_uris":{"android":"levelo://app?vid=dd91866e-bfab-436b-8c20-1f77e4f73900","ios":"levelo://app?vid=dd91866e-bfab-436b-8c20-1f77e4f73900"},"vehicle_type_id":"4","last_reported":1739812065,"current_range_meters":20000,"station_id":"","pricing_plan_id":"cebpf4jnsgd1na2vs0mg"},{"bike_id":"d1922c18-e5f8-427c-82ec-cf6054c1ee95","system_id":"levelo_inurba_marseille","lat":43.29909,"lon":5.37467,"is_reserved":false,"is_disabled":false,"rental_uris":{"android":"levelo://app?vid=d1922c18-e5f8-427c-82ec-cf6054c1ee95","ios":"levelo://app?vid=d1922c18-e5f8-427c-82ec-cf6054c1ee95"},"vehicle_type_id":"4","last_reported":1739812065,"current_range_meters":20000,"station_id":"ce4bgjh2rcd13ifvqbg0","pricing_plan_id":"cebpf4jnsgd1na2vs0mg"},{"bike_id":"f0e2c869-0c33-4143-90f4-0cf127b5e11f","system_id":"levelo_inurba_marseille","lat":43.26214,"lon":5.37441,"is_reserved":false,"is_disabled":false,"rental_uris":{"android":"levelo://app?vid=f0e2c869-0c33-4143-90f4-0cf127b5e11f","ios":"levelo://app?vid=f0e2c869-0c33-4143-90f4-0cf127b5e11f"},"vehicle_type_id":"4","last_reported":1739812065,"current_range_meters":20000,"station_id":"ce4bhgp2rcd13ifvqfc0","pricing_plan_id":"cebpf4jnsgd1na2vs0mg"},{"bike_id":"f285e585-4b3f-4b0e-9560-55b6dc71fe40","system_id":"levelo_inurba_marseille","lat":43.296238,"lon":5.377013,"is_reserved":false,"is_disabled":false,"rental_uris":{"android":"levelo://app?vid=f285e585-4b3f-4b0e-9560-55b6dc71fe40","ios":"levelo://app?vid=f285e585-4b3f-4b0e-9560-55b6dc71fe40"},"vehicle_type_id":"4","last_reported":1739812065,"current_range_meters":20800,"station_id":"chh1huq6cuj3fo74tm60","pricing_plan_id":"cebpf4jnsgd1na2vs0mg"},{"bike_id":"9c1b10b5-87e3-48a5-af60-1646ac5f1b94","system_id":"levelo_inurba_marseille","lat":43.30658,"lon":5.40083,"is_reserved":false,"is_disabled":false,"rental_uris":{"android":"levelo://app?vid=9c1b10b5-87e3-48a5-af60-1646ac5f1b94","ios":"levelo://app?vid=9c1b10b5-87e3-48a5-af60-1646ac5f1b94"},"vehicle_type_id":"4","last_reported":1739812065,"current_range_meters":20000,"station_id":"ce4bh112rcd13ifvqda0","pricing_plan_id":"cebpf4jnsgd1na2vs0mg"},{"bike_id":"e2a9dfad-5eb9-42ff-b5fb-0048bf1fcaa9","system_id":"levelo_inurba_marseille","lat":43.30805,"lon":5.38142,"is_reserved":false,"is_disabled":false,"rental_uris":{"android":"levelo://app?vid=e2a9dfad-5eb9-42ff-b5fb-0048bf1fcaa9","ios":"levelo://app?vid=e2a9dfad-5eb9-42ff-b5fb-0048bf1fcaa9"},"vehicle_type_id":"4","last_reported":1739812065,"current_range_meters":20400,"station_id":"ce4bgt12rcd13ifvqce0","pricing_plan_id":"cebpf4jnsgd1na2vs0mg"},{"bike_id":"be0a564d-378f-45d9-a8ff-a6d7af662c05","system_id":"levelo_inurba_marseille","lat":43.29309,"lon":5.37175,"is_reserved":false,"is_disabled":false,"rental_uris":{"android":"levelo://app?vid=be0a564d-378f-45d9-a8ff-a6d7af662c05","ios":"levelo://app?vid=be0a564d-378f-45d9-a8ff-a6d7af662c05"},"vehicle_type_id":"4","last_reported":1739812065,"current_range_meters":20400,"station_id":"ce4bgh92rcd13ifvqb40","pricing_plan_id":"cebpf4jnsgd1na2vs0mg"},{"bike_id":"fbf7c1c7-066d-4263-8c1c-23390f21800d","system_id":"levelo_inurba_marseille","lat":43.31487,"lon":5.37312,"is_reserved":false,"is_disabled":false,"rental_uris":{"android":"levelo://app?vid=fbf7c1c7-066d-4263-8c1c-23390f21800d","ios":"levelo://app?vid=fbf7c1c7-066d-4263-8c1c-23390f21800d"},"vehicle_type_id":"4","last_reported":1739812065,"current_range_meters":23200,"station_id":"ce4bgt12rcd13ifvqcd0","pricing_plan_id":"cebpf4jnsgd1na2vs0mg"},{"bike_id":"2a7c81d1-5269-4ac0-948e-73ccae2cee26","system_id":"levelo_inurba_marseille","lat":43.24807,"lon":5.37461,"is_reserved":false,"is_disabled":false,"rental_uris":{"android":"levelo://app?vid=2a7c81d1-5269-4ac0-948e-73ccae2cee26","ios":"levelo://app?vid=2a7c81d1-5269-4ac0-948e-73ccae2cee26"},"vehicle_type_id":"4","last_reported":1739812065,"current_range_meters":20000,"station_id":"ce4bhgh2rcd13ifvqfb0","pricing_plan_id":"cebpf4jnsgd1na2vs0mg"},{"bike_id":"1d63a175-89ef-49ff-9ead-dfe9ed6c22cf","system_id":"levelo_inurba_marseille","lat":43.24697,"lon":5.39422,"is_reserved":false,"is_disabled":false,"rental_uris":{"android":"levelo://app?vid=1d63a175-89ef-49ff-9ead-dfe9ed6c22cf","ios":"levelo://app?vid=1d63a175-89ef-49ff-9ead-dfe9ed6c22cf"},"vehicle_type_id":"4","last_reported":1739812065,"current_range_meters":20400,"station_id":"","pricing_plan_id":"cebpf4jnsgd1na2vs0mg"},{"bike_id":"2f625957-ba34-4285-9a7e-68dcb9c6e102","system_id":"levelo_inurba_marseille","lat":43.28922,"lon":5.38397,"is_reserved":false,"is_disabled":false,"rental_uris":{"android":"levelo://app?vid=2f625957-ba34-4285-9a7e-68dcb9c6e102","ios":"levelo://app?vid=2f625957-ba34-4285-9a7e-68dcb9c6e102"},"vehicle_type_id":"4","last_reported":1739812065,"current_range_meters":20000,"station_id":"ce4bh612rcd13ifvqe6g","pricing_plan_id":"cebpf4jnsgd1na2vs0mg"},{"bike_id":"0e596a58-c97b-45f2-bfd4-8bdce4ffd929","system_id":"levelo_inurba_marseille","lat":43.33027,"lon":5.39039,"is_reserved":false,"is_disabled":false,"rental_uris":{"android":"levelo://app?vid=0e596a58-c97b-45f2-bfd4-8bdce4ffd929","ios":"levelo://app?vid=0e596a58-c97b-45f2-bfd4-8bdce4ffd929"},"vehicle_type_id":"4","last_reported":1739812065,"current_range_meters":20400,"station_id":"ce4bhr92rcd13ifvqhrg","pricing_plan_id":"cebpf4jnsgd1na2vs0mg"},{"bike_id":"3729a70c-2df1-41fd-bd86-df90078771c3","system_id":"levelo_inurba_marseille","lat":43.30587,"lon":5.39349,"is_reserved":false,"is_disabled":false,"rental_uris":{"android":"levelo://app?vid=3729a70c-2df1-41fd-bd86-df90078771c3","ios":"levelo://app?vid=3729a70c-2df1-41fd-bd86-df90078771c3"},"vehicle_type_id":"4","last_reported":1739812065,"current_range_meters":20400,"station_id":"ce4bh0p2rcd13ifvqd80","pricing_plan_id":"cebpf4jnsgd1na2vs0mg"},{"bike_id":"02aa40ed-200f-4e21-9187-05cf59f179aa","system_id":"levelo_inurba_marseille","lat":43.28379,"lon":5.38636,"is_reserved":false,"is_disabled":false,"rental_uris":{"android":"levelo://app?vid=02aa40ed-200f-4e21-9187-05cf59f179aa","ios":"levelo://app?vid=02aa40ed-200f-4e21-9187-05cf59f179aa"},"vehicle_type_id":"4","last_reported":1739812065,"current_range_meters":20800,"station_id":"ce4bh492rcd13ifvqdvg","pricing_plan_id":"cebpf4jnsgd1na2vs0mg"},{"bike_id":"cdb027a0-b875-4ada-92c3-2d2168720582","system_id":"levelo_inurba_marseille","lat":43.28271,"lon":5.35054,"is_reserved":false,"is_disabled":true,"rental_uris":{"android":"levelo://app?vid=cdb027a0-b875-4ada-92c3-2d2168720582","ios":"levelo://app?vid=cdb027a0-b875-4ada-92c3-2d2168720582"},"vehicle_type_id":"4","last_reported":1739812065,"current_range_meters":20400,"station_id":"ce4bhbp2rcd13ifvqerg","pricing_plan_id":"cebpf4jnsgd1na2vs0mg"},{"bike_id":"4885205b-f891-4788-b6ce-48c32449d93e","system_id":"levelo_inurba_marseille","lat":43.27971,"lon":5.38724,"is_reserved":false,"is_disabled":false,"rental_uris":{"android":"levelo://app?vid=4885205b-f891-4788-b6ce-48c32449d93e","ios":"levelo://app?vid=4885205b-f891-4788-b6ce-48c32449d93e"},"vehicle_type_id":"4","last_reported":1739812065,"current_range_meters":20400,"station_id":"ce4bhg12rcd13ifvqf80","pricing_plan_id":"cebpf4jnsgd1na2vs0mg"},{"bike_id":"ef4f6a2e-8025-4dde-a751-dced4ee9b2f1","system_id":"levelo_inurba_marseille","lat":43.28619,"lon":5.35104,"is_reserved":false,"is_disabled":false,"rental_uris":{"android":"levelo://app?vid=ef4f6a2e-8025-4dde-a751-dced4ee9b2f1","ios":"levelo://app?vid=ef4f6a2e-8025-4dde-a751-dced4ee9b2f1"},"vehicle_type_id":"4","last_reported":1739812065,"current_range_meters":20800,"station_id":"ce4bhch2rcd13ifvqeug","pricing_plan_id":"cebpf4jnsgd1na2vs0mg"},{"bike_id":"01bcb0eb-2551-49d3-851a-458307ee8941","system_id":"levelo_inurba_marseille","lat":43.28073,"lon":5.3966,"is_reserved":false,"is_disabled":false,"rental_uris":{"android":"levelo://app?vid=01bcb0eb-2551-49d3-851a-458307ee8941","ios":"levelo://app?vid=01bcb0eb-2551-49d3-851a-458307ee8941"},"vehicle_type_id":"4","last_reported":1739812065,"current_range_meters":20800,"station_id":"ce4bho12rcd13ifvqh2g","pricing_plan_id":"cebpf4jnsgd1na2vs0mg"},{"bike_id":"795850c1-154b-40f0-b64c-d35acaa1861d","system_id":"levelo_inurba_marseille","lat":43.25005,"lon":5.3893,"is_reserved":false,"is_disabled":false,"rental_uris":{"android":"levelo://app?vid=795850c1-154b-40f0-b64c-d35acaa1861d","ios":"levelo://app?vid=795850c1-154b-40f0-b64c-d35acaa1861d"},"vehicle_type_id":"4","last_reported":1739812065,"current_range_meters":20800,"station_id":"ce4bhgp2rcd13ifvqfd0","pricing_plan_id":"cebpf4jnsgd1na2vs0mg"},{"bike_id":"d429a340-5499-4f75-95be-d9cf84c86984","system_id":"levelo_inurba_marseille","lat":43.29605,"lon":5.37731,"is_reserved":false,"is_disabled":false,"rental_uris":{"android":"levelo://app?vid=d429a340-5499-4f75-95be-d9cf84c86984","ios":"levelo://app?vid=d429a340-5499-4f75-95be-d9cf84c86984"},"vehicle_type_id":"4","last_reported":1739812065,"current_range_meters":20800,"station_id":"","pricing_plan_id":"cebpf4jnsgd1na2vs0mg"},{"bike_id":"5626338a-4144-48ad-b662-8be5f9612acf","system_id":"levelo_inurba_marseille","lat":43.29299,"lon":5.40571,"is_reserved":false,"is_disabled":false,"rental_uris":{"android":"levelo://app?vid=5626338a-4144-48ad-b662-8be5f9612acf","ios":"levelo://app?vid=5626338a-4144-48ad-b662-8be5f9612acf"},"vehicle_type_id":"4","last_reported":1739812065,"current_range_meters":20800,"station_id":"ce4bh192rcd13ifvqdc0","pricing_plan_id":"cebpf4jnsgd1na2vs0mg"},{"bike_id":"31b11567-024a-4586-a13c-ff0a96b05ee7","system_id":"levelo_inurba_marseille","lat":43.27378,"lon":5.36255,"is_reserved":false,"is_disabled":false,"rental_uris":{"android":"levelo://app?vid=31b11567-024a-4586-a13c-ff0a96b05ee7","ios":"levelo://app?vid=31b11567-024a-4586-a13c-ff0a96b05ee7"},"vehicle_type_id":"4","last_reported":1739812065,"current_range_meters":20000,"station_id":"ce4bhbh2rcd13ifvqeo0","pricing_plan_id":"cebpf4jnsgd1na2vs0mg"},{"bike_id":"8bb37dac-9523-4ae7-a040-c9f860a6eeb0","system_id":"levelo_inurba_marseille","lat":43.291981,"lon":5.393321,"is_reserved":false,"is_disabled":false,"rental_uris":{"android":"levelo://app?vid=8bb37dac-9523-4ae7-a040-c9f860a6eeb0","ios":"levelo://app?vid=8bb37dac-9523-4ae7-a040-c9f860a6eeb0"},"vehicle_type_id":"4","last_reported":1739812065,"current_range_meters":20800,"station_id":"ce4bgkh2rcd13ifvqbk0","pricing_plan_id":"cebpf4jnsgd1na2vs0mg"},{"bike_id":"f0376bed-5806-4a78-89e0-cc8934556f71","system_id":"levelo_inurba_marseille","lat":43.30324,"lon":5.40445,"is_reserved":false,"is_disabled":false,"rental_uris":{"android":"levelo://app?vid=f0376bed-5806-4a78-89e0-cc8934556f71","ios":"levelo://app?vid=f0376bed-5806-4a78-89e0-cc8934556f71"},"vehicle_type_id":"4","last_reported":1739812065,"current_range_meters":20800,"station_id":"ce4bh012rcd13ifvqd10","pricing_plan_id":"cebpf4jnsgd1na2vs0mg"},{"bike_id":"a5177627-5050-44e3-a967-f8d73710031c","system_id":"levelo_inurba_marseille","lat":43.28479,"lon":5.38556,"is_reserved":false,"is_disabled":false,"rental_uris":{"android":"levelo://app?vid=a5177627-5050-44e3-a967-f8d73710031c","ios":"levelo://app?vid=a5177627-5050-44e3-a967-f8d73710031c"},"vehicle_type_id":"4","last_reported":1739812065,"current_range_meters":20800,"station_id":"ce4bh8p2rcd13ifvqeb0","pricing_plan_id":"cebpf4jnsgd1na2vs0mg"},{"bike_id":"6b82bce0-13ad-4dd1-9d01-4d410903d917","system_id":"levelo_inurba_marseille","lat":43.24387,"lon":5.37057,"is_reserved":false,"is_disabled":false,"rental_uris":{"android":"levelo://app?vid=6b82bce0-13ad-4dd1-9d01-4d410903d917","ios":"levelo://app?vid=6b82bce0-13ad-4dd1-9d01-4d410903d917"},"vehicle_type_id":"4","last_reported":1739812065,"current_range_meters":21600,"station_id":"ce4bhhh2rcd13ifvqfk0","pricing_plan_id":"cebpf4jnsgd1na2vs0mg"},{"bike_id":"fef786f8-664e-4ead-bf16-ed3a0201a824","system_id":"levelo_inurba_marseille","lat":43.31469,"lon":5.3731,"is_reserved":false,"is_disabled":false,"rental_uris":{"android":"levelo://app?vid=fef786f8-664e-4ead-bf16-ed3a0201a824","ios":"levelo://app?vid=fef786f8-664e-4ead-bf16-ed3a0201a824"},"vehicle_type_id":"4","last_reported":1739812065,"current_range_meters":20800,"station_id":"ce4bgt12rcd13ifvqcd0","pricing_plan_id":"cebpf4jnsgd1na2vs0mg"},{"bike_id":"c6cd3678-ab7a-40a7-b11f-8cb1ce0a3e37","system_id":"levelo_inurba_marseille","lat":43.27615,"lon":5.36109,"is_reserved":false,"is_disabled":false,"rental_uris":{"android":"levelo://app?vid=c6cd3678-ab7a-40a7-b11f-8cb1ce0a3e37","ios":"levelo://app?vid=c6cd3678-ab7a-40a7-b11f-8cb1ce0a3e37"},"vehicle_type_id":"4","last_reported":1739812065,"current_range_meters":21600,"station_id":"ce4bgj92rcd13ifvqbe0","pricing_plan_id":"cebpf4jnsgd1na2vs0mg"},{"bike_id":"0d9012e7-857a-4980-8e25-51e3eff850e8","system_id":"levelo_inurba_marseille","lat":43.32664,"lon":5.41003,"is_reserved":false,"is_disabled":false,"rental_uris":{"android":"levelo://app?vid=0d9012e7-857a-4980-8e25-51e3eff850e8","ios":"levelo://app?vid=0d9012e7-857a-4980-8e25-51e3eff850e8"},