{"last_updated":1767863913,"ttl":60,"version":"2.2","data":{"bikes":[{"bike_id":"0527719c-8389-4c55-b680-f88d7ac119a0","system_id":"levelo_inurba_marseille","lat":43.27188,"lon":5.41012,"is_reserved":false,"is_disabled":false,"rental_uris":{"android":"levelo://app?vid=0527719c-8389-4c55-b680-f88d7ac119a0","ios":"levelo://app?vid=0527719c-8389-4c55-b680-f88d7ac119a0"},"vehicle_type_id":"4","last_reported":1767863914,"current_range_meters":2800,"station_id":"ce4bhl12rcd13ifvqgf0","pricing_plan_id":"cebpf4jnsgd1na2vs0mg"},{"bike_id":"3d1288d7-3924-4694-a00c-d4566ba73ff3","system_id":"levelo_inurba_marseille","lat":43.27685,"lon":5.3889,"is_reserved":false,"is_disabled":false,"rental_uris":{"android":"levelo://app?vid=3d1288d7-3924-4694-a00c-d4566ba73ff3","ios":"levelo://app?vid=3d1288d7-3924-4694-a00c-d4566ba73ff3"},"vehicle_type_id":"4","last_reported":1767863914,"current_range_meters":2800,"station_id":"ce4bhi12rcd13ifvqfo0","pricing_plan_id":"cebpf4jnsgd1na2vs0mg"},{"bike_id":"ee33983f-10d1-4d63-8bde-105556f6242d","system_id":"levelo_inurba_marseille","lat":43.26189,"lon":5.37917,"is_reserved":false,"is_disabled":false,"rental_uris":{"android":"levelo://app?vid=ee33983f-10d1-4d63-8bde-105556f6242d","ios":"levelo://app?vid=ee33983f-10d1-4d63-8bde-105556f6242d"},"vehicle_type_id":"4","last_reported":1767863914,"current_range_meters":2800,"station_id":"ce4bhjp2rcd13ifvqg90","pricing_plan_id":"cebpf4jnsgd1na2vs0mg"},{"bike_id":"a16a3f90-b415-4847-8fba-9084cdcbc7ab","system_id":"levelo_inurba_marseille","lat":43.312294,"lon":5.368405,"is_reserved":false,"is_disabled":false,"rental_uris":{"android":"levelo://app?vid=a16a3f90-b415-4847-8fba-9084cdcbc7ab","ios":"levelo://app?vid=a16a3f90-b415-4847-8fba-9084cdcbc7ab"},"vehicle_type_id":"4","last_reported":1767863914,"current_range_meters":2800,"station_id":"ce4bgl92rcd13ifvqbq0","pricing_plan_id":"cebpf4jnsgd1na2vs0mg"},{"bike_id":"e90f7184-cd39-4bc0-805c-9ce2c7183400","system_id":"levelo_inurba_marseille","lat":43.262124,"lon":5.379246,"is_reserved":false,"is_disabled":false,"rental_uris":{"android":"levelo://app?vid=e90f7184-cd39-4bc0-805c-9ce2c7183400","ios":"levelo://app?vid=e90f7184-cd39-4bc0-805c-9ce2c7183400"},"vehicle_type_id":"4","last_reported":1767863914,"current_range_meters":2800,"station_id":"ce4bhjp2rcd13ifvqg90","pricing_plan_id":"cebpf4jnsgd1na2vs0mg"},{"bike_id":"b4852293-e062-4808-a5e1-e7087325f663","system_id":"levelo_inurba_marseille","lat":43.2848,"lon":5.38427,"is_reserved":false,"is_disabled":false,"rental_uris":{"android":"levelo://app?vid=b4852293-e062-4808-a5e1-e7087325f663","ios":"levelo://app?vid=b4852293-e062-4808-a5e1-e7087325f663"},"vehicle_type_id":"4","last_reported":1767863914,"current_range_meters":2800,"station_id":"ce4bh512rcd13ifvqe3g","pricing_plan_id":"cebpf4jnsgd1na2vs0mg"},{"bike_id":"222badfd-5695-4c5f-8b12-a4274837eb6d","system_id":"levelo_inurba_marseille","lat":43.26232,"lon":5.40467,"is_reserved":false,"is_disabled":false,"rental_uris":{"android":"levelo://app?vid=222badfd-5695-4c5f-8b12-a4274837eb6d","ios":"levelo://app?vid=222badfd-5695-4c5f-8b12-a4274837eb6d"},"vehicle_type_id":"4","last_reported":1767863914,"current_range_meters":2800,"station_id":"ce4bhmh2rcd13ifvqgmg","pricing_plan_id":"cebpf4jnsgd1na2vs0mg"},{"bike_id":"12006a34-fa7b-4ab1-a813-14406173c0b3","system_id":"levelo_inurba_marseille","lat":43.29068,"lon":5.37187,"is_reserved":false,"is_disabled":false,"rental_uris":{"android":"levelo://app?vid=12006a34-fa7b-4ab1-a813-14406173c0b3","ios":"levelo://app?vid=12006a34-fa7b-4ab1-a813-14406173c0b3"},"vehicle_type_id":"4","last_reported":1767863914,"current_range_meters":3200,"station_id":"ce4bh5p2rcd13ifvqe4g","pricing_plan_id":"cebpf4jnsgd1na2vs0mg"},{"bike_id":"6174981e-bed3-4bbe-a3fa-13b0fcc75de4","system_id":"levelo_inurba_marseille","lat":43.23143,"lon":5.43712,"is_reserved":false,"is_disabled":true,"rental_uris":{"android":"levelo://app?vid=6174981e-bed3-4bbe-a3fa-13b0fcc75de4","ios":"levelo://app?vid=6174981e-bed3-4bbe-a3fa-13b0fcc75de4"},"vehicle_type_id":"4","last_reported":1767863914,"current_range_meters":3200,"station_id":"","pricing_plan_id":"cebpf4jnsgd1na2vs0mg"},{"bike_id":"26471476-0788-4cdb-9b4d-9f0b3e686ab5","system_id":"levelo_inurba_marseille","lat":43.31571,"lon":5.37235,"is_reserved":false,"is_disabled":false,"rental_uris":{"android":"levelo://app?vid=26471476-0788-4cdb-9b4d-9f0b3e686ab5","ios":"levelo://app?vid=26471476-0788-4cdb-9b4d-9f0b3e686ab5"},"vehicle_type_id":"4","last_reported":1767863914,"current_range_meters":3200,"station_id":"","pricing_plan_id":"cebpf4jnsgd1na2vs0mg"},{"bike_id":"273d98d8-16ff-4b69-861b-0aa1773f3e40","system_id":"levelo_inurba_marseille","lat":43.3172,"lon":5.40411,"is_reserved":false,"is_disabled":true,"rental_uris":{"android":"levelo://app?vid=273d98d8-16ff-4b69-861b-0aa1773f3e40","ios":"levelo://app?vid=273d98d8-16ff-4b69-861b-0aa1773f3e40"},"vehicle_type_id":"4","last_reported":1767863914,"current_range_meters":3200,"station_id":"ce4bh012rcd13ifvqd00","pricing_plan_id":"cebpf4jnsgd1na2vs0mg"},{"bike_id":"50892942-e148-4953-b5de-00677a9bcf5f","system_id":"levelo_inurba_marseille","lat":43.29185,"lon":5.39321,"is_reserved":false,"is_disabled":false,"rental_uris":{"android":"levelo://app?vid=50892942-e148-4953-b5de-00677a9bcf5f","ios":"levelo://app?vid=50892942-e148-4953-b5de-00677a9bcf5f"},"vehicle_type_id":"4","last_reported":1767863914,"current_range_meters":3200,"station_id":"ce4bh192rcd13ifvqdd0","pricing_plan_id":"cebpf4jnsgd1na2vs0mg"},{"bike_id":"981b08da-1591-4bc5-8cbf-5fc2322552dd","system_id":"levelo_inurba_marseille","lat":43.29029,"lon":5.38647,"is_reserved":false,"is_disabled":false,"rental_uris":{"android":"levelo://app?vid=981b08da-1591-4bc5-8cbf-5fc2322552dd","ios":"levelo://app?vid=981b08da-1591-4bc5-8cbf-5fc2322552dd"},"vehicle_type_id":"4","last_reported":1767863914,"current_range_meters":3200,"station_id":"ce4bh4p2rcd13ifvqe0g","pricing_plan_id":"cebpf4jnsgd1na2vs0mg"},{"bike_id":"c0974b57-9dd9-4106-9f9d-c06f70834371","system_id":"levelo_inurba_marseille","lat":43.30133,"lon":5.37409,"is_reserved":false,"is_disabled":false,"rental_uris":{"android":"levelo://app?vid=c0974b57-9dd9-4106-9f9d-c06f70834371","ios":"levelo://app?vid=c0974b57-9dd9-4106-9f9d-c06f70834371"},"vehicle_type_id":"4","last_reported":1767863914,"current_range_meters":3600,"station_id":"ce4bgs92rcd13ifvqcc0","pricing_plan_id":"cebpf4jnsgd1na2vs0mg"},{"bike_id":"392514f8-9a36-43a5-9b89-e2ab1d47c731","system_id":"levelo_inurba_marseille","lat":43.268905,"lon":5.403776,"is_reserved":false,"is_disabled":false,"rental_uris":{"android":"levelo://app?vid=392514f8-9a36-43a5-9b89-e2ab1d47c731","ios":"levelo://app?vid=392514f8-9a36-43a5-9b89-e2ab1d47c731"},"vehicle_type_id":"4","last_reported":1767863914,"current_range_meters":3600,"station_id":"","pricing_plan_id":"cebpf4jnsgd1na2vs0mg"},{"bike_id":"5b2e276c-1928-4f1c-91ca-45e6321dc6ce","system_id":"levelo_inurba_marseille","lat":43.2796,"lon":5.38747,"is_reserved":false,"is_disabled":false,"rental_uris":{"android":"levelo://app?vid=5b2e276c-1928-4f1c-91ca-45e6321dc6ce","ios":"levelo://app?vid=5b2e276c-1928-4f1c-91ca-45e6321dc6ce"},"vehicle_type_id":"4","last_reported":1767863914,"current_range_meters":3600,"station_id":"ce4bhg12rcd13ifvqf80","pricing_plan_id":"cebpf4jnsgd1na2vs0mg"},{"bike_id":"067ca337-309a-4444-a755-1124e864d8c9","system_id":"levelo_inurba_marseille","lat":43.29513,"lon":5.39396,"is_reserved":false,"is_disabled":true,"rental_uris":{"android":"levelo://app?vid=067ca337-309a-4444-a755-1124e864d8c9","ios":"levelo://app?vid=067ca337-309a-4444-a755-1124e864d8c9"},"vehicle_type_id":"4","last_reported":1767863914,"current_range_meters":3600,"station_id":"ce4bh292rcd13ifvqdf0","pricing_plan_id":"cebpf4jnsgd1na2vs0mg"},{"bike_id":"f323eec5-f654-4bdf-8118-8c8db52565b4","system_id":"levelo_inurba_marseille","lat":43.28497,"lon":5.38662,"is_reserved":false,"is_disabled":false,"rental_uris":{"android":"levelo://app?vid=f323eec5-f654-4bdf-8118-8c8db52565b4","ios":"levelo://app?vid=f323eec5-f654-4bdf-8118-8c8db52565b4"},"vehicle_type_id":"4","last_reported":1767863914,"current_range_meters":3600,"station_id":"","pricing_plan_id":"cebpf4jnsgd1na2vs0mg"},{"bike_id":"bfcd740d-9b07-46bb-a7f4-a5bd89651e18","system_id":"levelo_inurba_marseille","lat":43.292575,"lon":5.409116,"is_reserved":false,"is_disabled":false,"rental_uris":{"android":"levelo://app?vid=bfcd740d-9b07-46bb-a7f4-a5bd89651e18","ios":"levelo://app?vid=bfcd740d-9b07-46bb-a7f4-a5bd89651e18"},"vehicle_type_id":"4","last_reported":1767863914,"current_range_meters":4000,"station_id":"ce4bh192rcd13ifvqdc0","pricing_plan_id":"cebpf4jnsgd1na2vs0mg"},{"bike_id":"c0c8695a-5dc1-437f-a20b-09acef88b652","system_id":"levelo_inurba_marseille","lat":43.28247,"lon":5.352,"is_reserved":false,"is_disabled":false,"rental_uris":{"android":"levelo://app?vid=c0c8695a-5dc1-437f-a20b-09acef88b652","ios":"levelo://app?vid=c0c8695a-5dc1-437f-a20b-09acef88b652"},"vehicle_type_id":"4","last_reported":1767863914,"current_range_meters":4000,"station_id":"","pricing_plan_id":"cebpf4jnsgd1na2vs0mg"},{"bike_id":"e2de6e33-136a-4b50-9bee-761873cb6ead","system_id":"levelo_inurba_marseille","lat":43.26073,"lon":5.39385,"is_reserved":false,"is_disabled":false,"rental_uris":{"android":"levelo://app?vid=e2de6e33-136a-4b50-9bee-761873cb6ead","ios":"levelo://app?vid=e2de6e33-136a-4b50-9bee-761873cb6ead"},"vehicle_type_id":"4","last_reported":1767863914,"current_range_meters":4000,"station_id":"ce4bhh92rcd13ifvqfj0","pricing_plan_id":"cebpf4jnsgd1na2vs0mg"},{"bike_id":"6ab38413-b79a-4c5b-9d76-57adb79b4b48","system_id":"levelo_inurba_marseille","lat":43.30136,"lon":5.37405,"is_reserved":false,"is_disabled":false,"rental_uris":{"android":"levelo://app?vid=6ab38413-b79a-4c5b-9d76-57adb79b4b48","ios":"levelo://app?vid=6ab38413-b79a-4c5b-9d76-57adb79b4b48"},"vehicle_type_id":"4","last_reported":1767863914,"current_range_meters":4000,"station_id":"ce4bgs92rcd13ifvqcc0","pricing_plan_id":"cebpf4jnsgd1na2vs0mg"},{"bike_id":"f96412fb-997e-42d9-b749-fc2d5aec351b","system_id":"levelo_inurba_marseille","lat":43.323693,"lon":5.38885,"is_reserved":false,"is_disabled":false,"rental_uris":{"android":"levelo://app?vid=f96412fb-997e-42d9-b749-fc2d5aec351b","ios":"levelo://app?vid=f96412fb-997e-42d9-b749-fc2d5aec351b"},"vehicle_type_id":"4","last_reported":1767863914,"current_range_meters":4000,"station_id":"ce4bhqp2rcd13ifvqhog","pricing_plan_id":"cebpf4jnsgd1na2vs0mg"},{"bike_id":"a7e8b4f8-15c7-4593-b8a1-1dc1d30ad189","system_id":"levelo_inurba_marseille","lat":43.32053,"lon":5.38408,"is_reserved":false,"is_disabled":false,"rental_uris":{"android":"levelo://app?vid=a7e8b4f8-15c7-4593-b8a1-1dc1d30ad189","ios":"levelo://app?vid=a7e8b4f8-15c7-4593-b8a1-1dc1d30ad189"},"vehicle_type_id":"4","last_reported":1767863914,"current_range_meters":4000,"station_id":"","pricing_plan_id":"cebpf4jnsgd1na2vs0mg"},{"bike_id":"152aa108-9258-4e77-b145-11b11dc11b9a","system_id":"levelo_inurba_marseille","lat":43.290949,"lon":5.381116,"is_reserved":false,"is_disabled":false,"rental_uris":{"android":"levelo://app?vid=152aa108-9258-4e77-b145-11b11dc11b9a","ios":"levelo://app?vid=152aa108-9258-4e77-b145-11b11dc11b9a"},"vehicle_type_id":"4","last_reported":1767863914,"current_range_meters":4000,"station_id":"ce4bh512rcd13ifvqe2g","pricing_plan_id":"cebpf4jnsgd1na2vs0mg"},{"bike_id":"8f8477b6-07ed-4fdd-aa03-c89764869fff","system_id":"levelo_inurba_marseille","lat":43.297674,"lon":5.381075,"is_reserved":false,"is_disabled":false,"rental_uris":{"android":"levelo://app?vid=8f8477b6-07ed-4fdd-aa03-c89764869fff","ios":"levelo://app?vid=8f8477b6-07ed-4fdd-aa03-c89764869fff"},"vehicle_type_id":"4","last_reported":1767863914,"current_range_meters":4000,"station_id":"ce4bgip2rcd13ifvqbb0","pricing_plan_id":"cebpf4jnsgd1na2vs0mg"},{"bike_id":"95829d7f-c87b-420d-8adf-19dc54871611","system_id":"levelo_inurba_marseille","lat":43.26688,"lon":5.38289,"is_reserved":false,"is_disabled":false,"rental_uris":{"android":"levelo://app?vid=95829d7f-c87b-420d-8adf-19dc54871611","ios":"levelo://app?vid=95829d7f-c87b-420d-8adf-19dc54871611"},"vehicle_type_id":"4","last_reported":1767863914,"current_range_meters":4000,"station_id":"ce4bhg92rcd13ifvqf90","pricing_plan_id":"cebpf4jnsgd1na2vs0mg"},{"bike_id":"7c611586-cddd-467a-89a9-81893b7126ea","system_id":"levelo_inurba_marseille","lat":43.30314,"lon":5.36889,"is_reserved":false,"is_disabled":false,"rental_uris":{"android":"levelo://app?vid=7c611586-cddd-467a-89a9-81893b7126ea","ios":"levelo://app?vid=7c611586-cddd-467a-89a9-81893b7126ea"},"vehicle_type_id":"4","last_reported":1767863914,"current_range_meters":4000,"station_id":"ce4bgqh2rcd13ifvqc5g","pricing_plan_id":"cebpf4jnsgd1na2vs0mg"},{"bike_id":"dd8cdbaa-c414-4136-a415-a859fcf9d7b4","system_id":"levelo_inurba_marseille","lat":43.325379,"lon":5.414403,"is_reserved":false,"is_disabled":false,"rental_uris":{"android":"levelo://app?vid=dd8cdbaa-c414-4136-a415-a859fcf9d7b4","ios":"levelo://app?vid=dd8cdbaa-c414-4136-a415-a859fcf9d7b4"},"vehicle_type_id":"4","last_reported":1767863914,"current_range_meters":4400,"station_id":"ce4bhq12rcd13ifvqhhg","pricing_plan_id":"cebpf4jnsgd1na2vs0mg"},{"bike_id":"0622f7c5-ee76-4fc8-a5df-57e2aa3c0085","system_id":"levelo_inurba_marseille","lat":43.29937,"lon":5.38075,"is_reserved":false,"is_disabled":false,"rental_uris":{"android":"levelo://app?vid=0622f7c5-ee76-4fc8-a5df-57e2aa3c0085","ios":"levelo://app?vid=0622f7c5-ee76-4fc8-a5df-57e2aa3c0085"},"vehicle_type_id":"4","last_reported":1767863914,"current_range_meters":4400,"station_id":"","pricing_plan_id":"cebpf4jnsgd1na2vs0mg"},{"bike_id":"772bf3b5-2fb2-4abd-a529-fdf3012df8cc","system_id":"levelo_inurba_marseille","lat":43.25191,"lon":5.40595,"is_reserved":false,"is_disabled":false,"rental_uris":{"android":"levelo://app?vid=772bf3b5-2fb2-4abd-a529-fdf3012df8cc","ios":"levelo://app?vid=772bf3b5-2fb2-4abd-a529-fdf3012df8cc"},"vehicle_type_id":"4","last_reported":1767863914,"current_range_meters":4400,"station_id":"","pricing_plan_id":"cebpf4jnsgd1na2vs0mg"},{"bike_id":"138edadd-eb1a-4b60-9d89-5db13b009bd1","system_id":"levelo_inurba_marseille","lat":43.25931,"lon":5.40942,"is_reserved":false,"is_disabled":false,"rental_uris":{"android":"levelo://app?vid=138edadd-eb1a-4b60-9d89-5db13b009bd1","ios":"levelo://app?vid=138edadd-eb1a-4b60-9d89-5db13b009bd1"},"vehicle_type_id":"4","last_reported":1767863914,"current_range_meters":4400,"station_id":"ce4bhm92rcd13ifvqglg","pricing_plan_id":"cebpf4jnsgd1na2vs0mg"},{"bike_id":"3506de36-9430-417e-8757-5c2389365999","system_id":"levelo_inurba_marseille","lat":43.29013,"lon":5.35595,"is_reserved":false,"is_disabled":false,"rental_uris":{"android":"levelo://app?vid=3506de36-9430-417e-8757-5c2389365999","ios":"levelo://app?vid=3506de36-9430-417e-8757-5c2389365999"},"vehicle_type_id":"4","last_reported":1767863914,"current_range_meters":4400,"station_id":"ce4bhb92rcd13ifvqen0","pricing_plan_id":"cebpf4jnsgd1na2vs0mg"},{"bike_id":"ce52b8f8-9066-45a8-8b05-34bc7d40a28f","system_id":"levelo_inurba_marseille","lat":43.284118,"lon":5.349969,"is_reserved":false,"is_disabled":false,"rental_uris":{"android":"levelo://app?vid=ce52b8f8-9066-45a8-8b05-34bc7d40a28f","ios":"levelo://app?vid=ce52b8f8-9066-45a8-8b05-34bc7d40a28f"},"vehicle_type_id":"4","last_reported":1767863914,"current_range_meters":4400,"station_id":"ce4bhbh2rcd13ifvqepg","pricing_plan_id":"cebpf4jnsgd1na2vs0mg"},{"bike_id":"35c3cbbb-0469-478d-b4da-bfb159e2f13b","system_id":"levelo_inurba_marseille","lat":43.259239,"lon":5.408785,"is_reserved":false,"is_disabled":true,"rental_uris":{"android":"levelo://app?vid=35c3cbbb-0469-478d-b4da-bfb159e2f13b","ios":"levelo://app?vid=35c3cbbb-0469-478d-b4da-bfb159e2f13b"},"vehicle_type_id":"4","last_reported":1767863914,"current_range_meters":4400,"station_id":"ce4bhm92rcd13ifvqglg","pricing_plan_id":"cebpf4jnsgd1na2vs0mg"},{"bike_id":"ffd3e781-5d7a-402d-b3cd-fe187c01f227","system_id":"levelo_inurba_marseille","lat":43.29163,"lon":5.40241,"is_reserved":false,"is_disabled":false,"rental_uris":{"android":"levelo://app?vid=ffd3e781-5d7a-402d-b3cd-fe187c01f227","ios":"levelo://app?vid=ffd3e781-5d7a-402d-b3cd-fe187c01f227"},"vehicle_type_id":"4","last_reported":1767863914,"current_range_meters":4400,"station_id":"","pricing_plan_id":"cebpf4jnsgd1na2vs0mg"},{"bike_id":"ff8302a9-d32b-4626-86db-b5e36f362cd5","system_id":"levelo_inurba_marseille","lat":43.33759,"lon":5.374523,"is_reserved":false,"is_disabled":false,"rental_uris":{"android":"levelo://app?vid=ff8302a9-d32b-4626-86db-b5e36f362cd5","ios":"levelo://app?vid=ff8302a9-d32b-4626-86db-b5e36f362cd5"},"vehicle_type_id":"4","last_reported":1767863914,"current_range_meters":4400,"station_id":"","pricing_plan_id":"cebpf4jnsgd1na2vs0mg"},{"bike_id":"392adbc5-a319-4a46-ae85-71ba9fec83be","system_id":"levelo_inurba_marseille","lat":43.265738,"lon":5.390153,"is_reserved":false,"is_disabled":false,"rental_uris":{"android":"levelo://app?vid=392adbc5-a319-4a46-ae85-71ba9fec83be","ios":"levelo://app?vid=392adbc5-a319-4a46-ae85-71ba9fec83be"},"vehicle_type_id":"4","last_reported":1767863914,"current_range_meters":4400,"station_id":"ce4bhe12rcd13ifvqf30","pricing_plan_id":"cebpf4jnsgd1na2vs0mg"},{"bike_id":"67d11be0-e6fc-45cf-9510-ea8c0226d011","system_id":"levelo_inurba_marseille","lat":43.298236,"lon":5.44071,"is_reserved":false,"is_disabled":true,"rental_uris":{"android":"levelo://app?vid=67d11be0-e6fc-45cf-9510-ea8c0226d011","ios":"levelo://app?vid=67d11be0-e6fc-45cf-9510-ea8c0226d011"},"vehicle_type_id":"4","last_reported":1767863914,"current_range_meters":4400,"station_id":"st_d3jp68qikq2c7381ktn0","pricing_plan_id":"cebpf4jnsgd1na2vs0mg"},{"bike_id":"98249e23-d727-42e2-bc64-1013f35aedc9","system_id":"levelo_inurba_marseille","lat":43.23057,"lon":5.35503,"is_reserved":false,"is_disabled":false,"rental_uris":{"android":"levelo://app?vid=98249e23-d727-42e2-bc64-1013f35aedc9","ios":"levelo://app?vid=98249e23-d727-42e2-bc64-1013f35aedc9"},"vehicle_type_id":"4","last_reported":1767863914,"current_range_meters":4800,"station_id":"cpo3342slgdg3j2ifvpg","pricing_plan_id":"cebpf4jnsgd1na2vs0mg"},{"bike_id":"3cab5084-314a-4ac7-8e10-1255d6e07f7a","system_id":"levelo_inurba_marseille","lat":43.297779,"lon":5.371139,"is_reserved":false,"is_disabled":true,"rental_uris":{"android":"levelo://app?vid=3cab5084-314a-4ac7-8e10-1255d6e07f7a","ios":"levelo://app?vid=3cab5084-314a-4ac7-8e10-1255d6e07f7a"},"vehicle_type_id":"4","last_reported":1767863914,"current_range_meters":4800,"station_id":"ce4bgop2rcd13ifvqc1g","pricing_plan_id":"cebpf4jnsgd1na2vs0mg"},{"bike_id":"796165dd-6233-4b3e-bc69-5c2707fdcdd0","system_id":"levelo_inurba_marseille","lat":43.25506,"lon":5.37645,"is_reserved":false,"is_disabled":false,"rental_uris":{"android":"levelo://app?vid=796165dd-6233-4b3e-bc69-5c2707fdcdd0","ios":"levelo://app?vid=796165dd-6233-4b3e-bc69-5c2707fdcdd0"},"vehicle_type_id":"4","last_reported":1767863914,"current_range_meters":4800,"station_id":"ce4bhh12rcd13ifvqff0","pricing_plan_id":"cebpf4jnsgd1na2vs0mg"},{"bike_id":"5b1bbe69-3233-4137-97a4-f344155b8199","system_id":"levelo_inurba_marseille","lat":43.31341,"lon":5.36732,"is_reserved":false,"is_disabled":false,"rental_uris":{"android":"levelo://app?vid=5b1bbe69-3233-4137-97a4-f344155b8199","ios":"levelo://app?vid=5b1bbe69-3233-4137-97a4-f344155b8199"},"vehicle_type_id":"4","last_reported":1767863914,"current_range_meters":4800,"station_id":"ce4bgr92rcd13ifvqc6g","pricing_plan_id":"cebpf4jnsgd1na2vs0mg"},{"bike_id":"44833d54-0e08-4546-b788-0c7150b05378","system_id":"levelo_inurba_marseille","lat":43.28478,"lon":5.48396,"is_reserved":false,"is_disabled":false,"rental_uris":{"android":"levelo://app?vid=44833d54-0e08-4546-b788-0c7150b05378","ios":"levelo://app?vid=44833d54-0e08-4546-b788-0c7150b05378"},"vehicle_type_id":"4","last_reported":1767863914,"current_range_meters":4800,"station_id":"st_d3svhcjqgbts73a3dn0g","pricing_plan_id":"cebpf4jnsgd1na2vs0mg"},{"bike_id":"fffde8b6-3aa4-41a2-8c3b-c3c99d3c49f0","system_id":"levelo_inurba_marseille","lat":43.30215,"lon":5.39469,"is_reserved":false,"is_disabled":false,"rental_uris":{"android":"levelo://app?vid=fffde8b6-3aa4-41a2-8c3b-c3c99d3c49f0","ios":"levelo://app?vid=fffde8b6-3aa4-41a2-8c3b-c3c99d3c49f0"},"vehicle_type_id":"4","last_reported":1767863914,"current_range_meters":4800,"station_id":"ce4bh0p2rcd13ifvqd70","pricing_plan_id":"cebpf4jnsgd1na2vs0mg"},{"bike_id":"d0d67774-3af3-4c86-b7b6-8109c321647b","system_id":"levelo_inurba_marseille","lat":43.22935,"lon":5.35388,"is_reserved":false,"is_disabled":false,"rental_uris":{"android":"levelo://app?vid=d0d67774-3af3-4c86-b7b6-8109c321647b","ios":"levelo://app?vid=d0d67774-3af3-4c86-b7b6-8109c321647b"},"vehicle_type_id":"4","last_reported":1767863914,"current_range_meters":4800,"station_id":"cpo3532slgdg3j2ikp40","pricing_plan_id":"cebpf4jnsgd1na2vs0mg"},{"bike_id":"0adcdd55-edfd-43da-a75e-6fca26c7e1e7","system_id":"levelo_inurba_marseille","lat":43.29601,"lon":5.38103,"is_reserved":false,"is_disabled":false,"rental_uris":{"android":"levelo://app?vid=0adcdd55-edfd-43da-a75e-6fca26c7e1e7","ios":"levelo://app?vid=0adcdd55-edfd-43da-a75e-6fca26c7e1e7"},"vehicle_type_id":"4","last_reported":1767863914,"current_range_meters":4800,"station_id":"ce4bgl12rcd13ifvqbo0","pricing_plan_id":"cebpf4jnsgd1na2vs0mg"},{"bike_id":"f9694d4b-6e2f-4fc5-ae06-59dad6b1ea4d","system_id":"levelo_inurba_marseille","lat":43.25012,"lon":5.3753,"is_reserved":false,"is_disabled":false,"rental_uris":{"android":"levelo://app?vid=f9694d4b-6e2f-4fc5-ae06-59dad6b1ea4d","ios":"levelo://app?vid=f9694d4b-6e2f-4fc5-ae06-59dad6b1ea4d"},"vehicle_type_id":"4","last_reported":1767863914,"current_range_meters":5600,"station_id":"","pricing_plan_id":"cebpf4jnsgd1na2vs0mg"},{"bike_id":"948bd2ed-8fdc-4ef6-9827-a943cc835e12","system_id":"levelo_inurba_marseille","lat":43.301212,"lon":5.431092,"is_reserved":false,"is_disabled":false,"rental_uris":{"android":"levelo://app?vid=948bd2ed-8fdc-4ef6-9827-a943cc835e12","ios":"levelo://app?vid=948bd2ed-8fdc-4ef6-9827-a943cc835e12"},"vehicle_type_id":"4","last_reported":1767863914,"current_range_meters":5600,"station_id":"st_d3js3co5814s73ftftug","pricing_plan_id":"cebpf4jnsgd1na2vs0mg"},{"bike_id":"b149c117-98ef-4c38-aceb-298ce1f4a106","system_id":"levelo_inurba_marseille","lat":43.30775,"lon":5.37644,"is_reserved":false,"is_disabled":false,"rental_uris":{"android":"levelo://app?vid=b149c117-98ef-4c38-aceb-298ce1f4a106","ios":"levelo://app?vid=b149c117-98ef-4c38-aceb-298ce1f4a106"},"vehicle_type_id":"4","last_reported":1767863914,"current_range_meters":5600,"station_id":"ce4bgv92rcd13ifvqcq0","pricing_plan_id":"cebpf4jnsgd1na2vs0mg"},{"bike_id":"79667f5f-f964-463f-b186-556ae4895c76","system_id":"levelo_inurba_marseille","lat":43.331532,"lon":5.376577,"is_reserved":false,"is_disabled":false,"rental_uris":{"android":"levelo://app?vid=79667f5f-f964-463f-b186-556ae4895c76","ios":"levelo://app?vid=79667f5f-f964-463f-b186-556ae4895c76"},"vehicle_type_id":"4","last_reported":1767863914,"current_range_meters":5600,"station_id":"st_d46cu089ee8s73dldbu0","pricing_plan_id":"cebpf4jnsgd1na2vs0mg"},{"bike_id":"0076bf2a-ba6e-491e-990e-dad36b9a258b","system_id":"levelo_inurba_marseille","lat":43.30452,"lon":5.38908,"is_reserved":false,"is_disabled":false,"rental_uris":{"android":"levelo://app?vid=0076bf2a-ba6e-491e-990e-dad36b9a258b","ios":"levelo://app?vid=0076bf2a-ba6e-491e-990e-dad36b9a258b"},"vehicle_type_id":"4","last_reported":1767863914,"current_range_meters":5600,"station_id":"ce4bgk12rcd13ifvqbi0","pricing_plan_id":"cebpf4jnsgd1na2vs0mg"},{"bike_id":"4db89cd4-c5c0-4b0d-9bc8-e5c1ff64bca0","system_id":"levelo_inurba_marseille","lat":43.29595,"lon":5.38127,"is_reserved":false,"is_disabled":true,"rental_uris":{"android":"levelo://app?vid=4db89cd4-c5c0-4b0d-9bc8-e5c1ff64bca0","ios":"levelo://app?vid=4db89cd4-c5c0-4b0d-9bc8-e5c1ff64bca0"},"vehicle_type_id":"4","last_reported":1767863914,"current_range_meters":5600,"station_id":"ce4bgl12rcd13ifvqbo0","pricing_plan_id":"cebpf4jnsgd1na2vs0mg"},{"bike_id":"e6c0eae0-312d-4e4b-b304-90bb818bda1a","system_id":"levelo_inurba_marseille","lat":43.302502,"lon":5.400787,"is_reserved":false,"is_disabled":false,"rental_uris":{"android":"levelo://app?vid=e6c0eae0-312d-4e4b-b304-90bb818bda1a","ios":"levelo://app?vid=e6c0eae0-312d-4e4b-b304-90bb818bda1a"},"vehicle_type_id":"4","last_reported":1767863914,"current_range_meters":5600,"station_id":"ce4bgvh2rcd13ifvqcs0","pricing_plan_id":"cebpf4jnsgd1na2vs0mg"},{"bike_id":"70d379a8-abba-4ccf-92c9-bd3c2b92777f","system_id":"levelo_inurba_marseille","lat":43.259376,"lon":5.409102,"is_reserved":false,"is_disabled":false,"rental_uris":{"android":"levelo://app?vid=70d379a8-abba-4ccf-92c9-bd3c2b92777f","ios":"levelo://app?vid=70d379a8-abba-4ccf-92c9-bd3c2b92777f"},"vehicle_type_id":"4","last_reported":1767863914,"current_range_meters":5600,"station_id":"ce4bghh2rcd13ifvqb60","pricing_plan_id":"cebpf4jnsgd1na2vs0mg"},{"bike_id":"3f5246f8-4448-4f80-a625-2af386f29c54","system_id":"levelo_inurba_marseille","lat":43.305971,"lon":5.37224,"is_reserved":false,"is_disabled":false,"rental_uris":{"android":"levelo://app?vid=3f5246f8-4448-4f80-a625-2af386f29c54","ios":"levelo://app?vid=3f5246f8-4448-4f80-a625-2af386f29c54"},"vehicle_type_id":"4","last_reported":1767863914,"current_range_meters":5600,"station_id":"ce4bgqh2rcd13ifvqc4g","pricing_plan_id":"cebpf4jnsgd1na2vs0mg"},{"bike_id":"cb85a0c8-91d1-4ec6-9391-cb8576a2629d","system_id":"levelo_inurba_marseille","lat":43.30548,"lon":5.36538,"is_reserved":false,"is_disabled":false,"rental_uris":{"android":"levelo://app?vid=cb85a0c8-91d1-4ec6-9391-cb8576a2629d","ios":"levelo://app?vid=cb85a0c8-91d1-4ec6-9391-cb8576a2629d"},"vehicle_type_id":"4","last_reported":1767863914,"current_range_meters":5600,"station_id":"ce4bgs12rcd13ifvqcag","pricing_plan_id":"cebpf4jnsgd1na2vs0mg"},{"bike_id":"f6c1d545-d8df-48a4-b906-098a561f57c6","system_id":"levelo_inurba_marseille","lat":43.2949,"lon":5.43318,"is_reserved":false,"is_disabled":false,"rental_uris":{"android":"levelo://app?vid=f6c1d545-d8df-48a4-b906-098a561f57c6","ios":"levelo://app?vid=f6c1d545-d8df-48a4-b906-098a561f57c6"},"vehicle_type_id":"4","last_reported":1767863914,"current_range_meters":6000,"station_id":"st_d3j5ugp08ojc73fj9d10","pricing_plan_id":"cebpf4jnsgd1na2vs0mg"},{"bike_id":"6780348f-fb93-4884-95fc-676ab6258ce9","system_id":"levelo_inurba_marseille","lat":43.2706,"lon":5.38315,"is_reserved":false,"is_disabled":false,"rental_uris":{"android":"levelo://app?vid=6780348f-fb93-4884-95fc-676ab6258ce9","ios":"levelo://app?vid=6780348f-fb93-4884-95fc-676ab6258ce9"},"vehicle_type_id":"4","last_reported":1767863914,"current_range_meters":6000,"station_id":"st_d3n2fo6cfp8s73cte1j0","pricing_plan_id":"cebpf4jnsgd1na2vs0mg"},{"bike_id":"b0ac5b41-30f6-4d9c-b2f3-bb4511dadadd","system_id":"levelo_inurba_marseille","lat":43.3031,"lon":5.36903,"is_reserved":false,"is_disabled":false,"rental_uris":{"android":"levelo://app?vid=b0ac5b41-30f6-4d9c-b2f3-bb4511dadadd","ios":"levelo://app?vid=b0ac5b41-30f6-4d9c-b2f3-bb4511dadadd"},"vehicle_type_id":"4","last_reported":1767863914,"current_range_meters":6000,"station_id":"ce4bgqh2rcd13ifvqc5g","pricing_plan_id":"cebpf4jnsgd1na2vs0mg"},{"bike_id":"318ab7ee-cd4e-4fbb-a198-dc67360e53a7","system_id":"levelo_inurba_marseille","lat":43.22915,"lon":5.35394,"is_reserved":false,"is_disabled":false,"rental_uris":{"android":"levelo://app?vid=318ab7ee-cd4e-4fbb-a198-dc67360e53a7","ios":"levelo://app?vid=318ab7ee-cd4e-4fbb-a198-dc67360e53a7"},"vehicle_type_id":"4","last_reported":1767863914,"current_range_meters":6000,"station_id":"cpo3532slgdg3j2ikp40","pricing_plan_id":"cebpf4jnsgd1na2vs0mg"},{"bike_id":"18e0d77d-7632-47a2-a5a7-23581d7e8069","system_id":"levelo_inurba_marseille","lat":43.28944,"lon":5.36628,"is_reserved":false,"is_disabled":false,"rental_uris":{"android":"levelo://app?vid=18e0d77d-7632-47a2-a5a7-23581d7e8069","ios":"levelo://app?vid=18e0d77d-7632-47a2-a5a7-23581d7e8069"},"vehicle_type_id":"4","last_reported":1767863914,"current_range_meters":6000,"station_id":"ce4bhap2rcd13ifvqek0","pricing_plan_id":"cebpf4jnsgd1na2vs0mg"},{"bike_id":"a9182ab3-9abf-4e5f-ab82-cb067396a0ff","system_id":"levelo_inurba_marseille","lat":43.26671,"lon":5.38265,"is_reserved":false,"is_disabled":false,"rental_uris":{"android":"levelo://app?vid=a9182ab3-9abf-4e5f-ab82-cb067396a0ff","ios":"levelo://app?vid=a9182ab3-9abf-4e5f-ab82-cb067396a0ff"},"vehicle_type_id":"4","last_reported":1767863914,"current_range_meters":6000,"station_id":"ce4bhg92rcd13ifvqf90","pricing_plan_id":"cebpf4jnsgd1na2vs0mg"},{"bike_id":"f9c5ab9c-a39d-4362-98f8-8ffc37dfdade","system_id":"levelo_inurba_marseille","lat":43.30249,"lon":5.40078,"is_reserved":false,"is_disabled":false,"rental_uris":{"android":"levelo://app?vid=f9c5ab9c-a39d-4362-98f8-8ffc37dfdade","ios":"levelo://app?vid=f9c5ab9c-a39d-4362-98f8-8ffc37dfdade"},"vehicle_type_id":"4","last_reported":1767863914,"current_range_meters":6000,"station_id":"ce4bgvh2rcd13ifvqcs0","pricing_plan_id":"cebpf4jnsgd1na2vs0mg"},{"bike_id":"5a1d2e57-5bd8-472e-a477-c88d25152819","system_id":"levelo_inurba_marseille","lat":43.2256,"lon":5.4164,"is_reserved":false,"is_disabled":false,"rental_uris":{"android":"levelo://app?vid=5a1d2e57-5bd8-472e-a477-c88d25152819","ios":"levelo://app?vid=5a1d2e57-5bd8-472e-a477-c88d25152819"},"vehicle_type_id":"4","last_reported":1767863914,"current_range_meters":6000,"station_id":"st_d2o4gvlbi1j2169b742g","pricing_plan_id":"cebpf4jnsgd1na2vs0mg"},{"bike_id":"8e9cd320-222e-4849-8f3f-db8fcd5c5954","system_id":"levelo_inurba_marseille","lat":43.31806,"lon":5.36849,"is_reserved":false,"is_disabled":false,"rental_uris":{"android":"levelo://app?vid=8e9cd320-222e-4849-8f3f-db8fcd5c5954","ios":"levelo://app?vid=8e9cd320-222e-4849-8f3f-db8fcd5c5954"},"vehicle_type_id":"4","last_reported":1767863914,"current_range_meters":6000,"station_id":"","pricing_plan_id":"cebpf4jnsgd1na2vs0mg"},{"bike_id":"1e840e48-92c5-4f82-ad09-849a4f3818b9","system_id":"levelo_inurba_marseille","lat":43.28974,"lon":5.37873,"is_reserved":false,"is_disabled":false,"rental_uris":{"android":"levelo://app?vid=1e840e48-92c5-4f82-ad09-849a4f3818b9","ios":"levelo://app?vid=1e840e48-92c5-4f82-ad09-849a4f3818b9"},"vehicle_type_id":"4","last_reported":1767863914,"current_range_meters":6000,"station_id":"ce4bh9p2rcd13ifvqed0","pricing_plan_id":"cebpf4jnsgd1na2vs0mg"},{"bike_id":"d75a90cd-5dce-4bdd-84ef-6b9526859b57","system_id":"levelo_inurba_marseille","lat":43.324891,"lon":5.382968,"is_reserved":false,"is_disabled":false,"rental_uris":{"android":"levelo://app?vid=d75a90cd-5dce-4bdd-84ef-6b9526859b57","ios":"levelo://app?vid=d75a90cd-5dce-4bdd-84ef-6b9526859b57"},"vehicle_type_id":"4","last_reported":1767863914,"current_range_meters":6000,"station_id":"st_d4asgbiv49dc73anf9m0","pricing_plan_id":"cebpf4jnsgd1na2vs0mg"},{"bike_id":"9b9e7c0d-8b05-4d0a-9b2e-71cd579eefc9","system_id":"levelo_inurba_marseille","lat":43.32342,"lon":5.36741,"is_reserved":false,"is_disabled":false,"rental_uris":{"android":"levelo://app?vid=9b9e7c0d-8b05-4d0a-9b2e-71cd579eefc9","ios":"levelo://app?vid=9b9e7c0d-8b05-4d0a-9b2e-71cd579eefc9"},"vehicle_type_id":"4","last_reported":1767863914,"current_range_meters":6000,"station_id":"ce4bhsh2rcd13ifvqi2g","pricing_plan_id":"cebpf4jnsgd1na2vs0mg"},{"bike_id":"32cd8bdd-5f00-4222-be95-54500c9310ff","system_id":"levelo_inurba_marseille","lat":43.28411,"lon":5.35017,"is_reserved":false,"is_disabled":false,"rental_uris":{"android":"levelo://app?vid=32cd8bdd-5f00-4222-be95-54500c9310ff","ios":"levelo://app?vid=32cd8bdd-5f00-4222-be95-54500c9310ff"},"vehicle_type_id":"4","last_reported":1767863914,"current_range_meters":6000,"station_id":"ce4bhbh2rcd13ifvqepg","pricing_plan_id":"cebpf4jnsgd1na2vs0mg"},{"bike_id":"162b9fa9-8964-49cd-a322-9628e1211e9c","system_id":"levelo_inurba_marseille","lat":43.29968,"lon":5.37164,"is_reserved":false,"is_disabled":false,"rental_uris":{"android":"levelo://app?vid=162b9fa9-8964-49cd-a322-9628e1211e9c","ios":"levelo://app?vid=162b9fa9-8964-49cd-a322-9628e1211e9c"},"vehicle_type_id":"4","last_reported":1767863914,"current_range_meters":6000,"station_id":"ce4bgr92rcd13ifvqc7g","pricing_plan_id":"cebpf4jnsgd1na2vs0mg"},{"bike_id":"742f4b7f-b0e7-454b-8a4d-63581ce4a90a","system_id":"levelo_inurba_marseille","lat":43.31225,"lon":5.36862,"is_reserved":false,"is_disabled":false,"rental_uris":{"android":"levelo://app?vid=742f4b7f-b0e7-454b-8a4d-63581ce4a90a","ios":"levelo://app?vid=742f4b7f-b0e7-454b-8a4d-63581ce4a90a"},"vehicle_type_id":"4","last_reported":1767863914,"current_range_meters":6400,"station_id":"ce4bgl92rcd13ifvqbq0","pricing_plan_id":"cebpf4jnsgd1na2vs0mg"},{"bike_id":"5a68ff48-3ca4-4b8d-81f5-0545c9e06ce5","system_id":"levelo_inurba_marseille","lat":43.28867,"lon":5.42515,"is_reserved":false,"is_disabled":false,"rental_uris":{"android":"levelo://app?vid=5a68ff48-3ca4-4b8d-81f5-0545c9e06ce5","ios":"levelo://app?vid=5a68ff48-3ca4-4b8d-81f5-0545c9e06ce5"},"vehicle_type_id":"4","last_reported":1767863914,"current_range_meters":6400,"station_id":"st_d3b462108ojc7389ooeg","pricing_plan_id":"cebpf4jnsgd1na2vs0mg"},{"bike_id":"bcffa3a6-ff3c-45db-9b63-989d56235791","system_id":"levelo_inurba_marseille","lat":43.24462,"lon":5.42539,"is_reserved":false,"is_disabled":false,"rental_uris":{"android":"levelo://app?vid=bcffa3a6-ff3c-45db-9b63-989d56235791","ios":"levelo://app?vid=bcffa3a6-ff3c-45db-9b63-989d56235791"},"vehicle_type_id":"4","last_reported":1767863914,"current_range_meters":6400,"station_id":"st_d4a3vfp97mjs738cd8kg","pricing_plan_id":"cebpf4jnsgd1na2vs0mg"},{"bike_id":"84d7a35c-f0ae-49a9-8cd1-325e7f1ca1d6","system_id":"levelo_inurba_marseille","lat":43.30553,"lon":5.36546,"is_reserved":false,"is_disabled":false,"rental_uris":{"android":"levelo://app?vid=84d7a35c-f0ae-49a9-8cd1-325e7f1ca1d6","ios":"levelo://app?vid=84d7a35c-f0ae-49a9-8cd1-325e7f1ca1d6"},"vehicle_type_id":"4","last_reported":1767863914,"current_range_meters":6400,"station_id":"ce4bgs12rcd13ifvqcag","pricing_plan_id":"cebpf4jnsgd1na2vs0mg"},{"bike_id":"eb861559-f4a9-4c83-89aa-289b16e18c99","system_id":"levelo_inurba_marseille","lat":43.295434,"lon":5.374733,"is_reserved":false,"is_disabled":false,"rental_uris":{"android":"levelo://app?vid=eb861559-f4a9-4c83-89aa-289b16e18c99","ios":"levelo://app?vid=eb861559-f4a9-4c83-89aa-289b16e18c99"},"vehicle_type_id":"4","last_reported":1767863914,"current_range_meters":6400,"station_id":"","pricing_plan_id":"cebpf4jnsgd1na2vs0mg"},{"bike_id":"7e56ead6-0dcc-483d-86d1-d4af73c68e4a","system_id":"levelo_inurba_marseille","lat":43.29366,"lon":5.38592,"is_reserved":false,"is_disabled":true,"rental_uris":{"android":"levelo://app?vid=7e56ead6-0dcc-483d-86d1-d4af73c68e4a","ios":"levelo://app?vid=7e56ead6-0dcc-483d-86d1-d4af73c68e4a"},"vehicle_type_id":"4","last_reported":1767863914,"current_range_meters":6400,"station_id":"","pricing_plan_id":"cebpf4jnsgd1na2vs0mg"},{"bike_id":"99791fe2-9946-4480-bd44-d68e606642df","system_id":"levelo_inurba_marseille","lat":43.27942,"lon":5.41044,"is_reserved":false,"is_disabled":false,"rental_uris":{"android":"levelo://app?vid=99791fe2-9946-4480-bd44-d68e606642df","ios":"levelo://app?vid=99791fe2-9946-4480-bd44-d68e606642df"},"vehicle_type_id":"4","last_reported":1767863914,"current_range_meters":6400,"station_id":"ce4bhnp2rcd13ifvqh0g","pricing_plan_id":"cebpf4jnsgd1na2vs0mg"},{"bike_id":"d1b3cdc7-bda6-4645-bd49-fbb3124ac1cb","system_id":"levelo_inurba_marseille","lat":43.275721,"lon":5.42343,"is_reserved":false,"is_disabled":false,"rental_uris":{"android":"levelo://app?vid=d1b3cdc7-bda6-4645-bd49-fbb3124ac1cb","ios":"levelo://app?vid=d1b3cdc7-bda6-4645-bd49-fbb3124ac1cb"},"vehicle_type_id":"4","last_reported":1767863914,"current_range_meters":6400,"station_id":"ce4bhn92rcd13ifvqgrg","pricing_plan_id":"cebpf4jnsgd1na2vs0mg"},{"bike_id":"3be8872d-34d0-40db-b769-0f0baea16fc1","system_id":"levelo_inurba_marseille","lat":43.30168,"lon":5.36603,"is_reserved":false,"is_disabled":false,"rental_uris":{"android":"levelo://app?vid=3be8872d-34d0-40db-b769-0f0baea16fc1","ios":"levelo://app?vid=3be8872d-34d0-40db-b769-0f0baea16fc1"},"vehicle_type_id":"4","last_reported":1767863914,"current_range_meters":6400,"station_id":"ce4bgrh2rcd13ifvqc8g","pricing_plan_id":"cebpf4jnsgd1na2vs0mg"},{"bike_id":"7ae2676e-e662-4a9a-a79a-d5011de94824","system_id":"levelo_inurba_marseille","lat":43.24123,"lon":5.36578,"is_reserved":false,"is_disabled":false,"rental_uris":{"android":"levelo://app?vid=7ae2676e-e662-4a9a-a79a-d5011de94824","ios":"levelo://app?vid=7ae2676e-e662-4a9a-a79a-d5011de94824"},"vehicle_type_id":"4","last_reported":1767863914,"current_range_meters":6400,"station_id":"cpo36qri1sfpv3e86is0","pricing_plan_id":"cebpf4jnsgd1na2vs0mg"},{"bike_id":"fe99a84f-5ce7-4cef-a997-e79fffe9bddd","system_id":"levelo_inurba_marseille","lat":43.32099,"lon":5.36783,"is_reserved":false,"is_disabled":false,"rental_uris":{"android":"levelo://app?vid=fe99a84f-5ce7-4cef-a997-e79fffe9bddd","ios":"levelo://app?vid=fe99a84f-5ce7-4cef-a997-e79fffe9bddd"},"vehicle_type_id":"4","last_reported":1767863914,"current_range_meters":6400,"station_id":"ce4bhrh2rcd13ifvqhug","pricing_plan_id":"cebpf4jnsgd1na2vs0mg"},{"bike_id":"17ffc005-fa72-4d1f-9413-b31aab6a3fd6","system_id":"levelo_inurba_marseille","lat":43.32353,"lon":5.36734,"is_reserved":false,"is_disabled":false,"rental_uris":{"android":"levelo://app?vid=17ffc005-fa72-4d1f-9413-b31aab6a3fd6","ios":"levelo://app?vid=17ffc005-fa72-4d1f-9413-b31aab6a3fd6"},"vehicle_type_id":"4","last_reported":1767863914,"current_range_meters":6400,"station_id":"ce4bhsh2rcd13ifvqi2g","pricing_plan_id":"cebpf4jnsgd1na2vs0mg"},{"bike_id":"01d8e2c9-d4ce-48e6-afef-8bf3104cf069","system_id":"levelo_inurba_marseille","lat":43.27166,"lon":5.40999,"is_reserved":false,"is_disabled":false,"rental_uris":{"android":"levelo://app?vid=01d8e2c9-d4ce-48e6-afef-8bf3104cf069","ios":"levelo://app?vid=01d8e2c9-d4ce-48e6-afef-8bf3104cf069"},"vehicle_type_id":"4","last_reported":1767863914,"current_range_meters":6400,"station_id":"ce4bhl12rcd13ifvqgf0","pricing_plan_id":"cebpf4jnsgd1na2vs0mg"},{"bike_id":"627ad4fb-d3f7-406d-9fa6-760355e4142d","system_id":"levelo_inurba_marseille","lat":43.23192,"lon":5.35556,"is_reserved":false,"is_disabled":false,"rental_uris":{"android":"levelo://app?vid=627ad4fb-d3f7-406d-9fa6-760355e4142d","ios":"levelo://app?vid=627ad4fb-d3f7-406d-9fa6-760355e4142d"},"vehicle_type_id":"4","last_reported":1767863914,"current_range_meters":6400,"station_id":"ce4bhu92rcd13ifvqi70","pricing_plan_id":"cebpf4jnsgd1na2vs0mg"},{"bike_id":"e3ffb854-e428-4a18-904d-ea5ddd084e10","system_id":"levelo_inurba_marseille","lat":43.323583,"lon":5.367333,"is_reserved":false,"is_disabled":false,"rental_uris":{"android":"levelo://app?vid=e3ffb854-e428-4a18-904d-ea5ddd084e10","ios":"levelo://app?vid=e3ffb854-e428-4a18-904d-ea5ddd084e10"},"vehicle_type_id":"4","last_reported":1767863914,"current_range_meters":6400,"station_id":"ce4bhsh2rcd13ifvqi2g","pricing_plan_id":"cebpf4jnsgd1na2vs0mg"},{"bike_id":"ce13b0f0-8794-4d26-9d61-e42dc27aaf84","system_id":"levelo_inurba_marseille","lat":43.3046,"lon":5.37904,"is_reserved":false,"is_disabled":false,"rental_uris":{"android":"levelo://app?vid=ce13b0f0-8794-4d26-9d61-e42dc27aaf84","ios":"levelo://app?vid=ce13b0f0-8794-4d26-9d61-e42dc27aaf84"},"vehicle_type_id":"4","last_reported":1767863914,"current_range_meters":6400,"station_id":"ce4bgup2rcd13ifvqcn0","pricing_plan_id":"cebpf4jnsgd1na2vs0mg"},{"bike_id":"2d325c77-5095-44cd-ad84-2986319e42b1","system_id":"levelo_inurba_marseille","lat":43.24648,"lon":5.38895,"is_reserved":false,"is_disabled":false,"rental_uris":{"android":"levelo://app?vid=2d325c77-5095-44cd-ad84-2986319e42b1","ios":"levelo://app?vid=2d325c77-5095-44cd-ad84-2986319e42b1"},"vehicle_type_id":"4","last_reported":1767863914,"current_range_meters":6400,"station_id":"ce4bhg12rcd13ifvqf60","pricing_plan_id":"cebpf4jnsgd1na2vs0mg"},{"bike_id":"82c15da7-33c2-40ae-a5e4-ef35e15b7ee5","system_id":"levelo_inurba_marseille","lat":43.24078,"lon":5.37762,"is_reserved":false,"is_disabled":false,"rental_uris":{"android":"levelo://app?vid=82c15da7-33c2-40ae-a5e4-ef35e15b7ee5","ios":"levelo://app?vid=82c15da7-33c2-40ae-a5e4-ef35e15b7ee5"},"vehicle_type_id":"4","last_reported":1767863914,"current_range_meters":6400,"station_id":"ce4bhnp2rcd13ifvqgvg","pricing_plan_id":"cebpf4jnsgd1na2vs0mg"},{"bike_id":"e333ef92-9481-476e-a416-b4070e2823b7","system_id":"levelo_inurba_marseille","lat":43.25514,"lon":5.37646,"is_reserved":false,"is_disabled":false,"rental_uris":{"android":"levelo://app?vid=e333ef92-9481-476e-a416-b4070e2823b7","ios":"levelo://app?vid=e333ef92-9481-476e-a416-b4070e2823b7"},"vehicle_type_id":"4","last_reported":1767863914,"current_range_meters":6400,"station_id":"ce4bhh12rcd13ifvqff0","pricing_plan_id":"cebpf4jnsgd1na2vs0mg"},{"bike_id":"c4684706-331d-46e5-a40c-a24eff201ff7","system_id":"levelo_inurba_marseille","lat":43.30154,"lon":5.38088,"is_reserved":false,"is_disabled":false,"rental_uris":{"android":"levelo://app?vid=c4684706-331d-46e5-a40c-a24eff201ff7","ios":"levelo://app?vid=c4684706-331d-46e5-a40c-a24eff201ff7"},"vehicle_type_id":"4","last_reported":1767863914,"current_range_meters":6400,"station_id":"ce4bgjp2rcd13ifvqbh0","pricing_plan_id":"cebpf4jnsgd1na2vs0mg"},{"bike_id":"5ddc36fe-25ae-4411-85cc-e5b7ed02f34a","system_id":"levelo_inurba_marseille","lat":43.28623,"lon":5.37056,"is_reserved":false,"is_disabled":false,"rental_uris":{"android":"levelo://app?vid=5ddc36fe-25ae-4411-85cc-e5b7ed02f34a","ios":"levelo://app?vid=5ddc36fe-25ae-4411-85cc-e5b7ed02f34a"},"vehicle_type_id":"4","last_reported":1767863914,"current_range_meters":6400,"station_id":"ce4bht12rcd13ifvqi60","pricing_plan_id":"cebpf4jnsgd1na2vs0mg"},{"bike_id":"e71d0679-323f-4f00-be81-4629f5d4ffa8","system_id":"levelo_inurba_marseille","lat":43.28973,"lon":5.37837,"is_reserved":false,"is_disabled":false,"rental_uris":{"android":"levelo://app?vid=e71d0679-323f-4f00-be81-4629f5d4ffa8","ios":"levelo://app?vid=e71d0679-323f-4f00-be81-4629f5d4ffa8"},"vehicle_type_id":"4","last_reported":1767863914,"current_range_meters":6400,"station_id":"ce4bh9p2rcd13ifvqed0","pricing_plan_id":"cebpf4jnsgd1na2vs0mg"},{"bike_id":"31ef6104-524a-4758-8a5c-811acc4ab6a4","system_id":"levelo_inurba_marseille","lat":43.28499,"lon":5.48396,"is_reserved":false,"is_disabled":false,"rental_uris":{"android":"levelo://app?vid=31ef6104-524a-4758-8a5c-811acc4ab6a4","ios":"levelo://app?vid=31ef6104-524a-4758-8a5c-811acc4ab6a4"},"vehicle_type_id":"4","last_reported":1767863914,"current_range_meters":6400,"station_id":"st_d3svhcjqgbts73a3dn0g","pricing_plan_id":"cebpf4jnsgd1na2vs0mg"},{"bike_id":"7a1b8679-47ed-4276-8605-6ec75e91bf90","system_id":"levelo_inurba_marseille","lat":43.27214,"lon":5.3916,"is_reserved":false,"is_disabled":false,"rental_uris":{"android":"levelo://app?vid=7a1b8679-47ed-4276-8605-6ec75e91bf90","ios":"levelo://app?vid=7a1b8679-47ed-4276-8605-6ec75e91bf90"},"vehicle_type_id":"4","last_reported":1767863914,"current_range_meters":6800,"station_id":"ce4bhhp2rcd13ifvqfm0","pricing_plan_id":"cebpf4jnsgd1na2vs0mg"},{"bike_id":"b0fc992c-b034-4256-b199-935b86901d2f","system_id":"levelo_inurba_marseille","lat":43.2293,"lon":5.35424,"is_reserved":false,"is_disabled":false,"rental_uris":{"android":"levelo://app?vid=b0fc992c-b034-4256-b199-935b86901d2f","ios":"levelo://app?vid=b0fc992c-b034-4256-b199-935b86901d2f"},"vehicle_type_id":"4","last_reported":1767863914,"current_range_meters":6800,"station_id":"cpo3532slgdg3j2ikp40","pricing_plan_id":"cebpf4jnsgd1na2vs0mg"},{"bike_id":"aba7ea30-1026-499d-8351-ae41547f888c","system_id":"levelo_inurba_marseille","lat":43.30326,"lon":5.36852,"is_reserved":false,"is_disabled":false,"rental_uris":{"android":"levelo://app?vid=aba7ea30-1026-499d-8351-ae41547f888c","ios":"levelo://app?vid=aba7ea30-1026-499d-8351-ae41547f888c"},"vehicle_type_id":"4","last_reported":1767863914,"current_range_meters":6800,"station_id":"ce4bgqh2rcd13ifvqc5g","pricing_plan_id":"cebpf4jnsgd1na2vs0mg"},{"bike_id":"4df48156-dd6c-425a-aaac-7de4e5d50530","system_id":"levelo_inurba_marseille","lat":43.29005,"lon":5.35753,"is_reserved":false,"is_disabled":false,"rental_uris":{"android":"levelo://app?vid=4df48156-dd6c-425a-aaac-7de4e5d50530","ios":"levelo://app?vid=4df48156-dd6c-425a-aaac-7de4e5d50530"},"vehicle_type_id":"4","last_reported":1767863914,"current_range_meters":6800,"station_id":"","pricing_plan_id":"cebpf4jnsgd1na2vs0mg"},{"bike_id":"c10c03af-eba1-4f9f-a373-ad08e2aac44e","system_id":"levelo_inurba_marseille","lat":43.25862,"lon":5.40892,"is_reserved":false,"is_disabled":false,"rental_uris":{"android":"levelo://app?vid=c10c03af-eba1-4f9f-a373-ad08e2aac44e","ios":"levelo://app?vid=c10c03af-eba1-4f9f-a373-ad08e2aac44e"},"vehicle_type_id":"4","last_reported":1767863914,"current_range_meters":6800,"station_id":"","pricing_plan_id":"cebpf4jnsgd1na2vs0mg"},{"bike_id":"686bcbac-7ffb-4bc9-afb0-a18e8a9323c9","system_id":"levelo_inurba_marseille","lat":43.29373,"lon":5.37864,"is_reserved":false,"is_disabled":true,"rental_uris":{"android":"levelo://app?vid=686bcbac-7ffb-4bc9-afb0-a18e8a9323c9","ios":"levelo://app?vid=686bcbac-7ffb-4bc9-afb0-a18e8a9323c9"},"vehicle_type_id":"4","last_reported":1767863914,"current_range_meters":6800,"station_id":"ce4bgjh2rcd13ifvqbf0","pricing_plan_id":"cebpf4jnsgd1na2vs0mg"},{"bike_id":"40f08c9f-1db3-428a-bccb-f339a21698d1","system_id":"levelo_inurba_marseille","lat":43.29931,"lon":5.38117,"is_reserved":false,"is_disabled":false,"rental_uris":{"android":"levelo://app?vid=40f08c9f-1db3-428a-bccb-f339a21698d1","ios":"levelo://app?vid=40f08c9f-1db3-428a-bccb-f339a21698d1"},"vehicle_type_id":"4","last_reported":1767863914,"current_range_meters":6800,"station_id":"ce4bgj12rcd13ifvqbc0","pricing_plan_id":"cebpf4jnsgd1na2vs0mg"},{"bike_id":"6db3e879-7db1-4265-b6c4-82a384e02e24","system_id":"levelo_inurba_marseille","lat":43.278246,"lon":5.407012,"is_reserved":false,"is_disabled":true,"rental_uris":{"android":"levelo://app?vid=6db3e879-7db1-4265-b6c4-82a384e02e24","ios":"levelo://app?vid=6db3e879-7db1-4265-b6c4-82a384e02e24"},"vehicle_type_id":"4","last_reported":1767863914,"current_range_meters":6800,"station_id":"ce4bhnh2rcd13ifvqgtg","pricing_plan_id":"cebpf4jnsgd1na2vs0mg"},{"bike_id":"ecd3c884-b625-4122-929d-6367a66201b9","system_id":"levelo_inurba_marseille","lat":43.30309,"lon":5.36903,"is_reserved":false,"is_disabled":false,"rental_uris":{"android":"levelo://app?vid=ecd3c884-b625-4122-929d-6367a66201b9","ios":"levelo://app?vid=ecd3c884-b625-4122-929d-6367a66201b9"},"vehicle_type_id":"4","last_reported":1767863914,"current_range_meters":6800,"station_id":"ce4bgqh2rcd13ifvqc5g","pricing_plan_id":"cebpf4jnsgd1na2vs0mg"},{"bike_id":"b7aa90e6-40fe-4064-9b55-679e22478f37","system_id":"levelo_inurba_marseille","lat":43.310641,"lon":5.371804,"is_reserved":false,"is_disabled":false,"rental_uris":{"android":"levelo://app?vid=b7aa90e6-40fe-4064-9b55-679e22478f37","ios":"levelo://app?vid=b7aa90e6-40fe-4064-9b55-679e22478f37"},"vehicle_type_id":"4","last_reported":1767863914,"current_range_meters":6800,"station_id":"st_d4kl2rp97mjs73e7tdfg","pricing_plan_id":"cebpf4jnsgd1na2vs0mg"},{"bike_id":"c4cba06a-864a-42b1-807e-8aa65f9face9","system_id":"levelo_inurba_marseille","lat":43.29193,"lon":5.35805,"is_reserved":false,"is_disabled":false,"rental_uris":{"android":"levelo://app?vid=c4cba06a-864a-42b1-807e-8aa65f9face9","ios":"levelo://app?vid=c4cba06a-864a-42b1-807e-8aa65f9face9"},"vehicle_type_id":"4","last_reported":1767863914,"current_range_meters":6800,"station_id":"ce4bhb12rcd13ifvqel0","pricing_plan_id":"cebpf4jnsgd1na2vs0mg"},{"bike_id":"c733299c-cde7-442f-86b2-31e37d8f758a","system_id":"levelo_inurba_marseille","lat":43.28381,"lon":5.38623,"is_reserved":false,"is_disabled":false,"rental_uris":{"android":"levelo://app?vid=c733299c-cde7-442f-86b2-31e37d8f758a","ios":"levelo://app?vid=c733299c-cde7-442f-86b2-31e37d8f758a"},"vehicle_type_id":"4","last_reported":1767863914,"current_range_meters":6800,"station_id":"ce4bh492rcd13ifvqdvg","pricing_plan_id":"cebpf4jnsgd1na2vs0mg"},{"bike_id":"e986fce2-0dcf-4a72-8226-b2117b200211","system_id":"levelo_inurba_marseille","lat":43.23153,"lon":5.4368,"is_reserved":false,"is_disabled":false,"rental_uris":{"android":"levelo://app?vid=e986fce2-0dcf-4a72-8226-b2117b200211","ios":"levelo://app?vid=e986fce2-0dcf-4a72-8226-b2117b200211"},"vehicle_type_id":"4","last_reported":1767863914,"current_range_meters":6800,"station_id":"ce4bhmp2rcd13ifvqgog","pricing_plan_id":"cebpf4jnsgd1na2vs0mg"},{"bike_id":"193cd76b-9bcc-4fab-ad90-2f66f28ef687","system_id":"levelo_inurba_marseille","lat":43.240779,"lon":5.377708,"is_reserved":false,"is_disabled":false,"rental_uris":{"android":"levelo://app?vid=193cd76b-9bcc-4fab-ad90-2f66f28ef687","ios":"levelo://app?vid=193cd76b-9bcc-4fab-ad90-2f66f28ef687"},"vehicle_type_id":"4","last_reported":1767863914,"current_range_meters":6800,"station_id":"ce4bhnp2rcd13ifvqgvg","pricing_plan_id":"cebpf4jnsgd1na2vs0mg"},{"bike_id":"80bdd1a4-b1ab-42ae-bb23-cfddeda5c12d","system_id":"levelo_inurba_marseille","lat":43.298729,"lon":5.383636,"is_reserved":false,"is_disabled":true,"rental_uris":{"android":"levelo://app?vid=80bdd1a4-b1ab-42ae-bb23-cfddeda5c12d","ios":"levelo://app?vid=80bdd1a4-b1ab-42ae-bb23-cfddeda5c12d"},"vehicle_type_id":"4","last_reported":1767863914,"current_range_meters":6800,"station_id":"","pricing_plan_id":"cebpf4jnsgd1na2vs0mg"},{"bike_id":"6bddaefd-cff1-4799-8b05-460a68cec860","system_id":"levelo_inurba_marseille","lat":43.33017,"lon":5.39011,"is_reserved":false,"is_disabled":false,"rental_uris":{"android":"levelo://app?vid=6bddaefd-cff1-4799-8b05-460a68cec860","ios":"levelo://app?vid=6bddaefd-cff1-4799-8b05-460a68cec860"},"vehicle_type_id":"4","last_reported":1767863914,"current_range_meters":6800,"station_id":"ce4bhr92rcd13ifvqhrg","pricing_plan_id":"cebpf4jnsgd1na2vs0mg"},{"bike_id":"f139dc33-0315-4e3b-806c-1c4763fe230a","system_id":"levelo_inurba_marseille","lat":43.32349,"lon":5.36746,"is_reserved":false,"is_disabled":false,"rental_uris":{"android":"levelo://app?vid=f139dc33-0315-4e3b-806c-1c4763fe230a","ios":"levelo://app?vid=f139dc33-0315-4e3b-806c-1c4763fe230a"},"vehicle_type_id":"4","last_reported":1767863914,"current_range_meters":6800,"station_id":"ce4bhsh2rcd13ifvqi2g","pricing_plan_id":"cebpf4jnsgd1na2vs0mg"},{"bike_id":"fe176af7-89fe-4080-9879-5358fa62f37f","system_id":"levelo_inurba_marseille","lat":43.28412,"lon":5.35005,"is_reserved":false,"is_disabled":false,"rental_uris":{"android":"levelo://app?vid=fe176af7-89fe-4080-9879-5358fa62f37f","ios":"levelo://app?vid=fe176af7-89fe-4080-9879-5358fa62f37f"},"vehicle_type_id":"4","last_reported":1767863914,"current_range_meters":6800,"station_id":"ce4bhbh2rcd13ifvqepg","pricing_plan_id":"cebpf4jnsgd1na2vs0mg"},{"bike_id":"028756d9-bfe4-42e7-8035-4b002ff65672","system_id":"levelo_inurba_marseille","lat":43.22914,"lon":5.35387,"is_reserved":false,"is_disabled":false,"rental_uris":{"android":"levelo://app?vid=028756d9-bfe4-42e7-8035-4b002ff65672","ios":"levelo://app?vid=028756d9-bfe4-42e7-8035-4b002ff65672"},"vehicle_type_id":"4","last_reported":1767863914,"current_range_meters":6800,"station_id":"cpo3532slgdg3j2ikp40","pricing_plan_id":"cebpf4jnsgd1na2vs0mg"},{"bike_id":"50630e44-39e8-4213-9afc-fb5a38a3ad9e","system_id":"levelo_inurba_marseille","lat":43.29031,"lon":5.37573,"is_reserved":false,"is_disabled":false,"rental_uris":{"android":"levelo://app?vid=50630e44-39e8-4213-9afc-fb5a38a3ad9e","ios":"levelo://app?vid=50630e44-39e8-4213-9afc-fb5a38a3ad9e"},"vehicle_type_id":"4","last_reported":1767863914,"current_range_meters":6800,"station_id":"ce4bh692rcd13ifvqe90","pricing_plan_id":"cebpf4jnsgd1na2vs0mg"},{"bike_id":"4f4b65c6-e735-4a80-8e4f-bee6cd038c81","system_id":"levelo_inurba_marseille","lat":43.30254,"lon":5.40083,"is_reserved":false,"is_disabled":false,"rental_uris":{"android":"levelo://app?vid=4f4b65c6-e735-4a80-8e4f-bee6cd038c81","ios":"levelo://app?vid=4f4b65c6-e735-4a80-8e4f-bee6cd038c81"},"vehicle_type_id":"4","last_reported":1767863914,"current_range_meters":6800,"station_id":"ce4bgvh2rcd13ifvqcs0","pricing_plan_id":"cebpf4jnsgd1na2vs0mg"},{"bike_id":"a714f327-3325-430d-a62a-219ddf12f989","system_id":"levelo_inurba_marseille","lat":43.27357,"lon":5.36243,"is_reserved":false,"is_disabled":false,"rental_uris":{"android":"levelo://app?vid=a714f327-3325-430d-a62a-219ddf12f989","ios":"levelo://app?vid=a714f327-3325-430d-a62a-219ddf12f989"},"vehicle_type_id":"4","last_reported":1767863914,"current_range_meters":6800,"station_id":"ce4bhbh2rcd13ifvqeo0","pricing_plan_id":"cebpf4jnsgd1na2vs0mg"},{"bike_id":"a18493ba-5f42-431b-82b7-c22870a5b62d","system_id":"levelo_inurba_marseille","lat":43.30912,"lon":5.37194,"is_reserved":false,"is_disabled":false,"rental_uris":{"android":"levelo://app?vid=a18493ba-5f42-431b-82b7-c22870a5b62d","ios":"levelo://app?vid=a18493ba-5f42-431b-82b7-c22870a5b62d"},"vehicle_type_id":"4","last_reported":1767863914,"current_range_meters":6800,"station_id":"ce4bguh2rcd13ifvqckg","pricing_plan_id":"cebpf4jnsgd1na2vs0mg"},{"bike_id":"47d0a8b3-c4fc-4d20-befe-0d9c69ad92a9","system_id":"levelo_inurba_marseille","lat":43.23782,"lon":5.36657,"is_reserved":false,"is_disabled":false,"rental_uris":{"android":"levelo://app?vid=47d0a8b3-c4fc-4d20-befe-0d9c69ad92a9","ios":"levelo://app?vid=47d0a8b3-c4fc-4d20-befe-0d9c69ad92a9"},"vehicle_type_id":"4","last_reported":1767863914,"current_range_meters":6800,"station_id":"st_d3nk18o9ro0c73en2l3g","pricing_plan_id":"cebpf4jnsgd1na2vs0mg"},{"bike_id":"c3c8d196-d779-41a4-a376-ac529e740933","system_id":"levelo_inurba_marseille","lat":43.240742,"lon":5.377578,"is_reserved":false,"is_disabled":false,"rental_uris":{"android":"levelo://app?vid=c3c8d196-d779-41a4-a376-ac529e740933","ios":"levelo://app?vid=c3c8d196-d779-41a4-a376-ac529e740933"},"vehicle_type_id":"4","last_reported":1767863914,"current_range_meters":7200,"station_id":"ce4bhnp2rcd13ifvqgvg","pricing_plan_id":"cebpf4jnsgd1na2vs0mg"},{"bike_id":"b1b1ad78-5ce6-4078-b4e3-85f1155f6618","system_id":"levelo_inurba_marseille","lat":43.29492,"lon":5.433,"is_reserved":false,"is_disabled":false,"rental_uris":{"android":"levelo://app?vid=b1b1ad78-5ce6-4078-b4e3-85f1155f6618","ios":"levelo://app?vid=b1b1ad78-5ce6-4078-b4e3-85f1155f6618"},"vehicle_type_id":"4","last_reported":1767863914,"current_range_meters":7200,"station_id":"st_d3j5ugp08ojc73fj9d10","pricing_plan_id":"cebpf4jnsgd1na2vs0mg"},{"bike_id":"19e15d06-cf4c-459d-8887-b3feaa0bcacf","system_id":"levelo_inurba_marseille","lat":43.32825,"lon":5.40463,"is_reserved":false,"is_disabled":false,"rental_uris":{"android":"levelo://app?vid=19e15d06-cf4c-459d-8887-b3feaa0bcacf","ios":"levelo://app?vid=19e15d06-cf4c-459d-8887-b3feaa0bcacf"},"vehicle_type_id":"4","last_reported":1767863914,"current_range_meters":7200,"station_id":"ce4bhq92rcd13ifvqhkg","pricing_plan_id":"cebpf4jnsgd1na2vs0mg"},{"bike_id":"b9ef6aa6-7590-46c5-a49a-18293bf99c6e","system_id":"levelo_inurba_marseille","lat":43.27345,"lon":5.39084,"is_reserved":false,"is_disabled":false,"rental_uris":{"android":"levelo://app?vid=b9ef6aa6-7590-46c5-a49a-18293bf99c6e","ios":"levelo://app?vid=b9ef6aa6-7590-46c5-a49a-18293bf99c6e"},"vehicle_type_id":"4","last_reported":1767863914,"current_range_meters":7200,"station_id":"ce4bhgp2rcd13ifvqfe0","pricing_plan_id":"cebpf4jnsgd1na2vs0mg"},{"bike_id":"e1eb0afe-fe8a-460e-bf4a-daa974bf1ad8","system_id":"levelo_inurba_marseille","lat":43.271709,"lon":5.409947,"is_reserved":false,"is_disabled":false,"rental_uris":{"android":"levelo://app?vid=e1eb0afe-fe8a-460e-bf4a-daa974bf1ad8","ios":"levelo://app?vid=e1eb0afe-fe8a-460e-bf4a-daa974bf1ad8"},"vehicle_type_id":"4","last_reported":1767863914,"current_range_meters":7200,"station_id":"ce4bhl12rcd13ifvqgf0","pricing_plan_id":"cebpf4jnsgd1na2vs0mg"},{"bike_id":"09edec60-8041-4c77-8231-9562a2ec8612","system_id":"levelo_inurba_marseille","lat":43.29958,"lon":5.37168,"is_reserved":false,"is_disabled":false,"rental_uris":{"android":"levelo://app?vid=09edec60-8041-4c77-8231-9562a2ec8612","ios":"levelo://app?vid=09edec60-8041-4c77-8231-9562a2ec8612"},"vehicle_type_id":"4","last_reported":1767863914,"current_range_meters":7200,"station_id":"ce4bgr92rcd13ifvqc7g","pricing_plan_id":"cebpf4jnsgd1na2vs0mg"},{"bike_id":"0753808a-bb36-4a4b-9cb3-11f3d3daa7d7","system_id":"levelo_inurba_marseille","lat":43.25924,"lon":5.40917,"is_reserved":false,"is_disabled":false,"rental_uris":{"android":"levelo://app?vid=0753808a-bb36-4a4b-9cb3-11f3d3daa7d7","ios":"levelo://app?vid=0753808a-bb36-4a4b-9cb3-11f3d3daa7d7"},"vehicle_type_id":"4","last_reported":1767863914,"current_range_meters":7200,"station_id":"ce4bhm92rcd13ifvqglg","pricing_plan_id":"cebpf4jnsgd1na2vs0mg"},{"bike_id":"212da61f-e45f-49da-8ac8-22c9c61d8835","system_id":"levelo_inurba_marseille","lat":43.31741,"lon":5.38515,"is_reserved":false,"is_disabled":false,"rental_uris":{"android":"levelo://app?vid=212da61f-e45f-49da-8ac8-22c9c61d8835","ios":"levelo://app?vid=212da61f-e45f-49da-8ac8-22c9c61d8835"},"vehicle_type_id":"4","last_reported":1767863914,"current_range_meters":7200,"station_id":"","pricing_plan_id":"cebpf4jnsgd1na2vs0mg"},{"bike_id":"a6462651-ffd6-4de0-ac89-ac14a3f92140","system_id":"levelo_inurba_marseille","lat":43.237895,"lon":5.3663,"is_reserved":false,"is_disabled":false,"rental_uris":{"android":"levelo://app?vid=a6462651-ffd6-4de0-ac89-ac14a3f92140","ios":"levelo://app?vid=a6462651-ffd6-4de0-ac89-ac14a3f92140"},"vehicle_type_id":"4","last_reported":1767863914,"current_range_meters":7200,"station_id":"st_d3nk18o9ro0c73en2l3g","pricing_plan_id":"cebpf4jnsgd1na2vs0mg"},{"bike_id":"1f6bbb69-96ec-4774-a668-2cc90004d313","system_id":"levelo_inurba_marseille","lat":43.2836,"lon":5.38628,"is_reserved":false,"is_disabled":false,"rental_uris":{"android":"levelo://app?vid=1f6bbb69-96ec-4774-a668-2cc90004d313","ios":"levelo://app?vid=1f6bbb69-96ec-4774-a668-2cc90004d313"},"vehicle_type_id":"4","last_reported":1767863914,"current_range_meters":7200,"station_id":"ce4bh492rcd13ifvqdvg","pricing_plan_id":"cebpf4jnsgd1na2vs0mg"},{"bike_id":"36104d7e-f8bc-4599-9f47-713822c2c1b9","system_id":"levelo_inurba_marseille","lat":43.27215,"lon":5.3916,"is_reserved":false,"is_disabled":false,"rental_uris":{"android":"levelo://app?vid=36104d7e-f8bc-4599-9f47-713822c2c1b9","ios":"levelo://app?vid=36104d7e-f8bc-4599-9f47-713822c2c1b9"},"vehicle_type_id":"4","last_reported":1767863914,"current_range_meters":7200,"station_id":"ce4bhhp2rcd13ifvqfm0","pricing_plan_id":"cebpf4jnsgd1na2vs0mg"},{"bike_id":"abd4f237-c812-4344-bfeb-7094dc895bf0","system_id":"levelo_inurba_marseille","lat":43.30289,"lon":5.36876,"is_reserved":false,"is_disabled":false,"rental_uris":{"android":"levelo://app?vid=abd4f237-c812-4344-bfeb-7094dc895bf0","ios":"levelo://app?vid=abd4f237-c812-4344-bfeb-7094dc895bf0"},"vehicle_type_id":"4","last_reported":1767863914,"current_range_meters":7200,"station_id":"ce4bgqh2rcd13ifvqc5g","pricing_plan_id":"cebpf4jnsgd1na2vs0mg"},{"bike_id":"2041d967-1798-463a-88d6-11a92884e854","system_id":"levelo_inurba_marseille","lat":43.27484,"lon":5.42475,"is_reserved":false,"is_disabled":false,"rental_uris":{"android":"levelo://app?vid=2041d967-1798-463a-88d6-11a92884e854","ios":"levelo://app?vid=2041d967-1798-463a-88d6-11a92884e854"},"vehicle_type_id":"4","last_reported":1767863914,"current_range_meters":7200,"station_id":"ce4bhn92rcd13ifvqgrg","pricing_plan_id":"cebpf4jnsgd1na2vs0mg"},{"bike_id":"ff3fbfb8-c45c-4999-b524-0dd05bdd14e2","system_id":"levelo_inurba_marseille","lat":43.309609,"lon":5.368385,"is_reserved":false,"is_disabled":false,"rental_uris":{"android":"levelo://app?vid=ff3fbfb8-c45c-4999-b524-0dd05bdd14e2","ios":"levelo://app?vid=ff3fbfb8-c45c-4999-b524-0dd05bdd14e2"},"vehicle_type_id":"4","last_reported":1767863914,"current_range_meters":7200,"station_id":"ce4bgn92rcd13ifvqbvg","pricing_plan_id":"cebpf4jnsgd1na2vs0mg"},{"bike_id":"88c14a33-9b21-46e5-92e0-2674360d2b7d","system_id":"levelo_inurba_marseille","lat":43.295666,"lon":5.399541,"is_reserved":false,"is_disabled":false,"rental_uris":{"android":"levelo://app?vid=88c14a33-9b21-46e5-92e0-2674360d2b7d","ios":"levelo://app?vid=88c14a33-9b21-46e5-92e0-2674360d2b7d"},"vehicle_type_id":"4","last_reported":1767863914,"current_range_meters":7200,"station_id":"ce4bh312rcd13ifvqdj0","pricing_plan_id":"cebpf4jnsgd1na2vs0mg"},{"bike_id":"d19d32de-fe7f-42ca-93fe-613a15438278","system_id":"levelo_inurba_marseille","lat":43.28429,"lon":5.35,"is_reserved":false,"is_disabled":false,"rental_uris":{"android":"levelo://app?vid=d19d32de-fe7f-42ca-93fe-613a15438278","ios":"levelo://app?vid=d19d32de-fe7f-42ca-93fe-613a15438278"},"vehicle_type_id":"4","last_reported":1767863914,"current_range_meters":7200,"station_id":"ce4bhbh2rcd13ifvqepg","pricing_plan_id":"cebpf4jnsgd1na2vs0mg"},{"bike_id":"16c08da6-d0d1-474a-bdd4-8cf492d8d580","system_id":"levelo_inurba_marseille","lat":43.24056,"lon":5.3775,"is_reserved":false,"is_disabled":false,"rental_uris":{"android":"levelo://app?vid=16c08da6-d0d1-474a-bdd4-8cf492d8d580","ios":"levelo://app?vid=16c08da6-d0d1-474a-bdd4-8cf492d8d580"},"vehicle_type_id":"4","last_reported":1767863914,"current_range_meters":7200,"station_id":"ce4bhnp2rcd13ifvqgvg","pricing_plan_id":"cebpf4jnsgd1na2vs0mg"},{"bike_id":"26251df8-74b6-4622-a854-fef4826e7216","system_id":"levelo_inurba_marseille","lat":43.29561,"lon":5.37523,"is_reserved":false,"is_disabled":false,"rental_uris":{"android":"levelo://app?vid=26251df8-74b6-4622-a854-fef4826e7216","ios":"levelo://app?vid=26251df8-74b6-4622-a854-fef4826e7216"},"vehicle_type_id":"4","last_reported":1767863914,"current_range_meters":7200,"station_id":"ce4bgh92rcd13ifvqb50","pricing_plan_id":"cebpf4jnsgd1na2vs0mg"},{"bike_id":"d24d285e-9609-4a05-b62d-3c973f9ec4cd","system_id":"levelo_inurba_marseille","lat":43.273707,"lon":5.362548,"is_reserved":false,"is_disabled":false,"rental_uris":{"android":"levelo://app?vid=d24d285e-9609-4a05-b62d-3c973f9ec4cd","ios":"levelo://app?vid=d24d285e-9609-4a05-b62d-3c973f9ec4cd"},"vehicle_type_id":"4","last_reported":1767863914,"current_range_meters":7200,"station_id":"ce4bhbh2rcd13ifvqeo0","pricing_plan_id":"cebpf4jnsgd1na2vs0mg"},{"bike_id":"dd077d80-ddb0-44f3-8381-62717daee42a","system_id":"levelo_inurba_marseille","lat":43.28845,"lon":5.39309,"is_reserved":false,"is_disabled":false,"rental_uris":{"android":"levelo://app?vid=dd077d80-ddb0-44f3-8381-62717daee42a","ios":"levelo://app?vid=dd077d80-ddb0-44f3-8381-62717daee42a"},"vehicle_type_id":"4","last_reported":1767863914,"current_range_meters":7200,"station_id":"ce4bh2p2rcd13ifvqdi0","pricing_plan_id":"cebpf4jnsgd1na2vs0mg"},{"bike_id":"e87e13ae-d69b-4129-94d6-fdb38119b5d3","system_id":"levelo_inurba_marseille","lat":43.28406,"lon":5.3498,"is_reserved":false,"is_disabled":false,"rental_uris":{"android":"levelo://app?vid=e87e13ae-d69b-4129-94d6-fdb38119b5d3","ios":"levelo://app?vid=e87e13ae-d69b-4129-94d6-fdb38119b5d3"},"vehicle_type_id":"4","last_reported":1767863914,"current_range_meters":7200,"station_id":"ce4bhbh2rcd13ifvqepg","pricing_plan_id":"cebpf4jnsgd1na2vs0mg"},{"bike_id":"7401be6f-cce5-4127-bfd0-4e81a357cf0d","system_id":"levelo_inurba_marseille","lat":43.25539,"lon":5.38288,"is_reserved":false,"is_disabled":false,"rental_uris":{"android":"levelo://app?vid=7401be6f-cce5-4127-bfd0-4e81a357cf0d","ios":"levelo://app?vid=7401be6f-cce5-4127-bfd0-4e81a357cf0d"},"vehicle_type_id":"4","last_reported":1767863914,"current_range_meters":7200,"station_id":"","pricing_plan_id":"cebpf4jnsgd1na2vs0mg"},{"bike_id":"50658340-35f1-4f1d-b90f-08cda8fb0917","system_id":"levelo_inurba_marseille","lat":43.29772,"lon":5.37915,"is_reserved":false,"is_disabled":false,"rental_uris":{"android":"levelo://app?vid=50658340-35f1-4f1d-b90f-08cda8fb0917","ios":"levelo://app?vid=50658340-35f1-4f1d-b90f-08cda8fb0917"},"vehicle_type_id":"4","last_reported":1767863914,"current_range_meters":7200,"station_id":"","pricing_plan_id":"cebpf4jnsgd1na2vs0mg"},{"bike_id":"9cfeff17-a54a-4b3c-baa8-c7ed795fc5f2","system_id":"levelo_inurba_marseille","lat":43.24162,"lon":5.36396,"is_reserved":false,"is_disabled":false,"rental_uris":{"android":"levelo://app?vid=9cfeff17-a54a-4b3c-baa8-c7ed795fc5f2","ios":"levelo://app?vid=9cfeff17-a54a-4b3c-baa8-c7ed795fc5f2"},"vehicle_type_id":"4","last_reported":1767863914,"current_range_meters":8000,"station_id":"cpo36qri1sfpv3e86is0","pricing_plan_id":"cebpf4jnsgd1na2vs0mg"},{"bike_id":"1b08f614-a7af-4991-a2ca-51bd6579f7cb","system_id":"levelo_inurba_marseille","lat":43.29799,"lon":5.38061,"is_reserved":false,"is_disabled":false,"rental_uris":{"android":"levelo://app?vid=1b08f614-a7af-4991-a2ca-51bd6579f7cb","ios":"levelo://app?vid=1b08f614-a7af-4991-a2ca-51bd6579f7cb"},"vehicle_type_id":"4","last_reported":1767863914,"current_range_meters":8000,"station_id":"ce4bgip2rcd13ifvqbb0","pricing_plan_id":"cebpf4jnsgd1na2vs0mg"},{"bike_id":"873ae146-395a-40ee-8fdf-3d973ffd9442","system_id":"levelo_inurba_marseille","lat":43.25923,"lon":5.40904,"is_reserved":false,"is_disabled":false,"rental_uris":{"android":"levelo://app?vid=873ae146-395a-40ee-8fdf-3d973ffd9442","ios":"levelo://app?vid=873ae146-395a-40ee-8fdf-3d973ffd9442"},"vehicle_type_id":"4","last_reported":1767863914,"current_range_meters":8000,"station_id":"ce4bhm92rcd13ifvqglg","pricing_plan_id":"cebpf4jnsgd1na2vs0mg"},{"bike_id":"79b07b5a-ec48-494b-80f5-1c129a1f1ef3","system_id":"levelo_inurba_marseille","lat":43.30122,"lon":5.38098,"is_reserved":false,"is_disabled":false,"rental_uris":{"android":"levelo://app?vid=79b07b5a-ec48-494b-80f5-1c129a1f1ef3","ios":"levelo://app?vid=79b07b5a-ec48-494b-80f5-1c129a1f1ef3"},"vehicle_type_id":"4","last_reported":1767863914,"current_range_meters":8000,"station_id":"ce4bgjp2rcd13ifvqbh0","pricing_plan_id":"cebpf4jnsgd1na2vs0mg"},{"bike_id":"fb3c6dcd-08d9-4d17-9d15-526164b86c54","system_id":"levelo_inurba_marseille","lat":43.30803,"lon":5.38164,"is_reserved":false,"is_disabled":false,"rental_uris":{"android":"levelo://app?vid=fb3c6dcd-08d9-4d17-9d15-526164b86c54","ios":"levelo://app?vid=fb3c6dcd-08d9-4d17-9d15-526164b86c54"},"vehicle_type_id":"4","last_reported":1767863914,"current_range_meters":8000,"station_id":"ce4bgt12rcd13ifvqce0","pricing_plan_id":"cebpf4jnsgd1na2vs0mg"},{"bike_id":"def7dce9-fdc4-4df2-baea-27b2ff2b32ca","system_id":"levelo_inurba_marseille","lat":43.29172,"lon":5.37162,"is_reserved":false,"is_disabled":false,"rental_uris":{"android":"levelo://app?vid=def7dce9-fdc4-4df2-baea-27b2ff2b32ca","ios":"levelo://app?vid=def7dce9-fdc4-4df2-baea-27b2ff2b32ca"},"vehicle_type_id":"4","last_reported":1767863914,"current_range_meters":8000,"station_id":"ce4bha92rcd13ifvqeh0","pricing_plan_id":"cebpf4jnsgd1na2vs0mg"},{"bike_id":"a95fa656-0322-460d-8134-27abb4fbb1a3","system_id":"levelo_inurba_marseille","lat":43.29037,"lon":5.399586,"is_reserved":false,"is_disabled":false,"rental_uris":{"android":"levelo://app?vid=a95fa656-0322-460d-8134-27abb4fbb1a3","ios":"levelo://app?vid=a95fa656-0322-460d-8134-27abb4fbb1a3"},"vehicle_type_id":"4","last_reported":1767863914,"current_range_meters":8000,"station_id":"ce4bh392rcd13ifvqdm0","pricing_plan_id":"cebpf4jnsgd1na2vs0mg"},{"bike_id":"63e4976f-7d93-49f6-a2b3-f7ce857422dd","system_id":"levelo_inurba_marseille","lat":43.303,"lon":5.39162,"is_reserved":false,"is_disabled":true,"rental_uris":{"android":"levelo://app?vid=63e4976f-7d93-49f6-a2b3-f7ce857422dd","ios":"levelo://app?vid=63e4976f-7d93-49f6-a2b3-f7ce857422dd"},"vehicle_type_id":"4","last_reported":1767863914,"current_range_meters":8000,"station_id":"ce4bgkh2rcd13ifvqbk0","pricing_plan_id":"cebpf4jnsgd1na2vs0mg"},{"bike_id":"43f3ac00-3389-451c-bcdf-6e382a79f3bb","system_id":"levelo_inurba_marseille","lat":43.287146,"lon":5.379345,"is_reserved":false,"is_disabled":false,"rental_uris":{"android":"levelo://app?vid=43f3ac00-3389-451c-bcdf-6e382a79f3bb","ios":"levelo://app?vid=43f3ac00-3389-451c-bcdf-6e382a79f3bb"},"vehicle_type_id":"4","last_reported":1767863914,"current_range_meters":8000,"station_id":"ce4bh9p2rcd13ifvqec0","pricing_plan_id":"cebpf4jnsgd1na2vs0mg"},{"bike_id":"28ce8fe3-28ad-4600-8626-b97010d7c35d","system_id":"levelo_inurba_marseille","lat":43.30943,"lon":5.39039,"is_reserved":false,"is_disabled":false,"rental_uris":{"android":"levelo://app?vid=28ce8fe3-28ad-4600-8626-b97010d7c35d","ios":"levelo://app?vid=28ce8fe3-28ad-4600-8626-b97010d7c35d"},"vehicle_type_id":"4","last_reported":1767863914,"current_range_meters":8000,"station_id":"ce4bgup2rcd13ifvqco0","pricing_plan_id":"cebpf4jnsgd1na2vs0mg"},{"bike_id":"d5c1c553-9204-43c8-8cf5-216603484439","system_id":"levelo_inurba_marseille","lat":43.29482,"lon":5.37668,"is_reserved":false,"is_disabled":false,"rental_uris":{"android":"levelo://app?vid=d5c1c553-9204-43c8-8cf5-216603484439","ios":"levelo://app?vid=d5c1c553-9204-43c8-8cf5-216603484439"},"vehicle_type_id":"4","last_reported":1767863914,"current_range_meters":8000,"station_id":"ce4bgkp2rcd13ifvqbmg","pricing_plan_id":"cebpf4jnsgd1na2vs0mg"},{"bike_id":"d732fcd7-f8ed-43d6-b6ef-d29b2b97a6d4","system_id":"levelo_inurba_marseille","lat":43.273707,"lon":5.362563,"is_reserved":false,"is_disabled":false,"rental_uris":{"android":"levelo://app?vid=d732fcd7-f8ed-43d6-b6ef-d29b2b97a6d4","ios":"levelo://app?vid=d732fcd7-f8ed-43d6-b6ef-d29b2b97a6d4"},"vehicle_type_id":"4","last_reported":1767863914,"current_range_meters":8000,"station_id":"ce4bhbh2rcd13ifvqeo0","pricing_plan_id":"cebpf4jnsgd1na2vs0mg"},{"bike_id":"0fd80f10-4304-4c12-9af3-a94a305f109a","system_id":"levelo_inurba_marseille","lat":43.26053,"lon":5.39399,"is_reserved":false,"is_disabled":false,"rental_uris":{"android":"levelo://app?vid=0fd80f10-4304-4c12-9af3-a94a305f109a","ios":"levelo://app?vid=0fd80f10-4304-4c12-9af3-a94a305f109a"},"vehicle_type_id":"4","last_reported":1767863914,"current_range_meters":8000,"station_id":"ce4bhh92rcd13ifvqfj0","pricing_plan_id":"cebpf4jnsgd1na2vs0mg"},{"bike_id":"804bced5-7779-4d7f-a23b-cc26efc4cdbd","system_id":"levelo_inurba_marseille","lat":43.330262,"lon":5.390391,"is_reserved":false,"is_disabled":false,"rental_uris":{"android":"levelo://app?vid=804bced5-7779-4d7f-a23b-cc26efc4cdbd","ios":"levelo://app?vid=804bced5-7779-4d7f-a23b-cc26efc4cdbd"},"vehicle_type_id":"4","last_reported":1767863914,"current_range_meters":8000,"station_id":"ce4bhr92rcd13ifvqhrg","pricing_plan_id":"cebpf4jnsgd1na2vs0mg"},{"bike_id":"7a33e47a-d88d-4aa2-8471-a87c5127d060","system_id":"levelo_inurba_marseille","lat":43.29803,"lon":5.38084,"is_reserved":false,"is_disabled":false,"rental_uris":{"android":"levelo://app?vid=7a33e47a-d88d-4aa2-8471-a87c5127d060","ios":"levelo://app?vid=7a33e47a-d88d-4aa2-8471-a87c5127d060"},"vehicle_type_id":"4","last_reported":1767863914,"current_range_meters":8000,"station_id":"ce4bgip2rcd13ifvqbb0","pricing_plan_id":"cebpf4jnsgd1na2vs0mg"},{"bike_id":"1ebedbae-928a-4b4b-9a79-d3cbb323887a","system_id":"levelo_inurba_marseille","lat":43.25322,"lon":5.42177,"is_reserved":false,"is_disabled":false,"rental_uris":{"android":"levelo://app?vid=1ebedbae-928a-4b4b-9a79-d3cbb323887a","ios":"levelo://app?vid=1ebedbae-928a-4b4b-9a79-d3cbb323887a"},"vehicle_type_id":"4","last_reported":1767863914,"current_range_meters":8400,"station_id":"st_d2m65c5bi1j21697t3ng","pricing_plan_id":"cebpf4jnsgd1na2vs0mg"},{"bike_id":"b86cdf0c-e60e-44b1-8077-42145bab1514","system_id":"levelo_inurba_marseille","lat":43.29083,"lon":5.37184,"is_reserved":false,"is_disabled":false,"rental_uris":{"android":"levelo://app?vid=b86cdf0c-e60e-44b1-8077-42145bab1514","ios":"levelo://app?vid=b86cdf0c-e60e-44b1-8077-42145bab1514"},"vehicle_type_id":"4","last_reported":1767863914,"current_range_meters":8400,"station_id":"ce4bh5p2rcd13ifvqe4g","pricing_plan_id":"cebpf4jnsgd1na2vs0mg"},{"bike_id":"39efe3e1-9d88-48e5-bb46-2b1e39c86adc","system_id":"levelo_inurba_marseille","lat":43.30541,"lon":5.36479,"is_reserved":false,"is_disabled":false,"rental_uris":{"android":"levelo://app?vid=39efe3e1-9d88-48e5-bb46-2b1e39c86adc","ios":"levelo://app?vid=39efe3e1-9d88-48e5-bb46-2b1e39c86adc"},"vehicle_type_id":"4","last_reported":1767863914,"current_range_meters":8400,"station_id":"","pricing_plan_id":"cebpf4jnsgd1na2vs0mg"},{"bike_id":"3e3e0047-b0cb-4bda-9ddb-fb1e80df6397","system_id":"levelo_inurba_marseille","lat":43.23148,"lon":5.43712,"is_reserved":false,"is_disabled":false,"rental_uris":{"android":"levelo://app?vid=3e3e0047-b0cb-4bda-9ddb-fb1e80df6397","ios":"levelo://app?vid=3e3e0047-b0cb-4bda-9ddb-fb1e80df6397"},"vehicle_type_id":"4","last_reported":1767863914,"current_range_meters":8400,"station_id":"ce4bhmp2rcd13ifvqgog","pricing_plan_id":"cebpf4jnsgd1na2vs0mg"},{"bike_id":"716246d2-20be-47bc-bc39-93f8b99bcfd5","system_id":"levelo_inurba_marseille","lat":43.28214,"lon":5.3909,"is_reserved":false,"is_disabled":false,"rental_uris":{"android":"levelo://app?vid=716246d2-20be-47bc-bc39-93f8b99bcfd5","ios":"levelo://app?vid=716246d2-20be-47bc-bc39-93f8b99bcfd5"},"vehicle_type_id":"4","last_reported":1767863914,"current_range_meters":8400,"station_id":"ce4bgr92rcd13ifvqc6g","pricing_plan_id":"cebpf4jnsgd1na2vs0mg"},{"bike_id":"064c8191-3107-4a12-b80e-6dc34a12a072","system_id":"levelo_inurba_marseille","lat":43.24816,"lon":5.374575,"is_reserved":false,"is_disabled":false,"rental_uris":{"android":"levelo://app?vid=064c8191-3107-4a12-b80e-6dc34a12a072","ios":"levelo://app?vid=064c8191-3107-4a12-b80e-6dc34a12a072"},"vehicle_type_id":"4","last_reported":1767863914,"current_range_meters":8400,"station_id":"ce4bhgh2rcd13ifvqfb0","pricing_plan_id":"cebpf4jnsgd1na2vs0mg"},{"bike_id":"664dbd2a-2165-4321-a49a-47052a140805","system_id":"levelo_inurba_marseille","lat":43.290722,"lon":5.372106,"is_reserved":false,"is_disabled":false,"rental_uris":{"android":"levelo://app?vid=664dbd2a-2165-4321-a49a-47052a140805","ios":"levelo://app?vid=664dbd2a-2165-4321-a49a-47052a140805"},"vehicle_type_id":"4","last_reported":1767863914,"current_range_meters":8400,"station_id":"","pricing_plan_id":"cebpf4jnsgd1na2vs0mg"},{"bike_id":"a7212a96-f8bf-4337-85ed-dc9b40e3d263","system_id":"levelo_inurba_marseille","lat":43.29256,"lon":5.38435,"is_reserved":false,"is_disabled":false,"rental_uris":{"android":"levelo://app?vid=a7212a96-f8bf-4337-85ed-dc9b40e3d263","ios":"levelo://app?vid=a7212a96-f8bf-4337-85ed-dc9b40e3d263"},"vehicle_type_id":"4","last_reported":1767863914,"current_range_meters":8400,"station_id":"ce4bh692rcd13ifvqea0","pricing_plan_id":"cebpf4jnsgd1na2vs0mg"},{"bike_id":"2e86a668-1ce1-428b-8a5e-7f37b16dfb9d","system_id":"levelo_inurba_marseille","lat":43.315,"lon":5.37274,"is_reserved":false,"is_disabled":false,"rental_uris":{"android":"levelo://app?vid=2e86a668-1ce1-428b-8a5e-7f37b16dfb9d","ios":"levelo://app?vid=2e86a668-1ce1-428b-8a5e-7f37b16dfb9d"},"vehicle_type_id":"4","last_reported":1767863914,"current_range_meters":8400,"station_id":"ce4bgt12rcd13ifvqcd0","pricing_plan_id":"cebpf4jnsgd1na2vs0mg"},{"bike_id":"8d3bcec0-12db-4ded-9c74-16c2ef743121","system_id":"levelo_inurba_marseille","lat":43.30234,"lon":5.39459,"is_reserved":false,"is_disabled":false,"rental_uris":{"android":"levelo://app?vid=8d3bcec0-12db-4ded-9c74-16c2ef743121","ios":"levelo://app?vid=8d3bcec0-12db-4ded-9c74-16c2ef743121"},"vehicle_type_id":"4","last_reported":1767863914,"current_range_meters":8400,"station_id":"ce4bh0p2rcd13ifvqd70","pricing_plan_id":"cebpf4jnsgd1na2vs0mg"},{"bike_id":"e17b7661-f434-44b5-be8b-bc3645d075a0","system_id":"levelo_inurba_marseille","lat":43.31704,"lon":5.43699,"is_reserved":false,"is_disabled":false,"rental_uris":{"android":"levelo://app?vid=e17b7661-f434-44b5-be8b-bc3645d075a0","ios":"levelo://app?vid=e17b7661-f434-44b5-be8b-bc3645d075a0"},"vehicle_type_id":"4","last_reported":1767863914,"current_range_meters":8400,"station_id":"ce4bhp92rcd13ifvqhcg","pricing_plan_id":"cebpf4jnsgd1na2vs0mg"},{"bike_id":"d2deaf15-bdf2-4920-b773-18dd96423ac2","system_id":"levelo_inurba_marseille","lat":43.259296,"lon":5.409128,"is_reserved":false,"is_disabled":false,"rental_uris":{"android":"levelo://app?vid=d2deaf15-bdf2-4920-b773-18dd96423ac2","ios":"levelo://app?vid=d2deaf15-bdf2-4920-b773-18dd96423ac2"},"vehicle_type_id":"4","last_reported":1767863914,"current_range_meters":8400,"station_id":"ce4bhm92rcd13ifvqglg","pricing_plan_id":"cebpf4jnsgd1na2vs0mg"},{"bike_id":"82582fec-7dfe-4668-947f-7bf0439e6b8e","system_id":"levelo_inurba_marseille","lat":43.28476,"lon":5.48414,"is_reserved":false,"is_disabled":false,"rental_uris":{"android":"levelo://app?vid=82582fec-7dfe-4668-947f-7bf0439e6b8e","ios":"levelo://app?vid=82582fec-7dfe-4668-947f-7bf0439e6b8e"},"vehicle_type_id":"4","last_reported":1767863914,"current_range_meters":8400,"station_id":"","pricing_plan_id":"cebpf4jnsgd1na2vs0mg"},{"bike_id":"6fe6c797-0844-4343-9c15-2062e14c7416","system_id":"levelo_inurba_marseille","lat":43.28602,"lon":5.35096,"is_reserved":false,"is_disabled":false,"rental_uris":{"android":"levelo://app?vid=6fe6c797-0844-4343-9c15-2062e14c7416","ios":"levelo://app?vid=6fe6c797-0844-4343-9c15-2062e14c7416"},"vehicle_type_id":"4","last_reported":1767863914,"current_range_meters":8400,"station_id":"ce4bhch2rcd13ifvqeug","pricing_plan_id":"cebpf4jnsgd1na2vs0mg"},{"bike_id":"61e533a6-acc9-488b-a636-f42dc7ec3e94","system_id":"levelo_inurba_marseille","lat":43.23965,"lon":5.36633,"is_reserved":false,"is_disabled":false,"rental_uris":{"android":"levelo://app?vid=61e533a6-acc9-488b-a636-f42dc7ec3e94","ios":"levelo://app?vid=61e533a6-acc9-488b-a636-f42dc7ec3e94"},"vehicle_type_id":"4","last_reported":1767863914,"current_range_meters":8400,"station_id":"ce4bhi12rcd13ifvqfp0","pricing_plan_id":"cebpf4jnsgd1na2vs0mg"},{"bike_id":"8ddd903e-4b58-445b-933d-a20697560094","system_id":"levelo_inurba_marseille","lat":43.33414,"lon":5.40099,"is_reserved":false,"is_disabled":false,"rental_uris":{"android":"levelo://app?vid=8ddd903e-4b58-445b-933d-a20697560094","ios":"levelo://app?vid=8ddd903e-4b58-445b-933d-a20697560094"},"vehicle_type_id":"4","last_reported":1767863914,"current_range_meters":8400,"station_id":"","pricing_plan_id":"cebpf4jnsgd1na2vs0mg"},{"bike_id":"ca952edf-7616-4a9b-8a99-3a013bbb51d1","system_id":"levelo_inurba_marseille","lat":43.27558,"lon":5.38438,"is_reserved":false,"is_disabled":false,"rental_uris":{"android":"levelo://app?vid=ca952edf-7616-4a9b-8a99-3a013bbb51d1","ios":"levelo://app?vid=ca952edf-7616-4a9b-8a99-3a013bbb51d1"},"vehicle_type_id":"4","last_reported":1767863914,"current_range_meters":8400,"station_id":"ce4bhh92rcd13ifvqfi0","pricing_plan_id":"cebpf4jnsgd1na2vs0mg"},{"bike_id":"1ec87dc4-96ce-4c93-a5ce-3d185389cb5b","system_id":"levelo_inurba_marseille","lat":43.28531,"lon":5.44201,"is_reserved":false,"is_disabled":false,"rental_uris":{"android":"levelo://app?vid=1ec87dc4-96ce-4c93-a5ce-3d185389cb5b","ios":"levelo://app?vid=1ec87dc4-96ce-4c93-a5ce-3d185389cb5b"},"vehicle_type_id":"4","last_reported":1767863914,"current_range_meters":8400,"station_id":"st_d3j3df2ikq2c7380ej80","pricing_plan_id":"cebpf4jnsgd1na2vs0mg"},{"bike_id":"dc2ed42d-4b53-4e4f-9010-8036641caedf","system_id":"levelo_inurba_marseille","lat":43.27494,"lon":5.42463,"is_reserved":false,"is_disabled":false,"rental_uris":{"android":"levelo://app?vid=dc2ed42d-4b53-4e4f-9010-8036641caedf","ios":"levelo://app?vid=dc2ed42d-4b53-4e4f-9010-8036641caedf"},"vehicle_type_id":"4","last_reported":1767863914,"current_range_meters":8400,"station_id":"ce4bhn92rcd13ifvqgrg","pricing_plan_id":"cebpf4jnsgd1na2vs0mg"},{"bike_id":"f460f791-d697-4996-a79d-dc3a9a98740e","system_id":"levelo_inurba_marseille","lat":43.28963,"lon":5.37843,"is_reserved":false,"is_disabled":false,"rental_uris":{"android":"levelo://app?vid=f460f791-d697-4996-a79d-dc3a9a98740e","ios":"levelo://app?vid=f460f791-d697-4996-a79d-dc3a9a98740e"},"vehicle_type_id":"4","last_reported":1767863914,"current_range_meters":8400,"station_id":"","pricing_plan_id":"cebpf4jnsgd1na2vs0mg"},{"bike_id":"17f503dd-759a-4134-8ddc-62c5291e6e32","system_id":"levelo_inurba_marseille","lat":43.29026,"lon":5.37547,"is_reserved":false,"is_disabled":false,"rental_uris":{"android":"levelo://app?vid=17f503dd-759a-4134-8ddc-62c5291e6e32","ios":"levelo://app?vid=17f503dd-759a-4134-8ddc-62c5291e6e32"},"vehicle_type_id":"4","last_reported":1767863914,"current_range_meters":8400,"station_id":"ce4bh692rcd13ifvqe90","pricing_plan_id":"cebpf4jnsgd1na2vs0mg"},{"bike_id":"1f3d6f90-9ac0-4e4c-8e3b-d7568d9f29a2","system_id":"levelo_inurba_marseille","lat":43.27959,"lon":5.387,"is_reserved":false,"is_disabled":false,"rental_uris":{"android":"levelo://app?vid=1f3d6f90-9ac0-4e4c-8e3b-d7568d9f29a2","ios":"levelo://app?vid=1f3d6f90-9ac0-4e4c-8e3b-d7568d9f29a2"},"vehicle_type_id":"4","last_reported":1767863914,"current_range_meters":8400,"station_id":"ce4bhg12rcd13ifvqf80","pricing_plan_id":"cebpf4jnsgd1na2vs0mg"},{"bike_id":"0dcb5657-f5a9-4e9f-b743-fc56105afce8","system_id":"levelo_inurba_marseille","lat":43.25719,"lon":5.41107,"is_reserved":false,"is_disabled":false,"rental_uris":{"android":"levelo://app?vid=0dcb5657-f5a9-4e9f-b743-fc56105afce8","ios":"levelo://app?vid=0dcb5657-f5a9-4e9f-b743-fc56105afce8"},"vehicle_type_id":"4","last_reported":1767863914,"current_range_meters":8400,"station_id":"ce4bhkp2rcd13ifvqgd0","pricing_plan_id":"cebpf4jnsgd1na2vs0mg"},{"bike_id":"ae4ea6af-ac8e-4f9d-acb8-d08926e47bb1","system_id":"levelo_inurba_marseille","lat":43.33139,"lon":5.37708,"is_reserved":false,"is_disabled":false,"rental_uris":{"android":"levelo://app?vid=ae4ea6af-ac8e-4f9d-acb8-d08926e47bb1","ios":"levelo://app?vid=ae4ea6af-ac8e-4f9d-acb8-d08926e47bb1"},"vehicle_type_id":"4","last_reported":1767863914,"current_range_meters":8800,"station_id":"st_d46cu089ee8s73dldbu0","pricing_plan_id":"cebpf4jnsgd1na2vs0mg"},{"bike_id":"dfe5a3d6-a632-4015-9d6d-e392452a5f87","system_id":"levelo_inurba_marseille","lat":43.24798,"lon":5.37454,"is_reserved":false,"is_disabled":true,"rental_uris":{"android":"levelo://app?vid=dfe5a3d6-a632-4015-9d6d-e392452a5f87","ios":"levelo://app?vid=dfe5a3d6-a632-4015-9d6d-e392452a5f87"},"vehicle_type_id":"4","last_reported":1767863914,"current_range_meters":8800,"station_id":"ce4bhgh2rcd13ifvqfb0","pricing_plan_id":"cebpf4jnsgd1na2vs0mg"},{"bike_id":"27130211-78b0-4456-a5c1-280c4871ba1e","system_id":"levelo_inurba_marseille","lat":43.29029,"lon":5.39997,"is_reserved":false,"is_disabled":false,"rental_uris":{"android":"levelo://app?vid=27130211-78b0-4456-a5c1-280c4871ba1e","ios":"levelo://app?vid=27130211-78b0-4456-a5c1-280c4871ba1e"},"vehicle_type_id":"4","last_reported":1767863914,"current_range_meters":8800,"station_id":"ce4bh392rcd13ifvqdm0","pricing_plan_id":"cebpf4jnsgd1na2vs0mg"},{"bike_id":"9b8621cc-00fe-4c49-bba1-a268382fca58","system_id":"levelo_inurba_marseille","lat":43.282752,"lon":5.350718,"is_reserved":false,"is_disabled":false,"rental_uris":{"android":"levelo://app?vid=9b8621cc-00fe-4c49-bba1-a268382fca58","ios":"levelo://app?vid=9b8621cc-00fe-4c49-bba1-a268382fca58"},"vehicle_type_id":"4","last_reported":1767863914,"current_range_meters":8800,"station_id":"ce4bhbp2rcd13ifvqerg","pricing_plan_id":"cebpf4jnsgd1na2vs0mg"},{"bike_id":"e98dc820-6aac-4f48-9094-e49c757a1537","system_id":"levelo_inurba_marseille","lat":43.30552,"lon":5.36518,"is_reserved":false,"is_disabled":false,"rental_uris":{"android":"levelo://app?vid=e98dc820-6aac-4f48-9094-e49c757a1537","ios":"levelo://app?vid=e98dc820-6aac-4f48-9094-e49c757a1537"},"vehicle_type_id":"4","last_reported":1767863914,"current_range_meters":8800,"station_id":"ce4bgs12rcd13ifvqcag","pricing_plan_id":"cebpf4jnsgd1na2vs0mg"},{"bike_id":"e41d8bea-ffd2-440d-b446-b472b1d04e4d","system_id":"levelo_inurba_marseille","lat":43.239589,"lon":5.36625,"is_reserved":false,"is_disabled":false,"rental_uris":{"android":"levelo://app?vid=e41d8bea-ffd2-440d-b446-b472b1d04e4d","ios":"levelo://app?vid=e41d8bea-ffd2-440d-b446-b472b1d04e4d"},"vehicle_type_id":"4","last_reported":1767863914,"current_range_meters":8800,"station_id":"ce4bhi12rcd13ifvqfp0","pricing_plan_id":"cebpf4jnsgd1na2vs0mg"},{"bike_id":"08763cfa-f8a3-4140-bbe3-bb5180406344","system_id":"levelo_inurba_marseille","lat":43.231971,"lon":5.355533,"is_reserved":false,"is_disabled":false,"rental_uris":{"android":"levelo://app?vid=08763cfa-f8a3-4140-bbe3-bb5180406344","ios":"levelo://app?vid=08763cfa-f8a3-4140-bbe3-bb5180406344"},"vehicle_type_id":"4","last_reported":1767863914,"current_range_meters":8800,"station_id":"ce4bhu92rcd13ifvqi70","pricing_plan_id":"cebpf4jnsgd1na2vs0mg"},{"bike_id":"ac64f432-9ab8-4dd9-b132-5f28fccbe7fd","system_id":"levelo_inurba_marseille","lat":43.30534,"lon":5.36773,"is_reserved":false,"is_disabled":false,"rental_uris":{"android":"levelo://app?vid=ac64f432-9ab8-4dd9-b132-5f28fccbe7fd","ios":"levelo://app?vid=ac64f432-9ab8-4dd9-b132-5f28fccbe7fd"},"vehicle_type_id":"4","last_reported":1767863914,"current_range_meters":8800,"station_id":"ce4bgrp2rcd13ifvqc9g","pricing_plan_id":"cebpf4jnsgd1na2vs0mg"},{"bike_id":"97452125-5d86-4a9e-b4a3-a2dd4fe9ffac","system_id":"levelo_inurba_marseille","lat":43.25485,"lon":5.37667,"is_reserved":false,"is_disabled":false,"rental_uris":{"android":"levelo://app?vid=97452125-5d86-4a9e-b4a3-a2dd4fe9ffac","ios":"levelo://app?vid=97452125-5d86-4a9e-b4a3-a2dd4fe9ffac"},"vehicle_type_id":"4","last_reported":1767863914,"current_range_meters":8800,"station_id":"ce4bhh12rcd13ifvqff0","pricing_plan_id":"cebpf4jnsgd1na2vs0mg"},{"bike_id":"e412bd1f-9559-40df-baea-da06ff8409ea","system_id":"levelo_inurba_marseille","lat":43.310599,"lon":5.371725,"is_reserved":false,"is_disabled":true,"rental_uris":{"android":"levelo://app?vid=e412bd1f-9559-40df-baea-da06ff8409ea","ios":"levelo://app?vid=e412bd1f-9559-40df-baea-da06ff8409ea"},"vehicle_type_id":"4","last_reported":1767863914,"current_range_meters":8800,"station_id":"st_d4kl2rp97mjs73e7tdfg","pricing_plan_id":"cebpf4jnsgd1na2vs0mg"},{"bike_id":"137e8e5b-07cc-44f5-8b08-088e7a0bd4e2","system_id":"levelo_inurba_marseille","lat":43.25929,"lon":5.40919,"is_reserved":false,"is_disabled":false,"rental_uris":{"android":"levelo://app?vid=137e8e5b-07cc-44f5-8b08-088e7a0bd4e2","ios":"levelo://app?vid=137e8e5b-07cc-44f5-8b08-088e7a0bd4e2"},"vehicle_type_id":"4","last_reported":1767863914,"current_range_meters":8800,"station_id":"ce4bhm92rcd13ifvqglg","pricing_plan_id":"cebpf4jnsgd1na2vs0mg"},{"bike_id":"748e6a5e-97a9-489d-8fdc-20f62045411a","system_id":"levelo_inurba_marseille","lat":43.289084,"lon":5.39674,"is_reserved":false,"is_disabled":false,"rental_uris":{"android":"levelo://app?vid=748e6a5e-97a9-489d-8fdc-20f62045411a","ios":"levelo://app?vid=748e6a5e-97a9-489d-8fdc-20f62045411a"},"vehicle_type_id":"4","last_reported":1767863914,"current_range_meters":8800,"station_id":"ce4bh3h2rcd13ifvqdn0","pricing_plan_id":"cebpf4jnsgd1na2vs0mg"},{"bike_id":"36c3097c-2122-4b98-a149-c16b13fb82b9","system_id":"levelo_inurba_marseille","lat":43.26078,"lon":5.39406,"is_reserved":false,"is_disabled":false,"rental_uris":{"android":"levelo://app?vid=36c3097c-2122-4b98-a149-c16b13fb82b9","ios":"levelo://app?vid=36c3097c-2122-4b98-a149-c16b13fb82b9"},"vehicle_type_id":"4","last_reported":1767863914,"current_range_meters":8800,"station_id":"ce4bhh92rcd13ifvqfj0","pricing_plan_id":"cebpf4jnsgd1na2vs0mg"},{"bike_id":"08f98311-1098-47c1-aad4-24d1eee10af1","system_id":"levelo_inurba_marseille","lat":43.32087,"lon":5.36791,"is_reserved":false,"is_disabled":false,"rental_uris":{"android":"levelo://app?vid=08f98311-1098-47c1-aad4-24d1eee10af1","ios":"levelo://app?vid=08f98311-1098-47c1-aad4-24d1eee10af1"},"vehicle_type_id":"4","last_reported":1767863914,"current_range_meters":8800,"station_id":"ce4bhrh2rcd13ifvqhug","pricing_plan_id":"cebpf4jnsgd1na2vs0mg"},{"bike_id":"bd6c9987-bcf7-478a-bd36-5b8fa7291fe9","system_id":"levelo_inurba_marseille","lat":43.29523,"lon":5.37503,"is_reserved":false,"is_disabled":false,"rental_uris":{"android":"levelo://app?vid=bd6c9987-bcf7-478a-bd36-5b8fa7291fe9","ios":"levelo://app?vid=bd6c9987-bcf7-478a-bd36-5b8fa7291fe9"},"vehicle_type_id":"4","last_reported":1767863914,"current_range_meters":8800,"station_id":"ce4bgkp2rcd13ifvqbmg","pricing_plan_id":"cebpf4jnsgd1na2vs0mg"},{"bike_id":"64c302c3-aa02-4c58-9479-34af2e2a8f98","system_id":"levelo_inurba_marseille","lat":43.30352,"lon":5.41879,"is_reserved":false,"is_disabled":false,"rental_uris":{"android":"levelo://app?vid=64c302c3-aa02-4c58-9479-34af2e2a8f98","ios":"levelo://app?vid=64c302c3-aa02-4c58-9479-34af2e2a8f98"},"vehicle_type_id":"4","last_reported":1767863914,"current_range_meters":8800,"station_id":"ce4bhop2rcd13ifvqh7g","pricing_plan_id":"cebpf4jnsgd1na2vs0mg"},{"bike_id":"4fc027f3-6d21-4416-b1aa-984a0cb31570","system_id":"levelo_inurba_marseille","lat":43.30094,"lon":5.38101,"is_reserved":false,"is_disabled":false,"rental_uris":{"android":"levelo://app?vid=4fc027f3-6d21-4416-b1aa-984a0cb31570","ios":"levelo://app?vid=4fc027f3-6d21-4416-b1aa-984a0cb31570"},"vehicle_type_id":"4","last_reported":1767863914,"current_range_meters":9200,"station_id":"","pricing_plan_id":"cebpf4jnsgd1na2vs0mg"},{"bike_id":"8f870c12-c0c3-4b7a-8d0a-24f628ad1788","system_id":"levelo_inurba_marseille","lat":43.309979,"lon":5.379495,"is_reserved":false,"is_disabled":false,"rental_uris":{"android":"levelo://app?vid=8f870c12-c0c3-4b7a-8d0a-24f628ad1788","ios":"levelo://app?vid=8f870c12-c0c3-4b7a-8d0a-24f628ad1788"},"vehicle_type_id":"4","last_reported":1767863914,"current_range_meters":9200,"station_id":"","pricing_plan_id":"cebpf4jnsgd1na2vs0mg"},{"bike_id":"7934d010-f2d3-4873-969e-5816454b4a28","system_id":"levelo_inurba_marseille","lat":43.29934,"lon":5.36557,"is_reserved":false,"is_disabled":false,"rental_uris":{"android":"levelo://app?vid=7934d010-f2d3-4873-969e-5816454b4a28","ios":"levelo://app?vid=7934d010-f2d3-4873-969e-5816454b4a28"},"vehicle_type_id":"4","last_reported":1767863914,"current_range_meters":9200,"station_id":"ce4bgm92rcd13ifvqbr0","pricing_plan_id":"cebpf4jnsgd1na2vs0mg"},{"bike_id":"a2f5e65b-844f-40aa-b316-8c0973c9d660","system_id":"levelo_inurba_marseille","lat":43.335445,"lon":5.41029,"is_reserved":false,"is_disabled":false,"rental_uris":{"android":"levelo://app?vid=a2f5e65b-844f-40aa-b316-8c0973c9d660","ios":"levelo://app?vid=a2f5e65b-844f-40aa-b316-8c0973c9d660"},"vehicle_type_id":"4","last_reported":1767863914,"current_range_meters":9200,"station_id":"ce4bhqh2rcd13ifvqhmg","pricing_plan_id":"cebpf4jnsgd1na2vs0mg"},{"bike_id":"6fad9ca1-61fd-4cab-8c8e-75dda08e921f","system_id":"levelo_inurba_marseille","lat":43.31974,"lon":5.37438,"is_reserved":false,"is_disabled":false,"rental_uris":{"android":"levelo://app?vid=6fad9ca1-61fd-4cab-8c8e-75dda08e921f","ios":"levelo://app?vid=6fad9ca1-61fd-4cab-8c8e-75dda08e921f"},"vehicle_type_id":"4","last_reported":1767863914,"current_range_meters":9200,"station_id":"","pricing_plan_id":"cebpf4jnsgd1na2vs0mg"},{"bike_id":"b2a3da8f-bf56-4eb9-9359-d00614059d44","system_id":"levelo_inurba_marseille","lat":43.29085,"lon":5.38083,"is_reserved":false,"is_disabled":false,"rental_uris":{"android":"levelo://app?vid=b2a3da8f-bf56-4eb9-9359-d00614059d44","ios":"levelo://app?vid=b2a3da8f-bf56-4eb9-9359-d00614059d44"},"vehicle_type_id":"4","last_reported":1767863914,"current_range_meters":9200,"station_id":"ce4bh512rcd13ifvqe2g","pricing_plan_id":"cebpf4jnsgd1na2vs0mg"},{"bike_id":"2a2a830a-265f-44f4-8c94-f351f58e5cc9","system_id":"levelo_inurba_marseille","lat":43.24091,"lon":5.37827,"is_reserved":false,"is_disabled":false,"rental_uris":{"android":"levelo://app?vid=2a2a830a-265f-44f4-8c94-f351f58e5cc9","ios":"levelo://app?vid=2a2a830a-265f-44f4-8c94-f351f58e5cc9"},"vehicle_type_id":"4","last_reported":1767863914,"current_range_meters":9200,"station_id":"","pricing_plan_id":"cebpf4jnsgd1na2vs0mg"},{"bike_id":"f2b1a0bf-11b7-48ba-984e-b377c411ce26","system_id":"levelo_inurba_marseille","lat":43.33752,"lon":5.37438,"is_reserved":false,"is_disabled":false,"rental_uris":{"android":"levelo://app?vid=f2b1a0bf-11b7-48ba-984e-b377c411ce26","ios":"levelo://app?vid=f2b1a0bf-11b7-48ba-984e-b377c411ce26"},"vehicle_type_id":"4","last_reported":1767863914,"current_range_meters":9200,"station_id":"","pricing_plan_id":"cebpf4jnsgd1na2vs0mg"},{"bike_id":"499aa364-56ad-47de-80f9-39c1cd4ecb0c","system_id":"levelo_inurba_marseille","lat":43.26198,"lon":5.37938,"is_reserved":false,"is_disabled":false,"rental_uris":{"android":"levelo://app?vid=499aa364-56ad-47de-80f9-39c1cd4ecb0c","ios":"levelo://app?vid=499aa364-56ad-47de-80f9-39c1cd4ecb0c"},"vehicle_type_id":"4","last_reported":1767863914,"current_range_meters":9200,"station_id":"ce4bhjp2rcd13ifvqg90","pricing_plan_id":"cebpf4jnsgd1na2vs0mg"},{"bike_id":"52c545a6-4990-49e9-b5f1-ef579ddc71f3","system_id":"levelo_inurba_marseille","lat":43.25575,"lon":5.38239,"is_reserved":false,"is_disabled":false,"rental_uris":{"android":"levelo://app?vid=52c545a6-4990-49e9-b5f1-ef579ddc71f3","ios":"levelo://app?vid=52c545a6-4990-49e9-b5f1-ef579ddc71f3"},"vehicle_type_id":"4","last_reported":1767863914,"current_range_meters":9200,"station_id":"ce4bhih2rcd13ifvqfs0","pricing_plan_id":"cebpf4jnsgd1na2vs0mg"},{"bike_id":"ce3cc1d9-9ec8-4064-92e2-4915f0b7e6ce","system_id":"levelo_inurba_marseille","lat":43.24628,"lon":5.43124,"is_reserved":false,"is_disabled":false,"rental_uris":{"android":"levelo://app?vid=ce3cc1d9-9ec8-4064-92e2-4915f0b7e6ce","ios":"levelo://app?vid=ce3cc1d9-9ec8-4064-92e2-4915f0b7e6ce"},"vehicle_type_id":"4","last_reported":1767863914,"current_range_meters":9200,"station_id":"st_d2m6c4gdas8pm72e190g","pricing_plan_id":"cebpf4jnsgd1na2vs0mg"},{"bike_id":"49693813-6422-4c0b-883f-2f9444f40ff2","system_id":"levelo_inurba_marseille","lat":43.25492,"lon":5.37647,"is_reserved":false,"is_disabled":false,"rental_uris":{"android":"levelo://app?vid=49693813-6422-4c0b-883f-2f9444f40ff2","ios":"levelo://app?vid=49693813-6422-4c0b-883f-2f9444f40ff2"},"vehicle_type_id":"4","last_reported":1767863914,"current_range_meters":9200,"station_id":"ce4bhh12rcd13ifvqff0","pricing_plan_id":"cebpf4jnsgd1na2vs0mg"},{"bike_id":"31447a0e-5f20-40ed-81c7-81b3e7eb8db6","system_id":"levelo_inurba_marseille","lat":43.31379,"lon":5.38598,"is_reserved":false,"is_disabled":false,"rental_uris":{"android":"levelo://app?vid=31447a0e-5f20-40ed-81c7-81b3e7eb8db6","ios":"levelo://app?vid=31447a0e-5f20-40ed-81c7-81b3e7eb8db6"},"vehicle_type_id":"4","last_reported":1767863914,"current_range_meters":9200,"station_id":"","pricing_plan_id":"cebpf4jnsgd1na2vs0mg"},{"bike_id":"51273839-cbf2-4f06-a0ae-7cd213f5b6f3","system_id":"levelo_inurba_marseille","lat":43.32104,"lon":5.36768,"is_reserved":false,"is_disabled":false,"rental_uris":{"android":"levelo://app?vid=51273839-cbf2-4f06-a0ae-7cd213f5b6f3","ios":"levelo://app?vid=51273839-cbf2-4f06-a0ae-7cd213f5b6f3"},"vehicle_type_id":"4","last_reported":1767863914,"current_range_meters":9200,"station_id":"ce4bhrh2rcd13ifvqhug","pricing_plan_id":"cebpf4jnsgd1na2vs0mg"},{"bike_id":"1ec94ba1-41d1-4288-80e5-6a131d1cb21d","system_id":"levelo_inurba_marseille","lat":43.25314,"lon":5.4215,"is_reserved":false,"is_disabled":false,"rental_uris":{"android":"levelo://app?vid=1ec94ba1-41d1-4288-80e5-6a131d1cb21d","ios":"levelo://app?vid=1ec94ba1-41d1-4288-80e5-6a131d1cb21d"},"vehicle_type_id":"4","last_reported":1767863914,"current_range_meters":9200,"station_id":"st_d2m65c5bi1j21697t3ng","pricing_plan_id":"cebpf4jnsgd1na2vs0mg"},{"bike_id":"eaa3ec55-50cc-48b3-879b-aff258e91fe9","system_id":"levelo_inurba_marseille","lat":43.25918,"lon":5.40903,"is_reserved":false,"is_disabled":true,"rental_uris":{"android":"levelo://app?vid=eaa3ec55-50cc-48b3-879b-aff258e91fe9","ios":"levelo://app?vid=eaa3ec55-50cc-48b3-879b-aff258e91fe9"},"vehicle_type_id":"4","last_reported":1767863914,"current_range_meters":9200,"station_id":"","pricing_plan_id":"cebpf4jnsgd1na2vs0mg"},{"bike_id":"df8ff779-90c8-4b65-a5d0-99687c060dae","system_id":"levelo_inurba_marseille","lat":43.32316,"lon":5.36741,"is_reserved":false,"is_disabled":false,"rental_uris":{"android":"levelo://app?vid=df8ff779-90c8-4b65-a5d0-99687c060dae","ios":"levelo://app?vid=df8ff779-90c8-4b65-a5d0-99687c060dae"},"vehicle_type_id":"4","last_reported":1767863914,"current_range_meters":9200,"station_id":"ce4bhsh2rcd13ifvqi2g","pricing_plan_id":"cebpf4jnsgd1na2vs0mg"},{"bike_id":"7ee1bc92-715b-40d0-a6fc-d16ca91a7615","system_id":"levelo_inurba_marseille","lat":43.295346,"lon":5.390403,"is_reserved":false,"is_disabled":true,"rental_uris":{"android":"levelo://app?vid=7ee1bc92-715b-40d0-a6fc-d16ca91a7615","ios":"levelo://app?vid=7ee1bc92-715b-40d0-a6fc-d16ca91a7615"},"vehicle_type_id":"4","last_reported":1767863914,"current_range_meters":9200,"station_id":"ce4bh3p2rcd13ifvqdp0","pricing_plan_id":"cebpf4jnsgd1na2vs0mg"},{"bike_id":"9ef85b08-23b5-4cda-8f85-8a0c9469e17b","system_id":"levelo_inurba_marseille","lat":43.22575,"lon":5.41547,"is_reserved":false,"is_disabled":false,"rental_uris":{"android":"levelo://app?vid=9ef85b08-23b5-4cda-8f85-8a0c9469e17b","ios":"levelo://app?vid=9ef85b08-23b5-4cda-8f85-8a0c9469e17b"},"vehicle_type_id":"4","last_reported":1767863914,"current_range_meters":9200,"station_id":"st_d2o4gvlbi1j2169b742g","pricing_plan_id":"cebpf4jnsgd1na2vs0mg"},{"bike_id":"9d86b48d-3bfe-413c-a5c5-e3508128b298","system_id":"levelo_inurba_marseille","lat":43.28432,"lon":5.34988,"is_reserved":false,"is_disabled":false,"rental_uris":{"android":"levelo://app?vid=9d86b48d-3bfe-413c-a5c5-e3508128b298","ios":"levelo://app?vid=9d86b48d-3bfe-413c-a5c5-e3508128b298"},"vehicle_type_id":"4","last_reported":1767863914,"current_range_meters":9200,"station_id":"ce4bhbh2rcd13ifvqepg","pricing_plan_id":"cebpf4jnsgd1na2vs0mg"},{"bike_id":"c16d3dd6-c48f-4d72-b797-f5547da99d65","system_id":"levelo_inurba_marseille","lat":43.27493,"lon":5.42452,"is_reserved":false,"is_disabled":false,"rental_uris":{"android":"levelo://app?vid=c16d3dd6-c48f-4d72-b797-f5547da99d65","ios":"levelo://app?vid=c16d3dd6-c48f-4d72-b797-f5547da99d65"},"vehicle_type_id":"4","last_reported":1767863914,"current_range_meters":9200,"station_id":"ce4bhn92rcd13ifvqgrg","pricing_plan_id":"cebpf4jnsgd1na2vs0mg"},{"bike_id":"528852f0-b3e1-4361-91fd-d35d5de704d7","system_id":"levelo_inurba_marseille","lat":43.25506,"lon":5.37666,"is_reserved":false,"is_disabled":false,"rental_uris":{"android":"levelo://app?vid=528852f0-b3e1-4361-91fd-d35d5de704d7","ios":"levelo://app?vid=528852f0-b3e1-4361-91fd-d35d5de704d7"},"vehicle_type_id":"4","last_reported":1767863914,"current_range_meters":9600,"station_id":"ce4bhh12rcd13ifvqff0","pricing_plan_id":"cebpf4jnsgd1na2vs0mg"},{"bike_id":"d21a38a4-dfdd-4a94-bb02-4a609b8ff467","system_id":"levelo_inurba_marseille","lat":43.30891,"lon":5.3963,"is_reserved":false,"is_disabled":true,"rental_uris":{"android":"levelo://app?vid=d21a38a4-dfdd-4a94-bb02-4a609b8ff467","ios":"levelo://app?vid=d21a38a4-dfdd-4a94-bb02-4a609b8ff467"},"vehicle_type_id":"4","last_reported":1767863914,"current_range_meters":9600,"station_id":"ce4bh012rcd13ifvqcv0","pricing_plan_id":"cebpf4jnsgd1na2vs0mg"},{"bike_id":"340c9d39-0070-45e1-a1b3-0352b58e4e25","system_id":"levelo_inurba_marseille","lat":43.29253,"lon":5.409087,"is_reserved":false,"is_disabled":true,"rental_uris":{"android":"levelo://app?vid=340c9d39-0070-45e1-a1b3-0352b58e4e25","ios":"levelo://app?vid=340c9d39-0070-45e1-a1b3-0352b58e4e25"},"vehicle_type_id":"4","last_reported":1767863914,"current_range_meters":9600,"station_id":"ce4bh192rcd13ifvqdc0","pricing_plan_id":"cebpf4jnsgd1na2vs0mg"},{"bike_id":"18afa7e5-a060-43b9-bd3e-ab224bbb7669","system_id":"levelo_inurba_marseille","lat":43.28862,"lon":5.42526,"is_reserved":false,"is_disabled":false,"rental_uris":{"android":"levelo://app?vid=18afa7e5-a060-43b9-bd3e-ab224bbb7669","ios":"levelo://app?vid=18afa7e5-a060-43b9-bd3e-ab224bbb7669"},"vehicle_type_id":"4","last_reported":1767863914,"current_range_meters":9600,"station_id":"st_d3b462108ojc7389ooeg","pricing_plan_id":"cebpf4jnsgd1na2vs0mg"},