{"last_updated":1751696072,"ttl":60,"version":"2.2","data":{"bikes":[{"bike_id":"3da29fb8-fc97-44c6-b9ac-31dd456b2fd4","system_id":"levelo_inurba_marseille","lat":43.33771,"lon":5.37424,"is_reserved":false,"is_disabled":true,"rental_uris":{"android":"levelo://app?vid=3da29fb8-fc97-44c6-b9ac-31dd456b2fd4","ios":"levelo://app?vid=3da29fb8-fc97-44c6-b9ac-31dd456b2fd4"},"vehicle_type_id":"4","last_reported":1751696073,"current_range_meters":0,"station_id":"","pricing_plan_id":"cebpf4jnsgd1na2vs0mg"},{"bike_id":"01861ad8-a8d7-4be6-816e-651927c87584","system_id":"levelo_inurba_marseille","lat":43.33751,"lon":5.37456,"is_reserved":false,"is_disabled":true,"rental_uris":{"android":"levelo://app?vid=01861ad8-a8d7-4be6-816e-651927c87584","ios":"levelo://app?vid=01861ad8-a8d7-4be6-816e-651927c87584"},"vehicle_type_id":"4","last_reported":1751696073,"current_range_meters":0,"station_id":"","pricing_plan_id":"cebpf4jnsgd1na2vs0mg"},{"bike_id":"4bfb979f-5f1f-4d4f-9bc2-62863e748cdf","system_id":"levelo_inurba_marseille","lat":43.350122,"lon":5.350234,"is_reserved":false,"is_disabled":true,"rental_uris":{"android":"levelo://app?vid=4bfb979f-5f1f-4d4f-9bc2-62863e748cdf","ios":"levelo://app?vid=4bfb979f-5f1f-4d4f-9bc2-62863e748cdf"},"vehicle_type_id":"4","last_reported":1751696073,"current_range_meters":0,"station_id":"","pricing_plan_id":"cebpf4jnsgd1na2vs0mg"},{"bike_id":"28629cd6-1072-4f5d-961e-e7f9fc106fa0","system_id":"levelo_inurba_marseille","lat":43.30154,"lon":5.38078,"is_reserved":false,"is_disabled":true,"rental_uris":{"android":"levelo://app?vid=28629cd6-1072-4f5d-961e-e7f9fc106fa0","ios":"levelo://app?vid=28629cd6-1072-4f5d-961e-e7f9fc106fa0"},"vehicle_type_id":"4","last_reported":1751696073,"current_range_meters":0,"station_id":"ce4bgjp2rcd13ifvqbh0","pricing_plan_id":"cebpf4jnsgd1na2vs0mg"},{"bike_id":"c9c1daf4-a7c2-403a-9448-2d7f40669937","system_id":"levelo_inurba_marseille","lat":43.31362,"lon":5.384956,"is_reserved":false,"is_disabled":true,"rental_uris":{"android":"levelo://app?vid=c9c1daf4-a7c2-403a-9448-2d7f40669937","ios":"levelo://app?vid=c9c1daf4-a7c2-403a-9448-2d7f40669937"},"vehicle_type_id":"4","last_reported":1751696073,"current_range_meters":0,"station_id":"ce4bgt92rcd13ifvqcf0","pricing_plan_id":"cebpf4jnsgd1na2vs0mg"},{"bike_id":"b537497f-0baa-4d4a-a9e1-cc8e25d8e50b","system_id":"levelo_inurba_marseille","lat":43.24572,"lon":5.39484,"is_reserved":false,"is_disabled":true,"rental_uris":{"android":"levelo://app?vid=b537497f-0baa-4d4a-a9e1-cc8e25d8e50b","ios":"levelo://app?vid=b537497f-0baa-4d4a-a9e1-cc8e25d8e50b"},"vehicle_type_id":"4","last_reported":1751696073,"current_range_meters":0,"station_id":"ce4bhlp2rcd13ifvqgjg","pricing_plan_id":"cebpf4jnsgd1na2vs0mg"},{"bike_id":"971e8e67-4c4e-4dd5-8308-f203cafca49c","system_id":"levelo_inurba_marseille","lat":43.24178,"lon":5.39722,"is_reserved":false,"is_disabled":true,"rental_uris":{"android":"levelo://app?vid=971e8e67-4c4e-4dd5-8308-f203cafca49c","ios":"levelo://app?vid=971e8e67-4c4e-4dd5-8308-f203cafca49c"},"vehicle_type_id":"4","last_reported":1751696073,"current_range_meters":0,"station_id":"ce4bhn12rcd13ifvqgpg","pricing_plan_id":"cebpf4jnsgd1na2vs0mg"},{"bike_id":"c5b91b0a-5fc4-4165-b464-20e1a4c673fb","system_id":"levelo_inurba_marseille","lat":43.32356,"lon":5.36744,"is_reserved":false,"is_disabled":true,"rental_uris":{"android":"levelo://app?vid=c5b91b0a-5fc4-4165-b464-20e1a4c673fb","ios":"levelo://app?vid=c5b91b0a-5fc4-4165-b464-20e1a4c673fb"},"vehicle_type_id":"4","last_reported":1751696073,"current_range_meters":0,"station_id":"ce4bhsh2rcd13ifvqi2g","pricing_plan_id":"cebpf4jnsgd1na2vs0mg"},{"bike_id":"fb7eaa34-3090-467a-bc3a-a4c2c7cd510d","system_id":"levelo_inurba_marseille","lat":43.21747,"lon":5.34595,"is_reserved":false,"is_disabled":true,"rental_uris":{"android":"levelo://app?vid=fb7eaa34-3090-467a-bc3a-a4c2c7cd510d","ios":"levelo://app?vid=fb7eaa34-3090-467a-bc3a-a4c2c7cd510d"},"vehicle_type_id":"4","last_reported":1751696073,"current_range_meters":0,"station_id":"st_cvj6r9ubvosntc0bgbag","pricing_plan_id":"cebpf4jnsgd1na2vs0mg"},{"bike_id":"2db7de25-6c57-447b-bff5-ea01c3753780","system_id":"levelo_inurba_marseille","lat":43.21755,"lon":5.34607,"is_reserved":false,"is_disabled":true,"rental_uris":{"android":"levelo://app?vid=2db7de25-6c57-447b-bff5-ea01c3753780","ios":"levelo://app?vid=2db7de25-6c57-447b-bff5-ea01c3753780"},"vehicle_type_id":"4","last_reported":1751696073,"current_range_meters":0,"station_id":"st_cvj6r9ubvosntc0bgbag","pricing_plan_id":"cebpf4jnsgd1na2vs0mg"},{"bike_id":"232c7599-afff-41a5-b0d2-0bcec5f48bb6","system_id":"levelo_inurba_marseille","lat":43.217534,"lon":5.345954,"is_reserved":false,"is_disabled":true,"rental_uris":{"android":"levelo://app?vid=232c7599-afff-41a5-b0d2-0bcec5f48bb6","ios":"levelo://app?vid=232c7599-afff-41a5-b0d2-0bcec5f48bb6"},"vehicle_type_id":"4","last_reported":1751696073,"current_range_meters":0,"station_id":"st_cvj6r9ubvosntc0bgbag","pricing_plan_id":"cebpf4jnsgd1na2vs0mg"},{"bike_id":"5e8830ec-34e5-4f0f-b607-434b2954d153","system_id":"levelo_inurba_marseille","lat":43.21196,"lon":5.35073,"is_reserved":false,"is_disabled":true,"rental_uris":{"android":"levelo://app?vid=5e8830ec-34e5-4f0f-b607-434b2954d153","ios":"levelo://app?vid=5e8830ec-34e5-4f0f-b607-434b2954d153"},"vehicle_type_id":"4","last_reported":1751696073,"current_range_meters":0,"station_id":"st_cvj6sg6p6f1abm77japg","pricing_plan_id":"cebpf4jnsgd1na2vs0mg"},{"bike_id":"cd2a3af2-854b-4519-92e5-1eaf70ba8a37","system_id":"levelo_inurba_marseille","lat":43.21206,"lon":5.35058,"is_reserved":false,"is_disabled":true,"rental_uris":{"android":"levelo://app?vid=cd2a3af2-854b-4519-92e5-1eaf70ba8a37","ios":"levelo://app?vid=cd2a3af2-854b-4519-92e5-1eaf70ba8a37"},"vehicle_type_id":"4","last_reported":1751696073,"current_range_meters":0,"station_id":"st_cvj6sg6p6f1abm77japg","pricing_plan_id":"cebpf4jnsgd1na2vs0mg"},{"bike_id":"e6aaf71f-807e-488a-8c23-ad961a269e6c","system_id":"levelo_inurba_marseille","lat":43.30155,"lon":5.38102,"is_reserved":false,"is_disabled":true,"rental_uris":{"android":"levelo://app?vid=e6aaf71f-807e-488a-8c23-ad961a269e6c","ios":"levelo://app?vid=e6aaf71f-807e-488a-8c23-ad961a269e6c"},"vehicle_type_id":"4","last_reported":1751696073,"current_range_meters":400,"station_id":"ce4bgjp2rcd13ifvqbh0","pricing_plan_id":"cebpf4jnsgd1na2vs0mg"},{"bike_id":"93e1b89f-cfe9-4cac-a315-b1697d9bdad0","system_id":"levelo_inurba_marseille","lat":43.30774,"lon":5.37638,"is_reserved":false,"is_disabled":true,"rental_uris":{"android":"levelo://app?vid=93e1b89f-cfe9-4cac-a315-b1697d9bdad0","ios":"levelo://app?vid=93e1b89f-cfe9-4cac-a315-b1697d9bdad0"},"vehicle_type_id":"4","last_reported":1751696073,"current_range_meters":800,"station_id":"ce4bgv92rcd13ifvqcq0","pricing_plan_id":"cebpf4jnsgd1na2vs0mg"},{"bike_id":"ebe86294-c08a-4bb8-b31d-b2f05bd33200","system_id":"levelo_inurba_marseille","lat":43.29273,"lon":5.3845,"is_reserved":false,"is_disabled":true,"rental_uris":{"android":"levelo://app?vid=ebe86294-c08a-4bb8-b31d-b2f05bd33200","ios":"levelo://app?vid=ebe86294-c08a-4bb8-b31d-b2f05bd33200"},"vehicle_type_id":"4","last_reported":1751696073,"current_range_meters":1200,"station_id":"ce4bh692rcd13ifvqea0","pricing_plan_id":"cebpf4jnsgd1na2vs0mg"},{"bike_id":"8afa7640-ebe8-4025-983a-c83f3912a2dd","system_id":"levelo_inurba_marseille","lat":43.211995,"lon":5.350538,"is_reserved":false,"is_disabled":true,"rental_uris":{"android":"levelo://app?vid=8afa7640-ebe8-4025-983a-c83f3912a2dd","ios":"levelo://app?vid=8afa7640-ebe8-4025-983a-c83f3912a2dd"},"vehicle_type_id":"4","last_reported":1751696073,"current_range_meters":1600,"station_id":"st_cvj6sg6p6f1abm77japg","pricing_plan_id":"cebpf4jnsgd1na2vs0mg"},{"bike_id":"61db916c-893f-4696-8933-ad53a87f3d71","system_id":"levelo_inurba_marseille","lat":43.2848,"lon":5.38566,"is_reserved":false,"is_disabled":true,"rental_uris":{"android":"levelo://app?vid=61db916c-893f-4696-8933-ad53a87f3d71","ios":"levelo://app?vid=61db916c-893f-4696-8933-ad53a87f3d71"},"vehicle_type_id":"4","last_reported":1751696073,"current_range_meters":2000,"station_id":"ce4bh8p2rcd13ifvqeb0","pricing_plan_id":"cebpf4jnsgd1na2vs0mg"},{"bike_id":"bf2902ee-8916-4137-bcd8-4f26438af8f1","system_id":"levelo_inurba_marseille","lat":43.28083,"lon":5.37903,"is_reserved":false,"is_disabled":true,"rental_uris":{"android":"levelo://app?vid=bf2902ee-8916-4137-bcd8-4f26438af8f1","ios":"levelo://app?vid=bf2902ee-8916-4137-bcd8-4f26438af8f1"},"vehicle_type_id":"4","last_reported":1751696073,"current_range_meters":2000,"station_id":"ce4bha12rcd13ifvqee0","pricing_plan_id":"cebpf4jnsgd1na2vs0mg"},{"bike_id":"e26ba497-efc7-4420-b8c5-9fa5e27f2ce4","system_id":"levelo_inurba_marseille","lat":43.3136,"lon":5.37078,"is_reserved":false,"is_disabled":false,"rental_uris":{"android":"levelo://app?vid=e26ba497-efc7-4420-b8c5-9fa5e27f2ce4","ios":"levelo://app?vid=e26ba497-efc7-4420-b8c5-9fa5e27f2ce4"},"vehicle_type_id":"4","last_reported":1751696073,"current_range_meters":3200,"station_id":"","pricing_plan_id":"cebpf4jnsgd1na2vs0mg"},{"bike_id":"7483024e-94ab-494a-b457-54fd9cb9c338","system_id":"levelo_inurba_marseille","lat":43.31695,"lon":5.40464,"is_reserved":false,"is_disabled":false,"rental_uris":{"android":"levelo://app?vid=7483024e-94ab-494a-b457-54fd9cb9c338","ios":"levelo://app?vid=7483024e-94ab-494a-b457-54fd9cb9c338"},"vehicle_type_id":"4","last_reported":1751696073,"current_range_meters":3200,"station_id":"ce4bh012rcd13ifvqd00","pricing_plan_id":"cebpf4jnsgd1na2vs0mg"},{"bike_id":"6f97ac77-653a-41ea-b59e-2bf53e796ad4","system_id":"levelo_inurba_marseille","lat":43.26059,"lon":5.39393,"is_reserved":false,"is_disabled":false,"rental_uris":{"android":"levelo://app?vid=6f97ac77-653a-41ea-b59e-2bf53e796ad4","ios":"levelo://app?vid=6f97ac77-653a-41ea-b59e-2bf53e796ad4"},"vehicle_type_id":"4","last_reported":1751696073,"current_range_meters":3200,"station_id":"ce4bhh92rcd13ifvqfj0","pricing_plan_id":"cebpf4jnsgd1na2vs0mg"},{"bike_id":"8b9f69fa-9641-40ef-b52f-36d6dea8561c","system_id":"levelo_inurba_marseille","lat":43.290575,"lon":5.377645,"is_reserved":false,"is_disabled":false,"rental_uris":{"android":"levelo://app?vid=8b9f69fa-9641-40ef-b52f-36d6dea8561c","ios":"levelo://app?vid=8b9f69fa-9641-40ef-b52f-36d6dea8561c"},"vehicle_type_id":"4","last_reported":1751696073,"current_range_meters":3600,"station_id":"","pricing_plan_id":"cebpf4jnsgd1na2vs0mg"},{"bike_id":"c3ae91a3-84a1-49e1-b302-b2dd0c68bce6","system_id":"levelo_inurba_marseille","lat":43.283251,"lon":5.432386,"is_reserved":false,"is_disabled":false,"rental_uris":{"android":"levelo://app?vid=c3ae91a3-84a1-49e1-b302-b2dd0c68bce6","ios":"levelo://app?vid=c3ae91a3-84a1-49e1-b302-b2dd0c68bce6"},"vehicle_type_id":"4","last_reported":1751696073,"current_range_meters":3600,"station_id":"","pricing_plan_id":"cebpf4jnsgd1na2vs0mg"},{"bike_id":"3506754f-5a43-499e-8081-efb7f8357138","system_id":"levelo_inurba_marseille","lat":43.25938,"lon":5.40902,"is_reserved":false,"is_disabled":false,"rental_uris":{"android":"levelo://app?vid=3506754f-5a43-499e-8081-efb7f8357138","ios":"levelo://app?vid=3506754f-5a43-499e-8081-efb7f8357138"},"vehicle_type_id":"4","last_reported":1751696073,"current_range_meters":3600,"station_id":"ce4bhm92rcd13ifvqglg","pricing_plan_id":"cebpf4jnsgd1na2vs0mg"},{"bike_id":"d52317ec-9d8e-4e5d-a5ef-563eb0952a26","system_id":"levelo_inurba_marseille","lat":43.31761,"lon":5.39002,"is_reserved":false,"is_disabled":false,"rental_uris":{"android":"levelo://app?vid=d52317ec-9d8e-4e5d-a5ef-563eb0952a26","ios":"levelo://app?vid=d52317ec-9d8e-4e5d-a5ef-563eb0952a26"},"vehicle_type_id":"4","last_reported":1751696073,"current_range_meters":3600,"station_id":"ce4bhqp2rcd13ifvqhng","pricing_plan_id":"cebpf4jnsgd1na2vs0mg"},{"bike_id":"e1f97b1f-9bf3-41f9-a8ce-85b57dae1864","system_id":"levelo_inurba_marseille","lat":43.30145,"lon":5.38077,"is_reserved":false,"is_disabled":false,"rental_uris":{"android":"levelo://app?vid=e1f97b1f-9bf3-41f9-a8ce-85b57dae1864","ios":"levelo://app?vid=e1f97b1f-9bf3-41f9-a8ce-85b57dae1864"},"vehicle_type_id":"4","last_reported":1751696073,"current_range_meters":4000,"station_id":"ce4bgjp2rcd13ifvqbh0","pricing_plan_id":"cebpf4jnsgd1na2vs0mg"},{"bike_id":"e9f93152-c103-42e7-8290-70a0dd64d0c1","system_id":"levelo_inurba_marseille","lat":43.24811,"lon":5.37457,"is_reserved":false,"is_disabled":false,"rental_uris":{"android":"levelo://app?vid=e9f93152-c103-42e7-8290-70a0dd64d0c1","ios":"levelo://app?vid=e9f93152-c103-42e7-8290-70a0dd64d0c1"},"vehicle_type_id":"4","last_reported":1751696073,"current_range_meters":4400,"station_id":"","pricing_plan_id":"cebpf4jnsgd1na2vs0mg"},{"bike_id":"9bfc7d3d-4e60-4f8a-9c32-ef3d0e77ec5b","system_id":"levelo_inurba_marseille","lat":43.21223,"lon":5.35047,"is_reserved":false,"is_disabled":false,"rental_uris":{"android":"levelo://app?vid=9bfc7d3d-4e60-4f8a-9c32-ef3d0e77ec5b","ios":"levelo://app?vid=9bfc7d3d-4e60-4f8a-9c32-ef3d0e77ec5b"},"vehicle_type_id":"4","last_reported":1751696073,"current_range_meters":4400,"station_id":"","pricing_plan_id":"cebpf4jnsgd1na2vs0mg"},{"bike_id":"e6e3ebe5-5d8f-437c-8f99-f6bd243ac5b2","system_id":"levelo_inurba_marseille","lat":43.30486,"lon":5.36972,"is_reserved":false,"is_disabled":false,"rental_uris":{"android":"levelo://app?vid=e6e3ebe5-5d8f-437c-8f99-f6bd243ac5b2","ios":"levelo://app?vid=e6e3ebe5-5d8f-437c-8f99-f6bd243ac5b2"},"vehicle_type_id":"4","last_reported":1751696073,"current_range_meters":4800,"station_id":"","pricing_plan_id":"cebpf4jnsgd1na2vs0mg"},{"bike_id":"20a85b05-f36d-41d5-a952-fe1a16c0cc78","system_id":"levelo_inurba_marseille","lat":43.28454,"lon":5.39128,"is_reserved":false,"is_disabled":false,"rental_uris":{"android":"levelo://app?vid=20a85b05-f36d-41d5-a952-fe1a16c0cc78","ios":"levelo://app?vid=20a85b05-f36d-41d5-a952-fe1a16c0cc78"},"vehicle_type_id":"4","last_reported":1751696073,"current_range_meters":4800,"station_id":"ce4bhoh2rcd13ifvqh5g","pricing_plan_id":"cebpf4jnsgd1na2vs0mg"},{"bike_id":"ceb0843f-0aa8-4ba6-bd1a-5ec209614a3c","system_id":"levelo_inurba_marseille","lat":43.241591,"lon":5.363934,"is_reserved":false,"is_disabled":false,"rental_uris":{"android":"levelo://app?vid=ceb0843f-0aa8-4ba6-bd1a-5ec209614a3c","ios":"levelo://app?vid=ceb0843f-0aa8-4ba6-bd1a-5ec209614a3c"},"vehicle_type_id":"4","last_reported":1751696073,"current_range_meters":4800,"station_id":"cpo36qri1sfpv3e86is0","pricing_plan_id":"cebpf4jnsgd1na2vs0mg"},{"bike_id":"be4e2ba2-f83c-4be6-923a-932d435bb5ce","system_id":"levelo_inurba_marseille","lat":43.28237,"lon":5.40438,"is_reserved":false,"is_disabled":false,"rental_uris":{"android":"levelo://app?vid=be4e2ba2-f83c-4be6-923a-932d435bb5ce","ios":"levelo://app?vid=be4e2ba2-f83c-4be6-923a-932d435bb5ce"},"vehicle_type_id":"4","last_reported":1751696073,"current_range_meters":5600,"station_id":"","pricing_plan_id":"cebpf4jnsgd1na2vs0mg"},{"bike_id":"9d35c8de-cf05-46a4-9f4b-a304e5126e37","system_id":"levelo_inurba_marseille","lat":43.301373,"lon":5.374153,"is_reserved":false,"is_disabled":false,"rental_uris":{"android":"levelo://app?vid=9d35c8de-cf05-46a4-9f4b-a304e5126e37","ios":"levelo://app?vid=9d35c8de-cf05-46a4-9f4b-a304e5126e37"},"vehicle_type_id":"4","last_reported":1751696073,"current_range_meters":5600,"station_id":"ce4bgs92rcd13ifvqcc0","pricing_plan_id":"cebpf4jnsgd1na2vs0mg"},{"bike_id":"80335fc8-36c8-4c76-b240-2c0da993dff0","system_id":"levelo_inurba_marseille","lat":43.31719,"lon":5.40456,"is_reserved":false,"is_disabled":false,"rental_uris":{"android":"levelo://app?vid=80335fc8-36c8-4c76-b240-2c0da993dff0","ios":"levelo://app?vid=80335fc8-36c8-4c76-b240-2c0da993dff0"},"vehicle_type_id":"4","last_reported":1751696073,"current_range_meters":5600,"station_id":"ce4bh012rcd13ifvqd00","pricing_plan_id":"cebpf4jnsgd1na2vs0mg"},{"bike_id":"6c2a6d04-4b0d-45c2-99de-4707245db9b8","system_id":"levelo_inurba_marseille","lat":43.31894,"lon":5.40732,"is_reserved":false,"is_disabled":false,"rental_uris":{"android":"levelo://app?vid=6c2a6d04-4b0d-45c2-99de-4707245db9b8","ios":"levelo://app?vid=6c2a6d04-4b0d-45c2-99de-4707245db9b8"},"vehicle_type_id":"4","last_reported":1751696073,"current_range_meters":5600,"station_id":"ce4bhq12rcd13ifvqhig","pricing_plan_id":"cebpf4jnsgd1na2vs0mg"},{"bike_id":"4e67bfce-1b57-4f4e-9750-293dfed6555c","system_id":"levelo_inurba_marseille","lat":43.31528,"lon":5.38028,"is_reserved":false,"is_disabled":false,"rental_uris":{"android":"levelo://app?vid=4e67bfce-1b57-4f4e-9750-293dfed6555c","ios":"levelo://app?vid=4e67bfce-1b57-4f4e-9750-293dfed6555c"},"vehicle_type_id":"4","last_reported":1751696073,"current_range_meters":5600,"station_id":"ce4bhsp2rcd13ifvqi50","pricing_plan_id":"cebpf4jnsgd1na2vs0mg"},{"bike_id":"aeaefcb4-383f-4002-8137-f11a83c017d4","system_id":"levelo_inurba_marseille","lat":43.31284,"lon":5.40179,"is_reserved":false,"is_disabled":false,"rental_uris":{"android":"levelo://app?vid=aeaefcb4-383f-4002-8137-f11a83c017d4","ios":"levelo://app?vid=aeaefcb4-383f-4002-8137-f11a83c017d4"},"vehicle_type_id":"4","last_reported":1751696073,"current_range_meters":6000,"station_id":"ce4bh092rcd13ifvqd30","pricing_plan_id":"cebpf4jnsgd1na2vs0mg"},{"bike_id":"2c5d9cd4-b2ef-470c-bdca-c2979e84242f","system_id":"levelo_inurba_marseille","lat":43.2957,"lon":5.39959,"is_reserved":false,"is_disabled":false,"rental_uris":{"android":"levelo://app?vid=2c5d9cd4-b2ef-470c-bdca-c2979e84242f","ios":"levelo://app?vid=2c5d9cd4-b2ef-470c-bdca-c2979e84242f"},"vehicle_type_id":"4","last_reported":1751696073,"current_range_meters":6000,"station_id":"ce4bh312rcd13ifvqdj0","pricing_plan_id":"cebpf4jnsgd1na2vs0mg"},{"bike_id":"cb0014e1-eadd-4761-a8c0-6c6c53705809","system_id":"levelo_inurba_marseille","lat":43.284355,"lon":5.391956,"is_reserved":false,"is_disabled":false,"rental_uris":{"android":"levelo://app?vid=cb0014e1-eadd-4761-a8c0-6c6c53705809","ios":"levelo://app?vid=cb0014e1-eadd-4761-a8c0-6c6c53705809"},"vehicle_type_id":"4","last_reported":1751696073,"current_range_meters":6000,"station_id":"ce4bhoh2rcd13ifvqh5g","pricing_plan_id":"cebpf4jnsgd1na2vs0mg"},{"bike_id":"f6ac2ca1-a3ac-4f58-b1a1-b74be8a76990","system_id":"levelo_inurba_marseille","lat":43.29922,"lon":5.43609,"is_reserved":false,"is_disabled":false,"rental_uris":{"android":"levelo://app?vid=f6ac2ca1-a3ac-4f58-b1a1-b74be8a76990","ios":"levelo://app?vid=f6ac2ca1-a3ac-4f58-b1a1-b74be8a76990"},"vehicle_type_id":"4","last_reported":1751696073,"current_range_meters":6400,"station_id":"ce4bhpp2rcd13ifvqhfg","pricing_plan_id":"cebpf4jnsgd1na2vs0mg"},{"bike_id":"1b3c65e9-0bf0-4041-a4af-8705a2c5f93e","system_id":"levelo_inurba_marseille","lat":43.23181,"lon":5.39995,"is_reserved":false,"is_disabled":false,"rental_uris":{"android":"levelo://app?vid=1b3c65e9-0bf0-4041-a4af-8705a2c5f93e","ios":"levelo://app?vid=1b3c65e9-0bf0-4041-a4af-8705a2c5f93e"},"vehicle_type_id":"4","last_reported":1751696073,"current_range_meters":6800,"station_id":"ce4bhn12rcd13ifvqgqg","pricing_plan_id":"cebpf4jnsgd1na2vs0mg"},{"bike_id":"ffc98ed0-4733-459e-949d-99aa8fb39a97","system_id":"levelo_inurba_marseille","lat":43.35025,"lon":5.35877,"is_reserved":false,"is_disabled":false,"rental_uris":{"android":"levelo://app?vid=ffc98ed0-4733-459e-949d-99aa8fb39a97","ios":"levelo://app?vid=ffc98ed0-4733-459e-949d-99aa8fb39a97"},"vehicle_type_id":"4","last_reported":1751696073,"current_range_meters":7200,"station_id":"","pricing_plan_id":"cebpf4jnsgd1na2vs0mg"},{"bike_id":"d799b321-3a7d-4201-b46e-ffe2ad124f19","system_id":"levelo_inurba_marseille","lat":43.329127,"lon":5.383938,"is_reserved":false,"is_disabled":false,"rental_uris":{"android":"levelo://app?vid=d799b321-3a7d-4201-b46e-ffe2ad124f19","ios":"levelo://app?vid=d799b321-3a7d-4201-b46e-ffe2ad124f19"},"vehicle_type_id":"4","last_reported":1751696073,"current_range_meters":7200,"station_id":"","pricing_plan_id":"cebpf4jnsgd1na2vs0mg"},{"bike_id":"dfa1c380-e619-4d58-9700-e366787f15f4","system_id":"levelo_inurba_marseille","lat":43.31069,"lon":5.383525,"is_reserved":false,"is_disabled":false,"rental_uris":{"android":"levelo://app?vid=dfa1c380-e619-4d58-9700-e366787f15f4","ios":"levelo://app?vid=dfa1c380-e619-4d58-9700-e366787f15f4"},"vehicle_type_id":"4","last_reported":1751696073,"current_range_meters":7200,"station_id":"ce4bgv92rcd13ifvqcr0","pricing_plan_id":"cebpf4jnsgd1na2vs0mg"},{"bike_id":"e3822c24-4fb4-45b7-8cd2-6e1079eeff65","system_id":"levelo_inurba_marseille","lat":43.31092,"lon":5.4243,"is_reserved":false,"is_disabled":false,"rental_uris":{"android":"levelo://app?vid=e3822c24-4fb4-45b7-8cd2-6e1079eeff65","ios":"levelo://app?vid=e3822c24-4fb4-45b7-8cd2-6e1079eeff65"},"vehicle_type_id":"4","last_reported":1751696073,"current_range_meters":7200,"station_id":"ce4bhp92rcd13ifvqhag","pricing_plan_id":"cebpf4jnsgd1na2vs0mg"},{"bike_id":"dbde0d81-068a-4fa4-a92a-5f5e4289de54","system_id":"levelo_inurba_marseille","lat":43.28424,"lon":5.34985,"is_reserved":false,"is_disabled":false,"rental_uris":{"android":"levelo://app?vid=dbde0d81-068a-4fa4-a92a-5f5e4289de54","ios":"levelo://app?vid=dbde0d81-068a-4fa4-a92a-5f5e4289de54"},"vehicle_type_id":"4","last_reported":1751696073,"current_range_meters":8000,"station_id":"","pricing_plan_id":"cebpf4jnsgd1na2vs0mg"},{"bike_id":"bba6e036-a948-4932-a4d2-40707398550d","system_id":"levelo_inurba_marseille","lat":43.2971,"lon":5.36618,"is_reserved":false,"is_disabled":false,"rental_uris":{"android":"levelo://app?vid=bba6e036-a948-4932-a4d2-40707398550d","ios":"levelo://app?vid=bba6e036-a948-4932-a4d2-40707398550d"},"vehicle_type_id":"4","last_reported":1751696073,"current_range_meters":8000,"station_id":"ce4bgn12rcd13ifvqbt0","pricing_plan_id":"cebpf4jnsgd1na2vs0mg"},{"bike_id":"d5e038d7-f4d6-46c0-9f0d-fd4827bd10fd","system_id":"levelo_inurba_marseille","lat":43.29842,"lon":5.36263,"is_reserved":false,"is_disabled":false,"rental_uris":{"android":"levelo://app?vid=d5e038d7-f4d6-46c0-9f0d-fd4827bd10fd","ios":"levelo://app?vid=d5e038d7-f4d6-46c0-9f0d-fd4827bd10fd"},"vehicle_type_id":"4","last_reported":1751696073,"current_range_meters":8000,"station_id":"ce4bgpp2rcd13ifvqc3g","pricing_plan_id":"cebpf4jnsgd1na2vs0mg"},{"bike_id":"a2a2ba9b-377c-456e-9613-229b0af29d03","system_id":"levelo_inurba_marseille","lat":43.31277,"lon":5.40179,"is_reserved":false,"is_disabled":false,"rental_uris":{"android":"levelo://app?vid=a2a2ba9b-377c-456e-9613-229b0af29d03","ios":"levelo://app?vid=a2a2ba9b-377c-456e-9613-229b0af29d03"},"vehicle_type_id":"4","last_reported":1751696073,"current_range_meters":8000,"station_id":"ce4bh092rcd13ifvqd30","pricing_plan_id":"cebpf4jnsgd1na2vs0mg"},{"bike_id":"9f1f6042-7e07-4b00-9dc1-8f0343d9174e","system_id":"levelo_inurba_marseille","lat":43.211879,"lon":5.350729,"is_reserved":false,"is_disabled":false,"rental_uris":{"android":"levelo://app?vid=9f1f6042-7e07-4b00-9dc1-8f0343d9174e","ios":"levelo://app?vid=9f1f6042-7e07-4b00-9dc1-8f0343d9174e"},"vehicle_type_id":"4","last_reported":1751696073,"current_range_meters":8000,"station_id":"st_cvj6sg6p6f1abm77japg","pricing_plan_id":"cebpf4jnsgd1na2vs0mg"},{"bike_id":"2ffeba7a-8316-4052-8019-91454da58cbe","system_id":"levelo_inurba_marseille","lat":43.26981,"lon":5.42029,"is_reserved":false,"is_disabled":false,"rental_uris":{"android":"levelo://app?vid=2ffeba7a-8316-4052-8019-91454da58cbe","ios":"levelo://app?vid=2ffeba7a-8316-4052-8019-91454da58cbe"},"vehicle_type_id":"4","last_reported":1751696073,"current_range_meters":8400,"station_id":"","pricing_plan_id":"cebpf4jnsgd1na2vs0mg"},{"bike_id":"ba154a12-11bd-42a5-958a-5992f5d043d1","system_id":"levelo_inurba_marseille","lat":43.30499,"lon":5.3708,"is_reserved":false,"is_disabled":false,"rental_uris":{"android":"levelo://app?vid=ba154a12-11bd-42a5-958a-5992f5d043d1","ios":"levelo://app?vid=ba154a12-11bd-42a5-958a-5992f5d043d1"},"vehicle_type_id":"4","last_reported":1751696073,"current_range_meters":8400,"station_id":"","pricing_plan_id":"cebpf4jnsgd1na2vs0mg"},{"bike_id":"0086a337-65c2-46e2-9bb6-ab0feb9275a3","system_id":"levelo_inurba_marseille","lat":43.31498,"lon":5.37302,"is_reserved":false,"is_disabled":false,"rental_uris":{"android":"levelo://app?vid=0086a337-65c2-46e2-9bb6-ab0feb9275a3","ios":"levelo://app?vid=0086a337-65c2-46e2-9bb6-ab0feb9275a3"},"vehicle_type_id":"4","last_reported":1751696073,"current_range_meters":8400,"station_id":"ce4bgt12rcd13ifvqcd0","pricing_plan_id":"cebpf4jnsgd1na2vs0mg"},{"bike_id":"499b732e-f184-4d43-b68b-d1efca483d90","system_id":"levelo_inurba_marseille","lat":43.35331,"lon":5.35746,"is_reserved":false,"is_disabled":false,"rental_uris":{"android":"levelo://app?vid=499b732e-f184-4d43-b68b-d1efca483d90","ios":"levelo://app?vid=499b732e-f184-4d43-b68b-d1efca483d90"},"vehicle_type_id":"4","last_reported":1751696073,"current_range_meters":8800,"station_id":"","pricing_plan_id":"cebpf4jnsgd1na2vs0mg"},{"bike_id":"0c4b7fdb-b39e-49b3-a2b0-ae3d0f43e89d","system_id":"levelo_inurba_marseille","lat":43.329094,"lon":5.405645,"is_reserved":false,"is_disabled":false,"rental_uris":{"android":"levelo://app?vid=0c4b7fdb-b39e-49b3-a2b0-ae3d0f43e89d","ios":"levelo://app?vid=0c4b7fdb-b39e-49b3-a2b0-ae3d0f43e89d"},"vehicle_type_id":"4","last_reported":1751696073,"current_range_meters":8800,"station_id":"","pricing_plan_id":"cebpf4jnsgd1na2vs0mg"},{"bike_id":"175513bb-dce2-48e2-83c8-1e9f1cb23cd0","system_id":"levelo_inurba_marseille","lat":43.286255,"lon":5.412651,"is_reserved":false,"is_disabled":false,"rental_uris":{"android":"levelo://app?vid=175513bb-dce2-48e2-83c8-1e9f1cb23cd0","ios":"levelo://app?vid=175513bb-dce2-48e2-83c8-1e9f1cb23cd0"},"vehicle_type_id":"4","last_reported":1751696073,"current_range_meters":8800,"station_id":"","pricing_plan_id":"cebpf4jnsgd1na2vs0mg"},{"bike_id":"08c8c007-c020-4697-bc54-06e20bd04f18","system_id":"levelo_inurba_marseille","lat":43.30805,"lon":5.38155,"is_reserved":false,"is_disabled":false,"rental_uris":{"android":"levelo://app?vid=08c8c007-c020-4697-bc54-06e20bd04f18","ios":"levelo://app?vid=08c8c007-c020-4697-bc54-06e20bd04f18"},"vehicle_type_id":"4","last_reported":1751696073,"current_range_meters":8800,"station_id":"ce4bgt12rcd13ifvqce0","pricing_plan_id":"cebpf4jnsgd1na2vs0mg"},{"bike_id":"9fc31a6b-4e45-4f6f-8794-f17d58440be8","system_id":"levelo_inurba_marseille","lat":43.309336,"lon":5.401679,"is_reserved":false,"is_disabled":false,"rental_uris":{"android":"levelo://app?vid=9fc31a6b-4e45-4f6f-8794-f17d58440be8","ios":"levelo://app?vid=9fc31a6b-4e45-4f6f-8794-f17d58440be8"},"vehicle_type_id":"4","last_reported":1751696073,"current_range_meters":8800,"station_id":"ce4bgvp2rcd13ifvqct0","pricing_plan_id":"cebpf4jnsgd1na2vs0mg"},{"bike_id":"cb5feb87-c19d-4140-8eb5-cf5ef9d24cc6","system_id":"levelo_inurba_marseille","lat":43.30653,"lon":5.4005,"is_reserved":false,"is_disabled":false,"rental_uris":{"android":"levelo://app?vid=cb5feb87-c19d-4140-8eb5-cf5ef9d24cc6","ios":"levelo://app?vid=cb5feb87-c19d-4140-8eb5-cf5ef9d24cc6"},"vehicle_type_id":"4","last_reported":1751696073,"current_range_meters":8800,"station_id":"ce4bh112rcd13ifvqda0","pricing_plan_id":"cebpf4jnsgd1na2vs0mg"},{"bike_id":"383ab4e4-47ff-41f6-a96d-7af17bf7c7bf","system_id":"levelo_inurba_marseille","lat":43.25502,"lon":5.3765,"is_reserved":false,"is_disabled":false,"rental_uris":{"android":"levelo://app?vid=383ab4e4-47ff-41f6-a96d-7af17bf7c7bf","ios":"levelo://app?vid=383ab4e4-47ff-41f6-a96d-7af17bf7c7bf"},"vehicle_type_id":"4","last_reported":1751696073,"current_range_meters":8800,"station_id":"ce4bhh12rcd13ifvqff0","pricing_plan_id":"cebpf4jnsgd1na2vs0mg"},{"bike_id":"b9aa0b00-2092-42ee-bef4-651e875ed8b5","system_id":"levelo_inurba_marseille","lat":43.21204,"lon":5.3506,"is_reserved":false,"is_disabled":false,"rental_uris":{"android":"levelo://app?vid=b9aa0b00-2092-42ee-bef4-651e875ed8b5","ios":"levelo://app?vid=b9aa0b00-2092-42ee-bef4-651e875ed8b5"},"vehicle_type_id":"4","last_reported":1751696073,"current_range_meters":8800,"station_id":"st_cvj6sg6p6f1abm77japg","pricing_plan_id":"cebpf4jnsgd1na2vs0mg"},{"bike_id":"8d9b73e1-848f-44c4-bcf1-e92b11b87fc0","system_id":"levelo_inurba_marseille","lat":43.28691,"lon":5.3739,"is_reserved":false,"is_disabled":false,"rental_uris":{"android":"levelo://app?vid=8d9b73e1-848f-44c4-bcf1-e92b11b87fc0","ios":"levelo://app?vid=8d9b73e1-848f-44c4-bcf1-e92b11b87fc0"},"vehicle_type_id":"4","last_reported":1751696073,"current_range_meters":9200,"station_id":"ce4bh3p2rcd13ifvqdq0","pricing_plan_id":"cebpf4jnsgd1na2vs0mg"},{"bike_id":"97de0065-3604-43c2-8c35-f3c481cf0347","system_id":"levelo_inurba_marseille","lat":43.32374,"lon":5.38869,"is_reserved":false,"is_disabled":false,"rental_uris":{"android":"levelo://app?vid=97de0065-3604-43c2-8c35-f3c481cf0347","ios":"levelo://app?vid=97de0065-3604-43c2-8c35-f3c481cf0347"},"vehicle_type_id":"4","last_reported":1751696073,"current_range_meters":9200,"station_id":"ce4bhqp2rcd13ifvqhog","pricing_plan_id":"cebpf4jnsgd1na2vs0mg"},{"bike_id":"5e197122-e8ec-4f01-b370-6bbfc10c6950","system_id":"levelo_inurba_marseille","lat":43.21193,"lon":5.35077,"is_reserved":false,"is_disabled":false,"rental_uris":{"android":"levelo://app?vid=5e197122-e8ec-4f01-b370-6bbfc10c6950","ios":"levelo://app?vid=5e197122-e8ec-4f01-b370-6bbfc10c6950"},"vehicle_type_id":"4","last_reported":1751696073,"current_range_meters":9200,"station_id":"st_cvj6sg6p6f1abm77japg","pricing_plan_id":"cebpf4jnsgd1na2vs0mg"},{"bike_id":"6917bed5-c21f-48c3-870d-5408dab99803","system_id":"levelo_inurba_marseille","lat":43.296713,"lon":5.369032,"is_reserved":false,"is_disabled":false,"rental_uris":{"android":"levelo://app?vid=6917bed5-c21f-48c3-870d-5408dab99803","ios":"levelo://app?vid=6917bed5-c21f-48c3-870d-5408dab99803"},"vehicle_type_id":"4","last_reported":1751696073,"current_range_meters":9600,"station_id":"","pricing_plan_id":"cebpf4jnsgd1na2vs0mg"},{"bike_id":"37041179-6712-4893-832c-80719560134f","system_id":"levelo_inurba_marseille","lat":43.31491,"lon":5.37292,"is_reserved":false,"is_disabled":false,"rental_uris":{"android":"levelo://app?vid=37041179-6712-4893-832c-80719560134f","ios":"levelo://app?vid=37041179-6712-4893-832c-80719560134f"},"vehicle_type_id":"4","last_reported":1751696073,"current_range_meters":9600,"station_id":"ce4bgt12rcd13ifvqcd0","pricing_plan_id":"cebpf4jnsgd1na2vs0mg"},{"bike_id":"cb548506-201c-477d-904c-e691b2f0c454","system_id":"levelo_inurba_marseille","lat":43.31122,"lon":5.37767,"is_reserved":false,"is_disabled":false,"rental_uris":{"android":"levelo://app?vid=cb548506-201c-477d-904c-e691b2f0c454","ios":"levelo://app?vid=cb548506-201c-477d-904c-e691b2f0c454"},"vehicle_type_id":"4","last_reported":1751696073,"current_range_meters":9600,"station_id":"ce4bgt92rcd13ifvqcg0","pricing_plan_id":"cebpf4jnsgd1na2vs0mg"},{"bike_id":"42ec6e55-17eb-4757-a545-17c99c4a0169","system_id":"levelo_inurba_marseille","lat":43.2836,"lon":5.38098,"is_reserved":false,"is_disabled":false,"rental_uris":{"android":"levelo://app?vid=42ec6e55-17eb-4757-a545-17c99c4a0169","ios":"levelo://app?vid=42ec6e55-17eb-4757-a545-17c99c4a0169"},"vehicle_type_id":"4","last_reported":1751696073,"current_range_meters":9600,"station_id":"ce4bh412rcd13ifvqdr0","pricing_plan_id":"cebpf4jnsgd1na2vs0mg"},{"bike_id":"a7055120-8269-43dd-9f5c-b6ab7a57ba20","system_id":"levelo_inurba_marseille","lat":43.341471,"lon":5.409052,"is_reserved":false,"is_disabled":false,"rental_uris":{"android":"levelo://app?vid=a7055120-8269-43dd-9f5c-b6ab7a57ba20","ios":"levelo://app?vid=a7055120-8269-43dd-9f5c-b6ab7a57ba20"},"vehicle_type_id":"4","last_reported":1751696073,"current_range_meters":9600,"station_id":"ce4bhqh2rcd13ifvqhlg","pricing_plan_id":"cebpf4jnsgd1na2vs0mg"},{"bike_id":"c4998155-7b32-4f28-8c37-f014ebe83040","system_id":"levelo_inurba_marseille","lat":43.303203,"lon":5.404422,"is_reserved":false,"is_disabled":false,"rental_uris":{"android":"levelo://app?vid=c4998155-7b32-4f28-8c37-f014ebe83040","ios":"levelo://app?vid=c4998155-7b32-4f28-8c37-f014ebe83040"},"vehicle_type_id":"4","last_reported":1751696073,"current_range_meters":10000,"station_id":"ce4bh012rcd13ifvqd10","pricing_plan_id":"cebpf4jnsgd1na2vs0mg"},{"bike_id":"70b78289-fb70-43e6-bcdc-f0b13f393a52","system_id":"levelo_inurba_marseille","lat":43.261887,"lon":5.374487,"is_reserved":false,"is_disabled":false,"rental_uris":{"android":"levelo://app?vid=70b78289-fb70-43e6-bcdc-f0b13f393a52","ios":"levelo://app?vid=70b78289-fb70-43e6-bcdc-f0b13f393a52"},"vehicle_type_id":"4","last_reported":1751696073,"current_range_meters":10000,"station_id":"ce4bhgp2rcd13ifvqfc0","pricing_plan_id":"cebpf4jnsgd1na2vs0mg"},{"bike_id":"1c8ab180-05fd-405f-9922-b2b2c2d5142f","system_id":"levelo_inurba_marseille","lat":43.33801,"lon":5.38129,"is_reserved":false,"is_disabled":false,"rental_uris":{"android":"levelo://app?vid=1c8ab180-05fd-405f-9922-b2b2c2d5142f","ios":"levelo://app?vid=1c8ab180-05fd-405f-9922-b2b2c2d5142f"},"vehicle_type_id":"4","last_reported":1751696073,"current_range_meters":10800,"station_id":"","pricing_plan_id":"cebpf4jnsgd1na2vs0mg"},{"bike_id":"b26fae72-751e-4090-a9c4-76ff5de1ad66","system_id":"levelo_inurba_marseille","lat":43.332562,"lon":5.380419,"is_reserved":false,"is_disabled":false,"rental_uris":{"android":"levelo://app?vid=b26fae72-751e-4090-a9c4-76ff5de1ad66","ios":"levelo://app?vid=b26fae72-751e-4090-a9c4-76ff5de1ad66"},"vehicle_type_id":"4","last_reported":1751696073,"current_range_meters":10800,"station_id":"","pricing_plan_id":"cebpf4jnsgd1na2vs0mg"},{"bike_id":"6b0a1fd8-d9c6-42b7-8aee-05d9231cf95a","system_id":"levelo_inurba_marseille","lat":43.29211,"lon":5.39998,"is_reserved":false,"is_disabled":false,"rental_uris":{"android":"levelo://app?vid=6b0a1fd8-d9c6-42b7-8aee-05d9231cf95a","ios":"levelo://app?vid=6b0a1fd8-d9c6-42b7-8aee-05d9231cf95a"},"vehicle_type_id":"4","last_reported":1751696073,"current_range_meters":10800,"station_id":"","pricing_plan_id":"cebpf4jnsgd1na2vs0mg"},{"bike_id":"649e912a-4413-41d4-b382-e67c9000c2b7","system_id":"levelo_inurba_marseille","lat":43.29717,"lon":5.36623,"is_reserved":false,"is_disabled":false,"rental_uris":{"android":"levelo://app?vid=649e912a-4413-41d4-b382-e67c9000c2b7","ios":"levelo://app?vid=649e912a-4413-41d4-b382-e67c9000c2b7"},"vehicle_type_id":"4","last_reported":1751696073,"current_range_meters":10800,"station_id":"ce4bgn12rcd13ifvqbt0","pricing_plan_id":"cebpf4jnsgd1na2vs0mg"},{"bike_id":"4c5a3de5-5d51-4be2-867a-1ec801bcc945","system_id":"levelo_inurba_marseille","lat":43.31359,"lon":5.38504,"is_reserved":false,"is_disabled":false,"rental_uris":{"android":"levelo://app?vid=4c5a3de5-5d51-4be2-867a-1ec801bcc945","ios":"levelo://app?vid=4c5a3de5-5d51-4be2-867a-1ec801bcc945"},"vehicle_type_id":"4","last_reported":1751696073,"current_range_meters":10800,"station_id":"ce4bgt92rcd13ifvqcf0","pricing_plan_id":"cebpf4jnsgd1na2vs0mg"},{"bike_id":"743a1eb8-6ec4-4898-91e7-90cae2e279cf","system_id":"levelo_inurba_marseille","lat":43.310725,"lon":5.383525,"is_reserved":false,"is_disabled":false,"rental_uris":{"android":"levelo://app?vid=743a1eb8-6ec4-4898-91e7-90cae2e279cf","ios":"levelo://app?vid=743a1eb8-6ec4-4898-91e7-90cae2e279cf"},"vehicle_type_id":"4","last_reported":1751696073,"current_range_meters":10800,"station_id":"ce4bgv92rcd13ifvqcr0","pricing_plan_id":"cebpf4jnsgd1na2vs0mg"},{"bike_id":"a54ad436-d5e3-470c-bb78-8de504d65d5e","system_id":"levelo_inurba_marseille","lat":43.28943,"lon":5.39631,"is_reserved":false,"is_disabled":false,"rental_uris":{"android":"levelo://app?vid=a54ad436-d5e3-470c-bb78-8de504d65d5e","ios":"levelo://app?vid=a54ad436-d5e3-470c-bb78-8de504d65d5e"},"vehicle_type_id":"4","last_reported":1751696073,"current_range_meters":10800,"station_id":"ce4bh3h2rcd13ifvqdn0","pricing_plan_id":"cebpf4jnsgd1na2vs0mg"},{"bike_id":"eb1b6092-6e7a-4fc0-aaa7-9c31d21b094d","system_id":"levelo_inurba_marseille","lat":43.27907,"lon":5.39583,"is_reserved":false,"is_disabled":false,"rental_uris":{"android":"levelo://app?vid=eb1b6092-6e7a-4fc0-aaa7-9c31d21b094d","ios":"levelo://app?vid=eb1b6092-6e7a-4fc0-aaa7-9c31d21b094d"},"vehicle_type_id":"4","last_reported":1751696073,"current_range_meters":10800,"station_id":"ce4bhf92rcd13ifvqf40","pricing_plan_id":"cebpf4jnsgd1na2vs0mg"},{"bike_id":"ae08d0ae-4eff-4e82-92c8-780f5acdffdb","system_id":"levelo_inurba_marseille","lat":43.23184,"lon":5.39992,"is_reserved":false,"is_disabled":false,"rental_uris":{"android":"levelo://app?vid=ae08d0ae-4eff-4e82-92c8-780f5acdffdb","ios":"levelo://app?vid=ae08d0ae-4eff-4e82-92c8-780f5acdffdb"},"vehicle_type_id":"4","last_reported":1751696073,"current_range_meters":10800,"station_id":"ce4bhn12rcd13ifvqgqg","pricing_plan_id":"cebpf4jnsgd1na2vs0mg"},{"bike_id":"bf16840f-2e0f-47eb-8d30-3dc4199df254","system_id":"levelo_inurba_marseille","lat":43.31764,"lon":5.39026,"is_reserved":false,"is_disabled":false,"rental_uris":{"android":"levelo://app?vid=bf16840f-2e0f-47eb-8d30-3dc4199df254","ios":"levelo://app?vid=bf16840f-2e0f-47eb-8d30-3dc4199df254"},"vehicle_type_id":"4","last_reported":1751696073,"current_range_meters":10800,"station_id":"ce4bhqp2rcd13ifvqhng","pricing_plan_id":"cebpf4jnsgd1na2vs0mg"},{"bike_id":"f42b84e1-e72c-4bf7-8d7d-d870b1f17cb0","system_id":"levelo_inurba_marseille","lat":43.31283,"lon":5.4017,"is_reserved":false,"is_disabled":false,"rental_uris":{"android":"levelo://app?vid=f42b84e1-e72c-4bf7-8d7d-d870b1f17cb0","ios":"levelo://app?vid=f42b84e1-e72c-4bf7-8d7d-d870b1f17cb0"},"vehicle_type_id":"4","last_reported":1751696073,"current_range_meters":11200,"station_id":"ce4bh092rcd13ifvqd30","pricing_plan_id":"cebpf4jnsgd1na2vs0mg"},{"bike_id":"c7728615-6fd3-416f-a0ba-13bc07d57c89","system_id":"levelo_inurba_marseille","lat":43.3067,"lon":5.40108,"is_reserved":false,"is_disabled":false,"rental_uris":{"android":"levelo://app?vid=c7728615-6fd3-416f-a0ba-13bc07d57c89","ios":"levelo://app?vid=c7728615-6fd3-416f-a0ba-13bc07d57c89"},"vehicle_type_id":"4","last_reported":1751696073,"current_range_meters":11200,"station_id":"ce4bh112rcd13ifvqda0","pricing_plan_id":"cebpf4jnsgd1na2vs0mg"},{"bike_id":"f78e4216-3e64-4bca-b699-17a288e2d90f","system_id":"levelo_inurba_marseille","lat":43.292796,"lon":5.401576,"is_reserved":false,"is_disabled":false,"rental_uris":{"android":"levelo://app?vid=f78e4216-3e64-4bca-b699-17a288e2d90f","ios":"levelo://app?vid=f78e4216-3e64-4bca-b699-17a288e2d90f"},"vehicle_type_id":"4","last_reported":1751696073,"current_range_meters":11200,"station_id":"ce4bh312rcd13ifvqdk0","pricing_plan_id":"cebpf4jnsgd1na2vs0mg"},{"bike_id":"c4783f0c-3b26-4f98-a2ba-c785fce3256c","system_id":"levelo_inurba_marseille","lat":43.26571,"lon":5.39018,"is_reserved":false,"is_disabled":false,"rental_uris":{"android":"levelo://app?vid=c4783f0c-3b26-4f98-a2ba-c785fce3256c","ios":"levelo://app?vid=c4783f0c-3b26-4f98-a2ba-c785fce3256c"},"vehicle_type_id":"4","last_reported":1751696073,"current_range_meters":11200,"station_id":"ce4bhe12rcd13ifvqf30","pricing_plan_id":"cebpf4jnsgd1na2vs0mg"},{"bike_id":"76d127a6-3385-47a2-9e3a-490d1d976c59","system_id":"levelo_inurba_marseille","lat":43.311686,"lon":5.382384,"is_reserved":false,"is_disabled":false,"rental_uris":{"android":"levelo://app?vid=76d127a6-3385-47a2-9e3a-490d1d976c59","ios":"levelo://app?vid=76d127a6-3385-47a2-9e3a-490d1d976c59"},"vehicle_type_id":"4","last_reported":1751696073,"current_range_meters":11600,"station_id":"","pricing_plan_id":"cebpf4jnsgd1na2vs0mg"},{"bike_id":"0cabcafd-98fb-4b32-88f7-e1f4e2ad118c","system_id":"levelo_inurba_marseille","lat":43.29728,"lon":5.37676,"is_reserved":false,"is_disabled":false,"rental_uris":{"android":"levelo://app?vid=0cabcafd-98fb-4b32-88f7-e1f4e2ad118c","ios":"levelo://app?vid=0cabcafd-98fb-4b32-88f7-e1f4e2ad118c"},"vehicle_type_id":"4","last_reported":1751696073,"current_range_meters":11600,"station_id":"ce4bgkh2rcd13ifvqbl0","pricing_plan_id":"cebpf4jnsgd1na2vs0mg"},{"bike_id":"458f960c-9c0c-42a0-977b-a8232f235b81","system_id":"levelo_inurba_marseille","lat":43.29027,"lon":5.39982,"is_reserved":false,"is_disabled":false,"rental_uris":{"android":"levelo://app?vid=458f960c-9c0c-42a0-977b-a8232f235b81","ios":"levelo://app?vid=458f960c-9c0c-42a0-977b-a8232f235b81"},"vehicle_type_id":"4","last_reported":1751696073,"current_range_meters":11600,"station_id":"ce4bh392rcd13ifvqdm0","pricing_plan_id":"cebpf4jnsgd1na2vs0mg"},{"bike_id":"6f854acc-df2a-4d06-8f39-46010fd4354e","system_id":"levelo_inurba_marseille","lat":43.27912,"lon":5.38004,"is_reserved":false,"is_disabled":false,"rental_uris":{"android":"levelo://app?vid=6f854acc-df2a-4d06-8f39-46010fd4354e","ios":"levelo://app?vid=6f854acc-df2a-4d06-8f39-46010fd4354e"},"vehicle_type_id":"4","last_reported":1751696073,"current_range_meters":11600,"station_id":"ce4bhf92rcd13ifvqf50","pricing_plan_id":"cebpf4jnsgd1na2vs0mg"},{"bike_id":"695ba698-1054-47b2-9229-8be114776363","system_id":"levelo_inurba_marseille","lat":43.257176,"lon":5.411023,"is_reserved":false,"is_disabled":false,"rental_uris":{"android":"levelo://app?vid=695ba698-1054-47b2-9229-8be114776363","ios":"levelo://app?vid=695ba698-1054-47b2-9229-8be114776363"},"vehicle_type_id":"4","last_reported":1751696073,"current_range_meters":11600,"station_id":"ce4bhkp2rcd13ifvqgd0","pricing_plan_id":"cebpf4jnsgd1na2vs0mg"},{"bike_id":"4b8da722-ee9e-48a4-a5e5-3a8a10364708","system_id":"levelo_inurba_marseille","lat":43.31244,"lon":5.37821,"is_reserved":false,"is_disabled":false,"rental_uris":{"android":"levelo://app?vid=4b8da722-ee9e-48a4-a5e5-3a8a10364708","ios":"levelo://app?vid=4b8da722-ee9e-48a4-a5e5-3a8a10364708"},"vehicle_type_id":"4","last_reported":1751696073,"current_range_meters":12000,"station_id":"","pricing_plan_id":"cebpf4jnsgd1na2vs0mg"},{"bike_id":"69c2280d-9883-47db-99f2-c073a6babae6","system_id":"levelo_inurba_marseille","lat":43.3087,"lon":5.37044,"is_reserved":false,"is_disabled":false,"rental_uris":{"android":"levelo://app?vid=69c2280d-9883-47db-99f2-c073a6babae6","ios":"levelo://app?vid=69c2280d-9883-47db-99f2-c073a6babae6"},"vehicle_type_id":"4","last_reported":1751696073,"current_range_meters":12000,"station_id":"","pricing_plan_id":"cebpf4jnsgd1na2vs0mg"},{"bike_id":"2fa4db94-27cf-47dc-a2ac-ccbeeb2058c3","system_id":"levelo_inurba_marseille","lat":43.25023,"lon":5.38915,"is_reserved":false,"is_disabled":false,"rental_uris":{"android":"levelo://app?vid=2fa4db94-27cf-47dc-a2ac-ccbeeb2058c3","ios":"levelo://app?vid=2fa4db94-27cf-47dc-a2ac-ccbeeb2058c3"},"vehicle_type_id":"4","last_reported":1751696073,"current_range_meters":12000,"station_id":"ce4bhgp2rcd13ifvqfd0","pricing_plan_id":"cebpf4jnsgd1na2vs0mg"},{"bike_id":"03ce884d-6733-42c7-8126-6f463245d5fb","system_id":"levelo_inurba_marseille","lat":43.33738,"lon":5.39186,"is_reserved":false,"is_disabled":false,"rental_uris":{"android":"levelo://app?vid=03ce884d-6733-42c7-8126-6f463245d5fb","ios":"levelo://app?vid=03ce884d-6733-42c7-8126-6f463245d5fb"},"vehicle_type_id":"4","last_reported":1751696073,"current_range_meters":12000,"station_id":"ce4bhr92rcd13ifvqhsg","pricing_plan_id":"cebpf4jnsgd1na2vs0mg"},{"bike_id":"fc15d0e2-3ad9-4fb7-8bd5-ba03d333db05","system_id":"levelo_inurba_marseille","lat":43.24705,"lon":5.38112,"is_reserved":false,"is_disabled":false,"rental_uris":{"android":"levelo://app?vid=fc15d0e2-3ad9-4fb7-8bd5-ba03d333db05","ios":"levelo://app?vid=fc15d0e2-3ad9-4fb7-8bd5-ba03d333db05"},"vehicle_type_id":"4","last_reported":1751696073,"current_range_meters":12400,"station_id":"ce4bhih2rcd13ifvqfr0","pricing_plan_id":"cebpf4jnsgd1na2vs0mg"},{"bike_id":"8540eae3-ead3-4b83-ba8b-6b7654e615e1","system_id":"levelo_inurba_marseille","lat":43.28167,"lon":5.42649,"is_reserved":false,"is_disabled":false,"rental_uris":{"android":"levelo://app?vid=8540eae3-ead3-4b83-ba8b-6b7654e615e1","ios":"levelo://app?vid=8540eae3-ead3-4b83-ba8b-6b7654e615e1"},"vehicle_type_id":"4","last_reported":1751696073,"current_range_meters":12400,"station_id":"ce4bhnh2rcd13ifvqgug","pricing_plan_id":"cebpf4jnsgd1na2vs0mg"},{"bike_id":"4db45513-e520-4598-82fa-5809d80d4f3d","system_id":"levelo_inurba_marseille","lat":43.28099,"lon":5.354819,"is_reserved":false,"is_disabled":false,"rental_uris":{"android":"levelo://app?vid=4db45513-e520-4598-82fa-5809d80d4f3d","ios":"levelo://app?vid=4db45513-e520-4598-82fa-5809d80d4f3d"},"vehicle_type_id":"4","last_reported":1751696073,"current_range_meters":12800,"station_id":"","pricing_plan_id":"cebpf4jnsgd1na2vs0mg"},{"bike_id":"d983c39d-8ad1-4d0e-8d7f-e0df94275a0a","system_id":"levelo_inurba_marseille","lat":43.31175,"lon":5.38709,"is_reserved":false,"is_disabled":false,"rental_uris":{"android":"levelo://app?vid=d983c39d-8ad1-4d0e-8d7f-e0df94275a0a","ios":"levelo://app?vid=d983c39d-8ad1-4d0e-8d7f-e0df94275a0a"},"vehicle_type_id":"4","last_reported":1751696073,"current_range_meters":12800,"station_id":"ce4bgv12rcd13ifvqcp0","pricing_plan_id":"cebpf4jnsgd1na2vs0mg"},{"bike_id":"8c7b5457-b790-4ceb-8535-d321af702702","system_id":"levelo_inurba_marseille","lat":43.31278,"lon":5.40171,"is_reserved":false,"is_disabled":false,"rental_uris":{"android":"levelo://app?vid=8c7b5457-b790-4ceb-8535-d321af702702","ios":"levelo://app?vid=8c7b5457-b790-4ceb-8535-d321af702702"},"vehicle_type_id":"4","last_reported":1751696073,"current_range_meters":12800,"station_id":"ce4bh092rcd13ifvqd30","pricing_plan_id":"cebpf4jnsgd1na2vs0mg"},{"bike_id":"04edf994-7a6f-42bd-bdb9-6db229bd33ae","system_id":"levelo_inurba_marseille","lat":43.29561,"lon":5.42277,"is_reserved":false,"is_disabled":false,"rental_uris":{"android":"levelo://app?vid=04edf994-7a6f-42bd-bdb9-6db229bd33ae","ios":"levelo://app?vid=04edf994-7a6f-42bd-bdb9-6db229bd33ae"},"vehicle_type_id":"4","last_reported":1751696073,"current_range_meters":12800,"station_id":"ce4bhph2rcd13ifvqhdg","pricing_plan_id":"cebpf4jnsgd1na2vs0mg"},{"bike_id":"3847022a-5187-4521-af78-80f88fe96595","system_id":"levelo_inurba_marseille","lat":43.21182,"lon":5.35084,"is_reserved":false,"is_disabled":false,"rental_uris":{"android":"levelo://app?vid=3847022a-5187-4521-af78-80f88fe96595","ios":"levelo://app?vid=3847022a-5187-4521-af78-80f88fe96595"},"vehicle_type_id":"4","last_reported":1751696073,"current_range_meters":12800,"station_id":"st_cvj6sg6p6f1abm77japg","pricing_plan_id":"cebpf4jnsgd1na2vs0mg"},{"bike_id":"f1753d26-8935-4f4b-9e83-1a8f6f412606","system_id":"levelo_inurba_marseille","lat":43.24694,"lon":5.3817,"is_reserved":false,"is_disabled":false,"rental_uris":{"android":"levelo://app?vid=f1753d26-8935-4f4b-9e83-1a8f6f412606","ios":"levelo://app?vid=f1753d26-8935-4f4b-9e83-1a8f6f412606"},"vehicle_type_id":"4","last_reported":1751696073,"current_range_meters":13600,"station_id":"ce4bhih2rcd13ifvqfr0","pricing_plan_id":"cebpf4jnsgd1na2vs0mg"},{"bike_id":"0b0b5cfa-dfc1-4477-ac92-7fc36b0493cd","system_id":"levelo_inurba_marseille","lat":43.298905,"lon":5.397299,"is_reserved":false,"is_disabled":false,"rental_uris":{"android":"levelo://app?vid=0b0b5cfa-dfc1-4477-ac92-7fc36b0493cd","ios":"levelo://app?vid=0b0b5cfa-dfc1-4477-ac92-7fc36b0493cd"},"vehicle_type_id":"4","last_reported":1751696073,"current_range_meters":14000,"station_id":"ce4bh0h2rcd13ifvqd50","pricing_plan_id":"cebpf4jnsgd1na2vs0mg"},{"bike_id":"f5abccf3-e415-4a03-a939-c2c2f1ad0c2b","system_id":"levelo_inurba_marseille","lat":43.27379,"lon":5.36261,"is_reserved":false,"is_disabled":false,"rental_uris":{"android":"levelo://app?vid=f5abccf3-e415-4a03-a939-c2c2f1ad0c2b","ios":"levelo://app?vid=f5abccf3-e415-4a03-a939-c2c2f1ad0c2b"},"vehicle_type_id":"4","last_reported":1751696073,"current_range_meters":14000,"station_id":"ce4bhbh2rcd13ifvqeo0","pricing_plan_id":"cebpf4jnsgd1na2vs0mg"},{"bike_id":"29b19e99-4845-4ee3-b1ee-35721cd36dc7","system_id":"levelo_inurba_marseille","lat":43.23195,"lon":5.35538,"is_reserved":false,"is_disabled":false,"rental_uris":{"android":"levelo://app?vid=29b19e99-4845-4ee3-b1ee-35721cd36dc7","ios":"levelo://app?vid=29b19e99-4845-4ee3-b1ee-35721cd36dc7"},"vehicle_type_id":"4","last_reported":1751696073,"current_range_meters":14000,"station_id":"ce4bhu92rcd13ifvqi70","pricing_plan_id":"cebpf4jnsgd1na2vs0mg"},{"bike_id":"aafb8ce6-e3e9-4062-8cc4-aece91a6105d","system_id":"levelo_inurba_marseille","lat":43.31496,"lon":5.37291,"is_reserved":false,"is_disabled":false,"rental_uris":{"android":"levelo://app?vid=aafb8ce6-e3e9-4062-8cc4-aece91a6105d","ios":"levelo://app?vid=aafb8ce6-e3e9-4062-8cc4-aece91a6105d"},"vehicle_type_id":"4","last_reported":1751696073,"current_range_meters":14400,"station_id":"ce4bgt12rcd13ifvqcd0","pricing_plan_id":"cebpf4jnsgd1na2vs0mg"},{"bike_id":"13d21a2c-849b-4f21-9b0f-55dc62425cbd","system_id":"levelo_inurba_marseille","lat":43.2319,"lon":5.39987,"is_reserved":false,"is_disabled":false,"rental_uris":{"android":"levelo://app?vid=13d21a2c-849b-4f21-9b0f-55dc62425cbd","ios":"levelo://app?vid=13d21a2c-849b-4f21-9b0f-55dc62425cbd"},"vehicle_type_id":"4","last_reported":1751696073,"current_range_meters":14400,"station_id":"ce4bhn12rcd13ifvqgqg","pricing_plan_id":"cebpf4jnsgd1na2vs0mg"},{"bike_id":"f37760c6-ab8b-450e-9ddc-f3de596404e2","system_id":"levelo_inurba_marseille","lat":43.30313,"lon":5.37899,"is_reserved":false,"is_disabled":false,"rental_uris":{"android":"levelo://app?vid=f37760c6-ab8b-450e-9ddc-f3de596404e2","ios":"levelo://app?vid=f37760c6-ab8b-450e-9ddc-f3de596404e2"},"vehicle_type_id":"4","last_reported":1751696073,"current_range_meters":14800,"station_id":"","pricing_plan_id":"cebpf4jnsgd1na2vs0mg"},{"bike_id":"081a5233-9a1d-4896-89df-095855498d76","system_id":"levelo_inurba_marseille","lat":43.30813,"lon":5.37603,"is_reserved":false,"is_disabled":false,"rental_uris":{"android":"levelo://app?vid=081a5233-9a1d-4896-89df-095855498d76","ios":"levelo://app?vid=081a5233-9a1d-4896-89df-095855498d76"},"vehicle_type_id":"4","last_reported":1751696073,"current_range_meters":14800,"station_id":"ce4bgv92rcd13ifvqcq0","pricing_plan_id":"cebpf4jnsgd1na2vs0mg"},{"bike_id":"40d75bc5-a1e4-49a4-a1d1-1541729b0ec2","system_id":"levelo_inurba_marseille","lat":43.31323,"lon":5.39686,"is_reserved":false,"is_disabled":false,"rental_uris":{"android":"levelo://app?vid=40d75bc5-a1e4-49a4-a1d1-1541729b0ec2","ios":"levelo://app?vid=40d75bc5-a1e4-49a4-a1d1-1541729b0ec2"},"vehicle_type_id":"4","last_reported":1751696073,"current_range_meters":14800,"station_id":"ce4bgvp2rcd13ifvqcu0","pricing_plan_id":"cebpf4jnsgd1na2vs0mg"},{"bike_id":"3913ad23-cf89-4f24-8bec-6574be33c73e","system_id":"levelo_inurba_marseille","lat":43.31271,"lon":5.40189,"is_reserved":false,"is_disabled":false,"rental_uris":{"android":"levelo://app?vid=3913ad23-cf89-4f24-8bec-6574be33c73e","ios":"levelo://app?vid=3913ad23-cf89-4f24-8bec-6574be33c73e"},"vehicle_type_id":"4","last_reported":1751696073,"current_range_meters":14800,"station_id":"ce4bh092rcd13ifvqd30","pricing_plan_id":"cebpf4jnsgd1na2vs0mg"},{"bike_id":"5e811c86-824d-4978-918d-a61aa3a543ea","system_id":"levelo_inurba_marseille","lat":43.3041,"lon":5.41286,"is_reserved":false,"is_disabled":false,"rental_uris":{"android":"levelo://app?vid=5e811c86-824d-4978-918d-a61aa3a543ea","ios":"levelo://app?vid=5e811c86-824d-4978-918d-a61aa3a543ea"},"vehicle_type_id":"4","last_reported":1751696073,"current_range_meters":14800,"station_id":"ce4bhop2rcd13ifvqh8g","pricing_plan_id":"cebpf4jnsgd1na2vs0mg"},{"bike_id":"25d65b54-2483-49ad-9e8c-b4102ded682f","system_id":"levelo_inurba_marseille","lat":43.21192,"lon":5.350749,"is_reserved":false,"is_disabled":false,"rental_uris":{"android":"levelo://app?vid=25d65b54-2483-49ad-9e8c-b4102ded682f","ios":"levelo://app?vid=25d65b54-2483-49ad-9e8c-b4102ded682f"},"vehicle_type_id":"4","last_reported":1751696073,"current_range_meters":14800,"station_id":"st_cvj6sg6p6f1abm77japg","pricing_plan_id":"cebpf4jnsgd1na2vs0mg"},{"bike_id":"5f470112-8139-4343-b082-08a74e0b7074","system_id":"levelo_inurba_marseille","lat":43.212,"lon":5.35072,"is_reserved":false,"is_disabled":false,"rental_uris":{"android":"levelo://app?vid=5f470112-8139-4343-b082-08a74e0b7074","ios":"levelo://app?vid=5f470112-8139-4343-b082-08a74e0b7074"},"vehicle_type_id":"4","last_reported":1751696073,"current_range_meters":14800,"station_id":"st_cvj6sg6p6f1abm77japg","pricing_plan_id":"cebpf4jnsgd1na2vs0mg"},{"bike_id":"daeee1e5-3b93-44da-8e47-7b24df6d544e","system_id":"levelo_inurba_marseille","lat":43.30009,"lon":5.37371,"is_reserved":false,"is_disabled":false,"rental_uris":{"android":"levelo://app?vid=daeee1e5-3b93-44da-8e47-7b24df6d544e","ios":"levelo://app?vid=daeee1e5-3b93-44da-8e47-7b24df6d544e"},"vehicle_type_id":"4","last_reported":1751696073,"current_range_meters":15200,"station_id":"","pricing_plan_id":"cebpf4jnsgd1na2vs0mg"},{"bike_id":"27b3b26f-62cb-45ea-a54c-6078366a412e","system_id":"levelo_inurba_marseille","lat":43.314898,"lon":5.373058,"is_reserved":false,"is_disabled":false,"rental_uris":{"android":"levelo://app?vid=27b3b26f-62cb-45ea-a54c-6078366a412e","ios":"levelo://app?vid=27b3b26f-62cb-45ea-a54c-6078366a412e"},"vehicle_type_id":"4","last_reported":1751696073,"current_range_meters":15200,"station_id":"ce4bgt12rcd13ifvqcd0","pricing_plan_id":"cebpf4jnsgd1na2vs0mg"},{"bike_id":"ba02322b-42c6-4f39-aab9-cb5c29c99255","system_id":"levelo_inurba_marseille","lat":43.30127,"lon":5.39921,"is_reserved":false,"is_disabled":false,"rental_uris":{"android":"levelo://app?vid=ba02322b-42c6-4f39-aab9-cb5c29c99255","ios":"levelo://app?vid=ba02322b-42c6-4f39-aab9-cb5c29c99255"},"vehicle_type_id":"4","last_reported":1751696073,"current_range_meters":15200,"station_id":"ce4bh0h2rcd13ifvqd40","pricing_plan_id":"cebpf4jnsgd1na2vs0mg"},{"bike_id":"b57c8ba4-04b3-4c7f-898a-ca9abf82e652","system_id":"levelo_inurba_marseille","lat":43.28374,"lon":5.37533,"is_reserved":false,"is_disabled":false,"rental_uris":{"android":"levelo://app?vid=b57c8ba4-04b3-4c7f-898a-ca9abf82e652","ios":"levelo://app?vid=b57c8ba4-04b3-4c7f-898a-ca9abf82e652"},"vehicle_type_id":"4","last_reported":1751696073,"current_range_meters":15200,"station_id":"ce4bh412rcd13ifvqds0","pricing_plan_id":"cebpf4jnsgd1na2vs0mg"},{"bike_id":"3ddbba30-83fc-4406-8b51-decfffba50fc","system_id":"levelo_inurba_marseille","lat":43.25731,"lon":5.41091,"is_reserved":false,"is_disabled":false,"rental_uris":{"android":"levelo://app?vid=3ddbba30-83fc-4406-8b51-decfffba50fc","ios":"levelo://app?vid=3ddbba30-83fc-4406-8b51-decfffba50fc"},"vehicle_type_id":"4","last_reported":1751696073,"current_range_meters":15200,"station_id":"ce4bhkp2rcd13ifvqgd0","pricing_plan_id":"cebpf4jnsgd1na2vs0mg"},{"bike_id":"89c4c171-fa34-44ee-8818-b4f1de745083","system_id":"levelo_inurba_marseille","lat":43.2319,"lon":5.35547,"is_reserved":false,"is_disabled":false,"rental_uris":{"android":"levelo://app?vid=89c4c171-fa34-44ee-8818-b4f1de745083","ios":"levelo://app?vid=89c4c171-fa34-44ee-8818-b4f1de745083"},"vehicle_type_id":"4","last_reported":1751696073,"current_range_meters":15200,"station_id":"ce4bhu92rcd13ifvqi70","pricing_plan_id":"cebpf4jnsgd1na2vs0mg"},{"bike_id":"ef26d274-58a7-40bc-9cf0-6287718684d4","system_id":"levelo_inurba_marseille","lat":43.307319,"lon":5.424523,"is_reserved":false,"is_disabled":false,"rental_uris":{"android":"levelo://app?vid=ef26d274-58a7-40bc-9cf0-6287718684d4","ios":"levelo://app?vid=ef26d274-58a7-40bc-9cf0-6287718684d4"},"vehicle_type_id":"4","last_reported":1751696073,"current_range_meters":15200,"station_id":"st_cvj6ca6bvosntc0bfgr0","pricing_plan_id":"cebpf4jnsgd1na2vs0mg"},{"bike_id":"26dc8365-9e5b-44ad-b380-654f888d2ccd","system_id":"levelo_inurba_marseille","lat":43.284043,"lon":5.375054,"is_reserved":false,"is_disabled":false,"rental_uris":{"android":"levelo://app?vid=26dc8365-9e5b-44ad-b380-654f888d2ccd","ios":"levelo://app?vid=26dc8365-9e5b-44ad-b380-654f888d2ccd"},"vehicle_type_id":"4","last_reported":1751696073,"current_range_meters":16000,"station_id":"","pricing_plan_id":"cebpf4jnsgd1na2vs0mg"},{"bike_id":"b1d40197-e49c-4962-8cd8-0babe05d31a6","system_id":"levelo_inurba_marseille","lat":43.21271,"lon":5.35267,"is_reserved":false,"is_disabled":false,"rental_uris":{"android":"levelo://app?vid=b1d40197-e49c-4962-8cd8-0babe05d31a6","ios":"levelo://app?vid=b1d40197-e49c-4962-8cd8-0babe05d31a6"},"vehicle_type_id":"4","last_reported":1751696073,"current_range_meters":16000,"station_id":"","pricing_plan_id":"cebpf4jnsgd1na2vs0mg"},{"bike_id":"e75921b6-f2fa-4d5f-a2d7-6f66e6347c4d","system_id":"levelo_inurba_marseille","lat":43.25004,"lon":5.40398,"is_reserved":false,"is_disabled":false,"rental_uris":{"android":"levelo://app?vid=e75921b6-f2fa-4d5f-a2d7-6f66e6347c4d","ios":"levelo://app?vid=e75921b6-f2fa-4d5f-a2d7-6f66e6347c4d"},"vehicle_type_id":"4","last_reported":1751696073,"current_range_meters":16000,"station_id":"","pricing_plan_id":"cebpf4jnsgd1na2vs0mg"},{"bike_id":"b8371eb8-ede8-4ef5-8417-74551586da0a","system_id":"levelo_inurba_marseille","lat":43.30806,"lon":5.3815,"is_reserved":false,"is_disabled":false,"rental_uris":{"android":"levelo://app?vid=b8371eb8-ede8-4ef5-8417-74551586da0a","ios":"levelo://app?vid=b8371eb8-ede8-4ef5-8417-74551586da0a"},"vehicle_type_id":"4","last_reported":1751696073,"current_range_meters":16000,"station_id":"ce4bgt12rcd13ifvqce0","pricing_plan_id":"cebpf4jnsgd1na2vs0mg"},{"bike_id":"02b71ffd-98ec-4faa-a4ff-9c4f0856d9be","system_id":"levelo_inurba_marseille","lat":43.30943,"lon":5.40162,"is_reserved":false,"is_disabled":false,"rental_uris":{"android":"levelo://app?vid=02b71ffd-98ec-4faa-a4ff-9c4f0856d9be","ios":"levelo://app?vid=02b71ffd-98ec-4faa-a4ff-9c4f0856d9be"},"vehicle_type_id":"4","last_reported":1751696073,"current_range_meters":16000,"station_id":"ce4bgvp2rcd13ifvqct0","pricing_plan_id":"cebpf4jnsgd1na2vs0mg"},{"bike_id":"9ce4937e-f70c-40c5-8304-a6e4aa82f427","system_id":"levelo_inurba_marseille","lat":43.30326,"lon":5.40436,"is_reserved":false,"is_disabled":false,"rental_uris":{"android":"levelo://app?vid=9ce4937e-f70c-40c5-8304-a6e4aa82f427","ios":"levelo://app?vid=9ce4937e-f70c-40c5-8304-a6e4aa82f427"},"vehicle_type_id":"4","last_reported":1751696073,"current_range_meters":16000,"station_id":"ce4bh012rcd13ifvqd10","pricing_plan_id":"cebpf4jnsgd1na2vs0mg"},{"bike_id":"b4afc502-b84b-4669-a44a-0949d7e6074a","system_id":"levelo_inurba_marseille","lat":43.284109,"lon":5.375027,"is_reserved":false,"is_disabled":false,"rental_uris":{"android":"levelo://app?vid=b4afc502-b84b-4669-a44a-0949d7e6074a","ios":"levelo://app?vid=b4afc502-b84b-4669-a44a-0949d7e6074a"},"vehicle_type_id":"4","last_reported":1751696073,"current_range_meters":16000,"station_id":"ce4bh412rcd13ifvqds0","pricing_plan_id":"cebpf4jnsgd1na2vs0mg"},{"bike_id":"e68f1283-190a-41c2-a163-9bfd1d51728b","system_id":"levelo_inurba_marseille","lat":43.27068,"lon":5.42272,"is_reserved":false,"is_disabled":false,"rental_uris":{"android":"levelo://app?vid=e68f1283-190a-41c2-a163-9bfd1d51728b","ios":"levelo://app?vid=e68f1283-190a-41c2-a163-9bfd1d51728b"},"vehicle_type_id":"4","last_reported":1751696073,"current_range_meters":16000,"station_id":"ce4bhk92rcd13ifvqgb0","pricing_plan_id":"cebpf4jnsgd1na2vs0mg"},{"bike_id":"85e59ae2-b351-4789-8c40-11e04c4e6808","system_id":"levelo_inurba_marseille","lat":43.23211,"lon":5.35548,"is_reserved":false,"is_disabled":false,"rental_uris":{"android":"levelo://app?vid=85e59ae2-b351-4789-8c40-11e04c4e6808","ios":"levelo://app?vid=85e59ae2-b351-4789-8c40-11e04c4e6808"},"vehicle_type_id":"4","last_reported":1751696073,"current_range_meters":16000,"station_id":"ce4bhu92rcd13ifvqi70","pricing_plan_id":"cebpf4jnsgd1na2vs0mg"},{"bike_id":"e9f184b7-4c52-47df-adfb-be4fdc9c8ed3","system_id":"levelo_inurba_marseille","lat":43.231815,"lon":5.355755,"is_reserved":false,"is_disabled":false,"rental_uris":{"android":"levelo://app?vid=e9f184b7-4c52-47df-adfb-be4fdc9c8ed3","ios":"levelo://app?vid=e9f184b7-4c52-47df-adfb-be4fdc9c8ed3"},"vehicle_type_id":"4","last_reported":1751696073,"current_range_meters":16000,"station_id":"ce4bhu92rcd13ifvqi70","pricing_plan_id":"cebpf4jnsgd1na2vs0mg"},{"bike_id":"a26f94e6-2e52-407e-8d3d-e81e31673933","system_id":"levelo_inurba_marseille","lat":43.2694,"lon":5.40281,"is_reserved":false,"is_disabled":false,"rental_uris":{"android":"levelo://app?vid=a26f94e6-2e52-407e-8d3d-e81e31673933","ios":"levelo://app?vid=a26f94e6-2e52-407e-8d3d-e81e31673933"},"vehicle_type_id":"4","last_reported":1751696073,"current_range_meters":16000,"station_id":"cjm6bp8fraef2m0cb0m0","pricing_plan_id":"cebpf4jnsgd1na2vs0mg"},{"bike_id":"adf1d38d-1f03-40cf-9b57-0a8f15f62b2d","system_id":"levelo_inurba_marseille","lat":43.33007,"lon":5.36412,"is_reserved":false,"is_disabled":false,"rental_uris":{"android":"levelo://app?vid=adf1d38d-1f03-40cf-9b57-0a8f15f62b2d","ios":"levelo://app?vid=adf1d38d-1f03-40cf-9b57-0a8f15f62b2d"},"vehicle_type_id":"4","last_reported":1751696073,"current_range_meters":16400,"station_id":"","pricing_plan_id":"cebpf4jnsgd1na2vs0mg"},{"bike_id":"7c7eae0f-4813-4a4a-8618-160795debd9d","system_id":"levelo_inurba_marseille","lat":43.30656,"lon":5.40065,"is_reserved":false,"is_disabled":false,"rental_uris":{"android":"levelo://app?vid=7c7eae0f-4813-4a4a-8618-160795debd9d","ios":"levelo://app?vid=7c7eae0f-4813-4a4a-8618-160795debd9d"},"vehicle_type_id":"4","last_reported":1751696073,"current_range_meters":16400,"station_id":"ce4bh112rcd13ifvqda0","pricing_plan_id":"cebpf4jnsgd1na2vs0mg"},{"bike_id":"2afff74e-2a36-41b5-aa3d-7383e276c035","system_id":"levelo_inurba_marseille","lat":43.28367,"lon":5.38626,"is_reserved":false,"is_disabled":false,"rental_uris":{"android":"levelo://app?vid=2afff74e-2a36-41b5-aa3d-7383e276c035","ios":"levelo://app?vid=2afff74e-2a36-41b5-aa3d-7383e276c035"},"vehicle_type_id":"4","last_reported":1751696073,"current_range_meters":16400,"station_id":"ce4bh492rcd13ifvqdvg","pricing_plan_id":"cebpf4jnsgd1na2vs0mg"},{"bike_id":"c3fae141-3322-46bb-976b-c85803ceeb5f","system_id":"levelo_inurba_marseille","lat":43.29553,"lon":5.42278,"is_reserved":false,"is_disabled":false,"rental_uris":{"android":"levelo://app?vid=c3fae141-3322-46bb-976b-c85803ceeb5f","ios":"levelo://app?vid=c3fae141-3322-46bb-976b-c85803ceeb5f"},"vehicle_type_id":"4","last_reported":1751696073,"current_range_meters":16400,"station_id":"ce4bhph2rcd13ifvqhdg","pricing_plan_id":"cebpf4jnsgd1na2vs0mg"},{"bike_id":"8501c7f1-4540-433a-9226-9677bd87b71a","system_id":"levelo_inurba_marseille","lat":43.211876,"lon":5.350693,"is_reserved":false,"is_disabled":false,"rental_uris":{"android":"levelo://app?vid=8501c7f1-4540-433a-9226-9677bd87b71a","ios":"levelo://app?vid=8501c7f1-4540-433a-9226-9677bd87b71a"},"vehicle_type_id":"4","last_reported":1751696073,"current_range_meters":16400,"station_id":"st_cvj6sg6p6f1abm77japg","pricing_plan_id":"cebpf4jnsgd1na2vs0mg"},{"bike_id":"3fc62123-78f7-4bfd-9645-67a7412e0768","system_id":"levelo_inurba_marseille","lat":43.2573,"lon":5.41107,"is_reserved":false,"is_disabled":false,"rental_uris":{"android":"levelo://app?vid=3fc62123-78f7-4bfd-9645-67a7412e0768","ios":"levelo://app?vid=3fc62123-78f7-4bfd-9645-67a7412e0768"},"vehicle_type_id":"4","last_reported":1751696073,"current_range_meters":16800,"station_id":"","pricing_plan_id":"cebpf4jnsgd1na2vs0mg"},{"bike_id":"8bb6a84e-b521-405f-a06d-93334a7fd583","system_id":"levelo_inurba_marseille","lat":43.296,"lon":5.38105,"is_reserved":false,"is_disabled":false,"rental_uris":{"android":"levelo://app?vid=8bb6a84e-b521-405f-a06d-93334a7fd583","ios":"levelo://app?vid=8bb6a84e-b521-405f-a06d-93334a7fd583"},"vehicle_type_id":"4","last_reported":1751696073,"current_range_meters":16800,"station_id":"ce4bgl12rcd13ifvqbo0","pricing_plan_id":"cebpf4jnsgd1na2vs0mg"},{"bike_id":"89ba5ece-873f-4004-9b96-69de33879a47","system_id":"levelo_inurba_marseille","lat":43.27996,"lon":5.40022,"is_reserved":false,"is_disabled":false,"rental_uris":{"android":"levelo://app?vid=89ba5ece-873f-4004-9b96-69de33879a47","ios":"levelo://app?vid=89ba5ece-873f-4004-9b96-69de33879a47"},"vehicle_type_id":"4","last_reported":1751696073,"current_range_meters":16800,"station_id":"ce4bho92rcd13ifvqh4g","pricing_plan_id":"cebpf4jnsgd1na2vs0mg"},{"bike_id":"134a6fd1-cb8b-4ade-a0c2-0b22bf7dca76","system_id":"levelo_inurba_marseille","lat":43.21192,"lon":5.35058,"is_reserved":false,"is_disabled":false,"rental_uris":{"android":"levelo://app?vid=134a6fd1-cb8b-4ade-a0c2-0b22bf7dca76","ios":"levelo://app?vid=134a6fd1-cb8b-4ade-a0c2-0b22bf7dca76"},"vehicle_type_id":"4","last_reported":1751696073,"current_range_meters":16800,"station_id":"st_cvj6sg6p6f1abm77japg","pricing_plan_id":"cebpf4jnsgd1na2vs0mg"},{"bike_id":"856c776b-976c-4e7f-97c1-3dc27b8380dd","system_id":"levelo_inurba_marseille","lat":43.31618,"lon":5.38327,"is_reserved":false,"is_disabled":false,"rental_uris":{"android":"levelo://app?vid=856c776b-976c-4e7f-97c1-3dc27b8380dd","ios":"levelo://app?vid=856c776b-976c-4e7f-97c1-3dc27b8380dd"},"vehicle_type_id":"4","last_reported":1751696073,"current_range_meters":17200,"station_id":"","pricing_plan_id":"cebpf4jnsgd1na2vs0mg"},{"bike_id":"fe8ee84c-fdfc-40aa-a1c2-6e36409c0740","system_id":"levelo_inurba_marseille","lat":43.268,"lon":5.39044,"is_reserved":false,"is_disabled":false,"rental_uris":{"android":"levelo://app?vid=fe8ee84c-fdfc-40aa-a1c2-6e36409c0740","ios":"levelo://app?vid=fe8ee84c-fdfc-40aa-a1c2-6e36409c0740"},"vehicle_type_id":"4","last_reported":1751696073,"current_range_meters":17200,"station_id":"","pricing_plan_id":"cebpf4jnsgd1na2vs0mg"},{"bike_id":"c1ebf6dc-e737-4173-a362-42c39997b726","system_id":"levelo_inurba_marseille","lat":43.29568,"lon":5.37542,"is_reserved":false,"is_disabled":false,"rental_uris":{"android":"levelo://app?vid=c1ebf6dc-e737-4173-a362-42c39997b726","ios":"levelo://app?vid=c1ebf6dc-e737-4173-a362-42c39997b726"},"vehicle_type_id":"4","last_reported":1751696073,"current_range_meters":17200,"station_id":"ce4bgh92rcd13ifvqb50","pricing_plan_id":"cebpf4jnsgd1na2vs0mg"},{"bike_id":"aae1a3ab-7f77-4cae-a515-0e32f1c9e1bf","system_id":"levelo_inurba_marseille","lat":43.31493,"lon":5.37282,"is_reserved":false,"is_disabled":false,"rental_uris":{"android":"levelo://app?vid=aae1a3ab-7f77-4cae-a515-0e32f1c9e1bf","ios":"levelo://app?vid=aae1a3ab-7f77-4cae-a515-0e32f1c9e1bf"},"vehicle_type_id":"4","last_reported":1751696073,"current_range_meters":17200,"station_id":"ce4bgt12rcd13ifvqcd0","pricing_plan_id":"cebpf4jnsgd1na2vs0mg"},{"bike_id":"292a8e84-2ca1-4f29-9ce5-87f882a96cc4","system_id":"levelo_inurba_marseille","lat":43.31326,"lon":5.39675,"is_reserved":false,"is_disabled":false,"rental_uris":{"android":"levelo://app?vid=292a8e84-2ca1-4f29-9ce5-87f882a96cc4","ios":"levelo://app?vid=292a8e84-2ca1-4f29-9ce5-87f882a96cc4"},"vehicle_type_id":"4","last_reported":1751696073,"current_range_meters":17200,"station_id":"ce4bgvp2rcd13ifvqcu0","pricing_plan_id":"cebpf4jnsgd1na2vs0mg"},{"bike_id":"f411ad0f-f333-4616-9c5b-4140774c42d1","system_id":"levelo_inurba_marseille","lat":43.28346,"lon":5.38115,"is_reserved":false,"is_disabled":false,"rental_uris":{"android":"levelo://app?vid=f411ad0f-f333-4616-9c5b-4140774c42d1","ios":"levelo://app?vid=f411ad0f-f333-4616-9c5b-4140774c42d1"},"vehicle_type_id":"4","last_reported":1751696073,"current_range_meters":17200,"station_id":"ce4bh412rcd13ifvqdr0","pricing_plan_id":"cebpf4jnsgd1na2vs0mg"},{"bike_id":"7d7ca329-d013-418c-84c4-2b0666103eeb","system_id":"levelo_inurba_marseille","lat":43.298954,"lon":5.436671,"is_reserved":false,"is_disabled":false,"rental_uris":{"android":"levelo://app?vid=7d7ca329-d013-418c-84c4-2b0666103eeb","ios":"levelo://app?vid=7d7ca329-d013-418c-84c4-2b0666103eeb"},"vehicle_type_id":"4","last_reported":1751696073,"current_range_meters":17200,"station_id":"ce4bhpp2rcd13ifvqhfg","pricing_plan_id":"cebpf4jnsgd1na2vs0mg"},{"bike_id":"bf24b26e-7f51-4120-9a48-54c87edaa2f7","system_id":"levelo_inurba_marseille","lat":43.211885,"lon":5.350728,"is_reserved":false,"is_disabled":false,"rental_uris":{"android":"levelo://app?vid=bf24b26e-7f51-4120-9a48-54c87edaa2f7","ios":"levelo://app?vid=bf24b26e-7f51-4120-9a48-54c87edaa2f7"},"vehicle_type_id":"4","last_reported":1751696073,"current_range_meters":17200,"station_id":"st_cvj6sg6p6f1abm77japg","pricing_plan_id":"cebpf4jnsgd1na2vs0mg"},{"bike_id":"8a42812b-a6a1-406d-afe6-f3a1f04badd8","system_id":"levelo_inurba_marseille","lat":43.30864,"lon":5.3702,"is_reserved":false,"is_disabled":false,"rental_uris":{"android":"levelo://app?vid=8a42812b-a6a1-406d-afe6-f3a1f04badd8","ios":"levelo://app?vid=8a42812b-a6a1-406d-afe6-f3a1f04badd8"},"vehicle_type_id":"4","last_reported":1751696073,"current_range_meters":17600,"station_id":"","pricing_plan_id":"cebpf4jnsgd1na2vs0mg"},{"bike_id":"de82732e-0a39-4d40-b3cf-607f82f986f4","system_id":"levelo_inurba_marseille","lat":43.26898,"lon":5.36841,"is_reserved":false,"is_disabled":false,"rental_uris":{"android":"levelo://app?vid=de82732e-0a39-4d40-b3cf-607f82f986f4","ios":"levelo://app?vid=de82732e-0a39-4d40-b3cf-607f82f986f4"},"vehicle_type_id":"4","last_reported":1751696073,"current_range_meters":17600,"station_id":"","pricing_plan_id":"cebpf4jnsgd1na2vs0mg"},{"bike_id":"5b5ca915-19f5-4c5c-ba88-71fe4a9869eb","system_id":"levelo_inurba_marseille","lat":43.31723,"lon":5.37756,"is_reserved":false,"is_disabled":false,"rental_uris":{"android":"levelo://app?vid=5b5ca915-19f5-4c5c-ba88-71fe4a9869eb","ios":"levelo://app?vid=5b5ca915-19f5-4c5c-ba88-71fe4a9869eb"},"vehicle_type_id":"4","last_reported":1751696073,"current_range_meters":17600,"station_id":"ce4bgth2rcd13ifvqch0","pricing_plan_id":"cebpf4jnsgd1na2vs0mg"},{"bike_id":"84303959-8cba-4981-9cd0-d7bbd107feff","system_id":"levelo_inurba_marseille","lat":43.304168,"lon":5.41287,"is_reserved":false,"is_disabled":false,"rental_uris":{"android":"levelo://app?vid=84303959-8cba-4981-9cd0-d7bbd107feff","ios":"levelo://app?vid=84303959-8cba-4981-9cd0-d7bbd107feff"},"vehicle_type_id":"4","last_reported":1751696073,"current_range_meters":17600,"station_id":"ce4bhop2rcd13ifvqh8g","pricing_plan_id":"cebpf4jnsgd1na2vs0mg"},{"bike_id":"e89dc0a9-f590-4ca5-8eb6-a1f780ceb998","system_id":"levelo_inurba_marseille","lat":43.30419,"lon":5.41277,"is_reserved":false,"is_disabled":false,"rental_uris":{"android":"levelo://app?vid=e89dc0a9-f590-4ca5-8eb6-a1f780ceb998","ios":"levelo://app?vid=e89dc0a9-f590-4ca5-8eb6-a1f780ceb998"},"vehicle_type_id":"4","last_reported":1751696073,"current_range_meters":17600,"station_id":"ce4bhop2rcd13ifvqh8g","pricing_plan_id":"cebpf4jnsgd1na2vs0mg"},{"bike_id":"65649ce6-7f39-4a81-afab-6d8bea652e28","system_id":"levelo_inurba_marseille","lat":43.30744,"lon":5.42438,"is_reserved":false,"is_disabled":false,"rental_uris":{"android":"levelo://app?vid=65649ce6-7f39-4a81-afab-6d8bea652e28","ios":"levelo://app?vid=65649ce6-7f39-4a81-afab-6d8bea652e28"},"vehicle_type_id":"4","last_reported":1751696073,"current_range_meters":17600,"station_id":"st_cvj6ca6bvosntc0bfgr0","pricing_plan_id":"cebpf4jnsgd1na2vs0mg"},{"bike_id":"c66d4605-1fed-4934-aa07-6f6e14626dde","system_id":"levelo_inurba_marseille","lat":43.30817,"lon":5.3816,"is_reserved":false,"is_disabled":false,"rental_uris":{"android":"levelo://app?vid=c66d4605-1fed-4934-aa07-6f6e14626dde","ios":"levelo://app?vid=c66d4605-1fed-4934-aa07-6f6e14626dde"},"vehicle_type_id":"4","last_reported":1751696073,"current_range_meters":18000,"station_id":"ce4bgt12rcd13ifvqce0","pricing_plan_id":"cebpf4jnsgd1na2vs0mg"},{"bike_id":"4a676acc-1a80-4b0c-b73d-ddfb0832f4d0","system_id":"levelo_inurba_marseille","lat":43.31691,"lon":5.40476,"is_reserved":false,"is_disabled":false,"rental_uris":{"android":"levelo://app?vid=4a676acc-1a80-4b0c-b73d-ddfb0832f4d0","ios":"levelo://app?vid=4a676acc-1a80-4b0c-b73d-ddfb0832f4d0"},"vehicle_type_id":"4","last_reported":1751696073,"current_range_meters":18000,"station_id":"ce4bh012rcd13ifvqd00","pricing_plan_id":"cebpf4jnsgd1na2vs0mg"},{"bike_id":"2d24d585-5fe8-4a6b-bec8-41e078819ef4","system_id":"levelo_inurba_marseille","lat":43.296301,"lon":5.405964,"is_reserved":false,"is_disabled":false,"rental_uris":{"android":"levelo://app?vid=2d24d585-5fe8-4a6b-bec8-41e078819ef4","ios":"levelo://app?vid=2d24d585-5fe8-4a6b-bec8-41e078819ef4"},"vehicle_type_id":"4","last_reported":1751696073,"current_range_meters":18000,"station_id":"ce4bh0h2rcd13ifvqd60","pricing_plan_id":"cebpf4jnsgd1na2vs0mg"},{"bike_id":"50c5190d-17d3-497a-9701-d694da17d4cd","system_id":"levelo_inurba_marseille","lat":43.29162,"lon":5.37143,"is_reserved":false,"is_disabled":false,"rental_uris":{"android":"levelo://app?vid=50c5190d-17d3-497a-9701-d694da17d4cd","ios":"levelo://app?vid=50c5190d-17d3-497a-9701-d694da17d4cd"},"vehicle_type_id":"4","last_reported":1751696073,"current_range_meters":18000,"station_id":"ce4bha92rcd13ifvqeh0","pricing_plan_id":"cebpf4jnsgd1na2vs0mg"},{"bike_id":"5e4669bd-8536-4919-8da2-15409e182044","system_id":"levelo_inurba_marseille","lat":43.231438,"lon":5.437281,"is_reserved":false,"is_disabled":false,"rental_uris":{"android":"levelo://app?vid=5e4669bd-8536-4919-8da2-15409e182044","ios":"levelo://app?vid=5e4669bd-8536-4919-8da2-15409e182044"},"vehicle_type_id":"4","last_reported":1751696073,"current_range_meters":18000,"station_id":"ce4bhmp2rcd13ifvqgog","pricing_plan_id":"cebpf4jnsgd1na2vs0mg"},{"bike_id":"2d183b03-e787-4b0a-9715-1c862eb94988","system_id":"levelo_inurba_marseille","lat":43.28712,"lon":5.39993,"is_reserved":false,"is_disabled":false,"rental_uris":{"android":"levelo://app?vid=2d183b03-e787-4b0a-9715-1c862eb94988","ios":"levelo://app?vid=2d183b03-e787-4b0a-9715-1c862eb94988"},"vehicle_type_id":"4","last_reported":1751696073,"current_range_meters":18000,"station_id":"ce4bho92rcd13ifvqh3g","pricing_plan_id":"cebpf4jnsgd1na2vs0mg"},{"bike_id":"e449aa29-cae1-4432-9aec-dedc13360b20","system_id":"levelo_inurba_marseille","lat":43.21193,"lon":5.35077,"is_reserved":false,"is_disabled":false,"rental_uris":{"android":"levelo://app?vid=e449aa29-cae1-4432-9aec-dedc13360b20","ios":"levelo://app?vid=e449aa29-cae1-4432-9aec-dedc13360b20"},"vehicle_type_id":"4","last_reported":1751696073,"current_range_meters":18000,"station_id":"st_cvj6sg6p6f1abm77japg","pricing_plan_id":"cebpf4jnsgd1na2vs0mg"},{"bike_id":"283fe0ed-0eb5-405b-8867-21111f85c3b1","system_id":"levelo_inurba_marseille","lat":43.31072,"lon":5.38358,"is_reserved":false,"is_disabled":false,"rental_uris":{"android":"levelo://app?vid=283fe0ed-0eb5-405b-8867-21111f85c3b1","ios":"levelo://app?vid=283fe0ed-0eb5-405b-8867-21111f85c3b1"},"vehicle_type_id":"4","last_reported":1751696073,"current_range_meters":18800,"station_id":"ce4bgv92rcd13ifvqcr0","pricing_plan_id":"cebpf4jnsgd1na2vs0mg"},{"bike_id":"2d4bb3a1-801d-486a-a963-9ec8f0a08a83","system_id":"levelo_inurba_marseille","lat":43.303176,"lon":5.404461,"is_reserved":false,"is_disabled":false,"rental_uris":{"android":"levelo://app?vid=2d4bb3a1-801d-486a-a963-9ec8f0a08a83","ios":"levelo://app?vid=2d4bb3a1-801d-486a-a963-9ec8f0a08a83"},"vehicle_type_id":"4","last_reported":1751696073,"current_range_meters":18800,"station_id":"ce4bh012rcd13ifvqd10","pricing_plan_id":"cebpf4jnsgd1na2vs0mg"},{"bike_id":"f4014af3-6f05-416d-9154-ce76f684dda3","system_id":"levelo_inurba_marseille","lat":43.274948,"lon":5.424668,"is_reserved":false,"is_disabled":false,"rental_uris":{"android":"levelo://app?vid=f4014af3-6f05-416d-9154-ce76f684dda3","ios":"levelo://app?vid=f4014af3-6f05-416d-9154-ce76f684dda3"},"vehicle_type_id":"4","last_reported":1751696073,"current_range_meters":18800,"station_id":"ce4bhn92rcd13ifvqgrg","pricing_plan_id":"cebpf4jnsgd1na2vs0mg"},{"bike_id":"452e8211-4f44-45d0-814a-3e9e25b8c44e","system_id":"levelo_inurba_marseille","lat":43.21192,"lon":5.35075,"is_reserved":false,"is_disabled":false,"rental_uris":{"android":"levelo://app?vid=452e8211-4f44-45d0-814a-3e9e25b8c44e","ios":"levelo://app?vid=452e8211-4f44-45d0-814a-3e9e25b8c44e"},"vehicle_type_id":"4","last_reported":1751696073,"current_range_meters":18800,"station_id":"st_cvj6sg6p6f1abm77japg","pricing_plan_id":"cebpf4jnsgd1na2vs0mg"},{"bike_id":"d5ef770d-9759-47e3-b3a5-7d2785ef76db","system_id":"levelo_inurba_marseille","lat":43.33058,"lon":5.39547,"is_reserved":false,"is_disabled":false,"rental_uris":{"android":"levelo://app?vid=d5ef770d-9759-47e3-b3a5-7d2785ef76db","ios":"levelo://app?vid=d5ef770d-9759-47e3-b3a5-7d2785ef76db"},"vehicle_type_id":"4","last_reported":1751696073,"current_range_meters":19200,"station_id":"","pricing_plan_id":"cebpf4jnsgd1na2vs0mg"},{"bike_id":"8b885149-cf7a-4df4-824d-7d686b7d76d4","system_id":"levelo_inurba_marseille","lat":43.28032,"lon":5.40881,"is_reserved":false,"is_disabled":false,"rental_uris":{"android":"levelo://app?vid=8b885149-cf7a-4df4-824d-7d686b7d76d4","ios":"levelo://app?vid=8b885149-cf7a-4df4-824d-7d686b7d76d4"},"vehicle_type_id":"4","last_reported":1751696073,"current_range_meters":19200,"station_id":"","pricing_plan_id":"cebpf4jnsgd1na2vs0mg"},{"bike_id":"b79bc275-8494-469d-8ac8-9a51d2cb28b3","system_id":"levelo_inurba_marseille","lat":43.2993,"lon":5.39742,"is_reserved":false,"is_disabled":false,"rental_uris":{"android":"levelo://app?vid=b79bc275-8494-469d-8ac8-9a51d2cb28b3","ios":"levelo://app?vid=b79bc275-8494-469d-8ac8-9a51d2cb28b3"},"vehicle_type_id":"4","last_reported":1751696073,"current_range_meters":19200,"station_id":"ce4bh0h2rcd13ifvqd50","pricing_plan_id":"cebpf4jnsgd1na2vs0mg"},{"bike_id":"4a4cc263-eea7-4029-98da-e90ae0319c7b","system_id":"levelo_inurba_marseille","lat":43.29087,"lon":5.38145,"is_reserved":false,"is_disabled":false,"rental_uris":{"android":"levelo://app?vid=4a4cc263-eea7-4029-98da-e90ae0319c7b","ios":"levelo://app?vid=4a4cc263-eea7-4029-98da-e90ae0319c7b"},"vehicle_type_id":"4","last_reported":1751696073,"current_range_meters":19200,"station_id":"ce4bh512rcd13ifvqe2g","pricing_plan_id":"cebpf4jnsgd1na2vs0mg"},{"bike_id":"30c5f82e-69a5-4464-95de-82bfcc1d606a","system_id":"levelo_inurba_marseille","lat":43.28621,"lon":5.35102,"is_reserved":false,"is_disabled":false,"rental_uris":{"android":"levelo://app?vid=30c5f82e-69a5-4464-95de-82bfcc1d606a","ios":"levelo://app?vid=30c5f82e-69a5-4464-95de-82bfcc1d606a"},"vehicle_type_id":"4","last_reported":1751696073,"current_range_meters":19200,"station_id":"ce4bhch2rcd13ifvqeug","pricing_plan_id":"cebpf4jnsgd1na2vs0mg"},{"bike_id":"c9d66740-661e-4c1f-b230-254ff8f099c1","system_id":"levelo_inurba_marseille","lat":43.257153,"lon":5.411116,"is_reserved":false,"is_disabled":false,"rental_uris":{"android":"levelo://app?vid=c9d66740-661e-4c1f-b230-254ff8f099c1","ios":"levelo://app?vid=c9d66740-661e-4c1f-b230-254ff8f099c1"},"vehicle_type_id":"4","last_reported":1751696073,"current_range_meters":19200,"station_id":"ce4bhkp2rcd13ifvqgd0","pricing_plan_id":"cebpf4jnsgd1na2vs0mg"},{"bike_id":"655a110d-474d-43b1-a203-d9e462e1a783","system_id":"levelo_inurba_marseille","lat":43.21197,"lon":5.35074,"is_reserved":false,"is_disabled":false,"rental_uris":{"android":"levelo://app?vid=655a110d-474d-43b1-a203-d9e462e1a783","ios":"levelo://app?vid=655a110d-474d-43b1-a203-d9e462e1a783"},"vehicle_type_id":"4","last_reported":1751696073,"current_range_meters":19200,"station_id":"st_cvj6sg6p6f1abm77japg","pricing_plan_id":"cebpf4jnsgd1na2vs0mg"},{"bike_id":"ef51f4b8-4432-491f-9c69-87947c1b6e29","system_id":"levelo_inurba_marseille","lat":43.313221,"lon":5.397054,"is_reserved":false,"is_disabled":false,"rental_uris":{"android":"levelo://app?vid=ef51f4b8-4432-491f-9c69-87947c1b6e29","ios":"levelo://app?vid=ef51f4b8-4432-491f-9c69-87947c1b6e29"},"vehicle_type_id":"4","last_reported":1751696073,"current_range_meters":19600,"station_id":"ce4bgvp2rcd13ifvqcu0","pricing_plan_id":"cebpf4jnsgd1na2vs0mg"},{"bike_id":"a192b1e8-cb6c-43ca-bfa4-5253c08d303c","system_id":"levelo_inurba_marseille","lat":43.30652,"lon":5.40077,"is_reserved":false,"is_disabled":false,"rental_uris":{"android":"levelo://app?vid=a192b1e8-cb6c-43ca-bfa4-5253c08d303c","ios":"levelo://app?vid=a192b1e8-cb6c-43ca-bfa4-5253c08d303c"},"vehicle_type_id":"4","last_reported":1751696073,"current_range_meters":19600,"station_id":"ce4bh112rcd13ifvqda0","pricing_plan_id":"cebpf4jnsgd1na2vs0mg"},{"bike_id":"09cb21a0-3997-440c-82b7-1c9d4bbfaeb7","system_id":"levelo_inurba_marseille","lat":43.33021,"lon":5.39033,"is_reserved":false,"is_disabled":false,"rental_uris":{"android":"levelo://app?vid=09cb21a0-3997-440c-82b7-1c9d4bbfaeb7","ios":"levelo://app?vid=09cb21a0-3997-440c-82b7-1c9d4bbfaeb7"},"vehicle_type_id":"4","last_reported":1751696073,"current_range_meters":19600,"station_id":"ce4bhr92rcd13ifvqhrg","pricing_plan_id":"cebpf4jnsgd1na2vs0mg"},{"bike_id":"30daf87a-5e7d-42b3-ac97-c9dfd23296b5","system_id":"levelo_inurba_marseille","lat":43.32483,"lon":5.36581,"is_reserved":false,"is_disabled":false,"rental_uris":{"android":"levelo://app?vid=30daf87a-5e7d-42b3-ac97-c9dfd23296b5","ios":"levelo://app?vid=30daf87a-5e7d-42b3-ac97-c9dfd23296b5"},"vehicle_type_id":"4","last_reported":1751696073,"current_range_meters":19600,"station_id":"ce4bhs12rcd13ifvqhvg","pricing_plan_id":"cebpf4jnsgd1na2vs0mg"},{"bike_id":"8bf0d992-d2a0-428e-940a-091ee9b7c2a4","system_id":"levelo_inurba_marseille","lat":43.21186,"lon":5.35074,"is_reserved":false,"is_disabled":false,"rental_uris":{"android":"levelo://app?vid=8bf0d992-d2a0-428e-940a-091ee9b7c2a4","ios":"levelo://app?vid=8bf0d992-d2a0-428e-940a-091ee9b7c2a4"},"vehicle_type_id":"4","last_reported":1751696073,"current_range_meters":19600,"station_id":"st_cvj6sg6p6f1abm77japg","pricing_plan_id":"cebpf4jnsgd1na2vs0mg"},{"bike_id":"700fddf2-2189-420b-8b18-4d99d321fee5","system_id":"levelo_inurba_marseille","lat":43.282929,"lon":5.432106,"is_reserved":false,"is_disabled":false,"rental_uris":{"android":"levelo://app?vid=700fddf2-2189-420b-8b18-4d99d321fee5","ios":"levelo://app?vid=700fddf2-2189-420b-8b18-4d99d321fee5"},"vehicle_type_id":"4","last_reported":1751696073,"current_range_meters":20000,"station_id":"","pricing_plan_id":"cebpf4jnsgd1na2vs0mg"},{"bike_id":"dcf20e92-f381-494c-9040-27a039ba03ba","system_id":"levelo_inurba_marseille","lat":43.29942,"lon":5.36552,"is_reserved":false,"is_disabled":false,"rental_uris":{"android":"levelo://app?vid=dcf20e92-f381-494c-9040-27a039ba03ba","ios":"levelo://app?vid=dcf20e92-f381-494c-9040-27a039ba03ba"},"vehicle_type_id":"4","last_reported":1751696073,"current_range_meters":20000,"station_id":"ce4bgm92rcd13ifvqbr0","pricing_plan_id":"cebpf4jnsgd1na2vs0mg"},{"bike_id":"67be403c-ef22-4345-acfb-b9851c974ea9","system_id":"levelo_inurba_marseille","lat":43.29841,"lon":5.36264,"is_reserved":false,"is_disabled":false,"rental_uris":{"android":"levelo://app?vid=67be403c-ef22-4345-acfb-b9851c974ea9","ios":"levelo://app?vid=67be403c-ef22-4345-acfb-b9851c974ea9"},"vehicle_type_id":"4","last_reported":1751696073,"current_range_meters":20000,"station_id":"ce4bgpp2rcd13ifvqc3g","pricing_plan_id":"cebpf4jnsgd1na2vs0mg"},{"bike_id":"2a360dea-5ad2-42ee-b988-c6b3f55c6549","system_id":"levelo_inurba_marseille","lat":43.30817,"lon":5.38158,"is_reserved":false,"is_disabled":false,"rental_uris":{"android":"levelo://app?vid=2a360dea-5ad2-42ee-b988-c6b3f55c6549","ios":"levelo://app?vid=2a360dea-5ad2-42ee-b988-c6b3f55c6549"},"vehicle_type_id":"4","last_reported":1751696073,"current_range_meters":20000,"station_id":"ce4bgt12rcd13ifvqce0","pricing_plan_id":"cebpf4jnsgd1na2vs0mg"},{"bike_id":"e194ddfc-b316-4d9d-a0df-089715e37a17","system_id":"levelo_inurba_marseille","lat":43.30633,"lon":5.40061,"is_reserved":false,"is_disabled":false,"rental_uris":{"android":"levelo://app?vid=e194ddfc-b316-4d9d-a0df-089715e37a17","ios":"levelo://app?vid=e194ddfc-b316-4d9d-a0df-089715e37a17"},"vehicle_type_id":"4","last_reported":1751696073,"current_range_meters":20000,"station_id":"ce4bh112rcd13ifvqda0","pricing_plan_id":"cebpf4jnsgd1na2vs0mg"},{"bike_id":"576ade82-954f-4e11-95d3-631aaf619f93","system_id":"levelo_inurba_marseille","lat":43.283499,"lon":5.381066,"is_reserved":false,"is_disabled":false,"rental_uris":{"android":"levelo://app?vid=576ade82-954f-4e11-95d3-631aaf619f93","ios":"levelo://app?vid=576ade82-954f-4e11-95d3-631aaf619f93"},"vehicle_type_id":"4","last_reported":1751696073,"current_range_meters":20000,"station_id":"ce4bh412rcd13ifvqdr0","pricing_plan_id":"cebpf4jnsgd1na2vs0mg"},{"bike_id":"8770c872-ca5b-4910-a2a2-0c981f90691e","system_id":"levelo_inurba_marseille","lat":43.3042,"lon":5.41281,"is_reserved":false,"is_disabled":false,"rental_uris":{"android":"levelo://app?vid=8770c872-ca5b-4910-a2a2-0c981f90691e","ios":"levelo://app?vid=8770c872-ca5b-4910-a2a2-0c981f90691e"},"vehicle_type_id":"4","last_reported":1751696073,"current_range_meters":20000,"station_id":"ce4bhop2rcd13ifvqh8g","pricing_plan_id":"cebpf4jnsgd1na2vs0mg"},{"bike_id":"ed4e39d1-3e16-40d8-a89c-f536b7cba98a","system_id":"levelo_inurba_marseille","lat":43.295568,"lon":5.422868,"is_reserved":false,"is_disabled":false,"rental_uris":{"android":"levelo://app?vid=ed4e39d1-3e16-40d8-a89c-f536b7cba98a","ios":"levelo://app?vid=ed4e39d1-3e16-40d8-a89c-f536b7cba98a"},"vehicle_type_id":"4","last_reported":1751696073,"current_range_meters":20000,"station_id":"ce4bhph2rcd13ifvqhdg","pricing_plan_id":"cebpf4jnsgd1na2vs0mg"},{"bike_id":"83b11fb5-79c7-42dc-96a5-00ca635dbb8c","system_id":"levelo_inurba_marseille","lat":43.299724,"lon":5.384744,"is_reserved":false,"is_disabled":false,"rental_uris":{"android":"levelo://app?vid=83b11fb5-79c7-42dc-96a5-00ca635dbb8c","ios":"levelo://app?vid=83b11fb5-79c7-42dc-96a5-00ca635dbb8c"},"vehicle_type_id":"4","last_reported":1751696073,"current_range_meters":20400,"station_id":"","pricing_plan_id":"cebpf4jnsgd1na2vs0mg"},{"bike_id":"d02885ef-949e-4323-a7f4-a1834a8a344f","system_id":"levelo_inurba_marseille","lat":43.29626,"lon":5.40604,"is_reserved":false,"is_disabled":false,"rental_uris":{"android":"levelo://app?vid=d02885ef-949e-4323-a7f4-a1834a8a344f","ios":"levelo://app?vid=d02885ef-949e-4323-a7f4-a1834a8a344f"},"vehicle_type_id":"4","last_reported":1751696073,"current_range_meters":20400,"station_id":"ce4bh0h2rcd13ifvqd60","pricing_plan_id":"cebpf4jnsgd1na2vs0mg"},{"bike_id":"2e9ecc0a-afc7-4316-ac0c-3ab173435e83","system_id":"levelo_inurba_marseille","lat":43.23192,"lon":5.35551,"is_reserved":false,"is_disabled":false,"rental_uris":{"android":"levelo://app?vid=2e9ecc0a-afc7-4316-ac0c-3ab173435e83","ios":"levelo://app?vid=2e9ecc0a-afc7-4316-ac0c-3ab173435e83"},"vehicle_type_id":"4","last_reported":1751696073,"current_range_meters":20400,"station_id":"ce4bhu92rcd13ifvqi70","pricing_plan_id":"cebpf4jnsgd1na2vs0mg"},{"bike_id":"df4c69f6-9711-49d2-83d2-3d91f7bba0dd","system_id":"levelo_inurba_marseille","lat":43.30944,"lon":5.40146,"is_reserved":false,"is_disabled":false,"rental_uris":{"android":"levelo://app?vid=df4c69f6-9711-49d2-83d2-3d91f7bba0dd","ios":"levelo://app?vid=df4c69f6-9711-49d2-83d2-3d91f7bba0dd"},"vehicle_type_id":"4","last_reported":1751696073,"current_range_meters":20800,"station_id":"ce4bgvp2rcd13ifvqct0","pricing_plan_id":"cebpf4jnsgd1na2vs0mg"},{"bike_id":"d7c4462c-539d-4314-97fd-cee6f58ed89a","system_id":"levelo_inurba_marseille","lat":43.29896,"lon":5.3973,"is_reserved":false,"is_disabled":false,"rental_uris":{"android":"levelo://app?vid=d7c4462c-539d-4314-97fd-cee6f58ed89a","ios":"levelo://app?vid=d7c4462c-539d-4314-97fd-cee6f58ed89a"},"vehicle_type_id":"4","last_reported":1751696073,"current_range_meters":20800,"station_id":"ce4bh0h2rcd13ifvqd50","pricing_plan_id":"cebpf4jnsgd1na2vs0mg"},{"bike_id":"cf4a0dcf-4d4b-421d-9ca2-59a8474aec3d","system_id":"levelo_inurba_marseille","lat":43.28271,"lon":5.35064,"is_reserved":false,"is_disabled":false,"rental_uris":{"android":"levelo://app?vid=cf4a0dcf-4d4b-421d-9ca2-59a8474aec3d","ios":"levelo://app?vid=cf4a0dcf-4d4b-421d-9ca2-59a8474aec3d"},"vehicle_type_id":"4","last_reported":1751696073,"current_range_meters":20800,"station_id":"ce4bhbp2rcd13ifvqerg","pricing_plan_id":"cebpf4jnsgd1na2vs0mg"},{"bike_id":"274ca73a-7a28-4c83-8b8e-acb18b424839","system_id":"levelo_inurba_marseille","lat":43.30821,"lon":5.38164,"is_reserved":false,"is_disabled":false,"rental_uris":{"android":"levelo://app?vid=274ca73a-7a28-4c83-8b8e-acb18b424839","ios":"levelo://app?vid=274ca73a-7a28-4c83-8b8e-acb18b424839"},"vehicle_type_id":"4","last_reported":1751696073,"current_range_meters":21600,"station_id":"ce4bgt12rcd13ifvqce0","pricing_plan_id":"cebpf4jnsgd1na2vs0mg"},{"bike_id":"ed3632b1-8dd5-43dd-b2bb-d49d9488ad61","system_id":"levelo_inurba_marseille","lat":43.28477,"lon":5.38412,"is_reserved":false,"is_disabled":false,"rental_uris":{"android":"levelo://app?vid=ed3632b1-8dd5-43dd-b2bb-d49d9488ad61","ios":"levelo://app?vid=ed3632b1-8dd5-43dd-b2bb-d49d9488ad61"},"vehicle_type_id":"4","last_reported":1751696073,"current_range_meters":21600,"station_id":"ce4bh512rcd13ifvqe3g","pricing_plan_id":"cebpf4jnsgd1na2vs0mg"},{"bike_id":"49afcb95-ba52-4fea-bcd8-c14dce8c7f4d","system_id":"levelo_inurba_marseille","lat":43.2922,"lon":5.36065,"is_reserved":false,"is_disabled":false,"rental_uris":{"android":"levelo://app?vid=49afcb95-ba52-4fea-bcd8-c14dce8c7f4d","ios":"levelo://app?vid=49afcb95-ba52-4fea-bcd8-c14dce8c7f4d"},"vehicle_type_id":"4","last_reported":1751696073,"current_range_meters":21600,"station_id":"ce4bhbh2rcd13ifvqeqg","pricing_plan_id":"cebpf4jnsgd1na2vs0mg"},{"bike_id":"80955d0f-8669-4c02-b90f-c6fe20790c37","system_id":"levelo_inurba_marseille","lat":43.23185,"lon":5.35052,"is_reserved":false,"is_disabled":false,"rental_uris":{"android":"levelo://app?vid=80955d0f-8669-4c02-b90f-c6fe20790c37","ios":"levelo://app?vid=80955d0f-8669-4c02-b90f-c6fe20790c37"},"vehicle_type_id":"4","last_reported":1751696073,"current_range_meters":22000,"station_id":"","pricing_plan_id":"cebpf4jnsgd1na2vs0mg"},{"bike_id":"3b22f952-d0bc-4c00-8fd3-7e27b88aea23","system_id":"levelo_inurba_marseille","lat":43.29659,"lon":5.36245,"is_reserved":false,"is_disabled":false,"rental_uris":{"android":"levelo://app?vid=3b22f952-d0bc-4c00-8fd3-7e27b88aea23","ios":"levelo://app?vid=3b22f952-d0bc-4c00-8fd3-7e27b88aea23"},"vehicle_type_id":"4","last_reported":1751696073,"current_range_meters":22000,"station_id":"","pricing_plan_id":"cebpf4jnsgd1na2vs0mg"},{"bike_id":"d1f9d37d-b429-4583-912e-805cf3889e65","system_id":"levelo_inurba_marseille","lat":43.23193,"lon":5.35548,"is_reserved":false,"is_disabled":false,"rental_uris":{"android":"levelo://app?vid=d1f9d37d-b429-4583-912e-805cf3889e65","ios":"levelo://app?vid=d1f9d37d-b429-4583-912e-805cf3889e65"},"vehicle_type_id":"4","last_reported":1751696073,"current_range_meters":22000,"station_id":"ce4bhu92rcd13ifvqi70","pricing_plan_id":"cebpf4jnsgd1na2vs0mg"},{"bike_id":"a0455428-5643-4c31-97a7-d01bf071937a","system_id":"levelo_inurba_marseille","lat":43.3175,"lon":5.42403,"is_reserved":false,"is_disabled":false,"rental_uris":{"android":"levelo://app?vid=a0455428-5643-4c31-97a7-d01bf071937a","ios":"levelo://app?vid=a0455428-5643-4c31-97a7-d01bf071937a"},"vehicle_type_id":"4","last_reported":1751696073,"current_range_meters":22400,"station_id":"ce4bhp92rcd13ifvqhbg","pricing_plan_id":"cebpf4jnsgd1na2vs0mg"},{"bike_id":"cc77c888-9da2-42df-aab4-55bd18e3864f","system_id":"levelo_inurba_marseille","lat":43.29565,"lon":5.42279,"is_reserved":false,"is_disabled":false,"rental_uris":{"android":"levelo://app?vid=cc77c888-9da2-42df-aab4-55bd18e3864f","ios":"levelo://app?vid=cc77c888-9da2-42df-aab4-55bd18e3864f"},"vehicle_type_id":"4","last_reported":1751696073,"current_range_meters":22400,"station_id":"ce4bhph2rcd13ifvqhdg","pricing_plan_id":"cebpf4jnsgd1na2vs0mg"},{"bike_id":"37f2becd-23f9-4f13-a711-38b8024eeec7","system_id":"levelo_inurba_marseille","lat":43.33768,"lon":5.37516,"is_reserved":false,"is_disabled":false,"rental_uris":{"android":"levelo://app?vid=37f2becd-23f9-4f13-a711-38b8024eeec7","ios":"levelo://app?vid=37f2becd-23f9-4f13-a711-38b8024eeec7"},"vehicle_type_id":"4","last_reported":1751696073,"current_range_meters":22800,"station_id":"","pricing_plan_id":"cebpf4jnsgd1na2vs0mg"},{"bike_id":"ecdedb84-6c95-4ac2-b42a-1815d65fe975","system_id":"levelo_inurba_marseille","lat":43.2893,"lon":5.42751,"is_reserved":false,"is_disabled":false,"rental_uris":{"android":"levelo://app?vid=ecdedb84-6c95-4ac2-b42a-1815d65fe975","ios":"levelo://app?vid=ecdedb84-6c95-4ac2-b42a-1815d65fe975"},"vehicle_type_id":"4","last_reported":1751696073,"current_range_meters":22800,"station_id":"","pricing_plan_id":"cebpf4jnsgd1na2vs0mg"},{"bike_id":"2686b15e-a3e1-4836-8776-73f74523d2ff","system_id":"levelo_inurba_marseille","lat":43.30437,"lon":5.38883,"is_reserved":false,"is_disabled":false,"rental_uris":{"android":"levelo://app?vid=2686b15e-a3e1-4836-8776-73f74523d2ff","ios":"levelo://app?vid=2686b15e-a3e1-4836-8776-73f74523d2ff"},"vehicle_type_id":"4","last_reported":1751696073,"current_range_meters":22800,"station_id":"ce4bgk12rcd13ifvqbi0","pricing_plan_id":"cebpf4jnsgd1na2vs0mg"},{"bike_id":"320e0afe-82ff-4a1c-8185-217bf4a1cf2a","system_id":"levelo_inurba_marseille","lat":43.29828,"lon":5.4042,"is_reserved":false,"is_disabled":false,"rental_uris":{"android":"levelo://app?vid=320e0afe-82ff-4a1c-8185-217bf4a1cf2a","ios":"levelo://app?vid=320e0afe-82ff-4a1c-8185-217bf4a1cf2a"},"vehicle_type_id":"4","last_reported":1751696073,"current_range_meters":22800,"station_id":"ce4bh112rcd13ifvqd90","pricing_plan_id":"cebpf4jnsgd1na2vs0mg"},{"bike_id":"a759bf83-9e99-4226-956c-19a08d9619bf","system_id":"levelo_inurba_marseille","lat":43.29531,"lon":5.39038,"is_reserved":false,"is_disabled":false,"rental_uris":{"android":"levelo://app?vid=a759bf83-9e99-4226-956c-19a08d9619bf","ios":"levelo://app?vid=a759bf83-9e99-4226-956c-19a08d9619bf"},"vehicle_type_id":"4","last_reported":1751696073,"current_range_meters":22800,"station_id":"ce4bh3p2rcd13ifvqdp0","pricing_plan_id":"cebpf4jnsgd1na2vs0mg"},{"bike_id":"727e771f-575e-482a-a953-d5734caf116b","system_id":"levelo_inurba_marseille","lat":43.29044,"lon":5.38134,"is_reserved":false,"is_disabled":false,"rental_uris":{"android":"levelo://app?vid=727e771f-575e-482a-a953-d5734caf116b","ios":"levelo://app?vid=727e771f-575e-482a-a953-d5734caf116b"},"vehicle_type_id":"4","last_reported":1751696073,"current_range_meters":22800,"station_id":"ce4bh4p2rcd13ifvqe1g","pricing_plan_id":"cebpf4jnsgd1na2vs0mg"},{"bike_id":"6fe7a6fa-6776-4f46-85d8-557bbcb1a86b","system_id":"levelo_inurba_marseille","lat":43.26574,"lon":5.39011,"is_reserved":false,"is_disabled":false,"rental_uris":{"android":"levelo://app?vid=6fe7a6fa-6776-4f46-85d8-557bbcb1a86b","ios":"levelo://app?vid=6fe7a6fa-6776-4f46-85d8-557bbcb1a86b"},"vehicle_type_id":"4","last_reported":1751696073,"current_range_meters":22800,"station_id":"ce4bhe12rcd13ifvqf30","pricing_plan_id":"cebpf4jnsgd1na2vs0mg"},{"bike_id":"1f41ce73-813a-478b-8e24-1e203ce61cc5","system_id":"levelo_inurba_marseille","lat":43.24809,"lon":5.37448,"is_reserved":false,"is_disabled":false,"rental_uris":{"android":"levelo://app?vid=1f41ce73-813a-478b-8e24-1e203ce61cc5","ios":"levelo://app?vid=1f41ce73-813a-478b-8e24-1e203ce61cc5"},"vehicle_type_id":"4","last_reported":1751696073,"current_range_meters":22800,"station_id":"ce4bhgh2rcd13ifvqfb0","pricing_plan_id":"cebpf4jnsgd1na2vs0mg"},{"bike_id":"054d764b-72a9-4446-a144-e728f552d84d","system_id":"levelo_inurba_marseille","lat":43.28717,"lon":5.39991,"is_reserved":false,"is_disabled":false,"rental_uris":{"android":"levelo://app?vid=054d764b-72a9-4446-a144-e728f552d84d","ios":"levelo://app?vid=054d764b-72a9-4446-a144-e728f552d84d"},"vehicle_type_id":"4","last_reported":1751696073,"current_range_meters":22800,"station_id":"ce4bho92rcd13ifvqh3g","pricing_plan_id":"cebpf4jnsgd1na2vs0mg"},{"bike_id":"41d7bb6f-0ed3-48f4-b86c-8618c4ad4bdb","system_id":"levelo_inurba_marseille","lat":43.30573,"lon":5.36727,"is_reserved":false,"is_disabled":false,"rental_uris":{"android":"levelo://app?vid=41d7bb6f-0ed3-48f4-b86c-8618c4ad4bdb","ios":"levelo://app?vid=41d7bb6f-0ed3-48f4-b86c-8618c4ad4bdb"},"vehicle_type_id":"4","last_reported":1751696073,"current_range_meters":23200,"station_id":"ce4bgrp2rcd13ifvqc9g","pricing_plan_id":"cebpf4jnsgd1na2vs0mg"},{"bike_id":"163d5798-23a2-49f8-979c-a6720f2e9ced","system_id":"levelo_inurba_marseille","lat":43.30132,"lon":5.39881,"is_reserved":false,"is_disabled":false,"rental_uris":{"android":"levelo://app?vid=163d5798-23a2-49f8-979c-a6720f2e9ced","ios":"levelo://app?vid=163d5798-23a2-49f8-979c-a6720f2e9ced"},"vehicle_type_id":"4","last_reported":1751696073,"current_range_meters":23200,"station_id":"ce4bh0h2rcd13ifvqd40","pricing_plan_id":"cebpf4jnsgd1na2vs0mg"},{"bike_id":"41f8e43f-82b8-4037-a942-f1a806e02e6d","system_id":"levelo_inurba_marseille","lat":43.30647,"lon":5.40065,"is_reserved":false,"is_disabled":false,"rental_uris":{"android":"levelo://app?vid=41f8e43f-82b8-4037-a942-f1a806e02e6d","ios":"levelo://app?vid=41f8e43f-82b8-4037-a942-f1a806e02e6d"},"vehicle_type_id":"4","last_reported":1751696073,"current_range_meters":23200,"station_id":"ce4bh112rcd13ifvqda0","pricing_plan_id":"cebpf4jnsgd1na2vs0mg"},{"bike_id":"7ebba783-cf54-496a-accf-68e86f10f821","system_id":"levelo_inurba_marseille","lat":43.29004,"lon":5.35617,"is_reserved":false,"is_disabled":false,"rental_uris":{"android":"levelo://app?vid=7ebba783-cf54-496a-accf-68e86f10f821","ios":"levelo://app?vid=7ebba783-cf54-496a-accf-68e86f10f821"},"vehicle_type_id":"4","last_reported":1751696073,"current_range_meters":23200,"station_id":"ce4bhb92rcd13ifvqen0","pricing_plan_id":"cebpf4jnsgd1na2vs0mg"},{"bike_id":"0d77270e-f839-4b1e-969c-58bf11f3e32a","system_id":"levelo_inurba_marseille","lat":43.29,"lon":5.356015,"is_reserved":false,"is_disabled":false,"rental_uris":{"android":"levelo://app?vid=0d77270e-f839-4b1e-969c-58bf11f3e32a","ios":"levelo://app?vid=0d77270e-f839-4b1e-969c-58bf11f3e32a"},"vehicle_type_id":"4","last_reported":1751696073,"current_range_meters":23200,"station_id":"ce4bhb92rcd13ifvqen0","pricing_plan_id":"cebpf4jnsgd1na2vs0mg"},{"bike_id":"67b054b2-4408-41db-baa6-0842fb6cdf3f","system_id":"levelo_inurba_marseille","lat":43.26806,"lon":5.39411,"is_reserved":false,"is_disabled":false,"rental_uris":{"android":"levelo://app?vid=67b054b2-4408-41db-baa6-0842fb6cdf3f","ios":"levelo://app?vid=67b054b2-4408-41db-baa6-0842fb6cdf3f"},"vehicle_type_id":"4","last_reported":1751696073,"current_range_meters":23200,"station_id":"ce4bhh12rcd13ifvqfg0","pricing_plan_id":"cebpf4jnsgd1na2vs0mg"},{"bike_id":"1439fde6-4366-495d-aa31-27a1e4323f30","system_id":"levelo_inurba_marseille","lat":43.28155,"lon":5.42649,"is_reserved":false,"is_disabled":false,"rental_uris":{"android":"levelo://app?vid=1439fde6-4366-495d-aa31-27a1e4323f30","ios":"levelo://app?vid=1439fde6-4366-495d-aa31-27a1e4323f30"},"vehicle_type_id":"4","last_reported":1751696073,"current_range_meters":23200,"station_id":"ce4bhnh2rcd13ifvqgug","pricing_plan_id":"cebpf4jnsgd1na2vs0mg"},{"bike_id":"d2bcc1cf-2af1-43c3-9223-1fe477e4c6fa","system_id":"levelo_inurba_marseille","lat":43.295493,"lon":5.422926,"is_reserved":false,"is_disabled":false,"rental_uris":{"android":"levelo://app?vid=d2bcc1cf-2af1-43c3-9223-1fe477e4c6fa","ios":"levelo://app?vid=d2bcc1cf-2af1-43c3-9223-1fe477e4c6fa"},"vehicle_type_id":"4","last_reported":1751696073,"current_range_meters":23200,"station_id":"ce4bhph2rcd13ifvqhdg","pricing_plan_id":"cebpf4jnsgd1na2vs0mg"},{"bike_id":"d0e04904-9db2-4424-bdc3-c864c216422c","system_id":"levelo_inurba_marseille","lat":43.231956,"lon":5.355619,"is_reserved":false,"is_disabled":false,"rental_uris":{"android":"levelo://app?vid=d0e04904-9db2-4424-bdc3-c864c216422c","ios":"levelo://app?vid=d0e04904-9db2-4424-bdc3-c864c216422c"},"vehicle_type_id":"4","last_reported":1751696073,"current_range_meters":23200,"station_id":"ce4bhu92rcd13ifvqi70","pricing_plan_id":"cebpf4jnsgd1na2vs0mg"},{"bike_id":"e8d7fcf5-14a0-430b-a247-ddceafd06b95","system_id":"levelo_inurba_marseille","lat":43.225047,"lon":5.347819,"is_reserved":false,"is_disabled":false,"rental_uris":{"android":"levelo://app?vid=e8d7fcf5-14a0-430b-a247-ddceafd06b95","ios":"levelo://app?vid=e8d7fcf5-14a0-430b-a247-ddceafd06b95"},"vehicle_type_id":"4","last_reported":1751696073,"current_range_meters":23200,"station_id":"st_cvj5dfep6f1abm77gieg","pricing_plan_id":"cebpf4jnsgd1na2vs0mg"},{"bike_id":"d0f90c24-dd03-411b-9731-55305f76b7c8","system_id":"levelo_inurba_marseille","lat":43.21202,"lon":5.35064,"is_reserved":false,"is_disabled":false,"rental_uris":{"android":"levelo://app?vid=d0f90c24-dd03-411b-9731-55305f76b7c8","ios":"levelo://app?vid=d0f90c24-dd03-411b-9731-55305f76b7c8"},