{"last_updated":1750414307,"ttl":60,"version":"2.2","data":{"bikes":[{"bike_id":"3da29fb8-fc97-44c6-b9ac-31dd456b2fd4","system_id":"levelo_inurba_marseille","lat":43.33771,"lon":5.37424,"is_reserved":false,"is_disabled":true,"rental_uris":{"android":"levelo://app?vid=3da29fb8-fc97-44c6-b9ac-31dd456b2fd4","ios":"levelo://app?vid=3da29fb8-fc97-44c6-b9ac-31dd456b2fd4"},"vehicle_type_id":"4","last_reported":1750414307,"current_range_meters":0,"station_id":"","pricing_plan_id":"cebpf4jnsgd1na2vs0mg"},{"bike_id":"01861ad8-a8d7-4be6-816e-651927c87584","system_id":"levelo_inurba_marseille","lat":43.33751,"lon":5.37456,"is_reserved":false,"is_disabled":true,"rental_uris":{"android":"levelo://app?vid=01861ad8-a8d7-4be6-816e-651927c87584","ios":"levelo://app?vid=01861ad8-a8d7-4be6-816e-651927c87584"},"vehicle_type_id":"4","last_reported":1750414307,"current_range_meters":0,"station_id":"","pricing_plan_id":"cebpf4jnsgd1na2vs0mg"},{"bike_id":"4f79ed18-3754-4594-beef-87f7c093389b","system_id":"levelo_inurba_marseille","lat":43.34202,"lon":5.4036,"is_reserved":false,"is_disabled":true,"rental_uris":{"android":"levelo://app?vid=4f79ed18-3754-4594-beef-87f7c093389b","ios":"levelo://app?vid=4f79ed18-3754-4594-beef-87f7c093389b"},"vehicle_type_id":"4","last_reported":1750414307,"current_range_meters":0,"station_id":"","pricing_plan_id":"cebpf4jnsgd1na2vs0mg"},{"bike_id":"d4b2375e-15c2-4b2f-a628-6d423b46231b","system_id":"levelo_inurba_marseille","lat":43.242604,"lon":5.411793,"is_reserved":false,"is_disabled":true,"rental_uris":{"android":"levelo://app?vid=d4b2375e-15c2-4b2f-a628-6d423b46231b","ios":"levelo://app?vid=d4b2375e-15c2-4b2f-a628-6d423b46231b"},"vehicle_type_id":"4","last_reported":1750414307,"current_range_meters":0,"station_id":"","pricing_plan_id":"cebpf4jnsgd1na2vs0mg"},{"bike_id":"d2bd57c8-6b64-48db-ad24-5398eb3fd9d6","system_id":"levelo_inurba_marseille","lat":43.337444,"lon":5.374475,"is_reserved":false,"is_disabled":true,"rental_uris":{"android":"levelo://app?vid=d2bd57c8-6b64-48db-ad24-5398eb3fd9d6","ios":"levelo://app?vid=d2bd57c8-6b64-48db-ad24-5398eb3fd9d6"},"vehicle_type_id":"4","last_reported":1750414307,"current_range_meters":0,"station_id":"","pricing_plan_id":"cebpf4jnsgd1na2vs0mg"},{"bike_id":"62a493c7-4534-4419-ad43-0582de34a72a","system_id":"levelo_inurba_marseille","lat":43.21366,"lon":5.355183,"is_reserved":false,"is_disabled":true,"rental_uris":{"android":"levelo://app?vid=62a493c7-4534-4419-ad43-0582de34a72a","ios":"levelo://app?vid=62a493c7-4534-4419-ad43-0582de34a72a"},"vehicle_type_id":"4","last_reported":1750414307,"current_range_meters":0,"station_id":"","pricing_plan_id":"cebpf4jnsgd1na2vs0mg"},{"bike_id":"e2b0a006-f829-46ab-a14e-6dfa147c551e","system_id":"levelo_inurba_marseille","lat":43.337444,"lon":5.374475,"is_reserved":false,"is_disabled":true,"rental_uris":{"android":"levelo://app?vid=e2b0a006-f829-46ab-a14e-6dfa147c551e","ios":"levelo://app?vid=e2b0a006-f829-46ab-a14e-6dfa147c551e"},"vehicle_type_id":"4","last_reported":1750414307,"current_range_meters":0,"station_id":"","pricing_plan_id":"cebpf4jnsgd1na2vs0mg"},{"bike_id":"47196f00-388f-4b3b-a4de-3dba126cd107","system_id":"levelo_inurba_marseille","lat":43.24379,"lon":5.41161,"is_reserved":false,"is_disabled":true,"rental_uris":{"android":"levelo://app?vid=47196f00-388f-4b3b-a4de-3dba126cd107","ios":"levelo://app?vid=47196f00-388f-4b3b-a4de-3dba126cd107"},"vehicle_type_id":"4","last_reported":1750414307,"current_range_meters":0,"station_id":"","pricing_plan_id":"cebpf4jnsgd1na2vs0mg"},{"bike_id":"d6609b4f-333b-43c1-9ebe-8726f5e76e88","system_id":"levelo_inurba_marseille","lat":43.337444,"lon":5.374475,"is_reserved":false,"is_disabled":true,"rental_uris":{"android":"levelo://app?vid=d6609b4f-333b-43c1-9ebe-8726f5e76e88","ios":"levelo://app?vid=d6609b4f-333b-43c1-9ebe-8726f5e76e88"},"vehicle_type_id":"4","last_reported":1750414307,"current_range_meters":0,"station_id":"","pricing_plan_id":"cebpf4jnsgd1na2vs0mg"},{"bike_id":"b3a1c426-c080-4761-8de9-7a8f4f2cc082","system_id":"levelo_inurba_marseille","lat":43.3047,"lon":5.37907,"is_reserved":false,"is_disabled":true,"rental_uris":{"android":"levelo://app?vid=b3a1c426-c080-4761-8de9-7a8f4f2cc082","ios":"levelo://app?vid=b3a1c426-c080-4761-8de9-7a8f4f2cc082"},"vehicle_type_id":"4","last_reported":1750414307,"current_range_meters":0,"station_id":"ce4bgup2rcd13ifvqcn0","pricing_plan_id":"cebpf4jnsgd1na2vs0mg"},{"bike_id":"62601cf6-4d7a-474f-a378-dfdbba984829","system_id":"levelo_inurba_marseille","lat":43.31269,"lon":5.40161,"is_reserved":false,"is_disabled":true,"rental_uris":{"android":"levelo://app?vid=62601cf6-4d7a-474f-a378-dfdbba984829","ios":"levelo://app?vid=62601cf6-4d7a-474f-a378-dfdbba984829"},"vehicle_type_id":"4","last_reported":1750414307,"current_range_meters":0,"station_id":"ce4bh092rcd13ifvqd30","pricing_plan_id":"cebpf4jnsgd1na2vs0mg"},{"bike_id":"2d1a04c2-d546-423e-af29-8e7d22895540","system_id":"levelo_inurba_marseille","lat":43.25,"lon":5.38929,"is_reserved":false,"is_disabled":true,"rental_uris":{"android":"levelo://app?vid=2d1a04c2-d546-423e-af29-8e7d22895540","ios":"levelo://app?vid=2d1a04c2-d546-423e-af29-8e7d22895540"},"vehicle_type_id":"4","last_reported":1750414307,"current_range_meters":0,"station_id":"ce4bhgp2rcd13ifvqfd0","pricing_plan_id":"cebpf4jnsgd1na2vs0mg"},{"bike_id":"cdfe7948-a710-4ab8-a2f8-9e1f8a38b925","system_id":"levelo_inurba_marseille","lat":43.23153,"lon":5.43717,"is_reserved":false,"is_disabled":true,"rental_uris":{"android":"levelo://app?vid=cdfe7948-a710-4ab8-a2f8-9e1f8a38b925","ios":"levelo://app?vid=cdfe7948-a710-4ab8-a2f8-9e1f8a38b925"},"vehicle_type_id":"4","last_reported":1750414307,"current_range_meters":0,"station_id":"ce4bhmp2rcd13ifvqgog","pricing_plan_id":"cebpf4jnsgd1na2vs0mg"},{"bike_id":"a50a6588-33f7-480b-86db-f01191577927","system_id":"levelo_inurba_marseille","lat":43.28154,"lon":5.4263,"is_reserved":false,"is_disabled":true,"rental_uris":{"android":"levelo://app?vid=a50a6588-33f7-480b-86db-f01191577927","ios":"levelo://app?vid=a50a6588-33f7-480b-86db-f01191577927"},"vehicle_type_id":"4","last_reported":1750414307,"current_range_meters":0,"station_id":"ce4bhnh2rcd13ifvqgug","pricing_plan_id":"cebpf4jnsgd1na2vs0mg"},{"bike_id":"361039df-2a2b-4b9c-993d-cfbea8dc61fb","system_id":"levelo_inurba_marseille","lat":43.284449,"lon":5.392068,"is_reserved":false,"is_disabled":true,"rental_uris":{"android":"levelo://app?vid=361039df-2a2b-4b9c-993d-cfbea8dc61fb","ios":"levelo://app?vid=361039df-2a2b-4b9c-993d-cfbea8dc61fb"},"vehicle_type_id":"4","last_reported":1750414307,"current_range_meters":0,"station_id":"ce4bhoh2rcd13ifvqh5g","pricing_plan_id":"cebpf4jnsgd1na2vs0mg"},{"bike_id":"9491b791-a5aa-472a-b475-a8adbacb70fe","system_id":"levelo_inurba_marseille","lat":43.34143,"lon":5.409032,"is_reserved":false,"is_disabled":true,"rental_uris":{"android":"levelo://app?vid=9491b791-a5aa-472a-b475-a8adbacb70fe","ios":"levelo://app?vid=9491b791-a5aa-472a-b475-a8adbacb70fe"},"vehicle_type_id":"4","last_reported":1750414307,"current_range_meters":0,"station_id":"ce4bhqh2rcd13ifvqhlg","pricing_plan_id":"cebpf4jnsgd1na2vs0mg"},{"bike_id":"8f49a748-5547-4851-a01f-ec21c1b4690e","system_id":"levelo_inurba_marseille","lat":43.32477,"lon":5.36541,"is_reserved":false,"is_disabled":true,"rental_uris":{"android":"levelo://app?vid=8f49a748-5547-4851-a01f-ec21c1b4690e","ios":"levelo://app?vid=8f49a748-5547-4851-a01f-ec21c1b4690e"},"vehicle_type_id":"4","last_reported":1750414307,"current_range_meters":0,"station_id":"ce4bhs12rcd13ifvqhvg","pricing_plan_id":"cebpf4jnsgd1na2vs0mg"},{"bike_id":"d5a1ae9e-4421-4539-b5ac-98a00695a8d8","system_id":"levelo_inurba_marseille","lat":43.33433,"lon":5.40051,"is_reserved":false,"is_disabled":true,"rental_uris":{"android":"levelo://app?vid=d5a1ae9e-4421-4539-b5ac-98a00695a8d8","ios":"levelo://app?vid=d5a1ae9e-4421-4539-b5ac-98a00695a8d8"},"vehicle_type_id":"4","last_reported":1750414307,"current_range_meters":400,"station_id":"","pricing_plan_id":"cebpf4jnsgd1na2vs0mg"},{"bike_id":"1d3c5359-5208-4100-a7e3-a6f9f6eda1fe","system_id":"levelo_inurba_marseille","lat":43.33597,"lon":5.4102,"is_reserved":false,"is_disabled":true,"rental_uris":{"android":"levelo://app?vid=1d3c5359-5208-4100-a7e3-a6f9f6eda1fe","ios":"levelo://app?vid=1d3c5359-5208-4100-a7e3-a6f9f6eda1fe"},"vehicle_type_id":"4","last_reported":1750414307,"current_range_meters":400,"station_id":"ce4bhqh2rcd13ifvqhmg","pricing_plan_id":"cebpf4jnsgd1na2vs0mg"},{"bike_id":"5f6156c7-0adc-47b0-8baa-2ffe813fd21a","system_id":"levelo_inurba_marseille","lat":43.29099,"lon":5.38156,"is_reserved":false,"is_disabled":true,"rental_uris":{"android":"levelo://app?vid=5f6156c7-0adc-47b0-8baa-2ffe813fd21a","ios":"levelo://app?vid=5f6156c7-0adc-47b0-8baa-2ffe813fd21a"},"vehicle_type_id":"4","last_reported":1750414307,"current_range_meters":1200,"station_id":"ce4bh512rcd13ifvqe2g","pricing_plan_id":"cebpf4jnsgd1na2vs0mg"},{"bike_id":"751efe7a-9f68-4126-bfa9-4c6822ed436b","system_id":"levelo_inurba_marseille","lat":43.316928,"lon":5.377639,"is_reserved":false,"is_disabled":true,"rental_uris":{"android":"levelo://app?vid=751efe7a-9f68-4126-bfa9-4c6822ed436b","ios":"levelo://app?vid=751efe7a-9f68-4126-bfa9-4c6822ed436b"},"vehicle_type_id":"4","last_reported":1750414307,"current_range_meters":1600,"station_id":"ce4bgth2rcd13ifvqch0","pricing_plan_id":"cebpf4jnsgd1na2vs0mg"},{"bike_id":"e52129df-5d03-421f-81a1-4136bb0b99b6","system_id":"levelo_inurba_marseille","lat":43.2862,"lon":5.35102,"is_reserved":false,"is_disabled":true,"rental_uris":{"android":"levelo://app?vid=e52129df-5d03-421f-81a1-4136bb0b99b6","ios":"levelo://app?vid=e52129df-5d03-421f-81a1-4136bb0b99b6"},"vehicle_type_id":"4","last_reported":1750414307,"current_range_meters":1600,"station_id":"ce4bhch2rcd13ifvqeug","pricing_plan_id":"cebpf4jnsgd1na2vs0mg"},{"bike_id":"3f258d88-267f-4bff-b163-6fcc72ff584f","system_id":"levelo_inurba_marseille","lat":43.29578,"lon":5.37522,"is_reserved":false,"is_disabled":true,"rental_uris":{"android":"levelo://app?vid=3f258d88-267f-4bff-b163-6fcc72ff584f","ios":"levelo://app?vid=3f258d88-267f-4bff-b163-6fcc72ff584f"},"vehicle_type_id":"4","last_reported":1750414307,"current_range_meters":2000,"station_id":"ce4bgh92rcd13ifvqb50","pricing_plan_id":"cebpf4jnsgd1na2vs0mg"},{"bike_id":"28c61316-6d7c-4551-95d6-f3f6b5981563","system_id":"levelo_inurba_marseille","lat":43.29702,"lon":5.36605,"is_reserved":false,"is_disabled":false,"rental_uris":{"android":"levelo://app?vid=28c61316-6d7c-4551-95d6-f3f6b5981563","ios":"levelo://app?vid=28c61316-6d7c-4551-95d6-f3f6b5981563"},"vehicle_type_id":"4","last_reported":1750414307,"current_range_meters":2000,"station_id":"ce4bgn12rcd13ifvqbt0","pricing_plan_id":"cebpf4jnsgd1na2vs0mg"},{"bike_id":"1220bca7-c685-4a7f-bd25-41ec5e0728fb","system_id":"levelo_inurba_marseille","lat":43.29868,"lon":5.39725,"is_reserved":false,"is_disabled":true,"rental_uris":{"android":"levelo://app?vid=1220bca7-c685-4a7f-bd25-41ec5e0728fb","ios":"levelo://app?vid=1220bca7-c685-4a7f-bd25-41ec5e0728fb"},"vehicle_type_id":"4","last_reported":1750414307,"current_range_meters":2000,"station_id":"ce4bh0h2rcd13ifvqd50","pricing_plan_id":"cebpf4jnsgd1na2vs0mg"},{"bike_id":"eb182add-faa0-48f1-96f0-75a6e7039674","system_id":"levelo_inurba_marseille","lat":43.29271,"lon":5.4014,"is_reserved":false,"is_disabled":true,"rental_uris":{"android":"levelo://app?vid=eb182add-faa0-48f1-96f0-75a6e7039674","ios":"levelo://app?vid=eb182add-faa0-48f1-96f0-75a6e7039674"},"vehicle_type_id":"4","last_reported":1750414307,"current_range_meters":2000,"station_id":"ce4bh312rcd13ifvqdk0","pricing_plan_id":"cebpf4jnsgd1na2vs0mg"},{"bike_id":"80bd4eb7-7716-45c1-b57a-8b8f73305913","system_id":"levelo_inurba_marseille","lat":43.30458,"lon":5.37902,"is_reserved":false,"is_disabled":false,"rental_uris":{"android":"levelo://app?vid=80bd4eb7-7716-45c1-b57a-8b8f73305913","ios":"levelo://app?vid=80bd4eb7-7716-45c1-b57a-8b8f73305913"},"vehicle_type_id":"4","last_reported":1750414307,"current_range_meters":2800,"station_id":"ce4bgup2rcd13ifvqcn0","pricing_plan_id":"cebpf4jnsgd1na2vs0mg"},{"bike_id":"5c281ae8-6bca-47bc-8487-043e87739064","system_id":"levelo_inurba_marseille","lat":43.29939,"lon":5.36542,"is_reserved":false,"is_disabled":false,"rental_uris":{"android":"levelo://app?vid=5c281ae8-6bca-47bc-8487-043e87739064","ios":"levelo://app?vid=5c281ae8-6bca-47bc-8487-043e87739064"},"vehicle_type_id":"4","last_reported":1750414307,"current_range_meters":3200,"station_id":"ce4bgm92rcd13ifvqbr0","pricing_plan_id":"cebpf4jnsgd1na2vs0mg"},{"bike_id":"6c0fa029-709e-4224-b927-a3e720b05988","system_id":"levelo_inurba_marseille","lat":43.3055,"lon":5.36548,"is_reserved":false,"is_disabled":false,"rental_uris":{"android":"levelo://app?vid=6c0fa029-709e-4224-b927-a3e720b05988","ios":"levelo://app?vid=6c0fa029-709e-4224-b927-a3e720b05988"},"vehicle_type_id":"4","last_reported":1750414307,"current_range_meters":3600,"station_id":"ce4bgs12rcd13ifvqcag","pricing_plan_id":"cebpf4jnsgd1na2vs0mg"},{"bike_id":"7f84dd4e-f303-4a8b-aeb4-6707f47858e1","system_id":"levelo_inurba_marseille","lat":43.29624,"lon":5.37165,"is_reserved":false,"is_disabled":false,"rental_uris":{"android":"levelo://app?vid=7f84dd4e-f303-4a8b-aeb4-6707f47858e1","ios":"levelo://app?vid=7f84dd4e-f303-4a8b-aeb4-6707f47858e1"},"vehicle_type_id":"4","last_reported":1750414307,"current_range_meters":4000,"station_id":"ce4bgnh2rcd13ifvqc0g","pricing_plan_id":"cebpf4jnsgd1na2vs0mg"},{"bike_id":"0954ff66-24b4-4a5b-9372-e12d2932c0a3","system_id":"levelo_inurba_marseille","lat":43.30421,"lon":5.41271,"is_reserved":false,"is_disabled":false,"rental_uris":{"android":"levelo://app?vid=0954ff66-24b4-4a5b-9372-e12d2932c0a3","ios":"levelo://app?vid=0954ff66-24b4-4a5b-9372-e12d2932c0a3"},"vehicle_type_id":"4","last_reported":1750414307,"current_range_meters":4000,"station_id":"ce4bhop2rcd13ifvqh8g","pricing_plan_id":"cebpf4jnsgd1na2vs0mg"},{"bike_id":"979e0a6d-dcd9-47be-a2f9-210f00882926","system_id":"levelo_inurba_marseille","lat":43.31084,"lon":5.42428,"is_reserved":false,"is_disabled":false,"rental_uris":{"android":"levelo://app?vid=979e0a6d-dcd9-47be-a2f9-210f00882926","ios":"levelo://app?vid=979e0a6d-dcd9-47be-a2f9-210f00882926"},"vehicle_type_id":"4","last_reported":1750414307,"current_range_meters":4400,"station_id":"ce4bhp92rcd13ifvqhag","pricing_plan_id":"cebpf4jnsgd1na2vs0mg"},{"bike_id":"d62d26ef-76cb-47b2-9bb7-3179c90d044f","system_id":"levelo_inurba_marseille","lat":43.304724,"lon":5.379027,"is_reserved":false,"is_disabled":false,"rental_uris":{"android":"levelo://app?vid=d62d26ef-76cb-47b2-9bb7-3179c90d044f","ios":"levelo://app?vid=d62d26ef-76cb-47b2-9bb7-3179c90d044f"},"vehicle_type_id":"4","last_reported":1750414307,"current_range_meters":4800,"station_id":"","pricing_plan_id":"cebpf4jnsgd1na2vs0mg"},{"bike_id":"ec3b66c0-eebc-4138-98f3-370957dbb534","system_id":"levelo_inurba_marseille","lat":43.27437,"lon":5.39419,"is_reserved":false,"is_disabled":false,"rental_uris":{"android":"levelo://app?vid=ec3b66c0-eebc-4138-98f3-370957dbb534","ios":"levelo://app?vid=ec3b66c0-eebc-4138-98f3-370957dbb534"},"vehicle_type_id":"4","last_reported":1750414307,"current_range_meters":4800,"station_id":"ce4bhdp2rcd13ifvqf20","pricing_plan_id":"cebpf4jnsgd1na2vs0mg"},{"bike_id":"53b426ef-7a92-43b1-bf33-f075f89ddfc1","system_id":"levelo_inurba_marseille","lat":43.27205,"lon":5.39186,"is_reserved":false,"is_disabled":false,"rental_uris":{"android":"levelo://app?vid=53b426ef-7a92-43b1-bf33-f075f89ddfc1","ios":"levelo://app?vid=53b426ef-7a92-43b1-bf33-f075f89ddfc1"},"vehicle_type_id":"4","last_reported":1750414307,"current_range_meters":4800,"station_id":"ce4bhhp2rcd13ifvqfm0","pricing_plan_id":"cebpf4jnsgd1na2vs0mg"},{"bike_id":"02c8328a-1e0c-43b9-b20a-72a6553a5656","system_id":"levelo_inurba_marseille","lat":43.29896,"lon":5.4367,"is_reserved":false,"is_disabled":false,"rental_uris":{"android":"levelo://app?vid=02c8328a-1e0c-43b9-b20a-72a6553a5656","ios":"levelo://app?vid=02c8328a-1e0c-43b9-b20a-72a6553a5656"},"vehicle_type_id":"4","last_reported":1750414307,"current_range_meters":4800,"station_id":"ce4bhpp2rcd13ifvqhfg","pricing_plan_id":"cebpf4jnsgd1na2vs0mg"},{"bike_id":"344ff4b6-5e72-4c7c-a2f6-498649641e2c","system_id":"levelo_inurba_marseille","lat":43.30615,"lon":5.37216,"is_reserved":false,"is_disabled":false,"rental_uris":{"android":"levelo://app?vid=344ff4b6-5e72-4c7c-a2f6-498649641e2c","ios":"levelo://app?vid=344ff4b6-5e72-4c7c-a2f6-498649641e2c"},"vehicle_type_id":"4","last_reported":1750414307,"current_range_meters":5600,"station_id":"ce4bgqh2rcd13ifvqc4g","pricing_plan_id":"cebpf4jnsgd1na2vs0mg"},{"bike_id":"ea4b9af8-a1cd-470b-a2be-3d07d49e89fd","system_id":"levelo_inurba_marseille","lat":43.27948,"lon":5.41033,"is_reserved":false,"is_disabled":false,"rental_uris":{"android":"levelo://app?vid=ea4b9af8-a1cd-470b-a2be-3d07d49e89fd","ios":"levelo://app?vid=ea4b9af8-a1cd-470b-a2be-3d07d49e89fd"},"vehicle_type_id":"4","last_reported":1750414307,"current_range_meters":6000,"station_id":"ce4bhnp2rcd13ifvqh0g","pricing_plan_id":"cebpf4jnsgd1na2vs0mg"},{"bike_id":"0b1e53b6-bc72-4bff-b2c0-17099e7d43a1","system_id":"levelo_inurba_marseille","lat":43.31529,"lon":5.3731,"is_reserved":false,"is_disabled":false,"rental_uris":{"android":"levelo://app?vid=0b1e53b6-bc72-4bff-b2c0-17099e7d43a1","ios":"levelo://app?vid=0b1e53b6-bc72-4bff-b2c0-17099e7d43a1"},"vehicle_type_id":"4","last_reported":1750414307,"current_range_meters":6400,"station_id":"","pricing_plan_id":"cebpf4jnsgd1na2vs0mg"},{"bike_id":"0dedb6f6-6801-483b-bfb8-9cd4533d158f","system_id":"levelo_inurba_marseille","lat":43.31154,"lon":5.38123,"is_reserved":false,"is_disabled":false,"rental_uris":{"android":"levelo://app?vid=0dedb6f6-6801-483b-bfb8-9cd4533d158f","ios":"levelo://app?vid=0dedb6f6-6801-483b-bfb8-9cd4533d158f"},"vehicle_type_id":"4","last_reported":1750414307,"current_range_meters":6400,"station_id":"","pricing_plan_id":"cebpf4jnsgd1na2vs0mg"},{"bike_id":"2ccf13bc-8b26-4b82-8802-8c6ab6961b05","system_id":"levelo_inurba_marseille","lat":43.23141,"lon":5.43716,"is_reserved":false,"is_disabled":false,"rental_uris":{"android":"levelo://app?vid=2ccf13bc-8b26-4b82-8802-8c6ab6961b05","ios":"levelo://app?vid=2ccf13bc-8b26-4b82-8802-8c6ab6961b05"},"vehicle_type_id":"4","last_reported":1750414307,"current_range_meters":6400,"station_id":"ce4bhmp2rcd13ifvqgog","pricing_plan_id":"cebpf4jnsgd1na2vs0mg"},{"bike_id":"268aafb4-1331-426c-97bc-a7d6564caeb6","system_id":"levelo_inurba_marseille","lat":43.32933,"lon":5.37919,"is_reserved":false,"is_disabled":false,"rental_uris":{"android":"levelo://app?vid=268aafb4-1331-426c-97bc-a7d6564caeb6","ios":"levelo://app?vid=268aafb4-1331-426c-97bc-a7d6564caeb6"},"vehicle_type_id":"4","last_reported":1750414307,"current_range_meters":6800,"station_id":"","pricing_plan_id":"cebpf4jnsgd1na2vs0mg"},{"bike_id":"c87a18c0-d589-489c-a7a3-45215f71dd08","system_id":"levelo_inurba_marseille","lat":43.28418,"lon":5.34986,"is_reserved":false,"is_disabled":false,"rental_uris":{"android":"levelo://app?vid=c87a18c0-d589-489c-a7a3-45215f71dd08","ios":"levelo://app?vid=c87a18c0-d589-489c-a7a3-45215f71dd08"},"vehicle_type_id":"4","last_reported":1750414307,"current_range_meters":6800,"station_id":"ce4bhbh2rcd13ifvqepg","pricing_plan_id":"cebpf4jnsgd1na2vs0mg"},{"bike_id":"a9a865cb-1331-42f0-a8e9-4ca64a2e0404","system_id":"levelo_inurba_marseille","lat":43.24659,"lon":5.38162,"is_reserved":false,"is_disabled":false,"rental_uris":{"android":"levelo://app?vid=a9a865cb-1331-42f0-a8e9-4ca64a2e0404","ios":"levelo://app?vid=a9a865cb-1331-42f0-a8e9-4ca64a2e0404"},"vehicle_type_id":"4","last_reported":1750414307,"current_range_meters":6800,"station_id":"ce4bhih2rcd13ifvqfr0","pricing_plan_id":"cebpf4jnsgd1na2vs0mg"},{"bike_id":"12977e4a-8e64-4231-966c-8e49cdc91127","system_id":"levelo_inurba_marseille","lat":43.23192,"lon":5.35555,"is_reserved":false,"is_disabled":false,"rental_uris":{"android":"levelo://app?vid=12977e4a-8e64-4231-966c-8e49cdc91127","ios":"levelo://app?vid=12977e4a-8e64-4231-966c-8e49cdc91127"},"vehicle_type_id":"4","last_reported":1750414307,"current_range_meters":6800,"station_id":"ce4bhu92rcd13ifvqi70","pricing_plan_id":"cebpf4jnsgd1na2vs0mg"},{"bike_id":"ba541cf4-f864-46b8-9239-4c29005729a5","system_id":"levelo_inurba_marseille","lat":43.30156,"lon":5.3808,"is_reserved":false,"is_disabled":false,"rental_uris":{"android":"levelo://app?vid=ba541cf4-f864-46b8-9239-4c29005729a5","ios":"levelo://app?vid=ba541cf4-f864-46b8-9239-4c29005729a5"},"vehicle_type_id":"4","last_reported":1750414307,"current_range_meters":7200,"station_id":"ce4bgjp2rcd13ifvqbh0","pricing_plan_id":"cebpf4jnsgd1na2vs0mg"},{"bike_id":"e7ea39a0-08e1-4f09-8f3f-e30c119e669a","system_id":"levelo_inurba_marseille","lat":43.30806,"lon":5.43687,"is_reserved":false,"is_disabled":false,"rental_uris":{"android":"levelo://app?vid=e7ea39a0-08e1-4f09-8f3f-e30c119e669a","ios":"levelo://app?vid=e7ea39a0-08e1-4f09-8f3f-e30c119e669a"},"vehicle_type_id":"4","last_reported":1750414307,"current_range_meters":8000,"station_id":"","pricing_plan_id":"cebpf4jnsgd1na2vs0mg"},{"bike_id":"79792454-49e7-4319-94ff-47c68de87fa4","system_id":"levelo_inurba_marseille","lat":43.30957,"lon":5.39032,"is_reserved":false,"is_disabled":false,"rental_uris":{"android":"levelo://app?vid=79792454-49e7-4319-94ff-47c68de87fa4","ios":"levelo://app?vid=79792454-49e7-4319-94ff-47c68de87fa4"},"vehicle_type_id":"4","last_reported":1750414307,"current_range_meters":8000,"station_id":"ce4bgup2rcd13ifvqco0","pricing_plan_id":"cebpf4jnsgd1na2vs0mg"},{"bike_id":"fd459006-e0dd-4d0b-ac0b-fbdf9335b853","system_id":"levelo_inurba_marseille","lat":43.29023,"lon":5.38634,"is_reserved":false,"is_disabled":false,"rental_uris":{"android":"levelo://app?vid=fd459006-e0dd-4d0b-ac0b-fbdf9335b853","ios":"levelo://app?vid=fd459006-e0dd-4d0b-ac0b-fbdf9335b853"},"vehicle_type_id":"4","last_reported":1750414307,"current_range_meters":8000,"station_id":"ce4bh4p2rcd13ifvqe0g","pricing_plan_id":"cebpf4jnsgd1na2vs0mg"},{"bike_id":"ef21d472-619b-4672-9054-97ec3bc97065","system_id":"levelo_inurba_marseille","lat":43.29896,"lon":5.43664,"is_reserved":false,"is_disabled":false,"rental_uris":{"android":"levelo://app?vid=ef21d472-619b-4672-9054-97ec3bc97065","ios":"levelo://app?vid=ef21d472-619b-4672-9054-97ec3bc97065"},"vehicle_type_id":"4","last_reported":1750414307,"current_range_meters":8000,"station_id":"ce4bhpp2rcd13ifvqhfg","pricing_plan_id":"cebpf4jnsgd1na2vs0mg"},{"bike_id":"56fdfc4e-979c-4ed5-9885-57018d76de79","system_id":"levelo_inurba_marseille","lat":43.29361,"lon":5.42824,"is_reserved":false,"is_disabled":false,"rental_uris":{"android":"levelo://app?vid=56fdfc4e-979c-4ed5-9885-57018d76de79","ios":"levelo://app?vid=56fdfc4e-979c-4ed5-9885-57018d76de79"},"vehicle_type_id":"4","last_reported":1750414307,"current_range_meters":8400,"station_id":"","pricing_plan_id":"cebpf4jnsgd1na2vs0mg"},{"bike_id":"f025e0b0-8595-426c-b214-cb9b74c5fcfd","system_id":"levelo_inurba_marseille","lat":43.32198,"lon":5.4057,"is_reserved":false,"is_disabled":false,"rental_uris":{"android":"levelo://app?vid=f025e0b0-8595-426c-b214-cb9b74c5fcfd","ios":"levelo://app?vid=f025e0b0-8595-426c-b214-cb9b74c5fcfd"},"vehicle_type_id":"4","last_reported":1750414307,"current_range_meters":8800,"station_id":"","pricing_plan_id":"cebpf4jnsgd1na2vs0mg"},{"bike_id":"2179559e-c4ee-4e03-b212-5c4b329fec18","system_id":"levelo_inurba_marseille","lat":43.3301,"lon":5.3904,"is_reserved":false,"is_disabled":false,"rental_uris":{"android":"levelo://app?vid=2179559e-c4ee-4e03-b212-5c4b329fec18","ios":"levelo://app?vid=2179559e-c4ee-4e03-b212-5c4b329fec18"},"vehicle_type_id":"4","last_reported":1750414307,"current_range_meters":8800,"station_id":"ce4bhr92rcd13ifvqhrg","pricing_plan_id":"cebpf4jnsgd1na2vs0mg"},{"bike_id":"93db2979-07b4-40fc-ac04-31624e351e32","system_id":"levelo_inurba_marseille","lat":43.303054,"lon":5.368979,"is_reserved":false,"is_disabled":false,"rental_uris":{"android":"levelo://app?vid=93db2979-07b4-40fc-ac04-31624e351e32","ios":"levelo://app?vid=93db2979-07b4-40fc-ac04-31624e351e32"},"vehicle_type_id":"4","last_reported":1750414307,"current_range_meters":9200,"station_id":"ce4bgqh2rcd13ifvqc5g","pricing_plan_id":"cebpf4jnsgd1na2vs0mg"},{"bike_id":"9f5365c9-9b47-4f5f-91ee-7cdd4c883d9c","system_id":"levelo_inurba_marseille","lat":43.27371,"lon":5.36259,"is_reserved":false,"is_disabled":false,"rental_uris":{"android":"levelo://app?vid=9f5365c9-9b47-4f5f-91ee-7cdd4c883d9c","ios":"levelo://app?vid=9f5365c9-9b47-4f5f-91ee-7cdd4c883d9c"},"vehicle_type_id":"4","last_reported":1750414307,"current_range_meters":9200,"station_id":"ce4bhbh2rcd13ifvqeo0","pricing_plan_id":"cebpf4jnsgd1na2vs0mg"},{"bike_id":"1c904b9a-4a64-4269-9c14-e78d396afdd6","system_id":"levelo_inurba_marseille","lat":43.24994,"lon":5.3893,"is_reserved":false,"is_disabled":false,"rental_uris":{"android":"levelo://app?vid=1c904b9a-4a64-4269-9c14-e78d396afdd6","ios":"levelo://app?vid=1c904b9a-4a64-4269-9c14-e78d396afdd6"},"vehicle_type_id":"4","last_reported":1750414307,"current_range_meters":9200,"station_id":"ce4bhgp2rcd13ifvqfd0","pricing_plan_id":"cebpf4jnsgd1na2vs0mg"},{"bike_id":"c23d8ecb-92fa-4bc5-b496-c92409604518","system_id":"levelo_inurba_marseille","lat":43.27504,"lon":5.42455,"is_reserved":false,"is_disabled":false,"rental_uris":{"android":"levelo://app?vid=c23d8ecb-92fa-4bc5-b496-c92409604518","ios":"levelo://app?vid=c23d8ecb-92fa-4bc5-b496-c92409604518"},"vehicle_type_id":"4","last_reported":1750414307,"current_range_meters":9200,"station_id":"ce4bhn92rcd13ifvqgrg","pricing_plan_id":"cebpf4jnsgd1na2vs0mg"},{"bike_id":"df735c88-ae0a-4f8e-9723-d29eb27d80b9","system_id":"levelo_inurba_marseille","lat":43.29907,"lon":5.37624,"is_reserved":false,"is_disabled":false,"rental_uris":{"android":"levelo://app?vid=df735c88-ae0a-4f8e-9723-d29eb27d80b9","ios":"levelo://app?vid=df735c88-ae0a-4f8e-9723-d29eb27d80b9"},"vehicle_type_id":"4","last_reported":1750414307,"current_range_meters":9600,"station_id":"","pricing_plan_id":"cebpf4jnsgd1na2vs0mg"},{"bike_id":"5bbb39e0-6694-4f23-a071-cec52677eb39","system_id":"levelo_inurba_marseille","lat":43.2962,"lon":5.37715,"is_reserved":false,"is_disabled":false,"rental_uris":{"android":"levelo://app?vid=5bbb39e0-6694-4f23-a071-cec52677eb39","ios":"levelo://app?vid=5bbb39e0-6694-4f23-a071-cec52677eb39"},"vehicle_type_id":"4","last_reported":1750414307,"current_range_meters":9600,"station_id":"ce4bgi92rcd13ifvqb90","pricing_plan_id":"cebpf4jnsgd1na2vs0mg"},{"bike_id":"8339e536-a8d4-47f0-8117-e81d1ee73110","system_id":"levelo_inurba_marseille","lat":43.3015,"lon":5.38088,"is_reserved":false,"is_disabled":false,"rental_uris":{"android":"levelo://app?vid=8339e536-a8d4-47f0-8117-e81d1ee73110","ios":"levelo://app?vid=8339e536-a8d4-47f0-8117-e81d1ee73110"},"vehicle_type_id":"4","last_reported":1750414307,"current_range_meters":9600,"station_id":"ce4bgjp2rcd13ifvqbh0","pricing_plan_id":"cebpf4jnsgd1na2vs0mg"},{"bike_id":"1eceb520-908e-477a-8937-9a7988f832fb","system_id":"levelo_inurba_marseille","lat":43.28727,"lon":5.37935,"is_reserved":false,"is_disabled":false,"rental_uris":{"android":"levelo://app?vid=1eceb520-908e-477a-8937-9a7988f832fb","ios":"levelo://app?vid=1eceb520-908e-477a-8937-9a7988f832fb"},"vehicle_type_id":"4","last_reported":1750414307,"current_range_meters":9600,"station_id":"ce4bh9p2rcd13ifvqec0","pricing_plan_id":"cebpf4jnsgd1na2vs0mg"},{"bike_id":"f2a8da65-d8a7-4d65-9848-0097a203db7d","system_id":"levelo_inurba_marseille","lat":43.25939,"lon":5.40904,"is_reserved":false,"is_disabled":false,"rental_uris":{"android":"levelo://app?vid=f2a8da65-d8a7-4d65-9848-0097a203db7d","ios":"levelo://app?vid=f2a8da65-d8a7-4d65-9848-0097a203db7d"},"vehicle_type_id":"4","last_reported":1750414307,"current_range_meters":9600,"station_id":"ce4bhm92rcd13ifvqglg","pricing_plan_id":"cebpf4jnsgd1na2vs0mg"},{"bike_id":"bc818d66-0121-423f-bca6-ebc01df66a0f","system_id":"levelo_inurba_marseille","lat":43.31493,"lon":5.37269,"is_reserved":false,"is_disabled":false,"rental_uris":{"android":"levelo://app?vid=bc818d66-0121-423f-bca6-ebc01df66a0f","ios":"levelo://app?vid=bc818d66-0121-423f-bca6-ebc01df66a0f"},"vehicle_type_id":"4","last_reported":1750414307,"current_range_meters":10000,"station_id":"ce4bgt12rcd13ifvqcd0","pricing_plan_id":"cebpf4jnsgd1na2vs0mg"},{"bike_id":"f3e62b13-f415-4e65-bdf8-b76ca028d813","system_id":"levelo_inurba_marseille","lat":43.28722,"lon":5.37933,"is_reserved":false,"is_disabled":false,"rental_uris":{"android":"levelo://app?vid=f3e62b13-f415-4e65-bdf8-b76ca028d813","ios":"levelo://app?vid=f3e62b13-f415-4e65-bdf8-b76ca028d813"},"vehicle_type_id":"4","last_reported":1750414307,"current_range_meters":10000,"station_id":"ce4bh9p2rcd13ifvqec0","pricing_plan_id":"cebpf4jnsgd1na2vs0mg"},{"bike_id":"85af9ca5-04f9-4bea-b744-e4f41acf300f","system_id":"levelo_inurba_marseille","lat":43.28937,"lon":5.36633,"is_reserved":false,"is_disabled":false,"rental_uris":{"android":"levelo://app?vid=85af9ca5-04f9-4bea-b744-e4f41acf300f","ios":"levelo://app?vid=85af9ca5-04f9-4bea-b744-e4f41acf300f"},"vehicle_type_id":"4","last_reported":1750414307,"current_range_meters":10000,"station_id":"ce4bhap2rcd13ifvqek0","pricing_plan_id":"cebpf4jnsgd1na2vs0mg"},{"bike_id":"85b80f01-cfc6-4eb3-99ab-8a36ca8518f3","system_id":"levelo_inurba_marseille","lat":43.23151,"lon":5.43714,"is_reserved":false,"is_disabled":false,"rental_uris":{"android":"levelo://app?vid=85b80f01-cfc6-4eb3-99ab-8a36ca8518f3","ios":"levelo://app?vid=85b80f01-cfc6-4eb3-99ab-8a36ca8518f3"},"vehicle_type_id":"4","last_reported":1750414307,"current_range_meters":10000,"station_id":"ce4bhmp2rcd13ifvqgog","pricing_plan_id":"cebpf4jnsgd1na2vs0mg"},{"bike_id":"fc9c54e8-b6e1-462b-b393-a453863683f0","system_id":"levelo_inurba_marseille","lat":43.23188,"lon":5.39976,"is_reserved":false,"is_disabled":false,"rental_uris":{"android":"levelo://app?vid=fc9c54e8-b6e1-462b-b393-a453863683f0","ios":"levelo://app?vid=fc9c54e8-b6e1-462b-b393-a453863683f0"},"vehicle_type_id":"4","last_reported":1750414307,"current_range_meters":10000,"station_id":"ce4bhn12rcd13ifvqgqg","pricing_plan_id":"cebpf4jnsgd1na2vs0mg"},{"bike_id":"8fd94bfe-b0a3-4509-a3c9-0f6e3f8eed78","system_id":"levelo_inurba_marseille","lat":43.24167,"lon":5.36389,"is_reserved":false,"is_disabled":false,"rental_uris":{"android":"levelo://app?vid=8fd94bfe-b0a3-4509-a3c9-0f6e3f8eed78","ios":"levelo://app?vid=8fd94bfe-b0a3-4509-a3c9-0f6e3f8eed78"},"vehicle_type_id":"4","last_reported":1750414307,"current_range_meters":10000,"station_id":"cpo36qri1sfpv3e86is0","pricing_plan_id":"cebpf4jnsgd1na2vs0mg"},{"bike_id":"3faf2329-83a2-494e-b098-e7888ccf5fcb","system_id":"levelo_inurba_marseille","lat":43.28716,"lon":5.3832,"is_reserved":false,"is_disabled":false,"rental_uris":{"android":"levelo://app?vid=3faf2329-83a2-494e-b098-e7888ccf5fcb","ios":"levelo://app?vid=3faf2329-83a2-494e-b098-e7888ccf5fcb"},"vehicle_type_id":"4","last_reported":1750414307,"current_range_meters":10800,"station_id":"","pricing_plan_id":"cebpf4jnsgd1na2vs0mg"},{"bike_id":"d9b2950a-cd4b-488f-8f1a-b2421b953666","system_id":"levelo_inurba_marseille","lat":43.31466,"lon":5.39235,"is_reserved":false,"is_disabled":false,"rental_uris":{"android":"levelo://app?vid=d9b2950a-cd4b-488f-8f1a-b2421b953666","ios":"levelo://app?vid=d9b2950a-cd4b-488f-8f1a-b2421b953666"},"vehicle_type_id":"4","last_reported":1750414307,"current_range_meters":10800,"station_id":"","pricing_plan_id":"cebpf4jnsgd1na2vs0mg"},{"bike_id":"f97e8a5a-a455-4cfe-992b-65845c83e180","system_id":"levelo_inurba_marseille","lat":43.2956,"lon":5.37501,"is_reserved":false,"is_disabled":false,"rental_uris":{"android":"levelo://app?vid=f97e8a5a-a455-4cfe-992b-65845c83e180","ios":"levelo://app?vid=f97e8a5a-a455-4cfe-992b-65845c83e180"},"vehicle_type_id":"4","last_reported":1750414307,"current_range_meters":10800,"station_id":"ce4bgh92rcd13ifvqb50","pricing_plan_id":"cebpf4jnsgd1na2vs0mg"},{"bike_id":"db099d95-370c-4872-8864-ae089ab1f978","system_id":"levelo_inurba_marseille","lat":43.30914,"lon":5.36845,"is_reserved":false,"is_disabled":false,"rental_uris":{"android":"levelo://app?vid=db099d95-370c-4872-8864-ae089ab1f978","ios":"levelo://app?vid=db099d95-370c-4872-8864-ae089ab1f978"},"vehicle_type_id":"4","last_reported":1750414307,"current_range_meters":10800,"station_id":"ce4bgn92rcd13ifvqbvg","pricing_plan_id":"cebpf4jnsgd1na2vs0mg"},{"bike_id":"f1f01a3a-c9f6-43ba-bbe9-cc72da8a3c27","system_id":"levelo_inurba_marseille","lat":43.30877,"lon":5.37211,"is_reserved":false,"is_disabled":false,"rental_uris":{"android":"levelo://app?vid=f1f01a3a-c9f6-43ba-bbe9-cc72da8a3c27","ios":"levelo://app?vid=f1f01a3a-c9f6-43ba-bbe9-cc72da8a3c27"},"vehicle_type_id":"4","last_reported":1750414307,"current_range_meters":10800,"station_id":"ce4bguh2rcd13ifvqckg","pricing_plan_id":"cebpf4jnsgd1na2vs0mg"},{"bike_id":"ad6a4f1c-aeb7-4c6c-bcb2-1c647b6d275d","system_id":"levelo_inurba_marseille","lat":43.31426,"lon":5.36747,"is_reserved":false,"is_disabled":false,"rental_uris":{"android":"levelo://app?vid=ad6a4f1c-aeb7-4c6c-bcb2-1c647b6d275d","ios":"levelo://app?vid=ad6a4f1c-aeb7-4c6c-bcb2-1c647b6d275d"},"vehicle_type_id":"4","last_reported":1750414307,"current_range_meters":11200,"station_id":"","pricing_plan_id":"cebpf4jnsgd1na2vs0mg"},{"bike_id":"5d73608e-76d2-4f3c-b141-60e5002aabe0","system_id":"levelo_inurba_marseille","lat":43.28963,"lon":5.38698,"is_reserved":false,"is_disabled":false,"rental_uris":{"android":"levelo://app?vid=5d73608e-76d2-4f3c-b141-60e5002aabe0","ios":"levelo://app?vid=5d73608e-76d2-4f3c-b141-60e5002aabe0"},"vehicle_type_id":"4","last_reported":1750414307,"current_range_meters":11200,"station_id":"ce4bh4p2rcd13ifvqe0g","pricing_plan_id":"cebpf4jnsgd1na2vs0mg"},{"bike_id":"9bb3a618-663b-4203-94f2-50ae47fcaa7b","system_id":"levelo_inurba_marseille","lat":43.27575,"lon":5.38415,"is_reserved":false,"is_disabled":false,"rental_uris":{"android":"levelo://app?vid=9bb3a618-663b-4203-94f2-50ae47fcaa7b","ios":"levelo://app?vid=9bb3a618-663b-4203-94f2-50ae47fcaa7b"},"vehicle_type_id":"4","last_reported":1750414307,"current_range_meters":11200,"station_id":"ce4bhh92rcd13ifvqfi0","pricing_plan_id":"cebpf4jnsgd1na2vs0mg"},{"bike_id":"791230d7-d8e7-4dee-8e0d-b4dcc6f926c1","system_id":"levelo_inurba_marseille","lat":43.23145,"lon":5.43706,"is_reserved":false,"is_disabled":false,"rental_uris":{"android":"levelo://app?vid=791230d7-d8e7-4dee-8e0d-b4dcc6f926c1","ios":"levelo://app?vid=791230d7-d8e7-4dee-8e0d-b4dcc6f926c1"},"vehicle_type_id":"4","last_reported":1750414307,"current_range_meters":11200,"station_id":"ce4bhmp2rcd13ifvqgog","pricing_plan_id":"cebpf4jnsgd1na2vs0mg"},{"bike_id":"350369db-be74-425e-b5a7-4e415c2a2ef3","system_id":"levelo_inurba_marseille","lat":43.28078,"lon":5.3965,"is_reserved":false,"is_disabled":false,"rental_uris":{"android":"levelo://app?vid=350369db-be74-425e-b5a7-4e415c2a2ef3","ios":"levelo://app?vid=350369db-be74-425e-b5a7-4e415c2a2ef3"},"vehicle_type_id":"4","last_reported":1750414307,"current_range_meters":11200,"station_id":"ce4bho12rcd13ifvqh2g","pricing_plan_id":"cebpf4jnsgd1na2vs0mg"},{"bike_id":"60563cbb-9061-4006-8e41-2def95d43c6c","system_id":"levelo_inurba_marseille","lat":43.31363,"lon":5.38644,"is_reserved":false,"is_disabled":false,"rental_uris":{"android":"levelo://app?vid=60563cbb-9061-4006-8e41-2def95d43c6c","ios":"levelo://app?vid=60563cbb-9061-4006-8e41-2def95d43c6c"},"vehicle_type_id":"4","last_reported":1750414307,"current_range_meters":11600,"station_id":"","pricing_plan_id":"cebpf4jnsgd1na2vs0mg"},{"bike_id":"e27573fd-8b8d-4e34-a09d-9cb09aa5fa49","system_id":"levelo_inurba_marseille","lat":43.292055,"lon":5.399925,"is_reserved":false,"is_disabled":false,"rental_uris":{"android":"levelo://app?vid=e27573fd-8b8d-4e34-a09d-9cb09aa5fa49","ios":"levelo://app?vid=e27573fd-8b8d-4e34-a09d-9cb09aa5fa49"},"vehicle_type_id":"4","last_reported":1750414307,"current_range_meters":11600,"station_id":"","pricing_plan_id":"cebpf4jnsgd1na2vs0mg"},{"bike_id":"bd446f73-5786-4727-9d1e-4e409c57bec0","system_id":"levelo_inurba_marseille","lat":43.30561,"lon":5.36702,"is_reserved":false,"is_disabled":false,"rental_uris":{"android":"levelo://app?vid=bd446f73-5786-4727-9d1e-4e409c57bec0","ios":"levelo://app?vid=bd446f73-5786-4727-9d1e-4e409c57bec0"},"vehicle_type_id":"4","last_reported":1750414307,"current_range_meters":11600,"station_id":"ce4bgrp2rcd13ifvqc9g","pricing_plan_id":"cebpf4jnsgd1na2vs0mg"},{"bike_id":"795166e6-a95b-4c8d-a470-abf7605307f5","system_id":"levelo_inurba_marseille","lat":43.30542,"lon":5.36691,"is_reserved":false,"is_disabled":false,"rental_uris":{"android":"levelo://app?vid=795166e6-a95b-4c8d-a470-abf7605307f5","ios":"levelo://app?vid=795166e6-a95b-4c8d-a470-abf7605307f5"},"vehicle_type_id":"4","last_reported":1750414307,"current_range_meters":11600,"station_id":"ce4bgrp2rcd13ifvqc9g","pricing_plan_id":"cebpf4jnsgd1na2vs0mg"},{"bike_id":"d6fa3ebf-fd7b-4c28-bbea-6c880ea90fa7","system_id":"levelo_inurba_marseille","lat":43.28466,"lon":5.35891,"is_reserved":false,"is_disabled":false,"rental_uris":{"android":"levelo://app?vid=d6fa3ebf-fd7b-4c28-bbea-6c880ea90fa7","ios":"levelo://app?vid=d6fa3ebf-fd7b-4c28-bbea-6c880ea90fa7"},"vehicle_type_id":"4","last_reported":1750414307,"current_range_meters":11600,"station_id":"ce4bhah2rcd13ifvqei0","pricing_plan_id":"cebpf4jnsgd1na2vs0mg"},{"bike_id":"ee9e43c0-6612-42d2-8e5d-ee22cfd8ab29","system_id":"levelo_inurba_marseille","lat":43.246398,"lon":5.384395,"is_reserved":false,"is_disabled":false,"rental_uris":{"android":"levelo://app?vid=ee9e43c0-6612-42d2-8e5d-ee22cfd8ab29","ios":"levelo://app?vid=ee9e43c0-6612-42d2-8e5d-ee22cfd8ab29"},"vehicle_type_id":"4","last_reported":1750414307,"current_range_meters":11600,"station_id":"ce4bhhh2rcd13ifvqfk0","pricing_plan_id":"cebpf4jnsgd1na2vs0mg"},{"bike_id":"f7574965-0667-4f3b-90e2-276750d028f1","system_id":"levelo_inurba_marseille","lat":43.33108,"lon":5.38251,"is_reserved":false,"is_disabled":false,"rental_uris":{"android":"levelo://app?vid=f7574965-0667-4f3b-90e2-276750d028f1","ios":"levelo://app?vid=f7574965-0667-4f3b-90e2-276750d028f1"},"vehicle_type_id":"4","last_reported":1750414307,"current_range_meters":12000,"station_id":"","pricing_plan_id":"cebpf4jnsgd1na2vs0mg"},{"bike_id":"1e466cd0-4ebd-40dc-a9d0-f5b0d3d7d813","system_id":"levelo_inurba_marseille","lat":43.30543,"lon":5.36692,"is_reserved":false,"is_disabled":false,"rental_uris":{"android":"levelo://app?vid=1e466cd0-4ebd-40dc-a9d0-f5b0d3d7d813","ios":"levelo://app?vid=1e466cd0-4ebd-40dc-a9d0-f5b0d3d7d813"},"vehicle_type_id":"4","last_reported":1750414307,"current_range_meters":12000,"station_id":"ce4bgrp2rcd13ifvqc9g","pricing_plan_id":"cebpf4jnsgd1na2vs0mg"},{"bike_id":"6e64496d-038b-47c5-8b94-c71c3a4a33f7","system_id":"levelo_inurba_marseille","lat":43.30932,"lon":5.40147,"is_reserved":false,"is_disabled":false,"rental_uris":{"android":"levelo://app?vid=6e64496d-038b-47c5-8b94-c71c3a4a33f7","ios":"levelo://app?vid=6e64496d-038b-47c5-8b94-c71c3a4a33f7"},"vehicle_type_id":"4","last_reported":1750414307,"current_range_meters":12000,"station_id":"ce4bgvp2rcd13ifvqct0","pricing_plan_id":"cebpf4jnsgd1na2vs0mg"},{"bike_id":"8e7ef87a-f7ea-4cd2-ae1c-0d23c509a5f0","system_id":"levelo_inurba_marseille","lat":43.29441,"lon":5.39747,"is_reserved":false,"is_disabled":false,"rental_uris":{"android":"levelo://app?vid=8e7ef87a-f7ea-4cd2-ae1c-0d23c509a5f0","ios":"levelo://app?vid=8e7ef87a-f7ea-4cd2-ae1c-0d23c509a5f0"},"vehicle_type_id":"4","last_reported":1750414307,"current_range_meters":12000,"station_id":"ce4bh3h2rcd13ifvqdo0","pricing_plan_id":"cebpf4jnsgd1na2vs0mg"},{"bike_id":"cf71ae0c-42bb-4f87-ad13-e68dfbf12c1a","system_id":"levelo_inurba_marseille","lat":43.29644,"lon":5.37177,"is_reserved":false,"is_disabled":false,"rental_uris":{"android":"levelo://app?vid=cf71ae0c-42bb-4f87-ad13-e68dfbf12c1a","ios":"levelo://app?vid=cf71ae0c-42bb-4f87-ad13-e68dfbf12c1a"},"vehicle_type_id":"4","last_reported":1750414307,"current_range_meters":12400,"station_id":"","pricing_plan_id":"cebpf4jnsgd1na2vs0mg"},{"bike_id":"685031db-6422-484c-ab00-b1c99cf6c2f1","system_id":"levelo_inurba_marseille","lat":43.29523,"lon":5.37504,"is_reserved":false,"is_disabled":false,"rental_uris":{"android":"levelo://app?vid=685031db-6422-484c-ab00-b1c99cf6c2f1","ios":"levelo://app?vid=685031db-6422-484c-ab00-b1c99cf6c2f1"},"vehicle_type_id":"4","last_reported":1750414307,"current_range_meters":12400,"station_id":"ce4bgkp2rcd13ifvqbmg","pricing_plan_id":"cebpf4jnsgd1na2vs0mg"},{"bike_id":"1cc4256d-7b1d-4e6a-a0ac-c3d35455e00e","system_id":"levelo_inurba_marseille","lat":43.3095,"lon":5.39028,"is_reserved":false,"is_disabled":false,"rental_uris":{"android":"levelo://app?vid=1cc4256d-7b1d-4e6a-a0ac-c3d35455e00e","ios":"levelo://app?vid=1cc4256d-7b1d-4e6a-a0ac-c3d35455e00e"},"vehicle_type_id":"4","last_reported":1750414307,"current_range_meters":12400,"station_id":"ce4bgup2rcd13ifvqco0","pricing_plan_id":"cebpf4jnsgd1na2vs0mg"},{"bike_id":"09b7a7f2-bc01-4388-8834-54888797b44c","system_id":"levelo_inurba_marseille","lat":43.3015,"lon":5.37405,"is_reserved":false,"is_disabled":false,"rental_uris":{"android":"levelo://app?vid=09b7a7f2-bc01-4388-8834-54888797b44c","ios":"levelo://app?vid=09b7a7f2-bc01-4388-8834-54888797b44c"},"vehicle_type_id":"4","last_reported":1750414307,"current_range_meters":12800,"station_id":"ce4bgs92rcd13ifvqcc0","pricing_plan_id":"cebpf4jnsgd1na2vs0mg"},{"bike_id":"b0b6c277-d63f-411d-9175-deed598d75f9","system_id":"levelo_inurba_marseille","lat":43.301253,"lon":5.398588,"is_reserved":false,"is_disabled":false,"rental_uris":{"android":"levelo://app?vid=b0b6c277-d63f-411d-9175-deed598d75f9","ios":"levelo://app?vid=b0b6c277-d63f-411d-9175-deed598d75f9"},"vehicle_type_id":"4","last_reported":1750414307,"current_range_meters":12800,"station_id":"ce4bh0h2rcd13ifvqd40","pricing_plan_id":"cebpf4jnsgd1na2vs0mg"},{"bike_id":"4bd68edc-b3eb-4f66-b4f1-c77f5ca65632","system_id":"levelo_inurba_marseille","lat":43.28724,"lon":5.37934,"is_reserved":false,"is_disabled":false,"rental_uris":{"android":"levelo://app?vid=4bd68edc-b3eb-4f66-b4f1-c77f5ca65632","ios":"levelo://app?vid=4bd68edc-b3eb-4f66-b4f1-c77f5ca65632"},"vehicle_type_id":"4","last_reported":1750414307,"current_range_meters":12800,"station_id":"ce4bh9p2rcd13ifvqec0","pricing_plan_id":"cebpf4jnsgd1na2vs0mg"},{"bike_id":"d3279f23-4d24-480e-ab51-f32df56ce29c","system_id":"levelo_inurba_marseille","lat":43.2842,"lon":5.34975,"is_reserved":false,"is_disabled":false,"rental_uris":{"android":"levelo://app?vid=d3279f23-4d24-480e-ab51-f32df56ce29c","ios":"levelo://app?vid=d3279f23-4d24-480e-ab51-f32df56ce29c"},"vehicle_type_id":"4","last_reported":1750414307,"current_range_meters":12800,"station_id":"ce4bhbh2rcd13ifvqepg","pricing_plan_id":"cebpf4jnsgd1na2vs0mg"},{"bike_id":"af842f11-12ef-4367-b19d-3ce5578db752","system_id":"levelo_inurba_marseille","lat":43.28416,"lon":5.34989,"is_reserved":false,"is_disabled":false,"rental_uris":{"android":"levelo://app?vid=af842f11-12ef-4367-b19d-3ce5578db752","ios":"levelo://app?vid=af842f11-12ef-4367-b19d-3ce5578db752"},"vehicle_type_id":"4","last_reported":1750414307,"current_range_meters":12800,"station_id":"ce4bhbh2rcd13ifvqepg","pricing_plan_id":"cebpf4jnsgd1na2vs0mg"},{"bike_id":"5e5b518d-101c-4d8b-a1f8-803af564af87","system_id":"levelo_inurba_marseille","lat":43.24663,"lon":5.3816,"is_reserved":false,"is_disabled":false,"rental_uris":{"android":"levelo://app?vid=5e5b518d-101c-4d8b-a1f8-803af564af87","ios":"levelo://app?vid=5e5b518d-101c-4d8b-a1f8-803af564af87"},"vehicle_type_id":"4","last_reported":1750414307,"current_range_meters":12800,"station_id":"ce4bhih2rcd13ifvqfr0","pricing_plan_id":"cebpf4jnsgd1na2vs0mg"},{"bike_id":"cfcc63e5-33ec-4229-a7bf-4d1c7311a7b9","system_id":"levelo_inurba_marseille","lat":43.2989,"lon":5.4366,"is_reserved":false,"is_disabled":false,"rental_uris":{"android":"levelo://app?vid=cfcc63e5-33ec-4229-a7bf-4d1c7311a7b9","ios":"levelo://app?vid=cfcc63e5-33ec-4229-a7bf-4d1c7311a7b9"},"vehicle_type_id":"4","last_reported":1750414307,"current_range_meters":12800,"station_id":"ce4bhpp2rcd13ifvqhfg","pricing_plan_id":"cebpf4jnsgd1na2vs0mg"},{"bike_id":"199c2831-e081-4bc0-9b94-19503817091d","system_id":"levelo_inurba_marseille","lat":43.24885,"lon":5.40667,"is_reserved":false,"is_disabled":false,"rental_uris":{"android":"levelo://app?vid=199c2831-e081-4bc0-9b94-19503817091d","ios":"levelo://app?vid=199c2831-e081-4bc0-9b94-19503817091d"},"vehicle_type_id":"4","last_reported":1750414307,"current_range_meters":13600,"station_id":"","pricing_plan_id":"cebpf4jnsgd1na2vs0mg"},{"bike_id":"e606c2af-e790-4f6d-8391-dd4bc26a06a5","system_id":"levelo_inurba_marseille","lat":43.30486,"lon":5.37896,"is_reserved":false,"is_disabled":false,"rental_uris":{"android":"levelo://app?vid=e606c2af-e790-4f6d-8391-dd4bc26a06a5","ios":"levelo://app?vid=e606c2af-e790-4f6d-8391-dd4bc26a06a5"},"vehicle_type_id":"4","last_reported":1750414307,"current_range_meters":13600,"station_id":"ce4bgup2rcd13ifvqcn0","pricing_plan_id":"cebpf4jnsgd1na2vs0mg"},{"bike_id":"3c6a14d3-2ce7-46e3-a2e4-215d36294a2e","system_id":"levelo_inurba_marseille","lat":43.28155,"lon":5.42646,"is_reserved":false,"is_disabled":false,"rental_uris":{"android":"levelo://app?vid=3c6a14d3-2ce7-46e3-a2e4-215d36294a2e","ios":"levelo://app?vid=3c6a14d3-2ce7-46e3-a2e4-215d36294a2e"},"vehicle_type_id":"4","last_reported":1750414307,"current_range_meters":13600,"station_id":"ce4bhnh2rcd13ifvqgug","pricing_plan_id":"cebpf4jnsgd1na2vs0mg"},{"bike_id":"0708cf38-7a7f-4f4d-a4c6-7778c58c5a3c","system_id":"levelo_inurba_marseille","lat":43.28324,"lon":5.410996,"is_reserved":false,"is_disabled":false,"rental_uris":{"android":"levelo://app?vid=0708cf38-7a7f-4f4d-a4c6-7778c58c5a3c","ios":"levelo://app?vid=0708cf38-7a7f-4f4d-a4c6-7778c58c5a3c"},"vehicle_type_id":"4","last_reported":1750414307,"current_range_meters":14000,"station_id":"","pricing_plan_id":"cebpf4jnsgd1na2vs0mg"},{"bike_id":"e601318a-80b4-4f51-a832-852f5697c443","system_id":"levelo_inurba_marseille","lat":43.2973,"lon":5.37687,"is_reserved":false,"is_disabled":false,"rental_uris":{"android":"levelo://app?vid=e601318a-80b4-4f51-a832-852f5697c443","ios":"levelo://app?vid=e601318a-80b4-4f51-a832-852f5697c443"},"vehicle_type_id":"4","last_reported":1750414307,"current_range_meters":14000,"station_id":"ce4bgkh2rcd13ifvqbl0","pricing_plan_id":"cebpf4jnsgd1na2vs0mg"},{"bike_id":"dcc307dd-8767-4cda-a087-6644af657b12","system_id":"levelo_inurba_marseille","lat":43.28279,"lon":5.35074,"is_reserved":false,"is_disabled":false,"rental_uris":{"android":"levelo://app?vid=dcc307dd-8767-4cda-a087-6644af657b12","ios":"levelo://app?vid=dcc307dd-8767-4cda-a087-6644af657b12"},"vehicle_type_id":"4","last_reported":1750414307,"current_range_meters":14000,"station_id":"ce4bhbp2rcd13ifvqerg","pricing_plan_id":"cebpf4jnsgd1na2vs0mg"},{"bike_id":"ca68f371-e680-4d38-bf57-bee60a2dd31d","system_id":"levelo_inurba_marseille","lat":43.28933,"lon":5.3839,"is_reserved":false,"is_disabled":false,"rental_uris":{"android":"levelo://app?vid=ca68f371-e680-4d38-bf57-bee60a2dd31d","ios":"levelo://app?vid=ca68f371-e680-4d38-bf57-bee60a2dd31d"},"vehicle_type_id":"4","last_reported":1750414307,"current_range_meters":14400,"station_id":"ce4bh612rcd13ifvqe6g","pricing_plan_id":"cebpf4jnsgd1na2vs0mg"},{"bike_id":"4da4bcd5-2383-4040-9d04-4bd63c984791","system_id":"levelo_inurba_marseille","lat":43.28409,"lon":5.34992,"is_reserved":false,"is_disabled":false,"rental_uris":{"android":"levelo://app?vid=4da4bcd5-2383-4040-9d04-4bd63c984791","ios":"levelo://app?vid=4da4bcd5-2383-4040-9d04-4bd63c984791"},"vehicle_type_id":"4","last_reported":1750414307,"current_range_meters":14400,"station_id":"ce4bhbh2rcd13ifvqepg","pricing_plan_id":"cebpf4jnsgd1na2vs0mg"},{"bike_id":"f30123e7-96d3-442d-9d01-6c98dc61e7c8","system_id":"levelo_inurba_marseille","lat":43.29814,"lon":5.36853,"is_reserved":false,"is_disabled":false,"rental_uris":{"android":"levelo://app?vid=f30123e7-96d3-442d-9d01-6c98dc61e7c8","ios":"levelo://app?vid=f30123e7-96d3-442d-9d01-6c98dc61e7c8"},"vehicle_type_id":"4","last_reported":1750414307,"current_range_meters":14800,"station_id":"","pricing_plan_id":"cebpf4jnsgd1na2vs0mg"},{"bike_id":"a5477e03-408d-4a9e-9f46-7167cd248145","system_id":"levelo_inurba_marseille","lat":43.30468,"lon":5.37908,"is_reserved":false,"is_disabled":false,"rental_uris":{"android":"levelo://app?vid=a5477e03-408d-4a9e-9f46-7167cd248145","ios":"levelo://app?vid=a5477e03-408d-4a9e-9f46-7167cd248145"},"vehicle_type_id":"4","last_reported":1750414307,"current_range_meters":14800,"station_id":"ce4bgup2rcd13ifvqcn0","pricing_plan_id":"cebpf4jnsgd1na2vs0mg"},{"bike_id":"314bd7c4-28ea-43fb-845a-fea4027b53a9","system_id":"levelo_inurba_marseille","lat":43.26219,"lon":5.40449,"is_reserved":false,"is_disabled":false,"rental_uris":{"android":"levelo://app?vid=314bd7c4-28ea-43fb-845a-fea4027b53a9","ios":"levelo://app?vid=314bd7c4-28ea-43fb-845a-fea4027b53a9"},"vehicle_type_id":"4","last_reported":1750414307,"current_range_meters":14800,"station_id":"ce4bhmh2rcd13ifvqgmg","pricing_plan_id":"cebpf4jnsgd1na2vs0mg"},{"bike_id":"d958a725-3458-4a0f-ac85-b9d0e5d52bb4","system_id":"levelo_inurba_marseille","lat":43.2406,"lon":5.37757,"is_reserved":false,"is_disabled":false,"rental_uris":{"android":"levelo://app?vid=d958a725-3458-4a0f-ac85-b9d0e5d52bb4","ios":"levelo://app?vid=d958a725-3458-4a0f-ac85-b9d0e5d52bb4"},"vehicle_type_id":"4","last_reported":1750414307,"current_range_meters":14800,"station_id":"ce4bhnp2rcd13ifvqgvg","pricing_plan_id":"cebpf4jnsgd1na2vs0mg"},{"bike_id":"7fb8f777-502e-4027-8e9f-d463bb7373be","system_id":"levelo_inurba_marseille","lat":43.296331,"lon":5.380186,"is_reserved":false,"is_disabled":false,"rental_uris":{"android":"levelo://app?vid=7fb8f777-502e-4027-8e9f-d463bb7373be","ios":"levelo://app?vid=7fb8f777-502e-4027-8e9f-d463bb7373be"},"vehicle_type_id":"4","last_reported":1750414307,"current_range_meters":15200,"station_id":"","pricing_plan_id":"cebpf4jnsgd1na2vs0mg"},{"bike_id":"7f3d88d5-62e4-4fe6-bef1-b11579ad6eb3","system_id":"levelo_inurba_marseille","lat":43.29041,"lon":5.3756,"is_reserved":false,"is_disabled":false,"rental_uris":{"android":"levelo://app?vid=7f3d88d5-62e4-4fe6-bef1-b11579ad6eb3","ios":"levelo://app?vid=7f3d88d5-62e4-4fe6-bef1-b11579ad6eb3"},"vehicle_type_id":"4","last_reported":1750414307,"current_range_meters":15200,"station_id":"ce4bh692rcd13ifvqe90","pricing_plan_id":"cebpf4jnsgd1na2vs0mg"},{"bike_id":"0a7da1b8-94e3-4321-a925-c5e5aa8062a1","system_id":"levelo_inurba_marseille","lat":43.29291,"lon":5.36821,"is_reserved":false,"is_disabled":false,"rental_uris":{"android":"levelo://app?vid=0a7da1b8-94e3-4321-a925-c5e5aa8062a1","ios":"levelo://app?vid=0a7da1b8-94e3-4321-a925-c5e5aa8062a1"},"vehicle_type_id":"4","last_reported":1750414307,"current_range_meters":15200,"station_id":"ce4bhbp2rcd13ifvqesg","pricing_plan_id":"cebpf4jnsgd1na2vs0mg"},{"bike_id":"04d972d4-625c-41a2-93b6-5337e9ca8ff0","system_id":"levelo_inurba_marseille","lat":43.32092,"lon":5.36774,"is_reserved":false,"is_disabled":false,"rental_uris":{"android":"levelo://app?vid=04d972d4-625c-41a2-93b6-5337e9ca8ff0","ios":"levelo://app?vid=04d972d4-625c-41a2-93b6-5337e9ca8ff0"},"vehicle_type_id":"4","last_reported":1750414307,"current_range_meters":15200,"station_id":"ce4bhrh2rcd13ifvqhug","pricing_plan_id":"cebpf4jnsgd1na2vs0mg"},{"bike_id":"8f0dc418-9e39-4668-bd43-1f43154c1126","system_id":"levelo_inurba_marseille","lat":43.31491,"lon":5.37288,"is_reserved":false,"is_disabled":false,"rental_uris":{"android":"levelo://app?vid=8f0dc418-9e39-4668-bd43-1f43154c1126","ios":"levelo://app?vid=8f0dc418-9e39-4668-bd43-1f43154c1126"},"vehicle_type_id":"4","last_reported":1750414307,"current_range_meters":16000,"station_id":"ce4bgt12rcd13ifvqcd0","pricing_plan_id":"cebpf4jnsgd1na2vs0mg"},{"bike_id":"0b9c5d8a-6e16-4b75-9f9f-74ff5107cca7","system_id":"levelo_inurba_marseille","lat":43.29533,"lon":5.39402,"is_reserved":false,"is_disabled":false,"rental_uris":{"android":"levelo://app?vid=0b9c5d8a-6e16-4b75-9f9f-74ff5107cca7","ios":"levelo://app?vid=0b9c5d8a-6e16-4b75-9f9f-74ff5107cca7"},"vehicle_type_id":"4","last_reported":1750414307,"current_range_meters":16000,"station_id":"ce4bh292rcd13ifvqdf0","pricing_plan_id":"cebpf4jnsgd1na2vs0mg"},{"bike_id":"b5799f26-dcd2-44cd-9ab8-e0e4d26a246d","system_id":"levelo_inurba_marseille","lat":43.28666,"lon":5.38666,"is_reserved":false,"is_disabled":false,"rental_uris":{"android":"levelo://app?vid=b5799f26-dcd2-44cd-9ab8-e0e4d26a246d","ios":"levelo://app?vid=b5799f26-dcd2-44cd-9ab8-e0e4d26a246d"},"vehicle_type_id":"4","last_reported":1750414307,"current_range_meters":16000,"station_id":"ce4bh492rcd13ifvqdug","pricing_plan_id":"cebpf4jnsgd1na2vs0mg"},{"bike_id":"1b288ce7-bcab-4fde-a193-ebb55dd9c701","system_id":"levelo_inurba_marseille","lat":43.29099,"lon":5.38117,"is_reserved":false,"is_disabled":false,"rental_uris":{"android":"levelo://app?vid=1b288ce7-bcab-4fde-a193-ebb55dd9c701","ios":"levelo://app?vid=1b288ce7-bcab-4fde-a193-ebb55dd9c701"},"vehicle_type_id":"4","last_reported":1750414307,"current_range_meters":16000,"station_id":"ce4bh512rcd13ifvqe2g","pricing_plan_id":"cebpf4jnsgd1na2vs0mg"},{"bike_id":"1067e012-e83b-4f9b-a228-5d6178f1c368","system_id":"levelo_inurba_marseille","lat":43.28409,"lon":5.34991,"is_reserved":false,"is_disabled":false,"rental_uris":{"android":"levelo://app?vid=1067e012-e83b-4f9b-a228-5d6178f1c368","ios":"levelo://app?vid=1067e012-e83b-4f9b-a228-5d6178f1c368"},"vehicle_type_id":"4","last_reported":1750414307,"current_range_meters":16000,"station_id":"ce4bhbh2rcd13ifvqepg","pricing_plan_id":"cebpf4jnsgd1na2vs0mg"},{"bike_id":"9765131a-3ace-43fa-bca8-8a29ccceccbb","system_id":"levelo_inurba_marseille","lat":43.28411,"lon":5.34993,"is_reserved":false,"is_disabled":false,"rental_uris":{"android":"levelo://app?vid=9765131a-3ace-43fa-bca8-8a29ccceccbb","ios":"levelo://app?vid=9765131a-3ace-43fa-bca8-8a29ccceccbb"},"vehicle_type_id":"4","last_reported":1750414307,"current_range_meters":16000,"station_id":"ce4bhbh2rcd13ifvqepg","pricing_plan_id":"cebpf4jnsgd1na2vs0mg"},{"bike_id":"508b6d48-a5c0-4899-ac1c-6b571eb8f4a0","system_id":"levelo_inurba_marseille","lat":43.32497,"lon":5.36563,"is_reserved":false,"is_disabled":false,"rental_uris":{"android":"levelo://app?vid=508b6d48-a5c0-4899-ac1c-6b571eb8f4a0","ios":"levelo://app?vid=508b6d48-a5c0-4899-ac1c-6b571eb8f4a0"},"vehicle_type_id":"4","last_reported":1750414307,"current_range_meters":16000,"station_id":"ce4bhs12rcd13ifvqhvg","pricing_plan_id":"cebpf4jnsgd1na2vs0mg"},{"bike_id":"9332a253-685f-48a3-8fb7-d7d6331e2994","system_id":"levelo_inurba_marseille","lat":43.30467,"lon":5.37888,"is_reserved":false,"is_disabled":false,"rental_uris":{"android":"levelo://app?vid=9332a253-685f-48a3-8fb7-d7d6331e2994","ios":"levelo://app?vid=9332a253-685f-48a3-8fb7-d7d6331e2994"},"vehicle_type_id":"4","last_reported":1750414307,"current_range_meters":16400,"station_id":"ce4bgup2rcd13ifvqcn0","pricing_plan_id":"cebpf4jnsgd1na2vs0mg"},{"bike_id":"fbb78489-3568-46b7-97e9-4e365314416e","system_id":"levelo_inurba_marseille","lat":43.30092,"lon":5.39067,"is_reserved":false,"is_disabled":false,"rental_uris":{"android":"levelo://app?vid=fbb78489-3568-46b7-97e9-4e365314416e","ios":"levelo://app?vid=fbb78489-3568-46b7-97e9-4e365314416e"},"vehicle_type_id":"4","last_reported":1750414307,"current_range_meters":16400,"station_id":"ce4bh192rcd13ifvqdb0","pricing_plan_id":"cebpf4jnsgd1na2vs0mg"},{"bike_id":"c3507ecf-350a-4f40-a3ec-c054291d999e","system_id":"levelo_inurba_marseille","lat":43.282846,"lon":5.350732,"is_reserved":false,"is_disabled":false,"rental_uris":{"android":"levelo://app?vid=c3507ecf-350a-4f40-a3ec-c054291d999e","ios":"levelo://app?vid=c3507ecf-350a-4f40-a3ec-c054291d999e"},"vehicle_type_id":"4","last_reported":1750414307,"current_range_meters":16400,"station_id":"ce4bhbp2rcd13ifvqerg","pricing_plan_id":"cebpf4jnsgd1na2vs0mg"},{"bike_id":"74e58c3c-6de6-4ddc-8072-08325a79deec","system_id":"levelo_inurba_marseille","lat":43.23152,"lon":5.43719,"is_reserved":false,"is_disabled":false,"rental_uris":{"android":"levelo://app?vid=74e58c3c-6de6-4ddc-8072-08325a79deec","ios":"levelo://app?vid=74e58c3c-6de6-4ddc-8072-08325a79deec"},"vehicle_type_id":"4","last_reported":1750414307,"current_range_meters":16400,"station_id":"ce4bhmp2rcd13ifvqgog","pricing_plan_id":"cebpf4jnsgd1na2vs0mg"},{"bike_id":"9c9432f2-200a-4685-a0d1-4fe23879268a","system_id":"levelo_inurba_marseille","lat":43.24067,"lon":5.37756,"is_reserved":false,"is_disabled":false,"rental_uris":{"android":"levelo://app?vid=9c9432f2-200a-4685-a0d1-4fe23879268a","ios":"levelo://app?vid=9c9432f2-200a-4685-a0d1-4fe23879268a"},"vehicle_type_id":"4","last_reported":1750414307,"current_range_meters":16400,"station_id":"ce4bhnp2rcd13ifvqgvg","pricing_plan_id":"cebpf4jnsgd1na2vs0mg"},{"bike_id":"8e92feac-7d18-4ddd-8b47-3e77cf9b9c34","system_id":"levelo_inurba_marseille","lat":43.231892,"lon":5.355523,"is_reserved":false,"is_disabled":false,"rental_uris":{"android":"levelo://app?vid=8e92feac-7d18-4ddd-8b47-3e77cf9b9c34","ios":"levelo://app?vid=8e92feac-7d18-4ddd-8b47-3e77cf9b9c34"},"vehicle_type_id":"4","last_reported":1750414307,"current_range_meters":16400,"station_id":"ce4bhu92rcd13ifvqi70","pricing_plan_id":"cebpf4jnsgd1na2vs0mg"},{"bike_id":"dc540ba2-fb63-45eb-b83a-1826fb3d30b7","system_id":"levelo_inurba_marseille","lat":43.246105,"lon":5.392605,"is_reserved":false,"is_disabled":false,"rental_uris":{"android":"levelo://app?vid=dc540ba2-fb63-45eb-b83a-1826fb3d30b7","ios":"levelo://app?vid=dc540ba2-fb63-45eb-b83a-1826fb3d30b7"},"vehicle_type_id":"4","last_reported":1750414307,"current_range_meters":16800,"station_id":"","pricing_plan_id":"cebpf4jnsgd1na2vs0mg"},{"bike_id":"a3dad8b5-9e57-4c2e-9895-74eb6d937ea3","system_id":"levelo_inurba_marseille","lat":43.29196,"lon":5.35745,"is_reserved":false,"is_disabled":false,"rental_uris":{"android":"levelo://app?vid=a3dad8b5-9e57-4c2e-9895-74eb6d937ea3","ios":"levelo://app?vid=a3dad8b5-9e57-4c2e-9895-74eb6d937ea3"},"vehicle_type_id":"4","last_reported":1750414307,"current_range_meters":16800,"station_id":"","pricing_plan_id":"cebpf4jnsgd1na2vs0mg"},{"bike_id":"d40af265-11b5-43a6-9bb6-f910f57901ba","system_id":"levelo_inurba_marseille","lat":43.32909,"lon":5.3803,"is_reserved":false,"is_disabled":false,"rental_uris":{"android":"levelo://app?vid=d40af265-11b5-43a6-9bb6-f910f57901ba","ios":"levelo://app?vid=d40af265-11b5-43a6-9bb6-f910f57901ba"},"vehicle_type_id":"4","last_reported":1750414307,"current_range_meters":16800,"station_id":"","pricing_plan_id":"cebpf4jnsgd1na2vs0mg"},{"bike_id":"2d3986b8-cc2a-4927-837a-e39390564c39","system_id":"levelo_inurba_marseille","lat":43.29742,"lon":5.37685,"is_reserved":false,"is_disabled":false,"rental_uris":{"android":"levelo://app?vid=2d3986b8-cc2a-4927-837a-e39390564c39","ios":"levelo://app?vid=2d3986b8-cc2a-4927-837a-e39390564c39"},"vehicle_type_id":"4","last_reported":1750414307,"current_range_meters":16800,"station_id":"ce4bgkh2rcd13ifvqbl0","pricing_plan_id":"cebpf4jnsgd1na2vs0mg"},{"bike_id":"8ef11a45-504d-45b0-a2b5-97fef9594218","system_id":"levelo_inurba_marseille","lat":43.29568,"lon":5.38139,"is_reserved":false,"is_disabled":false,"rental_uris":{"android":"levelo://app?vid=8ef11a45-504d-45b0-a2b5-97fef9594218","ios":"levelo://app?vid=8ef11a45-504d-45b0-a2b5-97fef9594218"},"vehicle_type_id":"4","last_reported":1750414307,"current_range_meters":16800,"station_id":"ce4bgl12rcd13ifvqbo0","pricing_plan_id":"cebpf4jnsgd1na2vs0mg"},{"bike_id":"9b8ff76e-aff6-4887-81d1-73766f792ebc","system_id":"levelo_inurba_marseille","lat":43.29271,"lon":5.38436,"is_reserved":false,"is_disabled":false,"rental_uris":{"android":"levelo://app?vid=9b8ff76e-aff6-4887-81d1-73766f792ebc","ios":"levelo://app?vid=9b8ff76e-aff6-4887-81d1-73766f792ebc"},"vehicle_type_id":"4","last_reported":1750414307,"current_range_meters":16800,"station_id":"ce4bh692rcd13ifvqea0","pricing_plan_id":"cebpf4jnsgd1na2vs0mg"},{"bike_id":"01f82335-1be4-49f0-bb9c-76bf3d817d2f","system_id":"levelo_inurba_marseille","lat":43.28418,"lon":5.3499,"is_reserved":false,"is_disabled":false,"rental_uris":{"android":"levelo://app?vid=01f82335-1be4-49f0-bb9c-76bf3d817d2f","ios":"levelo://app?vid=01f82335-1be4-49f0-bb9c-76bf3d817d2f"},"vehicle_type_id":"4","last_reported":1750414307,"current_range_meters":16800,"station_id":"ce4bhbh2rcd13ifvqepg","pricing_plan_id":"cebpf4jnsgd1na2vs0mg"},{"bike_id":"bf043dfd-309a-443a-8bf2-73a457fed4e7","system_id":"levelo_inurba_marseille","lat":43.23963,"lon":5.36631,"is_reserved":false,"is_disabled":false,"rental_uris":{"android":"levelo://app?vid=bf043dfd-309a-443a-8bf2-73a457fed4e7","ios":"levelo://app?vid=bf043dfd-309a-443a-8bf2-73a457fed4e7"},"vehicle_type_id":"4","last_reported":1750414307,"current_range_meters":16800,"station_id":"ce4bhi12rcd13ifvqfp0","pricing_plan_id":"cebpf4jnsgd1na2vs0mg"},{"bike_id":"5b6fdf53-ee68-407a-b320-55dfe40b20cc","system_id":"levelo_inurba_marseille","lat":43.337444,"lon":5.374475,"is_reserved":false,"is_disabled":false,"rental_uris":{"android":"levelo://app?vid=5b6fdf53-ee68-407a-b320-55dfe40b20cc","ios":"levelo://app?vid=5b6fdf53-ee68-407a-b320-55dfe40b20cc"},"vehicle_type_id":"4","last_reported":1750414307,"current_range_meters":16800,"station_id":"ce4bhnh2rcd13ifvqgug","pricing_plan_id":"cebpf4jnsgd1na2vs0mg"},{"bike_id":"ddefd7fd-3400-4337-8338-4067185a8cdb","system_id":"levelo_inurba_marseille","lat":43.32104,"lon":5.36768,"is_reserved":false,"is_disabled":false,"rental_uris":{"android":"levelo://app?vid=ddefd7fd-3400-4337-8338-4067185a8cdb","ios":"levelo://app?vid=ddefd7fd-3400-4337-8338-4067185a8cdb"},"vehicle_type_id":"4","last_reported":1750414307,"current_range_meters":16800,"station_id":"ce4bhrh2rcd13ifvqhug","pricing_plan_id":"cebpf4jnsgd1na2vs0mg"},{"bike_id":"bd27fe72-6fbc-453f-8b77-bee10ab3b13c","system_id":"levelo_inurba_marseille","lat":43.29536,"lon":5.42355,"is_reserved":false,"is_disabled":false,"rental_uris":{"android":"levelo://app?vid=bd27fe72-6fbc-453f-8b77-bee10ab3b13c","ios":"levelo://app?vid=bd27fe72-6fbc-453f-8b77-bee10ab3b13c"},"vehicle_type_id":"4","last_reported":1750414307,"current_range_meters":17200,"station_id":"","pricing_plan_id":"cebpf4jnsgd1na2vs0mg"},{"bike_id":"e904481c-c075-4235-ab4b-c7d3ddbe3194","system_id":"levelo_inurba_marseille","lat":43.293304,"lon":5.370808,"is_reserved":false,"is_disabled":false,"rental_uris":{"android":"levelo://app?vid=e904481c-c075-4235-ab4b-c7d3ddbe3194","ios":"levelo://app?vid=e904481c-c075-4235-ab4b-c7d3ddbe3194"},"vehicle_type_id":"4","last_reported":1750414307,"current_range_meters":17200,"station_id":"","pricing_plan_id":"cebpf4jnsgd1na2vs0mg"},{"bike_id":"4d604d88-4144-4f30-84ea-f37783541e31","system_id":"levelo_inurba_marseille","lat":43.29794,"lon":5.37092,"is_reserved":false,"is_disabled":false,"rental_uris":{"android":"levelo://app?vid=4d604d88-4144-4f30-84ea-f37783541e31","ios":"levelo://app?vid=4d604d88-4144-4f30-84ea-f37783541e31"},"vehicle_type_id":"4","last_reported":1750414307,"current_range_meters":17200,"station_id":"ce4bgop2rcd13ifvqc1g","pricing_plan_id":"cebpf4jnsgd1na2vs0mg"},{"bike_id":"a22aa312-0025-4f42-88e2-b1e95e79340f","system_id":"levelo_inurba_marseille","lat":43.31639,"lon":5.38366,"is_reserved":false,"is_disabled":false,"rental_uris":{"android":"levelo://app?vid=a22aa312-0025-4f42-88e2-b1e95e79340f","ios":"levelo://app?vid=a22aa312-0025-4f42-88e2-b1e95e79340f"},"vehicle_type_id":"4","last_reported":1750414307,"current_range_meters":17600,"station_id":"","pricing_plan_id":"cebpf4jnsgd1na2vs0mg"},{"bike_id":"4d8ab8f7-8a2c-457b-8d51-e889d9fa68fa","system_id":"levelo_inurba_marseille","lat":43.30304,"lon":5.36884,"is_reserved":false,"is_disabled":false,"rental_uris":{"android":"levelo://app?vid=4d8ab8f7-8a2c-457b-8d51-e889d9fa68fa","ios":"levelo://app?vid=4d8ab8f7-8a2c-457b-8d51-e889d9fa68fa"},"vehicle_type_id":"4","last_reported":1750414307,"current_range_meters":17600,"station_id":"ce4bgqh2rcd13ifvqc5g","pricing_plan_id":"cebpf4jnsgd1na2vs0mg"},{"bike_id":"a355deee-f604-4bbe-bc6d-9b0b2f98b683","system_id":"levelo_inurba_marseille","lat":43.314816,"lon":5.372982,"is_reserved":false,"is_disabled":false,"rental_uris":{"android":"levelo://app?vid=a355deee-f604-4bbe-bc6d-9b0b2f98b683","ios":"levelo://app?vid=a355deee-f604-4bbe-bc6d-9b0b2f98b683"},"vehicle_type_id":"4","last_reported":1750414307,"current_range_meters":17600,"station_id":"ce4bgt12rcd13ifvqcd0","pricing_plan_id":"cebpf4jnsgd1na2vs0mg"},{"bike_id":"449645e7-e802-4e23-a313-948022857a45","system_id":"levelo_inurba_marseille","lat":43.29268,"lon":5.36845,"is_reserved":false,"is_disabled":false,"rental_uris":{"android":"levelo://app?vid=449645e7-e802-4e23-a313-948022857a45","ios":"levelo://app?vid=449645e7-e802-4e23-a313-948022857a45"},"vehicle_type_id":"4","last_reported":1750414307,"current_range_meters":17600,"station_id":"ce4bhbp2rcd13ifvqesg","pricing_plan_id":"cebpf4jnsgd1na2vs0mg"},{"bike_id":"8d26bddb-d66c-4ac7-9079-ae9c33f4789f","system_id":"levelo_inurba_marseille","lat":43.28496,"lon":5.38912,"is_reserved":false,"is_disabled":false,"rental_uris":{"android":"levelo://app?vid=8d26bddb-d66c-4ac7-9079-ae9c33f4789f","ios":"levelo://app?vid=8d26bddb-d66c-4ac7-9079-ae9c33f4789f"},"vehicle_type_id":"4","last_reported":1750414307,"current_range_meters":17600,"station_id":"ce4bhoh2rcd13ifvqh5g","pricing_plan_id":"cebpf4jnsgd1na2vs0mg"},{"bike_id":"4643bc90-1bac-4c4b-98b1-e2d500830573","system_id":"levelo_inurba_marseille","lat":43.31371,"lon":5.37704,"is_reserved":false,"is_disabled":false,"rental_uris":{"android":"levelo://app?vid=4643bc90-1bac-4c4b-98b1-e2d500830573","ios":"levelo://app?vid=4643bc90-1bac-4c4b-98b1-e2d500830573"},"vehicle_type_id":"4","last_reported":1750414307,"current_range_meters":18000,"station_id":"","pricing_plan_id":"cebpf4jnsgd1na2vs0mg"},{"bike_id":"ffbb0c22-3f4e-4cdb-a0e5-79e3b9f3e1a2","system_id":"levelo_inurba_marseille","lat":43.33755,"lon":5.37428,"is_reserved":false,"is_disabled":false,"rental_uris":{"android":"levelo://app?vid=ffbb0c22-3f4e-4cdb-a0e5-79e3b9f3e1a2","ios":"levelo://app?vid=ffbb0c22-3f4e-4cdb-a0e5-79e3b9f3e1a2"},"vehicle_type_id":"4","last_reported":1750414307,"current_range_meters":18000,"station_id":"","pricing_plan_id":"cebpf4jnsgd1na2vs0mg"},{"bike_id":"5476da19-90b6-4e12-b1b9-f007098b119f","system_id":"levelo_inurba_marseille","lat":43.29718,"lon":5.36612,"is_reserved":false,"is_disabled":false,"rental_uris":{"android":"levelo://app?vid=5476da19-90b6-4e12-b1b9-f007098b119f","ios":"levelo://app?vid=5476da19-90b6-4e12-b1b9-f007098b119f"},"vehicle_type_id":"4","last_reported":1750414307,"current_range_meters":18000,"station_id":"ce4bgn12rcd13ifvqbt0","pricing_plan_id":"cebpf4jnsgd1na2vs0mg"},{"bike_id":"ea833185-b2be-41ee-b611-cb1f55e0b1b4","system_id":"levelo_inurba_marseille","lat":43.30483,"lon":5.37899,"is_reserved":false,"is_disabled":false,"rental_uris":{"android":"levelo://app?vid=ea833185-b2be-41ee-b611-cb1f55e0b1b4","ios":"levelo://app?vid=ea833185-b2be-41ee-b611-cb1f55e0b1b4"},"vehicle_type_id":"4","last_reported":1750414307,"current_range_meters":18000,"station_id":"ce4bgup2rcd13ifvqcn0","pricing_plan_id":"cebpf4jnsgd1na2vs0mg"},{"bike_id":"204afd8f-d13a-468d-a59c-e2db9671fff1","system_id":"levelo_inurba_marseille","lat":43.2441,"lon":5.37107,"is_reserved":false,"is_disabled":false,"rental_uris":{"android":"levelo://app?vid=204afd8f-d13a-468d-a59c-e2db9671fff1","ios":"levelo://app?vid=204afd8f-d13a-468d-a59c-e2db9671fff1"},"vehicle_type_id":"4","last_reported":1750414307,"current_range_meters":18000,"station_id":"ce4bhhh2rcd13ifvqfk0","pricing_plan_id":"cebpf4jnsgd1na2vs0mg"},{"bike_id":"a9f7e5b6-c3b9-477a-9dd1-4ff223f734c0","system_id":"levelo_inurba_marseille","lat":43.29888,"lon":5.43653,"is_reserved":false,"is_disabled":false,"rental_uris":{"android":"levelo://app?vid=a9f7e5b6-c3b9-477a-9dd1-4ff223f734c0","ios":"levelo://app?vid=a9f7e5b6-c3b9-477a-9dd1-4ff223f734c0"},"vehicle_type_id":"4","last_reported":1750414307,"current_range_meters":18000,"station_id":"ce4bhpp2rcd13ifvqhfg","pricing_plan_id":"cebpf4jnsgd1na2vs0mg"},{"bike_id":"2dc37154-7eb8-4251-aa63-dde65a5c123c","system_id":"levelo_inurba_marseille","lat":43.292545,"lon":5.37616,"is_reserved":false,"is_disabled":false,"rental_uris":{"android":"levelo://app?vid=2dc37154-7eb8-4251-aa63-dde65a5c123c","ios":"levelo://app?vid=2dc37154-7eb8-4251-aa63-dde65a5c123c"},"vehicle_type_id":"4","last_reported":1750414307,"current_range_meters":18800,"station_id":"","pricing_plan_id":"cebpf4jnsgd1na2vs0mg"},{"bike_id":"90c109b5-5cee-495e-8f11-f318c0f086b6","system_id":"levelo_inurba_marseille","lat":43.32486,"lon":5.43523,"is_reserved":false,"is_disabled":false,"rental_uris":{"android":"levelo://app?vid=90c109b5-5cee-495e-8f11-f318c0f086b6","ios":"levelo://app?vid=90c109b5-5cee-495e-8f11-f318c0f086b6"},"vehicle_type_id":"4","last_reported":1750414307,"current_range_meters":18800,"station_id":"","pricing_plan_id":"cebpf4jnsgd1na2vs0mg"},{"bike_id":"c7501106-06ca-4023-beba-2619a2b8326a","system_id":"levelo_inurba_marseille","lat":43.29035,"lon":5.38647,"is_reserved":false,"is_disabled":false,"rental_uris":{"android":"levelo://app?vid=c7501106-06ca-4023-beba-2619a2b8326a","ios":"levelo://app?vid=c7501106-06ca-4023-beba-2619a2b8326a"},"vehicle_type_id":"4","last_reported":1750414307,"current_range_meters":18800,"station_id":"ce4bh4p2rcd13ifvqe0g","pricing_plan_id":"cebpf4jnsgd1na2vs0mg"},{"bike_id":"0a11771e-cc24-4d24-baf4-0abfe3e65cfe","system_id":"levelo_inurba_marseille","lat":43.28616,"lon":5.35099,"is_reserved":false,"is_disabled":false,"rental_uris":{"android":"levelo://app?vid=0a11771e-cc24-4d24-baf4-0abfe3e65cfe","ios":"levelo://app?vid=0a11771e-cc24-4d24-baf4-0abfe3e65cfe"},"vehicle_type_id":"4","last_reported":1750414307,"current_range_meters":18800,"station_id":"ce4bhch2rcd13ifvqeug","pricing_plan_id":"cebpf4jnsgd1na2vs0mg"},{"bike_id":"3fd858b2-825f-4f7a-b0cf-08057dd2e0ef","system_id":"levelo_inurba_marseille","lat":43.33608,"lon":5.41026,"is_reserved":false,"is_disabled":false,"rental_uris":{"android":"levelo://app?vid=3fd858b2-825f-4f7a-b0cf-08057dd2e0ef","ios":"levelo://app?vid=3fd858b2-825f-4f7a-b0cf-08057dd2e0ef"},"vehicle_type_id":"4","last_reported":1750414307,"current_range_meters":18800,"station_id":"ce4bhqh2rcd13ifvqhmg","pricing_plan_id":"cebpf4jnsgd1na2vs0mg"},{"bike_id":"a4ff1886-948f-489c-b8f8-527cff5591b8","system_id":"levelo_inurba_marseille","lat":43.29599,"lon":5.381,"is_reserved":false,"is_disabled":false,"rental_uris":{"android":"levelo://app?vid=a4ff1886-948f-489c-b8f8-527cff5591b8","ios":"levelo://app?vid=a4ff1886-948f-489c-b8f8-527cff5591b8"},"vehicle_type_id":"4","last_reported":1750414307,"current_range_meters":19200,"station_id":"","pricing_plan_id":"cebpf4jnsgd1na2vs0mg"},{"bike_id":"73a224ff-f6a3-4c18-9279-d392a3f86d72","system_id":"levelo_inurba_marseille","lat":43.21752,"lon":5.34602,"is_reserved":false,"is_disabled":false,"rental_uris":{"android":"levelo://app?vid=73a224ff-f6a3-4c18-9279-d392a3f86d72","ios":"levelo://app?vid=73a224ff-f6a3-4c18-9279-d392a3f86d72"},"vehicle_type_id":"4","last_reported":1750414307,"current_range_meters":19200,"station_id":"","pricing_plan_id":"cebpf4jnsgd1na2vs0mg"},{"bike_id":"7189e414-0568-4c4b-9242-d3f520141d41","system_id":"levelo_inurba_marseille","lat":43.28416,"lon":5.3497,"is_reserved":false,"is_disabled":false,"rental_uris":{"android":"levelo://app?vid=7189e414-0568-4c4b-9242-d3f520141d41","ios":"levelo://app?vid=7189e414-0568-4c4b-9242-d3f520141d41"},"vehicle_type_id":"4","last_reported":1750414307,"current_range_meters":19200,"station_id":"ce4bhbh2rcd13ifvqepg","pricing_plan_id":"cebpf4jnsgd1na2vs0mg"},{"bike_id":"a9fe177d-6cf7-41a6-b924-383cb8edf7ce","system_id":"levelo_inurba_marseille","lat":43.28614,"lon":5.35104,"is_reserved":false,"is_disabled":false,"rental_uris":{"android":"levelo://app?vid=a9fe177d-6cf7-41a6-b924-383cb8edf7ce","ios":"levelo://app?vid=a9fe177d-6cf7-41a6-b924-383cb8edf7ce"},"vehicle_type_id":"4","last_reported":1750414307,"current_range_meters":19200,"station_id":"ce4bhch2rcd13ifvqeug","pricing_plan_id":"cebpf4jnsgd1na2vs0mg"},{"bike_id":"f5f50ca7-eeb2-43ad-b676-075753ef7f78","system_id":"levelo_inurba_marseille","lat":43.23195,"lon":5.3555,"is_reserved":false,"is_disabled":false,"rental_uris":{"android":"levelo://app?vid=f5f50ca7-eeb2-43ad-b676-075753ef7f78","ios":"levelo://app?vid=f5f50ca7-eeb2-43ad-b676-075753ef7f78"},"vehicle_type_id":"4","last_reported":1750414307,"current_range_meters":19200,"station_id":"ce4bhu92rcd13ifvqi70","pricing_plan_id":"cebpf4jnsgd1na2vs0mg"},{"bike_id":"063e9941-d5f6-480d-a2cf-92698b2a4bd1","system_id":"levelo_inurba_marseille","lat":43.3149,"lon":5.37308,"is_reserved":false,"is_disabled":false,"rental_uris":{"android":"levelo://app?vid=063e9941-d5f6-480d-a2cf-92698b2a4bd1","ios":"levelo://app?vid=063e9941-d5f6-480d-a2cf-92698b2a4bd1"},"vehicle_type_id":"4","last_reported":1750414307,"current_range_meters":19600,"station_id":"ce4bgt12rcd13ifvqcd0","pricing_plan_id":"cebpf4jnsgd1na2vs0mg"},{"bike_id":"b0c6aeac-433e-4e8a-a81e-2398fd2ead08","system_id":"levelo_inurba_marseille","lat":43.30952,"lon":5.39024,"is_reserved":false,"is_disabled":false,"rental_uris":{"android":"levelo://app?vid=b0c6aeac-433e-4e8a-a81e-2398fd2ead08","ios":"levelo://app?vid=b0c6aeac-433e-4e8a-a81e-2398fd2ead08"},"vehicle_type_id":"4","last_reported":1750414307,"current_range_meters":19600,"station_id":"ce4bgup2rcd13ifvqco0","pricing_plan_id":"cebpf4jnsgd1na2vs0mg"},{"bike_id":"11069599-63f1-4195-b802-c4e4f1a7c9cc","system_id":"levelo_inurba_marseille","lat":43.28934,"lon":5.38384,"is_reserved":false,"is_disabled":false,"rental_uris":{"android":"levelo://app?vid=11069599-63f1-4195-b802-c4e4f1a7c9cc","ios":"levelo://app?vid=11069599-63f1-4195-b802-c4e4f1a7c9cc"},"vehicle_type_id":"4","last_reported":1750414307,"current_range_meters":19600,"station_id":"ce4bh612rcd13ifvqe6g","pricing_plan_id":"cebpf4jnsgd1na2vs0mg"},{"bike_id":"90c5a1b6-730c-413e-bcee-b223ffbd4504","system_id":"levelo_inurba_marseille","lat":43.24168,"lon":5.36389,"is_reserved":false,"is_disabled":false,"rental_uris":{"android":"levelo://app?vid=90c5a1b6-730c-413e-bcee-b223ffbd4504","ios":"levelo://app?vid=90c5a1b6-730c-413e-bcee-b223ffbd4504"},"vehicle_type_id":"4","last_reported":1750414307,"current_range_meters":19600,"station_id":"cpo36qri1sfpv3e86is0","pricing_plan_id":"cebpf4jnsgd1na2vs0mg"},{"bike_id":"2d50ff45-3046-40df-b784-ee274c648ea0","system_id":"levelo_inurba_marseille","lat":43.3203,"lon":5.40817,"is_reserved":false,"is_disabled":false,"rental_uris":{"android":"levelo://app?vid=2d50ff45-3046-40df-b784-ee274c648ea0","ios":"levelo://app?vid=2d50ff45-3046-40df-b784-ee274c648ea0"},"vehicle_type_id":"4","last_reported":1750414307,"current_range_meters":20000,"station_id":"","pricing_plan_id":"cebpf4jnsgd1na2vs0mg"},{"bike_id":"e0fef64f-0009-4ccd-be40-789a4df52003","system_id":"levelo_inurba_marseille","lat":43.29913,"lon":5.37468,"is_reserved":false,"is_disabled":false,"rental_uris":{"android":"levelo://app?vid=e0fef64f-0009-4ccd-be40-789a4df52003","ios":"levelo://app?vid=e0fef64f-0009-4ccd-be40-789a4df52003"},"vehicle_type_id":"4","last_reported":1750414307,"current_range_meters":20000,"station_id":"ce4bgjh2rcd13ifvqbg0","pricing_plan_id":"cebpf4jnsgd1na2vs0mg"},{"bike_id":"c4fdb380-6def-485d-80e9-7964aa7f9475","system_id":"levelo_inurba_marseille","lat":43.30138,"lon":5.37415,"is_reserved":false,"is_disabled":false,"rental_uris":{"android":"levelo://app?vid=c4fdb380-6def-485d-80e9-7964aa7f9475","ios":"levelo://app?vid=c4fdb380-6def-485d-80e9-7964aa7f9475"},"vehicle_type_id":"4","last_reported":1750414307,"current_range_meters":20000,"station_id":"ce4bgs92rcd13ifvqcc0","pricing_plan_id":"cebpf4jnsgd1na2vs0mg"},{"bike_id":"870c0e41-4f8f-4255-8033-a12fb7a131b1","system_id":"levelo_inurba_marseille","lat":43.289316,"lon":5.366398,"is_reserved":false,"is_disabled":false,"rental_uris":{"android":"levelo://app?vid=870c0e41-4f8f-4255-8033-a12fb7a131b1","ios":"levelo://app?vid=870c0e41-4f8f-4255-8033-a12fb7a131b1"},"vehicle_type_id":"4","last_reported":1750414307,"current_range_meters":20000,"station_id":"ce4bhap2rcd13ifvqek0","pricing_plan_id":"cebpf4jnsgd1na2vs0mg"},{"bike_id":"96aaca26-ad7d-467f-9366-80b2956b4f5c","system_id":"levelo_inurba_marseille","lat":43.28418,"lon":5.34994,"is_reserved":false,"is_disabled":false,"rental_uris":{"android":"levelo://app?vid=96aaca26-ad7d-467f-9366-80b2956b4f5c","ios":"levelo://app?vid=96aaca26-ad7d-467f-9366-80b2956b4f5c"},"vehicle_type_id":"4","last_reported":1750414307,"current_range_meters":20000,"station_id":"ce4bhbh2rcd13ifvqepg","pricing_plan_id":"cebpf4jnsgd1na2vs0mg"},{"bike_id":"cb9a27b8-8ded-4391-82ed-d20a96edec3c","system_id":"levelo_inurba_marseille","lat":43.28266,"lon":5.35074,"is_reserved":false,"is_disabled":false,"rental_uris":{"android":"levelo://app?vid=cb9a27b8-8ded-4391-82ed-d20a96edec3c","ios":"levelo://app?vid=cb9a27b8-8ded-4391-82ed-d20a96edec3c"},"vehicle_type_id":"4","last_reported":1750414307,"current_range_meters":20000,"station_id":"ce4bhbp2rcd13ifvqerg","pricing_plan_id":"cebpf4jnsgd1na2vs0mg"},{"bike_id":"0f66942b-3823-4826-a629-1a1a7825eca6","system_id":"levelo_inurba_marseille","lat":43.24391,"lon":5.37062,"is_reserved":false,"is_disabled":false,"rental_uris":{"android":"levelo://app?vid=0f66942b-3823-4826-a629-1a1a7825eca6","ios":"levelo://app?vid=0f66942b-3823-4826-a629-1a1a7825eca6"},"vehicle_type_id":"4","last_reported":1750414307,"current_range_meters":20000,"station_id":"ce4bhhh2rcd13ifvqfk0","pricing_plan_id":"cebpf4jnsgd1na2vs0mg"},{"bike_id":"a415f653-194c-4a11-82bd-4283ee2e6b65","system_id":"levelo_inurba_marseille","lat":43.2795,"lon":5.41047,"is_reserved":false,"is_disabled":false,"rental_uris":{"android":"levelo://app?vid=a415f653-194c-4a11-82bd-4283ee2e6b65","ios":"levelo://app?vid=a415f653-194c-4a11-82bd-4283ee2e6b65"},"vehicle_type_id":"4","last_reported":1750414307,"current_range_meters":20000,"station_id":"ce4bhnp2rcd13ifvqh0g","pricing_plan_id":"cebpf4jnsgd1na2vs0mg"},{"bike_id":"904d9165-8a4c-4d2c-8705-df7457f3b83b","system_id":"levelo_inurba_marseille","lat":43.29898,"lon":5.43665,"is_reserved":false,"is_disabled":false,"rental_uris":{"android":"levelo://app?vid=904d9165-8a4c-4d2c-8705-df7457f3b83b","ios":"levelo://app?vid=904d9165-8a4c-4d2c-8705-df7457f3b83b"},"vehicle_type_id":"4","last_reported":1750414307,"current_range_meters":20000,"station_id":"ce4bhpp2rcd13ifvqhfg","pricing_plan_id":"cebpf4jnsgd1na2vs0mg"},{"bike_id":"6e576561-9329-4ce4-bbfc-332c94bfb4cc","system_id":"levelo_inurba_marseille","lat":43.326578,"lon":5.410014,"is_reserved":false,"is_disabled":false,"rental_uris":{"android":"levelo://app?vid=6e576561-9329-4ce4-bbfc-332c94bfb4cc","ios":"levelo://app?vid=6e576561-9329-4ce4-bbfc-332c94bfb4cc"},"vehicle_type_id":"4","last_reported":1750414307,"current_range_meters":20000,"station_id":"ce4bhpp2rcd13ifvqhgg","pricing_plan_id":"cebpf4jnsgd1na2vs0mg"},{"bike_id":"5187990f-0e38-4183-960c-3c6c679fb2e8","system_id":"levelo_inurba_marseille","lat":43.2119,"lon":5.35066,"is_reserved":false,"is_disabled":false,"rental_uris":{"android":"levelo://app?vid=5187990f-0e38-4183-960c-3c6c679fb2e8","ios":"levelo://app?vid=5187990f-0e38-4183-960c-3c6c679fb2e8"},"vehicle_type_id":"4","last_reported":1750414307,"current_range_meters":20000,"station_id":"st_cvj6sg6p6f1abm77japg","pricing_plan_id":"cebpf4jnsgd1na2vs0mg"},{"bike_id":"973db25f-144a-495b-98c4-15b4ae2dacd8","system_id":"levelo_inurba_marseille","lat":43.31317,"lon":5.37492,"is_reserved":false,"is_disabled":false,"rental_uris":{"android":"levelo://app?vid=973db25f-144a-495b-98c4-15b4ae2dacd8","ios":"levelo://app?vid=973db25f-144a-495b-98c4-15b4ae2dacd8"},"vehicle_type_id":"4","last_reported":1750414307,"current_range_meters":20400,"station_id":"","pricing_plan_id":"cebpf4jnsgd1na2vs0mg"},{"bike_id":"c44d4fa1-d6ae-48eb-b5c2-27606fc3e342","system_id":"levelo_inurba_marseille","lat":43.255262,"lon":5.376853,"is_reserved":false,"is_disabled":false,"rental_uris":{"android":"levelo://app?vid=c44d4fa1-d6ae-48eb-b5c2-27606fc3e342","ios":"levelo://app?vid=c44d4fa1-d6ae-48eb-b5c2-27606fc3e342"},"vehicle_type_id":"4","last_reported":1750414307,"current_range_meters":20400,"station_id":"ce4bhhh2rcd13ifvqfk0","pricing_plan_id":"cebpf4jnsgd1na2vs0mg"},{"bike_id":"86f956c2-95df-4c7d-b611-b5fe1121c754","system_id":"levelo_inurba_marseille","lat":43.2318,"lon":5.39985,"is_reserved":false,"is_disabled":false,"rental_uris":{"android":"levelo://app?vid=86f956c2-95df-4c7d-b611-b5fe1121c754","ios":"levelo://app?vid=86f956c2-95df-4c7d-b611-b5fe1121c754"},"vehicle_type_id":"4","last_reported":1750414307,"current_range_meters":20400,"station_id":"ce4bhn12rcd13ifvqgqg","pricing_plan_id":"cebpf4jnsgd1na2vs0mg"},{"bike_id":"869eb342-d622-4fca-847e-54f6bd095415","system_id":"levelo_inurba_marseille","lat":43.2781,"lon":5.4071,"is_reserved":false,"is_disabled":false,"rental_uris":{"android":"levelo://app?vid=869eb342-d622-4fca-847e-54f6bd095415","ios":"levelo://app?vid=869eb342-d622-4fca-847e-54f6bd095415"},"vehicle_type_id":"4","last_reported":1750414307,"current_range_meters":20400,"station_id":"ce4bhnh2rcd13ifvqgtg","pricing_plan_id":"cebpf4jnsgd1na2vs0mg"},{"bike_id":"eb9c1dce-670b-40ee-9ada-9c8fe5fab028","system_id":"levelo_inurba_marseille","lat":43.31997,"lon":5.38161,"is_reserved":false,"is_disabled":false,"rental_uris":{"android":"levelo://app?vid=eb9c1dce-670b-40ee-9ada-9c8fe5fab028","ios":"levelo://app?vid=eb9c1dce-670b-40ee-9ada-9c8fe5fab028"},"vehicle_type_id":"4","last_reported":1750414307,"current_range_meters":20400,"station_id":"ce4bhr12rcd13ifvqhpg","pricing_plan_id":"cebpf4jnsgd1na2vs0mg"},{"bike_id":"affcad44-9539-4f4a-b78e-b9371edebdbc","system_id":"levelo_inurba_marseille","lat":43.33024,"lon":5.39039,"is_reserved":false,"is_disabled":false,"rental_uris":{"android":"levelo://app?vid=affcad44-9539-4f4a-b78e-b9371edebdbc","ios":"levelo://app?vid=affcad44-9539-4f4a-b78e-b9371edebdbc"},"vehicle_type_id":"4","last_reported":1750414307,"current_range_meters":20400,"station_id":"ce4bhr92rcd13ifvqhrg","pricing_plan_id":"cebpf4jnsgd1na2vs0mg"},{"bike_id":"65490dbb-fb26-48b3-b1b6-17abf527e385","system_id":"levelo_inurba_marseille","lat":43.2417,"lon":5.36391,"is_reserved":false,"is_disabled":false,"rental_uris":{"android":"levelo://app?vid=65490dbb-fb26-48b3-b1b6-17abf527e385","ios":"levelo://app?vid=65490dbb-fb26-48b3-b1b6-17abf527e385"},"vehicle_type_id":"4","last_reported":1750414307,"current_range_meters":20400,"station_id":"cpo36qri1sfpv3e86is0","pricing_plan_id":"cebpf4jnsgd1na2vs0mg"},{"bike_id":"f40b14e2-3a68-45fd-9433-444c784b4081","system_id":"levelo_inurba_marseille","lat":43.2175,"lon":5.34603,"is_reserved":false,"is_disabled":false,"rental_uris":{"android":"levelo://app?vid=f40b14e2-3a68-45fd-9433-444c784b4081","ios":"levelo://app?vid=f40b14e2-3a68-45fd-9433-444c784b4081"},"vehicle_type_id":"4","last_reported":1750414307,"current_range_meters":20400,"station_id":"st_cvj6r9ubvosntc0bgbag","pricing_plan_id":"cebpf4jnsgd1na2vs0mg"},{"bike_id":"a9262345-195f-48e6-98ef-2cfccbcf3aaf","system_id":"levelo_inurba_marseille","lat":43.21752,"lon":5.34594,"is_reserved":false,"is_disabled":false,"rental_uris":{"android":"levelo://app?vid=a9262345-195f-48e6-98ef-2cfccbcf3aaf","ios":"levelo://app?vid=a9262345-195f-48e6-98ef-2cfccbcf3aaf"},"vehicle_type_id":"4","last_reported":1750414307,"current_range_meters":20800,"station_id":"","pricing_plan_id":"cebpf4jnsgd1na2vs0mg"},{"bike_id":"3a7c0469-2136-470d-88fe-e26df588b764","system_id":"levelo_inurba_marseille","lat":43.289612,"lon":5.366972,"is_reserved":false,"is_disabled":false,"rental_uris":{"android":"levelo://app?vid=3a7c0469-2136-470d-88fe-e26df588b764","ios":"levelo://app?vid=3a7c0469-2136-470d-88fe-e26df588b764"},"vehicle_type_id":"4","last_reported":1750414307,"current_range_meters":20800,"station_id":"ce4bhap2rcd13ifvqek0","pricing_plan_id":"cebpf4jnsgd1na2vs0mg"},{"bike_id":"a2956238-356f-4b7e-912e-c44e20d581be","system_id":"levelo_inurba_marseille","lat":43.26195,"lon":5.37445,"is_reserved":false,"is_disabled":false,"rental_uris":{"android":"levelo://app?vid=a2956238-356f-4b7e-912e-c44e20d581be","ios":"levelo://app?vid=a2956238-356f-4b7e-912e-c44e20d581be"},"vehicle_type_id":"4","last_reported":1750414307,"current_range_meters":20800,"station_id":"ce4bhgp2rcd13ifvqfc0","pricing_plan_id":"cebpf4jnsgd1na2vs0mg"},{"bike_id":"fe028141-ec10-407c-b18b-7873ca3fe803","system_id":"levelo_inurba_marseille","lat":43.27812,"lon":5.40709,"is_reserved":false,"is_disabled":false,"rental_uris":{"android":"levelo://app?vid=fe028141-ec10-407c-b18b-7873ca3fe803","ios":"levelo://app?vid=fe028141-ec10-407c-b18b-7873ca3fe803"},"vehicle_type_id":"4","last_reported":1750414307,"current_range_meters":20800,"station_id":"ce4bhnh2rcd13ifvqgtg","pricing_plan_id":"cebpf4jnsgd1na2vs0mg"},{"bike_id":"f20d9be8-f65a-4615-a334-097d875818ce","system_id":"levelo_inurba_marseille","lat":43.28924,"lon":5.37273,"is_reserved":false,"is_disabled":false,"rental_uris":{"android":"levelo://app?vid=f20d9be8-f65a-4615-a334-097d875818ce","ios":"levelo://app?vid=f20d9be8-f65a-4615-a334-097d875818ce"},"vehicle_type_id":"4","last_reported":1750414307,"current_range_meters":21600,"station_id":"","pricing_plan_id":"cebpf4jnsgd1na2vs0mg"},{"bike_id":"13849048-80e8-4191-a33b-29b3d60fdf73","system_id":"levelo_inurba_marseille","lat":43.33754,"lon":5.37469,"is_reserved":false,"is_disabled":false,"rental_uris":{"android":"levelo://app?vid=13849048-80e8-4191-a33b-29b3d60fdf73","ios":"levelo://app?vid=13849048-80e8-4191-a33b-29b3d60fdf73"},"vehicle_type_id":"4","last_reported":1750414307,"current_range_meters":21600,"station_id":"","pricing_plan_id":"cebpf4jnsgd1na2vs0mg"},{"bike_id":"4f4b33d8-cce6-4cb4-9f41-85e85b4bd724","system_id":"levelo_inurba_marseille","lat":43.30548,"lon":5.36541,"is_reserved":false,"is_disabled":false,"rental_uris":{"android":"levelo://app?vid=4f4b33d8-cce6-4cb4-9f41-85e85b4bd724","ios":"levelo://app?vid=4f4b33d8-cce6-4cb4-9f41-85e85b4bd724"},"vehicle_type_id":"4","last_reported":1750414307,"current_range_meters":21600,"station_id":"ce4bgs12rcd13ifvqcag","pricing_plan_id":"cebpf4jnsgd1na2vs0mg"},{"bike_id":"6d54e322-9fe5-46a4-8efc-00ee05f94464","system_id":"levelo_inurba_marseille","lat":43.30469,"lon":5.3791,"is_reserved":false,"is_disabled":false,"rental_uris":{"android":"levelo://app?vid=6d54e322-9fe5-46a4-8efc-00ee05f94464","ios":"levelo://app?vid=6d54e322-9fe5-46a4-8efc-00ee05f94464"},"vehicle_type_id":"4","last_reported":1750414307,"current_range_meters":21600,"station_id":"ce4bgup2rcd13ifvqcn0","pricing_plan_id":"cebpf4jnsgd1na2vs0mg"},{"bike_id":"8e739b9f-b96b-493e-92a9-f6a179e8782d","system_id":"levelo_inurba_marseille","lat":43.29174,"lon":5.37138,"is_reserved":false,"is_disabled":false,"rental_uris":{"android":"levelo://app?vid=8e739b9f-b96b-493e-92a9-f6a179e8782d","ios":"levelo://app?vid=8e739b9f-b96b-493e-92a9-f6a179e8782d"},"vehicle_type_id":"4","last_reported":1750414307,"current_range_meters":21600,"station_id":"ce4bha92rcd13ifvqeh0","pricing_plan_id":"cebpf4jnsgd1na2vs0mg"},{"bike_id":"f3a5f9ad-bbe7-4c73-94e1-fa2eaf681962","system_id":"levelo_inurba_marseille","lat":43.2842,"lon":5.34975,"is_reserved":false,"is_disabled":false,"rental_uris":{"android":"levelo://app?vid=f3a5f9ad-bbe7-4c73-94e1-fa2eaf681962","ios":"levelo://app?vid=f3a5f9ad-bbe7-4c73-94e1-fa2eaf681962"},"vehicle_type_id":"4","last_reported":1750414307,"current_range_meters":21600,"station_id":"ce4bhbh2rcd13ifvqepg","pricing_plan_id":"cebpf4jnsgd1na2vs0mg"},{"bike_id":"6641d6a1-ff7b-482b-a71d-2a87a2f96d7a","system_id":"levelo_inurba_marseille","lat":43.27944,"lon":5.41045,"is_reserved":false,"is_disabled":false,"rental_uris":{"android":"levelo://app?vid=6641d6a1-ff7b-482b-a71d-2a87a2f96d7a","ios":"levelo://app?vid=6641d6a1-ff7b-482b-a71d-2a87a2f96d7a"},"vehicle_type_id":"4","last_reported":1750414307,"current_range_meters":21600,"station_id":"ce4bhnp2rcd13ifvqh0g","pricing_plan_id":"cebpf4jnsgd1na2vs0mg"},{"bike_id":"afccd81b-4a46-4010-bec0-cc136e383a3c","system_id":"levelo_inurba_marseille","lat":43.299591,"lon":5.413227,"is_reserved":false,"is_disabled":false,"rental_uris":{"android":"levelo://app?vid=afccd81b-4a46-4010-bec0-cc136e383a3c","ios":"levelo://app?vid=afccd81b-4a46-4010-bec0-cc136e383a3c"},"vehicle_type_id":"4","last_reported":1750414307,"current_range_meters":21600,"station_id":"ce4bhp12rcd13ifvqh9g","pricing_plan_id":"cebpf4jnsgd1na2vs0mg"},{"bike_id":"7a84d8de-3af3-4cbb-a240-b3e0a51fcc5e","system_id":"levelo_inurba_marseille","lat":43.32657,"lon":5.4099,"is_reserved":false,"is_disabled":false,"rental_uris":{"android":"levelo://app?vid=7a84d8de-3af3-4cbb-a240-b3e0a51fcc5e","ios":"levelo://app?vid=7a84d8de-3af3-4cbb-a240-b3e0a51fcc5e"},"vehicle_type_id":"4","last_reported":1750414307,"current_range_meters":21600,"station_id":"ce4bhpp2rcd13ifvqhgg","pricing_plan_id":"cebpf4jnsgd1na2vs0mg"},{"bike_id":"6fbb6f59-3f2e-431c-9beb-13cc45f9dff3","system_id":"levelo_inurba_marseille","lat":43.23196,"lon":5.3555,"is_reserved":false,"is_disabled":false,"rental_uris":{"android":"levelo://app?vid=6fbb6f59-3f2e-431c-9beb-13cc45f9dff3","ios":"levelo://app?vid=6fbb6f59-3f2e-431c-9beb-13cc45f9dff3"},"vehicle_type_id":"4","last_reported":1750414307,"current_range_meters":21600,"station_id":"ce4bhu92rcd13ifvqi70","pricing_plan_id":"cebpf4jnsgd1na2vs0mg"},{"bike_id":"1c4a3c9d-5ced-4357-a51d-2da84d1dad25","system_id":"levelo_inurba_marseille","lat":43.337444,"lon":5.374475,"is_reserved":false,"is_disabled":false,"rental_uris":{"android":"levelo://app?vid=1c4a3c9d-5ced-4357-a51d-2da84d1dad25","ios":"levelo://app?vid=1c4a3c9d-5ced-4357-a51d-2da84d1dad25"},"vehicle_type_id":"4","last_reported":1750414307,"current_range_meters":22000,"station_id":"","pricing_plan_id":"cebpf4jnsgd1na2vs0mg"},{"bike_id":"2a93dca3-0cba-4145-8f4f-26bee34f67b8","system_id":"levelo_inurba_marseille","lat":43.295715,"lon":5.375247,"is_reserved":false,"is_disabled":false,"rental_uris":{"android":"levelo://app?vid=2a93dca3-0cba-4145-8f4f-26bee34f67b8","ios":"levelo://app?vid=2a93dca3-0cba-4145-8f4f-26bee34f67b8"},"vehicle_type_id":"4","last_reported":1750414307,"current_range_meters":22000,"station_id":"ce4bgh92rcd13ifvqb50","pricing_plan_id":"cebpf4jnsgd1na2vs0mg"},{"bike_id":"1459dc2a-96eb-4048-ae1a-9b3491e0180e","system_id":"levelo_inurba_marseille","lat":43.29607,"lon":5.38087,"is_reserved":false,"is_disabled":false,"rental_uris":{"android":"levelo://app?vid=1459dc2a-96eb-4048-ae1a-9b3491e0180e","ios":"levelo://app?vid=1459dc2a-96eb-4048-ae1a-9b3491e0180e"},"vehicle_type_id":"4","last_reported":1750414307,"current_range_meters":22000,"station_id":"ce4bgl12rcd13ifvqbo0","pricing_plan_id":"cebpf4jnsgd1na2vs0mg"},{"bike_id":"0d4caf9d-5c97-4d0d-8d85-1425bf3ca0d5","system_id":"levelo_inurba_marseille","lat":43.2972,"lon":5.36608,"is_reserved":false,"is_disabled":false,"rental_uris":{"android":"levelo://app?vid=0d4caf9d-5c97-4d0d-8d85-1425bf3ca0d5","ios":"levelo://app?vid=0d4caf9d-5c97-4d0d-8d85-1425bf3ca0d5"},"vehicle_type_id":"4","last_reported":1750414307,"current_range_meters":22000,"station_id":"ce4bgn12rcd13ifvqbt0","pricing_plan_id":"cebpf4jnsgd1na2vs0mg"},{"bike_id":"1a116009-03a4-4548-bc25-02c8ab6e38f2","system_id":"levelo_inurba_marseille","lat":43.30529,"lon":5.36693,"is_reserved":false,"is_disabled":false,"rental_uris":{"android":"levelo://app?vid=1a116009-03a4-4548-bc25-02c8ab6e38f2","ios":"levelo://app?vid=1a116009-03a4-4548-bc25-02c8ab6e38f2"},"vehicle_type_id":"4","last_reported":1750414307,"current_range_meters":22000,"station_id":"ce4bgrp2rcd13ifvqc9g","pricing_plan_id":"cebpf4jnsgd1na2vs0mg"},{"bike_id":"a6b0b430-0398-474d-a5dc-a7d5e967381b","system_id":"levelo_inurba_marseille","lat":43.31521,"lon":5.37295,"is_reserved":false,"is_disabled":false,"rental_uris":{"android":"levelo://app?vid=a6b0b430-0398-474d-a5dc-a7d5e967381b","ios":"levelo://app?vid=a6b0b430-0398-474d-a5dc-a7d5e967381b"},"vehicle_type_id":"4","last_reported":1750414307,"current_range_meters":22000,"station_id":"ce4bgt12rcd13ifvqcd0","pricing_plan_id":"cebpf4jnsgd1na2vs0mg"},{"bike_id":"ee683851-331f-4822-90b2-31b8f67d3f5b","system_id":"levelo_inurba_marseille","lat":43.29426,"lon":5.38622,"is_reserved":false,"is_disabled":false,"rental_uris":{"android":"levelo://app?vid=ee683851-331f-4822-90b2-31b8f67d3f5b","ios":"levelo://app?vid=ee683851-331f-4822-90b2-31b8f67d3f5b"},"vehicle_type_id":"4","last_reported":1750414307,"current_range_meters":22000,"station_id":"ce4bh2h2rcd13ifvqdh0","pricing_plan_id":"cebpf4jnsgd1na2vs0mg"},{"bike_id":"697fae8b-1c99-4c93-a3ae-367cb9dd558a","system_id":"levelo_inurba_marseille","lat":43.28858,"lon":5.35849,"is_reserved":false,"is_disabled":false,"rental_uris":{"android":"levelo://app?vid=697fae8b-1c99-4c93-a3ae-367cb9dd558a","ios":"levelo://app?vid=697fae8b-1c99-4c93-a3ae-367cb9dd558a"},"vehicle_type_id":"4","last_reported":1750414307,"current_range_meters":22000,"station_id":"ce4bhb12rcd13ifvqem0","pricing_plan_id":"cebpf4jnsgd1na2vs0mg"},{"bike_id":"b9486121-2858-43fa-bc4e-f0a501c90870","system_id":"levelo_inurba_marseille","lat":43.30531,"lon":5.38414,"is_reserved":false,"is_disabled":false,"rental_uris":{"android":"levelo://app?vid=b9486121-2858-43fa-bc4e-f0a501c90870","ios":"levelo://app?vid=b9486121-2858-43fa-bc4e-f0a501c90870"},"vehicle_type_id":"4","last_reported":1750414307,"current_range_meters":22400,"station_id":"ce4bgg92rcd13ifvqb30","pricing_plan_id":"cebpf4jnsgd1na2vs0mg"},{"bike_id":"85c4b35a-5487-4018-b418-40941cfe14cf","system_id":"levelo_inurba_marseille","lat":43.29943,"lon":5.36527,"is_reserved":false,"is_disabled":false,"rental_uris":{"android":"levelo://app?vid=85c4b35a-5487-4018-b418-40941cfe14cf","ios":"levelo://app?vid=85c4b35a-5487-4018-b418-40941cfe14cf"},"vehicle_type_id":"4","last_reported":1750414307,"current_range_meters":22400,"station_id":"ce4bgm92rcd13ifvqbr0","pricing_plan_id":"cebpf4jnsgd1na2vs0mg"},{"bike_id":"d5f8dec4-8010-45e0-ba9f-ba80bf89c565","system_id":"levelo_inurba_marseille","lat":43.30516,"lon":5.36704,"is_reserved":false,"is_disabled":false,"rental_uris":{"android":"levelo://app?vid=d5f8dec4-8010-45e0-ba9f-ba80bf89c565","ios":"levelo://app?vid=d5f8dec4-8010-45e0-ba9f-ba80bf89c565"},"vehicle_type_id":"4","last_reported":1750414307,"current_range_meters":22400,"station_id":"ce4bgrp2rcd13ifvqc9g","pricing_plan_id":"cebpf4jnsgd1na2vs0mg"},{"bike_id":"bd90527e-71a6-4403-9929-effde85198c0","system_id":"levelo_inurba_marseille","lat":43.27328,"lon":5.39108,"is_reserved":false,"is_disabled":false,"rental_uris":{"android":"levelo://app?vid=bd90527e-71a6-4403-9929-effde85198c0","ios":"levelo://app?vid=bd90527e-71a6-4403-9929-effde85198c0"},"vehicle_type_id":"4","last_reported":1750414307,"current_range_meters":22400,"station_id":"ce4bhgp2rcd13ifvqfe0","pricing_plan_id":"cebpf4jnsgd1na2vs0mg"},{"bike_id":"b3c403d1-b04b-4c6f-9171-8101d3df2718","system_id":"levelo_inurba_marseille","lat":43.25934,"lon":5.40902,"is_reserved":false,"is_disabled":false,"rental_uris":{"android":"levelo://app?vid=b3c403d1-b04b-4c6f-9171-8101d3df2718","ios":"levelo://app?vid=b3c403d1-b04b-4c6f-9171-8101d3df2718"},"vehicle_type_id":"4","last_reported":1750414307,"current_range_meters":22400,"station_id":"ce4bhm92rcd13ifvqglg","pricing_plan_id":"cebpf4jnsgd1na2vs0mg"},{"bike_id":"76c709c1-6a3a-46f5-aca4-831bb7aa05e3","system_id":"levelo_inurba_marseille","lat":43.24076,"lon":5.37756,"is_reserved":false,"is_disabled":false,"rental_uris":{"android":"levelo://app?vid=76c709c1-6a3a-46f5-aca4-831bb7aa05e3","ios":"levelo://app?vid=76c709c1-6a3a-46f5-aca4-831bb7aa05e3"},"vehicle_type_id":"4","last_reported":1750414307,"current_range_meters":22400,"station_id":"ce4bhnp2rcd13ifvqgvg","pricing_plan_id":"cebpf4jnsgd1na2vs0mg"},{"bike_id":"7d0c0c08-4471-412c-ab8a-ae5ed149c56c","system_id":"levelo_inurba_marseille","lat":43.2407,"lon":5.37765,"is_reserved":false,"is_disabled":false,"rental_uris":{"android":"levelo://app?vid=7d0c0c08-4471-412c-ab8a-ae5ed149c56c","ios":"levelo://app?vid=7d0c0c08-4471-412c-ab8a-ae5ed149c56c"},"vehicle_type_id":"4","last_reported":1750414307,"current_range_meters":22400,"station_id":"ce4bhnp2rcd13ifvqgvg","pricing_plan_id":"cebpf4jnsgd1na2vs0mg"},{"bike_id":"bcfd2f42-7435-487e-9833-3418faffdd26","system_id":"levelo_inurba_marseille","lat":43.320487,"lon":5.41543,"is_reserved":false,"is_disabled":false,"rental_uris":{"android":"levelo://app?vid=bcfd2f42-7435-487e-9833-3418faffdd26","ios":"levelo://app?vid=bcfd2f42-7435-487e-9833-3418faffdd26"},"vehicle_type_id":"4","last_reported":1750414307,"current_range_meters":22400,"station_id":"ce4bhq92rcd13ifvqhkg","pricing_plan_id":"cebpf4jnsgd1na2vs0mg"},{"bike_id":"42da1a29-a4b2-4ace-a74b-2afe8132518e","system_id":"levelo_inurba_marseille","lat":43.23193,"lon":5.35547,"is_reserved":false,"is_disabled":false,"rental_uris":{"android":"levelo://app?vid=42da1a29-a4b2-4ace-a74b-2afe8132518e","ios":"levelo://app?vid=42da1a29-a4b2-4ace-a74b-2afe8132518e"},"vehicle_type_id":"4","last_reported":1750414307,"current_range_meters":22400,"station_id":"ce4bhu92rcd13ifvqi70","pricing_plan_id":"cebpf4jnsgd1na2vs0mg"},{"bike_id":"293d8174-2296-4d5e-9c88-74298dc1592b","system_id":"levelo_inurba_marseille","lat":43.329317,"lon":5.409783,"is_reserved":false,"is_disabled":false,"rental_uris":{"android":"levelo://app?vid=293d8174-2296-4d5e-9c88-74298dc1592b","ios":"levelo://app?vid=293d8174-2296-4d5e-9c88-74298dc1592b"},"vehicle_type_id":"4","last_reported":1750414307,"current_range_meters":22800,"station_id":"","pricing_plan_id":"cebpf4jnsgd1na2vs0mg"},{"bike_id":"97b9fc6d-1f41-4128-8553-e5ce26e05d42","system_id":"levelo_inurba_marseille","lat":43.31427,"lon":5.37333,"is_reserved":false,"is_disabled":false,"rental_uris":{"android":"levelo://app?vid=97b9fc6d-1f41-4128-8553-e5ce26e05d42","ios":"levelo://app?vid=97b9fc6d-1f41-4128-8553-e5ce26e05d42"},"vehicle_type_id":"4","last_reported":1750414307,"current_range_meters":22800,"station_id":"","pricing_plan_id":"cebpf4jnsgd1na2vs0mg"},{"bike_id":"6d33beda-f0aa-43bd-ab12-813e8ed83ca0","system_id":"levelo_inurba_marseille","lat":43.29719,"lon":5.3768,"is_reserved":false,"is_disabled":false,"rental_uris":{"android":"levelo://app?vid=6d33beda-f0aa-43bd-ab12-813e8ed83ca0","ios":"levelo://app?vid=6d33beda-f0aa-43bd-ab12-813e8ed83ca0"},"vehicle_type_id":"4","last_reported":1750414307,"current_range_meters":22800,"station_id":"ce4bgkh2rcd13ifvqbl0","pricing_plan_id":"cebpf4jnsgd1na2vs0mg"},{"bike_id":"a9ecbcf2-f885-44ca-8329-a931e3ae95c3","system_id":"levelo_inurba_marseille","lat":43.31491,"lon":5.37312,"is_reserved":false,"is_disabled":false,"rental_uris":{"android":"levelo://app?vid=a9ecbcf2-f885-44ca-8329-a931e3ae95c3","ios":"levelo://app?vid=a9ecbcf2-f885-44ca-8329-a931e3ae95c3"},"vehicle_type_id":"4","last_reported":1750414307,"current_range_meters":22800,"station_id":"ce4bgt12rcd13ifvqcd0","pricing_plan_id":"cebpf4jnsgd1na2vs0mg"},{"bike_id":"bdf36c13-0be8-494f-91fd-41a1a27f7f45","system_id":"levelo_inurba_marseille","lat":43.28854,"lon":5.35846,"is_reserved":false,"is_disabled":false,"rental_uris":{"android":"levelo://app?vid=bdf36c13-0be8-494f-91fd-41a1a27f7f45","ios":"levelo://app?vid=bdf36c13-0be8-494f-91fd-41a1a27f7f45"},"vehicle_type_id":"4","last_reported":1750414307,"current_range_meters":22800,"station_id":"ce4bhb12rcd13ifvqem0","pricing_plan_id":"cebpf4jnsgd1na2vs0mg"},{"bike_id":"6001e1ca-b631-4a5a-8816-9e60a33ba352","system_id":"levelo_inurba_marseille","lat":43.26582,"lon":5.39043,"is_reserved":false,"is_disabled":false,"rental_uris":{"android":"levelo://app?vid=6001e1ca-b631-4a5a-8816-9e60a33ba352","ios":"levelo://app?vid=6001e1ca-b631-4a5a-8816-9e60a33ba352"},"vehicle_type_id":"4","last_reported":1750414307,"current_range_meters":22800,"station_id":"ce4bhe12rcd13ifvqf30","pricing_plan_id":"cebpf4jnsgd1na2vs0mg"},