{"last_updated":1691200358,"ttl":30,"version":"2.2","data":{"bikes":[{"bike_id":"1fd536f9-265c-4a20-b39a-fd00e40c64e6","system_id":"levelo_inurba_marseille","lat":43.309076,"lon":5.368465,"is_reserved":false,"is_disabled":false,"rental_uris":{"android":"levelo://app?vid=1fd536f9-265c-4a20-b39a-fd00e40c64e6","ios":"levelo://app?vid=1fd536f9-265c-4a20-b39a-fd00e40c64e6"},"vehicle_type_id":"4","last_reported":1691200358,"current_range_meters":28400,"station_id":"ce4bgn92rcd13ifvqbvg","pricing_plan_id":"free"},{"bike_id":"1521de8a-e32d-4564-ab8f-4935933a745c","system_id":"levelo_inurba_marseille","lat":43.314811,"lon":5.373103,"is_reserved":false,"is_disabled":false,"rental_uris":{"android":"levelo://app?vid=1521de8a-e32d-4564-ab8f-4935933a745c","ios":"levelo://app?vid=1521de8a-e32d-4564-ab8f-4935933a745c"},"vehicle_type_id":"4","last_reported":1691200358,"current_range_meters":31600,"station_id":"ce4bgt12rcd13ifvqcd0","pricing_plan_id":"free"},{"bike_id":"c88636d5-b3bf-4624-81dc-1663d3051530","system_id":"levelo_inurba_marseille","lat":43.314811,"lon":5.373103,"is_reserved":false,"is_disabled":false,"rental_uris":{"android":"levelo://app?vid=c88636d5-b3bf-4624-81dc-1663d3051530","ios":"levelo://app?vid=c88636d5-b3bf-4624-81dc-1663d3051530"},"vehicle_type_id":"4","last_reported":1691200358,"current_range_meters":31200,"station_id":"ce4bgt12rcd13ifvqcd0","pricing_plan_id":"free"},{"bike_id":"a299ba15-f884-4290-8270-7c14ab7527f0","system_id":"levelo_inurba_marseille","lat":43.314811,"lon":5.373103,"is_reserved":false,"is_disabled":false,"rental_uris":{"android":"levelo://app?vid=a299ba15-f884-4290-8270-7c14ab7527f0","ios":"levelo://app?vid=a299ba15-f884-4290-8270-7c14ab7527f0"},"vehicle_type_id":"4","last_reported":1691200358,"current_range_meters":30800,"station_id":"ce4bgt12rcd13ifvqcd0","pricing_plan_id":"free"},{"bike_id":"56fdc340-d753-427d-a24c-fc3677aaa66b","system_id":"levelo_inurba_marseille","lat":43.314811,"lon":5.373103,"is_reserved":false,"is_disabled":false,"rental_uris":{"android":"levelo://app?vid=56fdc340-d753-427d-a24c-fc3677aaa66b","ios":"levelo://app?vid=56fdc340-d753-427d-a24c-fc3677aaa66b"},"vehicle_type_id":"4","last_reported":1691200358,"current_range_meters":28400,"station_id":"ce4bgt12rcd13ifvqcd0","pricing_plan_id":"free"},{"bike_id":"3af87ad2-8b76-4d09-87c6-e90c8a768b95","system_id":"levelo_inurba_marseille","lat":43.314811,"lon":5.373103,"is_reserved":false,"is_disabled":false,"rental_uris":{"android":"levelo://app?vid=3af87ad2-8b76-4d09-87c6-e90c8a768b95","ios":"levelo://app?vid=3af87ad2-8b76-4d09-87c6-e90c8a768b95"},"vehicle_type_id":"4","last_reported":1691200358,"current_range_meters":29200,"station_id":"ce4bgt12rcd13ifvqcd0","pricing_plan_id":"free"},{"bike_id":"45a1094c-c45d-4c9f-8273-d8705a5ebcbb","system_id":"levelo_inurba_marseille","lat":43.314811,"lon":5.373103,"is_reserved":false,"is_disabled":false,"rental_uris":{"android":"levelo://app?vid=45a1094c-c45d-4c9f-8273-d8705a5ebcbb","ios":"levelo://app?vid=45a1094c-c45d-4c9f-8273-d8705a5ebcbb"},"vehicle_type_id":"4","last_reported":1691200358,"current_range_meters":24400,"station_id":"ce4bgt12rcd13ifvqcd0","pricing_plan_id":"free"},{"bike_id":"b1305321-24de-4b74-b65d-da747e83853b","system_id":"levelo_inurba_marseille","lat":43.31486,"lon":5.37312,"is_reserved":false,"is_disabled":false,"rental_uris":{"android":"levelo://app?vid=b1305321-24de-4b74-b65d-da747e83853b","ios":"levelo://app?vid=b1305321-24de-4b74-b65d-da747e83853b"},"vehicle_type_id":"4","last_reported":1691200358,"current_range_meters":7600,"station_id":"ce4bgt12rcd13ifvqcd0","pricing_plan_id":"free"},{"bike_id":"58f584a7-a89d-433f-a2f7-8ab65a6231fe","system_id":"levelo_inurba_marseille","lat":43.314811,"lon":5.373103,"is_reserved":false,"is_disabled":false,"rental_uris":{"android":"levelo://app?vid=58f584a7-a89d-433f-a2f7-8ab65a6231fe","ios":"levelo://app?vid=58f584a7-a89d-433f-a2f7-8ab65a6231fe"},"vehicle_type_id":"4","last_reported":1691200358,"current_range_meters":29600,"station_id":"ce4bgt12rcd13ifvqcd0","pricing_plan_id":"free"},{"bike_id":"84c2a162-559a-4aef-854b-45ee046c39c1","system_id":"levelo_inurba_marseille","lat":43.314811,"lon":5.373104,"is_reserved":false,"is_disabled":false,"rental_uris":{"android":"levelo://app?vid=84c2a162-559a-4aef-854b-45ee046c39c1","ios":"levelo://app?vid=84c2a162-559a-4aef-854b-45ee046c39c1"},"vehicle_type_id":"4","last_reported":1691200358,"current_range_meters":30000,"station_id":"ce4bgt12rcd13ifvqcd0","pricing_plan_id":"free"},{"bike_id":"feaf43a5-6d82-4938-8e81-696b6e237efc","system_id":"levelo_inurba_marseille","lat":43.314811,"lon":5.373104,"is_reserved":false,"is_disabled":false,"rental_uris":{"android":"levelo://app?vid=feaf43a5-6d82-4938-8e81-696b6e237efc","ios":"levelo://app?vid=feaf43a5-6d82-4938-8e81-696b6e237efc"},"vehicle_type_id":"4","last_reported":1691200358,"current_range_meters":31200,"station_id":"ce4bgt12rcd13ifvqcd0","pricing_plan_id":"free"},{"bike_id":"76dcc736-bc34-42cd-b674-0df565540a86","system_id":"levelo_inurba_marseille","lat":43.31494,"lon":5.37308,"is_reserved":false,"is_disabled":false,"rental_uris":{"android":"levelo://app?vid=76dcc736-bc34-42cd-b674-0df565540a86","ios":"levelo://app?vid=76dcc736-bc34-42cd-b674-0df565540a86"},"vehicle_type_id":"4","last_reported":1691200358,"current_range_meters":31200,"station_id":"ce4bgt12rcd13ifvqcd0","pricing_plan_id":"free"},{"bike_id":"324823a4-6eda-470c-ac62-93597ac6af4c","system_id":"levelo_inurba_marseille","lat":43.314811,"lon":5.373104,"is_reserved":false,"is_disabled":false,"rental_uris":{"android":"levelo://app?vid=324823a4-6eda-470c-ac62-93597ac6af4c","ios":"levelo://app?vid=324823a4-6eda-470c-ac62-93597ac6af4c"},"vehicle_type_id":"4","last_reported":1691200358,"current_range_meters":28000,"station_id":"ce4bgt12rcd13ifvqcd0","pricing_plan_id":"free"},{"bike_id":"c1f33533-f14a-4915-8e48-9f95c7e54c6f","system_id":"levelo_inurba_marseille","lat":43.314811,"lon":5.373103,"is_reserved":false,"is_disabled":false,"rental_uris":{"android":"levelo://app?vid=c1f33533-f14a-4915-8e48-9f95c7e54c6f","ios":"levelo://app?vid=c1f33533-f14a-4915-8e48-9f95c7e54c6f"},"vehicle_type_id":"4","last_reported":1691200358,"current_range_meters":7600,"station_id":"ce4bgt12rcd13ifvqcd0","pricing_plan_id":"free"},{"bike_id":"2421a7f8-0864-430b-944a-b889acddd5a4","system_id":"levelo_inurba_marseille","lat":43.314811,"lon":5.373103,"is_reserved":false,"is_disabled":false,"rental_uris":{"android":"levelo://app?vid=2421a7f8-0864-430b-944a-b889acddd5a4","ios":"levelo://app?vid=2421a7f8-0864-430b-944a-b889acddd5a4"},"vehicle_type_id":"4","last_reported":1691200358,"current_range_meters":31200,"station_id":"ce4bgt12rcd13ifvqcd0","pricing_plan_id":"free"},{"bike_id":"cede92fa-c9f6-4aa3-926b-00de6cad2891","system_id":"levelo_inurba_marseille","lat":43.314811,"lon":5.373103,"is_reserved":false,"is_disabled":false,"rental_uris":{"android":"levelo://app?vid=cede92fa-c9f6-4aa3-926b-00de6cad2891","ios":"levelo://app?vid=cede92fa-c9f6-4aa3-926b-00de6cad2891"},"vehicle_type_id":"4","last_reported":1691200358,"current_range_meters":8000,"station_id":"ce4bgt12rcd13ifvqcd0","pricing_plan_id":"free"},{"bike_id":"29aae143-753c-4b05-ac5a-5a4a4e99bf43","system_id":"levelo_inurba_marseille","lat":43.314811,"lon":5.373104,"is_reserved":false,"is_disabled":false,"rental_uris":{"android":"levelo://app?vid=29aae143-753c-4b05-ac5a-5a4a4e99bf43","ios":"levelo://app?vid=29aae143-753c-4b05-ac5a-5a4a4e99bf43"},"vehicle_type_id":"4","last_reported":1691200358,"current_range_meters":31200,"station_id":"ce4bgt12rcd13ifvqcd0","pricing_plan_id":"free"},{"bike_id":"861a1ad0-e7e6-4efe-b817-f448dc5129b9","system_id":"levelo_inurba_marseille","lat":43.31502,"lon":5.37308,"is_reserved":false,"is_disabled":false,"rental_uris":{"android":"levelo://app?vid=861a1ad0-e7e6-4efe-b817-f448dc5129b9","ios":"levelo://app?vid=861a1ad0-e7e6-4efe-b817-f448dc5129b9"},"vehicle_type_id":"4","last_reported":1691200358,"current_range_meters":30800,"station_id":"ce4bgt12rcd13ifvqcd0","pricing_plan_id":"free"},{"bike_id":"3ea8d4fb-45b9-4a57-9237-375fddd023fb","system_id":"levelo_inurba_marseille","lat":43.309039,"lon":5.371797,"is_reserved":false,"is_disabled":false,"rental_uris":{"android":"levelo://app?vid=3ea8d4fb-45b9-4a57-9237-375fddd023fb","ios":"levelo://app?vid=3ea8d4fb-45b9-4a57-9237-375fddd023fb"},"vehicle_type_id":"4","last_reported":1691200358,"current_range_meters":30000,"station_id":"ce4bguh2rcd13ifvqckg","pricing_plan_id":"free"},{"bike_id":"7cfb81a3-fd7f-41d1-987d-c1037b7c6b4a","system_id":"levelo_inurba_marseille","lat":43.31423,"lon":5.37433,"is_reserved":false,"is_disabled":false,"rental_uris":{"android":"levelo://app?vid=7cfb81a3-fd7f-41d1-987d-c1037b7c6b4a","ios":"levelo://app?vid=7cfb81a3-fd7f-41d1-987d-c1037b7c6b4a"},"vehicle_type_id":"4","last_reported":1691200358,"current_range_meters":15200,"station_id":"","pricing_plan_id":"free"},{"bike_id":"4f72fe6b-ba76-4303-9e4a-e906dcb820d4","system_id":"levelo_inurba_marseille","lat":43.305989,"lon":5.37225,"is_reserved":false,"is_disabled":false,"rental_uris":{"android":"levelo://app?vid=4f72fe6b-ba76-4303-9e4a-e906dcb820d4","ios":"levelo://app?vid=4f72fe6b-ba76-4303-9e4a-e906dcb820d4"},"vehicle_type_id":"4","last_reported":1691200358,"current_range_meters":16000,"station_id":"ce4bgqh2rcd13ifvqc4g","pricing_plan_id":"free"},{"bike_id":"f20ea888-8740-440b-bfeb-8eb2a7c1f652","system_id":"levelo_inurba_marseille","lat":43.305989,"lon":5.37225,"is_reserved":false,"is_disabled":false,"rental_uris":{"android":"levelo://app?vid=f20ea888-8740-440b-bfeb-8eb2a7c1f652","ios":"levelo://app?vid=f20ea888-8740-440b-bfeb-8eb2a7c1f652"},"vehicle_type_id":"4","last_reported":1691200358,"current_range_meters":30400,"station_id":"ce4bgqh2rcd13ifvqc4g","pricing_plan_id":"free"},{"bike_id":"3caa8973-5e65-4475-bcc5-969b36733a6a","system_id":"levelo_inurba_marseille","lat":43.305989,"lon":5.37225,"is_reserved":false,"is_disabled":false,"rental_uris":{"android":"levelo://app?vid=3caa8973-5e65-4475-bcc5-969b36733a6a","ios":"levelo://app?vid=3caa8973-5e65-4475-bcc5-969b36733a6a"},"vehicle_type_id":"4","last_reported":1691200358,"current_range_meters":31200,"station_id":"ce4bgqh2rcd13ifvqc4g","pricing_plan_id":"free"},{"bike_id":"3f089fc2-9f38-469a-9aab-f6f9feabdfd4","system_id":"levelo_inurba_marseille","lat":43.305989,"lon":5.37225,"is_reserved":false,"is_disabled":false,"rental_uris":{"android":"levelo://app?vid=3f089fc2-9f38-469a-9aab-f6f9feabdfd4","ios":"levelo://app?vid=3f089fc2-9f38-469a-9aab-f6f9feabdfd4"},"vehicle_type_id":"4","last_reported":1691200358,"current_range_meters":31200,"station_id":"ce4bgqh2rcd13ifvqc4g","pricing_plan_id":"free"},{"bike_id":"a3f8e265-d93f-4a72-b1f2-2b54a0361de7","system_id":"levelo_inurba_marseille","lat":43.305989,"lon":5.37225,"is_reserved":false,"is_disabled":false,"rental_uris":{"android":"levelo://app?vid=a3f8e265-d93f-4a72-b1f2-2b54a0361de7","ios":"levelo://app?vid=a3f8e265-d93f-4a72-b1f2-2b54a0361de7"},"vehicle_type_id":"4","last_reported":1691200358,"current_range_meters":29200,"station_id":"ce4bgqh2rcd13ifvqc4g","pricing_plan_id":"free"},{"bike_id":"925c20c1-bfc3-4ec5-860d-a47d64d924bb","system_id":"levelo_inurba_marseille","lat":43.305989,"lon":5.37225,"is_reserved":false,"is_disabled":false,"rental_uris":{"android":"levelo://app?vid=925c20c1-bfc3-4ec5-860d-a47d64d924bb","ios":"levelo://app?vid=925c20c1-bfc3-4ec5-860d-a47d64d924bb"},"vehicle_type_id":"4","last_reported":1691200358,"current_range_meters":29600,"station_id":"ce4bgqh2rcd13ifvqc4g","pricing_plan_id":"free"},{"bike_id":"d168a8ec-6ffc-47ac-9629-2240987bcf88","system_id":"levelo_inurba_marseille","lat":43.305989,"lon":5.37225,"is_reserved":false,"is_disabled":false,"rental_uris":{"android":"levelo://app?vid=d168a8ec-6ffc-47ac-9629-2240987bcf88","ios":"levelo://app?vid=d168a8ec-6ffc-47ac-9629-2240987bcf88"},"vehicle_type_id":"4","last_reported":1691200358,"current_range_meters":18800,"station_id":"ce4bgqh2rcd13ifvqc4g","pricing_plan_id":"free"},{"bike_id":"58fa69bf-33ca-4e29-ae23-24a7772caa63","system_id":"levelo_inurba_marseille","lat":43.311131,"lon":5.377651,"is_reserved":false,"is_disabled":false,"rental_uris":{"android":"levelo://app?vid=58fa69bf-33ca-4e29-ae23-24a7772caa63","ios":"levelo://app?vid=58fa69bf-33ca-4e29-ae23-24a7772caa63"},"vehicle_type_id":"4","last_reported":1691200358,"current_range_meters":27200,"station_id":"ce4bgt92rcd13ifvqcg0","pricing_plan_id":"free"},{"bike_id":"96ff8303-d79f-4028-83c1-faeedc4c59c8","system_id":"levelo_inurba_marseille","lat":43.311131,"lon":5.377651,"is_reserved":false,"is_disabled":false,"rental_uris":{"android":"levelo://app?vid=96ff8303-d79f-4028-83c1-faeedc4c59c8","ios":"levelo://app?vid=96ff8303-d79f-4028-83c1-faeedc4c59c8"},"vehicle_type_id":"4","last_reported":1691200358,"current_range_meters":27200,"station_id":"ce4bgt92rcd13ifvqcg0","pricing_plan_id":"free"},{"bike_id":"53ee001c-c7b3-4d4c-93c4-ade2c777db79","system_id":"levelo_inurba_marseille","lat":43.31114,"lon":5.37775,"is_reserved":false,"is_disabled":false,"rental_uris":{"android":"levelo://app?vid=53ee001c-c7b3-4d4c-93c4-ade2c777db79","ios":"levelo://app?vid=53ee001c-c7b3-4d4c-93c4-ade2c777db79"},"vehicle_type_id":"4","last_reported":1691200358,"current_range_meters":18000,"station_id":"ce4bgt92rcd13ifvqcg0","pricing_plan_id":"free"},{"bike_id":"ee4043ab-c710-4033-9789-b9c939816ac8","system_id":"levelo_inurba_marseille","lat":43.307945,"lon":5.376487,"is_reserved":false,"is_disabled":false,"rental_uris":{"android":"levelo://app?vid=ee4043ab-c710-4033-9789-b9c939816ac8","ios":"levelo://app?vid=ee4043ab-c710-4033-9789-b9c939816ac8"},"vehicle_type_id":"4","last_reported":1691200358,"current_range_meters":17600,"station_id":"ce4bgv92rcd13ifvqcq0","pricing_plan_id":"free"},{"bike_id":"40168c04-6ab5-4212-a37e-b53ff283ee0d","system_id":"levelo_inurba_marseille","lat":43.3078,"lon":5.37656,"is_reserved":false,"is_disabled":false,"rental_uris":{"android":"levelo://app?vid=40168c04-6ab5-4212-a37e-b53ff283ee0d","ios":"levelo://app?vid=40168c04-6ab5-4212-a37e-b53ff283ee0d"},"vehicle_type_id":"4","last_reported":1691200358,"current_range_meters":24800,"station_id":"ce4bgv92rcd13ifvqcq0","pricing_plan_id":"free"},{"bike_id":"98204378-ee5f-4653-a841-5c0f80498805","system_id":"levelo_inurba_marseille","lat":43.307945,"lon":5.376487,"is_reserved":false,"is_disabled":false,"rental_uris":{"android":"levelo://app?vid=98204378-ee5f-4653-a841-5c0f80498805","ios":"levelo://app?vid=98204378-ee5f-4653-a841-5c0f80498805"},"vehicle_type_id":"4","last_reported":1691200358,"current_range_meters":12000,"station_id":"ce4bgv92rcd13ifvqcq0","pricing_plan_id":"free"},{"bike_id":"37a1ff06-ef27-4316-a188-90abfaf08048","system_id":"levelo_inurba_marseille","lat":43.3078,"lon":5.37659,"is_reserved":false,"is_disabled":false,"rental_uris":{"android":"levelo://app?vid=37a1ff06-ef27-4316-a188-90abfaf08048","ios":"levelo://app?vid=37a1ff06-ef27-4316-a188-90abfaf08048"},"vehicle_type_id":"4","last_reported":1691200358,"current_range_meters":26400,"station_id":"ce4bgv92rcd13ifvqcq0","pricing_plan_id":"free"},{"bike_id":"6e7d2a81-eb04-467b-8744-5fac68edc62a","system_id":"levelo_inurba_marseille","lat":43.307945,"lon":5.376487,"is_reserved":false,"is_disabled":false,"rental_uris":{"android":"levelo://app?vid=6e7d2a81-eb04-467b-8744-5fac68edc62a","ios":"levelo://app?vid=6e7d2a81-eb04-467b-8744-5fac68edc62a"},"vehicle_type_id":"4","last_reported":1691200358,"current_range_meters":4400,"station_id":"ce4bgv92rcd13ifvqcq0","pricing_plan_id":"free"},{"bike_id":"b8caa492-4473-497b-83a8-f40b87c90e82","system_id":"levelo_inurba_marseille","lat":43.317075,"lon":5.377367,"is_reserved":false,"is_disabled":false,"rental_uris":{"android":"levelo://app?vid=b8caa492-4473-497b-83a8-f40b87c90e82","ios":"levelo://app?vid=b8caa492-4473-497b-83a8-f40b87c90e82"},"vehicle_type_id":"4","last_reported":1691200358,"current_range_meters":30000,"station_id":"ce4bgth2rcd13ifvqch0","pricing_plan_id":"free"},{"bike_id":"aa95fc61-c18a-4938-be16-49f4737de060","system_id":"levelo_inurba_marseille","lat":43.303047,"lon":5.368721,"is_reserved":false,"is_disabled":false,"rental_uris":{"android":"levelo://app?vid=aa95fc61-c18a-4938-be16-49f4737de060","ios":"levelo://app?vid=aa95fc61-c18a-4938-be16-49f4737de060"},"vehicle_type_id":"4","last_reported":1691200358,"current_range_meters":16000,"station_id":"","pricing_plan_id":"free"},{"bike_id":"5594f097-97ca-453e-af5d-847ab63151cc","system_id":"levelo_inurba_marseille","lat":43.315289,"lon":5.380349,"is_reserved":false,"is_disabled":false,"rental_uris":{"android":"levelo://app?vid=5594f097-97ca-453e-af5d-847ab63151cc","ios":"levelo://app?vid=5594f097-97ca-453e-af5d-847ab63151cc"},"vehicle_type_id":"4","last_reported":1691200358,"current_range_meters":14000,"station_id":"ce4bhsp2rcd13ifvqi50","pricing_plan_id":"free"},{"bike_id":"1044b68f-240f-4a4e-a774-c1bcca7a10af","system_id":"levelo_inurba_marseille","lat":43.301939,"lon":5.366286,"is_reserved":false,"is_disabled":false,"rental_uris":{"android":"levelo://app?vid=1044b68f-240f-4a4e-a774-c1bcca7a10af","ios":"levelo://app?vid=1044b68f-240f-4a4e-a774-c1bcca7a10af"},"vehicle_type_id":"4","last_reported":1691200358,"current_range_meters":14400,"station_id":"ce4bgrh2rcd13ifvqc8g","pricing_plan_id":"free"},{"bike_id":"6c89fb74-03c0-4a70-8c9d-b63dec2af527","system_id":"levelo_inurba_marseille","lat":43.301939,"lon":5.366286,"is_reserved":false,"is_disabled":false,"rental_uris":{"android":"levelo://app?vid=6c89fb74-03c0-4a70-8c9d-b63dec2af527","ios":"levelo://app?vid=6c89fb74-03c0-4a70-8c9d-b63dec2af527"},"vehicle_type_id":"4","last_reported":1691200358,"current_range_meters":22800,"station_id":"ce4bgrh2rcd13ifvqc8g","pricing_plan_id":"free"},{"bike_id":"581d5562-87f0-4170-b807-c014013adfbc","system_id":"levelo_inurba_marseille","lat":43.32226,"lon":5.37636,"is_reserved":false,"is_disabled":false,"rental_uris":{"android":"levelo://app?vid=581d5562-87f0-4170-b807-c014013adfbc","ios":"levelo://app?vid=581d5562-87f0-4170-b807-c014013adfbc"},"vehicle_type_id":"4","last_reported":1691200358,"current_range_meters":0,"station_id":"","pricing_plan_id":"free"},{"bike_id":"83cb1884-b329-4cf6-89ec-d66b1737e981","system_id":"levelo_inurba_marseille","lat":43.304606,"lon":5.379026,"is_reserved":false,"is_disabled":false,"rental_uris":{"android":"levelo://app?vid=83cb1884-b329-4cf6-89ec-d66b1737e981","ios":"levelo://app?vid=83cb1884-b329-4cf6-89ec-d66b1737e981"},"vehicle_type_id":"4","last_reported":1691200358,"current_range_meters":18400,"station_id":"ce4bgup2rcd13ifvqcn0","pricing_plan_id":"free"},{"bike_id":"939fbe33-089e-4ad0-980c-7ed666bfcb61","system_id":"levelo_inurba_marseille","lat":43.30128,"lon":5.3741,"is_reserved":false,"is_disabled":false,"rental_uris":{"android":"levelo://app?vid=939fbe33-089e-4ad0-980c-7ed666bfcb61","ios":"levelo://app?vid=939fbe33-089e-4ad0-980c-7ed666bfcb61"},"vehicle_type_id":"4","last_reported":1691200358,"current_range_meters":23200,"station_id":"ce4bgs92rcd13ifvqcc0","pricing_plan_id":"free"},{"bike_id":"2ad57de6-82fc-448d-bdf0-5ead379e5a53","system_id":"levelo_inurba_marseille","lat":43.31997,"lon":5.38151,"is_reserved":false,"is_disabled":false,"rental_uris":{"android":"levelo://app?vid=2ad57de6-82fc-448d-bdf0-5ead379e5a53","ios":"levelo://app?vid=2ad57de6-82fc-448d-bdf0-5ead379e5a53"},"vehicle_type_id":"4","last_reported":1691200358,"current_range_meters":19200,"station_id":"ce4bhr12rcd13ifvqhpg","pricing_plan_id":"free"},{"bike_id":"ec6ed6b9-203a-4de4-b873-0449f8d8115f","system_id":"levelo_inurba_marseille","lat":43.31994,"lon":5.38154,"is_reserved":false,"is_disabled":false,"rental_uris":{"android":"levelo://app?vid=ec6ed6b9-203a-4de4-b873-0449f8d8115f","ios":"levelo://app?vid=ec6ed6b9-203a-4de4-b873-0449f8d8115f"},"vehicle_type_id":"4","last_reported":1691200358,"current_range_meters":22800,"station_id":"ce4bhr12rcd13ifvqhpg","pricing_plan_id":"free"},{"bike_id":"d5f7f396-3296-41b5-bc26-a6ef0187ad90","system_id":"levelo_inurba_marseille","lat":43.31996,"lon":5.38153,"is_reserved":false,"is_disabled":false,"rental_uris":{"android":"levelo://app?vid=d5f7f396-3296-41b5-bc26-a6ef0187ad90","ios":"levelo://app?vid=d5f7f396-3296-41b5-bc26-a6ef0187ad90"},"vehicle_type_id":"4","last_reported":1691200358,"current_range_meters":0,"station_id":"ce4bhr12rcd13ifvqhpg","pricing_plan_id":"free"},{"bike_id":"c7835526-41d7-4a51-8ca3-06bc11ee101e","system_id":"levelo_inurba_marseille","lat":43.313571,"lon":5.384829,"is_reserved":false,"is_disabled":false,"rental_uris":{"android":"levelo://app?vid=c7835526-41d7-4a51-8ca3-06bc11ee101e","ios":"levelo://app?vid=c7835526-41d7-4a51-8ca3-06bc11ee101e"},"vehicle_type_id":"4","last_reported":1691200358,"current_range_meters":31200,"station_id":"ce4bgt92rcd13ifvqcf0","pricing_plan_id":"free"},{"bike_id":"5d9ea4ed-24d2-48e7-b4f2-76f47d280a81","system_id":"levelo_inurba_marseille","lat":43.313571,"lon":5.384829,"is_reserved":false,"is_disabled":false,"rental_uris":{"android":"levelo://app?vid=5d9ea4ed-24d2-48e7-b4f2-76f47d280a81","ios":"levelo://app?vid=5d9ea4ed-24d2-48e7-b4f2-76f47d280a81"},"vehicle_type_id":"4","last_reported":1691200358,"current_range_meters":31200,"station_id":"ce4bgt92rcd13ifvqcf0","pricing_plan_id":"free"},{"bike_id":"92ce602c-d78a-4fc1-839e-9d437f217566","system_id":"levelo_inurba_marseille","lat":43.313571,"lon":5.384829,"is_reserved":false,"is_disabled":false,"rental_uris":{"android":"levelo://app?vid=92ce602c-d78a-4fc1-839e-9d437f217566","ios":"levelo://app?vid=92ce602c-d78a-4fc1-839e-9d437f217566"},"vehicle_type_id":"4","last_reported":1691200358,"current_range_meters":26400,"station_id":"ce4bgt92rcd13ifvqcf0","pricing_plan_id":"free"},{"bike_id":"35656145-5dff-49f2-b6ba-f78509c75276","system_id":"levelo_inurba_marseille","lat":43.313571,"lon":5.384829,"is_reserved":false,"is_disabled":false,"rental_uris":{"android":"levelo://app?vid=35656145-5dff-49f2-b6ba-f78509c75276","ios":"levelo://app?vid=35656145-5dff-49f2-b6ba-f78509c75276"},"vehicle_type_id":"4","last_reported":1691200358,"current_range_meters":31200,"station_id":"ce4bgt92rcd13ifvqcf0","pricing_plan_id":"free"},{"bike_id":"3cb7fd70-121e-4eb5-9a01-ecc8718aa1bb","system_id":"levelo_inurba_marseille","lat":43.29943,"lon":5.3654,"is_reserved":false,"is_disabled":false,"rental_uris":{"android":"levelo://app?vid=3cb7fd70-121e-4eb5-9a01-ecc8718aa1bb","ios":"levelo://app?vid=3cb7fd70-121e-4eb5-9a01-ecc8718aa1bb"},"vehicle_type_id":"4","last_reported":1691200358,"current_range_meters":26800,"station_id":"ce4bgm92rcd13ifvqbr0","pricing_plan_id":"free"},{"bike_id":"f8bbffbb-4aa6-40f8-a28a-7c5e5ecc3948","system_id":"levelo_inurba_marseille","lat":43.30547,"lon":5.38416,"is_reserved":false,"is_disabled":false,"rental_uris":{"android":"levelo://app?vid=f8bbffbb-4aa6-40f8-a28a-7c5e5ecc3948","ios":"levelo://app?vid=f8bbffbb-4aa6-40f8-a28a-7c5e5ecc3948"},"vehicle_type_id":"4","last_reported":1691200358,"current_range_meters":30000,"station_id":"ce4bgg92rcd13ifvqb30","pricing_plan_id":"free"},{"bike_id":"30537d43-af02-4a10-b928-7b9b8cf633d2","system_id":"levelo_inurba_marseille","lat":43.30541,"lon":5.38427,"is_reserved":false,"is_disabled":false,"rental_uris":{"android":"levelo://app?vid=30537d43-af02-4a10-b928-7b9b8cf633d2","ios":"levelo://app?vid=30537d43-af02-4a10-b928-7b9b8cf633d2"},"vehicle_type_id":"4","last_reported":1691200358,"current_range_meters":30400,"station_id":"ce4bgg92rcd13ifvqb30","pricing_plan_id":"free"},{"bike_id":"21afa1cd-235d-4726-9d94-99e4a80ce1a5","system_id":"levelo_inurba_marseille","lat":43.305265,"lon":5.384238,"is_reserved":false,"is_disabled":false,"rental_uris":{"android":"levelo://app?vid=21afa1cd-235d-4726-9d94-99e4a80ce1a5","ios":"levelo://app?vid=21afa1cd-235d-4726-9d94-99e4a80ce1a5"},"vehicle_type_id":"4","last_reported":1691200358,"current_range_meters":25200,"station_id":"ce4bgg92rcd13ifvqb30","pricing_plan_id":"free"},{"bike_id":"c9aa5f68-aa69-4167-9549-a4912b036a91","system_id":"levelo_inurba_marseille","lat":43.3054,"lon":5.38435,"is_reserved":false,"is_disabled":false,"rental_uris":{"android":"levelo://app?vid=c9aa5f68-aa69-4167-9549-a4912b036a91","ios":"levelo://app?vid=c9aa5f68-aa69-4167-9549-a4912b036a91"},"vehicle_type_id":"4","last_reported":1691200358,"current_range_meters":23200,"station_id":"ce4bgg92rcd13ifvqb30","pricing_plan_id":"free"},{"bike_id":"0023173d-616e-4909-a4d6-267541ce0353","system_id":"levelo_inurba_marseille","lat":43.311722,"lon":5.387247,"is_reserved":false,"is_disabled":false,"rental_uris":{"android":"levelo://app?vid=0023173d-616e-4909-a4d6-267541ce0353","ios":"levelo://app?vid=0023173d-616e-4909-a4d6-267541ce0353"},"vehicle_type_id":"4","last_reported":1691200358,"current_range_meters":21600,"station_id":"ce4bgv12rcd13ifvqcp0","pricing_plan_id":"free"},{"bike_id":"15a7e5e0-fddc-412a-a6b6-acbbf557e90d","system_id":"levelo_inurba_marseille","lat":43.311722,"lon":5.387247,"is_reserved":false,"is_disabled":false,"rental_uris":{"android":"levelo://app?vid=15a7e5e0-fddc-412a-a6b6-acbbf557e90d","ios":"levelo://app?vid=15a7e5e0-fddc-412a-a6b6-acbbf557e90d"},"vehicle_type_id":"4","last_reported":1691200358,"current_range_meters":30400,"station_id":"ce4bgv12rcd13ifvqcp0","pricing_plan_id":"free"},{"bike_id":"19eefe59-944f-40e2-944d-e700e10140f1","system_id":"levelo_inurba_marseille","lat":43.3052,"lon":5.38434,"is_reserved":false,"is_disabled":false,"rental_uris":{"android":"levelo://app?vid=19eefe59-944f-40e2-944d-e700e10140f1","ios":"levelo://app?vid=19eefe59-944f-40e2-944d-e700e10140f1"},"vehicle_type_id":"4","last_reported":1691200358,"current_range_meters":23600,"station_id":"","pricing_plan_id":"free"},{"bike_id":"6bf52708-3433-4e6a-8d4b-2b98c6b222a2","system_id":"levelo_inurba_marseille","lat":43.31161,"lon":5.38715,"is_reserved":false,"is_disabled":false,"rental_uris":{"android":"levelo://app?vid=6bf52708-3433-4e6a-8d4b-2b98c6b222a2","ios":"levelo://app?vid=6bf52708-3433-4e6a-8d4b-2b98c6b222a2"},"vehicle_type_id":"4","last_reported":1691200358,"current_range_meters":800,"station_id":"ce4bgv12rcd13ifvqcp0","pricing_plan_id":"free"},{"bike_id":"baabe3ab-2d3d-4bf2-9e57-c5cad15fcc1b","system_id":"levelo_inurba_marseille","lat":43.311722,"lon":5.387247,"is_reserved":false,"is_disabled":false,"rental_uris":{"android":"levelo://app?vid=baabe3ab-2d3d-4bf2-9e57-c5cad15fcc1b","ios":"levelo://app?vid=baabe3ab-2d3d-4bf2-9e57-c5cad15fcc1b"},"vehicle_type_id":"4","last_reported":1691200358,"current_range_meters":26000,"station_id":"ce4bgv12rcd13ifvqcp0","pricing_plan_id":"free"},{"bike_id":"b297546a-1a61-4784-9110-2a44aec06219","system_id":"levelo_inurba_marseille","lat":43.311722,"lon":5.387247,"is_reserved":false,"is_disabled":false,"rental_uris":{"android":"levelo://app?vid=b297546a-1a61-4784-9110-2a44aec06219","ios":"levelo://app?vid=b297546a-1a61-4784-9110-2a44aec06219"},"vehicle_type_id":"4","last_reported":1691200358,"current_range_meters":31200,"station_id":"ce4bgv12rcd13ifvqcp0","pricing_plan_id":"free"},{"bike_id":"524d8772-aa1b-409e-ac89-8fe2cf931d65","system_id":"levelo_inurba_marseille","lat":43.31169,"lon":5.38724,"is_reserved":false,"is_disabled":false,"rental_uris":{"android":"levelo://app?vid=524d8772-aa1b-409e-ac89-8fe2cf931d65","ios":"levelo://app?vid=524d8772-aa1b-409e-ac89-8fe2cf931d65"},"vehicle_type_id":"4","last_reported":1691200358,"current_range_meters":17600,"station_id":"ce4bgv12rcd13ifvqcp0","pricing_plan_id":"free"},{"bike_id":"05371ed5-5845-44ac-961e-40723c84cebd","system_id":"levelo_inurba_marseille","lat":43.311722,"lon":5.387247,"is_reserved":false,"is_disabled":false,"rental_uris":{"android":"levelo://app?vid=05371ed5-5845-44ac-961e-40723c84cebd","ios":"levelo://app?vid=05371ed5-5845-44ac-961e-40723c84cebd"},"vehicle_type_id":"4","last_reported":1691200358,"current_range_meters":31200,"station_id":"ce4bgv12rcd13ifvqcp0","pricing_plan_id":"free"},{"bike_id":"8ae2a292-4b68-4114-8267-e4d284ceb76e","system_id":"levelo_inurba_marseille","lat":43.32824,"lon":5.36687,"is_reserved":false,"is_disabled":false,"rental_uris":{"android":"levelo://app?vid=8ae2a292-4b68-4114-8267-e4d284ceb76e","ios":"levelo://app?vid=8ae2a292-4b68-4114-8267-e4d284ceb76e"},"vehicle_type_id":"4","last_reported":1691200358,"current_range_meters":24800,"station_id":"ce4bhs92rcd13ifvqi0g","pricing_plan_id":"free"},{"bike_id":"79d478e1-3ee7-4283-a640-85273b88a58e","system_id":"levelo_inurba_marseille","lat":43.328371,"lon":5.366909,"is_reserved":false,"is_disabled":false,"rental_uris":{"android":"levelo://app?vid=79d478e1-3ee7-4283-a640-85273b88a58e","ios":"levelo://app?vid=79d478e1-3ee7-4283-a640-85273b88a58e"},"vehicle_type_id":"4","last_reported":1691200358,"current_range_meters":30000,"station_id":"ce4bhs92rcd13ifvqi0g","pricing_plan_id":"free"},{"bike_id":"ecb22f1f-ccb1-4911-af78-aedc06b9e2f0","system_id":"levelo_inurba_marseille","lat":43.328371,"lon":5.366909,"is_reserved":false,"is_disabled":false,"rental_uris":{"android":"levelo://app?vid=ecb22f1f-ccb1-4911-af78-aedc06b9e2f0","ios":"levelo://app?vid=ecb22f1f-ccb1-4911-af78-aedc06b9e2f0"},"vehicle_type_id":"4","last_reported":1691200358,"current_range_meters":4400,"station_id":"ce4bhs92rcd13ifvqi0g","pricing_plan_id":"free"},{"bike_id":"bfc37a9c-9b15-47da-9282-cebf1004209d","system_id":"levelo_inurba_marseille","lat":43.3283,"lon":5.3668,"is_reserved":false,"is_disabled":false,"rental_uris":{"android":"levelo://app?vid=bfc37a9c-9b15-47da-9282-cebf1004209d","ios":"levelo://app?vid=bfc37a9c-9b15-47da-9282-cebf1004209d"},"vehicle_type_id":"4","last_reported":1691200358,"current_range_meters":7200,"station_id":"ce4bhs92rcd13ifvqi0g","pricing_plan_id":"free"},{"bike_id":"925d80fe-dd88-4a52-a938-71d3f7293e55","system_id":"levelo_inurba_marseille","lat":43.32831,"lon":5.36684,"is_reserved":false,"is_disabled":false,"rental_uris":{"android":"levelo://app?vid=925d80fe-dd88-4a52-a938-71d3f7293e55","ios":"levelo://app?vid=925d80fe-dd88-4a52-a938-71d3f7293e55"},"vehicle_type_id":"4","last_reported":1691200358,"current_range_meters":17200,"station_id":"ce4bhs92rcd13ifvqi0g","pricing_plan_id":"free"},{"bike_id":"0038df92-2578-4bc4-928d-b34717593b41","system_id":"levelo_inurba_marseille","lat":43.32831,"lon":5.36676,"is_reserved":false,"is_disabled":false,"rental_uris":{"android":"levelo://app?vid=0038df92-2578-4bc4-928d-b34717593b41","ios":"levelo://app?vid=0038df92-2578-4bc4-928d-b34717593b41"},"vehicle_type_id":"4","last_reported":1691200358,"current_range_meters":800,"station_id":"ce4bhs92rcd13ifvqi0g","pricing_plan_id":"free"},{"bike_id":"bfcdc805-c177-4202-89f2-5e9744440523","system_id":"levelo_inurba_marseille","lat":43.32832,"lon":5.36672,"is_reserved":false,"is_disabled":false,"rental_uris":{"android":"levelo://app?vid=bfcdc805-c177-4202-89f2-5e9744440523","ios":"levelo://app?vid=bfcdc805-c177-4202-89f2-5e9744440523"},"vehicle_type_id":"4","last_reported":1691200358,"current_range_meters":1600,"station_id":"ce4bhs92rcd13ifvqi0g","pricing_plan_id":"free"},{"bike_id":"dd789220-e7b5-42c1-b9dc-dc4243148021","system_id":"levelo_inurba_marseille","lat":43.297163,"lon":5.365866,"is_reserved":false,"is_disabled":false,"rental_uris":{"android":"levelo://app?vid=dd789220-e7b5-42c1-b9dc-dc4243148021","ios":"levelo://app?vid=dd789220-e7b5-42c1-b9dc-dc4243148021"},"vehicle_type_id":"4","last_reported":1691200358,"current_range_meters":31200,"station_id":"ce4bgn12rcd13ifvqbt0","pricing_plan_id":"free"},{"bike_id":"114b60ba-0a4c-4903-9400-2b5eb59d5165","system_id":"levelo_inurba_marseille","lat":43.296131,"lon":5.370773,"is_reserved":false,"is_disabled":false,"rental_uris":{"android":"levelo://app?vid=114b60ba-0a4c-4903-9400-2b5eb59d5165","ios":"levelo://app?vid=114b60ba-0a4c-4903-9400-2b5eb59d5165"},"vehicle_type_id":"4","last_reported":1691200358,"current_range_meters":31200,"station_id":"ce4bgnh2rcd13ifvqc0g","pricing_plan_id":"free"},{"bike_id":"bd9badbc-d819-4848-868c-22de305356c3","system_id":"levelo_inurba_marseille","lat":43.3095,"lon":5.39031,"is_reserved":false,"is_disabled":false,"rental_uris":{"android":"levelo://app?vid=bd9badbc-d819-4848-868c-22de305356c3","ios":"levelo://app?vid=bd9badbc-d819-4848-868c-22de305356c3"},"vehicle_type_id":"4","last_reported":1691200358,"current_range_meters":6400,"station_id":"ce4bgup2rcd13ifvqco0","pricing_plan_id":"free"},{"bike_id":"27467724-1c32-4658-acc7-92691cac6a69","system_id":"levelo_inurba_marseille","lat":43.30952,"lon":5.39038,"is_reserved":false,"is_disabled":false,"rental_uris":{"android":"levelo://app?vid=27467724-1c32-4658-acc7-92691cac6a69","ios":"levelo://app?vid=27467724-1c32-4658-acc7-92691cac6a69"},"vehicle_type_id":"4","last_reported":1691200358,"current_range_meters":20000,"station_id":"ce4bgup2rcd13ifvqco0","pricing_plan_id":"free"},{"bike_id":"f0b1921d-8fc5-42f6-8214-26455e772ce5","system_id":"levelo_inurba_marseille","lat":43.30959,"lon":5.39044,"is_reserved":false,"is_disabled":false,"rental_uris":{"android":"levelo://app?vid=f0b1921d-8fc5-42f6-8214-26455e772ce5","ios":"levelo://app?vid=f0b1921d-8fc5-42f6-8214-26455e772ce5"},"vehicle_type_id":"4","last_reported":1691200358,"current_range_meters":25600,"station_id":"ce4bgup2rcd13ifvqco0","pricing_plan_id":"free"},{"bike_id":"ffe83563-fe7b-4abd-90a1-b737e09347c0","system_id":"levelo_inurba_marseille","lat":43.317557,"lon":5.390173,"is_reserved":false,"is_disabled":false,"rental_uris":{"android":"levelo://app?vid=ffe83563-fe7b-4abd-90a1-b737e09347c0","ios":"levelo://app?vid=ffe83563-fe7b-4abd-90a1-b737e09347c0"},"vehicle_type_id":"4","last_reported":1691200358,"current_range_meters":27600,"station_id":"ce4bhqp2rcd13ifvqhng","pricing_plan_id":"free"},{"bike_id":"b2f3081d-803f-4500-a8ce-732227ecc1a7","system_id":"levelo_inurba_marseille","lat":43.317557,"lon":5.390173,"is_reserved":false,"is_disabled":false,"rental_uris":{"android":"levelo://app?vid=b2f3081d-803f-4500-a8ce-732227ecc1a7","ios":"levelo://app?vid=b2f3081d-803f-4500-a8ce-732227ecc1a7"},"vehicle_type_id":"4","last_reported":1691200358,"current_range_meters":25200,"station_id":"ce4bhqp2rcd13ifvqhng","pricing_plan_id":"free"},{"bike_id":"18a85f18-d874-4a60-8aed-560fb98e5c68","system_id":"levelo_inurba_marseille","lat":43.317557,"lon":5.390173,"is_reserved":false,"is_disabled":false,"rental_uris":{"android":"levelo://app?vid=18a85f18-d874-4a60-8aed-560fb98e5c68","ios":"levelo://app?vid=18a85f18-d874-4a60-8aed-560fb98e5c68"},"vehicle_type_id":"4","last_reported":1691200358,"current_range_meters":28400,"station_id":"ce4bhqp2rcd13ifvqhng","pricing_plan_id":"free"},{"bike_id":"2f85dfd1-5d9a-4517-8def-c5ab4b399598","system_id":"levelo_inurba_marseille","lat":43.317557,"lon":5.390173,"is_reserved":false,"is_disabled":false,"rental_uris":{"android":"levelo://app?vid=2f85dfd1-5d9a-4517-8def-c5ab4b399598","ios":"levelo://app?vid=2f85dfd1-5d9a-4517-8def-c5ab4b399598"},"vehicle_type_id":"4","last_reported":1691200358,"current_range_meters":20000,"station_id":"ce4bhqp2rcd13ifvqhng","pricing_plan_id":"free"},{"bike_id":"c070a522-6c17-4333-a9ee-bbef4dc643ed","system_id":"levelo_inurba_marseille","lat":43.317557,"lon":5.390173,"is_reserved":false,"is_disabled":false,"rental_uris":{"android":"levelo://app?vid=c070a522-6c17-4333-a9ee-bbef4dc643ed","ios":"levelo://app?vid=c070a522-6c17-4333-a9ee-bbef4dc643ed"},"vehicle_type_id":"4","last_reported":1691200358,"current_range_meters":31600,"station_id":"ce4bhqp2rcd13ifvqhng","pricing_plan_id":"free"},{"bike_id":"fb5d1b63-b2f2-4d34-b700-b062bf6b4e69","system_id":"levelo_inurba_marseille","lat":43.317557,"lon":5.390173,"is_reserved":false,"is_disabled":false,"rental_uris":{"android":"levelo://app?vid=fb5d1b63-b2f2-4d34-b700-b062bf6b4e69","ios":"levelo://app?vid=fb5d1b63-b2f2-4d34-b700-b062bf6b4e69"},"vehicle_type_id":"4","last_reported":1691200358,"current_range_meters":31200,"station_id":"ce4bhqp2rcd13ifvqhng","pricing_plan_id":"free"},{"bike_id":"2cad0187-cb9b-4d97-b093-0814e8d8e565","system_id":"levelo_inurba_marseille","lat":43.317557,"lon":5.390173,"is_reserved":false,"is_disabled":false,"rental_uris":{"android":"levelo://app?vid=2cad0187-cb9b-4d97-b093-0814e8d8e565","ios":"levelo://app?vid=2cad0187-cb9b-4d97-b093-0814e8d8e565"},"vehicle_type_id":"4","last_reported":1691200358,"current_range_meters":28400,"station_id":"ce4bhqp2rcd13ifvqhng","pricing_plan_id":"free"},{"bike_id":"4879b09e-5533-49cc-808c-be115b214b19","system_id":"levelo_inurba_marseille","lat":43.317557,"lon":5.390173,"is_reserved":false,"is_disabled":false,"rental_uris":{"android":"levelo://app?vid=4879b09e-5533-49cc-808c-be115b214b19","ios":"levelo://app?vid=4879b09e-5533-49cc-808c-be115b214b19"},"vehicle_type_id":"4","last_reported":1691200358,"current_range_meters":31600,"station_id":"ce4bhqp2rcd13ifvqhng","pricing_plan_id":"free"},{"bike_id":"50f2c09c-534d-43c1-a558-fb4cbe988a1f","system_id":"levelo_inurba_marseille","lat":43.317557,"lon":5.390173,"is_reserved":false,"is_disabled":false,"rental_uris":{"android":"levelo://app?vid=50f2c09c-534d-43c1-a558-fb4cbe988a1f","ios":"levelo://app?vid=50f2c09c-534d-43c1-a558-fb4cbe988a1f"},"vehicle_type_id":"4","last_reported":1691200358,"current_range_meters":13600,"station_id":"ce4bhqp2rcd13ifvqhng","pricing_plan_id":"free"},{"bike_id":"a0163b85-18e5-4828-8d9c-5d727e145ddc","system_id":"levelo_inurba_marseille","lat":43.317557,"lon":5.390173,"is_reserved":false,"is_disabled":false,"rental_uris":{"android":"levelo://app?vid=a0163b85-18e5-4828-8d9c-5d727e145ddc","ios":"levelo://app?vid=a0163b85-18e5-4828-8d9c-5d727e145ddc"},"vehicle_type_id":"4","last_reported":1691200358,"current_range_meters":28400,"station_id":"ce4bhqp2rcd13ifvqhng","pricing_plan_id":"free"},{"bike_id":"90569ba5-8bb9-4d2d-b876-dc35e42f9a0c","system_id":"levelo_inurba_marseille","lat":43.317557,"lon":5.390173,"is_reserved":false,"is_disabled":false,"rental_uris":{"android":"levelo://app?vid=90569ba5-8bb9-4d2d-b876-dc35e42f9a0c","ios":"levelo://app?vid=90569ba5-8bb9-4d2d-b876-dc35e42f9a0c"},"vehicle_type_id":"4","last_reported":1691200358,"current_range_meters":31200,"station_id":"ce4bhqp2rcd13ifvqhng","pricing_plan_id":"free"},{"bike_id":"558c3d7c-c944-48b5-881a-d2919893976f","system_id":"levelo_inurba_marseille","lat":43.317557,"lon":5.390173,"is_reserved":false,"is_disabled":false,"rental_uris":{"android":"levelo://app?vid=558c3d7c-c944-48b5-881a-d2919893976f","ios":"levelo://app?vid=558c3d7c-c944-48b5-881a-d2919893976f"},"vehicle_type_id":"4","last_reported":1691200358,"current_range_meters":0,"station_id":"ce4bhqp2rcd13ifvqhng","pricing_plan_id":"free"},{"bike_id":"a6d84977-bebd-4b6a-9971-e220758edae3","system_id":"levelo_inurba_marseille","lat":43.30419,"lon":5.3888,"is_reserved":false,"is_disabled":false,"rental_uris":{"android":"levelo://app?vid=a6d84977-bebd-4b6a-9971-e220758edae3","ios":"levelo://app?vid=a6d84977-bebd-4b6a-9971-e220758edae3"},"vehicle_type_id":"4","last_reported":1691200358,"current_range_meters":8000,"station_id":"ce4bgk12rcd13ifvqbi0","pricing_plan_id":"free"},{"bike_id":"0a22e59f-24e0-416f-9a91-18fc2f7848e9","system_id":"levelo_inurba_marseille","lat":43.304274,"lon":5.388873,"is_reserved":false,"is_disabled":false,"rental_uris":{"android":"levelo://app?vid=0a22e59f-24e0-416f-9a91-18fc2f7848e9","ios":"levelo://app?vid=0a22e59f-24e0-416f-9a91-18fc2f7848e9"},"vehicle_type_id":"4","last_reported":1691200358,"current_range_meters":6800,"station_id":"ce4bgk12rcd13ifvqbi0","pricing_plan_id":"free"},{"bike_id":"bb4813a1-5d21-4a5e-955c-d255ee5cc123","system_id":"levelo_inurba_marseille","lat":43.296263,"lon":5.377094,"is_reserved":false,"is_disabled":false,"rental_uris":{"android":"levelo://app?vid=bb4813a1-5d21-4a5e-955c-d255ee5cc123","ios":"levelo://app?vid=bb4813a1-5d21-4a5e-955c-d255ee5cc123"},"vehicle_type_id":"4","last_reported":1691200358,"current_range_meters":30400,"station_id":"ce4bgi92rcd13ifvqb90","pricing_plan_id":"free"},{"bike_id":"34d46041-0c68-44d2-a936-599c1eef56e1","system_id":"levelo_inurba_marseille","lat":43.299717,"lon":5.384845,"is_reserved":false,"is_disabled":false,"rental_uris":{"android":"levelo://app?vid=34d46041-0c68-44d2-a936-599c1eef56e1","ios":"levelo://app?vid=34d46041-0c68-44d2-a936-599c1eef56e1"},"vehicle_type_id":"4","last_reported":1691200358,"current_range_meters":28000,"station_id":"ce4bgj92rcd13ifvqbd0","pricing_plan_id":"free"},{"bike_id":"3d2edb57-516f-41bc-985e-42a721904578","system_id":"levelo_inurba_marseille","lat":43.32357,"lon":5.38885,"is_reserved":false,"is_disabled":false,"rental_uris":{"android":"levelo://app?vid=3d2edb57-516f-41bc-985e-42a721904578","ios":"levelo://app?vid=3d2edb57-516f-41bc-985e-42a721904578"},"vehicle_type_id":"4","last_reported":1691200358,"current_range_meters":23200,"station_id":"ce4bhqp2rcd13ifvqhog","pricing_plan_id":"free"},{"bike_id":"ee373f4b-d04e-43ef-92b8-3105e264ba5d","system_id":"levelo_inurba_marseille","lat":43.3236,"lon":5.38883,"is_reserved":false,"is_disabled":false,"rental_uris":{"android":"levelo://app?vid=ee373f4b-d04e-43ef-92b8-3105e264ba5d","ios":"levelo://app?vid=ee373f4b-d04e-43ef-92b8-3105e264ba5d"},"vehicle_type_id":"4","last_reported":1691200358,"current_range_meters":24400,"station_id":"ce4bhqp2rcd13ifvqhog","pricing_plan_id":"free"},{"bike_id":"5f1c231d-5549-420b-a974-1b1406435a60","system_id":"levelo_inurba_marseille","lat":43.32363,"lon":5.38881,"is_reserved":false,"is_disabled":false,"rental_uris":{"android":"levelo://app?vid=5f1c231d-5549-420b-a974-1b1406435a60","ios":"levelo://app?vid=5f1c231d-5549-420b-a974-1b1406435a60"},"vehicle_type_id":"4","last_reported":1691200358,"current_range_meters":23600,"station_id":"ce4bhqp2rcd13ifvqhog","pricing_plan_id":"free"},{"bike_id":"fbc3a92c-f948-48e9-a3fc-f0e8af1a9259","system_id":"levelo_inurba_marseille","lat":43.32367,"lon":5.388836,"is_reserved":false,"is_disabled":false,"rental_uris":{"android":"levelo://app?vid=fbc3a92c-f948-48e9-a3fc-f0e8af1a9259","ios":"levelo://app?vid=fbc3a92c-f948-48e9-a3fc-f0e8af1a9259"},"vehicle_type_id":"4","last_reported":1691200358,"current_range_meters":31200,"station_id":"ce4bhqp2rcd13ifvqhog","pricing_plan_id":"free"},{"bike_id":"43e03639-4029-4e8d-ad26-7f8f17f1e9de","system_id":"levelo_inurba_marseille","lat":43.32367,"lon":5.388836,"is_reserved":false,"is_disabled":false,"rental_uris":{"android":"levelo://app?vid=43e03639-4029-4e8d-ad26-7f8f17f1e9de","ios":"levelo://app?vid=43e03639-4029-4e8d-ad26-7f8f17f1e9de"},"vehicle_type_id":"4","last_reported":1691200358,"current_range_meters":18800,"station_id":"ce4bhqp2rcd13ifvqhog","pricing_plan_id":"free"},{"bike_id":"34ef5601-8765-4b80-bdc1-e9818152ffab","system_id":"levelo_inurba_marseille","lat":43.32363,"lon":5.38885,"is_reserved":false,"is_disabled":false,"rental_uris":{"android":"levelo://app?vid=34ef5601-8765-4b80-bdc1-e9818152ffab","ios":"levelo://app?vid=34ef5601-8765-4b80-bdc1-e9818152ffab"},"vehicle_type_id":"4","last_reported":1691200358,"current_range_meters":27200,"station_id":"ce4bhqp2rcd13ifvqhog","pricing_plan_id":"free"},{"bike_id":"31c4ebe8-2a4f-41b7-966a-7ad502ff3d8a","system_id":"levelo_inurba_marseille","lat":43.32365,"lon":5.38884,"is_reserved":false,"is_disabled":false,"rental_uris":{"android":"levelo://app?vid=31c4ebe8-2a4f-41b7-966a-7ad502ff3d8a","ios":"levelo://app?vid=31c4ebe8-2a4f-41b7-966a-7ad502ff3d8a"},"vehicle_type_id":"4","last_reported":1691200358,"current_range_meters":22000,"station_id":"ce4bhqp2rcd13ifvqhog","pricing_plan_id":"free"},{"bike_id":"b47ca02a-40ba-4dc8-abeb-b1a2c4b62cd0","system_id":"levelo_inurba_marseille","lat":43.32367,"lon":5.388836,"is_reserved":false,"is_disabled":false,"rental_uris":{"android":"levelo://app?vid=b47ca02a-40ba-4dc8-abeb-b1a2c4b62cd0","ios":"levelo://app?vid=b47ca02a-40ba-4dc8-abeb-b1a2c4b62cd0"},"vehicle_type_id":"4","last_reported":1691200358,"current_range_meters":800,"station_id":"ce4bhqp2rcd13ifvqhog","pricing_plan_id":"free"},{"bike_id":"3923fb10-4f11-4557-9f3a-41e6a793088d","system_id":"levelo_inurba_marseille","lat":43.32366,"lon":5.38884,"is_reserved":false,"is_disabled":false,"rental_uris":{"android":"levelo://app?vid=3923fb10-4f11-4557-9f3a-41e6a793088d","ios":"levelo://app?vid=3923fb10-4f11-4557-9f3a-41e6a793088d"},"vehicle_type_id":"4","last_reported":1691200358,"current_range_meters":4000,"station_id":"ce4bhqp2rcd13ifvqhog","pricing_plan_id":"free"},{"bike_id":"696ed9b6-9beb-423c-9d06-defcf66f30b9","system_id":"levelo_inurba_marseille","lat":43.32366,"lon":5.38884,"is_reserved":false,"is_disabled":false,"rental_uris":{"android":"levelo://app?vid=696ed9b6-9beb-423c-9d06-defcf66f30b9","ios":"levelo://app?vid=696ed9b6-9beb-423c-9d06-defcf66f30b9"},"vehicle_type_id":"4","last_reported":1691200358,"current_range_meters":13600,"station_id":"ce4bhqp2rcd13ifvqhog","pricing_plan_id":"free"},{"bike_id":"153806a9-c106-4acb-8efe-f81ba29b58d3","system_id":"levelo_inurba_marseille","lat":43.32367,"lon":5.388836,"is_reserved":false,"is_disabled":false,"rental_uris":{"android":"levelo://app?vid=153806a9-c106-4acb-8efe-f81ba29b58d3","ios":"levelo://app?vid=153806a9-c106-4acb-8efe-f81ba29b58d3"},"vehicle_type_id":"4","last_reported":1691200358,"current_range_meters":25600,"station_id":"ce4bhqp2rcd13ifvqhog","pricing_plan_id":"free"},{"bike_id":"6be534a9-96c6-4989-b3bb-e9dea76376c4","system_id":"levelo_inurba_marseille","lat":43.32365,"lon":5.38891,"is_reserved":false,"is_disabled":false,"rental_uris":{"android":"levelo://app?vid=6be534a9-96c6-4989-b3bb-e9dea76376c4","ios":"levelo://app?vid=6be534a9-96c6-4989-b3bb-e9dea76376c4"},"vehicle_type_id":"4","last_reported":1691200358,"current_range_meters":8400,"station_id":"ce4bhqp2rcd13ifvqhog","pricing_plan_id":"free"},{"bike_id":"95762652-a734-49d1-974c-bb07af362ca6","system_id":"levelo_inurba_marseille","lat":43.292311,"lon":5.360731,"is_reserved":false,"is_disabled":false,"rental_uris":{"android":"levelo://app?vid=95762652-a734-49d1-974c-bb07af362ca6","ios":"levelo://app?vid=95762652-a734-49d1-974c-bb07af362ca6"},"vehicle_type_id":"4","last_reported":1691200358,"current_range_meters":0,"station_id":"ce4bhbh2rcd13ifvqeqg","pricing_plan_id":"free"},{"bike_id":"4dc882ef-0b8a-480e-be52-492fc7d18f34","system_id":"levelo_inurba_marseille","lat":43.29706,"lon":5.38726,"is_reserved":false,"is_disabled":false,"rental_uris":{"android":"levelo://app?vid=4dc882ef-0b8a-480e-be52-492fc7d18f34","ios":"levelo://app?vid=4dc882ef-0b8a-480e-be52-492fc7d18f34"},"vehicle_type_id":"4","last_reported":1691200358,"current_range_meters":4000,"station_id":"","pricing_plan_id":"free"},{"bike_id":"73ef68a3-c405-4709-8c09-348081e638bc","system_id":"levelo_inurba_marseille","lat":43.29196,"lon":5.35804,"is_reserved":false,"is_disabled":false,"rental_uris":{"android":"levelo://app?vid=73ef68a3-c405-4709-8c09-348081e638bc","ios":"levelo://app?vid=73ef68a3-c405-4709-8c09-348081e638bc"},"vehicle_type_id":"4","last_reported":1691200358,"current_range_meters":28000,"station_id":"ce4bhb12rcd13ifvqel0","pricing_plan_id":"free"},{"bike_id":"0b9e9f78-eb76-491c-9188-e2aef1e2e70f","system_id":"levelo_inurba_marseille","lat":43.309038,"lon":5.396546,"is_reserved":false,"is_disabled":false,"rental_uris":{"android":"levelo://app?vid=0b9e9f78-eb76-491c-9188-e2aef1e2e70f","ios":"levelo://app?vid=0b9e9f78-eb76-491c-9188-e2aef1e2e70f"},"vehicle_type_id":"4","last_reported":1691200358,"current_range_meters":20800,"station_id":"ce4bh012rcd13ifvqcv0","pricing_plan_id":"free"},{"bike_id":"732d6916-7d23-4824-bd9d-f12772e1f638","system_id":"levelo_inurba_marseille","lat":43.31321,"lon":5.39689,"is_reserved":false,"is_disabled":false,"rental_uris":{"android":"levelo://app?vid=732d6916-7d23-4824-bd9d-f12772e1f638","ios":"levelo://app?vid=732d6916-7d23-4824-bd9d-f12772e1f638"},"vehicle_type_id":"4","last_reported":1691200358,"current_range_meters":28400,"station_id":"ce4bgvp2rcd13ifvqcu0","pricing_plan_id":"free"},{"bike_id":"75940d41-b8a2-41da-a9e6-9ebe0b8325a7","system_id":"levelo_inurba_marseille","lat":43.31329,"lon":5.3969,"is_reserved":false,"is_disabled":false,"rental_uris":{"android":"levelo://app?vid=75940d41-b8a2-41da-a9e6-9ebe0b8325a7","ios":"levelo://app?vid=75940d41-b8a2-41da-a9e6-9ebe0b8325a7"},"vehicle_type_id":"4","last_reported":1691200358,"current_range_meters":16800,"station_id":"ce4bgvp2rcd13ifvqcu0","pricing_plan_id":"free"},{"bike_id":"4a008422-29a4-458e-a2c7-038b8d570857","system_id":"levelo_inurba_marseille","lat":43.31317,"lon":5.39691,"is_reserved":false,"is_disabled":false,"rental_uris":{"android":"levelo://app?vid=4a008422-29a4-458e-a2c7-038b8d570857","ios":"levelo://app?vid=4a008422-29a4-458e-a2c7-038b8d570857"},"vehicle_type_id":"4","last_reported":1691200358,"current_range_meters":14400,"station_id":"ce4bgvp2rcd13ifvqcu0","pricing_plan_id":"free"},{"bike_id":"0288d276-f1da-474e-8992-fc865d32c018","system_id":"levelo_inurba_marseille","lat":43.31332,"lon":5.39692,"is_reserved":false,"is_disabled":false,"rental_uris":{"android":"levelo://app?vid=0288d276-f1da-474e-8992-fc865d32c018","ios":"levelo://app?vid=0288d276-f1da-474e-8992-fc865d32c018"},"vehicle_type_id":"4","last_reported":1691200358,"current_range_meters":28400,"station_id":"ce4bgvp2rcd13ifvqcu0","pricing_plan_id":"free"},{"bike_id":"ebbf0889-294e-4a97-b816-80e14ee272d5","system_id":"levelo_inurba_marseille","lat":43.31329,"lon":5.39693,"is_reserved":false,"is_disabled":false,"rental_uris":{"android":"levelo://app?vid=ebbf0889-294e-4a97-b816-80e14ee272d5","ios":"levelo://app?vid=ebbf0889-294e-4a97-b816-80e14ee272d5"},"vehicle_type_id":"4","last_reported":1691200358,"current_range_meters":25200,"station_id":"ce4bgvp2rcd13ifvqcu0","pricing_plan_id":"free"},{"bike_id":"12fa8514-0a68-41f7-bb46-e07e792351de","system_id":"levelo_inurba_marseille","lat":43.31324,"lon":5.39695,"is_reserved":false,"is_disabled":false,"rental_uris":{"android":"levelo://app?vid=12fa8514-0a68-41f7-bb46-e07e792351de","ios":"levelo://app?vid=12fa8514-0a68-41f7-bb46-e07e792351de"},"vehicle_type_id":"4","last_reported":1691200358,"current_range_meters":800,"station_id":"ce4bgvp2rcd13ifvqcu0","pricing_plan_id":"free"},{"bike_id":"d1ffca73-7d13-4241-8f74-14210fca76f7","system_id":"levelo_inurba_marseille","lat":43.313291,"lon":5.396838,"is_reserved":false,"is_disabled":false,"rental_uris":{"android":"levelo://app?vid=d1ffca73-7d13-4241-8f74-14210fca76f7","ios":"levelo://app?vid=d1ffca73-7d13-4241-8f74-14210fca76f7"},"vehicle_type_id":"4","last_reported":1691200358,"current_range_meters":400,"station_id":"ce4bgvp2rcd13ifvqcu0","pricing_plan_id":"free"},{"bike_id":"4e6846ae-36f1-4235-93d3-4da7c9b10477","system_id":"levelo_inurba_marseille","lat":43.313291,"lon":5.396838,"is_reserved":false,"is_disabled":false,"rental_uris":{"android":"levelo://app?vid=4e6846ae-36f1-4235-93d3-4da7c9b10477","ios":"levelo://app?vid=4e6846ae-36f1-4235-93d3-4da7c9b10477"},"vehicle_type_id":"4","last_reported":1691200358,"current_range_meters":24400,"station_id":"ce4bgvp2rcd13ifvqcu0","pricing_plan_id":"free"},{"bike_id":"6a78cfee-a0d7-4f90-b817-7d7948c89d9c","system_id":"levelo_inurba_marseille","lat":43.31322,"lon":5.39696,"is_reserved":false,"is_disabled":false,"rental_uris":{"android":"levelo://app?vid=6a78cfee-a0d7-4f90-b817-7d7948c89d9c","ios":"levelo://app?vid=6a78cfee-a0d7-4f90-b817-7d7948c89d9c"},"vehicle_type_id":"4","last_reported":1691200358,"current_range_meters":28800,"station_id":"ce4bgvp2rcd13ifvqcu0","pricing_plan_id":"free"},{"bike_id":"8ce13b56-1737-47c1-99cb-f47c5df85884","system_id":"levelo_inurba_marseille","lat":43.31323,"lon":5.39696,"is_reserved":false,"is_disabled":false,"rental_uris":{"android":"levelo://app?vid=8ce13b56-1737-47c1-99cb-f47c5df85884","ios":"levelo://app?vid=8ce13b56-1737-47c1-99cb-f47c5df85884"},"vehicle_type_id":"4","last_reported":1691200358,"current_range_meters":21200,"station_id":"ce4bgvp2rcd13ifvqcu0","pricing_plan_id":"free"},{"bike_id":"c259fa64-952d-495c-b966-f6381bf49a42","system_id":"levelo_inurba_marseille","lat":43.30872,"lon":5.39646,"is_reserved":false,"is_disabled":false,"rental_uris":{"android":"levelo://app?vid=c259fa64-952d-495c-b966-f6381bf49a42","ios":"levelo://app?vid=c259fa64-952d-495c-b966-f6381bf49a42"},"vehicle_type_id":"4","last_reported":1691200358,"current_range_meters":20000,"station_id":"ce4bh012rcd13ifvqcv0","pricing_plan_id":"free"},{"bike_id":"ce9af7e8-c390-4052-bc70-643c83bd28f0","system_id":"levelo_inurba_marseille","lat":43.31321,"lon":5.39697,"is_reserved":false,"is_disabled":false,"rental_uris":{"android":"levelo://app?vid=ce9af7e8-c390-4052-bc70-643c83bd28f0","ios":"levelo://app?vid=ce9af7e8-c390-4052-bc70-643c83bd28f0"},"vehicle_type_id":"4","last_reported":1691200358,"current_range_meters":28000,"station_id":"ce4bgvp2rcd13ifvqcu0","pricing_plan_id":"free"},{"bike_id":"4282928a-65ca-455f-9646-806d7e6ca5a3","system_id":"levelo_inurba_marseille","lat":43.31322,"lon":5.39697,"is_reserved":false,"is_disabled":false,"rental_uris":{"android":"levelo://app?vid=4282928a-65ca-455f-9646-806d7e6ca5a3","ios":"levelo://app?vid=4282928a-65ca-455f-9646-806d7e6ca5a3"},"vehicle_type_id":"4","last_reported":1691200358,"current_range_meters":25200,"station_id":"ce4bgvp2rcd13ifvqcu0","pricing_plan_id":"free"},{"bike_id":"40a7725f-bc55-4693-9c45-86bc7b0e8476","system_id":"levelo_inurba_marseille","lat":43.313291,"lon":5.396838,"is_reserved":false,"is_disabled":false,"rental_uris":{"android":"levelo://app?vid=40a7725f-bc55-4693-9c45-86bc7b0e8476","ios":"levelo://app?vid=40a7725f-bc55-4693-9c45-86bc7b0e8476"},"vehicle_type_id":"4","last_reported":1691200358,"current_range_meters":26800,"station_id":"ce4bgvp2rcd13ifvqcu0","pricing_plan_id":"free"},{"bike_id":"48a4675c-3592-4e86-b588-5cd026951643","system_id":"levelo_inurba_marseille","lat":43.31321,"lon":5.39699,"is_reserved":false,"is_disabled":false,"rental_uris":{"android":"levelo://app?vid=48a4675c-3592-4e86-b588-5cd026951643","ios":"levelo://app?vid=48a4675c-3592-4e86-b588-5cd026951643"},"vehicle_type_id":"4","last_reported":1691200358,"current_range_meters":800,"station_id":"ce4bgvp2rcd13ifvqcu0","pricing_plan_id":"free"},{"bike_id":"6761a8b1-91fb-4cd4-8397-cdcd34da0a44","system_id":"levelo_inurba_marseille","lat":43.31324,"lon":5.39699,"is_reserved":false,"is_disabled":false,"rental_uris":{"android":"levelo://app?vid=6761a8b1-91fb-4cd4-8397-cdcd34da0a44","ios":"levelo://app?vid=6761a8b1-91fb-4cd4-8397-cdcd34da0a44"},"vehicle_type_id":"4","last_reported":1691200358,"current_range_meters":17600,"station_id":"ce4bgvp2rcd13ifvqcu0","pricing_plan_id":"free"},{"bike_id":"901c0933-e476-4936-8c39-6917a5722138","system_id":"levelo_inurba_marseille","lat":43.31323,"lon":5.397,"is_reserved":false,"is_disabled":false,"rental_uris":{"android":"levelo://app?vid=901c0933-e476-4936-8c39-6917a5722138","ios":"levelo://app?vid=901c0933-e476-4936-8c39-6917a5722138"},"vehicle_type_id":"4","last_reported":1691200358,"current_range_meters":22400,"station_id":"ce4bgvp2rcd13ifvqcu0","pricing_plan_id":"free"},{"bike_id":"40b0dbf0-87f6-4363-b8e9-d1cac15b6861","system_id":"levelo_inurba_marseille","lat":43.31324,"lon":5.397,"is_reserved":false,"is_disabled":false,"rental_uris":{"android":"levelo://app?vid=40b0dbf0-87f6-4363-b8e9-d1cac15b6861","ios":"levelo://app?vid=40b0dbf0-87f6-4363-b8e9-d1cac15b6861"},"vehicle_type_id":"4","last_reported":1691200358,"current_range_meters":28000,"station_id":"ce4bgvp2rcd13ifvqcu0","pricing_plan_id":"free"},{"bike_id":"0c872fac-4908-4c2b-8165-2f366f0421b8","system_id":"levelo_inurba_marseille","lat":43.31331,"lon":5.397,"is_reserved":false,"is_disabled":false,"rental_uris":{"android":"levelo://app?vid=0c872fac-4908-4c2b-8165-2f366f0421b8","ios":"levelo://app?vid=0c872fac-4908-4c2b-8165-2f366f0421b8"},"vehicle_type_id":"4","last_reported":1691200358,"current_range_meters":28800,"station_id":"ce4bgvp2rcd13ifvqcu0","pricing_plan_id":"free"},{"bike_id":"152b437f-135a-41a9-8809-789f80214774","system_id":"levelo_inurba_marseille","lat":43.313291,"lon":5.396838,"is_reserved":false,"is_disabled":false,"rental_uris":{"android":"levelo://app?vid=152b437f-135a-41a9-8809-789f80214774","ios":"levelo://app?vid=152b437f-135a-41a9-8809-789f80214774"},"vehicle_type_id":"4","last_reported":1691200358,"current_range_meters":26000,"station_id":"ce4bgvp2rcd13ifvqcu0","pricing_plan_id":"free"},{"bike_id":"a054dae8-4caf-405d-b27d-3ed2e75c9e72","system_id":"levelo_inurba_marseille","lat":43.30879,"lon":5.39659,"is_reserved":false,"is_disabled":false,"rental_uris":{"android":"levelo://app?vid=a054dae8-4caf-405d-b27d-3ed2e75c9e72","ios":"levelo://app?vid=a054dae8-4caf-405d-b27d-3ed2e75c9e72"},"vehicle_type_id":"4","last_reported":1691200358,"current_range_meters":3200,"station_id":"ce4bh012rcd13ifvqcv0","pricing_plan_id":"free"},{"bike_id":"8c895251-6ad1-431a-9ae8-ce5bd40962d2","system_id":"levelo_inurba_marseille","lat":43.302008,"lon":5.394694,"is_reserved":false,"is_disabled":false,"rental_uris":{"android":"levelo://app?vid=8c895251-6ad1-431a-9ae8-ce5bd40962d2","ios":"levelo://app?vid=8c895251-6ad1-431a-9ae8-ce5bd40962d2"},"vehicle_type_id":"4","last_reported":1691200358,"current_range_meters":21600,"station_id":"ce4bh0p2rcd13ifvqd70","pricing_plan_id":"free"},{"bike_id":"fb06ac03-8683-49c4-9c4e-fc3b19714f2a","system_id":"levelo_inurba_marseille","lat":43.302008,"lon":5.394694,"is_reserved":false,"is_disabled":false,"rental_uris":{"android":"levelo://app?vid=fb06ac03-8683-49c4-9c4e-fc3b19714f2a","ios":"levelo://app?vid=fb06ac03-8683-49c4-9c4e-fc3b19714f2a"},"vehicle_type_id":"4","last_reported":1691200358,"current_range_meters":0,"station_id":"ce4bh0p2rcd13ifvqd70","pricing_plan_id":"free"},{"bike_id":"a0ccfa2b-d167-42ae-8e74-a42eb12f353b","system_id":"levelo_inurba_marseille","lat":43.290631,"lon":5.359244,"is_reserved":false,"is_disabled":false,"rental_uris":{"android":"levelo://app?vid=a0ccfa2b-d167-42ae-8e74-a42eb12f353b","ios":"levelo://app?vid=a0ccfa2b-d167-42ae-8e74-a42eb12f353b"},"vehicle_type_id":"4","last_reported":1691200358,"current_range_meters":29200,"station_id":"ce4bha92rcd13ifvqeg0","pricing_plan_id":"free"},{"bike_id":"d68f05ae-bc3a-4496-b9ae-34a5a4ceef4b","system_id":"levelo_inurba_marseille","lat":43.290327,"lon":5.375711,"is_reserved":false,"is_disabled":false,"rental_uris":{"android":"levelo://app?vid=d68f05ae-bc3a-4496-b9ae-34a5a4ceef4b","ios":"levelo://app?vid=d68f05ae-bc3a-4496-b9ae-34a5a4ceef4b"},"vehicle_type_id":"4","last_reported":1691200358,"current_range_meters":0,"station_id":"ce4bh692rcd13ifvqe90","pricing_plan_id":"free"},{"bike_id":"9e6652ba-11d4-4e5a-aa94-ced9abd3ada7","system_id":"levelo_inurba_marseille","lat":43.289184,"lon":5.366408,"is_reserved":false,"is_disabled":false,"rental_uris":{"android":"levelo://app?vid=9e6652ba-11d4-4e5a-aa94-ced9abd3ada7","ios":"levelo://app?vid=9e6652ba-11d4-4e5a-aa94-ced9abd3ada7"},"vehicle_type_id":"4","last_reported":1691200358,"current_range_meters":30000,"station_id":"ce4bhap2rcd13ifvqek0","pricing_plan_id":"free"},{"bike_id":"4432c841-3c6b-48e6-b1b1-f1222d7007fa","system_id":"levelo_inurba_marseille","lat":43.289468,"lon":5.363719,"is_reserved":false,"is_disabled":false,"rental_uris":{"android":"levelo://app?vid=4432c841-3c6b-48e6-b1b1-f1222d7007fa","ios":"levelo://app?vid=4432c841-3c6b-48e6-b1b1-f1222d7007fa"},"vehicle_type_id":"4","last_reported":1691200358,"current_range_meters":17600,"station_id":"ce4bhc92rcd13ifvqetg","pricing_plan_id":"free"},{"bike_id":"52feecfd-0330-446c-b077-6ca664126159","system_id":"levelo_inurba_marseille","lat":43.289468,"lon":5.363719,"is_reserved":false,"is_disabled":false,"rental_uris":{"android":"levelo://app?vid=52feecfd-0330-446c-b077-6ca664126159","ios":"levelo://app?vid=52feecfd-0330-446c-b077-6ca664126159"},"vehicle_type_id":"4","last_reported":1691200358,"current_range_meters":28400,"station_id":"ce4bhc92rcd13ifvqetg","pricing_plan_id":"free"},{"bike_id":"920107ea-b65c-4c68-969c-05dc3924b2ce","system_id":"levelo_inurba_marseille","lat":43.304296,"lon":5.397513,"is_reserved":false,"is_disabled":false,"rental_uris":{"android":"levelo://app?vid=920107ea-b65c-4c68-969c-05dc3924b2ce","ios":"levelo://app?vid=920107ea-b65c-4c68-969c-05dc3924b2ce"},"vehicle_type_id":"4","last_reported":1691200358,"current_range_meters":4800,"station_id":"ce4bh092rcd13ifvqd20","pricing_plan_id":"free"},{"bike_id":"09ce564f-1309-45d2-9b43-6f1e24fa05f4","system_id":"levelo_inurba_marseille","lat":43.290103,"lon":5.356114,"is_reserved":false,"is_disabled":false,"rental_uris":{"android":"levelo://app?vid=09ce564f-1309-45d2-9b43-6f1e24fa05f4","ios":"levelo://app?vid=09ce564f-1309-45d2-9b43-6f1e24fa05f4"},"vehicle_type_id":"4","last_reported":1691200358,"current_range_meters":21600,"station_id":"ce4bhb92rcd13ifvqen0","pricing_plan_id":"free"},{"bike_id":"9692718f-5e29-4ec7-a5d8-53f40d94ef49","system_id":"levelo_inurba_marseille","lat":43.33037,"lon":5.38919,"is_reserved":false,"is_disabled":false,"rental_uris":{"android":"levelo://app?vid=9692718f-5e29-4ec7-a5d8-53f40d94ef49","ios":"levelo://app?vid=9692718f-5e29-4ec7-a5d8-53f40d94ef49"},"vehicle_type_id":"4","last_reported":1691200358,"current_range_meters":22800,"station_id":"ce4bhr92rcd13ifvqhrg","pricing_plan_id":"free"},{"bike_id":"f67edc25-bcc7-41fb-8431-1add679b0933","system_id":"levelo_inurba_marseille","lat":43.33042,"lon":5.38916,"is_reserved":false,"is_disabled":false,"rental_uris":{"android":"levelo://app?vid=f67edc25-bcc7-41fb-8431-1add679b0933","ios":"levelo://app?vid=f67edc25-bcc7-41fb-8431-1add679b0933"},"vehicle_type_id":"4","last_reported":1691200358,"current_range_meters":18400,"station_id":"ce4bhr92rcd13ifvqhrg","pricing_plan_id":"free"},{"bike_id":"a86ea97e-ea32-42cc-81e3-598b0a6f4f26","system_id":"levelo_inurba_marseille","lat":43.290103,"lon":5.356114,"is_reserved":false,"is_disabled":false,"rental_uris":{"android":"levelo://app?vid=a86ea97e-ea32-42cc-81e3-598b0a6f4f26","ios":"levelo://app?vid=a86ea97e-ea32-42cc-81e3-598b0a6f4f26"},"vehicle_type_id":"4","last_reported":1691200358,"current_range_meters":14800,"station_id":"ce4bhb92rcd13ifvqen0","pricing_plan_id":"free"},{"bike_id":"8ace282d-a246-40c2-9516-a60b5d85bb41","system_id":"levelo_inurba_marseille","lat":43.33043,"lon":5.38917,"is_reserved":false,"is_disabled":false,"rental_uris":{"android":"levelo://app?vid=8ace282d-a246-40c2-9516-a60b5d85bb41","ios":"levelo://app?vid=8ace282d-a246-40c2-9516-a60b5d85bb41"},"vehicle_type_id":"4","last_reported":1691200358,"current_range_meters":21600,"station_id":"ce4bhr92rcd13ifvqhrg","pricing_plan_id":"free"},{"bike_id":"98f910d2-52f4-4465-977e-10142d8cca43","system_id":"levelo_inurba_marseille","lat":43.33042,"lon":5.38919,"is_reserved":false,"is_disabled":false,"rental_uris":{"android":"levelo://app?vid=98f910d2-52f4-4465-977e-10142d8cca43","ios":"levelo://app?vid=98f910d2-52f4-4465-977e-10142d8cca43"},"vehicle_type_id":"4","last_reported":1691200358,"current_range_meters":18800,"station_id":"ce4bhr92rcd13ifvqhrg","pricing_plan_id":"free"},{"bike_id":"34fc0bae-b089-42d1-99d0-10d5b39f2b41","system_id":"levelo_inurba_marseille","lat":43.33042,"lon":5.38919,"is_reserved":false,"is_disabled":false,"rental_uris":{"android":"levelo://app?vid=34fc0bae-b089-42d1-99d0-10d5b39f2b41","ios":"levelo://app?vid=34fc0bae-b089-42d1-99d0-10d5b39f2b41"},"vehicle_type_id":"4","last_reported":1691200358,"current_range_meters":24000,"station_id":"ce4bhr92rcd13ifvqhrg","pricing_plan_id":"free"},{"bike_id":"e6c6e4e8-edee-449e-8936-76c8ef3752c4","system_id":"levelo_inurba_marseille","lat":43.33042,"lon":5.38919,"is_reserved":false,"is_disabled":false,"rental_uris":{"android":"levelo://app?vid=e6c6e4e8-edee-449e-8936-76c8ef3752c4","ios":"levelo://app?vid=e6c6e4e8-edee-449e-8936-76c8ef3752c4"},"vehicle_type_id":"4","last_reported":1691200358,"current_range_meters":21600,"station_id":"ce4bhr92rcd13ifvqhrg","pricing_plan_id":"free"},{"bike_id":"2f2d42a2-8de0-405f-9429-d3eae654394c","system_id":"levelo_inurba_marseille","lat":43.33044,"lon":5.38916,"is_reserved":false,"is_disabled":false,"rental_uris":{"android":"levelo://app?vid=2f2d42a2-8de0-405f-9429-d3eae654394c","ios":"levelo://app?vid=2f2d42a2-8de0-405f-9429-d3eae654394c"},"vehicle_type_id":"4","last_reported":1691200358,"current_range_meters":19600,"station_id":"ce4bhr92rcd13ifvqhrg","pricing_plan_id":"free"},{"bike_id":"976f718a-bfdb-4480-a757-e5b9a5d1a5d6","system_id":"levelo_inurba_marseille","lat":43.33046,"lon":5.38913,"is_reserved":false,"is_disabled":false,"rental_uris":{"android":"levelo://app?vid=976f718a-bfdb-4480-a757-e5b9a5d1a5d6","ios":"levelo://app?vid=976f718a-bfdb-4480-a757-e5b9a5d1a5d6"},"vehicle_type_id":"4","last_reported":1691200358,"current_range_meters":27600,"station_id":"ce4bhr92rcd13ifvqhrg","pricing_plan_id":"free"},{"bike_id":"9ce62819-7d94-47c9-aff2-f56e39f0ba59","system_id":"levelo_inurba_marseille","lat":43.33043,"lon":5.38918,"is_reserved":false,"is_disabled":false,"rental_uris":{"android":"levelo://app?vid=9ce62819-7d94-47c9-aff2-f56e39f0ba59","ios":"levelo://app?vid=9ce62819-7d94-47c9-aff2-f56e39f0ba59"},"vehicle_type_id":"4","last_reported":1691200358,"current_range_meters":29600,"station_id":"ce4bhr92rcd13ifvqhrg","pricing_plan_id":"free"},{"bike_id":"20baf9c0-8e85-4ffb-a39a-3eca99fbd699","system_id":"levelo_inurba_marseille","lat":43.33042,"lon":5.3892,"is_reserved":false,"is_disabled":false,"rental_uris":{"android":"levelo://app?vid=20baf9c0-8e85-4ffb-a39a-3eca99fbd699","ios":"levelo://app?vid=20baf9c0-8e85-4ffb-a39a-3eca99fbd699"},"vehicle_type_id":"4","last_reported":1691200358,"current_range_meters":800,"station_id":"ce4bhr92rcd13ifvqhrg","pricing_plan_id":"free"},{"bike_id":"cedbc9c4-3cd8-4974-be60-104359550a71","system_id":"levelo_inurba_marseille","lat":43.33048,"lon":5.38911,"is_reserved":false,"is_disabled":false,"rental_uris":{"android":"levelo://app?vid=cedbc9c4-3cd8-4974-be60-104359550a71","ios":"levelo://app?vid=cedbc9c4-3cd8-4974-be60-104359550a71"},"vehicle_type_id":"4","last_reported":1691200358,"current_range_meters":10400,"station_id":"ce4bhr92rcd13ifvqhrg","pricing_plan_id":"free"},{"bike_id":"37fde894-3336-4087-bf88-b0989bbc514a","system_id":"levelo_inurba_marseille","lat":43.33044,"lon":5.38918,"is_reserved":false,"is_disabled":false,"rental_uris":{"android":"levelo://app?vid=37fde894-3336-4087-bf88-b0989bbc514a","ios":"levelo://app?vid=37fde894-3336-4087-bf88-b0989bbc514a"},"vehicle_type_id":"4","last_reported":1691200358,"current_range_meters":6000,"station_id":"ce4bhr92rcd13ifvqhrg","pricing_plan_id":"free"},{"bike_id":"db7952dd-c6d8-42c2-918b-068ba9bccee2","system_id":"levelo_inurba_marseille","lat":43.33047,"lon":5.38914,"is_reserved":false,"is_disabled":false,"rental_uris":{"android":"levelo://app?vid=db7952dd-c6d8-42c2-918b-068ba9bccee2","ios":"levelo://app?vid=db7952dd-c6d8-42c2-918b-068ba9bccee2"},"vehicle_type_id":"4","last_reported":1691200358,"current_range_meters":6800,"station_id":"ce4bhr92rcd13ifvqhrg","pricing_plan_id":"free"},{"bike_id":"00b2dcdc-2882-40a1-9132-89c3ec15cf18","system_id":"levelo_inurba_marseille","lat":43.33045,"lon":5.38918,"is_reserved":false,"is_disabled":false,"rental_uris":{"android":"levelo://app?vid=00b2dcdc-2882-40a1-9132-89c3ec15cf18","ios":"levelo://app?vid=00b2dcdc-2882-40a1-9132-89c3ec15cf18"},"vehicle_type_id":"4","last_reported":1691200358,"current_range_meters":16800,"station_id":"ce4bhr92rcd13ifvqhrg","pricing_plan_id":"free"},{"bike_id":"c16feec1-751c-4e1b-bf24-3956b18a7335","system_id":"levelo_inurba_marseille","lat":43.33041,"lon":5.38924,"is_reserved":false,"is_disabled":false,"rental_uris":{"android":"levelo://app?vid=c16feec1-751c-4e1b-bf24-3956b18a7335","ios":"levelo://app?vid=c16feec1-751c-4e1b-bf24-3956b18a7335"},"vehicle_type_id":"4","last_reported":1691200358,"current_range_meters":4400,"station_id":"ce4bhr92rcd13ifvqhrg","pricing_plan_id":"free"},{"bike_id":"2dba05d3-f7a4-4dcc-9133-7e306f42ddbb","system_id":"levelo_inurba_marseille","lat":43.33046,"lon":5.38919,"is_reserved":false,"is_disabled":false,"rental_uris":{"android":"levelo://app?vid=2dba05d3-f7a4-4dcc-9133-7e306f42ddbb","ios":"levelo://app?vid=2dba05d3-f7a4-4dcc-9133-7e306f42ddbb"},"vehicle_type_id":"4","last_reported":1691200358,"current_range_meters":0,"station_id":"ce4bhr92rcd13ifvqhrg","pricing_plan_id":"free"},{"bike_id":"20cb5f5a-181a-4021-97b1-43635f1dcccc","system_id":"levelo_inurba_marseille","lat":43.330462,"lon":5.389192,"is_reserved":false,"is_disabled":false,"rental_uris":{"android":"levelo://app?vid=20cb5f5a-181a-4021-97b1-43635f1dcccc","ios":"levelo://app?vid=20cb5f5a-181a-4021-97b1-43635f1dcccc"},"vehicle_type_id":"4","last_reported":1691200358,"current_range_meters":2000,"station_id":"ce4bhr92rcd13ifvqhrg","pricing_plan_id":"free"},{"bike_id":"87a91d50-b0ca-4c64-94ae-7cf78dbb050f","system_id":"levelo_inurba_marseille","lat":43.33041,"lon":5.38927,"is_reserved":false,"is_disabled":false,"rental_uris":{"android":"levelo://app?vid=87a91d50-b0ca-4c64-94ae-7cf78dbb050f","ios":"levelo://app?vid=87a91d50-b0ca-4c64-94ae-7cf78dbb050f"},"vehicle_type_id":"4","last_reported":1691200358,"current_range_meters":15600,"station_id":"ce4bhr92rcd13ifvqhrg","pricing_plan_id":"free"},{"bike_id":"20cf3f6d-acf4-4653-bf24-baa04253f77a","system_id":"levelo_inurba_marseille","lat":43.33046,"lon":5.3892,"is_reserved":false,"is_disabled":false,"rental_uris":{"android":"levelo://app?vid=20cf3f6d-acf4-4653-bf24-baa04253f77a","ios":"levelo://app?vid=20cf3f6d-acf4-4653-bf24-baa04253f77a"},"vehicle_type_id":"4","last_reported":1691200358,"current_range_meters":16800,"station_id":"ce4bhr92rcd13ifvqhrg","pricing_plan_id":"free"},{"bike_id":"1dd3314a-c89e-4b6b-be21-3f1292ec480d","system_id":"levelo_inurba_marseille","lat":43.290103,"lon":5.356114,"is_reserved":false,"is_disabled":false,"rental_uris":{"android":"levelo://app?vid=1dd3314a-c89e-4b6b-be21-3f1292ec480d","ios":"levelo://app?vid=1dd3314a-c89e-4b6b-be21-3f1292ec480d"},"vehicle_type_id":"4","last_reported":1691200358,"current_range_meters":31200,"station_id":"ce4bhb92rcd13ifvqen0","pricing_plan_id":"free"},{"bike_id":"aca46eb9-064b-4eb3-b3b8-161733c20f1a","system_id":"levelo_inurba_marseille","lat":43.290103,"lon":5.356114,"is_reserved":false,"is_disabled":false,"rental_uris":{"android":"levelo://app?vid=aca46eb9-064b-4eb3-b3b8-161733c20f1a","ios":"levelo://app?vid=aca46eb9-064b-4eb3-b3b8-161733c20f1a"},"vehicle_type_id":"4","last_reported":1691200358,"current_range_meters":26000,"station_id":"ce4bhb92rcd13ifvqen0","pricing_plan_id":"free"},{"bike_id":"38c1adea-6867-4940-9699-a628b1958570","system_id":"levelo_inurba_marseille","lat":43.33042,"lon":5.38932,"is_reserved":false,"is_disabled":false,"rental_uris":{"android":"levelo://app?vid=38c1adea-6867-4940-9699-a628b1958570","ios":"levelo://app?vid=38c1adea-6867-4940-9699-a628b1958570"},"vehicle_type_id":"4","last_reported":1691200358,"current_range_meters":30000,"station_id":"ce4bhr92rcd13ifvqhrg","pricing_plan_id":"free"},{"bike_id":"4ec1e816-1bbf-4d7b-9fa3-79c1b35725a7","system_id":"levelo_inurba_marseille","lat":43.290104,"lon":5.356111,"is_reserved":false,"is_disabled":false,"rental_uris":{"android":"levelo://app?vid=4ec1e816-1bbf-4d7b-9fa3-79c1b35725a7","ios":"levelo://app?vid=4ec1e816-1bbf-4d7b-9fa3-79c1b35725a7"},"vehicle_type_id":"4","last_reported":1691200358,"current_range_meters":30400,"station_id":"ce4bhb92rcd13ifvqen0","pricing_plan_id":"free"},{"bike_id":"58d9daa4-9c4c-4dbc-a91c-3eee752552f5","system_id":"levelo_inurba_marseille","lat":43.30479,"lon":5.39823,"is_reserved":false,"is_disabled":false,"rental_uris":{"android":"levelo://app?vid=58d9daa4-9c4c-4dbc-a91c-3eee752552f5","ios":"levelo://app?vid=58d9daa4-9c4c-4dbc-a91c-3eee752552f5"},"vehicle_type_id":"4","last_reported":1691200358,"current_range_meters":20400,"station_id":"","pricing_plan_id":"free"},{"bike_id":"92399ced-c134-44e2-91d9-2eb55a1e34d1","system_id":"levelo_inurba_marseille","lat":43.31053,"lon":5.40008,"is_reserved":false,"is_disabled":false,"rental_uris":{"android":"levelo://app?vid=92399ced-c134-44e2-91d9-2eb55a1e34d1","ios":"levelo://app?vid=92399ced-c134-44e2-91d9-2eb55a1e34d1"},"vehicle_type_id":"4","last_reported":1691200358,"current_range_meters":20800,"station_id":"ce4bh012rcd13ifvqcv0","pricing_plan_id":"free"},{"bike_id":"05bf2cc0-c80b-4d3b-9303-5cea93148e89","system_id":"levelo_inurba_marseille","lat":43.290995,"lon":5.381361,"is_reserved":false,"is_disabled":false,"rental_uris":{"android":"levelo://app?vid=05bf2cc0-c80b-4d3b-9303-5cea93148e89","ios":"levelo://app?vid=05bf2cc0-c80b-4d3b-9303-5cea93148e89"},"vehicle_type_id":"4","last_reported":1691200358,"current_range_meters":30800,"station_id":"ce4bh512rcd13ifvqe2g","pricing_plan_id":"free"},{"bike_id":"9edd0d85-be19-4c5c-8ce6-71a40992a140","system_id":"levelo_inurba_marseille","lat":43.29796,"lon":5.39338,"is_reserved":false,"is_disabled":false,"rental_uris":{"android":"levelo://app?vid=9edd0d85-be19-4c5c-8ce6-71a40992a140","ios":"levelo://app?vid=9edd0d85-be19-4c5c-8ce6-71a40992a140"},"vehicle_type_id":"4","last_reported":1691200358,"current_range_meters":22800,"station_id":"chh1huq6cuj3fo74tm60","pricing_plan_id":"free"},{"bike_id":"e3aaffbb-fe8a-4c73-9242-dde8fcf90d89","system_id":"levelo_inurba_marseille","lat":43.28856,"lon":5.358371,"is_reserved":false,"is_disabled":false,"rental_uris":{"android":"levelo://app?vid=e3aaffbb-fe8a-4c73-9242-dde8fcf90d89","ios":"levelo://app?vid=e3aaffbb-fe8a-4c73-9242-dde8fcf90d89"},"vehicle_type_id":"4","last_reported":1691200358,"current_range_meters":28000,"station_id":"ce4bhb12rcd13ifvqem0","pricing_plan_id":"free"},{"bike_id":"a726a99f-f654-4ca3-a14d-29b0cb2c7782","system_id":"levelo_inurba_marseille","lat":43.28856,"lon":5.358371,"is_reserved":false,"is_disabled":false,"rental_uris":{"android":"levelo://app?vid=a726a99f-f654-4ca3-a14d-29b0cb2c7782","ios":"levelo://app?vid=a726a99f-f654-4ca3-a14d-29b0cb2c7782"},"vehicle_type_id":"4","last_reported":1691200358,"current_range_meters":31600,"station_id":"ce4bhb12rcd13ifvqem0","pricing_plan_id":"free"},{"bike_id":"94c4efb6-d1d9-4cb4-a652-cd1ca20e32b4","system_id":"levelo_inurba_marseille","lat":43.28856,"lon":5.358371,"is_reserved":false,"is_disabled":false,"rental_uris":{"android":"levelo://app?vid=94c4efb6-d1d9-4cb4-a652-cd1ca20e32b4","ios":"levelo://app?vid=94c4efb6-d1d9-4cb4-a652-cd1ca20e32b4"},"vehicle_type_id":"4","last_reported":1691200358,"current_range_meters":26400,"station_id":"ce4bhb12rcd13ifvqem0","pricing_plan_id":"free"},{"bike_id":"0435966a-0f19-4cf1-b45e-61abebd911e3","system_id":"levelo_inurba_marseille","lat":43.28856,"lon":5.358371,"is_reserved":false,"is_disabled":false,"rental_uris":{"android":"levelo://app?vid=0435966a-0f19-4cf1-b45e-61abebd911e3","ios":"levelo://app?vid=0435966a-0f19-4cf1-b45e-61abebd911e3"},"vehicle_type_id":"4","last_reported":1691200358,"current_range_meters":28000,"station_id":"ce4bhb12rcd13ifvqem0","pricing_plan_id":"free"},{"bike_id":"1ad3af47-a8f6-4f45-afe7-62a21dc14149","system_id":"levelo_inurba_marseille","lat":43.31272,"lon":5.40166,"is_reserved":false,"is_disabled":false,"rental_uris":{"android":"levelo://app?vid=1ad3af47-a8f6-4f45-afe7-62a21dc14149","ios":"levelo://app?vid=1ad3af47-a8f6-4f45-afe7-62a21dc14149"},"vehicle_type_id":"4","last_reported":1691200358,"current_range_meters":15200,"station_id":"ce4bh092rcd13ifvqd30","pricing_plan_id":"free"},{"bike_id":"cb3430a5-5a38-4229-9da2-5a370bd5644f","system_id":"levelo_inurba_marseille","lat":43.30936,"lon":5.40139,"is_reserved":false,"is_disabled":false,"rental_uris":{"android":"levelo://app?vid=cb3430a5-5a38-4229-9da2-5a370bd5644f","ios":"levelo://app?vid=cb3430a5-5a38-4229-9da2-5a370bd5644f"},"vehicle_type_id":"4","last_reported":1691200358,"current_range_meters":20000,"station_id":"ce4bgvp2rcd13ifvqct0","pricing_plan_id":"free"},{"bike_id":"51a05a44-ab6c-48a1-9c26-af3af6db9327","system_id":"levelo_inurba_marseille","lat":43.312609,"lon":5.401662,"is_reserved":false,"is_disabled":false,"rental_uris":{"android":"levelo://app?vid=51a05a44-ab6c-48a1-9c26-af3af6db9327","ios":"levelo://app?vid=51a05a44-ab6c-48a1-9c26-af3af6db9327"},"vehicle_type_id":"4","last_reported":1691200358,"current_range_meters":4800,"station_id":"ce4bh092rcd13ifvqd30","pricing_plan_id":"free"},{"bike_id":"4efb2b8a-54bf-4f17-b460-176437215d5c","system_id":"levelo_inurba_marseille","lat":43.309371,"lon":5.401449,"is_reserved":false,"is_disabled":false,"rental_uris":{"android":"levelo://app?vid=4efb2b8a-54bf-4f17-b460-176437215d5c","ios":"levelo://app?vid=4efb2b8a-54bf-4f17-b460-176437215d5c"},"vehicle_type_id":"4","last_reported":1691200358,"current_range_meters":25600,"station_id":"ce4bgvp2rcd13ifvqct0","pricing_plan_id":"free"},{"bike_id":"c86add0d-ff10-43e9-b9bc-b84a9e21d76e","system_id":"levelo_inurba_marseille","lat":43.30651,"lon":5.4008,"is_reserved":false,"is_disabled":false,"rental_uris":{"android":"levelo://app?vid=c86add0d-ff10-43e9-b9bc-b84a9e21d76e","ios":"levelo://app?vid=c86add0d-ff10-43e9-b9bc-b84a9e21d76e"},"vehicle_type_id":"4","last_reported":1691200358,"current_range_meters":20800,"station_id":"ce4bh112rcd13ifvqda0","pricing_plan_id":"free"},{"bike_id":"87999cf4-093d-40da-9174-01dd94497117","system_id":"levelo_inurba_marseille","lat":43.30642,"lon":5.401031,"is_reserved":false,"is_disabled":false,"rental_uris":{"android":"levelo://app?vid=87999cf4-093d-40da-9174-01dd94497117","ios":"levelo://app?vid=87999cf4-093d-40da-9174-01dd94497117"},"vehicle_type_id":"4","last_reported":1691200358,"current_range_meters":28400,"station_id":"ce4bh112rcd13ifvqda0","pricing_plan_id":"free"},{"bike_id":"0093d2c5-6218-4753-8ed1-5dc585215ba8","system_id":"levelo_inurba_marseille","lat":43.306689,"lon":5.40101,"is_reserved":false,"is_disabled":false,"rental_uris":{"android":"levelo://app?vid=0093d2c5-6218-4753-8ed1-5dc585215ba8","ios":"levelo://app?vid=0093d2c5-6218-4753-8ed1-5dc585215ba8"},"vehicle_type_id":"4","last_reported":1691200358,"current_range_meters":25600,"station_id":"","pricing_plan_id":"free"},{"bike_id":"9de802ff-e8db-4451-aadd-7b65baea2488","system_id":"levelo_inurba_marseille","lat":43.301117,"lon":5.398795,"is_reserved":false,"is_disabled":false,"rental_uris":{"android":"levelo://app?vid=9de802ff-e8db-4451-aadd-7b65baea2488","ios":"levelo://app?vid=9de802ff-e8db-4451-aadd-7b65baea2488"},"vehicle_type_id":"4","last_reported":1691200358,"current_range_meters":3200,"station_id":"ce4bh0h2rcd13ifvqd40","pricing_plan_id":"free"},{"bike_id":"3184c2e8-a58f-4c91-b740-5c54bbaaff2c","system_id":"levelo_inurba_marseille","lat":43.286961,"lon":5.373785,"is_reserved":false,"is_disabled":false,"rental_uris":{"android":"levelo://app?vid=3184c2e8-a58f-4c91-b740-5c54bbaaff2c","ios":"levelo://app?vid=3184c2e8-a58f-4c91-b740-5c54bbaaff2c"},"vehicle_type_id":"4","last_reported":1691200358,"current_range_meters":31200,"station_id":"ce4bh3p2rcd13ifvqdq0","pricing_plan_id":"free"},{"bike_id":"7cfcc69c-d34d-4a03-b680-520c7c0c4cfa","system_id":"levelo_inurba_marseille","lat":43.28667,"lon":5.36358,"is_reserved":false,"is_disabled":false,"rental_uris":{"android":"levelo://app?vid=7cfcc69c-d34d-4a03-b680-520c7c0c4cfa","ios":"levelo://app?vid=7cfcc69c-d34d-4a03-b680-520c7c0c4cfa"},"vehicle_type_id":"4","last_reported":1691200358,"current_range_meters":11600,"station_id":"ce4bhah2rcd13ifvqej0","pricing_plan_id":"free"},{"bike_id":"e48cfba2-6e09-47a4-8bd7-2fe002920c10","system_id":"levelo_inurba_marseille","lat":43.298681,"lon":5.397225,"is_reserved":false,"is_disabled":false,"rental_uris":{"android":"levelo://app?vid=e48cfba2-6e09-47a4-8bd7-2fe002920c10","ios":"levelo://app?vid=e48cfba2-6e09-47a4-8bd7-2fe002920c10"},"vehicle_type_id":"4","last_reported":1691200358,"current_range_meters":28000,"station_id":"ce4bh0h2rcd13ifvqd50","pricing_plan_id":"free"},{"bike_id":"9d996b18-ec5a-4565-a82a-797c6900c09b","system_id":"levelo_inurba_marseille","lat":43.286961,"lon":5.373785,"is_reserved":false,"is_disabled":false,"rental_uris":{"android":"levelo://app?vid=9d996b18-ec5a-4565-a82a-797c6900c09b","ios":"levelo://app?vid=9d996b18-ec5a-4565-a82a-797c6900c09b"},"vehicle_type_id":"4","last_reported":1691200358,"current_range_meters":27600,"station_id":"ce4bh3p2rcd13ifvqdq0","pricing_plan_id":"free"},{"bike_id":"4ad8d091-e18d-44a9-8de6-cb5b6d2448aa","system_id":"levelo_inurba_marseille","lat":43.298681,"lon":5.397225,"is_reserved":false,"is_disabled":false,"rental_uris":{"android":"levelo://app?vid=4ad8d091-e18d-44a9-8de6-cb5b6d2448aa","ios":"levelo://app?vid=4ad8d091-e18d-44a9-8de6-cb5b6d2448aa"},"vehicle_type_id":"4","last_reported":1691200358,"current_range_meters":30400,"station_id":"ce4bh0h2rcd13ifvqd50","pricing_plan_id":"free"},{"bike_id":"f6665943-2ff3-4357-af34-f02f3bb9ce6b","system_id":"levelo_inurba_marseille","lat":43.286593,"lon":5.363346,"is_reserved":false,"is_disabled":false,"rental_uris":{"android":"levelo://app?vid=f6665943-2ff3-4357-af34-f02f3bb9ce6b","ios":"levelo://app?vid=f6665943-2ff3-4357-af34-f02f3bb9ce6b"},"vehicle_type_id":"4","last_reported":1691200358,"current_range_meters":22400,"station_id":"ce4bhah2rcd13ifvqej0","pricing_plan_id":"free"},{"bike_id":"f76444da-e0cd-4036-bb42-69b5ce9247bf","system_id":"levelo_inurba_marseille","lat":43.286593,"lon":5.363346,"is_reserved":false,"is_disabled":false,"rental_uris":{"android":"levelo://app?vid=f76444da-e0cd-4036-bb42-69b5ce9247bf","ios":"levelo://app?vid=f76444da-e0cd-4036-bb42-69b5ce9247bf"},"vehicle_type_id":"4","last_reported":1691200358,"current_range_meters":30400,"station_id":"ce4bhah2rcd13ifvqej0","pricing_plan_id":"free"},{"bike_id":"229576ff-f1ab-414d-972a-8628d12a1668","system_id":"levelo_inurba_marseille","lat":43.28658,"lon":5.36361,"is_reserved":false,"is_disabled":false,"rental_uris":{"android":"levelo://app?vid=229576ff-f1ab-414d-972a-8628d12a1668","ios":"levelo://app?vid=229576ff-f1ab-414d-972a-8628d12a1668"},"vehicle_type_id":"4","last_reported":1691200358,"current_range_meters":29200,"station_id":"ce4bhah2rcd13ifvqej0","pricing_plan_id":"free"},{"bike_id":"37cdebcc-c005-4d2a-9d23-ab139a491ad3","system_id":"levelo_inurba_marseille","lat":43.298681,"lon":5.397225,"is_reserved":false,"is_disabled":false,"rental_uris":{"android":"levelo://app?vid=37cdebcc-c005-4d2a-9d23-ab139a491ad3","ios":"levelo://app?vid=37cdebcc-c005-4d2a-9d23-ab139a491ad3"},"vehicle_type_id":"4","last_reported":1691200358,"current_range_meters":30400,"station_id":"ce4bh0h2rcd13ifvqd50","pricing_plan_id":"free"},{"bike_id":"75199276-b705-4ad7-b6a9-49aeaa84628a","system_id":"levelo_inurba_marseille","lat":43.286591,"lon":5.363346,"is_reserved":false,"is_disabled":false,"rental_uris":{"android":"levelo://app?vid=75199276-b705-4ad7-b6a9-49aeaa84628a","ios":"levelo://app?vid=75199276-b705-4ad7-b6a9-49aeaa84628a"},"vehicle_type_id":"4","last_reported":1691200358,"current_range_meters":31200,"station_id":"ce4bhah2rcd13ifvqej0","pricing_plan_id":"free"},{"bike_id":"2e1a4850-62c8-4de1-afb8-a871a4aef3dc","system_id":"levelo_inurba_marseille","lat":43.28656,"lon":5.36355,"is_reserved":false,"is_disabled":false,"rental_uris":{"android":"levelo://app?vid=2e1a4850-62c8-4de1-afb8-a871a4aef3dc","ios":"levelo://app?vid=2e1a4850-62c8-4de1-afb8-a871a4aef3dc"},"vehicle_type_id":"4","last_reported":1691200358,"current_range_meters":16800,"station_id":"ce4bhah2rcd13ifvqej0","pricing_plan_id":"free"},{"bike_id":"7b9e2d57-7c2f-4652-8ec0-ee4d147afe24","system_id":"levelo_inurba_marseille","lat":43.302548,"lon":5.400568,"is_reserved":false,"is_disabled":false,"rental_uris":{"android":"levelo://app?vid=7b9e2d57-7c2f-4652-8ec0-ee4d147afe24","ios":"levelo://app?vid=7b9e2d57-7c2f-4652-8ec0-ee4d147afe24"},"vehicle_type_id":"4","last_reported":1691200358,"current_range_meters":12800,"station_id":"","pricing_plan_id":"free"},{"bike_id":"efd1ec74-2ae0-40a6-8657-4a317573016c","system_id":"levelo_inurba_marseille","lat":43.302759,"lon":5.400793,"is_reserved":false,"is_disabled":false,"rental_uris":{"android":"levelo://app?vid=efd1ec74-2ae0-40a6-8657-4a317573016c","ios":"levelo://app?vid=efd1ec74-2ae0-40a6-8657-4a317573016c"},"vehicle_type_id":"4","last_reported":1691200358,"current_range_meters":24400,"station_id":"ce4bgvh2rcd13ifvqcs0","pricing_plan_id":"free"},{"bike_id":"bf71aa69-4061-495f-93b1-3728afd2f7e1","system_id":"levelo_inurba_marseille","lat":43.30253,"lon":5.40075,"is_reserved":false,"is_disabled":false,"rental_uris":{"android":"levelo://app?vid=bf71aa69-4061-495f-93b1-3728afd2f7e1","ios":"levelo://app?vid=bf71aa69-4061-495f-93b1-3728afd2f7e1"},"vehicle_type_id":"4","last_reported":1691200358,"current_range_meters":14400,"station_id":"ce4bgvh2rcd13ifvqcs0","pricing_plan_id":"free"},{"bike_id":"59d9766e-5d36-4bcd-a4f4-a9a457375cc4","system_id":"levelo_inurba_marseille","lat":43.302759,"lon":5.400793,"is_reserved":false,"is_disabled":false,"rental_uris":{"android":"levelo://app?vid=59d9766e-5d36-4bcd-a4f4-a9a457375cc4","ios":"levelo://app?vid=59d9766e-5d36-4bcd-a4f4-a9a457375cc4"},"vehicle_type_id":"4","last_reported":1691200358,"current_range_meters":31200,"station_id":"ce4bgvh2rcd13ifvqcs0","pricing_plan_id":"free"},{"bike_id":"c7a696b1-855e-4e2a-b996-a05edcb8d0e9","system_id":"levelo_inurba_marseille","lat":43.30242,"lon":5.40071,"is_reserved":false,"is_disabled":false,"rental_uris":{"android":"levelo://app?vid=c7a696b1-855e-4e2a-b996-a05edcb8d0e9","ios":"levelo://app?vid=c7a696b1-855e-4e2a-b996-a05edcb8d0e9"},"vehicle_type_id":"4","last_reported":1691200358,"current_range_meters":8400,"station_id":"ce4bgvh2rcd13ifvqcs0","pricing_plan_id":"free"},{"bike_id":"7d68efc2-9a29-417d-8ff0-2a2378eba68e","system_id":"levelo_inurba_marseille","lat":43.302759,"lon":5.400793,"is_reserved":false,"is_disabled":false,"rental_uris":{"android":"levelo://app?vid=7d68efc2-9a29-417d-8ff0-2a2378eba68e","ios":"levelo://app?vid=7d68efc2-9a29-417d-8ff0-2a2378eba68e"},"vehicle_type_id":"4","last_reported":1691200358,"current_range_meters":31200,"station_id":"ce4bgvh2rcd13ifvqcs0","pricing_plan_id":"free"},{"bike_id":"0eec8b1c-8c3d-43c2-ade4-dab3902c07e9","system_id":"levelo_inurba_marseille","lat":43.286039,"lon":5.370679,"is_reserved":false,"is_disabled":false,"rental_uris":{"android":"levelo://app?vid=0eec8b1c-8c3d-43c2-ade4-dab3902c07e9","ios":"levelo://app?vid=0eec8b1c-8c3d-43c2-ade4-dab3902c07e9"},"vehicle_type_id":"4","last_reported":1691200358,"current_range_meters":23600,"station_id":"ce4bht12rcd13ifvqi60","pricing_plan_id":"free"},{"bike_id":"1ff56fe0-1501-4c41-9474-66cb2f3126bd","system_id":"levelo_inurba_marseille","lat":43.2861,"lon":5.3706,"is_reserved":false,"is_disabled":false,"rental_uris":{"android":"levelo://app?vid=1ff56fe0-1501-4c41-9474-66cb2f3126bd","ios":"levelo://app?vid=1ff56fe0-1501-4c41-9474-66cb2f3126bd"},"vehicle_type_id":"4","last_reported":1691200358,"current_range_meters":31200,"station_id":"","pricing_plan_id":"free"},{"bike_id":"2505ec1e-c8d9-40d9-9a56-b5650062f6ff","system_id":"levelo_inurba_marseille","lat":43.286039,"lon":5.370679,"is_reserved":false,"is_disabled":false,"rental_uris":{"android":"levelo://app?vid=2505ec1e-c8d9-40d9-9a56-b5650062f6ff","ios":"levelo://app?vid=2505ec1e-c8d9-40d9-9a56-b5650062f6ff"},"vehicle_type_id":"4","last_reported":1691200358,"current_range_meters":9600,"station_id":"ce4bht12rcd13ifvqi60","pricing_plan_id":"free"},{"bike_id":"4e8b7604-21c5-4b03-b1d8-adbb54796284","system_id":"levelo_inurba_marseille","lat":43.286039,"lon":5.370681,"is_reserved":false,"is_disabled":false,"rental_uris":{"android":"levelo://app?vid=4e8b7604-21c5-4b03-b1d8-adbb54796284","ios":"levelo://app?vid=4e8b7604-21c5-4b03-b1d8-adbb54796284"},"vehicle_type_id":"4","last_reported":1691200358,"current_range_meters":18800,"station_id":"ce4bht12rcd13ifvqi60","pricing_plan_id":"free"},{"bike_id":"4ae0059c-5a2d-426a-afef-aa8fe1206bc1","system_id":"levelo_inurba_marseille","lat":43.286039,"lon":5.370681,"is_reserved":false,"is_disabled":false,"rental_uris":{"android":"levelo://app?vid=4ae0059c-5a2d-426a-afef-aa8fe1206bc1","ios":"levelo://app?vid=4ae0059c-5a2d-426a-afef-aa8fe1206bc1"},"vehicle_type_id":"4","last_reported":1691200358,"current_range_meters":22000,"station_id":"ce4bht12rcd13ifvqi60","pricing_plan_id":"free"},{"bike_id":"4f271817-a92f-4270-a683-00f0b4e4d97f","system_id":"levelo_inurba_marseille","lat":43.31645,"lon":5.40436,"is_reserved":false,"is_disabled":false,"rental_uris":{"android":"levelo://app?vid=4f271817-a92f-4270-a683-00f0b4e4d97f","ios":"levelo://app?vid=4f271817-a92f-4270-a683-00f0b4e4d97f"},"vehicle_type_id":"4","last_reported":1691200358,"current_range_meters":20800,"station_id":"ce4bh012rcd13ifvqd00","pricing_plan_id":"free"},{"bike_id":"63d188b4-2821-4b23-833a-e370ec07d215","system_id":"levelo_inurba_marseille","lat":43.31643,"lon":5.40437,"is_reserved":false,"is_disabled":false,"rental_uris":{"android":"levelo://app?vid=63d188b4-2821-4b23-833a-e370ec07d215","ios":"levelo://app?vid=63d188b4-2821-4b23-833a-e370ec07d215"},"vehicle_type_id":"4","last_reported":1691200358,"current_range_meters":28400,"station_id":"ce4bh012rcd13ifvqd00","pricing_plan_id":"free"},{"bike_id":"242f0982-36bc-4db5-9451-679021c80f39","system_id":"levelo_inurba_marseille","lat":43.316517,"lon":5.404375,"is_reserved":false,"is_disabled":false,"rental_uris":{"android":"levelo://app?vid=242f0982-36bc-4db5-9451-679021c80f39","ios":"levelo://app?vid=242f0982-36bc-4db5-9451-679021c80f39"},"vehicle_type_id":"4","last_reported":1691200358,"current_range_meters":14800,"station_id":"ce4bh012rcd13ifvqd00","pricing_plan_id":"free"},{"bike_id":"7e9b54df-1ab6-47db-a05a-b5751e872ad5","system_id":"levelo_inurba_marseille","lat":43.316517,"lon":5.404375,"is_reserved":false,"is_disabled":false,"rental_uris":{"android":"levelo://app?vid=7e9b54df-1ab6-47db-a05a-b5751e872ad5","ios":"levelo://app?vid=7e9b54df-1ab6-47db-a05a-b5751e872ad5"},"vehicle_type_id":"4","last_reported":1691200358,"current_range_meters":1600,"station_id":"ce4bh012rcd13ifvqd00","pricing_plan_id":"free"},{"bike_id":"f4e5f28d-483b-44cd-bd4c-c0b5581ecbcc","system_id":"levelo_inurba_marseille","lat":43.31647,"lon":5.40444,"is_reserved":false,"is_disabled":false,"rental_uris":{"android":"levelo://app?vid=f4e5f28d-483b-44cd-bd4c-c0b5581ecbcc","ios":"levelo://app?vid=f4e5f28d-483b-44cd-bd4c-c0b5581ecbcc"},"vehicle_type_id":"4","last_reported":1691200358,"current_range_meters":23600,"station_id":"ce4bh012rcd13ifvqd00","pricing_plan_id":"free"},{"bike_id":"9d6c3607-a255-4040-b7e0-8c391ebb1a9c","system_id":"levelo_inurba_marseille","lat":43.316517,"lon":5.404375,"is_reserved":false,"is_disabled":false,"rental_uris":{"android":"levelo://app?vid=9d6c3607-a255-4040-b7e0-8c391ebb1a9c","ios":"levelo://app?vid=9d6c3607-a255-4040-b7e0-8c391ebb1a9c"},"vehicle_type_id":"4","last_reported":1691200358,"current_range_meters":12400,"station_id":"ce4bh012rcd13ifvqd00","pricing_plan_id":"free"},{"bike_id":"16f78683-2c43-41a0-b35f-f06a6ba5d9c8","system_id":"levelo_inurba_marseille","lat":43.31647,"lon":5.40445,"is_reserved":false,"is_disabled":false,"rental_uris":{"android":"levelo://app?vid=16f78683-2c43-41a0-b35f-f06a6ba5d9c8","ios":"levelo://app?vid=16f78683-2c43-41a0-b35f-f06a6ba5d9c8"},"vehicle_type_id":"4","last_reported":1691200358,"current_range_meters":27200,"station_id":"ce4bh012rcd13ifvqd00","pricing_plan_id":"free"},{"bike_id":"a0ca85f7-43ad-4346-a35c-0a6e296011f8","system_id":"levelo_inurba_marseille","lat":43.284538,"lon":5.358657,"is_reserved":false,"is_disabled":false,"rental_uris":{"android":"levelo://app?vid=a0ca85f7-43ad-4346-a35c-0a6e296011f8","ios":"levelo://app?vid=a0ca85f7-43ad-4346-a35c-0a6e296011f8"},"vehicle_type_id":"4","last_reported":1691200358,"current_range_meters":31200,"station_id":"ce4bhah2rcd13ifvqei0","pricing_plan_id":"free"},{"bike_id":"b04895fd-4c35-4c63-b72b-a581bfbfb4a6","system_id":"levelo_inurba_marseille","lat":43.284534,"lon":5.358662,"is_reserved":false,"is_disabled":false,"rental_uris":{"android":"levelo://app?vid=b04895fd-4c35-4c63-b72b-a581bfbfb4a6","ios":"levelo://app?vid=b04895fd-4c35-4c63-b72b-a581bfbfb4a6"},"vehicle_type_id":"4","last_reported":1691200358,"current_range_meters":24400,"station_id":"ce4bhah2rcd13ifvqei0","pricing_plan_id":"free"},{"bike_id":"7b78d55e-e99c-4fa7-968a-c672d6912f00","system_id":"levelo_inurba_marseille","lat":43.284534,"lon":5.358662,"is_reserved":false,"is_disabled":false,"rental_uris":{"android":"levelo://app?vid=7b78d55e-e99c-4fa7-968a-c672d6912f00","ios":"levelo://app?vid=7b78d55e-e99c-4fa7-968a-c672d6912f00"},"vehicle_type_id":"4","last_reported":1691200358,"current_range_meters":31600,"station_id":"ce4bhah2rcd13ifvqei0","pricing_plan_id":"free"},{"bike_id":"0e7d2016-fe2b-43a2-9645-5489c8f1407f","system_id":"levelo_inurba_marseille","lat":43.28618,"lon":5.35105,"is_reserved":false,"is_disabled":false,"rental_uris":{"android":"levelo://app?vid=0e7d2016-fe2b-43a2-9645-5489c8f1407f","ios":"levelo://app?vid=0e7d2016-fe2b-43a2-9645-5489c8f1407f"},"vehicle_type_id":"4","last_reported":1691200358,"current_range_meters":3200,"station_id":"ce4bhch2rcd13ifvqeug","pricing_plan_id":"free"},{"bike_id":"bbd13f55-12c2-40b4-90d3-ce7dc7beb321","system_id":"levelo_inurba_marseille","lat":43.285856,"lon":5.350771,"is_reserved":false,"is_disabled":false,"rental_uris":{"android":"levelo://app?vid=bbd13f55-12c2-40b4-90d3-ce7dc7beb321","ios":"levelo://app?vid=bbd13f55-12c2-40b4-90d3-ce7dc7beb321"},"vehicle_type_id":"4","last_reported":1691200358,"current_range_meters":31200,"station_id":"ce4bhch2rcd13ifvqeug","pricing_plan_id":"free"},{"bike_id":"5a07aa9b-c055-46cf-8555-b108d94f315d","system_id":"levelo_inurba_marseille","lat":43.285856,"lon":5.350771,"is_reserved":false,"is_disabled":false,"rental_uris":{"android":"levelo://app?vid=5a07aa9b-c055-46cf-8555-b108d94f315d","ios":"levelo://app?vid=5a07aa9b-c055-46cf-8555-b108d94f315d"},"vehicle_type_id":"4","last_reported":1691200358,"current_range_meters":31200,"station_id":"ce4bhch2rcd13ifvqeug","pricing_plan_id":"free"},{"bike_id":"40acc58c-50e6-4091-91fc-a9c4a6991f4a","system_id":"levelo_inurba_marseille","lat":43.28415,"lon":5.37511,"is_reserved":false,"is_disabled":false,"rental_uris":{"android":"levelo://app?vid=40acc58c-50e6-4091-91fc-a9c4a6991f4a","ios":"levelo://app?vid=40acc58c-50e6-4091-91fc-a9c4a6991f4a"},"vehicle_type_id":"4","last_reported":1691200358,"current_range_meters":30400,"station_id":"ce4bh412rcd13ifvqds0","pricing_plan_id":"free"},{"bike_id":"4238add0-150c-46dd-9e58-c8e716b2d01b","system_id":"levelo_inurba_marseille","lat":43.28413,"lon":5.37519,"is_reserved":false,"is_disabled":false,"rental_uris":{"android":"levelo://app?vid=4238add0-150c-46dd-9e58-c8e716b2d01b","ios":"levelo://app?vid=4238add0-150c-46dd-9e58-c8e716b2d01b"},"vehicle_type_id":"4","last_reported":1691200358,"current_range_meters":31200,"station_id":"ce4bh412rcd13ifvqds0","pricing_plan_id":"free"},{"bike_id":"bc06d22d-f8ca-4b93-8339-40dbdd58bf68","system_id":"levelo_inurba_marseille","lat":43.28413,"lon":5.37524,"is_reserved":false,"is_disabled":false,"rental_uris":{"android":"levelo://app?vid=bc06d22d-f8ca-4b93-8339-40dbdd58bf68","ios":"levelo://app?vid=bc06d22d-f8ca-4b93-8339-40dbdd58bf68"},"vehicle_type_id":"4","last_reported":1691200358,"current_range_meters":30400,"station_id":"ce4bh412rcd13ifvqds0","pricing_plan_id":"free"},{"bike_id":"9bb1b6c9-c3bc-4632-8b7b-9115bc8ebb5b","system_id":"levelo_inurba_marseille","lat":43.283998,"lon":5.375062,"is_reserved":false,"is_disabled":false,"rental_uris":{"android":"levelo://app?vid=9bb1b6c9-c3bc-4632-8b7b-9115bc8ebb5b","ios":"levelo://app?vid=9bb1b6c9-c3bc-4632-8b7b-9115bc8ebb5b"},"vehicle_type_id":"4","last_reported":1691200358,"current_range_meters":31200,"station_id":"ce4bh412rcd13ifvqds0","pricing_plan_id":"free"},{"bike_id":"e08ed269-96f4-4540-ab3b-b32fbaabafd7","system_id":"levelo_inurba_marseille","lat":43.28405,"lon":5.37511,"is_reserved":false,"is_disabled":false,"rental_uris":{"android":"levelo://app?vid=e08ed269-96f4-4540-ab3b-b32fbaabafd7","ios":"levelo://app?vid=e08ed269-96f4-4540-ab3b-b32fbaabafd7"},"vehicle_type_id":"4","last_reported":1691200358,"current_range_meters":31200,"station_id":"ce4bh412rcd13ifvqds0","pricing_plan_id":"free"},{"bike_id":"ffa65646-0313-4477-997f-f298182aa138","system_id":"levelo_inurba_marseille","lat":43.283998,"lon":5.375062,"is_reserved":false,"is_disabled":false,"rental_uris":{"android":"levelo://app?vid=ffa65646-0313-4477-997f-f298182aa138","ios":"levelo://app?vid=ffa65646-0313-4477-997f-f298182aa138"},"vehicle_type_id":"4","last_reported":1691200358,"current_range_meters":16000,"station_id":"ce4bh412rcd13ifvqds0","pricing_plan_id":"free"},{"bike_id":"97d4e226-38a0-44aa-82d5-03fdce4d1622","system_id":"levelo_inurba_marseille","lat":43.283998,"lon":5.375062,"is_reserved":false,"is_disabled":false,"rental_uris":{"android":"levelo://app?vid=97d4e226-38a0-44aa-82d5-03fdce4d1622","ios":"levelo://app?vid=97d4e226-38a0-44aa-82d5-03fdce4d1622"},"vehicle_type_id":"4","last_reported":1691200358,"current_range_meters":29600,"station_id":"ce4bh412rcd13ifvqds0","pricing_plan_id":"free"},{"bike_id":"70b201bc-b26f-442e-b27d-1c6a23487d45","system_id":"levelo_inurba_marseille","lat":43.28401,"lon":5.37515,"is_reserved":false,"is_disabled":false,"rental_uris":{"android":"levelo://app?vid=70b201bc-b26f-442e-b27d-1c6a23487d45","ios":"levelo://app?vid=70b201bc-b26f-442e-b27d-1c6a23487d45"},"vehicle_type_id":"4","last_reported":1691200358,"current_range_meters":18000,"station_id":"ce4bh412rcd13ifvqds0","pricing_plan_id":"free"},{"bike_id":"8147c974-2132-432d-a126-aad996faab74","system_id":"levelo_inurba_marseille","lat":43.286595,"lon":5.386795,"is_reserved":false,"is_disabled":false,"rental_uris":{"android":"levelo://app?vid=8147c974-2132-432d-a126-aad996faab74","ios":"levelo://app?vid=8147c974-2132-432d-a126-aad996faab74"},"vehicle_type_id":"4","last_reported":1691200358,"current_range_meters":6000,"station_id":"ce4bh492rcd13ifvqdug","pricing_plan_id":"free"},{"bike_id":"d1e3962c-0a23-4a27-ac38-325c11d948a8","system_id":"levelo_inurba_marseille","lat":43.31882,"lon":5.40739,"is_reserved":false,"is_disabled":false,"rental_uris":{"android":"levelo://app?vid=d1e3962c-0a23-4a27-ac38-325c11d948a8","ios":"levelo://app?vid=d1e3962c-0a23-4a27-ac38-325c11d948a8"},"vehicle_type_id":"4","last_reported":1691200358,"current_range_meters":24400,"station_id":"","pricing_plan_id":"free"},{"bike_id":"409fea88-67c9-4a59-b6e3-25feec50a768","system_id":"levelo_inurba_marseille","lat":43.31886,"lon":5.40738,"is_reserved":false,"is_disabled":false,"rental_uris":{"android":"levelo://app?vid=409fea88-67c9-4a59-b6e3-25feec50a768","ios":"levelo://app?vid=409fea88-67c9-4a59-b6e3-25feec50a768"},"vehicle_type_id":"4","last_reported":1691200358,"current_range_meters":4800,"station_id":"ce4bhq12rcd13ifvqhig","pricing_plan_id":"free"},{"bike_id":"3e563380-a985-451c-801d-2783d7714294","system_id":"levelo_inurba_marseille","lat":43.33716,"lon":5.3918,"is_reserved":false,"is_disabled":false,"rental_uris":{"android":"levelo://app?vid=3e563380-a985-451c-801d-2783d7714294","ios":"levelo://app?vid=3e563380-a985-451c-801d-2783d7714294"},"vehicle_type_id":"4","last_reported":1691200358,"current_range_meters":12000,"station_id":"ce4bhr92rcd13ifvqhsg","pricing_plan_id":"free"},{"bike_id":"a9671d69-2a62-4abb-9d98-78ee12b6b2d8","system_id":"levelo_inurba_marseille","lat":43.337168,"lon":5.391825,"is_reserved":false,"is_disabled":false,"rental_uris":{"android":"levelo://app?vid=a9671d69-2a62-4abb-9d98-78ee12b6b2d8","ios":"levelo://app?vid=a9671d69-2a62-4abb-9d98-78ee12b6b2d8"},"vehicle_type_id":"4","last_reported":1691200358,"current_range_meters":9600,"station_id":"ce4bhr92rcd13ifvqhsg","pricing_plan_id":"free"},{"bike_id":"9be39f6c-974f-4a4e-90c3-357a4d8fdcc8","system_id":"levelo_inurba_marseille","lat":43.323464,"lon":5.406297,"is_reserved":false,"is_disabled":false,"rental_uris":{"android":"levelo://app?vid=9be39f6c-974f-4a4e-90c3-357a4d8fdcc8","ios":"levelo://app?vid=9be39f6c-974f-4a4e-90c3-357a4d8fdcc8"},"vehicle_type_id":"4","last_reported":1691200358,"current_range_meters":31200,"station_id":"ce4bhq92rcd13ifvqhjg","pricing_plan_id":"free"},{"bike_id":"939edbe6-adcc-4f97-ad69-99748df4073d","system_id":"levelo_inurba_marseille","lat":43.33721,"lon":5.39189,"is_reserved":false,"is_disabled":false,"rental_uris":{"android":"levelo://app?vid=939edbe6-adcc-4f97-ad69-99748df4073d","ios":"levelo://app?vid=939edbe6-adcc-4f97-ad69-99748df4073d"},