{"last_updated":1679145044,"ttl":30,"version":"2.2","data":{"bikes":[{"bike_id":"b5856646-e06d-4b0e-ab6f-070d59d5c0d7","system_id":"levelo_inurba_marseille","lat":43.312239,"lon":5.368562,"is_reserved":false,"is_disabled":false,"rental_uris":{"android":"levelo://app?vid=b5856646-e06d-4b0e-ab6f-070d59d5c0d7","ios":"levelo://app?vid=b5856646-e06d-4b0e-ab6f-070d59d5c0d7"},"vehicle_type_id":"4","last_reported":1679145044,"current_range_meters":0,"station_id":"ce4bgl92rcd13ifvqbq0","pricing_plan_id":"free"},{"bike_id":"467f0f73-3958-438c-a26e-dda77542ee89","system_id":"levelo_inurba_marseille","lat":43.312239,"lon":5.368562,"is_reserved":false,"is_disabled":false,"rental_uris":{"android":"levelo://app?vid=467f0f73-3958-438c-a26e-dda77542ee89","ios":"levelo://app?vid=467f0f73-3958-438c-a26e-dda77542ee89"},"vehicle_type_id":"4","last_reported":1679145044,"current_range_meters":1200,"station_id":"ce4bgl92rcd13ifvqbq0","pricing_plan_id":"free"},{"bike_id":"d84cc8b1-7873-4dab-b112-22072c3f6c4a","system_id":"levelo_inurba_marseille","lat":43.309076,"lon":5.368465,"is_reserved":false,"is_disabled":false,"rental_uris":{"android":"levelo://app?vid=d84cc8b1-7873-4dab-b112-22072c3f6c4a","ios":"levelo://app?vid=d84cc8b1-7873-4dab-b112-22072c3f6c4a"},"vehicle_type_id":"4","last_reported":1679145044,"current_range_meters":19200,"station_id":"ce4bgn92rcd13ifvqbvg","pricing_plan_id":"free"},{"bike_id":"78dd1b25-2555-4e2f-92ec-5787cd2869e3","system_id":"levelo_inurba_marseille","lat":43.317161,"lon":5.377368,"is_reserved":false,"is_disabled":false,"rental_uris":{"android":"levelo://app?vid=78dd1b25-2555-4e2f-92ec-5787cd2869e3","ios":"levelo://app?vid=78dd1b25-2555-4e2f-92ec-5787cd2869e3"},"vehicle_type_id":"4","last_reported":1679145044,"current_range_meters":1200,"station_id":"ce4bgth2rcd13ifvqch0","pricing_plan_id":"free"},{"bike_id":"6f967ae4-5061-4406-8fa4-d7e5a168c4fd","system_id":"levelo_inurba_marseille","lat":43.301429,"lon":5.37413,"is_reserved":false,"is_disabled":false,"rental_uris":{"android":"levelo://app?vid=6f967ae4-5061-4406-8fa4-d7e5a168c4fd","ios":"levelo://app?vid=6f967ae4-5061-4406-8fa4-d7e5a168c4fd"},"vehicle_type_id":"4","last_reported":1679145044,"current_range_meters":21200,"station_id":"ce4bgs92rcd13ifvqcc0","pricing_plan_id":"free"},{"bike_id":"215c89a5-c714-47b9-a51f-81617d111039","system_id":"levelo_inurba_marseille","lat":43.313571,"lon":5.384829,"is_reserved":false,"is_disabled":false,"rental_uris":{"android":"levelo://app?vid=215c89a5-c714-47b9-a51f-81617d111039","ios":"levelo://app?vid=215c89a5-c714-47b9-a51f-81617d111039"},"vehicle_type_id":"4","last_reported":1679145044,"current_range_meters":13600,"station_id":"ce4bgt92rcd13ifvqcf0","pricing_plan_id":"free"},{"bike_id":"f036ccae-07a5-461d-8488-025835f415d8","system_id":"levelo_inurba_marseille","lat":43.299094,"lon":5.365415,"is_reserved":false,"is_disabled":false,"rental_uris":{"android":"levelo://app?vid=f036ccae-07a5-461d-8488-025835f415d8","ios":"levelo://app?vid=f036ccae-07a5-461d-8488-025835f415d8"},"vehicle_type_id":"4","last_reported":1679145044,"current_range_meters":0,"station_id":"ce4bgm92rcd13ifvqbr0","pricing_plan_id":"free"},{"bike_id":"206da033-c407-4561-a89f-4f496d12ad3d","system_id":"levelo_inurba_marseille","lat":43.31514,"lon":5.385921,"is_reserved":false,"is_disabled":false,"rental_uris":{"android":"levelo://app?vid=206da033-c407-4561-a89f-4f496d12ad3d","ios":"levelo://app?vid=206da033-c407-4561-a89f-4f496d12ad3d"},"vehicle_type_id":"4","last_reported":1679145044,"current_range_meters":0,"station_id":"","pricing_plan_id":"free"},{"bike_id":"f2feaa7a-15e2-40c7-9a81-995236593c18","system_id":"levelo_inurba_marseille","lat":43.328371,"lon":5.366912,"is_reserved":false,"is_disabled":false,"rental_uris":{"android":"levelo://app?vid=f2feaa7a-15e2-40c7-9a81-995236593c18","ios":"levelo://app?vid=f2feaa7a-15e2-40c7-9a81-995236593c18"},"vehicle_type_id":"4","last_reported":1679145044,"current_range_meters":18800,"station_id":"ce4bhs92rcd13ifvqi0g","pricing_plan_id":"free"},{"bike_id":"ac5b0658-a856-4344-89c3-facc37d5892a","system_id":"levelo_inurba_marseille","lat":43.296921,"lon":5.376579,"is_reserved":false,"is_disabled":false,"rental_uris":{"android":"levelo://app?vid=ac5b0658-a856-4344-89c3-facc37d5892a","ios":"levelo://app?vid=ac5b0658-a856-4344-89c3-facc37d5892a"},"vehicle_type_id":"4","last_reported":1679145044,"current_range_meters":0,"station_id":"ce4bgkh2rcd13ifvqbl0","pricing_plan_id":"free"},{"bike_id":"d54bf1a7-588f-4e2d-917f-4fa46d842793","system_id":"levelo_inurba_marseille","lat":43.299028,"lon":5.381509,"is_reserved":false,"is_disabled":false,"rental_uris":{"android":"levelo://app?vid=d54bf1a7-588f-4e2d-917f-4fa46d842793","ios":"levelo://app?vid=d54bf1a7-588f-4e2d-917f-4fa46d842793"},"vehicle_type_id":"4","last_reported":1679145044,"current_range_meters":16000,"station_id":"ce4bgj12rcd13ifvqbc0","pricing_plan_id":"free"},{"bike_id":"cf2314d5-8aab-4279-9c62-9d49ce4fea70","system_id":"levelo_inurba_marseille","lat":43.309589,"lon":5.390258,"is_reserved":false,"is_disabled":false,"rental_uris":{"android":"levelo://app?vid=cf2314d5-8aab-4279-9c62-9d49ce4fea70","ios":"levelo://app?vid=cf2314d5-8aab-4279-9c62-9d49ce4fea70"},"vehicle_type_id":"4","last_reported":1679145044,"current_range_meters":14400,"station_id":"ce4bgup2rcd13ifvqco0","pricing_plan_id":"free"},{"bike_id":"4dafff6b-9621-4e2b-86a4-abd86b4f6566","system_id":"levelo_inurba_marseille","lat":43.3176,"lon":5.39017,"is_reserved":false,"is_disabled":false,"rental_uris":{"android":"levelo://app?vid=4dafff6b-9621-4e2b-86a4-abd86b4f6566","ios":"levelo://app?vid=4dafff6b-9621-4e2b-86a4-abd86b4f6566"},"vehicle_type_id":"4","last_reported":1679145044,"current_range_meters":0,"station_id":"ce4bhqp2rcd13ifvqhng","pricing_plan_id":"free"},{"bike_id":"ceb28b36-09c9-4bdb-a30d-1936d23be169","system_id":"levelo_inurba_marseille","lat":43.317557,"lon":5.390173,"is_reserved":false,"is_disabled":false,"rental_uris":{"android":"levelo://app?vid=ceb28b36-09c9-4bdb-a30d-1936d23be169","ios":"levelo://app?vid=ceb28b36-09c9-4bdb-a30d-1936d23be169"},"vehicle_type_id":"4","last_reported":1679145044,"current_range_meters":29600,"station_id":"ce4bhqp2rcd13ifvqhng","pricing_plan_id":"free"},{"bike_id":"7939747b-0823-4218-ab06-a4e78182a2d3","system_id":"levelo_inurba_marseille","lat":43.298037,"lon":5.381066,"is_reserved":false,"is_disabled":false,"rental_uris":{"android":"levelo://app?vid=7939747b-0823-4218-ab06-a4e78182a2d3","ios":"levelo://app?vid=7939747b-0823-4218-ab06-a4e78182a2d3"},"vehicle_type_id":"4","last_reported":1679145044,"current_range_meters":28400,"station_id":"ce4bgip2rcd13ifvqbb0","pricing_plan_id":"free"},{"bike_id":"8a6e92d0-16ab-46fc-9fbf-ffa2c54ad085","system_id":"levelo_inurba_marseille","lat":43.298037,"lon":5.381066,"is_reserved":false,"is_disabled":false,"rental_uris":{"android":"levelo://app?vid=8a6e92d0-16ab-46fc-9fbf-ffa2c54ad085","ios":"levelo://app?vid=8a6e92d0-16ab-46fc-9fbf-ffa2c54ad085"},"vehicle_type_id":"4","last_reported":1679145044,"current_range_meters":18000,"station_id":"ce4bgip2rcd13ifvqbb0","pricing_plan_id":"free"},{"bike_id":"493f66ea-ebb6-4a9d-8c5d-8b14e3a6674e","system_id":"levelo_inurba_marseille","lat":43.298037,"lon":5.381066,"is_reserved":false,"is_disabled":false,"rental_uris":{"android":"levelo://app?vid=493f66ea-ebb6-4a9d-8c5d-8b14e3a6674e","ios":"levelo://app?vid=493f66ea-ebb6-4a9d-8c5d-8b14e3a6674e"},"vehicle_type_id":"4","last_reported":1679145044,"current_range_meters":4400,"station_id":"ce4bgip2rcd13ifvqbb0","pricing_plan_id":"free"},{"bike_id":"c070ecba-c5f8-4ddb-948b-3baaf7ce62d0","system_id":"levelo_inurba_marseille","lat":43.295748,"lon":5.37522,"is_reserved":false,"is_disabled":false,"rental_uris":{"android":"levelo://app?vid=c070ecba-c5f8-4ddb-948b-3baaf7ce62d0","ios":"levelo://app?vid=c070ecba-c5f8-4ddb-948b-3baaf7ce62d0"},"vehicle_type_id":"4","last_reported":1679145044,"current_range_meters":21200,"station_id":"ce4bgh92rcd13ifvqb50","pricing_plan_id":"free"},{"bike_id":"bcca6acb-d8d4-4c7e-b353-8267b38d5365","system_id":"levelo_inurba_marseille","lat":43.295748,"lon":5.37522,"is_reserved":false,"is_disabled":false,"rental_uris":{"android":"levelo://app?vid=bcca6acb-d8d4-4c7e-b353-8267b38d5365","ios":"levelo://app?vid=bcca6acb-d8d4-4c7e-b353-8267b38d5365"},"vehicle_type_id":"4","last_reported":1679145044,"current_range_meters":16800,"station_id":"ce4bgh92rcd13ifvqb50","pricing_plan_id":"free"},{"bike_id":"aef2230b-447b-4d71-a755-f01c67533c89","system_id":"levelo_inurba_marseille","lat":43.296336,"lon":5.377132,"is_reserved":false,"is_disabled":false,"rental_uris":{"android":"levelo://app?vid=aef2230b-447b-4d71-a755-f01c67533c89","ios":"levelo://app?vid=aef2230b-447b-4d71-a755-f01c67533c89"},"vehicle_type_id":"4","last_reported":1679145044,"current_range_meters":0,"station_id":"ce4bgi92rcd13ifvqb90","pricing_plan_id":"free"},{"bike_id":"4df75685-5d3f-4310-8160-8d21485f27a0","system_id":"levelo_inurba_marseille","lat":43.304274,"lon":5.388873,"is_reserved":false,"is_disabled":false,"rental_uris":{"android":"levelo://app?vid=4df75685-5d3f-4310-8160-8d21485f27a0","ios":"levelo://app?vid=4df75685-5d3f-4310-8160-8d21485f27a0"},"vehicle_type_id":"4","last_reported":1679145044,"current_range_meters":4400,"station_id":"ce4bgk12rcd13ifvqbi0","pricing_plan_id":"free"},{"bike_id":"f701b6d5-232a-4610-8cfe-04ef1dd32965","system_id":"levelo_inurba_marseille","lat":43.296131,"lon":5.37715,"is_reserved":false,"is_disabled":false,"rental_uris":{"android":"levelo://app?vid=f701b6d5-232a-4610-8cfe-04ef1dd32965","ios":"levelo://app?vid=f701b6d5-232a-4610-8cfe-04ef1dd32965"},"vehicle_type_id":"4","last_reported":1679145044,"current_range_meters":0,"station_id":"ce4bgi92rcd13ifvqb90","pricing_plan_id":"free"},{"bike_id":"6b4dd7e8-aaf3-4e54-92e6-4d3934789074","system_id":"levelo_inurba_marseille","lat":43.29612,"lon":5.37727,"is_reserved":false,"is_disabled":false,"rental_uris":{"android":"levelo://app?vid=6b4dd7e8-aaf3-4e54-92e6-4d3934789074","ios":"levelo://app?vid=6b4dd7e8-aaf3-4e54-92e6-4d3934789074"},"vehicle_type_id":"4","last_reported":1679145044,"current_range_meters":0,"station_id":"ce4bgi92rcd13ifvqb90","pricing_plan_id":"free"},{"bike_id":"9adc1a46-1aad-490f-9add-5579ddd4317d","system_id":"levelo_inurba_marseille","lat":43.296048,"lon":5.377156,"is_reserved":false,"is_disabled":false,"rental_uris":{"android":"levelo://app?vid=9adc1a46-1aad-490f-9add-5579ddd4317d","ios":"levelo://app?vid=9adc1a46-1aad-490f-9add-5579ddd4317d"},"vehicle_type_id":"4","last_reported":1679145044,"current_range_meters":0,"station_id":"ce4bgi92rcd13ifvqb90","pricing_plan_id":"free"},{"bike_id":"73dd6aab-8d1a-4157-97ba-ee063506465e","system_id":"levelo_inurba_marseille","lat":43.29542,"lon":5.37565,"is_reserved":false,"is_disabled":false,"rental_uris":{"android":"levelo://app?vid=73dd6aab-8d1a-4157-97ba-ee063506465e","ios":"levelo://app?vid=73dd6aab-8d1a-4157-97ba-ee063506465e"},"vehicle_type_id":"4","last_reported":1679145044,"current_range_meters":30400,"station_id":"","pricing_plan_id":"free"},{"bike_id":"5971bedb-4e55-4cca-a827-15c1c85bce63","system_id":"levelo_inurba_marseille","lat":43.299689,"lon":5.384936,"is_reserved":false,"is_disabled":false,"rental_uris":{"android":"levelo://app?vid=5971bedb-4e55-4cca-a827-15c1c85bce63","ios":"levelo://app?vid=5971bedb-4e55-4cca-a827-15c1c85bce63"},"vehicle_type_id":"4","last_reported":1679145044,"current_range_meters":0,"station_id":"ce4bgj92rcd13ifvqbd0","pricing_plan_id":"free"},{"bike_id":"4deb582e-86c5-46b6-be31-24c3dcef8dc4","system_id":"levelo_inurba_marseille","lat":43.30811,"lon":5.39192,"is_reserved":false,"is_disabled":false,"rental_uris":{"android":"levelo://app?vid=4deb582e-86c5-46b6-be31-24c3dcef8dc4","ios":"levelo://app?vid=4deb582e-86c5-46b6-be31-24c3dcef8dc4"},"vehicle_type_id":"4","last_reported":1679145044,"current_range_meters":30400,"station_id":"ce4bgup2rcd13ifvqco0","pricing_plan_id":"free"},{"bike_id":"adf14a9c-0652-4e51-bc3b-9b3567745884","system_id":"levelo_inurba_marseille","lat":43.295279,"lon":5.375048,"is_reserved":false,"is_disabled":false,"rental_uris":{"android":"levelo://app?vid=adf14a9c-0652-4e51-bc3b-9b3567745884","ios":"levelo://app?vid=adf14a9c-0652-4e51-bc3b-9b3567745884"},"vehicle_type_id":"4","last_reported":1679145044,"current_range_meters":14800,"station_id":"ce4bgkp2rcd13ifvqbmg","pricing_plan_id":"free"},{"bike_id":"10dc104c-bf2c-492b-ba2f-895e8f3a7f97","system_id":"levelo_inurba_marseille","lat":43.293009,"lon":5.374584,"is_reserved":false,"is_disabled":false,"rental_uris":{"android":"levelo://app?vid=10dc104c-bf2c-492b-ba2f-895e8f3a7f97","ios":"levelo://app?vid=10dc104c-bf2c-492b-ba2f-895e8f3a7f97"},"vehicle_type_id":"4","last_reported":1679145044,"current_range_meters":800,"station_id":"ce4bgi12rcd13ifvqb70","pricing_plan_id":"free"},{"bike_id":"f62cb8ef-8ca4-4947-a001-eb4cfa8165e9","system_id":"levelo_inurba_marseille","lat":43.3187,"lon":5.39397,"is_reserved":false,"is_disabled":false,"rental_uris":{"android":"levelo://app?vid=f62cb8ef-8ca4-4947-a001-eb4cfa8165e9","ios":"levelo://app?vid=f62cb8ef-8ca4-4947-a001-eb4cfa8165e9"},"vehicle_type_id":"4","last_reported":1679145044,"current_range_meters":7600,"station_id":"","pricing_plan_id":"free"},{"bike_id":"4edd2300-fdf1-4854-af98-8979757f8fd5","system_id":"levelo_inurba_marseille","lat":43.2936,"lon":5.37835,"is_reserved":false,"is_disabled":false,"rental_uris":{"android":"levelo://app?vid=4edd2300-fdf1-4854-af98-8979757f8fd5","ios":"levelo://app?vid=4edd2300-fdf1-4854-af98-8979757f8fd5"},"vehicle_type_id":"4","last_reported":1679145044,"current_range_meters":16800,"station_id":"ce4bgjh2rcd13ifvqbf0","pricing_plan_id":"free"},{"bike_id":"0ca333a4-8a2b-4710-a71a-cc5255cec55a","system_id":"levelo_inurba_marseille","lat":43.292311,"lon":5.360731,"is_reserved":false,"is_disabled":false,"rental_uris":{"android":"levelo://app?vid=0ca333a4-8a2b-4710-a71a-cc5255cec55a","ios":"levelo://app?vid=0ca333a4-8a2b-4710-a71a-cc5255cec55a"},"vehicle_type_id":"4","last_reported":1679145044,"current_range_meters":0,"station_id":"ce4bhbh2rcd13ifvqeqg","pricing_plan_id":"free"},{"bike_id":"89f8e0f6-ed8f-40ef-9b52-0655fc556cb9","system_id":"levelo_inurba_marseille","lat":43.30182,"lon":5.39208,"is_reserved":false,"is_disabled":false,"rental_uris":{"android":"levelo://app?vid=89f8e0f6-ed8f-40ef-9b52-0655fc556cb9","ios":"levelo://app?vid=89f8e0f6-ed8f-40ef-9b52-0655fc556cb9"},"vehicle_type_id":"4","last_reported":1679145044,"current_range_meters":12800,"station_id":"","pricing_plan_id":"free"},{"bike_id":"bd68aa94-8fe4-4eb2-99f8-e4e66db33150","system_id":"levelo_inurba_marseille","lat":43.290587,"lon":5.359205,"is_reserved":false,"is_disabled":false,"rental_uris":{"android":"levelo://app?vid=bd68aa94-8fe4-4eb2-99f8-e4e66db33150","ios":"levelo://app?vid=bd68aa94-8fe4-4eb2-99f8-e4e66db33150"},"vehicle_type_id":"4","last_reported":1679145044,"current_range_meters":15600,"station_id":"ce4bha92rcd13ifvqeg0","pricing_plan_id":"free"},{"bike_id":"ca217657-b26b-49e1-9432-f5b15f3e953a","system_id":"levelo_inurba_marseille","lat":43.289467,"lon":5.363601,"is_reserved":false,"is_disabled":false,"rental_uris":{"android":"levelo://app?vid=ca217657-b26b-49e1-9432-f5b15f3e953a","ios":"levelo://app?vid=ca217657-b26b-49e1-9432-f5b15f3e953a"},"vehicle_type_id":"4","last_reported":1679145044,"current_range_meters":30800,"station_id":"","pricing_plan_id":"free"},{"bike_id":"300db9c9-865e-4f32-a33a-c51662c29a80","system_id":"levelo_inurba_marseille","lat":43.290104,"lon":5.356111,"is_reserved":false,"is_disabled":false,"rental_uris":{"android":"levelo://app?vid=300db9c9-865e-4f32-a33a-c51662c29a80","ios":"levelo://app?vid=300db9c9-865e-4f32-a33a-c51662c29a80"},"vehicle_type_id":"4","last_reported":1679145044,"current_range_meters":16800,"station_id":"ce4bhb92rcd13ifvqen0","pricing_plan_id":"free"},{"bike_id":"32980fbc-b13a-4786-9fe1-1e7064a5d301","system_id":"levelo_inurba_marseille","lat":43.290104,"lon":5.356111,"is_reserved":false,"is_disabled":false,"rental_uris":{"android":"levelo://app?vid=32980fbc-b13a-4786-9fe1-1e7064a5d301","ios":"levelo://app?vid=32980fbc-b13a-4786-9fe1-1e7064a5d301"},"vehicle_type_id":"4","last_reported":1679145044,"current_range_meters":400,"station_id":"ce4bhb92rcd13ifvqen0","pricing_plan_id":"free"},{"bike_id":"811123c3-9c4a-4d3b-ad84-f1ac3683eb86","system_id":"levelo_inurba_marseille","lat":43.330442,"lon":5.389148,"is_reserved":false,"is_disabled":false,"rental_uris":{"android":"levelo://app?vid=811123c3-9c4a-4d3b-ad84-f1ac3683eb86","ios":"levelo://app?vid=811123c3-9c4a-4d3b-ad84-f1ac3683eb86"},"vehicle_type_id":"4","last_reported":1679145044,"current_range_meters":6800,"station_id":"ce4bhr92rcd13ifvqhrg","pricing_plan_id":"free"},{"bike_id":"2248cdf4-a540-4108-ad3b-ea6c7b1ad301","system_id":"levelo_inurba_marseille","lat":43.29008,"lon":5.35607,"is_reserved":false,"is_disabled":false,"rental_uris":{"android":"levelo://app?vid=2248cdf4-a540-4108-ad3b-ea6c7b1ad301","ios":"levelo://app?vid=2248cdf4-a540-4108-ad3b-ea6c7b1ad301"},"vehicle_type_id":"4","last_reported":1679145044,"current_range_meters":0,"station_id":"ce4bhb92rcd13ifvqen0","pricing_plan_id":"free"},{"bike_id":"5817695a-6cd2-4679-b06f-1f961b1aa12d","system_id":"levelo_inurba_marseille","lat":43.330442,"lon":5.389148,"is_reserved":false,"is_disabled":false,"rental_uris":{"android":"levelo://app?vid=5817695a-6cd2-4679-b06f-1f961b1aa12d","ios":"levelo://app?vid=5817695a-6cd2-4679-b06f-1f961b1aa12d"},"vehicle_type_id":"4","last_reported":1679145044,"current_range_meters":6000,"station_id":"ce4bhr92rcd13ifvqhrg","pricing_plan_id":"free"},{"bike_id":"d90c0e20-2bfc-403a-aff8-dadaf6a9c17b","system_id":"levelo_inurba_marseille","lat":43.330442,"lon":5.389148,"is_reserved":false,"is_disabled":false,"rental_uris":{"android":"levelo://app?vid=d90c0e20-2bfc-403a-aff8-dadaf6a9c17b","ios":"levelo://app?vid=d90c0e20-2bfc-403a-aff8-dadaf6a9c17b"},"vehicle_type_id":"4","last_reported":1679145044,"current_range_meters":9600,"station_id":"ce4bhr92rcd13ifvqhrg","pricing_plan_id":"free"},{"bike_id":"30e61680-66de-4cd3-9f53-64e6320698b7","system_id":"levelo_inurba_marseille","lat":43.330442,"lon":5.389148,"is_reserved":false,"is_disabled":false,"rental_uris":{"android":"levelo://app?vid=30e61680-66de-4cd3-9f53-64e6320698b7","ios":"levelo://app?vid=30e61680-66de-4cd3-9f53-64e6320698b7"},"vehicle_type_id":"4","last_reported":1679145044,"current_range_meters":1200,"station_id":"ce4bhr92rcd13ifvqhrg","pricing_plan_id":"free"},{"bike_id":"e1af762a-5124-412a-8817-8ca24717b6a4","system_id":"levelo_inurba_marseille","lat":43.330435,"lon":5.389235,"is_reserved":false,"is_disabled":false,"rental_uris":{"android":"levelo://app?vid=e1af762a-5124-412a-8817-8ca24717b6a4","ios":"levelo://app?vid=e1af762a-5124-412a-8817-8ca24717b6a4"},"vehicle_type_id":"4","last_reported":1679145044,"current_range_meters":11200,"station_id":"","pricing_plan_id":"free"},{"bike_id":"e7df4101-d75c-44cb-84f9-c297cc83fd84","system_id":"levelo_inurba_marseille","lat":43.29006,"lon":5.35609,"is_reserved":false,"is_disabled":false,"rental_uris":{"android":"levelo://app?vid=e7df4101-d75c-44cb-84f9-c297cc83fd84","ios":"levelo://app?vid=e7df4101-d75c-44cb-84f9-c297cc83fd84"},"vehicle_type_id":"4","last_reported":1679145044,"current_range_meters":7600,"station_id":"","pricing_plan_id":"free"},{"bike_id":"2b974fa7-db2a-47c5-ab6e-fc0410a6595b","system_id":"levelo_inurba_marseille","lat":43.330442,"lon":5.389148,"is_reserved":false,"is_disabled":false,"rental_uris":{"android":"levelo://app?vid=2b974fa7-db2a-47c5-ab6e-fc0410a6595b","ios":"levelo://app?vid=2b974fa7-db2a-47c5-ab6e-fc0410a6595b"},"vehicle_type_id":"4","last_reported":1679145044,"current_range_meters":5200,"station_id":"ce4bhr92rcd13ifvqhrg","pricing_plan_id":"free"},{"bike_id":"477f2345-a835-4717-b51b-6ec4e11fd696","system_id":"levelo_inurba_marseille","lat":43.290994,"lon":5.381511,"is_reserved":false,"is_disabled":false,"rental_uris":{"android":"levelo://app?vid=477f2345-a835-4717-b51b-6ec4e11fd696","ios":"levelo://app?vid=477f2345-a835-4717-b51b-6ec4e11fd696"},"vehicle_type_id":"4","last_reported":1679145044,"current_range_meters":0,"station_id":"ce4bh512rcd13ifvqe2g","pricing_plan_id":"free"},{"bike_id":"bf2317e8-751e-4479-9f63-5edc8c1b8ecb","system_id":"levelo_inurba_marseille","lat":43.295169,"lon":5.390426,"is_reserved":false,"is_disabled":false,"rental_uris":{"android":"levelo://app?vid=bf2317e8-751e-4479-9f63-5edc8c1b8ecb","ios":"levelo://app?vid=bf2317e8-751e-4479-9f63-5edc8c1b8ecb"},"vehicle_type_id":"4","last_reported":1679145044,"current_range_meters":1200,"station_id":"ce4bh3p2rcd13ifvqdp0","pricing_plan_id":"free"},{"bike_id":"f0888a5d-8469-4a4a-aa32-e51183159fbe","system_id":"levelo_inurba_marseille","lat":43.337437,"lon":5.374608,"is_reserved":false,"is_disabled":false,"rental_uris":{"android":"levelo://app?vid=f0888a5d-8469-4a4a-aa32-e51183159fbe","ios":"levelo://app?vid=f0888a5d-8469-4a4a-aa32-e51183159fbe"},"vehicle_type_id":"4","last_reported":1679145044,"current_range_meters":11200,"station_id":"","pricing_plan_id":"free"},{"bike_id":"97a70748-85a2-4139-aa8d-3426ee2a5b86","system_id":"levelo_inurba_marseille","lat":43.337501,"lon":5.374448,"is_reserved":false,"is_disabled":false,"rental_uris":{"android":"levelo://app?vid=97a70748-85a2-4139-aa8d-3426ee2a5b86","ios":"levelo://app?vid=97a70748-85a2-4139-aa8d-3426ee2a5b86"},"vehicle_type_id":"4","last_reported":1679145044,"current_range_meters":0,"station_id":"","pricing_plan_id":"free"},{"bike_id":"3691d997-1cad-46ed-b7e6-586680d35f2f","system_id":"levelo_inurba_marseille","lat":43.33748,"lon":5.37475,"is_reserved":false,"is_disabled":false,"rental_uris":{"android":"levelo://app?vid=3691d997-1cad-46ed-b7e6-586680d35f2f","ios":"levelo://app?vid=3691d997-1cad-46ed-b7e6-586680d35f2f"},"vehicle_type_id":"4","last_reported":1679145044,"current_range_meters":21600,"station_id":"","pricing_plan_id":"free"},{"bike_id":"53c222c2-e8ef-4e26-b43d-eb608a0f8f23","system_id":"levelo_inurba_marseille","lat":43.30642,"lon":5.401031,"is_reserved":false,"is_disabled":false,"rental_uris":{"android":"levelo://app?vid=53c222c2-e8ef-4e26-b43d-eb608a0f8f23","ios":"levelo://app?vid=53c222c2-e8ef-4e26-b43d-eb608a0f8f23"},"vehicle_type_id":"4","last_reported":1679145044,"current_range_meters":1200,"station_id":"ce4bh112rcd13ifvqda0","pricing_plan_id":"free"},{"bike_id":"f3e60a9c-2b74-43cb-ac11-5dfafdbb73c0","system_id":"levelo_inurba_marseille","lat":43.337556,"lon":5.374614,"is_reserved":false,"is_disabled":false,"rental_uris":{"android":"levelo://app?vid=f3e60a9c-2b74-43cb-ac11-5dfafdbb73c0","ios":"levelo://app?vid=f3e60a9c-2b74-43cb-ac11-5dfafdbb73c0"},"vehicle_type_id":"4","last_reported":1679145044,"current_range_meters":26800,"station_id":"","pricing_plan_id":"free"},{"bike_id":"12bd8fd5-1d52-481e-a7ee-085c8c6efab4","system_id":"levelo_inurba_marseille","lat":43.30642,"lon":5.401031,"is_reserved":false,"is_disabled":false,"rental_uris":{"android":"levelo://app?vid=12bd8fd5-1d52-481e-a7ee-085c8c6efab4","ios":"levelo://app?vid=12bd8fd5-1d52-481e-a7ee-085c8c6efab4"},"vehicle_type_id":"4","last_reported":1679145044,"current_range_meters":7600,"station_id":"ce4bh112rcd13ifvqda0","pricing_plan_id":"free"},{"bike_id":"7d8123dd-d5d0-4bc1-b347-f4b12a3175c2","system_id":"levelo_inurba_marseille","lat":43.300725,"lon":5.399555,"is_reserved":false,"is_disabled":false,"rental_uris":{"android":"levelo://app?vid=7d8123dd-d5d0-4bc1-b347-f4b12a3175c2","ios":"levelo://app?vid=7d8123dd-d5d0-4bc1-b347-f4b12a3175c2"},"vehicle_type_id":"4","last_reported":1679145044,"current_range_meters":0,"station_id":"","pricing_plan_id":"free"},{"bike_id":"b56f0323-b9ee-4ea3-bf98-cc605f249260","system_id":"levelo_inurba_marseille","lat":43.287185,"lon":5.379373,"is_reserved":false,"is_disabled":false,"rental_uris":{"android":"levelo://app?vid=b56f0323-b9ee-4ea3-bf98-cc605f249260","ios":"levelo://app?vid=b56f0323-b9ee-4ea3-bf98-cc605f249260"},"vehicle_type_id":"4","last_reported":1679145044,"current_range_meters":19600,"station_id":"ce4bh9p2rcd13ifvqec0","pricing_plan_id":"free"},{"bike_id":"352b22c1-a508-45b5-91bf-8ff5937b23ee","system_id":"levelo_inurba_marseille","lat":43.284534,"lon":5.358662,"is_reserved":false,"is_disabled":false,"rental_uris":{"android":"levelo://app?vid=352b22c1-a508-45b5-91bf-8ff5937b23ee","ios":"levelo://app?vid=352b22c1-a508-45b5-91bf-8ff5937b23ee"},"vehicle_type_id":"4","last_reported":1679145044,"current_range_meters":15600,"station_id":"ce4bhah2rcd13ifvqei0","pricing_plan_id":"free"},{"bike_id":"9f0c7ed9-a150-47a7-bdad-1f8bb2c96a55","system_id":"levelo_inurba_marseille","lat":43.285406,"lon":5.383878,"is_reserved":false,"is_disabled":false,"rental_uris":{"android":"levelo://app?vid=9f0c7ed9-a150-47a7-bdad-1f8bb2c96a55","ios":"levelo://app?vid=9f0c7ed9-a150-47a7-bdad-1f8bb2c96a55"},"vehicle_type_id":"4","last_reported":1679145044,"current_range_meters":0,"station_id":"","pricing_plan_id":"free"},{"bike_id":"6c14192a-ba6f-4c8f-99ee-362ec22a0a9c","system_id":"levelo_inurba_marseille","lat":43.32155,"lon":5.40718,"is_reserved":false,"is_disabled":false,"rental_uris":{"android":"levelo://app?vid=6c14192a-ba6f-4c8f-99ee-362ec22a0a9c","ios":"levelo://app?vid=6c14192a-ba6f-4c8f-99ee-362ec22a0a9c"},"vehicle_type_id":"4","last_reported":1679145044,"current_range_meters":16000,"station_id":"ce4bhq92rcd13ifvqhjg","pricing_plan_id":"free"},{"bike_id":"7da50cf2-84b2-4cdc-90b1-294cf45698cb","system_id":"levelo_inurba_marseille","lat":43.32145,"lon":5.407235,"is_reserved":false,"is_disabled":false,"rental_uris":{"android":"levelo://app?vid=7da50cf2-84b2-4cdc-90b1-294cf45698cb","ios":"levelo://app?vid=7da50cf2-84b2-4cdc-90b1-294cf45698cb"},"vehicle_type_id":"4","last_reported":1679145044,"current_range_meters":8000,"station_id":"ce4bhq92rcd13ifvqhjg","pricing_plan_id":"free"},{"bike_id":"f1cb55be-3044-4351-ad1f-24bea05bdc3a","system_id":"levelo_inurba_marseille","lat":43.284219,"lon":5.3497,"is_reserved":false,"is_disabled":false,"rental_uris":{"android":"levelo://app?vid=f1cb55be-3044-4351-ad1f-24bea05bdc3a","ios":"levelo://app?vid=f1cb55be-3044-4351-ad1f-24bea05bdc3a"},"vehicle_type_id":"4","last_reported":1679145044,"current_range_meters":11200,"station_id":"ce4bhbh2rcd13ifvqepg","pricing_plan_id":"free"},{"bike_id":"f799cf4a-c59c-4a09-8ca8-c5a36c6099d1","system_id":"levelo_inurba_marseille","lat":43.282713,"lon":5.350677,"is_reserved":false,"is_disabled":false,"rental_uris":{"android":"levelo://app?vid=f799cf4a-c59c-4a09-8ca8-c5a36c6099d1","ios":"levelo://app?vid=f799cf4a-c59c-4a09-8ca8-c5a36c6099d1"},"vehicle_type_id":"4","last_reported":1679145044,"current_range_meters":4400,"station_id":"","pricing_plan_id":"free"},{"bike_id":"b45380de-4b4e-4057-8155-d889e5f36dbc","system_id":"levelo_inurba_marseille","lat":43.28271,"lon":5.35063,"is_reserved":false,"is_disabled":false,"rental_uris":{"android":"levelo://app?vid=b45380de-4b4e-4057-8155-d889e5f36dbc","ios":"levelo://app?vid=b45380de-4b4e-4057-8155-d889e5f36dbc"},"vehicle_type_id":"4","last_reported":1679145044,"current_range_meters":25200,"station_id":"ce4bhbp2rcd13ifvqerg","pricing_plan_id":"free"},{"bike_id":"7a49fb9a-e52d-4707-9210-3eca880b0437","system_id":"levelo_inurba_marseille","lat":43.282754,"lon":5.350519,"is_reserved":false,"is_disabled":false,"rental_uris":{"android":"levelo://app?vid=7a49fb9a-e52d-4707-9210-3eca880b0437","ios":"levelo://app?vid=7a49fb9a-e52d-4707-9210-3eca880b0437"},"vehicle_type_id":"4","last_reported":1679145044,"current_range_meters":25600,"station_id":"ce4bhbp2rcd13ifvqerg","pricing_plan_id":"free"},{"bike_id":"842986f9-b51f-4cc8-bdde-277c0bd5f732","system_id":"levelo_inurba_marseille","lat":43.282754,"lon":5.350519,"is_reserved":false,"is_disabled":false,"rental_uris":{"android":"levelo://app?vid=842986f9-b51f-4cc8-bdde-277c0bd5f732","ios":"levelo://app?vid=842986f9-b51f-4cc8-bdde-277c0bd5f732"},"vehicle_type_id":"4","last_reported":1679145044,"current_range_meters":0,"station_id":"ce4bhbp2rcd13ifvqerg","pricing_plan_id":"free"},{"bike_id":"afff1259-fcef-473a-a1c2-9179d2276fe7","system_id":"levelo_inurba_marseille","lat":43.28234,"lon":5.35092,"is_reserved":false,"is_disabled":false,"rental_uris":{"android":"levelo://app?vid=afff1259-fcef-473a-a1c2-9179d2276fe7","ios":"levelo://app?vid=afff1259-fcef-473a-a1c2-9179d2276fe7"},"vehicle_type_id":"4","last_reported":1679145044,"current_range_meters":1600,"station_id":"","pricing_plan_id":"free"},{"bike_id":"d90bea6c-9e8f-4f0c-8d2a-bdf47508eb5a","system_id":"levelo_inurba_marseille","lat":43.290412,"lon":5.399633,"is_reserved":false,"is_disabled":false,"rental_uris":{"android":"levelo://app?vid=d90bea6c-9e8f-4f0c-8d2a-bdf47508eb5a","ios":"levelo://app?vid=d90bea6c-9e8f-4f0c-8d2a-bdf47508eb5a"},"vehicle_type_id":"4","last_reported":1679145044,"current_range_meters":11600,"station_id":"ce4bh392rcd13ifvqdm0","pricing_plan_id":"free"},{"bike_id":"25e043fb-9ca8-4291-8fff-1545365e8690","system_id":"levelo_inurba_marseille","lat":43.296263,"lon":5.40601,"is_reserved":false,"is_disabled":false,"rental_uris":{"android":"levelo://app?vid=25e043fb-9ca8-4291-8fff-1545365e8690","ios":"levelo://app?vid=25e043fb-9ca8-4291-8fff-1545365e8690"},"vehicle_type_id":"4","last_reported":1679145044,"current_range_meters":27200,"station_id":"ce4bh0h2rcd13ifvqd60","pricing_plan_id":"free"},{"bike_id":"196f102a-5fb9-459a-bf14-3fefb5f35142","system_id":"levelo_inurba_marseille","lat":43.296263,"lon":5.40601,"is_reserved":false,"is_disabled":false,"rental_uris":{"android":"levelo://app?vid=196f102a-5fb9-459a-bf14-3fefb5f35142","ios":"levelo://app?vid=196f102a-5fb9-459a-bf14-3fefb5f35142"},"vehicle_type_id":"4","last_reported":1679145044,"current_range_meters":25600,"station_id":"ce4bh0h2rcd13ifvqd60","pricing_plan_id":"free"},{"bike_id":"1acdc035-ef65-48a0-9c2d-f137212ebd36","system_id":"levelo_inurba_marseille","lat":43.280998,"lon":5.378523,"is_reserved":false,"is_disabled":false,"rental_uris":{"android":"levelo://app?vid=1acdc035-ef65-48a0-9c2d-f137212ebd36","ios":"levelo://app?vid=1acdc035-ef65-48a0-9c2d-f137212ebd36"},"vehicle_type_id":"4","last_reported":1679145044,"current_range_meters":21600,"station_id":"ce4bha12rcd13ifvqee0","pricing_plan_id":"free"},{"bike_id":"fd94f329-7a13-4190-8e3c-0c1eb267c7ec","system_id":"levelo_inurba_marseille","lat":43.304188,"lon":5.412904,"is_reserved":false,"is_disabled":false,"rental_uris":{"android":"levelo://app?vid=fd94f329-7a13-4190-8e3c-0c1eb267c7ec","ios":"levelo://app?vid=fd94f329-7a13-4190-8e3c-0c1eb267c7ec"},"vehicle_type_id":"4","last_reported":1679145044,"current_range_meters":25600,"station_id":"ce4bhop2rcd13ifvqh8g","pricing_plan_id":"free"},{"bike_id":"8a3c122d-d2c0-435c-b620-bb34d26e8e95","system_id":"levelo_inurba_marseille","lat":43.304188,"lon":5.412904,"is_reserved":false,"is_disabled":false,"rental_uris":{"android":"levelo://app?vid=8a3c122d-d2c0-435c-b620-bb34d26e8e95","ios":"levelo://app?vid=8a3c122d-d2c0-435c-b620-bb34d26e8e95"},"vehicle_type_id":"4","last_reported":1679145044,"current_range_meters":2000,"station_id":"ce4bhop2rcd13ifvqh8g","pricing_plan_id":"free"},{"bike_id":"45393937-dcaf-44fb-9447-7c776899be08","system_id":"levelo_inurba_marseille","lat":43.304188,"lon":5.412904,"is_reserved":false,"is_disabled":false,"rental_uris":{"android":"levelo://app?vid=45393937-dcaf-44fb-9447-7c776899be08","ios":"levelo://app?vid=45393937-dcaf-44fb-9447-7c776899be08"},"vehicle_type_id":"4","last_reported":1679145044,"current_range_meters":31600,"station_id":"ce4bhop2rcd13ifvqh8g","pricing_plan_id":"free"},{"bike_id":"6e534379-806c-4047-920a-1e177dd0a58d","system_id":"levelo_inurba_marseille","lat":43.304188,"lon":5.412904,"is_reserved":false,"is_disabled":false,"rental_uris":{"android":"levelo://app?vid=6e534379-806c-4047-920a-1e177dd0a58d","ios":"levelo://app?vid=6e534379-806c-4047-920a-1e177dd0a58d"},"vehicle_type_id":"4","last_reported":1679145044,"current_range_meters":30400,"station_id":"ce4bhop2rcd13ifvqh8g","pricing_plan_id":"free"},{"bike_id":"2f032b77-131f-41ac-bb8c-c73cf83f7ea0","system_id":"levelo_inurba_marseille","lat":43.304188,"lon":5.412904,"is_reserved":false,"is_disabled":false,"rental_uris":{"android":"levelo://app?vid=2f032b77-131f-41ac-bb8c-c73cf83f7ea0","ios":"levelo://app?vid=2f032b77-131f-41ac-bb8c-c73cf83f7ea0"},"vehicle_type_id":"4","last_reported":1679145044,"current_range_meters":30000,"station_id":"ce4bhop2rcd13ifvqh8g","pricing_plan_id":"free"},{"bike_id":"543699ff-f8e1-42e1-8c8e-70dc98d58bb5","system_id":"levelo_inurba_marseille","lat":43.287154,"lon":5.399979,"is_reserved":false,"is_disabled":false,"rental_uris":{"android":"levelo://app?vid=543699ff-f8e1-42e1-8c8e-70dc98d58bb5","ios":"levelo://app?vid=543699ff-f8e1-42e1-8c8e-70dc98d58bb5"},"vehicle_type_id":"4","last_reported":1679145044,"current_range_meters":24000,"station_id":"ce4bho92rcd13ifvqh3g","pricing_plan_id":"free"},{"bike_id":"73102b6f-0494-409b-8719-e0930eb848ab","system_id":"levelo_inurba_marseille","lat":43.320375,"lon":5.415415,"is_reserved":false,"is_disabled":false,"rental_uris":{"android":"levelo://app?vid=73102b6f-0494-409b-8719-e0930eb848ab","ios":"levelo://app?vid=73102b6f-0494-409b-8719-e0930eb848ab"},"vehicle_type_id":"4","last_reported":1679145044,"current_range_meters":16800,"station_id":"","pricing_plan_id":"free"},{"bike_id":"681a9f12-b721-4257-a6c1-925967dc1822","system_id":"levelo_inurba_marseille","lat":43.32057,"lon":5.41543,"is_reserved":false,"is_disabled":false,"rental_uris":{"android":"levelo://app?vid=681a9f12-b721-4257-a6c1-925967dc1822","ios":"levelo://app?vid=681a9f12-b721-4257-a6c1-925967dc1822"},"vehicle_type_id":"4","last_reported":1679145044,"current_range_meters":2000,"station_id":"","pricing_plan_id":"free"},{"bike_id":"b0d952c0-dfb2-48e7-aa40-bc5ebe9a217f","system_id":"levelo_inurba_marseille","lat":43.320263,"lon":5.415727,"is_reserved":false,"is_disabled":false,"rental_uris":{"android":"levelo://app?vid=b0d952c0-dfb2-48e7-aa40-bc5ebe9a217f","ios":"levelo://app?vid=b0d952c0-dfb2-48e7-aa40-bc5ebe9a217f"},"vehicle_type_id":"4","last_reported":1679145044,"current_range_meters":17200,"station_id":"","pricing_plan_id":"free"},{"bike_id":"fa7815ca-2c41-4197-a2fb-3cdca64b099d","system_id":"levelo_inurba_marseille","lat":43.320402,"lon":5.415724,"is_reserved":false,"is_disabled":false,"rental_uris":{"android":"levelo://app?vid=fa7815ca-2c41-4197-a2fb-3cdca64b099d","ios":"levelo://app?vid=fa7815ca-2c41-4197-a2fb-3cdca64b099d"},"vehicle_type_id":"4","last_reported":1679145044,"current_range_meters":28800,"station_id":"","pricing_plan_id":"free"},{"bike_id":"d1e79977-1c7b-4c13-ada1-455dbb7bb449","system_id":"levelo_inurba_marseille","lat":43.325233,"lon":5.414318,"is_reserved":false,"is_disabled":false,"rental_uris":{"android":"levelo://app?vid=d1e79977-1c7b-4c13-ada1-455dbb7bb449","ios":"levelo://app?vid=d1e79977-1c7b-4c13-ada1-455dbb7bb449"},"vehicle_type_id":"4","last_reported":1679145044,"current_range_meters":16400,"station_id":"ce4bhq12rcd13ifvqhhg","pricing_plan_id":"free"},{"bike_id":"9d002998-c479-45f0-879d-1bd38fbf953b","system_id":"levelo_inurba_marseille","lat":43.32479,"lon":5.41447,"is_reserved":false,"is_disabled":false,"rental_uris":{"android":"levelo://app?vid=9d002998-c479-45f0-879d-1bd38fbf953b","ios":"levelo://app?vid=9d002998-c479-45f0-879d-1bd38fbf953b"},"vehicle_type_id":"4","last_reported":1679145044,"current_range_meters":10400,"station_id":"","pricing_plan_id":"free"},{"bike_id":"4184c252-848e-41cf-ad3d-cb16a511d5ca","system_id":"levelo_inurba_marseille","lat":43.325233,"lon":5.414318,"is_reserved":false,"is_disabled":false,"rental_uris":{"android":"levelo://app?vid=4184c252-848e-41cf-ad3d-cb16a511d5ca","ios":"levelo://app?vid=4184c252-848e-41cf-ad3d-cb16a511d5ca"},"vehicle_type_id":"4","last_reported":1679145044,"current_range_meters":17600,"station_id":"ce4bhq12rcd13ifvqhhg","pricing_plan_id":"free"},{"bike_id":"c8325d53-7433-455f-ab58-a36d2e1d5f19","system_id":"levelo_inurba_marseille","lat":43.325243,"lon":5.414326,"is_reserved":false,"is_disabled":false,"rental_uris":{"android":"levelo://app?vid=c8325d53-7433-455f-ab58-a36d2e1d5f19","ios":"levelo://app?vid=c8325d53-7433-455f-ab58-a36d2e1d5f19"},"vehicle_type_id":"4","last_reported":1679145044,"current_range_meters":19200,"station_id":"ce4bhq12rcd13ifvqhhg","pricing_plan_id":"free"},{"bike_id":"e9c2c379-2a01-4fa6-99c3-40a9b794b8c9","system_id":"levelo_inurba_marseille","lat":43.325233,"lon":5.414318,"is_reserved":false,"is_disabled":false,"rental_uris":{"android":"levelo://app?vid=e9c2c379-2a01-4fa6-99c3-40a9b794b8c9","ios":"levelo://app?vid=e9c2c379-2a01-4fa6-99c3-40a9b794b8c9"},"vehicle_type_id":"4","last_reported":1679145044,"current_range_meters":14000,"station_id":"ce4bhq12rcd13ifvqhhg","pricing_plan_id":"free"},{"bike_id":"6e7c5719-0dbe-454e-996f-ba88ced2e5e7","system_id":"levelo_inurba_marseille","lat":43.325233,"lon":5.414318,"is_reserved":false,"is_disabled":false,"rental_uris":{"android":"levelo://app?vid=6e7c5719-0dbe-454e-996f-ba88ced2e5e7","ios":"levelo://app?vid=6e7c5719-0dbe-454e-996f-ba88ced2e5e7"},"vehicle_type_id":"4","last_reported":1679145044,"current_range_meters":800,"station_id":"ce4bhq12rcd13ifvqhhg","pricing_plan_id":"free"},{"bike_id":"3732093d-633c-490f-85bb-bd2d1440b61b","system_id":"levelo_inurba_marseille","lat":43.292571,"lon":5.409107,"is_reserved":false,"is_disabled":false,"rental_uris":{"android":"levelo://app?vid=3732093d-633c-490f-85bb-bd2d1440b61b","ios":"levelo://app?vid=3732093d-633c-490f-85bb-bd2d1440b61b"},"vehicle_type_id":"4","last_reported":1679145044,"current_range_meters":16800,"station_id":"ce4bh192rcd13ifvqdc0","pricing_plan_id":"free"},{"bike_id":"c0dd7326-9b26-412c-8fa6-64443aba1992","system_id":"levelo_inurba_marseille","lat":43.325233,"lon":5.414318,"is_reserved":false,"is_disabled":false,"rental_uris":{"android":"levelo://app?vid=c0dd7326-9b26-412c-8fa6-64443aba1992","ios":"levelo://app?vid=c0dd7326-9b26-412c-8fa6-64443aba1992"},"vehicle_type_id":"4","last_reported":1679145044,"current_range_meters":10800,"station_id":"ce4bhq12rcd13ifvqhhg","pricing_plan_id":"free"},{"bike_id":"b02e7c8c-7372-4e3e-8f9e-795face5f7a4","system_id":"levelo_inurba_marseille","lat":43.292571,"lon":5.409107,"is_reserved":false,"is_disabled":false,"rental_uris":{"android":"levelo://app?vid=b02e7c8c-7372-4e3e-8f9e-795face5f7a4","ios":"levelo://app?vid=b02e7c8c-7372-4e3e-8f9e-795face5f7a4"},"vehicle_type_id":"4","last_reported":1679145044,"current_range_meters":12800,"station_id":"ce4bh192rcd13ifvqdc0","pricing_plan_id":"free"},{"bike_id":"960b0e40-0f41-442c-8fbf-09c45586f37a","system_id":"levelo_inurba_marseille","lat":43.325243,"lon":5.414326,"is_reserved":false,"is_disabled":false,"rental_uris":{"android":"levelo://app?vid=960b0e40-0f41-442c-8fbf-09c45586f37a","ios":"levelo://app?vid=960b0e40-0f41-442c-8fbf-09c45586f37a"},"vehicle_type_id":"4","last_reported":1679145044,"current_range_meters":24800,"station_id":"ce4bhq12rcd13ifvqhhg","pricing_plan_id":"free"},{"bike_id":"10d10cf0-6210-416b-aec4-8db00a0c885f","system_id":"levelo_inurba_marseille","lat":43.292513,"lon":5.40916,"is_reserved":false,"is_disabled":false,"rental_uris":{"android":"levelo://app?vid=10d10cf0-6210-416b-aec4-8db00a0c885f","ios":"levelo://app?vid=10d10cf0-6210-416b-aec4-8db00a0c885f"},"vehicle_type_id":"4","last_reported":1679145044,"current_range_meters":28800,"station_id":"ce4bh192rcd13ifvqdc0","pricing_plan_id":"free"},{"bike_id":"80406b38-d32b-459f-b316-938cb56beae9","system_id":"levelo_inurba_marseille","lat":43.325243,"lon":5.414326,"is_reserved":false,"is_disabled":false,"rental_uris":{"android":"levelo://app?vid=80406b38-d32b-459f-b316-938cb56beae9","ios":"levelo://app?vid=80406b38-d32b-459f-b316-938cb56beae9"},"vehicle_type_id":"4","last_reported":1679145044,"current_range_meters":11600,"station_id":"ce4bhq12rcd13ifvqhhg","pricing_plan_id":"free"},{"bike_id":"42fd30d1-61f1-4792-a069-7109fc32152f","system_id":"levelo_inurba_marseille","lat":43.27488,"lon":5.36043,"is_reserved":false,"is_disabled":false,"rental_uris":{"android":"levelo://app?vid=42fd30d1-61f1-4792-a069-7109fc32152f","ios":"levelo://app?vid=42fd30d1-61f1-4792-a069-7109fc32152f"},"vehicle_type_id":"4","last_reported":1679145044,"current_range_meters":27600,"station_id":"","pricing_plan_id":"free"},{"bike_id":"70737d0c-f69a-4589-983e-efeb2f918fdc","system_id":"levelo_inurba_marseille","lat":43.280784,"lon":5.396622,"is_reserved":false,"is_disabled":false,"rental_uris":{"android":"levelo://app?vid=70737d0c-f69a-4589-983e-efeb2f918fdc","ios":"levelo://app?vid=70737d0c-f69a-4589-983e-efeb2f918fdc"},"vehicle_type_id":"4","last_reported":1679145044,"current_range_meters":12400,"station_id":"ce4bho12rcd13ifvqh2g","pricing_plan_id":"free"},{"bike_id":"65a2b645-9e6d-4b61-a681-a7478624809b","system_id":"levelo_inurba_marseille","lat":43.280784,"lon":5.396622,"is_reserved":false,"is_disabled":false,"rental_uris":{"android":"levelo://app?vid=65a2b645-9e6d-4b61-a681-a7478624809b","ios":"levelo://app?vid=65a2b645-9e6d-4b61-a681-a7478624809b"},"vehicle_type_id":"4","last_reported":1679145044,"current_range_meters":10400,"station_id":"ce4bho12rcd13ifvqh2g","pricing_plan_id":"free"},{"bike_id":"0a0fa632-122e-4c18-9a0e-6a1cce1a50f6","system_id":"levelo_inurba_marseille","lat":43.276678,"lon":5.38912,"is_reserved":false,"is_disabled":false,"rental_uris":{"android":"levelo://app?vid=0a0fa632-122e-4c18-9a0e-6a1cce1a50f6","ios":"levelo://app?vid=0a0fa632-122e-4c18-9a0e-6a1cce1a50f6"},"vehicle_type_id":"4","last_reported":1679145044,"current_range_meters":0,"station_id":"","pricing_plan_id":"free"},{"bike_id":"d00c5266-ffba-41c6-8c80-c5aae48da8c4","system_id":"levelo_inurba_marseille","lat":43.276674,"lon":5.389121,"is_reserved":false,"is_disabled":false,"rental_uris":{"android":"levelo://app?vid=d00c5266-ffba-41c6-8c80-c5aae48da8c4","ios":"levelo://app?vid=d00c5266-ffba-41c6-8c80-c5aae48da8c4"},"vehicle_type_id":"4","last_reported":1679145044,"current_range_meters":0,"station_id":"","pricing_plan_id":"free"},{"bike_id":"52042467-a2e2-4004-b010-a87dd60a0128","system_id":"levelo_inurba_marseille","lat":43.27999,"lon":5.399641,"is_reserved":false,"is_disabled":false,"rental_uris":{"android":"levelo://app?vid=52042467-a2e2-4004-b010-a87dd60a0128","ios":"levelo://app?vid=52042467-a2e2-4004-b010-a87dd60a0128"},"vehicle_type_id":"4","last_reported":1679145044,"current_range_meters":0,"station_id":"","pricing_plan_id":"free"},{"bike_id":"4afdfc20-01a2-4dae-b7ec-d2923345ee3a","system_id":"levelo_inurba_marseille","lat":43.310785,"lon":5.424305,"is_reserved":false,"is_disabled":false,"rental_uris":{"android":"levelo://app?vid=4afdfc20-01a2-4dae-b7ec-d2923345ee3a","ios":"levelo://app?vid=4afdfc20-01a2-4dae-b7ec-d2923345ee3a"},"vehicle_type_id":"4","last_reported":1679145044,"current_range_meters":19200,"station_id":"ce4bhp92rcd13ifvqhag","pricing_plan_id":"free"},{"bike_id":"b7a56549-6b7d-497e-8496-7ff25fff6ed4","system_id":"levelo_inurba_marseille","lat":43.31081,"lon":5.42427,"is_reserved":false,"is_disabled":false,"rental_uris":{"android":"levelo://app?vid=b7a56549-6b7d-497e-8496-7ff25fff6ed4","ios":"levelo://app?vid=b7a56549-6b7d-497e-8496-7ff25fff6ed4"},"vehicle_type_id":"4","last_reported":1679145044,"current_range_meters":27200,"station_id":"ce4bhp92rcd13ifvqhag","pricing_plan_id":"free"},{"bike_id":"f3e8fb6d-352b-4dd2-b33c-1eafeef7186f","system_id":"levelo_inurba_marseille","lat":43.31081,"lon":5.424317,"is_reserved":false,"is_disabled":false,"rental_uris":{"android":"levelo://app?vid=f3e8fb6d-352b-4dd2-b33c-1eafeef7186f","ios":"levelo://app?vid=f3e8fb6d-352b-4dd2-b33c-1eafeef7186f"},"vehicle_type_id":"4","last_reported":1679145044,"current_range_meters":27600,"station_id":"","pricing_plan_id":"free"},{"bike_id":"838987d0-6640-47ad-b001-23b3da53e4e3","system_id":"levelo_inurba_marseille","lat":43.273129,"lon":5.390725,"is_reserved":false,"is_disabled":false,"rental_uris":{"android":"levelo://app?vid=838987d0-6640-47ad-b001-23b3da53e4e3","ios":"levelo://app?vid=838987d0-6640-47ad-b001-23b3da53e4e3"},"vehicle_type_id":"4","last_reported":1679145044,"current_range_meters":20800,"station_id":"ce4bhgp2rcd13ifvqfe0","pricing_plan_id":"free"},{"bike_id":"dcf781a7-183f-4b18-a082-0731d10fe12d","system_id":"levelo_inurba_marseille","lat":43.304096,"lon":5.425385,"is_reserved":false,"is_disabled":false,"rental_uris":{"android":"levelo://app?vid=dcf781a7-183f-4b18-a082-0731d10fe12d","ios":"levelo://app?vid=dcf781a7-183f-4b18-a082-0731d10fe12d"},"vehicle_type_id":"4","last_reported":1679145044,"current_range_meters":27200,"station_id":"ce4bhoh2rcd13ifvqh6g","pricing_plan_id":"free"},{"bike_id":"f6c8bd2c-a4dc-41e6-b41c-3f99f5c5dd2b","system_id":"levelo_inurba_marseille","lat":43.304096,"lon":5.425385,"is_reserved":false,"is_disabled":false,"rental_uris":{"android":"levelo://app?vid=f6c8bd2c-a4dc-41e6-b41c-3f99f5c5dd2b","ios":"levelo://app?vid=f6c8bd2c-a4dc-41e6-b41c-3f99f5c5dd2b"},"vehicle_type_id":"4","last_reported":1679145044,"current_range_meters":24800,"station_id":"ce4bhoh2rcd13ifvqh6g","pricing_plan_id":"free"},{"bike_id":"d332159b-fec7-4b67-9919-be60931f34a1","system_id":"levelo_inurba_marseille","lat":43.304096,"lon":5.425385,"is_reserved":false,"is_disabled":false,"rental_uris":{"android":"levelo://app?vid=d332159b-fec7-4b67-9919-be60931f34a1","ios":"levelo://app?vid=d332159b-fec7-4b67-9919-be60931f34a1"},"vehicle_type_id":"4","last_reported":1679145044,"current_range_meters":24800,"station_id":"ce4bhoh2rcd13ifvqh6g","pricing_plan_id":"free"},{"bike_id":"c65b0f2f-ddd4-4ced-99dc-a066a8acf787","system_id":"levelo_inurba_marseille","lat":43.304096,"lon":5.425385,"is_reserved":false,"is_disabled":false,"rental_uris":{"android":"levelo://app?vid=c65b0f2f-ddd4-4ced-99dc-a066a8acf787","ios":"levelo://app?vid=c65b0f2f-ddd4-4ced-99dc-a066a8acf787"},"vehicle_type_id":"4","last_reported":1679145044,"current_range_meters":16000,"station_id":"ce4bhoh2rcd13ifvqh6g","pricing_plan_id":"free"},{"bike_id":"5eecbdc6-4bd3-493c-a320-5c6a01a076fb","system_id":"levelo_inurba_marseille","lat":43.304096,"lon":5.425385,"is_reserved":false,"is_disabled":false,"rental_uris":{"android":"levelo://app?vid=5eecbdc6-4bd3-493c-a320-5c6a01a076fb","ios":"levelo://app?vid=5eecbdc6-4bd3-493c-a320-5c6a01a076fb"},"vehicle_type_id":"4","last_reported":1679145044,"current_range_meters":31200,"station_id":"ce4bhoh2rcd13ifvqh6g","pricing_plan_id":"free"},{"bike_id":"4c260c9a-8730-453f-9a5e-5d3f544c6a77","system_id":"levelo_inurba_marseille","lat":43.30411,"lon":5.42541,"is_reserved":false,"is_disabled":false,"rental_uris":{"android":"levelo://app?vid=4c260c9a-8730-453f-9a5e-5d3f544c6a77","ios":"levelo://app?vid=4c260c9a-8730-453f-9a5e-5d3f544c6a77"},"vehicle_type_id":"4","last_reported":1679145044,"current_range_meters":26800,"station_id":"ce4bhoh2rcd13ifvqh6g","pricing_plan_id":"free"},{"bike_id":"97845fa5-b394-4ad4-aedb-37c067bbba4d","system_id":"levelo_inurba_marseille","lat":43.304096,"lon":5.425385,"is_reserved":false,"is_disabled":false,"rental_uris":{"android":"levelo://app?vid=97845fa5-b394-4ad4-aedb-37c067bbba4d","ios":"levelo://app?vid=97845fa5-b394-4ad4-aedb-37c067bbba4d"},"vehicle_type_id":"4","last_reported":1679145044,"current_range_meters":24400,"station_id":"ce4bhoh2rcd13ifvqh6g","pricing_plan_id":"free"},{"bike_id":"9c019b6d-1b68-4354-91de-7e7dd8b0efa5","system_id":"levelo_inurba_marseille","lat":43.304096,"lon":5.425385,"is_reserved":false,"is_disabled":false,"rental_uris":{"android":"levelo://app?vid=9c019b6d-1b68-4354-91de-7e7dd8b0efa5","ios":"levelo://app?vid=9c019b6d-1b68-4354-91de-7e7dd8b0efa5"},"vehicle_type_id":"4","last_reported":1679145044,"current_range_meters":17200,"station_id":"ce4bhoh2rcd13ifvqh6g","pricing_plan_id":"free"},{"bike_id":"1130bd26-8973-42e5-b748-8c0392d35f23","system_id":"levelo_inurba_marseille","lat":43.304096,"lon":5.425385,"is_reserved":false,"is_disabled":false,"rental_uris":{"android":"levelo://app?vid=1130bd26-8973-42e5-b748-8c0392d35f23","ios":"levelo://app?vid=1130bd26-8973-42e5-b748-8c0392d35f23"},"vehicle_type_id":"4","last_reported":1679145044,"current_range_meters":15200,"station_id":"ce4bhoh2rcd13ifvqh6g","pricing_plan_id":"free"},{"bike_id":"0102a14d-1976-4b23-815b-e01f89045796","system_id":"levelo_inurba_marseille","lat":43.304096,"lon":5.425385,"is_reserved":false,"is_disabled":false,"rental_uris":{"android":"levelo://app?vid=0102a14d-1976-4b23-815b-e01f89045796","ios":"levelo://app?vid=0102a14d-1976-4b23-815b-e01f89045796"},"vehicle_type_id":"4","last_reported":1679145044,"current_range_meters":24800,"station_id":"ce4bhoh2rcd13ifvqh6g","pricing_plan_id":"free"},{"bike_id":"f8aadefa-3128-4712-a7a8-c80495235315","system_id":"levelo_inurba_marseille","lat":43.27231,"lon":5.39098,"is_reserved":false,"is_disabled":false,"rental_uris":{"android":"levelo://app?vid=f8aadefa-3128-4712-a7a8-c80495235315","ios":"levelo://app?vid=f8aadefa-3128-4712-a7a8-c80495235315"},"vehicle_type_id":"4","last_reported":1679145044,"current_range_meters":800,"station_id":"ce4bh512rcd13ifvqe3g","pricing_plan_id":"free"},{"bike_id":"a47f368e-fe90-4d64-a60f-12b90f6f925a","system_id":"levelo_inurba_marseille","lat":43.295523,"lon":5.422926,"is_reserved":false,"is_disabled":false,"rental_uris":{"android":"levelo://app?vid=a47f368e-fe90-4d64-a60f-12b90f6f925a","ios":"levelo://app?vid=a47f368e-fe90-4d64-a60f-12b90f6f925a"},"vehicle_type_id":"4","last_reported":1679145044,"current_range_meters":26000,"station_id":"ce4bhph2rcd13ifvqhdg","pricing_plan_id":"free"},{"bike_id":"4a323648-6a6a-4603-bc2c-12b70102a17c","system_id":"levelo_inurba_marseille","lat":43.2955,"lon":5.42279,"is_reserved":false,"is_disabled":false,"rental_uris":{"android":"levelo://app?vid=4a323648-6a6a-4603-bc2c-12b70102a17c","ios":"levelo://app?vid=4a323648-6a6a-4603-bc2c-12b70102a17c"},"vehicle_type_id":"4","last_reported":1679145044,"current_range_meters":29200,"station_id":"","pricing_plan_id":"free"},{"bike_id":"ed39570b-0d60-4c1a-840f-8bd1149ab069","system_id":"levelo_inurba_marseille","lat":43.29556,"lon":5.42283,"is_reserved":false,"is_disabled":false,"rental_uris":{"android":"levelo://app?vid=ed39570b-0d60-4c1a-840f-8bd1149ab069","ios":"levelo://app?vid=ed39570b-0d60-4c1a-840f-8bd1149ab069"},"vehicle_type_id":"4","last_reported":1679145044,"current_range_meters":31600,"station_id":"","pricing_plan_id":"free"},{"bike_id":"728a5816-028c-4a92-bd69-ad0a44d83942","system_id":"levelo_inurba_marseille","lat":43.2955,"lon":5.42281,"is_reserved":false,"is_disabled":false,"rental_uris":{"android":"levelo://app?vid=728a5816-028c-4a92-bd69-ad0a44d83942","ios":"levelo://app?vid=728a5816-028c-4a92-bd69-ad0a44d83942"},"vehicle_type_id":"4","last_reported":1679145044,"current_range_meters":31200,"station_id":"ce4bhph2rcd13ifvqhdg","pricing_plan_id":"free"},{"bike_id":"d5ce91c7-eea7-4f5f-869d-fd52053f0c67","system_id":"levelo_inurba_marseille","lat":43.29554,"lon":5.42288,"is_reserved":false,"is_disabled":false,"rental_uris":{"android":"levelo://app?vid=d5ce91c7-eea7-4f5f-869d-fd52053f0c67","ios":"levelo://app?vid=d5ce91c7-eea7-4f5f-869d-fd52053f0c67"},"vehicle_type_id":"4","last_reported":1679145044,"current_range_meters":12000,"station_id":"ce4bhph2rcd13ifvqhdg","pricing_plan_id":"free"},{"bike_id":"07b4fcbf-0b2a-496b-a57f-97dfd12cb6e4","system_id":"levelo_inurba_marseille","lat":43.295553,"lon":5.422905,"is_reserved":false,"is_disabled":false,"rental_uris":{"android":"levelo://app?vid=07b4fcbf-0b2a-496b-a57f-97dfd12cb6e4","ios":"levelo://app?vid=07b4fcbf-0b2a-496b-a57f-97dfd12cb6e4"},"vehicle_type_id":"4","last_reported":1679145044,"current_range_meters":31600,"station_id":"ce4bhph2rcd13ifvqhdg","pricing_plan_id":"free"},{"bike_id":"4e2647f1-059f-46a9-a548-eacc871d2f57","system_id":"levelo_inurba_marseille","lat":43.29554,"lon":5.42291,"is_reserved":false,"is_disabled":false,"rental_uris":{"android":"levelo://app?vid=4e2647f1-059f-46a9-a548-eacc871d2f57","ios":"levelo://app?vid=4e2647f1-059f-46a9-a548-eacc871d2f57"},"vehicle_type_id":"4","last_reported":1679145044,"current_range_meters":2400,"station_id":"ce4bhph2rcd13ifvqhdg","pricing_plan_id":"free"},{"bike_id":"64221007-4118-4ad7-8641-d9a6e6b87c0d","system_id":"levelo_inurba_marseille","lat":43.278128,"lon":5.407195,"is_reserved":false,"is_disabled":false,"rental_uris":{"android":"levelo://app?vid=64221007-4118-4ad7-8641-d9a6e6b87c0d","ios":"levelo://app?vid=64221007-4118-4ad7-8641-d9a6e6b87c0d"},"vehicle_type_id":"4","last_reported":1679145044,"current_range_meters":30000,"station_id":"ce4bhnh2rcd13ifvqgtg","pricing_plan_id":"free"},{"bike_id":"3d142a66-1dac-4a59-ab94-5167f3f5888e","system_id":"levelo_inurba_marseille","lat":43.27996,"lon":5.416624,"is_reserved":false,"is_disabled":false,"rental_uris":{"android":"levelo://app?vid=3d142a66-1dac-4a59-ab94-5167f3f5888e","ios":"levelo://app?vid=3d142a66-1dac-4a59-ab94-5167f3f5888e"},"vehicle_type_id":"4","last_reported":1679145044,"current_range_meters":27200,"station_id":"ce4bho12rcd13ifvqh1g","pricing_plan_id":"free"},{"bike_id":"6320a392-706d-4a4c-899e-d756ea05c1ec","system_id":"levelo_inurba_marseille","lat":43.27996,"lon":5.416624,"is_reserved":false,"is_disabled":false,"rental_uris":{"android":"levelo://app?vid=6320a392-706d-4a4c-899e-d756ea05c1ec","ios":"levelo://app?vid=6320a392-706d-4a4c-899e-d756ea05c1ec"},"vehicle_type_id":"4","last_reported":1679145044,"current_range_meters":20800,"station_id":"ce4bho12rcd13ifvqh1g","pricing_plan_id":"free"},{"bike_id":"540d7295-f76f-49f3-9ea4-73c34719e69f","system_id":"levelo_inurba_marseille","lat":43.27987,"lon":5.41663,"is_reserved":false,"is_disabled":false,"rental_uris":{"android":"levelo://app?vid=540d7295-f76f-49f3-9ea4-73c34719e69f","ios":"levelo://app?vid=540d7295-f76f-49f3-9ea4-73c34719e69f"},"vehicle_type_id":"4","last_reported":1679145044,"current_range_meters":0,"station_id":"ce4bho12rcd13ifvqh1g","pricing_plan_id":"free"},{"bike_id":"2599a21e-b6c3-4750-b6ec-9ccfad70f125","system_id":"levelo_inurba_marseille","lat":43.267966,"lon":5.393976,"is_reserved":false,"is_disabled":false,"rental_uris":{"android":"levelo://app?vid=2599a21e-b6c3-4750-b6ec-9ccfad70f125","ios":"levelo://app?vid=2599a21e-b6c3-4750-b6ec-9ccfad70f125"},"vehicle_type_id":"4","last_reported":1679145044,"current_range_meters":29200,"station_id":"ce4bhh12rcd13ifvqfg0","pricing_plan_id":"free"},{"bike_id":"7752e69c-a8fa-4067-bd56-17cab0258cd5","system_id":"levelo_inurba_marseille","lat":43.308051,"lon":5.43527,"is_reserved":false,"is_disabled":false,"rental_uris":{"android":"levelo://app?vid=7752e69c-a8fa-4067-bd56-17cab0258cd5","ios":"levelo://app?vid=7752e69c-a8fa-4067-bd56-17cab0258cd5"},"vehicle_type_id":"4","last_reported":1679145044,"current_range_meters":4000,"station_id":"ce4bhph2rcd13ifvqheg","pricing_plan_id":"free"},{"bike_id":"ab6aa183-7cfb-4053-9a96-9973c9c45cba","system_id":"levelo_inurba_marseille","lat":43.26192,"lon":5.37442,"is_reserved":false,"is_disabled":false,"rental_uris":{"android":"levelo://app?vid=ab6aa183-7cfb-4053-9a96-9973c9c45cba","ios":"levelo://app?vid=ab6aa183-7cfb-4053-9a96-9973c9c45cba"},"vehicle_type_id":"4","last_reported":1679145044,"current_range_meters":14000,"station_id":"ce4bhgp2rcd13ifvqfc0","pricing_plan_id":"free"},{"bike_id":"d9c8ec51-04a7-491f-b318-fa923c2aa3b7","system_id":"levelo_inurba_marseille","lat":43.261782,"lon":5.374515,"is_reserved":false,"is_disabled":false,"rental_uris":{"android":"levelo://app?vid=d9c8ec51-04a7-491f-b318-fa923c2aa3b7","ios":"levelo://app?vid=d9c8ec51-04a7-491f-b318-fa923c2aa3b7"},"vehicle_type_id":"4","last_reported":1679145044,"current_range_meters":6000,"station_id":"ce4bhgp2rcd13ifvqfc0","pricing_plan_id":"free"},{"bike_id":"d99b49c5-ec3c-47bd-baaf-c9bf45cc74f1","system_id":"levelo_inurba_marseille","lat":43.2619,"lon":5.3744,"is_reserved":false,"is_disabled":false,"rental_uris":{"android":"levelo://app?vid=d99b49c5-ec3c-47bd-baaf-c9bf45cc74f1","ios":"levelo://app?vid=d99b49c5-ec3c-47bd-baaf-c9bf45cc74f1"},"vehicle_type_id":"4","last_reported":1679145044,"current_range_meters":2400,"station_id":"ce4bhgp2rcd13ifvqfc0","pricing_plan_id":"free"},{"bike_id":"6e3b5436-c6c1-4bd7-ab40-d4cb910e3151","system_id":"levelo_inurba_marseille","lat":43.262019,"lon":5.379288,"is_reserved":false,"is_disabled":false,"rental_uris":{"android":"levelo://app?vid=6e3b5436-c6c1-4bd7-ab40-d4cb910e3151","ios":"levelo://app?vid=6e3b5436-c6c1-4bd7-ab40-d4cb910e3151"},"vehicle_type_id":"4","last_reported":1679145044,"current_range_meters":24400,"station_id":"ce4bhjp2rcd13ifvqg90","pricing_plan_id":"free"},{"bike_id":"1c8a0c70-fcfc-46b8-8da2-01105369cdc0","system_id":"levelo_inurba_marseille","lat":43.262012,"lon":5.379307,"is_reserved":false,"is_disabled":false,"rental_uris":{"android":"levelo://app?vid=1c8a0c70-fcfc-46b8-8da2-01105369cdc0","ios":"levelo://app?vid=1c8a0c70-fcfc-46b8-8da2-01105369cdc0"},"vehicle_type_id":"4","last_reported":1679145044,"current_range_meters":19600,"station_id":"ce4bhjp2rcd13ifvqg90","pricing_plan_id":"free"},{"bike_id":"dd582b73-0cb0-4ad0-8358-d75b9f3e9779","system_id":"levelo_inurba_marseille","lat":43.262012,"lon":5.379307,"is_reserved":false,"is_disabled":false,"rental_uris":{"android":"levelo://app?vid=dd582b73-0cb0-4ad0-8358-d75b9f3e9779","ios":"levelo://app?vid=dd582b73-0cb0-4ad0-8358-d75b9f3e9779"},"vehicle_type_id":"4","last_reported":1679145044,"current_range_meters":15600,"station_id":"ce4bhjp2rcd13ifvqg90","pricing_plan_id":"free"},{"bike_id":"0363506e-e8a1-4421-a946-e11a9e843ae4","system_id":"levelo_inurba_marseille","lat":43.26803,"lon":5.4026,"is_reserved":false,"is_disabled":false,"rental_uris":{"android":"levelo://app?vid=0363506e-e8a1-4421-a946-e11a9e843ae4","ios":"levelo://app?vid=0363506e-e8a1-4421-a946-e11a9e843ae4"},"vehicle_type_id":"4","last_reported":1679145044,"current_range_meters":0,"station_id":"","pricing_plan_id":"free"},{"bike_id":"5c71b6ab-6d18-420e-b55b-c83b09ea64db","system_id":"levelo_inurba_marseille","lat":43.267959,"lon":5.402687,"is_reserved":false,"is_disabled":false,"rental_uris":{"android":"levelo://app?vid=5c71b6ab-6d18-420e-b55b-c83b09ea64db","ios":"levelo://app?vid=5c71b6ab-6d18-420e-b55b-c83b09ea64db"},"vehicle_type_id":"4","last_reported":1679145044,"current_range_meters":6000,"station_id":"ce501612rcd8frsf0b60","pricing_plan_id":"free"},{"bike_id":"479e5822-178a-421d-9349-6de36c300fba","system_id":"levelo_inurba_marseille","lat":43.267959,"lon":5.402687,"is_reserved":false,"is_disabled":false,"rental_uris":{"android":"levelo://app?vid=479e5822-178a-421d-9349-6de36c300fba","ios":"levelo://app?vid=479e5822-178a-421d-9349-6de36c300fba"},"vehicle_type_id":"4","last_reported":1679145044,"current_range_meters":23200,"station_id":"ce501612rcd8frsf0b60","pricing_plan_id":"free"},{"bike_id":"84a7093a-78bd-4aaa-8436-cfc205d9454a","system_id":"levelo_inurba_marseille","lat":43.2607,"lon":5.393983,"is_reserved":false,"is_disabled":false,"rental_uris":{"android":"levelo://app?vid=84a7093a-78bd-4aaa-8436-cfc205d9454a","ios":"levelo://app?vid=84a7093a-78bd-4aaa-8436-cfc205d9454a"},"vehicle_type_id":"4","last_reported":1679145044,"current_range_meters":18400,"station_id":"ce4bhh92rcd13ifvqfj0","pricing_plan_id":"free"},{"bike_id":"6b50f83a-9b37-4e71-9273-1d66335402e9","system_id":"levelo_inurba_marseille","lat":43.2607,"lon":5.393983,"is_reserved":false,"is_disabled":false,"rental_uris":{"android":"levelo://app?vid=6b50f83a-9b37-4e71-9273-1d66335402e9","ios":"levelo://app?vid=6b50f83a-9b37-4e71-9273-1d66335402e9"},"vehicle_type_id":"4","last_reported":1679145044,"current_range_meters":32000,"station_id":"ce4bhh92rcd13ifvqfj0","pricing_plan_id":"free"},{"bike_id":"f5534818-ad88-4836-b3dc-c242a5e74772","system_id":"levelo_inurba_marseille","lat":43.2607,"lon":5.393983,"is_reserved":false,"is_disabled":false,"rental_uris":{"android":"levelo://app?vid=f5534818-ad88-4836-b3dc-c242a5e74772","ios":"levelo://app?vid=f5534818-ad88-4836-b3dc-c242a5e74772"},"vehicle_type_id":"4","last_reported":1679145044,"current_range_meters":7200,"station_id":"ce4bhh92rcd13ifvqfj0","pricing_plan_id":"free"},{"bike_id":"a836b76b-ded9-428a-bc5a-4bbfae96cfab","system_id":"levelo_inurba_marseille","lat":43.2607,"lon":5.393983,"is_reserved":false,"is_disabled":false,"rental_uris":{"android":"levelo://app?vid=a836b76b-ded9-428a-bc5a-4bbfae96cfab","ios":"levelo://app?vid=a836b76b-ded9-428a-bc5a-4bbfae96cfab"},"vehicle_type_id":"4","last_reported":1679145044,"current_range_meters":19600,"station_id":"ce4bhh92rcd13ifvqfj0","pricing_plan_id":"free"},{"bike_id":"b2638b17-f6c1-40ce-abc7-841f855245ea","system_id":"levelo_inurba_marseille","lat":43.2607,"lon":5.393983,"is_reserved":false,"is_disabled":false,"rental_uris":{"android":"levelo://app?vid=b2638b17-f6c1-40ce-abc7-841f855245ea","ios":"levelo://app?vid=b2638b17-f6c1-40ce-abc7-841f855245ea"},"vehicle_type_id":"4","last_reported":1679145044,"current_range_meters":19600,"station_id":"ce4bhh92rcd13ifvqfj0","pricing_plan_id":"free"},{"bike_id":"59e74b08-cb6f-41dd-a150-bf5c6e611ddd","system_id":"levelo_inurba_marseille","lat":43.254947,"lon":5.376454,"is_reserved":false,"is_disabled":false,"rental_uris":{"android":"levelo://app?vid=59e74b08-cb6f-41dd-a150-bf5c6e611ddd","ios":"levelo://app?vid=59e74b08-cb6f-41dd-a150-bf5c6e611ddd"},"vehicle_type_id":"4","last_reported":1679145044,"current_range_meters":0,"station_id":"ce4bhh12rcd13ifvqff0","pricing_plan_id":"free"},{"bike_id":"0dd4edfa-0d08-4f31-a20c-c95dba1f4bcf","system_id":"levelo_inurba_marseille","lat":43.254947,"lon":5.376454,"is_reserved":false,"is_disabled":false,"rental_uris":{"android":"levelo://app?vid=0dd4edfa-0d08-4f31-a20c-c95dba1f4bcf","ios":"levelo://app?vid=0dd4edfa-0d08-4f31-a20c-c95dba1f4bcf"},"vehicle_type_id":"4","last_reported":1679145044,"current_range_meters":15600,"station_id":"ce4bhh12rcd13ifvqff0","pricing_plan_id":"free"},{"bike_id":"eb21625d-06f9-4997-935b-d03d792ae8d3","system_id":"levelo_inurba_marseille","lat":43.254947,"lon":5.376454,"is_reserved":false,"is_disabled":false,"rental_uris":{"android":"levelo://app?vid=eb21625d-06f9-4997-935b-d03d792ae8d3","ios":"levelo://app?vid=eb21625d-06f9-4997-935b-d03d792ae8d3"},"vehicle_type_id":"4","last_reported":1679145044,"current_range_meters":20400,"station_id":"ce4bhh12rcd13ifvqff0","pricing_plan_id":"free"},{"bike_id":"1e222674-c7fa-4849-9836-a6f20052e7b9","system_id":"levelo_inurba_marseille","lat":43.250009,"lon":5.389195,"is_reserved":false,"is_disabled":false,"rental_uris":{"android":"levelo://app?vid=1e222674-c7fa-4849-9836-a6f20052e7b9","ios":"levelo://app?vid=1e222674-c7fa-4849-9836-a6f20052e7b9"},"vehicle_type_id":"4","last_reported":1679145044,"current_range_meters":26400,"station_id":"ce4bhgp2rcd13ifvqfd0","pricing_plan_id":"free"},{"bike_id":"9402795b-e345-4c63-998c-39ec5c0ea4c1","system_id":"levelo_inurba_marseille","lat":43.250009,"lon":5.389195,"is_reserved":false,"is_disabled":false,"rental_uris":{"android":"levelo://app?vid=9402795b-e345-4c63-998c-39ec5c0ea4c1","ios":"levelo://app?vid=9402795b-e345-4c63-998c-39ec5c0ea4c1"},"vehicle_type_id":"4","last_reported":1679145044,"current_range_meters":31600,"station_id":"ce4bhgp2rcd13ifvqfd0","pricing_plan_id":"free"},{"bike_id":"4fa24eba-609a-44a6-a9b5-1c8089b1e434","system_id":"levelo_inurba_marseille","lat":43.250009,"lon":5.389195,"is_reserved":false,"is_disabled":false,"rental_uris":{"android":"levelo://app?vid=4fa24eba-609a-44a6-a9b5-1c8089b1e434","ios":"levelo://app?vid=4fa24eba-609a-44a6-a9b5-1c8089b1e434"},"vehicle_type_id":"4","last_reported":1679145044,"current_range_meters":17200,"station_id":"ce4bhgp2rcd13ifvqfd0","pricing_plan_id":"free"},{"bike_id":"68f5637d-0ce0-4e21-919a-e73e920d810d","system_id":"levelo_inurba_marseille","lat":43.250009,"lon":5.389195,"is_reserved":false,"is_disabled":false,"rental_uris":{"android":"levelo://app?vid=68f5637d-0ce0-4e21-919a-e73e920d810d","ios":"levelo://app?vid=68f5637d-0ce0-4e21-919a-e73e920d810d"},"vehicle_type_id":"4","last_reported":1679145044,"current_range_meters":14000,"station_id":"ce4bhgp2rcd13ifvqfd0","pricing_plan_id":"free"},{"bike_id":"bf4fb621-500e-4434-aef7-29623ecc99dc","system_id":"levelo_inurba_marseille","lat":43.250009,"lon":5.389195,"is_reserved":false,"is_disabled":false,"rental_uris":{"android":"levelo://app?vid=bf4fb621-500e-4434-aef7-29623ecc99dc","ios":"levelo://app?vid=bf4fb621-500e-4434-aef7-29623ecc99dc"},"vehicle_type_id":"4","last_reported":1679145044,"current_range_meters":12800,"station_id":"ce4bhgp2rcd13ifvqfd0","pricing_plan_id":"free"},{"bike_id":"b97371b0-2081-4d7c-9ff6-4ce3dbddad9f","system_id":"levelo_inurba_marseille","lat":43.250009,"lon":5.389195,"is_reserved":false,"is_disabled":false,"rental_uris":{"android":"levelo://app?vid=b97371b0-2081-4d7c-9ff6-4ce3dbddad9f","ios":"levelo://app?vid=b97371b0-2081-4d7c-9ff6-4ce3dbddad9f"},"vehicle_type_id":"4","last_reported":1679145044,"current_range_meters":30800,"station_id":"ce4bhgp2rcd13ifvqfd0","pricing_plan_id":"free"},{"bike_id":"d3033048-c81a-4bb4-9bf8-b1c88293fa96","system_id":"levelo_inurba_marseille","lat":43.250009,"lon":5.389195,"is_reserved":false,"is_disabled":false,"rental_uris":{"android":"levelo://app?vid=d3033048-c81a-4bb4-9bf8-b1c88293fa96","ios":"levelo://app?vid=d3033048-c81a-4bb4-9bf8-b1c88293fa96"},"vehicle_type_id":"4","last_reported":1679145044,"current_range_meters":31600,"station_id":"ce4bhgp2rcd13ifvqfd0","pricing_plan_id":"free"},{"bike_id":"84af4f38-ec70-4ebb-af39-a66368d94cd0","system_id":"levelo_inurba_marseille","lat":43.250009,"lon":5.389195,"is_reserved":false,"is_disabled":false,"rental_uris":{"android":"levelo://app?vid=84af4f38-ec70-4ebb-af39-a66368d94cd0","ios":"levelo://app?vid=84af4f38-ec70-4ebb-af39-a66368d94cd0"},"vehicle_type_id":"4","last_reported":1679145044,"current_range_meters":27600,"station_id":"ce4bhgp2rcd13ifvqfd0","pricing_plan_id":"free"},{"bike_id":"c8aeffd4-d769-4f54-90b9-6937c7646dac","system_id":"levelo_inurba_marseille","lat":43.24813,"lon":5.37458,"is_reserved":false,"is_disabled":false,"rental_uris":{"android":"levelo://app?vid=c8aeffd4-d769-4f54-90b9-6937c7646dac","ios":"levelo://app?vid=c8aeffd4-d769-4f54-90b9-6937c7646dac"},"vehicle_type_id":"4","last_reported":1679145044,"current_range_meters":10800,"station_id":"ce4bhgh2rcd13ifvqfb0","pricing_plan_id":"free"},{"bike_id":"a5bc996a-4962-46b5-921e-37d92e3453e5","system_id":"levelo_inurba_marseille","lat":43.2479,"lon":5.374457,"is_reserved":false,"is_disabled":false,"rental_uris":{"android":"levelo://app?vid=a5bc996a-4962-46b5-921e-37d92e3453e5","ios":"levelo://app?vid=a5bc996a-4962-46b5-921e-37d92e3453e5"},"vehicle_type_id":"4","last_reported":1679145044,"current_range_meters":8400,"station_id":"ce4bhgh2rcd13ifvqfb0","pricing_plan_id":"free"},{"bike_id":"9c9f5c8b-43f9-4c32-9f35-68a4ca3691d8","system_id":"levelo_inurba_marseille","lat":43.2479,"lon":5.374457,"is_reserved":false,"is_disabled":false,"rental_uris":{"android":"levelo://app?vid=9c9f5c8b-43f9-4c32-9f35-68a4ca3691d8","ios":"levelo://app?vid=9c9f5c8b-43f9-4c32-9f35-68a4ca3691d8"},"vehicle_type_id":"4","last_reported":1679145044,"current_range_meters":20800,"station_id":"ce4bhgh2rcd13ifvqfb0","pricing_plan_id":"free"},{"bike_id":"63b75ead-78fc-43b1-85eb-a9e162fb51f1","system_id":"levelo_inurba_marseille","lat":43.2479,"lon":5.374457,"is_reserved":false,"is_disabled":false,"rental_uris":{"android":"levelo://app?vid=63b75ead-78fc-43b1-85eb-a9e162fb51f1","ios":"levelo://app?vid=63b75ead-78fc-43b1-85eb-a9e162fb51f1"},"vehicle_type_id":"4","last_reported":1679145044,"current_range_meters":26800,"station_id":"ce4bhgh2rcd13ifvqfb0","pricing_plan_id":"free"},{"bike_id":"f9010983-907c-4b92-82f7-dc3edfcc786d","system_id":"levelo_inurba_marseille","lat":43.2479,"lon":5.374457,"is_reserved":false,"is_disabled":false,"rental_uris":{"android":"levelo://app?vid=f9010983-907c-4b92-82f7-dc3edfcc786d","ios":"levelo://app?vid=f9010983-907c-4b92-82f7-dc3edfcc786d"},"vehicle_type_id":"4","last_reported":1679145044,"current_range_meters":29600,"station_id":"ce4bhgh2rcd13ifvqfb0","pricing_plan_id":"free"},{"bike_id":"0003e699-2433-4407-84e7-18631dc5dbd2","system_id":"levelo_inurba_marseille","lat":43.2479,"lon":5.374457,"is_reserved":false,"is_disabled":false,"rental_uris":{"android":"levelo://app?vid=0003e699-2433-4407-84e7-18631dc5dbd2","ios":"levelo://app?vid=0003e699-2433-4407-84e7-18631dc5dbd2"},"vehicle_type_id":"4","last_reported":1679145044,"current_range_meters":2400,"station_id":"ce4bhgh2rcd13ifvqfb0","pricing_plan_id":"free"},{"bike_id":"148aa54a-cb02-4c92-ac3d-1f41b949cfd2","system_id":"levelo_inurba_marseille","lat":43.2479,"lon":5.374457,"is_reserved":false,"is_disabled":false,"rental_uris":{"android":"levelo://app?vid=148aa54a-cb02-4c92-ac3d-1f41b949cfd2","ios":"levelo://app?vid=148aa54a-cb02-4c92-ac3d-1f41b949cfd2"},"vehicle_type_id":"4","last_reported":1679145044,"current_range_meters":30800,"station_id":"ce4bhgh2rcd13ifvqfb0","pricing_plan_id":"free"},{"bike_id":"8a60166c-d5a0-4680-8bbf-59587b8f564e","system_id":"levelo_inurba_marseille","lat":43.2479,"lon":5.374457,"is_reserved":false,"is_disabled":false,"rental_uris":{"android":"levelo://app?vid=8a60166c-d5a0-4680-8bbf-59587b8f564e","ios":"levelo://app?vid=8a60166c-d5a0-4680-8bbf-59587b8f564e"},"vehicle_type_id":"4","last_reported":1679145044,"current_range_meters":30400,"station_id":"ce4bhgh2rcd13ifvqfb0","pricing_plan_id":"free"},{"bike_id":"a01639dd-e953-4278-8674-cd891c28a0ab","system_id":"levelo_inurba_marseille","lat":43.2479,"lon":5.374457,"is_reserved":false,"is_disabled":false,"rental_uris":{"android":"levelo://app?vid=a01639dd-e953-4278-8674-cd891c28a0ab","ios":"levelo://app?vid=a01639dd-e953-4278-8674-cd891c28a0ab"},"vehicle_type_id":"4","last_reported":1679145044,"current_range_meters":28000,"station_id":"ce4bhgh2rcd13ifvqfb0","pricing_plan_id":"free"},{"bike_id":"ad90196d-0e58-459e-aef8-8817a565511d","system_id":"levelo_inurba_marseille","lat":43.250966,"lon":5.395186,"is_reserved":false,"is_disabled":false,"rental_uris":{"android":"levelo://app?vid=ad90196d-0e58-459e-aef8-8817a565511d","ios":"levelo://app?vid=ad90196d-0e58-459e-aef8-8817a565511d"},"vehicle_type_id":"4","last_reported":1679145044,"current_range_meters":20800,"station_id":"ce4bhm12rcd13ifvqgkg","pricing_plan_id":"free"},{"bike_id":"349284ef-ba66-4ad3-8ab7-c67c06333e3b","system_id":"levelo_inurba_marseille","lat":43.25102,"lon":5.403214,"is_reserved":false,"is_disabled":false,"rental_uris":{"android":"levelo://app?vid=349284ef-ba66-4ad3-8ab7-c67c06333e3b","ios":"levelo://app?vid=349284ef-ba66-4ad3-8ab7-c67c06333e3b"},"vehicle_type_id":"4","last_reported":1679145044,"current_range_meters":13200,"station_id":"ce4bhlh2rcd13ifvqgig","pricing_plan_id":"free"},{"bike_id":"67c2575a-0ea7-421f-a250-42f25a1cfb62","system_id":"levelo_inurba_marseille","lat":43.25102,"lon":5.403214,"is_reserved":false,"is_disabled":false,"rental_uris":{"android":"levelo://app?vid=67c2575a-0ea7-421f-a250-42f25a1cfb62","ios":"levelo://app?vid=67c2575a-0ea7-421f-a250-42f25a1cfb62"},"vehicle_type_id":"4","last_reported":1679145044,"current_range_meters":17600,"station_id":"ce4bhlh2rcd13ifvqgig","pricing_plan_id":"free"},{"bike_id":"2b50e5f8-513b-4497-b975-f9b99633bcb9","system_id":"levelo_inurba_marseille","lat":43.24693,"lon":5.382096,"is_reserved":false,"is_disabled":false,"rental_uris":{"android":"levelo://app?vid=2b50e5f8-513b-4497-b975-f9b99633bcb9","ios":"levelo://app?vid=2b50e5f8-513b-4497-b975-f9b99633bcb9"},"vehicle_type_id":"4","last_reported":1679145044,"current_range_meters":12400,"station_id":"ce4bhih2rcd13ifvqfr0","pricing_plan_id":"free"},{"bike_id":"7b3c09d0-3aba-41b9-8b98-fdd9cea9f60a","system_id":"levelo_inurba_marseille","lat":43.25102,"lon":5.403214,"is_reserved":false,"is_disabled":false,"rental_uris":{"android":"levelo://app?vid=7b3c09d0-3aba-41b9-8b98-fdd9cea9f60a","ios":"levelo://app?vid=7b3c09d0-3aba-41b9-8b98-fdd9cea9f60a"},"vehicle_type_id":"4","last_reported":1679145044,"current_range_meters":10400,"station_id":"ce4bhlh2rcd13ifvqgig","pricing_plan_id":"free"},{"bike_id":"ea213cc7-8ebc-4acb-9ebf-6e9a71d69f37","system_id":"levelo_inurba_marseille","lat":43.25102,"lon":5.403214,"is_reserved":false,"is_disabled":false,"rental_uris":{"android":"levelo://app?vid=ea213cc7-8ebc-4acb-9ebf-6e9a71d69f37","ios":"levelo://app?vid=ea213cc7-8ebc-4acb-9ebf-6e9a71d69f37"},"vehicle_type_id":"4","last_reported":1679145044,"current_range_meters":27200,"station_id":"ce4bhlh2rcd13ifvqgig","pricing_plan_id":"free"},{"bike_id":"592adabc-a5ae-45cb-8040-f3f3638a9dd4","system_id":"levelo_inurba_marseille","lat":43.246461,"lon":5.389014,"is_reserved":false,"is_disabled":false,"rental_uris":{"android":"levelo://app?vid=592adabc-a5ae-45cb-8040-f3f3638a9dd4","ios":"levelo://app?vid=592adabc-a5ae-45cb-8040-f3f3638a9dd4"},"vehicle_type_id":"4","last_reported":1679145044,"current_range_meters":29200,"station_id":"ce4bhg12rcd13ifvqf60","pricing_plan_id":"free"},{"bike_id":"4d8cc80d-5ebe-4ba0-8a10-c394757592de","system_id":"levelo_inurba_marseille","lat":43.246467,"lon":5.388984,"is_reserved":false,"is_disabled":false,"rental_uris":{"android":"levelo://app?vid=4d8cc80d-5ebe-4ba0-8a10-c394757592de","ios":"levelo://app?vid=4d8cc80d-5ebe-4ba0-8a10-c394757592de"},"vehicle_type_id":"4","last_reported":1679145044,"current_range_meters":25600,"station_id":"ce4bhg12rcd13ifvqf60","pricing_plan_id":"free"},{"bike_id":"5a780b32-bb67-4482-a87b-0a4a3780e6f0","system_id":"levelo_inurba_marseille","lat":43.24396,"lon":5.370228,"is_reserved":false,"is_disabled":false,"rental_uris":{"android":"levelo://app?vid=5a780b32-bb67-4482-a87b-0a4a3780e6f0","ios":"levelo://app?vid=5a780b32-bb67-4482-a87b-0a4a3780e6f0"},"vehicle_type_id":"4","last_reported":1679145044,"current_range_meters":0,"station_id":"ce4bhhh2rcd13ifvqfk0","pricing_plan_id":"free"},{"bike_id":"89bd9dfa-5d7a-43d2-847c-e2c648177d88","system_id":"levelo_inurba_marseille","lat":43.24391,"lon":5.370523,"is_reserved":false,"is_disabled":false,"rental_uris":{"android":"levelo://app?vid=89bd9dfa-5d7a-43d2-847c-e2c648177d88","ios":"levelo://app?vid=89bd9dfa-5d7a-43d2-847c-e2c648177d88"},"vehicle_type_id":"4","last_reported":1679145044,"current_range_meters":21600,"station_id":"","pricing_plan_id":"free"},{"bike_id":"ecb3a446-224f-464f-b1cd-12740cea4b67","system_id":"levelo_inurba_marseille","lat":43.24391,"lon":5.37062,"is_reserved":false,"is_disabled":false,"rental_uris":{"android":"levelo://app?vid=ecb3a446-224f-464f-b1cd-12740cea4b67","ios":"levelo://app?vid=ecb3a446-224f-464f-b1cd-12740cea4b67"},"vehicle_type_id":"4","last_reported":1679145044,"current_range_meters":29200,"station_id":"","pricing_plan_id":"free"},{"bike_id":"3cc1b91a-bbdf-4548-bd59-fc3083c04c06","system_id":"levelo_inurba_marseille","lat":43.243907,"lon":5.370527,"is_reserved":false,"is_disabled":false,"rental_uris":{"android":"levelo://app?vid=3cc1b91a-bbdf-4548-bd59-fc3083c04c06","ios":"levelo://app?vid=3cc1b91a-bbdf-4548-bd59-fc3083c04c06"},"vehicle_type_id":"4","last_reported":1679145044,"current_range_meters":12000,"station_id":"","pricing_plan_id":"free"},{"bike_id":"3cd856d2-6ddf-492d-9b5b-0e2cec7863d2","system_id":"levelo_inurba_marseille","lat":43.243903,"lon":5.370628,"is_reserved":false,"is_disabled":false,"rental_uris":{"android":"levelo://app?vid=3cd856d2-6ddf-492d-9b5b-0e2cec7863d2","ios":"levelo://app?vid=3cd856d2-6ddf-492d-9b5b-0e2cec7863d2"},"vehicle_type_id":"4","last_reported":1679145044,"current_range_meters":19600,"station_id":"ce4bhhh2rcd13ifvqfk0","pricing_plan_id":"free"},{"bike_id":"27451b56-b88f-4f88-8075-fbbc8f0dc709","system_id":"levelo_inurba_marseille","lat":43.2439,"lon":5.37057,"is_reserved":false,"is_disabled":false,"rental_uris":{"android":"levelo://app?vid=27451b56-b88f-4f88-8075-fbbc8f0dc709","ios":"levelo://app?vid=27451b56-b88f-4f88-8075-fbbc8f0dc709"},"vehicle_type_id":"4","last_reported":1679145044,"current_range_meters":31600,"station_id":"","pricing_plan_id":"free"},{"bike_id":"27450aed-d877-488a-a0ec-8d24e5ef24d4","system_id":"levelo_inurba_marseille","lat":43.2439,"lon":5.37058,"is_reserved":false,"is_disabled":false,"rental_uris":{"android":"levelo://app?vid=27450aed-d877-488a-a0ec-8d24e5ef24d4","ios":"levelo://app?vid=27450aed-d877-488a-a0ec-8d24e5ef24d4"},"vehicle_type_id":"4","last_reported":1679145044,"current_range_meters":19200,"station_id":"","pricing_plan_id":"free"},{"bike_id":"57bf2e4f-643d-4f9d-9bfb-2b77de7399a7","system_id":"levelo_inurba_marseille","lat":43.2439,"lon":5.37059,"is_reserved":false,"is_disabled":false,"rental_uris":{"android":"levelo://app?vid=57bf2e4f-643d-4f9d-9bfb-2b77de7399a7","ios":"levelo://app?vid=57bf2e4f-643d-4f9d-9bfb-2b77de7399a7"},"vehicle_type_id":"4","last_reported":1679145044,"current_range_meters":18800,"station_id":"","pricing_plan_id":"free"},{"bike_id":"bb9945e2-c7cb-4c88-a8cf-f2230d89b687","system_id":"levelo_inurba_marseille","lat":43.2439,"lon":5.3706,"is_reserved":false,"is_disabled":false,"rental_uris":{"android":"levelo://app?vid=bb9945e2-c7cb-4c88-a8cf-f2230d89b687","ios":"levelo://app?vid=bb9945e2-c7cb-4c88-a8cf-f2230d89b687"},"vehicle_type_id":"4","last_reported":1679145044,"current_range_meters":10000,"station_id":"ce4bhhh2rcd13ifvqfk0","pricing_plan_id":"free"},{"bike_id":"251616f5-d54d-42b9-ab01-70caf5bad6e5","system_id":"levelo_inurba_marseille","lat":43.24389,"lon":5.37059,"is_reserved":false,"is_disabled":false,"rental_uris":{"android":"levelo://app?vid=251616f5-d54d-42b9-ab01-70caf5bad6e5","ios":"levelo://app?vid=251616f5-d54d-42b9-ab01-70caf5bad6e5"},"vehicle_type_id":"4","last_reported":1679145044,"current_range_meters":23200,"station_id":"ce4bhhh2rcd13ifvqfk0","pricing_plan_id":"free"},{"bike_id":"09a87802-6ae3-496b-8a23-fd81a5ae1aed","system_id":"levelo_inurba_marseille","lat":43.24389,"lon":5.3706,"is_reserved":false,"is_disabled":false,"rental_uris":{"android":"levelo://app?vid=09a87802-6ae3-496b-8a23-fd81a5ae1aed","ios":"levelo://app?vid=09a87802-6ae3-496b-8a23-fd81a5ae1aed"},"vehicle_type_id":"4","last_reported":1679145044,"current_range_meters":22000,"station_id":"ce4bhhh2rcd13ifvqfk0","pricing_plan_id":"free"},{"bike_id":"a8ecd58c-ee05-4e67-92bd-f45b14543f1d","system_id":"levelo_inurba_marseille","lat":43.24389,"lon":5.37065,"is_reserved":false,"is_disabled":false,"rental_uris":{"android":"levelo://app?vid=a8ecd58c-ee05-4e67-92bd-f45b14543f1d","ios":"levelo://app?vid=a8ecd58c-ee05-4e67-92bd-f45b14543f1d"},"vehicle_type_id":"4","last_reported":1679145044,"current_range_meters":29200,"station_id":"ce4bhhh2rcd13ifvqfk0","pricing_plan_id":"free"},{"bike_id":"85b04368-6c76-438d-a2d0-353922432406","system_id":"levelo_inurba_marseille","lat":43.24389,"lon":5.37065,"is_reserved":false,"is_disabled":false,"rental_uris":{"android":"levelo://app?vid=85b04368-6c76-438d-a2d0-353922432406","ios":"levelo://app?vid=85b04368-6c76-438d-a2d0-353922432406"},"vehicle_type_id":"4","last_reported":1679145044,"current_range_meters":6400,"station_id":"ce4bhhh2rcd13ifvqfk0","pricing_plan_id":"free"},{"bike_id":"7cf502a4-d89a-4150-9a4f-384b140ecf74","system_id":"levelo_inurba_marseille","lat":43.24388,"lon":5.37051,"is_reserved":false,"is_disabled":false,"rental_uris":{"android":"levelo://app?vid=7cf502a4-d89a-4150-9a4f-384b140ecf74","ios":"levelo://app?vid=7cf502a4-d89a-4150-9a4f-384b140ecf74"},"vehicle_type_id":"4","last_reported":1679145044,"current_range_meters":12800,"station_id":"","pricing_plan_id":"free"},{"bike_id":"616f7ff5-9d4b-4998-9f13-95338ff38559","system_id":"levelo_inurba_marseille","lat":43.24386,"lon":5.37062,"is_reserved":false,"is_disabled":false,"rental_uris":{"android":"levelo://app?vid=616f7ff5-9d4b-4998-9f13-95338ff38559","ios":"levelo://app?vid=616f7ff5-9d4b-4998-9f13-95338ff38559"},"vehicle_type_id":"4","last_reported":1679145044,"current_range_meters":6800,"station_id":"","pricing_plan_id":"free"},{"bike_id":"1405e1b5-ea6b-437e-8568-056654c484a1","system_id":"levelo_inurba_marseille","lat":43.24097,"lon":5.37769,"is_reserved":false,"is_disabled":false,"rental_uris":{"android":"levelo://app?vid=1405e1b5-ea6b-437e-8568-056654c484a1","ios":"levelo://app?vid=1405e1b5-ea6b-437e-8568-056654c484a1"},"vehicle_type_id":"4","last_reported":1679145044,"current_range_meters":6000,"station_id":"ce4bhnp2rcd13ifvqgvg","pricing_plan_id":"free"},{"bike_id":"5521ec33-ee6d-49f4-9471-d24cf70bcd7b","system_id":"levelo_inurba_marseille","lat":43.240623,"lon":5.377642,"is_reserved":false,"is_disabled":false,"rental_uris":{"android":"levelo://app?vid=5521ec33-ee6d-49f4-9471-d24cf70bcd7b","ios":"levelo://app?vid=5521ec33-ee6d-49f4-9471-d24cf70bcd7b"},"vehicle_type_id":"4","last_reported":1679145044,"current_range_meters":31600,"station_id":"ce4bhnp2rcd13ifvqgvg","pricing_plan_id":"free"},{"bike_id":"b6becebd-2e6b-4a5a-8f62-8e1e476dcf36","system_id":"levelo_inurba_marseille","lat":43.240623,"lon":5.377642,"is_reserved":false,"is_disabled":false,"rental_uris":{"android":"levelo://app?vid=b6becebd-2e6b-4a5a-8f62-8e1e476dcf36","ios":"levelo://app?vid=b6becebd-2e6b-4a5a-8f62-8e1e476dcf36"},"vehicle_type_id":"4","last_reported":1679145044,"current_range_meters":6000,"station_id":"ce4bhnp2rcd13ifvqgvg","pricing_plan_id":"free"},{"bike_id":"a69fb547-f7ee-4cef-a43e-656ad2d45e6c","system_id":"levelo_inurba_marseille","lat":43.240623,"lon":5.377642,"is_reserved":false,"is_disabled":false,"rental_uris":{"android":"levelo://app?vid=a69fb547-f7ee-4cef-a43e-656ad2d45e6c","ios":"levelo://app?vid=a69fb547-f7ee-4cef-a43e-656ad2d45e6c"},"vehicle_type_id":"4","last_reported":1679145044,"current_range_meters":20400,"station_id":"ce4bhnp2rcd13ifvqgvg","pricing_plan_id":"free"},{"bike_id":"ad1dc089-4a54-4561-856d-26d7bb94e38b","system_id":"levelo_inurba_marseille","lat":43.240623,"lon":5.377642,"is_reserved":false,"is_disabled":false,"rental_uris":{"android":"levelo://app?vid=ad1dc089-4a54-4561-856d-26d7bb94e38b","ios":"levelo://app?vid=ad1dc089-4a54-4561-856d-26d7bb94e38b"},"vehicle_type_id":"4","last_reported":1679145044,"current_range_meters":0,"station_id":"ce4bhnp2rcd13ifvqgvg","pricing_plan_id":"free"},{"bike_id":"c03daf93-bd02-4eae-9c2b-09e471aa7c7a","system_id":"levelo_inurba_marseille","lat":43.240623,"lon":5.377642,"is_reserved":false,"is_disabled":false,"rental_uris":{"android":"levelo://app?vid=c03daf93-bd02-4eae-9c2b-09e471aa7c7a","ios":"levelo://app?vid=c03daf93-bd02-4eae-9c2b-09e471aa7c7a"},"vehicle_type_id":"4","last_reported":1679145044,"current_range_meters":14000,"station_id":"ce4bhnp2rcd13ifvqgvg","pricing_plan_id":"free"},{"bike_id":"e2b39f61-a433-4fea-8ef4-f9a8742713b8","system_id":"levelo_inurba_marseille","lat":43.240623,"lon":5.377642,"is_reserved":false,"is_disabled":false,"rental_uris":{"android":"levelo://app?vid=e2b39f61-a433-4fea-8ef4-f9a8742713b8","ios":"levelo://app?vid=e2b39f61-a433-4fea-8ef4-f9a8742713b8"},"vehicle_type_id":"4","last_reported":1679145044,"current_range_meters":9600,"station_id":"ce4bhnp2rcd13ifvqgvg","pricing_plan_id":"free"},{"bike_id":"77800063-d00a-4522-9222-b8d7fdda693b","system_id":"levelo_inurba_marseille","lat":43.240623,"lon":5.377642,"is_reserved":false,"is_disabled":false,"rental_uris":{"android":"levelo://app?vid=77800063-d00a-4522-9222-b8d7fdda693b","ios":"levelo://app?vid=77800063-d00a-4522-9222-b8d7fdda693b"},"vehicle_type_id":"4","last_reported":1679145044,"current_range_meters":31600,"station_id":"ce4bhnp2rcd13ifvqgvg","pricing_plan_id":"free"},{"bike_id":"339c1e63-5f80-41c0-9b02-04a53519dd7f","system_id":"levelo_inurba_marseille","lat":43.240623,"lon":5.377642,"is_reserved":false,"is_disabled":false,"rental_uris":{"android":"levelo://app?vid=339c1e63-5f80-41c0-9b02-04a53519dd7f","ios":"levelo://app?vid=339c1e63-5f80-41c0-9b02-04a53519dd7f"},"vehicle_type_id":"4","last_reported":1679145044,"current_range_meters":18400,"station_id":"ce4bhnp2rcd13ifvqgvg","pricing_plan_id":"free"},{"bike_id":"1160818b-86ff-4cff-80c0-e478bee146f0","system_id":"levelo_inurba_marseille","lat":43.239588,"lon":5.366238,"is_reserved":false,"is_disabled":false,"rental_uris":{"android":"levelo://app?vid=1160818b-86ff-4cff-80c0-e478bee146f0","ios":"levelo://app?vid=1160818b-86ff-4cff-80c0-e478bee146f0"},"vehicle_type_id":"4","last_reported":1679145044,"current_range_meters":30400,"station_id":"ce4bhi12rcd13ifvqfp0","pricing_plan_id":"free"},{"bike_id":"ab394c89-8497-404c-883e-f087b1f270d4","system_id":"levelo_inurba_marseille","lat":43.23962,"lon":5.36634,"is_reserved":false,"is_disabled":false,"rental_uris":{"android":"levelo://app?vid=ab394c89-8497-404c-883e-f087b1f270d4","ios":"levelo://app?vid=ab394c89-8497-404c-883e-f087b1f270d4"},"vehicle_type_id":"4","last_reported":1679145044,"current_range_meters":26000,"station_id":"ce4bhi12rcd13ifvqfp0","pricing_plan_id":"free"},{"bike_id":"beaf722f-8cce-48cc-9f08-62b9af3ed634","system_id":"levelo_inurba_marseille","lat":43.23198,"lon":5.35558,"is_reserved":false,"is_disabled":false,"rental_uris":{"android":"levelo://app?vid=beaf722f-8cce-48cc-9f08-62b9af3ed634","ios":"levelo://app?vid=beaf722f-8cce-48cc-9f08-62b9af3ed634"},"vehicle_type_id":"4","last_reported":1679145044,"current_range_meters":26000,"station_id":"","pricing_plan_id":"free"},{"bike_id":"7fcd0737-64de-4777-b769-955feff61216","system_id":"levelo_inurba_marseille","lat":43.231923,"lon":5.355545,"is_reserved":false,"is_disabled":false,"rental_uris":{"android":"levelo://app?vid=7fcd0737-64de-4777-b769-955feff61216","ios":"levelo://app?vid=7fcd0737-64de-4777-b769-955feff61216"},"vehicle_type_id":"4","last_reported":1679145044,"current_range_meters":12400,"station_id":"ce4bhu92rcd13ifvqi70","pricing_plan_id":"free"},{"bike_id":"11c62a0d-7882-4db7-9dce-2e8145ca1f47","system_id":"levelo_inurba_marseille","lat":43.23195,"lon":5.35557,"is_reserved":false,"is_disabled":false,"rental_uris":{"android":"levelo://app?vid=11c62a0d-7882-4db7-9dce-2e8145ca1f47","ios":"levelo://app?vid=11c62a0d-7882-4db7-9dce-2e8145ca1f47"},"vehicle_type_id":"4","last_reported":1679145044,"current_range_meters":18400,"station_id":"ce4bhu92rcd13ifvqi70","pricing_plan_id":"free"},{"bike_id":"ff98316f-748f-4069-a942-b27635abd352","system_id":"levelo_inurba_marseille","lat":43.231923,"lon":5.355545,"is_reserved":false,"is_disabled":false,"rental_uris":{"android":"levelo://app?vid=ff98316f-748f-4069-a942-b27635abd352","ios":"levelo://app?vid=ff98316f-748f-4069-a942-b27635abd352"},"vehicle_type_id":"4","last_reported":1679145044,"current_range_meters":31600,"station_id":"ce4bhu92rcd13ifvqi70","pricing_plan_id":"free"},{"bike_id":"88879922-dcd9-4b6f-9fe6-a6a039e9642d","system_id":"levelo_inurba_marseille","lat":43.231923,"lon":5.355545,"is_reserved":false,"is_disabled":false,"rental_uris":{"android":"levelo://app?vid=88879922-dcd9-4b6f-9fe6-a6a039e9642d","ios":"levelo://app?vid=88879922-dcd9-4b6f-9fe6-a6a039e9642d"},"vehicle_type_id":"4","last_reported":1679145044,"current_range_meters":31600,"station_id":"ce4bhu92rcd13ifvqi70","pricing_plan_id":"free"},{"bike_id":"611d303e-d8dc-4fba-b9cc-de73730e9558","system_id":"levelo_inurba_marseille","lat":43.23194,"lon":5.35554,"is_reserved":false,"is_disabled":false,"rental_uris":{"android":"levelo://app?vid=611d303e-d8dc-4fba-b9cc-de73730e9558","ios":"levelo://app?vid=611d303e-d8dc-4fba-b9cc-de73730e9558"},"vehicle_type_id":"4","last_reported":1679145044,"current_range_meters":23600,"station_id":"ce4bhu92rcd13ifvqi70","pricing_plan_id":"free"},{"bike_id":"5c296cfe-bb42-4ddc-9604-9304ff266475","system_id":"levelo_inurba_marseille","lat":43.23194,"lon":5.35554,"is_reserved":false,"is_disabled":false,"rental_uris":{"android":"levelo://app?vid=5c296cfe-bb42-4ddc-9604-9304ff266475","ios":"levelo://app?vid=5c296cfe-bb42-4ddc-9604-9304ff266475"},"vehicle_type_id":"4","last_reported":1679145044,"current_range_meters":31600,"station_id":"","pricing_plan_id":"free"},{"bike_id":"3396f8cd-a485-415b-8db8-2bba087f8106","system_id":"levelo_inurba_marseille","lat":43.231923,"lon":5.355545,"is_reserved":false,"is_disabled":false,"rental_uris":{"android":"levelo://app?vid=3396f8cd-a485-415b-8db8-2bba087f8106","ios":"levelo://app?vid=3396f8cd-a485-415b-8db8-2bba087f8106"},"vehicle_type_id":"4","last_reported":1679145044,"current_range_meters":8800,"station_id":"ce4bhu92rcd13ifvqi70","pricing_plan_id":"free"},{"bike_id":"b9f6f4f0-f36b-4f70-8715-1fede5862196","system_id":"levelo_inurba_marseille","lat":43.23193,"lon":5.355541,"is_reserved":false,"is_disabled":false,"rental_uris":{"android":"levelo://app?vid=b9f6f4f0-f36b-4f70-8715-1fede5862196","ios":"levelo://app?vid=b9f6f4f0-f36b-4f70-8715-1fede5862196"},"vehicle_type_id":"4","last_reported":1679145044,"current_range_meters":31200,"station_id":"","pricing_plan_id":"free"},{"bike_id":"9396a642-8421-4ca9-b20d-a2492104caf9","system_id":"levelo_inurba_marseille","lat":43.231928,"lon":5.355552,"is_reserved":false,"is_disabled":false,"rental_uris":{"android":"levelo://app?vid=9396a642-8421-4ca9-b20d-a2492104caf9","ios":"levelo://app?vid=9396a642-8421-4ca9-b20d-a2492104caf9"},"vehicle_type_id":"4","last_reported":1679145044,"current_range_meters":31600,"station_id":"","pricing_plan_id":"free"},{"bike_id":"fadf4fdb-4d37-4e56-ac9b-30c332e74b6f","system_id":"levelo_inurba_marseille","lat":43.231923,"lon":5.355545,"is_reserved":false,"is_disabled":false,"rental_uris":{"android":"levelo://app?vid=fadf4fdb-4d37-4e56-ac9b-30c332e74b6f","ios":"levelo://app?vid=fadf4fdb-4d37-4e56-ac9b-30c332e74b6f"},"vehicle_type_id":"4","last_reported":1679145044,"current_range_meters":16800,"station_id":"ce4bhu92rcd13ifvqi70","pricing_plan_id":"free"},{"bike_id":"0010ebe6-0da4-49c8-96ff-1cfa6d1925a0","system_id":"levelo_inurba_marseille","lat":43.23192,"lon":5.35557,"is_reserved":false,"is_disabled":false,"rental_uris":{"android":"levelo://app?vid=0010ebe6-0da4-49c8-96ff-1cfa6d1925a0","ios":"levelo://app?vid=0010ebe6-0da4-49c8-96ff-1cfa6d1925a0"},"vehicle_type_id":"4","last_reported":1679145044,"current_range_meters":26000,"station_id":"ce4bhu92rcd13ifvqi70","pricing_plan_id":"free"},{"bike_id":"fb1950d7-12d3-47d0-bd53-c1bd3e1c9a94","system_id":"levelo_inurba_marseille","lat":43.23191,"lon":5.35551,"is_reserved":false,"is_disabled":false,"rental_uris":{"android":"levelo://app?vid=fb1950d7-12d3-47d0-bd53-c1bd3e1c9a94","ios":"levelo://app?vid=fb1950d7-12d3-47d0-bd53-c1bd3e1c9a94"},"vehicle_type_id":"4","last_reported":1679145044,"current_range_meters":12800,"station_id":"ce4bhu92rcd13ifvqi70","pricing_plan_id":"free"},{"bike_id":"c609bd05-9ac8-45c2-9e95-79b7cc3205ec","system_id":"levelo_inurba_marseille","lat":43.2319,"lon":5.35559,"is_reserved":false,"is_disabled":false,"rental_uris":{"android":"levelo://app?vid=c609bd05-9ac8-45c2-9e95-79b7cc3205ec","ios":"levelo://app?vid=c609bd05-9ac8-45c2-9e95-79b7cc3205ec"},"vehicle_type_id":"4","last_reported":1679145044,"current_range_meters":24800,"station_id":"","pricing_plan_id":"free"},{"bike_id":"f9079c9a-45b1-4321-bdd7-c26504f6524c","system_id":"levelo_inurba_marseille","lat":43.231923,"lon":5.355545,"is_reserved":false,"is_disabled":false,"rental_uris":{"android":"levelo://app?vid=f9079c9a-45b1-4321-bdd7-c26504f6524c","ios":"levelo://app?vid=f9079c9a-45b1-4321-bdd7-c26504f6524c"},"vehicle_type_id":"4","last_reported":1679145044,"current_range_meters":28800,"station_id":"ce4bhu92rcd13ifvqi70","pricing_plan_id":"free"},{"bike_id":"f4640167-e3e5-4e1e-ba91-a79ed39fe6cf","system_id":"levelo_inurba_marseille","lat":43.231923,"lon":5.355545,"is_reserved":false,"is_disabled":false,"rental_uris":{"android":"levelo://app?vid=f4640167-e3e5-4e1e-ba91-a79ed39fe6cf","ios":"levelo://app?vid=f4640167-e3e5-4e1e-ba91-a79ed39fe6cf"},"vehicle_type_id":"4","last_reported":1679145044,"current_range_meters":10800,"station_id":"ce4bhu92rcd13ifvqi70","pricing_plan_id":"free"},{"bike_id":"cd785eec-bb46-498d-8ae5-4e21b4590df6","system_id":"levelo_inurba_marseille","lat":43.231923,"lon":5.355545,"is_reserved":false,"is_disabled":false,"rental_uris":{"android":"levelo://app?vid=cd785eec-bb46-498d-8ae5-4e21b4590df6","ios":"levelo://app?vid=cd785eec-bb46-498d-8ae5-4e21b4590df6"},"vehicle_type_id":"4","last_reported":1679145044,"current_range_meters":8800,"station_id":"ce4bhu92rcd13ifvqi70","pricing_plan_id":"free"},{"bike_id":"956fe110-a343-4414-91a1-6e3d50bfa094","system_id":"levelo_inurba_marseille","lat":43.231923,"lon":5.355545,"is_reserved":false,"is_disabled":false,"rental_uris":{"android":"levelo://app?vid=956fe110-a343-4414-91a1-6e3d50bfa094","ios":"levelo://app?vid=956fe110-a343-4414-91a1-6e3d50bfa094"},"vehicle_type_id":"4","last_reported":1679145044,"current_range_meters":31600,"station_id":"ce4bhu92rcd13ifvqi70","pricing_plan_id":"free"},{"bike_id":"1a1cf502-dc73-49e8-adfb-79041b4bd3aa","system_id":"levelo_inurba_marseille","lat":43.231923,"lon":5.355545,"is_reserved":false,"is_disabled":false,"rental_uris":{"android":"levelo://app?vid=1a1cf502-dc73-49e8-adfb-79041b4bd3aa","ios":"levelo://app?vid=1a1cf502-dc73-49e8-adfb-79041b4bd3aa"},"vehicle_type_id":"4","last_reported":1679145044,"current_range_meters":12400,"station_id":"ce4bhu92rcd13ifvqi70","pricing_plan_id":"free"}]}}