{"last_updated":1718907097,"ttl":30,"version":"2.2","data":{"bikes":[{"bike_id":"eb8625db-4843-4c64-b5d6-ede862922ae7","system_id":"levelo_inurba_marseille","lat":43.31226,"lon":5.36848,"is_reserved":false,"is_disabled":false,"rental_uris":{"android":"levelo://app?vid=eb8625db-4843-4c64-b5d6-ede862922ae7","ios":"levelo://app?vid=eb8625db-4843-4c64-b5d6-ede862922ae7"},"vehicle_type_id":"4","last_reported":1718907098,"current_range_meters":14000,"station_id":"ce4bgl92rcd13ifvqbq0","pricing_plan_id":"cebpf4jnsgd1na2vs0mg"},{"bike_id":"1c5570db-7bac-4c6b-a024-b4a62cafc09b","system_id":"levelo_inurba_marseille","lat":43.31226,"lon":5.36852,"is_reserved":false,"is_disabled":false,"rental_uris":{"android":"levelo://app?vid=1c5570db-7bac-4c6b-a024-b4a62cafc09b","ios":"levelo://app?vid=1c5570db-7bac-4c6b-a024-b4a62cafc09b"},"vehicle_type_id":"4","last_reported":1718907098,"current_range_meters":0,"station_id":"ce4bgl92rcd13ifvqbq0","pricing_plan_id":"cebpf4jnsgd1na2vs0mg"},{"bike_id":"427aef2c-c1b3-4fcc-a0ff-87ef2d5d54ba","system_id":"levelo_inurba_marseille","lat":43.31224,"lon":5.36867,"is_reserved":false,"is_disabled":false,"rental_uris":{"android":"levelo://app?vid=427aef2c-c1b3-4fcc-a0ff-87ef2d5d54ba","ios":"levelo://app?vid=427aef2c-c1b3-4fcc-a0ff-87ef2d5d54ba"},"vehicle_type_id":"4","last_reported":1718907098,"current_range_meters":0,"station_id":"ce4bgl92rcd13ifvqbq0","pricing_plan_id":"cebpf4jnsgd1na2vs0mg"},{"bike_id":"2bb74573-5462-4421-8953-a6c4a4aa2ee4","system_id":"levelo_inurba_marseille","lat":43.31217,"lon":5.36868,"is_reserved":false,"is_disabled":false,"rental_uris":{"android":"levelo://app?vid=2bb74573-5462-4421-8953-a6c4a4aa2ee4","ios":"levelo://app?vid=2bb74573-5462-4421-8953-a6c4a4aa2ee4"},"vehicle_type_id":"4","last_reported":1718907098,"current_range_meters":0,"station_id":"ce4bgl92rcd13ifvqbq0","pricing_plan_id":"cebpf4jnsgd1na2vs0mg"},{"bike_id":"5de72a40-6ee1-49f9-8976-ba6852c3e644","system_id":"levelo_inurba_marseille","lat":43.309076,"lon":5.368465,"is_reserved":false,"is_disabled":false,"rental_uris":{"android":"levelo://app?vid=5de72a40-6ee1-49f9-8976-ba6852c3e644","ios":"levelo://app?vid=5de72a40-6ee1-49f9-8976-ba6852c3e644"},"vehicle_type_id":"4","last_reported":1718907098,"current_range_meters":17200,"station_id":"ce4bgn92rcd13ifvqbvg","pricing_plan_id":"cebpf4jnsgd1na2vs0mg"},{"bike_id":"bb42c6e4-90f5-4cd0-8ced-d7cf6d476e44","system_id":"levelo_inurba_marseille","lat":43.309076,"lon":5.368465,"is_reserved":false,"is_disabled":false,"rental_uris":{"android":"levelo://app?vid=bb42c6e4-90f5-4cd0-8ced-d7cf6d476e44","ios":"levelo://app?vid=bb42c6e4-90f5-4cd0-8ced-d7cf6d476e44"},"vehicle_type_id":"4","last_reported":1718907098,"current_range_meters":5200,"station_id":"ce4bgn92rcd13ifvqbvg","pricing_plan_id":"cebpf4jnsgd1na2vs0mg"},{"bike_id":"f8ed94d4-c6d5-4d22-b87a-a054f82b951a","system_id":"levelo_inurba_marseille","lat":43.309076,"lon":5.368465,"is_reserved":false,"is_disabled":false,"rental_uris":{"android":"levelo://app?vid=f8ed94d4-c6d5-4d22-b87a-a054f82b951a","ios":"levelo://app?vid=f8ed94d4-c6d5-4d22-b87a-a054f82b951a"},"vehicle_type_id":"4","last_reported":1718907098,"current_range_meters":4400,"station_id":"ce4bgn92rcd13ifvqbvg","pricing_plan_id":"cebpf4jnsgd1na2vs0mg"},{"bike_id":"ef74a9b1-93ed-478e-9aeb-4df13fcd5a1c","system_id":"levelo_inurba_marseille","lat":43.314811,"lon":5.373103,"is_reserved":false,"is_disabled":false,"rental_uris":{"android":"levelo://app?vid=ef74a9b1-93ed-478e-9aeb-4df13fcd5a1c","ios":"levelo://app?vid=ef74a9b1-93ed-478e-9aeb-4df13fcd5a1c"},"vehicle_type_id":"4","last_reported":1718907098,"current_range_meters":0,"station_id":"ce4bgt12rcd13ifvqcd0","pricing_plan_id":"cebpf4jnsgd1na2vs0mg"},{"bike_id":"405086d8-253d-470b-b366-369a0eb71330","system_id":"levelo_inurba_marseille","lat":43.314811,"lon":5.373103,"is_reserved":false,"is_disabled":false,"rental_uris":{"android":"levelo://app?vid=405086d8-253d-470b-b366-369a0eb71330","ios":"levelo://app?vid=405086d8-253d-470b-b366-369a0eb71330"},"vehicle_type_id":"4","last_reported":1718907098,"current_range_meters":24800,"station_id":"ce4bgt12rcd13ifvqcd0","pricing_plan_id":"cebpf4jnsgd1na2vs0mg"},{"bike_id":"b1464667-63cf-42ea-952c-a60cce3c1224","system_id":"levelo_inurba_marseille","lat":43.308833,"lon":5.37187,"is_reserved":false,"is_disabled":false,"rental_uris":{"android":"levelo://app?vid=b1464667-63cf-42ea-952c-a60cce3c1224","ios":"levelo://app?vid=b1464667-63cf-42ea-952c-a60cce3c1224"},"vehicle_type_id":"4","last_reported":1718907098,"current_range_meters":0,"station_id":"ce4bguh2rcd13ifvqckg","pricing_plan_id":"cebpf4jnsgd1na2vs0mg"},{"bike_id":"9f343050-7df0-4de3-9996-a3657976266e","system_id":"levelo_inurba_marseille","lat":43.316906,"lon":5.372806,"is_reserved":false,"is_disabled":false,"rental_uris":{"android":"levelo://app?vid=9f343050-7df0-4de3-9996-a3657976266e","ios":"levelo://app?vid=9f343050-7df0-4de3-9996-a3657976266e"},"vehicle_type_id":"4","last_reported":1718907098,"current_range_meters":24800,"station_id":"","pricing_plan_id":"cebpf4jnsgd1na2vs0mg"},{"bike_id":"d95ed3f7-4f66-43a5-b342-64a5c6ad9c56","system_id":"levelo_inurba_marseille","lat":43.305327,"lon":5.366947,"is_reserved":false,"is_disabled":false,"rental_uris":{"android":"levelo://app?vid=d95ed3f7-4f66-43a5-b342-64a5c6ad9c56","ios":"levelo://app?vid=d95ed3f7-4f66-43a5-b342-64a5c6ad9c56"},"vehicle_type_id":"4","last_reported":1718907098,"current_range_meters":0,"station_id":"ce4bgrp2rcd13ifvqc9g","pricing_plan_id":"cebpf4jnsgd1na2vs0mg"},{"bike_id":"c661d0a6-e928-48aa-ba90-698b815fe640","system_id":"levelo_inurba_marseille","lat":43.305368,"lon":5.367343,"is_reserved":false,"is_disabled":false,"rental_uris":{"android":"levelo://app?vid=c661d0a6-e928-48aa-ba90-698b815fe640","ios":"levelo://app?vid=c661d0a6-e928-48aa-ba90-698b815fe640"},"vehicle_type_id":"4","last_reported":1718907098,"current_range_meters":9200,"station_id":"ce4bgrp2rcd13ifvqc9g","pricing_plan_id":"cebpf4jnsgd1na2vs0mg"},{"bike_id":"87e98e81-7088-40bf-b69a-2f8d5b20443a","system_id":"levelo_inurba_marseille","lat":43.311125,"lon":5.377624,"is_reserved":false,"is_disabled":false,"rental_uris":{"android":"levelo://app?vid=87e98e81-7088-40bf-b69a-2f8d5b20443a","ios":"levelo://app?vid=87e98e81-7088-40bf-b69a-2f8d5b20443a"},"vehicle_type_id":"4","last_reported":1718907098,"current_range_meters":12400,"station_id":"ce4bgt92rcd13ifvqcg0","pricing_plan_id":"cebpf4jnsgd1na2vs0mg"},{"bike_id":"e49e6dc0-ce43-4c84-b5f2-6d918ef0cf1c","system_id":"levelo_inurba_marseille","lat":43.311201,"lon":5.377608,"is_reserved":false,"is_disabled":false,"rental_uris":{"android":"levelo://app?vid=e49e6dc0-ce43-4c84-b5f2-6d918ef0cf1c","ios":"levelo://app?vid=e49e6dc0-ce43-4c84-b5f2-6d918ef0cf1c"},"vehicle_type_id":"4","last_reported":1718907098,"current_range_meters":0,"station_id":"ce4bgt92rcd13ifvqcg0","pricing_plan_id":"cebpf4jnsgd1na2vs0mg"},{"bike_id":"98654416-a4f9-4ab5-bb3c-04f500814227","system_id":"levelo_inurba_marseille","lat":43.31121,"lon":5.37766,"is_reserved":false,"is_disabled":false,"rental_uris":{"android":"levelo://app?vid=98654416-a4f9-4ab5-bb3c-04f500814227","ios":"levelo://app?vid=98654416-a4f9-4ab5-bb3c-04f500814227"},"vehicle_type_id":"4","last_reported":1718907098,"current_range_meters":0,"station_id":"ce4bgt92rcd13ifvqcg0","pricing_plan_id":"cebpf4jnsgd1na2vs0mg"},{"bike_id":"857c043b-6052-477b-a1ee-104e8eb57120","system_id":"levelo_inurba_marseille","lat":43.311131,"lon":5.377651,"is_reserved":false,"is_disabled":false,"rental_uris":{"android":"levelo://app?vid=857c043b-6052-477b-a1ee-104e8eb57120","ios":"levelo://app?vid=857c043b-6052-477b-a1ee-104e8eb57120"},"vehicle_type_id":"4","last_reported":1718907098,"current_range_meters":28800,"station_id":"ce4bgt92rcd13ifvqcg0","pricing_plan_id":"cebpf4jnsgd1na2vs0mg"},{"bike_id":"bdb39e9b-e98b-475f-9da4-13c6bf123033","system_id":"levelo_inurba_marseille","lat":43.311131,"lon":5.377651,"is_reserved":false,"is_disabled":false,"rental_uris":{"android":"levelo://app?vid=bdb39e9b-e98b-475f-9da4-13c6bf123033","ios":"levelo://app?vid=bdb39e9b-e98b-475f-9da4-13c6bf123033"},"vehicle_type_id":"4","last_reported":1718907098,"current_range_meters":0,"station_id":"ce4bgt92rcd13ifvqcg0","pricing_plan_id":"cebpf4jnsgd1na2vs0mg"},{"bike_id":"3e8fbc64-de0e-409d-93df-deabe1ff2daf","system_id":"levelo_inurba_marseille","lat":43.307945,"lon":5.376487,"is_reserved":false,"is_disabled":false,"rental_uris":{"android":"levelo://app?vid=3e8fbc64-de0e-409d-93df-deabe1ff2daf","ios":"levelo://app?vid=3e8fbc64-de0e-409d-93df-deabe1ff2daf"},"vehicle_type_id":"4","last_reported":1718907098,"current_range_meters":30800,"station_id":"ce4bgv92rcd13ifvqcq0","pricing_plan_id":"cebpf4jnsgd1na2vs0mg"},{"bike_id":"7eec724d-df5c-4e0c-9aab-ef8f8713daf2","system_id":"levelo_inurba_marseille","lat":43.307945,"lon":5.376487,"is_reserved":false,"is_disabled":false,"rental_uris":{"android":"levelo://app?vid=7eec724d-df5c-4e0c-9aab-ef8f8713daf2","ios":"levelo://app?vid=7eec724d-df5c-4e0c-9aab-ef8f8713daf2"},"vehicle_type_id":"4","last_reported":1718907098,"current_range_meters":17200,"station_id":"ce4bgv92rcd13ifvqcq0","pricing_plan_id":"cebpf4jnsgd1na2vs0mg"},{"bike_id":"1ac1647e-0aef-4684-bacf-045ebdcf10a6","system_id":"levelo_inurba_marseille","lat":43.307945,"lon":5.376487,"is_reserved":false,"is_disabled":false,"rental_uris":{"android":"levelo://app?vid=1ac1647e-0aef-4684-bacf-045ebdcf10a6","ios":"levelo://app?vid=1ac1647e-0aef-4684-bacf-045ebdcf10a6"},"vehicle_type_id":"4","last_reported":1718907098,"current_range_meters":3200,"station_id":"ce4bgv92rcd13ifvqcq0","pricing_plan_id":"cebpf4jnsgd1na2vs0mg"},{"bike_id":"758f1b90-9f0d-4e53-8c65-9b52260df07f","system_id":"levelo_inurba_marseille","lat":43.307945,"lon":5.376487,"is_reserved":false,"is_disabled":false,"rental_uris":{"android":"levelo://app?vid=758f1b90-9f0d-4e53-8c65-9b52260df07f","ios":"levelo://app?vid=758f1b90-9f0d-4e53-8c65-9b52260df07f"},"vehicle_type_id":"4","last_reported":1718907098,"current_range_meters":16800,"station_id":"ce4bgv92rcd13ifvqcq0","pricing_plan_id":"cebpf4jnsgd1na2vs0mg"},{"bike_id":"b77d9cc2-c28b-4784-bccf-25323e4859b9","system_id":"levelo_inurba_marseille","lat":43.307945,"lon":5.376487,"is_reserved":false,"is_disabled":false,"rental_uris":{"android":"levelo://app?vid=b77d9cc2-c28b-4784-bccf-25323e4859b9","ios":"levelo://app?vid=b77d9cc2-c28b-4784-bccf-25323e4859b9"},"vehicle_type_id":"4","last_reported":1718907098,"current_range_meters":8400,"station_id":"ce4bgv92rcd13ifvqcq0","pricing_plan_id":"cebpf4jnsgd1na2vs0mg"},{"bike_id":"fbf120eb-1bd8-401b-b5ce-d47b69d525d9","system_id":"levelo_inurba_marseille","lat":43.307945,"lon":5.376487,"is_reserved":false,"is_disabled":false,"rental_uris":{"android":"levelo://app?vid=fbf120eb-1bd8-401b-b5ce-d47b69d525d9","ios":"levelo://app?vid=fbf120eb-1bd8-401b-b5ce-d47b69d525d9"},"vehicle_type_id":"4","last_reported":1718907098,"current_range_meters":30000,"station_id":"ce4bgv92rcd13ifvqcq0","pricing_plan_id":"cebpf4jnsgd1na2vs0mg"},{"bike_id":"946f227d-b481-4cae-969a-a997f610d847","system_id":"levelo_inurba_marseille","lat":43.307945,"lon":5.376487,"is_reserved":false,"is_disabled":false,"rental_uris":{"android":"levelo://app?vid=946f227d-b481-4cae-969a-a997f610d847","ios":"levelo://app?vid=946f227d-b481-4cae-969a-a997f610d847"},"vehicle_type_id":"4","last_reported":1718907098,"current_range_meters":13600,"station_id":"ce4bgv92rcd13ifvqcq0","pricing_plan_id":"cebpf4jnsgd1na2vs0mg"},{"bike_id":"e0b6479b-3ac7-46b7-92f8-893aa0531663","system_id":"levelo_inurba_marseille","lat":43.317075,"lon":5.377367,"is_reserved":false,"is_disabled":false,"rental_uris":{"android":"levelo://app?vid=e0b6479b-3ac7-46b7-92f8-893aa0531663","ios":"levelo://app?vid=e0b6479b-3ac7-46b7-92f8-893aa0531663"},"vehicle_type_id":"4","last_reported":1718907098,"current_range_meters":14000,"station_id":"ce4bgth2rcd13ifvqch0","pricing_plan_id":"cebpf4jnsgd1na2vs0mg"},{"bike_id":"5cc5eff9-797a-47aa-bd47-81892d82bfe0","system_id":"levelo_inurba_marseille","lat":43.317075,"lon":5.377367,"is_reserved":false,"is_disabled":false,"rental_uris":{"android":"levelo://app?vid=5cc5eff9-797a-47aa-bd47-81892d82bfe0","ios":"levelo://app?vid=5cc5eff9-797a-47aa-bd47-81892d82bfe0"},"vehicle_type_id":"4","last_reported":1718907098,"current_range_meters":11200,"station_id":"ce4bgth2rcd13ifvqch0","pricing_plan_id":"cebpf4jnsgd1na2vs0mg"},{"bike_id":"0c865e34-9fb7-46c4-a7ee-397ee7b1fdaa","system_id":"levelo_inurba_marseille","lat":43.317075,"lon":5.377367,"is_reserved":false,"is_disabled":false,"rental_uris":{"android":"levelo://app?vid=0c865e34-9fb7-46c4-a7ee-397ee7b1fdaa","ios":"levelo://app?vid=0c865e34-9fb7-46c4-a7ee-397ee7b1fdaa"},"vehicle_type_id":"4","last_reported":1718907098,"current_range_meters":21600,"station_id":"ce4bgth2rcd13ifvqch0","pricing_plan_id":"cebpf4jnsgd1na2vs0mg"},{"bike_id":"7d6f3434-5758-4df6-877f-cf72fba6038d","system_id":"levelo_inurba_marseille","lat":43.317075,"lon":5.377367,"is_reserved":false,"is_disabled":false,"rental_uris":{"android":"levelo://app?vid=7d6f3434-5758-4df6-877f-cf72fba6038d","ios":"levelo://app?vid=7d6f3434-5758-4df6-877f-cf72fba6038d"},"vehicle_type_id":"4","last_reported":1718907098,"current_range_meters":23600,"station_id":"ce4bgth2rcd13ifvqch0","pricing_plan_id":"cebpf4jnsgd1na2vs0mg"},{"bike_id":"71c15ed7-676f-465a-bcca-9597b8f56597","system_id":"levelo_inurba_marseille","lat":43.303046,"lon":5.368981,"is_reserved":false,"is_disabled":false,"rental_uris":{"android":"levelo://app?vid=71c15ed7-676f-465a-bcca-9597b8f56597","ios":"levelo://app?vid=71c15ed7-676f-465a-bcca-9597b8f56597"},"vehicle_type_id":"4","last_reported":1718907098,"current_range_meters":24800,"station_id":"ce4bgqh2rcd13ifvqc5g","pricing_plan_id":"cebpf4jnsgd1na2vs0mg"},{"bike_id":"22b3dbde-496a-4157-bd1a-ddf8a6b5c649","system_id":"levelo_inurba_marseille","lat":43.31534,"lon":5.38023,"is_reserved":false,"is_disabled":false,"rental_uris":{"android":"levelo://app?vid=22b3dbde-496a-4157-bd1a-ddf8a6b5c649","ios":"levelo://app?vid=22b3dbde-496a-4157-bd1a-ddf8a6b5c649"},"vehicle_type_id":"4","last_reported":1718907098,"current_range_meters":2800,"station_id":"ce4bhsp2rcd13ifvqi50","pricing_plan_id":"cebpf4jnsgd1na2vs0mg"},{"bike_id":"1bbcced6-e95e-4e3e-877b-0a4d48ace35d","system_id":"levelo_inurba_marseille","lat":43.315289,"lon":5.380349,"is_reserved":false,"is_disabled":false,"rental_uris":{"android":"levelo://app?vid=1bbcced6-e95e-4e3e-877b-0a4d48ace35d","ios":"levelo://app?vid=1bbcced6-e95e-4e3e-877b-0a4d48ace35d"},"vehicle_type_id":"4","last_reported":1718907098,"current_range_meters":20000,"station_id":"ce4bhsp2rcd13ifvqi50","pricing_plan_id":"cebpf4jnsgd1na2vs0mg"},{"bike_id":"6dc70dc1-4f7d-4265-b916-ae8c5dbcdf92","system_id":"levelo_inurba_marseille","lat":43.315289,"lon":5.380349,"is_reserved":false,"is_disabled":false,"rental_uris":{"android":"levelo://app?vid=6dc70dc1-4f7d-4265-b916-ae8c5dbcdf92","ios":"levelo://app?vid=6dc70dc1-4f7d-4265-b916-ae8c5dbcdf92"},"vehicle_type_id":"4","last_reported":1718907098,"current_range_meters":8400,"station_id":"ce4bhsp2rcd13ifvqi50","pricing_plan_id":"cebpf4jnsgd1na2vs0mg"},{"bike_id":"24faee5e-5337-487b-92f8-5dcb22152ea4","system_id":"levelo_inurba_marseille","lat":43.315289,"lon":5.380349,"is_reserved":false,"is_disabled":false,"rental_uris":{"android":"levelo://app?vid=24faee5e-5337-487b-92f8-5dcb22152ea4","ios":"levelo://app?vid=24faee5e-5337-487b-92f8-5dcb22152ea4"},"vehicle_type_id":"4","last_reported":1718907098,"current_range_meters":1200,"station_id":"ce4bhsp2rcd13ifvqi50","pricing_plan_id":"cebpf4jnsgd1na2vs0mg"},{"bike_id":"d47b702c-0c72-4fd5-91be-fcbad7819215","system_id":"levelo_inurba_marseille","lat":43.315289,"lon":5.380349,"is_reserved":false,"is_disabled":false,"rental_uris":{"android":"levelo://app?vid=d47b702c-0c72-4fd5-91be-fcbad7819215","ios":"levelo://app?vid=d47b702c-0c72-4fd5-91be-fcbad7819215"},"vehicle_type_id":"4","last_reported":1718907098,"current_range_meters":29200,"station_id":"ce4bhsp2rcd13ifvqi50","pricing_plan_id":"cebpf4jnsgd1na2vs0mg"},{"bike_id":"96dd375d-1b03-4624-acef-8069c9614530","system_id":"levelo_inurba_marseille","lat":43.315289,"lon":5.380349,"is_reserved":false,"is_disabled":false,"rental_uris":{"android":"levelo://app?vid=96dd375d-1b03-4624-acef-8069c9614530","ios":"levelo://app?vid=96dd375d-1b03-4624-acef-8069c9614530"},"vehicle_type_id":"4","last_reported":1718907098,"current_range_meters":13600,"station_id":"ce4bhsp2rcd13ifvqi50","pricing_plan_id":"cebpf4jnsgd1na2vs0mg"},{"bike_id":"731e8b1c-2cb6-4398-9c37-dc18b2ad7439","system_id":"levelo_inurba_marseille","lat":43.308012,"lon":5.381511,"is_reserved":false,"is_disabled":false,"rental_uris":{"android":"levelo://app?vid=731e8b1c-2cb6-4398-9c37-dc18b2ad7439","ios":"levelo://app?vid=731e8b1c-2cb6-4398-9c37-dc18b2ad7439"},"vehicle_type_id":"4","last_reported":1718907098,"current_range_meters":31200,"station_id":"ce4bgt12rcd13ifvqce0","pricing_plan_id":"cebpf4jnsgd1na2vs0mg"},{"bike_id":"cfaa6e1d-3fa1-4764-a63a-5202cd61cdcc","system_id":"levelo_inurba_marseille","lat":43.324855,"lon":5.36571,"is_reserved":false,"is_disabled":false,"rental_uris":{"android":"levelo://app?vid=cfaa6e1d-3fa1-4764-a63a-5202cd61cdcc","ios":"levelo://app?vid=cfaa6e1d-3fa1-4764-a63a-5202cd61cdcc"},"vehicle_type_id":"4","last_reported":1718907098,"current_range_meters":0,"station_id":"ce4bhs12rcd13ifvqhvg","pricing_plan_id":"cebpf4jnsgd1na2vs0mg"},{"bike_id":"2e4eedb6-9f53-4953-9163-a76b1ba2d868","system_id":"levelo_inurba_marseille","lat":43.324771,"lon":5.36557,"is_reserved":false,"is_disabled":false,"rental_uris":{"android":"levelo://app?vid=2e4eedb6-9f53-4953-9163-a76b1ba2d868","ios":"levelo://app?vid=2e4eedb6-9f53-4953-9163-a76b1ba2d868"},"vehicle_type_id":"4","last_reported":1718907098,"current_range_meters":18400,"station_id":"ce4bhs12rcd13ifvqhvg","pricing_plan_id":"cebpf4jnsgd1na2vs0mg"},{"bike_id":"448707cb-6e52-46ba-afc7-41ed51c8880b","system_id":"levelo_inurba_marseille","lat":43.310804,"lon":5.38359,"is_reserved":false,"is_disabled":false,"rental_uris":{"android":"levelo://app?vid=448707cb-6e52-46ba-afc7-41ed51c8880b","ios":"levelo://app?vid=448707cb-6e52-46ba-afc7-41ed51c8880b"},"vehicle_type_id":"4","last_reported":1718907098,"current_range_meters":1200,"station_id":"ce4bgv92rcd13ifvqcr0","pricing_plan_id":"cebpf4jnsgd1na2vs0mg"},{"bike_id":"4ede33de-6ab2-4768-afef-1094ff40f64b","system_id":"levelo_inurba_marseille","lat":43.30284,"lon":5.377,"is_reserved":false,"is_disabled":false,"rental_uris":{"android":"levelo://app?vid=4ede33de-6ab2-4768-afef-1094ff40f64b","ios":"levelo://app?vid=4ede33de-6ab2-4768-afef-1094ff40f64b"},"vehicle_type_id":"4","last_reported":1718907098,"current_range_meters":0,"station_id":"ce4bguh2rcd13ifvqcj0","pricing_plan_id":"cebpf4jnsgd1na2vs0mg"},{"bike_id":"ce7f5b86-17d1-43ce-8f56-cb72093f0976","system_id":"levelo_inurba_marseille","lat":43.30143,"lon":5.37413,"is_reserved":false,"is_disabled":false,"rental_uris":{"android":"levelo://app?vid=ce7f5b86-17d1-43ce-8f56-cb72093f0976","ios":"levelo://app?vid=ce7f5b86-17d1-43ce-8f56-cb72093f0976"},"vehicle_type_id":"4","last_reported":1718907098,"current_range_meters":12800,"station_id":"ce4bgs92rcd13ifvqcc0","pricing_plan_id":"cebpf4jnsgd1na2vs0mg"},{"bike_id":"5677df18-4630-44aa-ab76-c00adebcc634","system_id":"levelo_inurba_marseille","lat":43.313571,"lon":5.384829,"is_reserved":false,"is_disabled":false,"rental_uris":{"android":"levelo://app?vid=5677df18-4630-44aa-ab76-c00adebcc634","ios":"levelo://app?vid=5677df18-4630-44aa-ab76-c00adebcc634"},"vehicle_type_id":"4","last_reported":1718907098,"current_range_meters":1200,"station_id":"ce4bgt92rcd13ifvqcf0","pricing_plan_id":"cebpf4jnsgd1na2vs0mg"},{"bike_id":"236ae1b2-cdea-49f4-9882-22f1dfe76ac8","system_id":"levelo_inurba_marseille","lat":43.31351,"lon":5.38494,"is_reserved":false,"is_disabled":false,"rental_uris":{"android":"levelo://app?vid=236ae1b2-cdea-49f4-9882-22f1dfe76ac8","ios":"levelo://app?vid=236ae1b2-cdea-49f4-9882-22f1dfe76ac8"},"vehicle_type_id":"4","last_reported":1718907098,"current_range_meters":0,"station_id":"ce4bgt92rcd13ifvqcf0","pricing_plan_id":"cebpf4jnsgd1na2vs0mg"},{"bike_id":"61b7f469-9c9e-4189-8fa9-3ac23d54fe58","system_id":"levelo_inurba_marseille","lat":43.313571,"lon":5.384829,"is_reserved":false,"is_disabled":false,"rental_uris":{"android":"levelo://app?vid=61b7f469-9c9e-4189-8fa9-3ac23d54fe58","ios":"levelo://app?vid=61b7f469-9c9e-4189-8fa9-3ac23d54fe58"},"vehicle_type_id":"4","last_reported":1718907098,"current_range_meters":22000,"station_id":"ce4bgt92rcd13ifvqcf0","pricing_plan_id":"cebpf4jnsgd1na2vs0mg"},{"bike_id":"742d727b-a4eb-4a00-bfad-a3fa191ce258","system_id":"levelo_inurba_marseille","lat":43.3136,"lon":5.38495,"is_reserved":false,"is_disabled":false,"rental_uris":{"android":"levelo://app?vid=742d727b-a4eb-4a00-bfad-a3fa191ce258","ios":"levelo://app?vid=742d727b-a4eb-4a00-bfad-a3fa191ce258"},"vehicle_type_id":"4","last_reported":1718907098,"current_range_meters":0,"station_id":"ce4bgt92rcd13ifvqcf0","pricing_plan_id":"cebpf4jnsgd1na2vs0mg"},{"bike_id":"937a62ce-076d-44f3-b1d4-998fe35f48aa","system_id":"levelo_inurba_marseille","lat":43.298433,"lon":5.362774,"is_reserved":false,"is_disabled":false,"rental_uris":{"android":"levelo://app?vid=937a62ce-076d-44f3-b1d4-998fe35f48aa","ios":"levelo://app?vid=937a62ce-076d-44f3-b1d4-998fe35f48aa"},"vehicle_type_id":"4","last_reported":1718907098,"current_range_meters":27200,"station_id":"ce4bgpp2rcd13ifvqc3g","pricing_plan_id":"cebpf4jnsgd1na2vs0mg"},{"bike_id":"4d0ac4f1-dd24-4044-be5a-56dddd165d0f","system_id":"levelo_inurba_marseille","lat":43.305364,"lon":5.384119,"is_reserved":false,"is_disabled":false,"rental_uris":{"android":"levelo://app?vid=4d0ac4f1-dd24-4044-be5a-56dddd165d0f","ios":"levelo://app?vid=4d0ac4f1-dd24-4044-be5a-56dddd165d0f"},"vehicle_type_id":"4","last_reported":1718907098,"current_range_meters":800,"station_id":"ce4bgg92rcd13ifvqb30","pricing_plan_id":"cebpf4jnsgd1na2vs0mg"},{"bike_id":"a918e681-7c18-44de-b94e-7a682c41648c","system_id":"levelo_inurba_marseille","lat":43.305364,"lon":5.384119,"is_reserved":false,"is_disabled":false,"rental_uris":{"android":"levelo://app?vid=a918e681-7c18-44de-b94e-7a682c41648c","ios":"levelo://app?vid=a918e681-7c18-44de-b94e-7a682c41648c"},"vehicle_type_id":"4","last_reported":1718907098,"current_range_meters":28800,"station_id":"ce4bgg92rcd13ifvqb30","pricing_plan_id":"cebpf4jnsgd1na2vs0mg"},{"bike_id":"0cc65310-d3d7-4184-bb77-ac7038cb9f59","system_id":"levelo_inurba_marseille","lat":43.31168,"lon":5.38713,"is_reserved":false,"is_disabled":false,"rental_uris":{"android":"levelo://app?vid=0cc65310-d3d7-4184-bb77-ac7038cb9f59","ios":"levelo://app?vid=0cc65310-d3d7-4184-bb77-ac7038cb9f59"},"vehicle_type_id":"4","last_reported":1718907098,"current_range_meters":19600,"station_id":"ce4bgv12rcd13ifvqcp0","pricing_plan_id":"cebpf4jnsgd1na2vs0mg"},{"bike_id":"79e17655-e69b-4e1f-b6a0-24b41e7c0703","system_id":"levelo_inurba_marseille","lat":43.31185,"lon":5.3872,"is_reserved":false,"is_disabled":false,"rental_uris":{"android":"levelo://app?vid=79e17655-e69b-4e1f-b6a0-24b41e7c0703","ios":"levelo://app?vid=79e17655-e69b-4e1f-b6a0-24b41e7c0703"},"vehicle_type_id":"4","last_reported":1718907098,"current_range_meters":6800,"station_id":"ce4bgv12rcd13ifvqcp0","pricing_plan_id":"cebpf4jnsgd1na2vs0mg"},{"bike_id":"814e33ff-d24b-4378-9c68-f93cf4bb232c","system_id":"levelo_inurba_marseille","lat":43.299243,"lon":5.37481,"is_reserved":false,"is_disabled":false,"rental_uris":{"android":"levelo://app?vid=814e33ff-d24b-4378-9c68-f93cf4bb232c","ios":"levelo://app?vid=814e33ff-d24b-4378-9c68-f93cf4bb232c"},"vehicle_type_id":"4","last_reported":1718907098,"current_range_meters":800,"station_id":"ce4bgjh2rcd13ifvqbg0","pricing_plan_id":"cebpf4jnsgd1na2vs0mg"},{"bike_id":"22f73c25-8b4a-42bc-9a90-7e43fade9509","system_id":"levelo_inurba_marseille","lat":43.311989,"lon":5.387611,"is_reserved":false,"is_disabled":false,"rental_uris":{"android":"levelo://app?vid=22f73c25-8b4a-42bc-9a90-7e43fade9509","ios":"levelo://app?vid=22f73c25-8b4a-42bc-9a90-7e43fade9509"},"vehicle_type_id":"4","last_reported":1718907098,"current_range_meters":0,"station_id":"","pricing_plan_id":"cebpf4jnsgd1na2vs0mg"},{"bike_id":"8bc5a871-93d0-44d8-a3d8-e546b2b93406","system_id":"levelo_inurba_marseille","lat":43.322872,"lon":5.382756,"is_reserved":false,"is_disabled":false,"rental_uris":{"android":"levelo://app?vid=8bc5a871-93d0-44d8-a3d8-e546b2b93406","ios":"levelo://app?vid=8bc5a871-93d0-44d8-a3d8-e546b2b93406"},"vehicle_type_id":"4","last_reported":1718907098,"current_range_meters":5200,"station_id":"ce4bhr12rcd13ifvqhqg","pricing_plan_id":"cebpf4jnsgd1na2vs0mg"},{"bike_id":"4ec38561-690e-4e56-9ee1-f7f6daf5d3e9","system_id":"levelo_inurba_marseille","lat":43.297163,"lon":5.365866,"is_reserved":false,"is_disabled":false,"rental_uris":{"android":"levelo://app?vid=4ec38561-690e-4e56-9ee1-f7f6daf5d3e9","ios":"levelo://app?vid=4ec38561-690e-4e56-9ee1-f7f6daf5d3e9"},"vehicle_type_id":"4","last_reported":1718907098,"current_range_meters":6400,"station_id":"ce4bgn12rcd13ifvqbt0","pricing_plan_id":"cebpf4jnsgd1na2vs0mg"},{"bike_id":"3ca24c5b-c16d-474c-8964-614faab0bf6d","system_id":"levelo_inurba_marseille","lat":43.29766,"lon":5.37325,"is_reserved":false,"is_disabled":false,"rental_uris":{"android":"levelo://app?vid=3ca24c5b-c16d-474c-8964-614faab0bf6d","ios":"levelo://app?vid=3ca24c5b-c16d-474c-8964-614faab0bf6d"},"vehicle_type_id":"4","last_reported":1718907098,"current_range_meters":18000,"station_id":"","pricing_plan_id":"cebpf4jnsgd1na2vs0mg"},{"bike_id":"d3f0c214-9f6d-4431-85fa-bbce44a7c6f5","system_id":"levelo_inurba_marseille","lat":43.296129,"lon":5.370777,"is_reserved":false,"is_disabled":false,"rental_uris":{"android":"levelo://app?vid=d3f0c214-9f6d-4431-85fa-bbce44a7c6f5","ios":"levelo://app?vid=d3f0c214-9f6d-4431-85fa-bbce44a7c6f5"},"vehicle_type_id":"4","last_reported":1718907098,"current_range_meters":0,"station_id":"ce4bgnh2rcd13ifvqc0g","pricing_plan_id":"cebpf4jnsgd1na2vs0mg"},{"bike_id":"38acdc44-ea25-4130-8596-41a6bbe7eb78","system_id":"levelo_inurba_marseille","lat":43.29573,"lon":5.367355,"is_reserved":false,"is_disabled":false,"rental_uris":{"android":"levelo://app?vid=38acdc44-ea25-4130-8596-41a6bbe7eb78","ios":"levelo://app?vid=38acdc44-ea25-4130-8596-41a6bbe7eb78"},"vehicle_type_id":"4","last_reported":1718907098,"current_range_meters":0,"station_id":"ce4bgph2rcd13ifvqc2g","pricing_plan_id":"cebpf4jnsgd1na2vs0mg"},{"bike_id":"16405a4d-11ea-4f51-a22a-a3aaaeff92c6","system_id":"levelo_inurba_marseille","lat":43.29573,"lon":5.367355,"is_reserved":false,"is_disabled":false,"rental_uris":{"android":"levelo://app?vid=16405a4d-11ea-4f51-a22a-a3aaaeff92c6","ios":"levelo://app?vid=16405a4d-11ea-4f51-a22a-a3aaaeff92c6"},"vehicle_type_id":"4","last_reported":1718907098,"current_range_meters":0,"station_id":"ce4bgph2rcd13ifvqc2g","pricing_plan_id":"cebpf4jnsgd1na2vs0mg"},{"bike_id":"a83fe1d3-7bcc-4f47-8ab9-4f53bc352a67","system_id":"levelo_inurba_marseille","lat":43.29728,"lon":5.37684,"is_reserved":false,"is_disabled":false,"rental_uris":{"android":"levelo://app?vid=a83fe1d3-7bcc-4f47-8ab9-4f53bc352a67","ios":"levelo://app?vid=a83fe1d3-7bcc-4f47-8ab9-4f53bc352a67"},"vehicle_type_id":"4","last_reported":1718907098,"current_range_meters":9200,"station_id":"ce4bgkh2rcd13ifvqbl0","pricing_plan_id":"cebpf4jnsgd1na2vs0mg"},{"bike_id":"14ce9f29-a11c-4665-a501-19a51b970145","system_id":"levelo_inurba_marseille","lat":43.29721,"lon":5.37685,"is_reserved":false,"is_disabled":false,"rental_uris":{"android":"levelo://app?vid=14ce9f29-a11c-4665-a501-19a51b970145","ios":"levelo://app?vid=14ce9f29-a11c-4665-a501-19a51b970145"},"vehicle_type_id":"4","last_reported":1718907098,"current_range_meters":0,"station_id":"ce4bgkh2rcd13ifvqbl0","pricing_plan_id":"cebpf4jnsgd1na2vs0mg"},{"bike_id":"258fdf37-f20e-4da9-ab1c-816f5a366ca7","system_id":"levelo_inurba_marseille","lat":43.309589,"lon":5.390258,"is_reserved":false,"is_disabled":false,"rental_uris":{"android":"levelo://app?vid=258fdf37-f20e-4da9-ab1c-816f5a366ca7","ios":"levelo://app?vid=258fdf37-f20e-4da9-ab1c-816f5a366ca7"},"vehicle_type_id":"4","last_reported":1718907098,"current_range_meters":18000,"station_id":"ce4bgup2rcd13ifvqco0","pricing_plan_id":"cebpf4jnsgd1na2vs0mg"},{"bike_id":"ce28e87b-5fe4-433b-9b50-f396d4bd8be1","system_id":"levelo_inurba_marseille","lat":43.309589,"lon":5.390258,"is_reserved":false,"is_disabled":false,"rental_uris":{"android":"levelo://app?vid=ce28e87b-5fe4-433b-9b50-f396d4bd8be1","ios":"levelo://app?vid=ce28e87b-5fe4-433b-9b50-f396d4bd8be1"},"vehicle_type_id":"4","last_reported":1718907098,"current_range_meters":0,"station_id":"ce4bgup2rcd13ifvqco0","pricing_plan_id":"cebpf4jnsgd1na2vs0mg"},{"bike_id":"d6b916eb-6ec7-4d49-9cb5-cfc10153380f","system_id":"levelo_inurba_marseille","lat":43.309589,"lon":5.390258,"is_reserved":false,"is_disabled":false,"rental_uris":{"android":"levelo://app?vid=d6b916eb-6ec7-4d49-9cb5-cfc10153380f","ios":"levelo://app?vid=d6b916eb-6ec7-4d49-9cb5-cfc10153380f"},"vehicle_type_id":"4","last_reported":1718907098,"current_range_meters":11600,"station_id":"ce4bgup2rcd13ifvqco0","pricing_plan_id":"cebpf4jnsgd1na2vs0mg"},{"bike_id":"42228fdf-8208-418e-946d-9021fbf856da","system_id":"levelo_inurba_marseille","lat":43.309508,"lon":5.390315,"is_reserved":false,"is_disabled":false,"rental_uris":{"android":"levelo://app?vid=42228fdf-8208-418e-946d-9021fbf856da","ios":"levelo://app?vid=42228fdf-8208-418e-946d-9021fbf856da"},"vehicle_type_id":"4","last_reported":1718907098,"current_range_meters":16400,"station_id":"ce4bgup2rcd13ifvqco0","pricing_plan_id":"cebpf4jnsgd1na2vs0mg"},{"bike_id":"022dcc07-707f-485a-938e-93eed93bc2be","system_id":"levelo_inurba_marseille","lat":43.3095,"lon":5.39033,"is_reserved":false,"is_disabled":false,"rental_uris":{"android":"levelo://app?vid=022dcc07-707f-485a-938e-93eed93bc2be","ios":"levelo://app?vid=022dcc07-707f-485a-938e-93eed93bc2be"},"vehicle_type_id":"4","last_reported":1718907098,"current_range_meters":7200,"station_id":"ce4bgup2rcd13ifvqco0","pricing_plan_id":"cebpf4jnsgd1na2vs0mg"},{"bike_id":"d27881c3-8771-44ef-ac0b-18ef28eaf5b8","system_id":"levelo_inurba_marseille","lat":43.309589,"lon":5.390258,"is_reserved":false,"is_disabled":false,"rental_uris":{"android":"levelo://app?vid=d27881c3-8771-44ef-ac0b-18ef28eaf5b8","ios":"levelo://app?vid=d27881c3-8771-44ef-ac0b-18ef28eaf5b8"},"vehicle_type_id":"4","last_reported":1718907098,"current_range_meters":25600,"station_id":"ce4bgup2rcd13ifvqco0","pricing_plan_id":"cebpf4jnsgd1na2vs0mg"},{"bike_id":"5bf5e177-5518-4891-b766-d273afeeef10","system_id":"levelo_inurba_marseille","lat":43.30948,"lon":5.39033,"is_reserved":false,"is_disabled":false,"rental_uris":{"android":"levelo://app?vid=5bf5e177-5518-4891-b766-d273afeeef10","ios":"levelo://app?vid=5bf5e177-5518-4891-b766-d273afeeef10"},"vehicle_type_id":"4","last_reported":1718907098,"current_range_meters":4800,"station_id":"ce4bgup2rcd13ifvqco0","pricing_plan_id":"cebpf4jnsgd1na2vs0mg"},{"bike_id":"fd9d8155-9ffa-4817-968f-6c952e1398ee","system_id":"levelo_inurba_marseille","lat":43.309589,"lon":5.390258,"is_reserved":false,"is_disabled":false,"rental_uris":{"android":"levelo://app?vid=fd9d8155-9ffa-4817-968f-6c952e1398ee","ios":"levelo://app?vid=fd9d8155-9ffa-4817-968f-6c952e1398ee"},"vehicle_type_id":"4","last_reported":1718907098,"current_range_meters":9200,"station_id":"ce4bgup2rcd13ifvqco0","pricing_plan_id":"cebpf4jnsgd1na2vs0mg"},{"bike_id":"503d3c14-4518-4f0f-93d4-4d38bebb2757","system_id":"levelo_inurba_marseille","lat":43.30967,"lon":5.39043,"is_reserved":false,"is_disabled":false,"rental_uris":{"android":"levelo://app?vid=503d3c14-4518-4f0f-93d4-4d38bebb2757","ios":"levelo://app?vid=503d3c14-4518-4f0f-93d4-4d38bebb2757"},"vehicle_type_id":"4","last_reported":1718907098,"current_range_meters":19600,"station_id":"ce4bgup2rcd13ifvqco0","pricing_plan_id":"cebpf4jnsgd1na2vs0mg"},{"bike_id":"ebbfc6d4-bfe5-47da-bb97-efe302f9bfa1","system_id":"levelo_inurba_marseille","lat":43.31758,"lon":5.39008,"is_reserved":false,"is_disabled":false,"rental_uris":{"android":"levelo://app?vid=ebbfc6d4-bfe5-47da-bb97-efe302f9bfa1","ios":"levelo://app?vid=ebbfc6d4-bfe5-47da-bb97-efe302f9bfa1"},"vehicle_type_id":"4","last_reported":1718907098,"current_range_meters":5200,"station_id":"ce4bhqp2rcd13ifvqhng","pricing_plan_id":"cebpf4jnsgd1na2vs0mg"},{"bike_id":"94a26fef-f45b-48bd-b619-f219d8f733b6","system_id":"levelo_inurba_marseille","lat":43.317557,"lon":5.390173,"is_reserved":false,"is_disabled":false,"rental_uris":{"android":"levelo://app?vid=94a26fef-f45b-48bd-b619-f219d8f733b6","ios":"levelo://app?vid=94a26fef-f45b-48bd-b619-f219d8f733b6"},"vehicle_type_id":"4","last_reported":1718907098,"current_range_meters":0,"station_id":"ce4bhqp2rcd13ifvqhng","pricing_plan_id":"cebpf4jnsgd1na2vs0mg"},{"bike_id":"8fdcc031-8c36-49f7-aaaf-215617108c00","system_id":"levelo_inurba_marseille","lat":43.31755,"lon":5.39016,"is_reserved":false,"is_disabled":false,"rental_uris":{"android":"levelo://app?vid=8fdcc031-8c36-49f7-aaaf-215617108c00","ios":"levelo://app?vid=8fdcc031-8c36-49f7-aaaf-215617108c00"},"vehicle_type_id":"4","last_reported":1718907098,"current_range_meters":6400,"station_id":"ce4bhqp2rcd13ifvqhng","pricing_plan_id":"cebpf4jnsgd1na2vs0mg"},{"bike_id":"2b2ca461-9a61-46bf-a36f-bda70469e2f5","system_id":"levelo_inurba_marseille","lat":43.317557,"lon":5.390173,"is_reserved":false,"is_disabled":false,"rental_uris":{"android":"levelo://app?vid=2b2ca461-9a61-46bf-a36f-bda70469e2f5","ios":"levelo://app?vid=2b2ca461-9a61-46bf-a36f-bda70469e2f5"},"vehicle_type_id":"4","last_reported":1718907098,"current_range_meters":7200,"station_id":"ce4bhqp2rcd13ifvqhng","pricing_plan_id":"cebpf4jnsgd1na2vs0mg"},{"bike_id":"100123cb-dc57-4006-ab11-ae4848521cc0","system_id":"levelo_inurba_marseille","lat":43.31758,"lon":5.3902,"is_reserved":false,"is_disabled":false,"rental_uris":{"android":"levelo://app?vid=100123cb-dc57-4006-ab11-ae4848521cc0","ios":"levelo://app?vid=100123cb-dc57-4006-ab11-ae4848521cc0"},"vehicle_type_id":"4","last_reported":1718907098,"current_range_meters":29600,"station_id":"ce4bhqp2rcd13ifvqhng","pricing_plan_id":"cebpf4jnsgd1na2vs0mg"},{"bike_id":"f8423e0e-092d-4ed4-9753-a757b78c908d","system_id":"levelo_inurba_marseille","lat":43.295792,"lon":5.375092,"is_reserved":false,"is_disabled":false,"rental_uris":{"android":"levelo://app?vid=f8423e0e-092d-4ed4-9753-a757b78c908d","ios":"levelo://app?vid=f8423e0e-092d-4ed4-9753-a757b78c908d"},"vehicle_type_id":"4","last_reported":1718907098,"current_range_meters":0,"station_id":"ce4bgh92rcd13ifvqb50","pricing_plan_id":"cebpf4jnsgd1na2vs0mg"},{"bike_id":"7f2ef7f3-ef14-4034-be2d-e5512f95e241","system_id":"levelo_inurba_marseille","lat":43.30436,"lon":5.38888,"is_reserved":false,"is_disabled":false,"rental_uris":{"android":"levelo://app?vid=7f2ef7f3-ef14-4034-be2d-e5512f95e241","ios":"levelo://app?vid=7f2ef7f3-ef14-4034-be2d-e5512f95e241"},"vehicle_type_id":"4","last_reported":1718907098,"current_range_meters":0,"station_id":"ce4bgk12rcd13ifvqbi0","pricing_plan_id":"cebpf4jnsgd1na2vs0mg"},{"bike_id":"92075500-68b6-4378-b403-b490008995ad","system_id":"levelo_inurba_marseille","lat":43.298037,"lon":5.381066,"is_reserved":false,"is_disabled":false,"rental_uris":{"android":"levelo://app?vid=92075500-68b6-4378-b403-b490008995ad","ios":"levelo://app?vid=92075500-68b6-4378-b403-b490008995ad"},"vehicle_type_id":"4","last_reported":1718907098,"current_range_meters":13200,"station_id":"ce4bgip2rcd13ifvqbb0","pricing_plan_id":"cebpf4jnsgd1na2vs0mg"},{"bike_id":"1d7c2ad4-10cf-4e6e-b322-5d4acaa43588","system_id":"levelo_inurba_marseille","lat":43.304278,"lon":5.388868,"is_reserved":false,"is_disabled":false,"rental_uris":{"android":"levelo://app?vid=1d7c2ad4-10cf-4e6e-b322-5d4acaa43588","ios":"levelo://app?vid=1d7c2ad4-10cf-4e6e-b322-5d4acaa43588"},"vehicle_type_id":"4","last_reported":1718907098,"current_range_meters":26800,"station_id":"ce4bgk12rcd13ifvqbi0","pricing_plan_id":"cebpf4jnsgd1na2vs0mg"},{"bike_id":"202fb2e5-89ca-4538-8bb7-cdb63339fd18","system_id":"levelo_inurba_marseille","lat":43.29555,"lon":5.37504,"is_reserved":false,"is_disabled":false,"rental_uris":{"android":"levelo://app?vid=202fb2e5-89ca-4538-8bb7-cdb63339fd18","ios":"levelo://app?vid=202fb2e5-89ca-4538-8bb7-cdb63339fd18"},"vehicle_type_id":"4","last_reported":1718907098,"current_range_meters":31200,"station_id":"ce4bgh92rcd13ifvqb50","pricing_plan_id":"cebpf4jnsgd1na2vs0mg"},{"bike_id":"9f3c95c5-dfba-4858-9831-05da583d10bb","system_id":"levelo_inurba_marseille","lat":43.296263,"lon":5.377094,"is_reserved":false,"is_disabled":false,"rental_uris":{"android":"levelo://app?vid=9f3c95c5-dfba-4858-9831-05da583d10bb","ios":"levelo://app?vid=9f3c95c5-dfba-4858-9831-05da583d10bb"},"vehicle_type_id":"4","last_reported":1718907098,"current_range_meters":800,"station_id":"ce4bgi92rcd13ifvqb90","pricing_plan_id":"cebpf4jnsgd1na2vs0mg"},{"bike_id":"ff8edf57-0fe2-4221-a18a-1f32d1dd79af","system_id":"levelo_inurba_marseille","lat":43.29611,"lon":5.37709,"is_reserved":false,"is_disabled":false,"rental_uris":{"android":"levelo://app?vid=ff8edf57-0fe2-4221-a18a-1f32d1dd79af","ios":"levelo://app?vid=ff8edf57-0fe2-4221-a18a-1f32d1dd79af"},"vehicle_type_id":"4","last_reported":1718907098,"current_range_meters":0,"station_id":"ce4bgi92rcd13ifvqb90","pricing_plan_id":"cebpf4jnsgd1na2vs0mg"},{"bike_id":"ddd3b808-a516-4567-b9c8-b87593534c8f","system_id":"levelo_inurba_marseille","lat":43.29615,"lon":5.37726,"is_reserved":false,"is_disabled":false,"rental_uris":{"android":"levelo://app?vid=ddd3b808-a516-4567-b9c8-b87593534c8f","ios":"levelo://app?vid=ddd3b808-a516-4567-b9c8-b87593534c8f"},"vehicle_type_id":"4","last_reported":1718907098,"current_range_meters":0,"station_id":"ce4bgi92rcd13ifvqb90","pricing_plan_id":"cebpf4jnsgd1na2vs0mg"},{"bike_id":"20f31c62-307b-4c16-93b6-6fcc5accd677","system_id":"levelo_inurba_marseille","lat":43.295523,"lon":5.375145,"is_reserved":false,"is_disabled":false,"rental_uris":{"android":"levelo://app?vid=20f31c62-307b-4c16-93b6-6fcc5accd677","ios":"levelo://app?vid=20f31c62-307b-4c16-93b6-6fcc5accd677"},"vehicle_type_id":"4","last_reported":1718907098,"current_range_meters":16400,"station_id":"ce4bgh92rcd13ifvqb50","pricing_plan_id":"cebpf4jnsgd1na2vs0mg"},{"bike_id":"60cb1a44-7c8c-4eb4-93fb-9666286a8bbc","system_id":"levelo_inurba_marseille","lat":43.299717,"lon":5.384845,"is_reserved":false,"is_disabled":false,"rental_uris":{"android":"levelo://app?vid=60cb1a44-7c8c-4eb4-93fb-9666286a8bbc","ios":"levelo://app?vid=60cb1a44-7c8c-4eb4-93fb-9666286a8bbc"},"vehicle_type_id":"4","last_reported":1718907098,"current_range_meters":28800,"station_id":"ce4bgj92rcd13ifvqbd0","pricing_plan_id":"cebpf4jnsgd1na2vs0mg"},{"bike_id":"b3898f6d-9ee3-4402-9de4-71d88d23e49b","system_id":"levelo_inurba_marseille","lat":43.32367,"lon":5.388836,"is_reserved":false,"is_disabled":false,"rental_uris":{"android":"levelo://app?vid=b3898f6d-9ee3-4402-9de4-71d88d23e49b","ios":"levelo://app?vid=b3898f6d-9ee3-4402-9de4-71d88d23e49b"},"vehicle_type_id":"4","last_reported":1718907098,"current_range_meters":14400,"station_id":"ce4bhqp2rcd13ifvqhog","pricing_plan_id":"cebpf4jnsgd1na2vs0mg"},{"bike_id":"1159ba63-5c3e-4c82-81d4-9c4e1cfcfba3","system_id":"levelo_inurba_marseille","lat":43.32371,"lon":5.38885,"is_reserved":false,"is_disabled":false,"rental_uris":{"android":"levelo://app?vid=1159ba63-5c3e-4c82-81d4-9c4e1cfcfba3","ios":"levelo://app?vid=1159ba63-5c3e-4c82-81d4-9c4e1cfcfba3"},"vehicle_type_id":"4","last_reported":1718907098,"current_range_meters":400,"station_id":"ce4bhqp2rcd13ifvqhog","pricing_plan_id":"cebpf4jnsgd1na2vs0mg"},{"bike_id":"b42570bb-9571-4af8-a251-152ff0a2c83e","system_id":"levelo_inurba_marseille","lat":43.293249,"lon":5.371578,"is_reserved":false,"is_disabled":false,"rental_uris":{"android":"levelo://app?vid=b42570bb-9571-4af8-a251-152ff0a2c83e","ios":"levelo://app?vid=b42570bb-9571-4af8-a251-152ff0a2c83e"},"vehicle_type_id":"4","last_reported":1718907098,"current_range_meters":12000,"station_id":"ce4bgh92rcd13ifvqb40","pricing_plan_id":"cebpf4jnsgd1na2vs0mg"},{"bike_id":"fed034d9-81c7-4a03-84bb-aed10086eb72","system_id":"levelo_inurba_marseille","lat":43.292749,"lon":5.368402,"is_reserved":false,"is_disabled":false,"rental_uris":{"android":"levelo://app?vid=fed034d9-81c7-4a03-84bb-aed10086eb72","ios":"levelo://app?vid=fed034d9-81c7-4a03-84bb-aed10086eb72"},"vehicle_type_id":"4","last_reported":1718907098,"current_range_meters":31200,"station_id":"ce4bhbp2rcd13ifvqesg","pricing_plan_id":"cebpf4jnsgd1na2vs0mg"},{"bike_id":"3f2f2b65-5aa1-4f62-ad38-7566cc6d327a","system_id":"levelo_inurba_marseille","lat":43.292749,"lon":5.368402,"is_reserved":false,"is_disabled":false,"rental_uris":{"android":"levelo://app?vid=3f2f2b65-5aa1-4f62-ad38-7566cc6d327a","ios":"levelo://app?vid=3f2f2b65-5aa1-4f62-ad38-7566cc6d327a"},"vehicle_type_id":"4","last_reported":1718907098,"current_range_meters":19200,"station_id":"ce4bhbp2rcd13ifvqesg","pricing_plan_id":"cebpf4jnsgd1na2vs0mg"},{"bike_id":"126a14bb-0ede-400d-8525-1cc8ba42105b","system_id":"levelo_inurba_marseille","lat":43.29304,"lon":5.3716,"is_reserved":false,"is_disabled":false,"rental_uris":{"android":"levelo://app?vid=126a14bb-0ede-400d-8525-1cc8ba42105b","ios":"levelo://app?vid=126a14bb-0ede-400d-8525-1cc8ba42105b"},"vehicle_type_id":"4","last_reported":1718907098,"current_range_meters":0,"station_id":"ce4bgh92rcd13ifvqb40","pricing_plan_id":"cebpf4jnsgd1na2vs0mg"},{"bike_id":"3ebdd793-4ac6-4571-90c0-827680d72f75","system_id":"levelo_inurba_marseille","lat":43.292749,"lon":5.368402,"is_reserved":false,"is_disabled":false,"rental_uris":{"android":"levelo://app?vid=3ebdd793-4ac6-4571-90c0-827680d72f75","ios":"levelo://app?vid=3ebdd793-4ac6-4571-90c0-827680d72f75"},"vehicle_type_id":"4","last_reported":1718907098,"current_range_meters":800,"station_id":"ce4bhbp2rcd13ifvqesg","pricing_plan_id":"cebpf4jnsgd1na2vs0mg"},{"bike_id":"b6ca4774-d5c5-4bd2-9fb2-d3594b932561","system_id":"levelo_inurba_marseille","lat":43.292749,"lon":5.368402,"is_reserved":false,"is_disabled":false,"rental_uris":{"android":"levelo://app?vid=b6ca4774-d5c5-4bd2-9fb2-d3594b932561","ios":"levelo://app?vid=b6ca4774-d5c5-4bd2-9fb2-d3594b932561"},"vehicle_type_id":"4","last_reported":1718907098,"current_range_meters":4400,"station_id":"ce4bhbp2rcd13ifvqesg","pricing_plan_id":"cebpf4jnsgd1na2vs0mg"},{"bike_id":"dd040aab-748e-483a-bbc4-a28af4922204","system_id":"levelo_inurba_marseille","lat":43.292749,"lon":5.368402,"is_reserved":false,"is_disabled":false,"rental_uris":{"android":"levelo://app?vid=dd040aab-748e-483a-bbc4-a28af4922204","ios":"levelo://app?vid=dd040aab-748e-483a-bbc4-a28af4922204"},"vehicle_type_id":"4","last_reported":1718907098,"current_range_meters":26800,"station_id":"ce4bhbp2rcd13ifvqesg","pricing_plan_id":"cebpf4jnsgd1na2vs0mg"},{"bike_id":"aa7fde00-b1e8-4bad-8a61-37d92522d60b","system_id":"levelo_inurba_marseille","lat":43.330442,"lon":5.389148,"is_reserved":false,"is_disabled":false,"rental_uris":{"android":"levelo://app?vid=aa7fde00-b1e8-4bad-8a61-37d92522d60b","ios":"levelo://app?vid=aa7fde00-b1e8-4bad-8a61-37d92522d60b"},"vehicle_type_id":"4","last_reported":1718907098,"current_range_meters":0,"station_id":"ce4bhr92rcd13ifvqhrg","pricing_plan_id":"cebpf4jnsgd1na2vs0mg"},{"bike_id":"c26485cb-f1b5-4ece-bc50-3b3599a14d47","system_id":"levelo_inurba_marseille","lat":43.30609,"lon":5.39349,"is_reserved":false,"is_disabled":false,"rental_uris":{"android":"levelo://app?vid=c26485cb-f1b5-4ece-bc50-3b3599a14d47","ios":"levelo://app?vid=c26485cb-f1b5-4ece-bc50-3b3599a14d47"},"vehicle_type_id":"4","last_reported":1718907098,"current_range_meters":0,"station_id":"ce4bh0p2rcd13ifvqd80","pricing_plan_id":"cebpf4jnsgd1na2vs0mg"},{"bike_id":"c40dfc7e-00b2-44e1-b25b-9d7b60a5fee3","system_id":"levelo_inurba_marseille","lat":43.30324,"lon":5.39194,"is_reserved":false,"is_disabled":false,"rental_uris":{"android":"levelo://app?vid=c40dfc7e-00b2-44e1-b25b-9d7b60a5fee3","ios":"levelo://app?vid=c40dfc7e-00b2-44e1-b25b-9d7b60a5fee3"},"vehicle_type_id":"4","last_reported":1718907098,"current_range_meters":0,"station_id":"ce4bgkh2rcd13ifvqbk0","pricing_plan_id":"cebpf4jnsgd1na2vs0mg"},{"bike_id":"830af704-719f-4748-a4eb-bfe4e87c5568","system_id":"levelo_inurba_marseille","lat":43.29296,"lon":5.37453,"is_reserved":false,"is_disabled":false,"rental_uris":{"android":"levelo://app?vid=830af704-719f-4748-a4eb-bfe4e87c5568","ios":"levelo://app?vid=830af704-719f-4748-a4eb-bfe4e87c5568"},"vehicle_type_id":"4","last_reported":1718907098,"current_range_meters":0,"station_id":"ce4bgi12rcd13ifvqb70","pricing_plan_id":"cebpf4jnsgd1na2vs0mg"},{"bike_id":"761e09ad-14e9-4ded-bc94-0b9e5337639b","system_id":"levelo_inurba_marseille","lat":43.293009,"lon":5.374584,"is_reserved":false,"is_disabled":false,"rental_uris":{"android":"levelo://app?vid=761e09ad-14e9-4ded-bc94-0b9e5337639b","ios":"levelo://app?vid=761e09ad-14e9-4ded-bc94-0b9e5337639b"},"vehicle_type_id":"4","last_reported":1718907098,"current_range_meters":5200,"station_id":"ce4bgi12rcd13ifvqb70","pricing_plan_id":"cebpf4jnsgd1na2vs0mg"},{"bike_id":"b7856473-7fb1-44b3-af2c-dad367750ee9","system_id":"levelo_inurba_marseille","lat":43.29215,"lon":5.36509,"is_reserved":false,"is_disabled":false,"rental_uris":{"android":"levelo://app?vid=b7856473-7fb1-44b3-af2c-dad367750ee9","ios":"levelo://app?vid=b7856473-7fb1-44b3-af2c-dad367750ee9"},"vehicle_type_id":"4","last_reported":1718907098,"current_range_meters":4400,"station_id":"","pricing_plan_id":"cebpf4jnsgd1na2vs0mg"},{"bike_id":"09956d51-9575-41b2-b605-420fa065d9cf","system_id":"levelo_inurba_marseille","lat":43.29227,"lon":5.36313,"is_reserved":false,"is_disabled":false,"rental_uris":{"android":"levelo://app?vid=09956d51-9575-41b2-b605-420fa065d9cf","ios":"levelo://app?vid=09956d51-9575-41b2-b605-420fa065d9cf"},"vehicle_type_id":"4","last_reported":1718907098,"current_range_meters":21600,"station_id":"","pricing_plan_id":"cebpf4jnsgd1na2vs0mg"},{"bike_id":"8e840ef6-6dd6-4d7a-8f21-04c83dc4e770","system_id":"levelo_inurba_marseille","lat":43.30309,"lon":5.39206,"is_reserved":false,"is_disabled":false,"rental_uris":{"android":"levelo://app?vid=8e840ef6-6dd6-4d7a-8f21-04c83dc4e770","ios":"levelo://app?vid=8e840ef6-6dd6-4d7a-8f21-04c83dc4e770"},"vehicle_type_id":"4","last_reported":1718907098,"current_range_meters":9600,"station_id":"ce4bgkh2rcd13ifvqbk0","pricing_plan_id":"cebpf4jnsgd1na2vs0mg"},{"bike_id":"25e9ef28-9d38-44da-a77d-3f8f128a45ad","system_id":"levelo_inurba_marseille","lat":43.302992,"lon":5.392136,"is_reserved":false,"is_disabled":false,"rental_uris":{"android":"levelo://app?vid=25e9ef28-9d38-44da-a77d-3f8f128a45ad","ios":"levelo://app?vid=25e9ef28-9d38-44da-a77d-3f8f128a45ad"},"vehicle_type_id":"4","last_reported":1718907098,"current_range_meters":14000,"station_id":"ce4bgkh2rcd13ifvqbk0","pricing_plan_id":"cebpf4jnsgd1na2vs0mg"},{"bike_id":"f1fbb587-ca22-4e49-a5b7-57bb43631609","system_id":"levelo_inurba_marseille","lat":43.302992,"lon":5.392136,"is_reserved":false,"is_disabled":false,"rental_uris":{"android":"levelo://app?vid=f1fbb587-ca22-4e49-a5b7-57bb43631609","ios":"levelo://app?vid=f1fbb587-ca22-4e49-a5b7-57bb43631609"},"vehicle_type_id":"4","last_reported":1718907098,"current_range_meters":28400,"station_id":"ce4bgkh2rcd13ifvqbk0","pricing_plan_id":"cebpf4jnsgd1na2vs0mg"},{"bike_id":"65b72302-a0bf-4b40-bc5e-bf69dd425aae","system_id":"levelo_inurba_marseille","lat":43.302992,"lon":5.392136,"is_reserved":false,"is_disabled":false,"rental_uris":{"android":"levelo://app?vid=65b72302-a0bf-4b40-bc5e-bf69dd425aae","ios":"levelo://app?vid=65b72302-a0bf-4b40-bc5e-bf69dd425aae"},"vehicle_type_id":"4","last_reported":1718907098,"current_range_meters":3200,"station_id":"ce4bgkh2rcd13ifvqbk0","pricing_plan_id":"cebpf4jnsgd1na2vs0mg"},{"bike_id":"1af12949-4f71-44c1-9e36-af7f792c168e","system_id":"levelo_inurba_marseille","lat":43.29374,"lon":5.37859,"is_reserved":false,"is_disabled":false,"rental_uris":{"android":"levelo://app?vid=1af12949-4f71-44c1-9e36-af7f792c168e","ios":"levelo://app?vid=1af12949-4f71-44c1-9e36-af7f792c168e"},"vehicle_type_id":"4","last_reported":1718907098,"current_range_meters":3600,"station_id":"ce4bgjh2rcd13ifvqbf0","pricing_plan_id":"cebpf4jnsgd1na2vs0mg"},{"bike_id":"391c3e53-be3a-44c3-819e-31e5b3a7ca52","system_id":"levelo_inurba_marseille","lat":43.30085,"lon":5.390856,"is_reserved":false,"is_disabled":false,"rental_uris":{"android":"levelo://app?vid=391c3e53-be3a-44c3-819e-31e5b3a7ca52","ios":"levelo://app?vid=391c3e53-be3a-44c3-819e-31e5b3a7ca52"},"vehicle_type_id":"4","last_reported":1718907098,"current_range_meters":0,"station_id":"ce4bh192rcd13ifvqdb0","pricing_plan_id":"cebpf4jnsgd1na2vs0mg"},{"bike_id":"30e033b4-035a-488a-acc9-9b8786f4416c","system_id":"levelo_inurba_marseille","lat":43.29227,"lon":5.3606,"is_reserved":false,"is_disabled":false,"rental_uris":{"android":"levelo://app?vid=30e033b4-035a-488a-acc9-9b8786f4416c","ios":"levelo://app?vid=30e033b4-035a-488a-acc9-9b8786f4416c"},"vehicle_type_id":"4","last_reported":1718907098,"current_range_meters":30800,"station_id":"ce4bhbh2rcd13ifvqeqg","pricing_plan_id":"cebpf4jnsgd1na2vs0mg"},{"bike_id":"39140662-4482-42a4-a2cb-c16077de71cb","system_id":"levelo_inurba_marseille","lat":43.300852,"lon":5.390859,"is_reserved":false,"is_disabled":false,"rental_uris":{"android":"levelo://app?vid=39140662-4482-42a4-a2cb-c16077de71cb","ios":"levelo://app?vid=39140662-4482-42a4-a2cb-c16077de71cb"},"vehicle_type_id":"4","last_reported":1718907098,"current_range_meters":3600,"station_id":"ce4bh192rcd13ifvqdb0","pricing_plan_id":"cebpf4jnsgd1na2vs0mg"},{"bike_id":"2623ecc6-bec6-4020-a62f-706b9431b2a8","system_id":"levelo_inurba_marseille","lat":43.292311,"lon":5.360731,"is_reserved":false,"is_disabled":false,"rental_uris":{"android":"levelo://app?vid=2623ecc6-bec6-4020-a62f-706b9431b2a8","ios":"levelo://app?vid=2623ecc6-bec6-4020-a62f-706b9431b2a8"},"vehicle_type_id":"4","last_reported":1718907098,"current_range_meters":30400,"station_id":"ce4bhbh2rcd13ifvqeqg","pricing_plan_id":"cebpf4jnsgd1na2vs0mg"},{"bike_id":"f34fb131-1362-4a29-8177-64beefd582ec","system_id":"levelo_inurba_marseille","lat":43.292254,"lon":5.360616,"is_reserved":false,"is_disabled":false,"rental_uris":{"android":"levelo://app?vid=f34fb131-1362-4a29-8177-64beefd582ec","ios":"levelo://app?vid=f34fb131-1362-4a29-8177-64beefd582ec"},"vehicle_type_id":"4","last_reported":1718907098,"current_range_meters":31200,"station_id":"ce4bhbh2rcd13ifvqeqg","pricing_plan_id":"cebpf4jnsgd1na2vs0mg"},{"bike_id":"6d56967e-4c02-44de-8b0a-022d901eb480","system_id":"levelo_inurba_marseille","lat":43.29226,"lon":5.36048,"is_reserved":false,"is_disabled":false,"rental_uris":{"android":"levelo://app?vid=6d56967e-4c02-44de-8b0a-022d901eb480","ios":"levelo://app?vid=6d56967e-4c02-44de-8b0a-022d901eb480"},"vehicle_type_id":"4","last_reported":1718907098,"current_range_meters":27600,"station_id":"ce4bhbh2rcd13ifvqeqg","pricing_plan_id":"cebpf4jnsgd1na2vs0mg"},{"bike_id":"e77d9b74-c2c1-4d0a-96e3-3c80fb5e22d1","system_id":"levelo_inurba_marseille","lat":43.300852,"lon":5.390859,"is_reserved":false,"is_disabled":false,"rental_uris":{"android":"levelo://app?vid=e77d9b74-c2c1-4d0a-96e3-3c80fb5e22d1","ios":"levelo://app?vid=e77d9b74-c2c1-4d0a-96e3-3c80fb5e22d1"},"vehicle_type_id":"4","last_reported":1718907098,"current_range_meters":5200,"station_id":"ce4bh192rcd13ifvqdb0","pricing_plan_id":"cebpf4jnsgd1na2vs0mg"},{"bike_id":"19d8f916-5430-45de-990f-77e41a5ab8aa","system_id":"levelo_inurba_marseille","lat":43.292231,"lon":5.360534,"is_reserved":false,"is_disabled":false,"rental_uris":{"android":"levelo://app?vid=19d8f916-5430-45de-990f-77e41a5ab8aa","ios":"levelo://app?vid=19d8f916-5430-45de-990f-77e41a5ab8aa"},"vehicle_type_id":"4","last_reported":1718907098,"current_range_meters":31200,"station_id":"ce4bhbh2rcd13ifvqeqg","pricing_plan_id":"cebpf4jnsgd1na2vs0mg"},{"bike_id":"8c5a3209-1253-4c4d-bb7f-f90836eb03ea","system_id":"levelo_inurba_marseille","lat":43.292196,"lon":5.360552,"is_reserved":false,"is_disabled":false,"rental_uris":{"android":"levelo://app?vid=8c5a3209-1253-4c4d-bb7f-f90836eb03ea","ios":"levelo://app?vid=8c5a3209-1253-4c4d-bb7f-f90836eb03ea"},"vehicle_type_id":"4","last_reported":1718907098,"current_range_meters":30400,"station_id":"ce4bhbh2rcd13ifvqeqg","pricing_plan_id":"cebpf4jnsgd1na2vs0mg"},{"bike_id":"f1d3648d-f16c-4250-bf03-8cb6a43b626c","system_id":"levelo_inurba_marseille","lat":43.29219,"lon":5.3605,"is_reserved":false,"is_disabled":false,"rental_uris":{"android":"levelo://app?vid=f1d3648d-f16c-4250-bf03-8cb6a43b626c","ios":"levelo://app?vid=f1d3648d-f16c-4250-bf03-8cb6a43b626c"},"vehicle_type_id":"4","last_reported":1718907098,"current_range_meters":31200,"station_id":"ce4bhbh2rcd13ifvqeqg","pricing_plan_id":"cebpf4jnsgd1na2vs0mg"},{"bike_id":"0476af6a-2e18-478d-b9c4-3fcd877c9324","system_id":"levelo_inurba_marseille","lat":43.292113,"lon":5.36045,"is_reserved":false,"is_disabled":false,"rental_uris":{"android":"levelo://app?vid=0476af6a-2e18-478d-b9c4-3fcd877c9324","ios":"levelo://app?vid=0476af6a-2e18-478d-b9c4-3fcd877c9324"},"vehicle_type_id":"4","last_reported":1718907098,"current_range_meters":31200,"station_id":"ce4bhbh2rcd13ifvqeqg","pricing_plan_id":"cebpf4jnsgd1na2vs0mg"},{"bike_id":"5d3b1c23-4de0-4a7d-bb5f-b36a4e117a5e","system_id":"levelo_inurba_marseille","lat":43.298764,"lon":5.388973,"is_reserved":false,"is_disabled":false,"rental_uris":{"android":"levelo://app?vid=5d3b1c23-4de0-4a7d-bb5f-b36a4e117a5e","ios":"levelo://app?vid=5d3b1c23-4de0-4a7d-bb5f-b36a4e117a5e"},"vehicle_type_id":"4","last_reported":1718907098,"current_range_meters":11200,"station_id":"ce4bh392rcd13ifvqdl0","pricing_plan_id":"cebpf4jnsgd1na2vs0mg"},{"bike_id":"aeda4f5f-6ef4-47e7-9fa2-462e56786f6f","system_id":"levelo_inurba_marseille","lat":43.293009,"lon":5.374584,"is_reserved":false,"is_disabled":false,"rental_uris":{"android":"levelo://app?vid=aeda4f5f-6ef4-47e7-9fa2-462e56786f6f","ios":"levelo://app?vid=aeda4f5f-6ef4-47e7-9fa2-462e56786f6f"},"vehicle_type_id":"4","last_reported":1718907098,"current_range_meters":22400,"station_id":"ce4bgi12rcd13ifvqb70","pricing_plan_id":"cebpf4jnsgd1na2vs0mg"},{"bike_id":"ecf8e8db-cd78-4aee-a5a7-b361a7e6e690","system_id":"levelo_inurba_marseille","lat":43.291675,"lon":5.371583,"is_reserved":false,"is_disabled":false,"rental_uris":{"android":"levelo://app?vid=ecf8e8db-cd78-4aee-a5a7-b361a7e6e690","ios":"levelo://app?vid=ecf8e8db-cd78-4aee-a5a7-b361a7e6e690"},"vehicle_type_id":"4","last_reported":1718907098,"current_range_meters":3600,"station_id":"ce4bha92rcd13ifvqeh0","pricing_plan_id":"cebpf4jnsgd1na2vs0mg"},{"bike_id":"419556fa-1127-4b00-9264-8815bc8c01df","system_id":"levelo_inurba_marseille","lat":43.29871,"lon":5.38912,"is_reserved":false,"is_disabled":false,"rental_uris":{"android":"levelo://app?vid=419556fa-1127-4b00-9264-8815bc8c01df","ios":"levelo://app?vid=419556fa-1127-4b00-9264-8815bc8c01df"},"vehicle_type_id":"4","last_reported":1718907098,"current_range_meters":0,"station_id":"ce4bh392rcd13ifvqdl0","pricing_plan_id":"cebpf4jnsgd1na2vs0mg"},{"bike_id":"99efa657-e5cd-490b-9cdd-58de2175fb57","system_id":"levelo_inurba_marseille","lat":43.292005,"lon":5.357875,"is_reserved":false,"is_disabled":false,"rental_uris":{"android":"levelo://app?vid=99efa657-e5cd-490b-9cdd-58de2175fb57","ios":"levelo://app?vid=99efa657-e5cd-490b-9cdd-58de2175fb57"},"vehicle_type_id":"4","last_reported":1718907098,"current_range_meters":30800,"station_id":"ce4bhb12rcd13ifvqel0","pricing_plan_id":"cebpf4jnsgd1na2vs0mg"},{"bike_id":"00a3efa3-49fd-4692-ade2-086ea17ff8f8","system_id":"levelo_inurba_marseille","lat":43.308795,"lon":5.396315,"is_reserved":false,"is_disabled":false,"rental_uris":{"android":"levelo://app?vid=00a3efa3-49fd-4692-ade2-086ea17ff8f8","ios":"levelo://app?vid=00a3efa3-49fd-4692-ade2-086ea17ff8f8"},"vehicle_type_id":"4","last_reported":1718907098,"current_range_meters":10800,"station_id":"ce4bh012rcd13ifvqcv0","pricing_plan_id":"cebpf4jnsgd1na2vs0mg"},{"bike_id":"0ffd3ac6-2c0b-4a22-b045-0fed80d892df","system_id":"levelo_inurba_marseille","lat":43.292005,"lon":5.357875,"is_reserved":false,"is_disabled":false,"rental_uris":{"android":"levelo://app?vid=0ffd3ac6-2c0b-4a22-b045-0fed80d892df","ios":"levelo://app?vid=0ffd3ac6-2c0b-4a22-b045-0fed80d892df"},"vehicle_type_id":"4","last_reported":1718907098,"current_range_meters":28800,"station_id":"ce4bhb12rcd13ifvqel0","pricing_plan_id":"cebpf4jnsgd1na2vs0mg"},{"bike_id":"b31629e9-63fa-4340-8e49-f21a9d6c95b9","system_id":"levelo_inurba_marseille","lat":43.291994,"lon":5.357886,"is_reserved":false,"is_disabled":false,"rental_uris":{"android":"levelo://app?vid=b31629e9-63fa-4340-8e49-f21a9d6c95b9","ios":"levelo://app?vid=b31629e9-63fa-4340-8e49-f21a9d6c95b9"},"vehicle_type_id":"4","last_reported":1718907098,"current_range_meters":31200,"station_id":"ce4bhb12rcd13ifvqel0","pricing_plan_id":"cebpf4jnsgd1na2vs0mg"},{"bike_id":"daded27a-6827-405a-8fe8-24ee96bb5e1c","system_id":"levelo_inurba_marseille","lat":43.29194,"lon":5.35802,"is_reserved":false,"is_disabled":false,"rental_uris":{"android":"levelo://app?vid=daded27a-6827-405a-8fe8-24ee96bb5e1c","ios":"levelo://app?vid=daded27a-6827-405a-8fe8-24ee96bb5e1c"},"vehicle_type_id":"4","last_reported":1718907098,"current_range_meters":0,"station_id":"ce4bhb12rcd13ifvqel0","pricing_plan_id":"cebpf4jnsgd1na2vs0mg"},{"bike_id":"0fb0a958-8f77-43a5-a508-f71157bccdb7","system_id":"levelo_inurba_marseille","lat":43.291994,"lon":5.357886,"is_reserved":false,"is_disabled":false,"rental_uris":{"android":"levelo://app?vid=0fb0a958-8f77-43a5-a508-f71157bccdb7","ios":"levelo://app?vid=0fb0a958-8f77-43a5-a508-f71157bccdb7"},"vehicle_type_id":"4","last_reported":1718907098,"current_range_meters":23200,"station_id":"ce4bhb12rcd13ifvqel0","pricing_plan_id":"cebpf4jnsgd1na2vs0mg"},{"bike_id":"797226b6-2925-41c1-b928-b88caed9c4dd","system_id":"levelo_inurba_marseille","lat":43.309038,"lon":5.396546,"is_reserved":false,"is_disabled":false,"rental_uris":{"android":"levelo://app?vid=797226b6-2925-41c1-b928-b88caed9c4dd","ios":"levelo://app?vid=797226b6-2925-41c1-b928-b88caed9c4dd"},"vehicle_type_id":"4","last_reported":1718907098,"current_range_meters":0,"station_id":"ce4bh012rcd13ifvqcv0","pricing_plan_id":"cebpf4jnsgd1na2vs0mg"},{"bike_id":"7db6dd8e-d36c-44aa-afaf-f68451ade299","system_id":"levelo_inurba_marseille","lat":43.291994,"lon":5.357886,"is_reserved":false,"is_disabled":false,"rental_uris":{"android":"levelo://app?vid=7db6dd8e-d36c-44aa-afaf-f68451ade299","ios":"levelo://app?vid=7db6dd8e-d36c-44aa-afaf-f68451ade299"},"vehicle_type_id":"4","last_reported":1718907098,"current_range_meters":31200,"station_id":"ce4bhb12rcd13ifvqel0","pricing_plan_id":"cebpf4jnsgd1na2vs0mg"},{"bike_id":"27570dba-e200-487d-9535-8fc98d072a52","system_id":"levelo_inurba_marseille","lat":43.313291,"lon":5.396838,"is_reserved":false,"is_disabled":false,"rental_uris":{"android":"levelo://app?vid=27570dba-e200-487d-9535-8fc98d072a52","ios":"levelo://app?vid=27570dba-e200-487d-9535-8fc98d072a52"},"vehicle_type_id":"4","last_reported":1718907098,"current_range_meters":23200,"station_id":"ce4bgvp2rcd13ifvqcu0","pricing_plan_id":"cebpf4jnsgd1na2vs0mg"},{"bike_id":"0fcb3503-5d6a-49b5-95fe-ebc7aecb7e90","system_id":"levelo_inurba_marseille","lat":43.313291,"lon":5.396838,"is_reserved":false,"is_disabled":false,"rental_uris":{"android":"levelo://app?vid=0fcb3503-5d6a-49b5-95fe-ebc7aecb7e90","ios":"levelo://app?vid=0fcb3503-5d6a-49b5-95fe-ebc7aecb7e90"},"vehicle_type_id":"4","last_reported":1718907098,"current_range_meters":0,"station_id":"ce4bgvp2rcd13ifvqcu0","pricing_plan_id":"cebpf4jnsgd1na2vs0mg"},{"bike_id":"aadb3d61-e814-4968-9e9e-9fe563160989","system_id":"levelo_inurba_marseille","lat":43.313291,"lon":5.396838,"is_reserved":false,"is_disabled":false,"rental_uris":{"android":"levelo://app?vid=aadb3d61-e814-4968-9e9e-9fe563160989","ios":"levelo://app?vid=aadb3d61-e814-4968-9e9e-9fe563160989"},"vehicle_type_id":"4","last_reported":1718907098,"current_range_meters":30400,"station_id":"ce4bgvp2rcd13ifvqcu0","pricing_plan_id":"cebpf4jnsgd1na2vs0mg"},{"bike_id":"e00c7ffe-ab0f-4990-abb3-4f62ab02c109","system_id":"levelo_inurba_marseille","lat":43.309038,"lon":5.396546,"is_reserved":false,"is_disabled":false,"rental_uris":{"android":"levelo://app?vid=e00c7ffe-ab0f-4990-abb3-4f62ab02c109","ios":"levelo://app?vid=e00c7ffe-ab0f-4990-abb3-4f62ab02c109"},"vehicle_type_id":"4","last_reported":1718907098,"current_range_meters":29600,"station_id":"ce4bh012rcd13ifvqcv0","pricing_plan_id":"cebpf4jnsgd1na2vs0mg"},{"bike_id":"f51b26e4-dc3b-4f1b-8f91-0c54b3ba9411","system_id":"levelo_inurba_marseille","lat":43.313291,"lon":5.396838,"is_reserved":false,"is_disabled":false,"rental_uris":{"android":"levelo://app?vid=f51b26e4-dc3b-4f1b-8f91-0c54b3ba9411","ios":"levelo://app?vid=f51b26e4-dc3b-4f1b-8f91-0c54b3ba9411"},"vehicle_type_id":"4","last_reported":1718907098,"current_range_meters":400,"station_id":"ce4bgvp2rcd13ifvqcu0","pricing_plan_id":"cebpf4jnsgd1na2vs0mg"},{"bike_id":"cbcc4997-d20c-4627-a696-026a6bae103e","system_id":"levelo_inurba_marseille","lat":43.313291,"lon":5.396838,"is_reserved":false,"is_disabled":false,"rental_uris":{"android":"levelo://app?vid=cbcc4997-d20c-4627-a696-026a6bae103e","ios":"levelo://app?vid=cbcc4997-d20c-4627-a696-026a6bae103e"},"vehicle_type_id":"4","last_reported":1718907098,"current_range_meters":20400,"station_id":"ce4bgvp2rcd13ifvqcu0","pricing_plan_id":"cebpf4jnsgd1na2vs0mg"},{"bike_id":"8d78a410-1384-46ff-9836-a4485882dc34","system_id":"levelo_inurba_marseille","lat":43.3133,"lon":5.39693,"is_reserved":false,"is_disabled":false,"rental_uris":{"android":"levelo://app?vid=8d78a410-1384-46ff-9836-a4485882dc34","ios":"levelo://app?vid=8d78a410-1384-46ff-9836-a4485882dc34"},"vehicle_type_id":"4","last_reported":1718907098,"current_range_meters":0,"station_id":"ce4bgvp2rcd13ifvqcu0","pricing_plan_id":"cebpf4jnsgd1na2vs0mg"},{"bike_id":"acfa956d-9e62-453d-9abc-dac8ece4d753","system_id":"levelo_inurba_marseille","lat":43.309038,"lon":5.396546,"is_reserved":false,"is_disabled":false,"rental_uris":{"android":"levelo://app?vid=acfa956d-9e62-453d-9abc-dac8ece4d753","ios":"levelo://app?vid=acfa956d-9e62-453d-9abc-dac8ece4d753"},"vehicle_type_id":"4","last_reported":1718907098,"current_range_meters":27600,"station_id":"ce4bh012rcd13ifvqcv0","pricing_plan_id":"cebpf4jnsgd1na2vs0mg"},{"bike_id":"58fbac63-6135-4919-ad12-413cebb5d9d6","system_id":"levelo_inurba_marseille","lat":43.309047,"lon":5.396551,"is_reserved":false,"is_disabled":false,"rental_uris":{"android":"levelo://app?vid=58fbac63-6135-4919-ad12-413cebb5d9d6","ios":"levelo://app?vid=58fbac63-6135-4919-ad12-413cebb5d9d6"},"vehicle_type_id":"4","last_reported":1718907098,"current_range_meters":1200,"station_id":"ce4bh012rcd13ifvqcv0","pricing_plan_id":"cebpf4jnsgd1na2vs0mg"},{"bike_id":"d84e9533-ca4a-42cf-a361-f32df36636b3","system_id":"levelo_inurba_marseille","lat":43.31327,"lon":5.39697,"is_reserved":false,"is_disabled":false,"rental_uris":{"android":"levelo://app?vid=d84e9533-ca4a-42cf-a361-f32df36636b3","ios":"levelo://app?vid=d84e9533-ca4a-42cf-a361-f32df36636b3"},"vehicle_type_id":"4","last_reported":1718907098,"current_range_meters":0,"station_id":"ce4bgvp2rcd13ifvqcu0","pricing_plan_id":"cebpf4jnsgd1na2vs0mg"},{"bike_id":"b59d39be-6e24-4e82-855a-ad9d906d83a7","system_id":"levelo_inurba_marseille","lat":43.291994,"lon":5.357886,"is_reserved":false,"is_disabled":false,"rental_uris":{"android":"levelo://app?vid=b59d39be-6e24-4e82-855a-ad9d906d83a7","ios":"levelo://app?vid=b59d39be-6e24-4e82-855a-ad9d906d83a7"},"vehicle_type_id":"4","last_reported":1718907098,"current_range_meters":31200,"station_id":"ce4bhb12rcd13ifvqel0","pricing_plan_id":"cebpf4jnsgd1na2vs0mg"},{"bike_id":"8a5e6b22-3f76-4356-ac45-38fe9256b484","system_id":"levelo_inurba_marseille","lat":43.309038,"lon":5.396546,"is_reserved":false,"is_disabled":false,"rental_uris":{"android":"levelo://app?vid=8a5e6b22-3f76-4356-ac45-38fe9256b484","ios":"levelo://app?vid=8a5e6b22-3f76-4356-ac45-38fe9256b484"},"vehicle_type_id":"4","last_reported":1718907098,"current_range_meters":12000,"station_id":"ce4bh012rcd13ifvqcv0","pricing_plan_id":"cebpf4jnsgd1na2vs0mg"},{"bike_id":"d4c453d0-4e05-4e14-bf2c-bbca72445e44","system_id":"levelo_inurba_marseille","lat":43.31327,"lon":5.39698,"is_reserved":false,"is_disabled":false,"rental_uris":{"android":"levelo://app?vid=d4c453d0-4e05-4e14-bf2c-bbca72445e44","ios":"levelo://app?vid=d4c453d0-4e05-4e14-bf2c-bbca72445e44"},"vehicle_type_id":"4","last_reported":1718907098,"current_range_meters":0,"station_id":"ce4bgvp2rcd13ifvqcu0","pricing_plan_id":"cebpf4jnsgd1na2vs0mg"},{"bike_id":"12e7ccf2-d68a-4638-b5fb-90989ef8f0a2","system_id":"levelo_inurba_marseille","lat":43.309038,"lon":5.396546,"is_reserved":false,"is_disabled":false,"rental_uris":{"android":"levelo://app?vid=12e7ccf2-d68a-4638-b5fb-90989ef8f0a2","ios":"levelo://app?vid=12e7ccf2-d68a-4638-b5fb-90989ef8f0a2"},"vehicle_type_id":"4","last_reported":1718907098,"current_range_meters":12000,"station_id":"ce4bh012rcd13ifvqcv0","pricing_plan_id":"cebpf4jnsgd1na2vs0mg"},{"bike_id":"7171688e-9ebe-47b3-b26c-17bc5ee10c1d","system_id":"levelo_inurba_marseille","lat":43.309038,"lon":5.396546,"is_reserved":false,"is_disabled":false,"rental_uris":{"android":"levelo://app?vid=7171688e-9ebe-47b3-b26c-17bc5ee10c1d","ios":"levelo://app?vid=7171688e-9ebe-47b3-b26c-17bc5ee10c1d"},"vehicle_type_id":"4","last_reported":1718907098,"current_range_meters":23600,"station_id":"ce4bh012rcd13ifvqcv0","pricing_plan_id":"cebpf4jnsgd1na2vs0mg"},{"bike_id":"a08ad3f8-9336-4c7a-b0f1-95a75d1729bf","system_id":"levelo_inurba_marseille","lat":43.309038,"lon":5.396546,"is_reserved":false,"is_disabled":false,"rental_uris":{"android":"levelo://app?vid=a08ad3f8-9336-4c7a-b0f1-95a75d1729bf","ios":"levelo://app?vid=a08ad3f8-9336-4c7a-b0f1-95a75d1729bf"},"vehicle_type_id":"4","last_reported":1718907098,"current_range_meters":13200,"station_id":"ce4bh012rcd13ifvqcv0","pricing_plan_id":"cebpf4jnsgd1na2vs0mg"},{"bike_id":"a598bdd9-920c-414a-9a4a-bed372564ff0","system_id":"levelo_inurba_marseille","lat":43.309038,"lon":5.396546,"is_reserved":false,"is_disabled":false,"rental_uris":{"android":"levelo://app?vid=a598bdd9-920c-414a-9a4a-bed372564ff0","ios":"levelo://app?vid=a598bdd9-920c-414a-9a4a-bed372564ff0"},"vehicle_type_id":"4","last_reported":1718907098,"current_range_meters":0,"station_id":"ce4bh012rcd13ifvqcv0","pricing_plan_id":"cebpf4jnsgd1na2vs0mg"},{"bike_id":"af43fb04-84fe-4871-889a-326ae3ac24c8","system_id":"levelo_inurba_marseille","lat":43.313291,"lon":5.396838,"is_reserved":false,"is_disabled":false,"rental_uris":{"android":"levelo://app?vid=af43fb04-84fe-4871-889a-326ae3ac24c8","ios":"levelo://app?vid=af43fb04-84fe-4871-889a-326ae3ac24c8"},"vehicle_type_id":"4","last_reported":1718907098,"current_range_meters":14400,"station_id":"ce4bgvp2rcd13ifvqcu0","pricing_plan_id":"cebpf4jnsgd1na2vs0mg"},{"bike_id":"9024586c-3e05-4009-88ec-ad71829adeb9","system_id":"levelo_inurba_marseille","lat":43.313291,"lon":5.396838,"is_reserved":false,"is_disabled":false,"rental_uris":{"android":"levelo://app?vid=9024586c-3e05-4009-88ec-ad71829adeb9","ios":"levelo://app?vid=9024586c-3e05-4009-88ec-ad71829adeb9"},"vehicle_type_id":"4","last_reported":1718907098,"current_range_meters":20800,"station_id":"ce4bgvp2rcd13ifvqcu0","pricing_plan_id":"cebpf4jnsgd1na2vs0mg"},{"bike_id":"9c80344a-a274-4984-9501-44bd6f311bfa","system_id":"levelo_inurba_marseille","lat":43.29529,"lon":5.385581,"is_reserved":false,"is_disabled":false,"rental_uris":{"android":"levelo://app?vid=9c80344a-a274-4984-9501-44bd6f311bfa","ios":"levelo://app?vid=9c80344a-a274-4984-9501-44bd6f311bfa"},"vehicle_type_id":"4","last_reported":1718907098,"current_range_meters":1600,"station_id":"ce4bgih2rcd13ifvqba0","pricing_plan_id":"cebpf4jnsgd1na2vs0mg"},{"bike_id":"044d0404-33a9-4d53-8f60-091355cd106c","system_id":"levelo_inurba_marseille","lat":43.29529,"lon":5.385581,"is_reserved":false,"is_disabled":false,"rental_uris":{"android":"levelo://app?vid=044d0404-33a9-4d53-8f60-091355cd106c","ios":"levelo://app?vid=044d0404-33a9-4d53-8f60-091355cd106c"},"vehicle_type_id":"4","last_reported":1718907098,"current_range_meters":4400,"station_id":"ce4bgih2rcd13ifvqba0","pricing_plan_id":"cebpf4jnsgd1na2vs0mg"},{"bike_id":"38e145df-3d89-43af-8e34-269f3f9d3479","system_id":"levelo_inurba_marseille","lat":43.290779,"lon":5.371482,"is_reserved":false,"is_disabled":false,"rental_uris":{"android":"levelo://app?vid=38e145df-3d89-43af-8e34-269f3f9d3479","ios":"levelo://app?vid=38e145df-3d89-43af-8e34-269f3f9d3479"},"vehicle_type_id":"4","last_reported":1718907098,"current_range_meters":10400,"station_id":"ce4bh5p2rcd13ifvqe4g","pricing_plan_id":"cebpf4jnsgd1na2vs0mg"},{"bike_id":"0aa76266-2d33-446b-a9bb-850bfc662df5","system_id":"levelo_inurba_marseille","lat":43.290779,"lon":5.371482,"is_reserved":false,"is_disabled":false,"rental_uris":{"android":"levelo://app?vid=0aa76266-2d33-446b-a9bb-850bfc662df5","ios":"levelo://app?vid=0aa76266-2d33-446b-a9bb-850bfc662df5"},"vehicle_type_id":"4","last_reported":1718907098,"current_range_meters":0,"station_id":"ce4bh5p2rcd13ifvqe4g","pricing_plan_id":"cebpf4jnsgd1na2vs0mg"},{"bike_id":"8eec7f29-71b9-42a8-9352-1b045d088019","system_id":"levelo_inurba_marseille","lat":43.290779,"lon":5.371482,"is_reserved":false,"is_disabled":false,"rental_uris":{"android":"levelo://app?vid=8eec7f29-71b9-42a8-9352-1b045d088019","ios":"levelo://app?vid=8eec7f29-71b9-42a8-9352-1b045d088019"},"vehicle_type_id":"4","last_reported":1718907098,"current_range_meters":1600,"station_id":"ce4bh5p2rcd13ifvqe4g","pricing_plan_id":"cebpf4jnsgd1na2vs0mg"},{"bike_id":"c30f8c57-ac70-4f5e-ac23-b72bbf79bd05","system_id":"levelo_inurba_marseille","lat":43.290624,"lon":5.359245,"is_reserved":false,"is_disabled":false,"rental_uris":{"android":"levelo://app?vid=c30f8c57-ac70-4f5e-ac23-b72bbf79bd05","ios":"levelo://app?vid=c30f8c57-ac70-4f5e-ac23-b72bbf79bd05"},"vehicle_type_id":"4","last_reported":1718907098,"current_range_meters":27200,"station_id":"ce4bha92rcd13ifvqeg0","pricing_plan_id":"cebpf4jnsgd1na2vs0mg"},{"bike_id":"79187d14-1e38-4cca-995d-147043d1e38d","system_id":"levelo_inurba_marseille","lat":43.29045,"lon":5.35913,"is_reserved":false,"is_disabled":false,"rental_uris":{"android":"levelo://app?vid=79187d14-1e38-4cca-995d-147043d1e38d","ios":"levelo://app?vid=79187d14-1e38-4cca-995d-147043d1e38d"},"vehicle_type_id":"4","last_reported":1718907098,"current_range_meters":31200,"station_id":"ce4bha92rcd13ifvqeg0","pricing_plan_id":"cebpf4jnsgd1na2vs0mg"},{"bike_id":"d6c69a0b-f9a0-4f57-9c05-398eaaaf86f9","system_id":"levelo_inurba_marseille","lat":43.29426,"lon":5.38617,"is_reserved":false,"is_disabled":false,"rental_uris":{"android":"levelo://app?vid=d6c69a0b-f9a0-4f57-9c05-398eaaaf86f9","ios":"levelo://app?vid=d6c69a0b-f9a0-4f57-9c05-398eaaaf86f9"},"vehicle_type_id":"4","last_reported":1718907098,"current_range_meters":0,"station_id":"ce4bh2h2rcd13ifvqdh0","pricing_plan_id":"cebpf4jnsgd1na2vs0mg"},{"bike_id":"82388374-596e-4fea-b122-5cbcc8784519","system_id":"levelo_inurba_marseille","lat":43.294153,"lon":5.386305,"is_reserved":false,"is_disabled":false,"rental_uris":{"android":"levelo://app?vid=82388374-596e-4fea-b122-5cbcc8784519","ios":"levelo://app?vid=82388374-596e-4fea-b122-5cbcc8784519"},"vehicle_type_id":"4","last_reported":1718907098,"current_range_meters":4400,"station_id":"ce4bh2h2rcd13ifvqdh0","pricing_plan_id":"cebpf4jnsgd1na2vs0mg"},{"bike_id":"d00d7f3f-a786-4043-a272-88c4ed8b3f38","system_id":"levelo_inurba_marseille","lat":43.289487,"lon":5.36641,"is_reserved":false,"is_disabled":false,"rental_uris":{"android":"levelo://app?vid=d00d7f3f-a786-4043-a272-88c4ed8b3f38","ios":"levelo://app?vid=d00d7f3f-a786-4043-a272-88c4ed8b3f38"},"vehicle_type_id":"4","last_reported":1718907098,"current_range_meters":15200,"station_id":"ce4bhap2rcd13ifvqek0","pricing_plan_id":"cebpf4jnsgd1na2vs0mg"},{"bike_id":"beb57026-5063-4964-882f-f8d8497a4008","system_id":"levelo_inurba_marseille","lat":43.294162,"lon":5.386292,"is_reserved":false,"is_disabled":false,"rental_uris":{"android":"levelo://app?vid=beb57026-5063-4964-882f-f8d8497a4008","ios":"levelo://app?vid=beb57026-5063-4964-882f-f8d8497a4008"},"vehicle_type_id":"4","last_reported":1718907098,"current_range_meters":16000,"station_id":"ce4bh2h2rcd13ifvqdh0","pricing_plan_id":"cebpf4jnsgd1na2vs0mg"},{"bike_id":"fb821706-73fd-4862-be24-6cbe196f7c3e","system_id":"levelo_inurba_marseille","lat":43.294153,"lon":5.386305,"is_reserved":false,"is_disabled":false,"rental_uris":{"android":"levelo://app?vid=fb821706-73fd-4862-be24-6cbe196f7c3e","ios":"levelo://app?vid=fb821706-73fd-4862-be24-6cbe196f7c3e"},"vehicle_type_id":"4","last_reported":1718907098,"current_range_meters":27600,"station_id":"ce4bh2h2rcd13ifvqdh0","pricing_plan_id":"cebpf4jnsgd1na2vs0mg"},{"bike_id":"61e593ea-bce6-46d2-bb4d-c02dd4e46f9b","system_id":"levelo_inurba_marseille","lat":43.289184,"lon":5.366408,"is_reserved":false,"is_disabled":false,"rental_uris":{"android":"levelo://app?vid=61e593ea-bce6-46d2-bb4d-c02dd4e46f9b","ios":"levelo://app?vid=61e593ea-bce6-46d2-bb4d-c02dd4e46f9b"},"vehicle_type_id":"4","last_reported":1718907098,"current_range_meters":0,"station_id":"ce4bhap2rcd13ifvqek0","pricing_plan_id":"cebpf4jnsgd1na2vs0mg"},{"bike_id":"f7b6ad43-fd6c-4ad0-92d0-d5d8775c9d1b","system_id":"levelo_inurba_marseille","lat":43.28943,"lon":5.36644,"is_reserved":false,"is_disabled":false,"rental_uris":{"android":"levelo://app?vid=f7b6ad43-fd6c-4ad0-92d0-d5d8775c9d1b","ios":"levelo://app?vid=f7b6ad43-fd6c-4ad0-92d0-d5d8775c9d1b"},"vehicle_type_id":"4","last_reported":1718907098,"current_range_meters":25200,"station_id":"ce4bhap2rcd13ifvqek0","pricing_plan_id":"cebpf4jnsgd1na2vs0mg"},{"bike_id":"4451aa73-0b0e-40f3-947a-21f4cab38ba6","system_id":"levelo_inurba_marseille","lat":43.289184,"lon":5.366408,"is_reserved":false,"is_disabled":false,"rental_uris":{"android":"levelo://app?vid=4451aa73-0b0e-40f3-947a-21f4cab38ba6","ios":"levelo://app?vid=4451aa73-0b0e-40f3-947a-21f4cab38ba6"},"vehicle_type_id":"4","last_reported":1718907098,"current_range_meters":22800,"station_id":"ce4bhap2rcd13ifvqek0","pricing_plan_id":"cebpf4jnsgd1na2vs0mg"},{"bike_id":"ffaddf68-8ad8-4c36-9801-696b5bd330f1","system_id":"levelo_inurba_marseille","lat":43.289468,"lon":5.363719,"is_reserved":false,"is_disabled":false,"rental_uris":{"android":"levelo://app?vid=ffaddf68-8ad8-4c36-9801-696b5bd330f1","ios":"levelo://app?vid=ffaddf68-8ad8-4c36-9801-696b5bd330f1"},"vehicle_type_id":"4","last_reported":1718907098,"current_range_meters":3600,"station_id":"ce4bhc92rcd13ifvqetg","pricing_plan_id":"cebpf4jnsgd1na2vs0mg"},{"bike_id":"84377b3f-eaf9-4f13-8643-f3fb294fff07","system_id":"levelo_inurba_marseille","lat":43.289184,"lon":5.366408,"is_reserved":false,"is_disabled":false,"rental_uris":{"android":"levelo://app?vid=84377b3f-eaf9-4f13-8643-f3fb294fff07","ios":"levelo://app?vid=84377b3f-eaf9-4f13-8643-f3fb294fff07"},"vehicle_type_id":"4","last_reported":1718907098,"current_range_meters":5200,"station_id":"ce4bhap2rcd13ifvqek0","pricing_plan_id":"cebpf4jnsgd1na2vs0mg"},{"bike_id":"5418ade4-8cfe-412a-a580-a5809bc73c39","system_id":"levelo_inurba_marseille","lat":43.289184,"lon":5.366408,"is_reserved":false,"is_disabled":false,"rental_uris":{"android":"levelo://app?vid=5418ade4-8cfe-412a-a580-a5809bc73c39","ios":"levelo://app?vid=5418ade4-8cfe-412a-a580-a5809bc73c39"},"vehicle_type_id":"4","last_reported":1718907098,"current_range_meters":11600,"station_id":"ce4bhap2rcd13ifvqek0","pricing_plan_id":"cebpf4jnsgd1na2vs0mg"},{"bike_id":"0e705924-3540-4ddc-ae2b-174dcd869df1","system_id":"levelo_inurba_marseille","lat":43.289184,"lon":5.366408,"is_reserved":false,"is_disabled":false,"rental_uris":{"android":"levelo://app?vid=0e705924-3540-4ddc-ae2b-174dcd869df1","ios":"levelo://app?vid=0e705924-3540-4ddc-ae2b-174dcd869df1"},"vehicle_type_id":"4","last_reported":1718907098,"current_range_meters":14000,"station_id":"ce4bhap2rcd13ifvqek0","pricing_plan_id":"cebpf4jnsgd1na2vs0mg"},{"bike_id":"ffab7a6c-e485-4bcf-843f-4866d3a9588a","system_id":"levelo_inurba_marseille","lat":43.289184,"lon":5.366408,"is_reserved":false,"is_disabled":false,"rental_uris":{"android":"levelo://app?vid=ffab7a6c-e485-4bcf-843f-4866d3a9588a","ios":"levelo://app?vid=ffab7a6c-e485-4bcf-843f-4866d3a9588a"},"vehicle_type_id":"4","last_reported":1718907098,"current_range_meters":6800,"station_id":"ce4bhap2rcd13ifvqek0","pricing_plan_id":"cebpf4jnsgd1na2vs0mg"},{"bike_id":"e6c9f7cc-7332-4005-a2c3-b9d017585cc3","system_id":"levelo_inurba_marseille","lat":43.289184,"lon":5.366408,"is_reserved":false,"is_disabled":false,"rental_uris":{"android":"levelo://app?vid=e6c9f7cc-7332-4005-a2c3-b9d017585cc3","ios":"levelo://app?vid=e6c9f7cc-7332-4005-a2c3-b9d017585cc3"},"vehicle_type_id":"4","last_reported":1718907098,"current_range_meters":0,"station_id":"ce4bhap2rcd13ifvqek0","pricing_plan_id":"cebpf4jnsgd1na2vs0mg"},{"bike_id":"4576535e-ae45-4731-a28a-d56c6157584f","system_id":"levelo_inurba_marseille","lat":43.28936,"lon":5.36636,"is_reserved":false,"is_disabled":false,"rental_uris":{"android":"levelo://app?vid=4576535e-ae45-4731-a28a-d56c6157584f","ios":"levelo://app?vid=4576535e-ae45-4731-a28a-d56c6157584f"},"vehicle_type_id":"4","last_reported":1718907098,"current_range_meters":0,"station_id":"ce4bhap2rcd13ifvqek0","pricing_plan_id":"cebpf4jnsgd1na2vs0mg"},{"bike_id":"1b645a24-5761-4f58-b914-5b862d09cc22","system_id":"levelo_inurba_marseille","lat":43.289184,"lon":5.366408,"is_reserved":false,"is_disabled":false,"rental_uris":{"android":"levelo://app?vid=1b645a24-5761-4f58-b914-5b862d09cc22","ios":"levelo://app?vid=1b645a24-5761-4f58-b914-5b862d09cc22"},"vehicle_type_id":"4","last_reported":1718907098,"current_range_meters":22800,"station_id":"ce4bhap2rcd13ifvqek0","pricing_plan_id":"cebpf4jnsgd1na2vs0mg"},{"bike_id":"343eed2e-ab00-4443-912e-07fc62ace57d","system_id":"levelo_inurba_marseille","lat":43.290327,"lon":5.375711,"is_reserved":false,"is_disabled":false,"rental_uris":{"android":"levelo://app?vid=343eed2e-ab00-4443-912e-07fc62ace57d","ios":"levelo://app?vid=343eed2e-ab00-4443-912e-07fc62ace57d"},"vehicle_type_id":"4","last_reported":1718907098,"current_range_meters":30000,"station_id":"ce4bh692rcd13ifvqe90","pricing_plan_id":"cebpf4jnsgd1na2vs0mg"},{"bike_id":"135cc199-7613-4b6c-ba9a-ead34dba0b0a","system_id":"levelo_inurba_marseille","lat":43.289468,"lon":5.363719,"is_reserved":false,"is_disabled":false,"rental_uris":{"android":"levelo://app?vid=135cc199-7613-4b6c-ba9a-ead34dba0b0a","ios":"levelo://app?vid=135cc199-7613-4b6c-ba9a-ead34dba0b0a"},"vehicle_type_id":"4","last_reported":1718907098,"current_range_meters":0,"station_id":"ce4bhc92rcd13ifvqetg","pricing_plan_id":"cebpf4jnsgd1na2vs0mg"},{"bike_id":"fb49a28f-77f7-4580-8c44-1fa579928db6","system_id":"levelo_inurba_marseille","lat":43.289468,"lon":5.363719,"is_reserved":false,"is_disabled":false,"rental_uris":{"android":"levelo://app?vid=fb49a28f-77f7-4580-8c44-1fa579928db6","ios":"levelo://app?vid=fb49a28f-77f7-4580-8c44-1fa579928db6"},"vehicle_type_id":"4","last_reported":1718907098,"current_range_meters":1200,"station_id":"ce4bhc92rcd13ifvqetg","pricing_plan_id":"cebpf4jnsgd1na2vs0mg"},{"bike_id":"519700bc-6fb3-4eb9-9100-8b25257df8a7","system_id":"levelo_inurba_marseille","lat":43.289468,"lon":5.363719,"is_reserved":false,"is_disabled":false,"rental_uris":{"android":"levelo://app?vid=519700bc-6fb3-4eb9-9100-8b25257df8a7","ios":"levelo://app?vid=519700bc-6fb3-4eb9-9100-8b25257df8a7"},"vehicle_type_id":"4","last_reported":1718907098,"current_range_meters":14800,"station_id":"ce4bhc92rcd13ifvqetg","pricing_plan_id":"cebpf4jnsgd1na2vs0mg"},{"bike_id":"5042770f-6a8d-4063-9e0b-5f97e5b3fd73","system_id":"levelo_inurba_marseille","lat":43.290247,"lon":5.357297,"is_reserved":false,"is_disabled":false,"rental_uris":{"android":"levelo://app?vid=5042770f-6a8d-4063-9e0b-5f97e5b3fd73","ios":"levelo://app?vid=5042770f-6a8d-4063-9e0b-5f97e5b3fd73"},"vehicle_type_id":"4","last_reported":1718907098,"current_range_meters":8800,"station_id":"ce4bhb92rcd13ifvqen0","pricing_plan_id":"cebpf4jnsgd1na2vs0mg"},{"bike_id":"a4aa734d-92cc-4773-b5c8-8e9941b1d738","system_id":"levelo_inurba_marseille","lat":43.289468,"lon":5.363719,"is_reserved":false,"is_disabled":false,"rental_uris":{"android":"levelo://app?vid=a4aa734d-92cc-4773-b5c8-8e9941b1d738","ios":"levelo://app?vid=a4aa734d-92cc-4773-b5c8-8e9941b1d738"},"vehicle_type_id":"4","last_reported":1718907098,"current_range_meters":23200,"station_id":"ce4bhc92rcd13ifvqetg","pricing_plan_id":"cebpf4jnsgd1na2vs0mg"},{"bike_id":"946fd7a7-bd5d-46ab-bdea-0946231a9cd9","system_id":"levelo_inurba_marseille","lat":43.292642,"lon":5.384254,"is_reserved":false,"is_disabled":false,"rental_uris":{"android":"levelo://app?vid=946fd7a7-bd5d-46ab-bdea-0946231a9cd9","ios":"levelo://app?vid=946fd7a7-bd5d-46ab-bdea-0946231a9cd9"},"vehicle_type_id":"4","last_reported":1718907098,"current_range_meters":22000,"station_id":"ce4bh692rcd13ifvqea0","pricing_plan_id":"cebpf4jnsgd1na2vs0mg"},{"bike_id":"2f1a954a-c25b-499b-ac1e-4c11cd1bd188","system_id":"levelo_inurba_marseille","lat":43.292642,"lon":5.384254,"is_reserved":false,"is_disabled":false,"rental_uris":{"android":"levelo://app?vid=2f1a954a-c25b-499b-ac1e-4c11cd1bd188","ios":"levelo://app?vid=2f1a954a-c25b-499b-ac1e-4c11cd1bd188"},"vehicle_type_id":"4","last_reported":1718907098,"current_range_meters":19200,"station_id":"ce4bh692rcd13ifvqea0","pricing_plan_id":"cebpf4jnsgd1na2vs0mg"},{"bike_id":"8ed61d99-bc59-4ea0-95bb-63e04ca94fe2","system_id":"levelo_inurba_marseille","lat":43.292644,"lon":5.384257,"is_reserved":false,"is_disabled":false,"rental_uris":{"android":"levelo://app?vid=8ed61d99-bc59-4ea0-95bb-63e04ca94fe2","ios":"levelo://app?vid=8ed61d99-bc59-4ea0-95bb-63e04ca94fe2"},"vehicle_type_id":"4","last_reported":1718907098,"current_range_meters":7600,"station_id":"ce4bh692rcd13ifvqea0","pricing_plan_id":"cebpf4jnsgd1na2vs0mg"},{"bike_id":"f05f95e1-e051-4017-a6ff-7a13f29c19e3","system_id":"levelo_inurba_marseille","lat":43.292642,"lon":5.384254,"is_reserved":false,"is_disabled":false,"rental_uris":{"android":"levelo://app?vid=f05f95e1-e051-4017-a6ff-7a13f29c19e3","ios":"levelo://app?vid=f05f95e1-e051-4017-a6ff-7a13f29c19e3"},"vehicle_type_id":"4","last_reported":1718907098,"current_range_meters":4000,"station_id":"ce4bh692rcd13ifvqea0","pricing_plan_id":"cebpf4jnsgd1na2vs0mg"},{"bike_id":"de4f7bc1-ea2b-42c0-ad19-a460f7bc81fc","system_id":"levelo_inurba_marseille","lat":43.292642,"lon":5.384254,"is_reserved":false,"is_disabled":false,"rental_uris":{"android":"levelo://app?vid=de4f7bc1-ea2b-42c0-ad19-a460f7bc81fc","ios":"levelo://app?vid=de4f7bc1-ea2b-42c0-ad19-a460f7bc81fc"},"vehicle_type_id":"4","last_reported":1718907098,"current_range_meters":27200,"station_id":"ce4bh692rcd13ifvqea0","pricing_plan_id":"cebpf4jnsgd1na2vs0mg"},{"bike_id":"be3c60ed-0e5f-45e4-95a1-8eb622c04f66","system_id":"levelo_inurba_marseille","lat":43.29271,"lon":5.38445,"is_reserved":false,"is_disabled":false,"rental_uris":{"android":"levelo://app?vid=be3c60ed-0e5f-45e4-95a1-8eb622c04f66","ios":"levelo://app?vid=be3c60ed-0e5f-45e4-95a1-8eb622c04f66"},"vehicle_type_id":"4","last_reported":1718907098,"current_range_meters":25600,"station_id":"ce4bh692rcd13ifvqea0","pricing_plan_id":"cebpf4jnsgd1na2vs0mg"},{"bike_id":"2f8a801b-5dbe-4a3f-b687-8753cc690254","system_id":"levelo_inurba_marseille","lat":43.292642,"lon":5.384254,"is_reserved":false,"is_disabled":false,"rental_uris":{"android":"levelo://app?vid=2f8a801b-5dbe-4a3f-b687-8753cc690254","ios":"levelo://app?vid=2f8a801b-5dbe-4a3f-b687-8753cc690254"},"vehicle_type_id":"4","last_reported":1718907098,"current_range_meters":28400,"station_id":"ce4bh692rcd13ifvqea0","pricing_plan_id":"cebpf4jnsgd1na2vs0mg"},{"bike_id":"77992b8e-ff84-4b20-9ae9-5ab5ce467df3","system_id":"levelo_inurba_marseille","lat":43.29267,"lon":5.38441,"is_reserved":false,"is_disabled":false,"rental_uris":{"android":"levelo://app?vid=77992b8e-ff84-4b20-9ae9-5ab5ce467df3","ios":"levelo://app?vid=77992b8e-ff84-4b20-9ae9-5ab5ce467df3"},"vehicle_type_id":"4","last_reported":1718907098,"current_range_meters":26000,"station_id":"ce4bh692rcd13ifvqea0","pricing_plan_id":"cebpf4jnsgd1na2vs0mg"},{"bike_id":"c3675498-c0e0-4ddf-b874-8d82e3f6bdc9","system_id":"levelo_inurba_marseille","lat":43.292642,"lon":5.384254,"is_reserved":false,"is_disabled":false,"rental_uris":{"android":"levelo://app?vid=c3675498-c0e0-4ddf-b874-8d82e3f6bdc9","ios":"levelo://app?vid=c3675498-c0e0-4ddf-b874-8d82e3f6bdc9"},"vehicle_type_id":"4","last_reported":1718907098,"current_range_meters":3600,"station_id":"ce4bh692rcd13ifvqea0","pricing_plan_id":"cebpf4jnsgd1na2vs0mg"},{"bike_id":"df79e288-d69e-4dec-821b-87aff043d08e","system_id":"levelo_inurba_marseille","lat":43.292642,"lon":5.384254,"is_reserved":false,"is_disabled":false,"rental_uris":{"android":"levelo://app?vid=df79e288-d69e-4dec-821b-87aff043d08e","ios":"levelo://app?vid=df79e288-d69e-4dec-821b-87aff043d08e"},"vehicle_type_id":"4","last_reported":1718907098,"current_range_meters":6400,"station_id":"ce4bh692rcd13ifvqea0","pricing_plan_id":"cebpf4jnsgd1na2vs0mg"},{"bike_id":"a83e389c-c669-47cf-9aa9-8780dd6e8fde","system_id":"levelo_inurba_marseille","lat":43.29269,"lon":5.38449,"is_reserved":false,"is_disabled":false,"rental_uris":{"android":"levelo://app?vid=a83e389c-c669-47cf-9aa9-8780dd6e8fde","ios":"levelo://app?vid=a83e389c-c669-47cf-9aa9-8780dd6e8fde"},"vehicle_type_id":"4","last_reported":1718907098,"current_range_meters":12400,"station_id":"ce4bh692rcd13ifvqea0","pricing_plan_id":"cebpf4jnsgd1na2vs0mg"},{"bike_id":"e096ab0d-dfc8-4827-a05d-d32c21512fcb","system_id":"levelo_inurba_marseille","lat":43.292644,"lon":5.384257,"is_reserved":false,"is_disabled":false,"rental_uris":{"android":"levelo://app?vid=e096ab0d-dfc8-4827-a05d-d32c21512fcb","ios":"levelo://app?vid=e096ab0d-dfc8-4827-a05d-d32c21512fcb"},"vehicle_type_id":"4","last_reported":1718907098,"current_range_meters":14000,"station_id":"ce4bh692rcd13ifvqea0","pricing_plan_id":"cebpf4jnsgd1na2vs0mg"},{"bike_id":"e176e6de-f78b-483a-9749-2423724d9ac1","system_id":"levelo_inurba_marseille","lat":43.292642,"lon":5.384254,"is_reserved":false,"is_disabled":false,"rental_uris":{"android":"levelo://app?vid=e176e6de-f78b-483a-9749-2423724d9ac1","ios":"levelo://app?vid=e176e6de-f78b-483a-9749-2423724d9ac1"},"vehicle_type_id":"4","last_reported":1718907098,"current_range_meters":2800,"station_id":"ce4bh692rcd13ifvqea0","pricing_plan_id":"cebpf4jnsgd1na2vs0mg"},{"bike_id":"39267024-9e1d-493e-b55c-a2b1a807f373","system_id":"levelo_inurba_marseille","lat":43.292644,"lon":5.384257,"is_reserved":false,"is_disabled":false,"rental_uris":{"android":"levelo://app?vid=39267024-9e1d-493e-b55c-a2b1a807f373","ios":"levelo://app?vid=39267024-9e1d-493e-b55c-a2b1a807f373"},"vehicle_type_id":"4","last_reported":1718907098,"current_range_meters":31200,"station_id":"ce4bh692rcd13ifvqea0","pricing_plan_id":"cebpf4jnsgd1na2vs0mg"},{"bike_id":"0f523242-38c8-4dda-97bf-ff46f116d2d1","system_id":"levelo_inurba_marseille","lat":43.29261,"lon":5.38442,"is_reserved":false,"is_disabled":false,"rental_uris":{"android":"levelo://app?vid=0f523242-38c8-4dda-97bf-ff46f116d2d1","ios":"levelo://app?vid=0f523242-38c8-4dda-97bf-ff46f116d2d1"},"vehicle_type_id":"4","last_reported":1718907098,"current_range_meters":24400,"station_id":"ce4bh692rcd13ifvqea0","pricing_plan_id":"cebpf4jnsgd1na2vs0mg"},{"bike_id":"bcc62547-2759-4bd8-9acd-b9b5bcce1fd6","system_id":"levelo_inurba_marseille","lat":43.292618,"lon":5.384494,"is_reserved":false,"is_disabled":false,"rental_uris":{"android":"levelo://app?vid=bcc62547-2759-4bd8-9acd-b9b5bcce1fd6","ios":"levelo://app?vid=bcc62547-2759-4bd8-9acd-b9b5bcce1fd6"},"vehicle_type_id":"4","last_reported":1718907098,"current_range_meters":31200,"station_id":"ce4bh692rcd13ifvqea0","pricing_plan_id":"cebpf4jnsgd1na2vs0mg"},{"bike_id":"1a62b0e3-718b-43fe-9625-bfa3851227cf","system_id":"levelo_inurba_marseille","lat":43.292644,"lon":5.384257,"is_reserved":false,"is_disabled":false,"rental_uris":{"android":"levelo://app?vid=1a62b0e3-718b-43fe-9625-bfa3851227cf","ios":"levelo://app?vid=1a62b0e3-718b-43fe-9625-bfa3851227cf"},"vehicle_type_id":"4","last_reported":1718907098,"current_range_meters":31200,"station_id":"ce4bh692rcd13ifvqea0","pricing_plan_id":"cebpf4jnsgd1na2vs0mg"},{"bike_id":"a8f7b765-e3bd-4c2b-bbd8-3582e0eb2228","system_id":"levelo_inurba_marseille","lat":43.292644,"lon":5.384257,"is_reserved":false,"is_disabled":false,"rental_uris":{"android":"levelo://app?vid=a8f7b765-e3bd-4c2b-bbd8-3582e0eb2228","ios":"levelo://app?vid=a8f7b765-e3bd-4c2b-bbd8-3582e0eb2228"},"vehicle_type_id":"4","last_reported":1718907098,"current_range_meters":31200,"station_id":"ce4bh692rcd13ifvqea0","pricing_plan_id":"cebpf4jnsgd1na2vs0mg"},{"bike_id":"2f094c43-7ee9-4046-8f49-82fbdc364d8a","system_id":"levelo_inurba_marseille","lat":43.292642,"lon":5.384254,"is_reserved":false,"is_disabled":false,"rental_uris":{"android":"levelo://app?vid=2f094c43-7ee9-4046-8f49-82fbdc364d8a","ios":"levelo://app?vid=2f094c43-7ee9-4046-8f49-82fbdc364d8a"},"vehicle_type_id":"4","last_reported":1718907098,"current_range_meters":31200,"station_id":"ce4bh692rcd13ifvqea0","pricing_plan_id":"cebpf4jnsgd1na2vs0mg"},{"bike_id":"aa3e1790-77c5-4af3-a2f8-d3669b5f5dfa","system_id":"levelo_inurba_marseille","lat":43.29257,"lon":5.38454,"is_reserved":false,"is_disabled":false,"rental_uris":{"android":"levelo://app?vid=aa3e1790-77c5-4af3-a2f8-d3669b5f5dfa","ios":"levelo://app?vid=aa3e1790-77c5-4af3-a2f8-d3669b5f5dfa"},"vehicle_type_id":"4","last_reported":1718907098,"current_range_meters":14800,"station_id":"ce4bh692rcd13ifvqea0","pricing_plan_id":"cebpf4jnsgd1na2vs0mg"},{"bike_id":"0142b485-148a-4bbf-94e5-0f9b6bf52632","system_id":"levelo_inurba_marseille","lat":43.330442,"lon":5.389148,"is_reserved":false,"is_disabled":false,"rental_uris":{"android":"levelo://app?vid=0142b485-148a-4bbf-94e5-0f9b6bf52632","ios":"levelo://app?vid=0142b485-148a-4bbf-94e5-0f9b6bf52632"},"vehicle_type_id":"4","last_reported":1718907098,"current_range_meters":24400,"station_id":"ce4bhr92rcd13ifvqhrg","pricing_plan_id":"cebpf4jnsgd1na2vs0mg"},{"bike_id":"71fb7e91-6422-4944-8427-1dc520ad846b","system_id":"levelo_inurba_marseille","lat":43.290995,"lon":5.381361,"is_reserved":false,"is_disabled":false,"rental_uris":{"android":"levelo://app?vid=71fb7e91-6422-4944-8427-1dc520ad846b","ios":"levelo://app?vid=71fb7e91-6422-4944-8427-1dc520ad846b"},"vehicle_type_id":"4","last_reported":1718907098,"current_range_meters":400,"station_id":"ce4bh512rcd13ifvqe2g","pricing_plan_id":"cebpf4jnsgd1na2vs0mg"},{"bike_id":"5ba85aa4-afa8-46fb-ade3-0924575ed0c7","system_id":"levelo_inurba_marseille","lat":43.290995,"lon":5.381361,"is_reserved":false,"is_disabled":false,"rental_uris":{"android":"levelo://app?vid=5ba85aa4-afa8-46fb-ade3-0924575ed0c7","ios":"levelo://app?vid=5ba85aa4-afa8-46fb-ade3-0924575ed0c7"},"vehicle_type_id":"4","last_reported":1718907098,"current_range_meters":21600,"station_id":"ce4bh512rcd13ifvqe2g","pricing_plan_id":"cebpf4jnsgd1na2vs0mg"},{"bike_id":"1529575d-3c24-4053-9dc4-3fc753c20a3e","system_id":"levelo_inurba_marseille","lat":43.33022,"lon":5.39039,"is_reserved":false,"is_disabled":false,"rental_uris":{"android":"levelo://app?vid=1529575d-3c24-4053-9dc4-3fc753c20a3e","ios":"levelo://app?vid=1529575d-3c24-4053-9dc4-3fc753c20a3e"},"vehicle_type_id":"4","last_reported":1718907098,"current_range_meters":8800,"station_id":"ce4bhr92rcd13ifvqhrg","pricing_plan_id":"cebpf4jnsgd1na2vs0mg"},{"bike_id":"d3980ebf-7d78-4af5-82c0-99e35061ff74","system_id":"levelo_inurba_marseille","lat":43.330442,"lon":5.389148,"is_reserved":false,"is_disabled":false,"rental_uris":{"android":"levelo://app?vid=d3980ebf-7d78-4af5-82c0-99e35061ff74","ios":"levelo://app?vid=d3980ebf-7d78-4af5-82c0-99e35061ff74"},"vehicle_type_id":"4","last_reported":1718907098,"current_range_meters":5600,"station_id":"ce4bhr92rcd13ifvqhrg","pricing_plan_id":"cebpf4jnsgd1na2vs0mg"},{"bike_id":"64c944fd-0329-41db-aaf0-e893bf32001a","system_id":"levelo_inurba_marseille","lat":43.33024,"lon":5.39044,"is_reserved":false,"is_disabled":false,"rental_uris":{"android":"levelo://app?vid=64c944fd-0329-41db-aaf0-e893bf32001a","ios":"levelo://app?vid=64c944fd-0329-41db-aaf0-e893bf32001a"},"vehicle_type_id":"4","last_reported":1718907098,"current_range_meters":17600,"station_id":"ce4bhr92rcd13ifvqhrg","pricing_plan_id":"cebpf4jnsgd1na2vs0mg"},{"bike_id":"d74477d0-536a-4073-9a89-d266204d9f19","system_id":"levelo_inurba_marseille","lat":43.28856,"lon":5.358371,"is_reserved":false,"is_disabled":false,"rental_uris":{"android":"levelo://app?vid=d74477d0-536a-4073-9a89-d266204d9f19","ios":"levelo://app?vid=d74477d0-536a-4073-9a89-d266204d9f19"},"vehicle_type_id":"4","last_reported":1718907098,"current_range_meters":0,"station_id":"ce4bhb12rcd13ifvqem0","pricing_plan_id":"cebpf4jnsgd1na2vs0mg"},{"bike_id":"bc334a05-cbd3-4c6a-aee4-1d5033ff1153","system_id":"levelo_inurba_marseille","lat":43.28856,"lon":5.358371,"is_reserved":false,"is_disabled":false,"rental_uris":{"android":"levelo://app?vid=bc334a05-cbd3-4c6a-aee4-1d5033ff1153","ios":"levelo://app?vid=bc334a05-cbd3-4c6a-aee4-1d5033ff1153"},"vehicle_type_id":"4","last_reported":1718907098,"current_range_meters":2000,"station_id":"ce4bhb12rcd13ifvqem0","pricing_plan_id":"cebpf4jnsgd1na2vs0mg"},{"bike_id":"c7aee36e-0933-4f53-95b6-9ae0e6c070c2","system_id":"levelo_inurba_marseille","lat":43.28856,"lon":5.358371,"is_reserved":false,"is_disabled":false,"rental_uris":{"android":"levelo://app?vid=c7aee36e-0933-4f53-95b6-9ae0e6c070c2","ios":"levelo://app?vid=c7aee36e-0933-4f53-95b6-9ae0e6c070c2"},"vehicle_type_id":"4","last_reported":1718907098,"current_range_meters":3200,"station_id":"ce4bhb12rcd13ifvqem0","pricing_plan_id":"cebpf4jnsgd1na2vs0mg"},{"bike_id":"6db3b4da-f5a5-4de2-80ef-f51e3a051b86","system_id":"levelo_inurba_marseille","lat":43.288601,"lon":5.35853,"is_reserved":false,"is_disabled":false,"rental_uris":{"android":"levelo://app?vid=6db3b4da-f5a5-4de2-80ef-f51e3a051b86","ios":"levelo://app?vid=6db3b4da-f5a5-4de2-80ef-f51e3a051b86"},"vehicle_type_id":"4","last_reported":1718907098,"current_range_meters":31200,"station_id":"ce4bhb12rcd13ifvqem0","pricing_plan_id":"cebpf4jnsgd1na2vs0mg"},{"bike_id":"cf4c993d-d6e3-4e24-9f38-4de325b5afec","system_id":"levelo_inurba_marseille","lat":43.290094,"lon":5.381264,"is_reserved":false,"is_disabled":false,"rental_uris":{"android":"levelo://app?vid=cf4c993d-d6e3-4e24-9f38-4de325b5afec","ios":"levelo://app?vid=cf4c993d-d6e3-4e24-9f38-4de325b5afec"},"vehicle_type_id":"4","last_reported":1718907098,"current_range_meters":25200,"station_id":"ce4bh4p2rcd13ifvqe1g","pricing_plan_id":"cebpf4jnsgd1na2vs0mg"},{"bike_id":"4516d8f5-3920-4c62-99b3-d83b43be48b9","system_id":"levelo_inurba_marseille","lat":43.28856,"lon":5.358371,"is_reserved":false,"is_disabled":false,"rental_uris":{"android":"levelo://app?vid=4516d8f5-3920-4c62-99b3-d83b43be48b9","ios":"levelo://app?vid=4516d8f5-3920-4c62-99b3-d83b43be48b9"},"vehicle_type_id":"4","last_reported":1718907098,"current_range_meters":2800,"station_id":"ce4bhb12rcd13ifvqem0","pricing_plan_id":"cebpf4jnsgd1na2vs0mg"},{"bike_id":"ec70652e-6931-44e8-aa9a-ef1e1b31b3ba","system_id":"levelo_inurba_marseille","lat":43.312609,"lon":5.401662,"is_reserved":false,"is_disabled":false,"rental_uris":{"android":"levelo://app?vid=ec70652e-6931-44e8-aa9a-ef1e1b31b3ba","ios":"levelo://app?vid=ec70652e-6931-44e8-aa9a-ef1e1b31b3ba"},"vehicle_type_id":"4","last_reported":1718907098,"current_range_meters":5600,"station_id":"ce4bh092rcd13ifvqd30","pricing_plan_id":"cebpf4jnsgd1na2vs0mg"},{"bike_id":"ee23d7a5-234a-420e-8c7d-b5633a658d2c","system_id":"levelo_inurba_marseille","lat":43.312609,"lon":5.401662,"is_reserved":false,"is_disabled":false,"rental_uris":{"android":"levelo://app?vid=ee23d7a5-234a-420e-8c7d-b5633a658d2c","ios":"levelo://app?vid=ee23d7a5-234a-420e-8c7d-b5633a658d2c"},"vehicle_type_id":"4","last_reported":1718907098,"current_range_meters":26800,"station_id":"ce4bh092rcd13ifvqd30","pricing_plan_id":"cebpf4jnsgd1na2vs0mg"},{"bike_id":"4a19fca7-e61c-4e46-9165-ea91cb1fde63","system_id":"levelo_inurba_marseille","lat":43.312609,"lon":5.401662,"is_reserved":false,"is_disabled":false,"rental_uris":{"android":"levelo://app?vid=4a19fca7-e61c-4e46-9165-ea91cb1fde63","ios":"levelo://app?vid=4a19fca7-e61c-4e46-9165-ea91cb1fde63"},"vehicle_type_id":"4","last_reported":1718907098,"current_range_meters":0,"station_id":"ce4bh092rcd13ifvqd30","pricing_plan_id":"cebpf4jnsgd1na2vs0mg"},{"bike_id":"df8b96b9-c0b4-439f-be93-729c3b253f59","system_id":"levelo_inurba_marseille","lat":43.309371,"lon":5.401449,"is_reserved":false,"is_disabled":false,"rental_uris":{"android":"levelo://app?vid=df8b96b9-c0b4-439f-be93-729c3b253f59","ios":"levelo://app?vid=df8b96b9-c0b4-439f-be93-729c3b253f59"},"vehicle_type_id":"4","last_reported":1718907098,"current_range_meters":12400,"station_id":"ce4bgvp2rcd13ifvqct0","pricing_plan_id":"cebpf4jnsgd1na2vs0mg"},{"bike_id":"e7b5e71c-e646-4f58-80f6-241a139df664","system_id":"levelo_inurba_marseille","lat":43.309233,"lon":5.401488,"is_reserved":false,"is_disabled":false,"rental_uris":{"android":"levelo://app?vid=e7b5e71c-e646-4f58-80f6-241a139df664","ios":"levelo://app?vid=e7b5e71c-e646-4f58-80f6-241a139df664"},"vehicle_type_id":"4","last_reported":1718907098,"current_range_meters":0,"station_id":"ce4bgvp2rcd13ifvqct0","pricing_plan_id":"cebpf4jnsgd1na2vs0mg"},{"bike_id":"13f05b94-31e6-49fc-9603-4bf7cf7224f5","system_id":"levelo_inurba_marseille","lat":43.306412,"lon":5.401035,"is_reserved":false,"is_disabled":false,"rental_uris":{"android":"levelo://app?vid=13f05b94-31e6-49fc-9603-4bf7cf7224f5","ios":"levelo://app?vid=13f05b94-31e6-49fc-9603-4bf7cf7224f5"},"vehicle_type_id":"4","last_reported":1718907098,"current_range_meters":0,"station_id":"ce4bh112rcd13ifvqda0","pricing_plan_id":"cebpf4jnsgd1na2vs0mg"},{"bike_id":"44403dd3-4140-48d6-a312-c9228e77ffc1","system_id":"levelo_inurba_marseille","lat":43.306412,"lon":5.401035,"is_reserved":false,"is_disabled":false,"rental_uris":{"android":"levelo://app?vid=44403dd3-4140-48d6-a312-c9228e77ffc1","ios":"levelo://app?vid=44403dd3-4140-48d6-a312-c9228e77ffc1"},"vehicle_type_id":"4","last_reported":1718907098,"current_range_meters":400,"station_id":"ce4bh112rcd13ifvqda0","pricing_plan_id":"cebpf4jnsgd1na2vs0mg"},{"bike_id":"ae7240e9-ead1-48d1-b16f-4e7516769db1","system_id":"levelo_inurba_marseille","lat":43.301117,"lon":5.398795,"is_reserved":false,"is_disabled":false,"rental_uris":{"android":"levelo://app?vid=ae7240e9-ead1-48d1-b16f-4e7516769db1","ios":"levelo://app?vid=ae7240e9-ead1-48d1-b16f-4e7516769db1"},"vehicle_type_id":"4","last_reported":1718907098,"current_range_meters":1600,"station_id":"ce4bh0h2rcd13ifvqd40","pricing_plan_id":"cebpf4jnsgd1na2vs0mg"},{"bike_id":"0fc2d043-e35e-4e24-95b8-18e1fe6245a2","system_id":"levelo_inurba_marseille","lat":43.309038,"lon":5.396546,"is_reserved":false,"is_disabled":false,"rental_uris":{"android":"levelo://app?vid=0fc2d043-e35e-4e24-95b8-18e1fe6245a2","ios":"levelo://app?vid=0fc2d043-e35e-4e24-95b8-18e1fe6245a2"},"vehicle_type_id":"4","last_reported":1718907098,"current_range_meters":14400,"station_id":"ce4bh012rcd13ifvqcv0","pricing_plan_id":"cebpf4jnsgd1na2vs0mg"},{"bike_id":"f7b66d56-9b29-4805-8508-74b94dcbff56","system_id":"levelo_inurba_marseille","lat":43.301117,"lon":5.398795,"is_reserved":false,"is_disabled":false,"rental_uris":{"android":"levelo://app?vid=f7b66d56-9b29-4805-8508-74b94dcbff56","ios":"levelo://app?vid=f7b66d56-9b29-4805-8508-74b94dcbff56"},