{"last_updated":1730416201,"ttl":60,"version":"2.2","data":{"bikes":[{"bike_id":"1a29b063-4603-4c9d-ba17-896abbfe3428","system_id":"levelo_inurba_marseille","lat":43.27655,"lon":5.388881,"is_reserved":false,"is_disabled":false,"rental_uris":{"android":"levelo://app?vid=1a29b063-4603-4c9d-ba17-896abbfe3428","ios":"levelo://app?vid=1a29b063-4603-4c9d-ba17-896abbfe3428"},"vehicle_type_id":"4","last_reported":1730416201,"current_range_meters":30000,"station_id":"ce4bhi12rcd13ifvqfo0","pricing_plan_id":"cebpf4jnsgd1na2vs0mg"},{"bike_id":"4619a927-69f6-4e40-aea7-50e83b0fe185","system_id":"levelo_inurba_marseille","lat":43.32483,"lon":5.36588,"is_reserved":false,"is_disabled":false,"rental_uris":{"android":"levelo://app?vid=4619a927-69f6-4e40-aea7-50e83b0fe185","ios":"levelo://app?vid=4619a927-69f6-4e40-aea7-50e83b0fe185"},"vehicle_type_id":"4","last_reported":1730416201,"current_range_meters":12400,"station_id":"ce4bhs12rcd13ifvqhvg","pricing_plan_id":"cebpf4jnsgd1na2vs0mg"},{"bike_id":"c09d6211-a761-4d74-b22a-b4f5b52eb9ff","system_id":"levelo_inurba_marseille","lat":43.24664,"lon":5.38161,"is_reserved":false,"is_disabled":false,"rental_uris":{"android":"levelo://app?vid=c09d6211-a761-4d74-b22a-b4f5b52eb9ff","ios":"levelo://app?vid=c09d6211-a761-4d74-b22a-b4f5b52eb9ff"},"vehicle_type_id":"4","last_reported":1730416201,"current_range_meters":37600,"station_id":"ce4bhih2rcd13ifvqfr0","pricing_plan_id":"cebpf4jnsgd1na2vs0mg"},{"bike_id":"e3924428-a085-40f6-a0c3-a6a5f32fffb8","system_id":"levelo_inurba_marseille","lat":43.28703,"lon":5.39988,"is_reserved":false,"is_disabled":false,"rental_uris":{"android":"levelo://app?vid=e3924428-a085-40f6-a0c3-a6a5f32fffb8","ios":"levelo://app?vid=e3924428-a085-40f6-a0c3-a6a5f32fffb8"},"vehicle_type_id":"4","last_reported":1730416201,"current_range_meters":11200,"station_id":"ce4bho92rcd13ifvqh3g","pricing_plan_id":"cebpf4jnsgd1na2vs0mg"},{"bike_id":"5c908290-3b11-4f6a-9aaa-f0e4672a623e","system_id":"levelo_inurba_marseille","lat":43.29875,"lon":5.39735,"is_reserved":false,"is_disabled":false,"rental_uris":{"android":"levelo://app?vid=5c908290-3b11-4f6a-9aaa-f0e4672a623e","ios":"levelo://app?vid=5c908290-3b11-4f6a-9aaa-f0e4672a623e"},"vehicle_type_id":"4","last_reported":1730416201,"current_range_meters":32400,"station_id":"ce4bh0h2rcd13ifvqd50","pricing_plan_id":"cebpf4jnsgd1na2vs0mg"},{"bike_id":"b564d8bc-2b59-43dd-ad25-39bd7cd1e42e","system_id":"levelo_inurba_marseille","lat":43.31718,"lon":5.37768,"is_reserved":false,"is_disabled":false,"rental_uris":{"android":"levelo://app?vid=b564d8bc-2b59-43dd-ad25-39bd7cd1e42e","ios":"levelo://app?vid=b564d8bc-2b59-43dd-ad25-39bd7cd1e42e"},"vehicle_type_id":"4","last_reported":1730416201,"current_range_meters":9600,"station_id":"ce4bgth2rcd13ifvqch0","pricing_plan_id":"cebpf4jnsgd1na2vs0mg"},{"bike_id":"b7e7f622-ddf0-46d8-b0d8-1b5dbc838ad3","system_id":"levelo_inurba_marseille","lat":43.29027,"lon":5.38139,"is_reserved":false,"is_disabled":false,"rental_uris":{"android":"levelo://app?vid=b7e7f622-ddf0-46d8-b0d8-1b5dbc838ad3","ios":"levelo://app?vid=b7e7f622-ddf0-46d8-b0d8-1b5dbc838ad3"},"vehicle_type_id":"4","last_reported":1730416201,"current_range_meters":38800,"station_id":"ce4bh4p2rcd13ifvqe1g","pricing_plan_id":"cebpf4jnsgd1na2vs0mg"},{"bike_id":"c3be5043-a701-47b6-a4a8-6ff005ff82de","system_id":"levelo_inurba_marseille","lat":43.31713,"lon":5.43708,"is_reserved":false,"is_disabled":false,"rental_uris":{"android":"levelo://app?vid=c3be5043-a701-47b6-a4a8-6ff005ff82de","ios":"levelo://app?vid=c3be5043-a701-47b6-a4a8-6ff005ff82de"},"vehicle_type_id":"4","last_reported":1730416201,"current_range_meters":22400,"station_id":"ce4bhp92rcd13ifvqhcg","pricing_plan_id":"cebpf4jnsgd1na2vs0mg"},{"bike_id":"ccdf8f45-f2e1-46e2-b932-c9192ef53d45","system_id":"levelo_inurba_marseille","lat":43.28438,"lon":5.39178,"is_reserved":false,"is_disabled":false,"rental_uris":{"android":"levelo://app?vid=ccdf8f45-f2e1-46e2-b932-c9192ef53d45","ios":"levelo://app?vid=ccdf8f45-f2e1-46e2-b932-c9192ef53d45"},"vehicle_type_id":"4","last_reported":1730416201,"current_range_meters":24000,"station_id":"ce4bhoh2rcd13ifvqh5g","pricing_plan_id":"cebpf4jnsgd1na2vs0mg"},{"bike_id":"6d5f036e-7e12-430a-9fc6-8d070be6dbb4","system_id":"levelo_inurba_marseille","lat":43.29269,"lon":5.38436,"is_reserved":false,"is_disabled":false,"rental_uris":{"android":"levelo://app?vid=6d5f036e-7e12-430a-9fc6-8d070be6dbb4","ios":"levelo://app?vid=6d5f036e-7e12-430a-9fc6-8d070be6dbb4"},"vehicle_type_id":"4","last_reported":1730416201,"current_range_meters":4400,"station_id":"ce4bh692rcd13ifvqea0","pricing_plan_id":"cebpf4jnsgd1na2vs0mg"},{"bike_id":"5afa0068-76a2-456a-bbe0-b3dc1b6b60f8","system_id":"levelo_inurba_marseille","lat":43.30936,"lon":5.40144,"is_reserved":false,"is_disabled":false,"rental_uris":{"android":"levelo://app?vid=5afa0068-76a2-456a-bbe0-b3dc1b6b60f8","ios":"levelo://app?vid=5afa0068-76a2-456a-bbe0-b3dc1b6b60f8"},"vehicle_type_id":"4","last_reported":1730416201,"current_range_meters":39200,"station_id":"ce4bgvp2rcd13ifvqct0","pricing_plan_id":"cebpf4jnsgd1na2vs0mg"},{"bike_id":"4424acf5-4fee-49ab-bce1-1a1e11ee7af5","system_id":"levelo_inurba_marseille","lat":43.25118,"lon":5.40322,"is_reserved":false,"is_disabled":false,"rental_uris":{"android":"levelo://app?vid=4424acf5-4fee-49ab-bce1-1a1e11ee7af5","ios":"levelo://app?vid=4424acf5-4fee-49ab-bce1-1a1e11ee7af5"},"vehicle_type_id":"4","last_reported":1730416201,"current_range_meters":18000,"station_id":"ce4bhlh2rcd13ifvqgig","pricing_plan_id":"cebpf4jnsgd1na2vs0mg"},{"bike_id":"a4627486-a087-47d1-bdea-e9476cd49986","system_id":"levelo_inurba_marseille","lat":43.23197,"lon":5.35546,"is_reserved":false,"is_disabled":false,"rental_uris":{"android":"levelo://app?vid=a4627486-a087-47d1-bdea-e9476cd49986","ios":"levelo://app?vid=a4627486-a087-47d1-bdea-e9476cd49986"},"vehicle_type_id":"4","last_reported":1730416201,"current_range_meters":35200,"station_id":"ce4bhu92rcd13ifvqi70","pricing_plan_id":"cebpf4jnsgd1na2vs0mg"},{"bike_id":"55dab1c5-8299-4ba5-b0e5-ab02ab9376bc","system_id":"levelo_inurba_marseille","lat":43.24177,"lon":5.3973,"is_reserved":false,"is_disabled":false,"rental_uris":{"android":"levelo://app?vid=55dab1c5-8299-4ba5-b0e5-ab02ab9376bc","ios":"levelo://app?vid=55dab1c5-8299-4ba5-b0e5-ab02ab9376bc"},"vehicle_type_id":"4","last_reported":1730416201,"current_range_meters":30000,"station_id":"ce4bhn12rcd13ifvqgpg","pricing_plan_id":"cebpf4jnsgd1na2vs0mg"},{"bike_id":"509a9bdc-ca48-4855-8040-748bb9b3087b","system_id":"levelo_inurba_marseille","lat":43.25936,"lon":5.40901,"is_reserved":false,"is_disabled":false,"rental_uris":{"android":"levelo://app?vid=509a9bdc-ca48-4855-8040-748bb9b3087b","ios":"levelo://app?vid=509a9bdc-ca48-4855-8040-748bb9b3087b"},"vehicle_type_id":"4","last_reported":1730416201,"current_range_meters":30800,"station_id":"ce4bhm92rcd13ifvqglg","pricing_plan_id":"cebpf4jnsgd1na2vs0mg"},{"bike_id":"fe7310ed-ad8c-4237-9ddb-5d8b2d43c0c1","system_id":"levelo_inurba_marseille","lat":43.29797,"lon":5.381,"is_reserved":false,"is_disabled":false,"rental_uris":{"android":"levelo://app?vid=fe7310ed-ad8c-4237-9ddb-5d8b2d43c0c1","ios":"levelo://app?vid=fe7310ed-ad8c-4237-9ddb-5d8b2d43c0c1"},"vehicle_type_id":"4","last_reported":1730416201,"current_range_meters":38800,"station_id":"ce4bgip2rcd13ifvqbb0","pricing_plan_id":"cebpf4jnsgd1na2vs0mg"},{"bike_id":"745ee127-1314-492b-9584-2370c803a65b","system_id":"levelo_inurba_marseille","lat":43.24074,"lon":5.37759,"is_reserved":false,"is_disabled":false,"rental_uris":{"android":"levelo://app?vid=745ee127-1314-492b-9584-2370c803a65b","ios":"levelo://app?vid=745ee127-1314-492b-9584-2370c803a65b"},"vehicle_type_id":"4","last_reported":1730416201,"current_range_meters":10800,"station_id":"ce4bhnp2rcd13ifvqgvg","pricing_plan_id":"cebpf4jnsgd1na2vs0mg"},{"bike_id":"61a17217-866a-45e4-ad7d-ed917d0d9903","system_id":"levelo_inurba_marseille","lat":43.295362,"lon":5.385401,"is_reserved":false,"is_disabled":false,"rental_uris":{"android":"levelo://app?vid=61a17217-866a-45e4-ad7d-ed917d0d9903","ios":"levelo://app?vid=61a17217-866a-45e4-ad7d-ed917d0d9903"},"vehicle_type_id":"4","last_reported":1730416201,"current_range_meters":36800,"station_id":"ce4bgih2rcd13ifvqba0","pricing_plan_id":"cebpf4jnsgd1na2vs0mg"},{"bike_id":"efbe383f-83c6-4df5-ac1f-ffa8f2e0197b","system_id":"levelo_inurba_marseille","lat":43.31329,"lon":5.39694,"is_reserved":false,"is_disabled":false,"rental_uris":{"android":"levelo://app?vid=efbe383f-83c6-4df5-ac1f-ffa8f2e0197b","ios":"levelo://app?vid=efbe383f-83c6-4df5-ac1f-ffa8f2e0197b"},"vehicle_type_id":"4","last_reported":1730416201,"current_range_meters":13600,"station_id":"ce4bgvp2rcd13ifvqcu0","pricing_plan_id":"cebpf4jnsgd1na2vs0mg"},{"bike_id":"346253b2-bc8a-459b-9780-8c87c73028fa","system_id":"levelo_inurba_marseille","lat":43.26687,"lon":5.382615,"is_reserved":false,"is_disabled":false,"rental_uris":{"android":"levelo://app?vid=346253b2-bc8a-459b-9780-8c87c73028fa","ios":"levelo://app?vid=346253b2-bc8a-459b-9780-8c87c73028fa"},"vehicle_type_id":"4","last_reported":1730416201,"current_range_meters":28400,"station_id":"ce4bhg92rcd13ifvqf90","pricing_plan_id":"cebpf4jnsgd1na2vs0mg"},{"bike_id":"9f97d214-e97e-4089-9432-ff3b0289936c","system_id":"levelo_inurba_marseille","lat":43.28466,"lon":5.35884,"is_reserved":false,"is_disabled":false,"rental_uris":{"android":"levelo://app?vid=9f97d214-e97e-4089-9432-ff3b0289936c","ios":"levelo://app?vid=9f97d214-e97e-4089-9432-ff3b0289936c"},"vehicle_type_id":"4","last_reported":1730416201,"current_range_meters":36800,"station_id":"ce4bhah2rcd13ifvqei0","pricing_plan_id":"cebpf4jnsgd1na2vs0mg"},{"bike_id":"c877f25d-7701-4526-b4eb-1b351133f6e9","system_id":"levelo_inurba_marseille","lat":43.29532,"lon":5.38542,"is_reserved":false,"is_disabled":false,"rental_uris":{"android":"levelo://app?vid=c877f25d-7701-4526-b4eb-1b351133f6e9","ios":"levelo://app?vid=c877f25d-7701-4526-b4eb-1b351133f6e9"},"vehicle_type_id":"4","last_reported":1730416201,"current_range_meters":19600,"station_id":"ce4bgih2rcd13ifvqba0","pricing_plan_id":"cebpf4jnsgd1na2vs0mg"},{"bike_id":"948a3c41-7e4c-4db2-bf61-a1fdcda44655","system_id":"levelo_inurba_marseille","lat":43.25828,"lon":5.39441,"is_reserved":false,"is_disabled":false,"rental_uris":{"android":"levelo://app?vid=948a3c41-7e4c-4db2-bf61-a1fdcda44655","ios":"levelo://app?vid=948a3c41-7e4c-4db2-bf61-a1fdcda44655"},"vehicle_type_id":"4","last_reported":1730416201,"current_range_meters":26800,"station_id":"ce4bhip2rcd13ifvqft0","pricing_plan_id":"cebpf4jnsgd1na2vs0mg"},{"bike_id":"de916830-e4e6-4f2f-b283-a6c557f01939","system_id":"levelo_inurba_marseille","lat":43.29791,"lon":5.39344,"is_reserved":false,"is_disabled":false,"rental_uris":{"android":"levelo://app?vid=de916830-e4e6-4f2f-b283-a6c557f01939","ios":"levelo://app?vid=de916830-e4e6-4f2f-b283-a6c557f01939"},"vehicle_type_id":"4","last_reported":1730416201,"current_range_meters":33200,"station_id":"chh1huq6cuj3fo74tm60","pricing_plan_id":"cebpf4jnsgd1na2vs0mg"},{"bike_id":"7022c03f-786d-431a-ac1b-2e29cbc5d392","system_id":"levelo_inurba_marseille","lat":43.30444,"lon":5.38893,"is_reserved":false,"is_disabled":false,"rental_uris":{"android":"levelo://app?vid=7022c03f-786d-431a-ac1b-2e29cbc5d392","ios":"levelo://app?vid=7022c03f-786d-431a-ac1b-2e29cbc5d392"},"vehicle_type_id":"4","last_reported":1730416201,"current_range_meters":18800,"station_id":"ce4bgk12rcd13ifvqbi0","pricing_plan_id":"cebpf4jnsgd1na2vs0mg"},{"bike_id":"902a84d5-56ca-468a-a9e6-146ab5c6eab3","system_id":"levelo_inurba_marseille","lat":43.271942,"lon":5.391727,"is_reserved":false,"is_disabled":false,"rental_uris":{"android":"levelo://app?vid=902a84d5-56ca-468a-a9e6-146ab5c6eab3","ios":"levelo://app?vid=902a84d5-56ca-468a-a9e6-146ab5c6eab3"},"vehicle_type_id":"4","last_reported":1730416201,"current_range_meters":22800,"station_id":"ce4bhhp2rcd13ifvqfm0","pricing_plan_id":"cebpf4jnsgd1na2vs0mg"},{"bike_id":"43611269-a215-477e-8054-74e6555c43fe","system_id":"levelo_inurba_marseille","lat":43.2762,"lon":5.36109,"is_reserved":false,"is_disabled":false,"rental_uris":{"android":"levelo://app?vid=43611269-a215-477e-8054-74e6555c43fe","ios":"levelo://app?vid=43611269-a215-477e-8054-74e6555c43fe"},"vehicle_type_id":"4","last_reported":1730416201,"current_range_meters":12800,"station_id":"ce4bgj92rcd13ifvqbe0","pricing_plan_id":"cebpf4jnsgd1na2vs0mg"},{"bike_id":"98e591af-1b37-4791-81f8-0a1125c50536","system_id":"levelo_inurba_marseille","lat":43.262,"lon":5.37921,"is_reserved":false,"is_disabled":false,"rental_uris":{"android":"levelo://app?vid=98e591af-1b37-4791-81f8-0a1125c50536","ios":"levelo://app?vid=98e591af-1b37-4791-81f8-0a1125c50536"},"vehicle_type_id":"4","last_reported":1730416201,"current_range_meters":34000,"station_id":"ce4bhjp2rcd13ifvqg90","pricing_plan_id":"cebpf4jnsgd1na2vs0mg"},{"bike_id":"2ff296d5-7689-4f1c-9557-487d99cb311f","system_id":"levelo_inurba_marseille","lat":43.30093,"lon":5.39088,"is_reserved":false,"is_disabled":false,"rental_uris":{"android":"levelo://app?vid=2ff296d5-7689-4f1c-9557-487d99cb311f","ios":"levelo://app?vid=2ff296d5-7689-4f1c-9557-487d99cb311f"},"vehicle_type_id":"4","last_reported":1730416201,"current_range_meters":38000,"station_id":"ce4bh192rcd13ifvqdb0","pricing_plan_id":"cebpf4jnsgd1na2vs0mg"},{"bike_id":"3ab642d6-f0e7-4176-9513-7ca2a30a1c90","system_id":"levelo_inurba_marseille","lat":43.33023,"lon":5.39042,"is_reserved":false,"is_disabled":false,"rental_uris":{"android":"levelo://app?vid=3ab642d6-f0e7-4176-9513-7ca2a30a1c90","ios":"levelo://app?vid=3ab642d6-f0e7-4176-9513-7ca2a30a1c90"},"vehicle_type_id":"4","last_reported":1730416201,"current_range_meters":38800,"station_id":"ce4bhr92rcd13ifvqhrg","pricing_plan_id":"cebpf4jnsgd1na2vs0mg"},{"bike_id":"46bf6bfd-a20c-4ee5-8e27-11ec89c15e0f","system_id":"levelo_inurba_marseille","lat":43.3113,"lon":5.37783,"is_reserved":false,"is_disabled":false,"rental_uris":{"android":"levelo://app?vid=46bf6bfd-a20c-4ee5-8e27-11ec89c15e0f","ios":"levelo://app?vid=46bf6bfd-a20c-4ee5-8e27-11ec89c15e0f"},"vehicle_type_id":"4","last_reported":1730416201,"current_range_meters":37600,"station_id":"ce4bgt92rcd13ifvqcg0","pricing_plan_id":"cebpf4jnsgd1na2vs0mg"},{"bike_id":"05bf216c-2106-43b9-ab9c-9086814bc96e","system_id":"levelo_inurba_marseille","lat":43.29887,"lon":5.38925,"is_reserved":false,"is_disabled":false,"rental_uris":{"android":"levelo://app?vid=05bf216c-2106-43b9-ab9c-9086814bc96e","ios":"levelo://app?vid=05bf216c-2106-43b9-ab9c-9086814bc96e"},"vehicle_type_id":"4","last_reported":1730416201,"current_range_meters":24000,"station_id":"ce4bh392rcd13ifvqdl0","pricing_plan_id":"cebpf4jnsgd1na2vs0mg"},{"bike_id":"04ab413b-8b80-41c8-a1aa-a37cf8ef3940","system_id":"levelo_inurba_marseille","lat":43.28178,"lon":5.43009,"is_reserved":false,"is_disabled":false,"rental_uris":{"android":"levelo://app?vid=04ab413b-8b80-41c8-a1aa-a37cf8ef3940","ios":"levelo://app?vid=04ab413b-8b80-41c8-a1aa-a37cf8ef3940"},"vehicle_type_id":"4","last_reported":1730416201,"current_range_meters":5600,"station_id":"","pricing_plan_id":"cebpf4jnsgd1na2vs0mg"},{"bike_id":"60d9d657-3ec8-40ef-b87b-c6f9930662bd","system_id":"levelo_inurba_marseille","lat":43.31487,"lon":5.37292,"is_reserved":false,"is_disabled":false,"rental_uris":{"android":"levelo://app?vid=60d9d657-3ec8-40ef-b87b-c6f9930662bd","ios":"levelo://app?vid=60d9d657-3ec8-40ef-b87b-c6f9930662bd"},"vehicle_type_id":"4","last_reported":1730416201,"current_range_meters":35600,"station_id":"ce4bgt12rcd13ifvqcd0","pricing_plan_id":"cebpf4jnsgd1na2vs0mg"},{"bike_id":"f8b0c64a-c98d-4010-bbd9-0d1d276b4bd4","system_id":"levelo_inurba_marseille","lat":43.2978,"lon":5.39356,"is_reserved":false,"is_disabled":false,"rental_uris":{"android":"levelo://app?vid=f8b0c64a-c98d-4010-bbd9-0d1d276b4bd4","ios":"levelo://app?vid=f8b0c64a-c98d-4010-bbd9-0d1d276b4bd4"},"vehicle_type_id":"4","last_reported":1730416201,"current_range_meters":27600,"station_id":"chh1huq6cuj3fo74tm60","pricing_plan_id":"cebpf4jnsgd1na2vs0mg"},{"bike_id":"acccedf7-f168-4a7b-9dde-fa1de6f9ae36","system_id":"levelo_inurba_marseille","lat":43.29884,"lon":5.38913,"is_reserved":false,"is_disabled":false,"rental_uris":{"android":"levelo://app?vid=acccedf7-f168-4a7b-9dde-fa1de6f9ae36","ios":"levelo://app?vid=acccedf7-f168-4a7b-9dde-fa1de6f9ae36"},"vehicle_type_id":"4","last_reported":1730416201,"current_range_meters":18000,"station_id":"ce4bh392rcd13ifvqdl0","pricing_plan_id":"cebpf4jnsgd1na2vs0mg"},{"bike_id":"4326d167-08ff-4bbe-b22d-8af37149490d","system_id":"levelo_inurba_marseille","lat":43.28106,"lon":5.37839,"is_reserved":false,"is_disabled":false,"rental_uris":{"android":"levelo://app?vid=4326d167-08ff-4bbe-b22d-8af37149490d","ios":"levelo://app?vid=4326d167-08ff-4bbe-b22d-8af37149490d"},"vehicle_type_id":"4","last_reported":1730416201,"current_range_meters":36000,"station_id":"ce4bha12rcd13ifvqee0","pricing_plan_id":"cebpf4jnsgd1na2vs0mg"},{"bike_id":"896eb1b1-ca1e-474c-9170-aedd4e790066","system_id":"levelo_inurba_marseille","lat":43.29541,"lon":5.38544,"is_reserved":false,"is_disabled":false,"rental_uris":{"android":"levelo://app?vid=896eb1b1-ca1e-474c-9170-aedd4e790066","ios":"levelo://app?vid=896eb1b1-ca1e-474c-9170-aedd4e790066"},"vehicle_type_id":"4","last_reported":1730416201,"current_range_meters":30000,"station_id":"ce4bgih2rcd13ifvqba0","pricing_plan_id":"cebpf4jnsgd1na2vs0mg"},{"bike_id":"ef2e1ab2-b2d1-43b4-8d8a-dc3e8fe6d9ce","system_id":"levelo_inurba_marseille","lat":43.27326,"lon":5.39082,"is_reserved":false,"is_disabled":false,"rental_uris":{"android":"levelo://app?vid=ef2e1ab2-b2d1-43b4-8d8a-dc3e8fe6d9ce","ios":"levelo://app?vid=ef2e1ab2-b2d1-43b4-8d8a-dc3e8fe6d9ce"},"vehicle_type_id":"4","last_reported":1730416201,"current_range_meters":35200,"station_id":"ce4bhgp2rcd13ifvqfe0","pricing_plan_id":"cebpf4jnsgd1na2vs0mg"},{"bike_id":"6145c9dc-5b52-4909-8b3e-d43a8dd315dc","system_id":"levelo_inurba_marseille","lat":43.27174,"lon":5.40992,"is_reserved":false,"is_disabled":false,"rental_uris":{"android":"levelo://app?vid=6145c9dc-5b52-4909-8b3e-d43a8dd315dc","ios":"levelo://app?vid=6145c9dc-5b52-4909-8b3e-d43a8dd315dc"},"vehicle_type_id":"4","last_reported":1730416201,"current_range_meters":8000,"station_id":"ce4bhl12rcd13ifvqgf0","pricing_plan_id":"cebpf4jnsgd1na2vs0mg"},{"bike_id":"aeea1237-3887-42d7-be21-0e7463630790","system_id":"levelo_inurba_marseille","lat":43.23722,"lon":5.40189,"is_reserved":false,"is_disabled":false,"rental_uris":{"android":"levelo://app?vid=aeea1237-3887-42d7-be21-0e7463630790","ios":"levelo://app?vid=aeea1237-3887-42d7-be21-0e7463630790"},"vehicle_type_id":"4","last_reported":1730416201,"current_range_meters":17200,"station_id":"","pricing_plan_id":"cebpf4jnsgd1na2vs0mg"},{"bike_id":"66b5e339-d925-491c-ba42-89ebe2b6d2eb","system_id":"levelo_inurba_marseille","lat":43.31762,"lon":5.39016,"is_reserved":false,"is_disabled":false,"rental_uris":{"android":"levelo://app?vid=66b5e339-d925-491c-ba42-89ebe2b6d2eb","ios":"levelo://app?vid=66b5e339-d925-491c-ba42-89ebe2b6d2eb"},"vehicle_type_id":"4","last_reported":1730416201,"current_range_meters":36800,"station_id":"ce4bhqp2rcd13ifvqhng","pricing_plan_id":"cebpf4jnsgd1na2vs0mg"},{"bike_id":"15279d15-7fec-4497-99b5-ea531da5ea5a","system_id":"levelo_inurba_marseille","lat":43.29258,"lon":5.40909,"is_reserved":false,"is_disabled":false,"rental_uris":{"android":"levelo://app?vid=15279d15-7fec-4497-99b5-ea531da5ea5a","ios":"levelo://app?vid=15279d15-7fec-4497-99b5-ea531da5ea5a"},"vehicle_type_id":"4","last_reported":1730416201,"current_range_meters":36000,"station_id":"ce4bh192rcd13ifvqdc0","pricing_plan_id":"cebpf4jnsgd1na2vs0mg"},{"bike_id":"fbf552b3-8b90-4c94-a1d3-0f7d0cd207d6","system_id":"levelo_inurba_marseille","lat":43.29418,"lon":5.38614,"is_reserved":false,"is_disabled":false,"rental_uris":{"android":"levelo://app?vid=fbf552b3-8b90-4c94-a1d3-0f7d0cd207d6","ios":"levelo://app?vid=fbf552b3-8b90-4c94-a1d3-0f7d0cd207d6"},"vehicle_type_id":"4","last_reported":1730416201,"current_range_meters":38400,"station_id":"ce4bh2h2rcd13ifvqdh0","pricing_plan_id":"cebpf4jnsgd1na2vs0mg"},{"bike_id":"458ea252-557b-4a8e-a07e-5ee5dcbac059","system_id":"levelo_inurba_marseille","lat":43.2904,"lon":5.35937,"is_reserved":false,"is_disabled":false,"rental_uris":{"android":"levelo://app?vid=458ea252-557b-4a8e-a07e-5ee5dcbac059","ios":"levelo://app?vid=458ea252-557b-4a8e-a07e-5ee5dcbac059"},"vehicle_type_id":"4","last_reported":1730416201,"current_range_meters":38800,"station_id":"ce4bha92rcd13ifvqeg0","pricing_plan_id":"cebpf4jnsgd1na2vs0mg"},{"bike_id":"60b71c7c-4918-47ba-8287-329d23746782","system_id":"levelo_inurba_marseille","lat":43.29896,"lon":5.43662,"is_reserved":false,"is_disabled":false,"rental_uris":{"android":"levelo://app?vid=60b71c7c-4918-47ba-8287-329d23746782","ios":"levelo://app?vid=60b71c7c-4918-47ba-8287-329d23746782"},"vehicle_type_id":"4","last_reported":1730416201,"current_range_meters":36400,"station_id":"ce4bhpp2rcd13ifvqhfg","pricing_plan_id":"cebpf4jnsgd1na2vs0mg"},{"bike_id":"8b9d36f0-9269-4b04-9c1d-4b5fdf9ecf25","system_id":"levelo_inurba_marseille","lat":43.27325,"lon":5.39114,"is_reserved":false,"is_disabled":false,"rental_uris":{"android":"levelo://app?vid=8b9d36f0-9269-4b04-9c1d-4b5fdf9ecf25","ios":"levelo://app?vid=8b9d36f0-9269-4b04-9c1d-4b5fdf9ecf25"},"vehicle_type_id":"4","last_reported":1730416201,"current_range_meters":25200,"station_id":"ce4bhgp2rcd13ifvqfe0","pricing_plan_id":"cebpf4jnsgd1na2vs0mg"},{"bike_id":"b0377714-7a30-49ee-b6c1-7ca6811d5925","system_id":"levelo_inurba_marseille","lat":43.32494,"lon":5.36564,"is_reserved":false,"is_disabled":false,"rental_uris":{"android":"levelo://app?vid=b0377714-7a30-49ee-b6c1-7ca6811d5925","ios":"levelo://app?vid=b0377714-7a30-49ee-b6c1-7ca6811d5925"},"vehicle_type_id":"4","last_reported":1730416201,"current_range_meters":28000,"station_id":"ce4bhs12rcd13ifvqhvg","pricing_plan_id":"cebpf4jnsgd1na2vs0mg"},{"bike_id":"57204d72-5573-4297-b729-82cf6c0bc3e0","system_id":"levelo_inurba_marseille","lat":43.2903,"lon":5.38645,"is_reserved":false,"is_disabled":false,"rental_uris":{"android":"levelo://app?vid=57204d72-5573-4297-b729-82cf6c0bc3e0","ios":"levelo://app?vid=57204d72-5573-4297-b729-82cf6c0bc3e0"},"vehicle_type_id":"4","last_reported":1730416201,"current_range_meters":38800,"station_id":"ce4bh4p2rcd13ifvqe0g","pricing_plan_id":"cebpf4jnsgd1na2vs0mg"},{"bike_id":"69355a51-41a5-4455-b14c-61dd7df03e2c","system_id":"levelo_inurba_marseille","lat":43.33723,"lon":5.39187,"is_reserved":false,"is_disabled":false,"rental_uris":{"android":"levelo://app?vid=69355a51-41a5-4455-b14c-61dd7df03e2c","ios":"levelo://app?vid=69355a51-41a5-4455-b14c-61dd7df03e2c"},"vehicle_type_id":"4","last_reported":1730416201,"current_range_meters":38000,"station_id":"ce4bhr92rcd13ifvqhsg","pricing_plan_id":"cebpf4jnsgd1na2vs0mg"},{"bike_id":"74fbc1f7-d463-45ae-8552-db4e2ae905c9","system_id":"levelo_inurba_marseille","lat":43.30461,"lon":5.37901,"is_reserved":false,"is_disabled":false,"rental_uris":{"android":"levelo://app?vid=74fbc1f7-d463-45ae-8552-db4e2ae905c9","ios":"levelo://app?vid=74fbc1f7-d463-45ae-8552-db4e2ae905c9"},"vehicle_type_id":"4","last_reported":1730416201,"current_range_meters":30800,"station_id":"ce4bgup2rcd13ifvqcn0","pricing_plan_id":"cebpf4jnsgd1na2vs0mg"},{"bike_id":"4c21efbf-d433-43db-8285-51d3e794632a","system_id":"levelo_inurba_marseille","lat":43.25117,"lon":5.4032,"is_reserved":false,"is_disabled":false,"rental_uris":{"android":"levelo://app?vid=4c21efbf-d433-43db-8285-51d3e794632a","ios":"levelo://app?vid=4c21efbf-d433-43db-8285-51d3e794632a"},"vehicle_type_id":"4","last_reported":1730416201,"current_range_meters":3600,"station_id":"ce4bhlh2rcd13ifvqgig","pricing_plan_id":"cebpf4jnsgd1na2vs0mg"},{"bike_id":"fece2b4d-5fbc-4072-950a-5fe5acd29804","system_id":"levelo_inurba_marseille","lat":43.2953,"lon":5.38536,"is_reserved":false,"is_disabled":false,"rental_uris":{"android":"levelo://app?vid=fece2b4d-5fbc-4072-950a-5fe5acd29804","ios":"levelo://app?vid=fece2b4d-5fbc-4072-950a-5fe5acd29804"},"vehicle_type_id":"4","last_reported":1730416201,"current_range_meters":14800,"station_id":"ce4bgih2rcd13ifvqba0","pricing_plan_id":"cebpf4jnsgd1na2vs0mg"},{"bike_id":"5adb974e-eadd-41dc-ba26-99e0c8690288","system_id":"levelo_inurba_marseille","lat":43.30128,"lon":5.39872,"is_reserved":false,"is_disabled":false,"rental_uris":{"android":"levelo://app?vid=5adb974e-eadd-41dc-ba26-99e0c8690288","ios":"levelo://app?vid=5adb974e-eadd-41dc-ba26-99e0c8690288"},"vehicle_type_id":"4","last_reported":1730416201,"current_range_meters":30000,"station_id":"ce4bh0h2rcd13ifvqd40","pricing_plan_id":"cebpf4jnsgd1na2vs0mg"},{"bike_id":"435ef0d4-4239-4021-9c0b-b9d7e16f8f03","system_id":"levelo_inurba_marseille","lat":43.29272,"lon":5.38428,"is_reserved":false,"is_disabled":false,"rental_uris":{"android":"levelo://app?vid=435ef0d4-4239-4021-9c0b-b9d7e16f8f03","ios":"levelo://app?vid=435ef0d4-4239-4021-9c0b-b9d7e16f8f03"},"vehicle_type_id":"4","last_reported":1730416201,"current_range_meters":28800,"station_id":"ce4bh692rcd13ifvqea0","pricing_plan_id":"cebpf4jnsgd1na2vs0mg"},{"bike_id":"ceb55059-2562-42a2-9035-244f2e2577c8","system_id":"levelo_inurba_marseille","lat":43.29267,"lon":5.38455,"is_reserved":false,"is_disabled":false,"rental_uris":{"android":"levelo://app?vid=ceb55059-2562-42a2-9035-244f2e2577c8","ios":"levelo://app?vid=ceb55059-2562-42a2-9035-244f2e2577c8"},"vehicle_type_id":"4","last_reported":1730416201,"current_range_meters":8400,"station_id":"ce4bh692rcd13ifvqea0","pricing_plan_id":"cebpf4jnsgd1na2vs0mg"},{"bike_id":"a9bbcbbe-e1bb-449c-adcd-34688245503d","system_id":"levelo_inurba_marseille","lat":43.29534,"lon":5.3854,"is_reserved":false,"is_disabled":false,"rental_uris":{"android":"levelo://app?vid=a9bbcbbe-e1bb-449c-adcd-34688245503d","ios":"levelo://app?vid=a9bbcbbe-e1bb-449c-adcd-34688245503d"},"vehicle_type_id":"4","last_reported":1730416201,"current_range_meters":38800,"station_id":"ce4bgih2rcd13ifvqba0","pricing_plan_id":"cebpf4jnsgd1na2vs0mg"},{"bike_id":"10dd4f0a-3352-467f-bdd2-7b7d82421551","system_id":"levelo_inurba_marseille","lat":43.25724,"lon":5.41117,"is_reserved":false,"is_disabled":false,"rental_uris":{"android":"levelo://app?vid=10dd4f0a-3352-467f-bdd2-7b7d82421551","ios":"levelo://app?vid=10dd4f0a-3352-467f-bdd2-7b7d82421551"},"vehicle_type_id":"4","last_reported":1730416201,"current_range_meters":39200,"station_id":"ce4bhkp2rcd13ifvqgd0","pricing_plan_id":"cebpf4jnsgd1na2vs0mg"},{"bike_id":"5c8a5bb5-a198-4a3b-92e7-8543db03156f","system_id":"levelo_inurba_marseille","lat":43.31711,"lon":5.37772,"is_reserved":false,"is_disabled":false,"rental_uris":{"android":"levelo://app?vid=5c8a5bb5-a198-4a3b-92e7-8543db03156f","ios":"levelo://app?vid=5c8a5bb5-a198-4a3b-92e7-8543db03156f"},"vehicle_type_id":"4","last_reported":1730416201,"current_range_meters":39200,"station_id":"ce4bgth2rcd13ifvqch0","pricing_plan_id":"cebpf4jnsgd1na2vs0mg"},{"bike_id":"a916599f-804e-4508-947b-869589ac73c6","system_id":"levelo_inurba_marseille","lat":43.29039,"lon":5.35913,"is_reserved":false,"is_disabled":false,"rental_uris":{"android":"levelo://app?vid=a916599f-804e-4508-947b-869589ac73c6","ios":"levelo://app?vid=a916599f-804e-4508-947b-869589ac73c6"},"vehicle_type_id":"4","last_reported":1730416201,"current_range_meters":33600,"station_id":"ce4bha92rcd13ifvqeg0","pricing_plan_id":"cebpf4jnsgd1na2vs0mg"},{"bike_id":"3d762461-ddf0-42eb-9b6e-f26add914a1b","system_id":"levelo_inurba_marseille","lat":43.2757,"lon":5.38433,"is_reserved":false,"is_disabled":false,"rental_uris":{"android":"levelo://app?vid=3d762461-ddf0-42eb-9b6e-f26add914a1b","ios":"levelo://app?vid=3d762461-ddf0-42eb-9b6e-f26add914a1b"},"vehicle_type_id":"4","last_reported":1730416201,"current_range_meters":28400,"station_id":"ce4bhh92rcd13ifvqfi0","pricing_plan_id":"cebpf4jnsgd1na2vs0mg"},{"bike_id":"9daca46e-b450-4f6e-8fa7-dc74aa35a5dd","system_id":"levelo_inurba_marseille","lat":43.23103,"lon":5.40065,"is_reserved":false,"is_disabled":false,"rental_uris":{"android":"levelo://app?vid=9daca46e-b450-4f6e-8fa7-dc74aa35a5dd","ios":"levelo://app?vid=9daca46e-b450-4f6e-8fa7-dc74aa35a5dd"},"vehicle_type_id":"4","last_reported":1730416201,"current_range_meters":23200,"station_id":"ce4bhn12rcd13ifvqgqg","pricing_plan_id":"cebpf4jnsgd1na2vs0mg"},{"bike_id":"e4368fe2-29c6-4a48-994c-a1208e6fc302","system_id":"levelo_inurba_marseille","lat":43.29536,"lon":5.38542,"is_reserved":false,"is_disabled":false,"rental_uris":{"android":"levelo://app?vid=e4368fe2-29c6-4a48-994c-a1208e6fc302","ios":"levelo://app?vid=e4368fe2-29c6-4a48-994c-a1208e6fc302"},"vehicle_type_id":"4","last_reported":1730416201,"current_range_meters":36000,"station_id":"ce4bgih2rcd13ifvqba0","pricing_plan_id":"cebpf4jnsgd1na2vs0mg"},{"bike_id":"0b4f5acc-ae70-4869-ab7b-08e48b7e7b17","system_id":"levelo_inurba_marseille","lat":43.29938,"lon":5.38527,"is_reserved":false,"is_disabled":false,"rental_uris":{"android":"levelo://app?vid=0b4f5acc-ae70-4869-ab7b-08e48b7e7b17","ios":"levelo://app?vid=0b4f5acc-ae70-4869-ab7b-08e48b7e7b17"},"vehicle_type_id":"4","last_reported":1730416201,"current_range_meters":30000,"station_id":"","pricing_plan_id":"cebpf4jnsgd1na2vs0mg"},{"bike_id":"6f091c9c-e1f4-4df3-aa18-c140e4b15b86","system_id":"levelo_inurba_marseille","lat":43.28713,"lon":5.37948,"is_reserved":false,"is_disabled":false,"rental_uris":{"android":"levelo://app?vid=6f091c9c-e1f4-4df3-aa18-c140e4b15b86","ios":"levelo://app?vid=6f091c9c-e1f4-4df3-aa18-c140e4b15b86"},"vehicle_type_id":"4","last_reported":1730416201,"current_range_meters":36400,"station_id":"ce4bh9p2rcd13ifvqec0","pricing_plan_id":"cebpf4jnsgd1na2vs0mg"},{"bike_id":"ed9aa993-8003-4cbf-9aaf-8a3f2e010645","system_id":"levelo_inurba_marseille","lat":43.24167,"lon":5.36403,"is_reserved":false,"is_disabled":false,"rental_uris":{"android":"levelo://app?vid=ed9aa993-8003-4cbf-9aaf-8a3f2e010645","ios":"levelo://app?vid=ed9aa993-8003-4cbf-9aaf-8a3f2e010645"},"vehicle_type_id":"4","last_reported":1730416201,"current_range_meters":8400,"station_id":"cpo36qri1sfpv3e86is0","pricing_plan_id":"cebpf4jnsgd1na2vs0mg"},{"bike_id":"33a098b5-2f3f-4957-af96-675614306bdc","system_id":"levelo_inurba_marseille","lat":43.28285,"lon":5.39021,"is_reserved":false,"is_disabled":false,"rental_uris":{"android":"levelo://app?vid=33a098b5-2f3f-4957-af96-675614306bdc","ios":"levelo://app?vid=33a098b5-2f3f-4957-af96-675614306bdc"},"vehicle_type_id":"4","last_reported":1730416201,"current_range_meters":19200,"station_id":"","pricing_plan_id":"cebpf4jnsgd1na2vs0mg"},{"bike_id":"aa9601c0-622c-4ab6-a747-92657d1569b5","system_id":"levelo_inurba_marseille","lat":43.29262,"lon":5.38437,"is_reserved":false,"is_disabled":false,"rental_uris":{"android":"levelo://app?vid=aa9601c0-622c-4ab6-a747-92657d1569b5","ios":"levelo://app?vid=aa9601c0-622c-4ab6-a747-92657d1569b5"},"vehicle_type_id":"4","last_reported":1730416201,"current_range_meters":23200,"station_id":"ce4bh692rcd13ifvqea0","pricing_plan_id":"cebpf4jnsgd1na2vs0mg"},{"bike_id":"d6f817ae-cc89-4569-8e43-678cca7530bc","system_id":"levelo_inurba_marseille","lat":43.3095,"lon":5.39036,"is_reserved":false,"is_disabled":false,"rental_uris":{"android":"levelo://app?vid=d6f817ae-cc89-4569-8e43-678cca7530bc","ios":"levelo://app?vid=d6f817ae-cc89-4569-8e43-678cca7530bc"},"vehicle_type_id":"4","last_reported":1730416201,"current_range_meters":16400,"station_id":"ce4bgup2rcd13ifvqco0","pricing_plan_id":"cebpf4jnsgd1na2vs0mg"},{"bike_id":"a8594471-923b-4371-82a5-d750e1a3d991","system_id":"levelo_inurba_marseille","lat":43.31532,"lon":5.38027,"is_reserved":false,"is_disabled":false,"rental_uris":{"android":"levelo://app?vid=a8594471-923b-4371-82a5-d750e1a3d991","ios":"levelo://app?vid=a8594471-923b-4371-82a5-d750e1a3d991"},"vehicle_type_id":"4","last_reported":1730416201,"current_range_meters":11600,"station_id":"ce4bhsp2rcd13ifvqi50","pricing_plan_id":"cebpf4jnsgd1na2vs0mg"},{"bike_id":"413fd6fa-c9ee-4c88-b239-56ebf5d8bd5f","system_id":"levelo_inurba_marseille","lat":43.32667,"lon":5.41,"is_reserved":false,"is_disabled":false,"rental_uris":{"android":"levelo://app?vid=413fd6fa-c9ee-4c88-b239-56ebf5d8bd5f","ios":"levelo://app?vid=413fd6fa-c9ee-4c88-b239-56ebf5d8bd5f"},"vehicle_type_id":"4","last_reported":1730416201,"current_range_meters":39200,"station_id":"ce4bhpp2rcd13ifvqhgg","pricing_plan_id":"cebpf4jnsgd1na2vs0mg"},{"bike_id":"cd7754bc-8667-452f-9ddb-15623cac69e8","system_id":"levelo_inurba_marseille","lat":43.29276,"lon":5.38441,"is_reserved":false,"is_disabled":false,"rental_uris":{"android":"levelo://app?vid=cd7754bc-8667-452f-9ddb-15623cac69e8","ios":"levelo://app?vid=cd7754bc-8667-452f-9ddb-15623cac69e8"},"vehicle_type_id":"4","last_reported":1730416201,"current_range_meters":25200,"station_id":"ce4bh692rcd13ifvqea0","pricing_plan_id":"cebpf4jnsgd1na2vs0mg"},{"bike_id":"56c6d29e-0277-45e0-bf65-07fce049d4a9","system_id":"levelo_inurba_marseille","lat":43.27429,"lon":5.3941,"is_reserved":false,"is_disabled":false,"rental_uris":{"android":"levelo://app?vid=56c6d29e-0277-45e0-bf65-07fce049d4a9","ios":"levelo://app?vid=56c6d29e-0277-45e0-bf65-07fce049d4a9"},"vehicle_type_id":"4","last_reported":1730416201,"current_range_meters":28000,"station_id":"ce4bhdp2rcd13ifvqf20","pricing_plan_id":"cebpf4jnsgd1na2vs0mg"},{"bike_id":"6493f964-309f-40e9-ba7e-e96a1a77e9da","system_id":"levelo_inurba_marseille","lat":43.27912,"lon":5.39583,"is_reserved":false,"is_disabled":false,"rental_uris":{"android":"levelo://app?vid=6493f964-309f-40e9-ba7e-e96a1a77e9da","ios":"levelo://app?vid=6493f964-309f-40e9-ba7e-e96a1a77e9da"},"vehicle_type_id":"4","last_reported":1730416201,"current_range_meters":38800,"station_id":"ce4bhf92rcd13ifvqf40","pricing_plan_id":"cebpf4jnsgd1na2vs0mg"},{"bike_id":"09cbb6e8-52b6-4621-8ac6-61e0ffad6a76","system_id":"levelo_inurba_marseille","lat":43.292652,"lon":5.38429,"is_reserved":false,"is_disabled":false,"rental_uris":{"android":"levelo://app?vid=09cbb6e8-52b6-4621-8ac6-61e0ffad6a76","ios":"levelo://app?vid=09cbb6e8-52b6-4621-8ac6-61e0ffad6a76"},"vehicle_type_id":"4","last_reported":1730416201,"current_range_meters":36000,"station_id":"ce4bh692rcd13ifvqea0","pricing_plan_id":"cebpf4jnsgd1na2vs0mg"},{"bike_id":"6a721da0-d74d-4dd5-b788-91b5f355494a","system_id":"levelo_inurba_marseille","lat":43.27207,"lon":5.39191,"is_reserved":false,"is_disabled":false,"rental_uris":{"android":"levelo://app?vid=6a721da0-d74d-4dd5-b788-91b5f355494a","ios":"levelo://app?vid=6a721da0-d74d-4dd5-b788-91b5f355494a"},"vehicle_type_id":"4","last_reported":1730416201,"current_range_meters":23200,"station_id":"ce4bhhp2rcd13ifvqfm0","pricing_plan_id":"cebpf4jnsgd1na2vs0mg"},{"bike_id":"07ed436c-0c64-45f3-85f2-2882f42ff3fc","system_id":"levelo_inurba_marseille","lat":43.26495,"lon":5.39555,"is_reserved":false,"is_disabled":false,"rental_uris":{"android":"levelo://app?vid=07ed436c-0c64-45f3-85f2-2882f42ff3fc","ios":"levelo://app?vid=07ed436c-0c64-45f3-85f2-2882f42ff3fc"},"vehicle_type_id":"4","last_reported":1730416201,"current_range_meters":38800,"station_id":"ce4bhi12rcd13ifvqfq0","pricing_plan_id":"cebpf4jnsgd1na2vs0mg"},{"bike_id":"500c9dd4-f799-42df-abf1-a2436d187ac0","system_id":"levelo_inurba_marseille","lat":43.30137,"lon":5.38772,"is_reserved":false,"is_disabled":false,"rental_uris":{"android":"levelo://app?vid=500c9dd4-f799-42df-abf1-a2436d187ac0","ios":"levelo://app?vid=500c9dd4-f799-42df-abf1-a2436d187ac0"},"vehicle_type_id":"4","last_reported":1730416201,"current_range_meters":36000,"station_id":"ce4bghh2rcd13ifvqb60","pricing_plan_id":"cebpf4jnsgd1na2vs0mg"},{"bike_id":"0acdf120-81f9-486f-8ea5-e14a817d42af","system_id":"levelo_inurba_marseille","lat":43.28344,"lon":5.38116,"is_reserved":false,"is_disabled":false,"rental_uris":{"android":"levelo://app?vid=0acdf120-81f9-486f-8ea5-e14a817d42af","ios":"levelo://app?vid=0acdf120-81f9-486f-8ea5-e14a817d42af"},"vehicle_type_id":"4","last_reported":1730416201,"current_range_meters":38800,"station_id":"ce4bh412rcd13ifvqdr0","pricing_plan_id":"cebpf4jnsgd1na2vs0mg"},{"bike_id":"0eac5a1d-d684-45e0-be5d-a22f3e11c4ca","system_id":"levelo_inurba_marseille","lat":43.23968,"lon":5.3663,"is_reserved":false,"is_disabled":false,"rental_uris":{"android":"levelo://app?vid=0eac5a1d-d684-45e0-be5d-a22f3e11c4ca","ios":"levelo://app?vid=0eac5a1d-d684-45e0-be5d-a22f3e11c4ca"},"vehicle_type_id":"4","last_reported":1730416201,"current_range_meters":9600,"station_id":"ce4bhi12rcd13ifvqfp0","pricing_plan_id":"cebpf4jnsgd1na2vs0mg"},{"bike_id":"6b405e3f-d98d-4920-b874-07bed155b1c3","system_id":"levelo_inurba_marseille","lat":43.2721,"lon":5.39187,"is_reserved":false,"is_disabled":false,"rental_uris":{"android":"levelo://app?vid=6b405e3f-d98d-4920-b874-07bed155b1c3","ios":"levelo://app?vid=6b405e3f-d98d-4920-b874-07bed155b1c3"},"vehicle_type_id":"4","last_reported":1730416201,"current_range_meters":26800,"station_id":"ce4bhhp2rcd13ifvqfm0","pricing_plan_id":"cebpf4jnsgd1na2vs0mg"},{"bike_id":"28a03429-c247-4feb-ace3-a820048521c3","system_id":"levelo_inurba_marseille","lat":43.29924,"lon":5.37464,"is_reserved":false,"is_disabled":false,"rental_uris":{"android":"levelo://app?vid=28a03429-c247-4feb-ace3-a820048521c3","ios":"levelo://app?vid=28a03429-c247-4feb-ace3-a820048521c3"},"vehicle_type_id":"4","last_reported":1730416201,"current_range_meters":36800,"station_id":"ce4bgjh2rcd13ifvqbg0","pricing_plan_id":"cebpf4jnsgd1na2vs0mg"},{"bike_id":"2136c808-dbd5-4e9d-94e9-81dce9d2cc17","system_id":"levelo_inurba_marseille","lat":43.29535,"lon":5.38548,"is_reserved":false,"is_disabled":false,"rental_uris":{"android":"levelo://app?vid=2136c808-dbd5-4e9d-94e9-81dce9d2cc17","ios":"levelo://app?vid=2136c808-dbd5-4e9d-94e9-81dce9d2cc17"},"vehicle_type_id":"4","last_reported":1730416201,"current_range_meters":20400,"station_id":"ce4bgih2rcd13ifvqba0","pricing_plan_id":"cebpf4jnsgd1na2vs0mg"},{"bike_id":"e0c52b99-95d6-4c37-a6cb-3e83a433b83d","system_id":"levelo_inurba_marseille","lat":43.27323,"lon":5.39097,"is_reserved":false,"is_disabled":false,"rental_uris":{"android":"levelo://app?vid=e0c52b99-95d6-4c37-a6cb-3e83a433b83d","ios":"levelo://app?vid=e0c52b99-95d6-4c37-a6cb-3e83a433b83d"},"vehicle_type_id":"4","last_reported":1730416201,"current_range_meters":36800,"station_id":"ce4bhgp2rcd13ifvqfe0","pricing_plan_id":"cebpf4jnsgd1na2vs0mg"},{"bike_id":"e7b2be94-21fc-42ac-bdf7-d486710a5d9a","system_id":"levelo_inurba_marseille","lat":43.23191,"lon":5.3555,"is_reserved":false,"is_disabled":false,"rental_uris":{"android":"levelo://app?vid=e7b2be94-21fc-42ac-bdf7-d486710a5d9a","ios":"levelo://app?vid=e7b2be94-21fc-42ac-bdf7-d486710a5d9a"},"vehicle_type_id":"4","last_reported":1730416201,"current_range_meters":38800,"station_id":"ce4bhu92rcd13ifvqi70","pricing_plan_id":"cebpf4jnsgd1na2vs0mg"},{"bike_id":"df10b1e5-7083-47da-bf75-50b6f2ba8a9b","system_id":"levelo_inurba_marseille","lat":43.31121,"lon":5.37767,"is_reserved":false,"is_disabled":false,"rental_uris":{"android":"levelo://app?vid=df10b1e5-7083-47da-bf75-50b6f2ba8a9b","ios":"levelo://app?vid=df10b1e5-7083-47da-bf75-50b6f2ba8a9b"},"vehicle_type_id":"4","last_reported":1730416201,"current_range_meters":22800,"station_id":"ce4bgt92rcd13ifvqcg0","pricing_plan_id":"cebpf4jnsgd1na2vs0mg"},{"bike_id":"ce9125b4-2784-49e5-86f8-4920df44b4e6","system_id":"levelo_inurba_marseille","lat":43.29429,"lon":5.38627,"is_reserved":false,"is_disabled":false,"rental_uris":{"android":"levelo://app?vid=ce9125b4-2784-49e5-86f8-4920df44b4e6","ios":"levelo://app?vid=ce9125b4-2784-49e5-86f8-4920df44b4e6"},"vehicle_type_id":"4","last_reported":1730416201,"current_range_meters":35200,"station_id":"ce4bh2h2rcd13ifvqdh0","pricing_plan_id":"cebpf4jnsgd1na2vs0mg"},{"bike_id":"4ee09f11-5387-4eb9-ae15-b6668577c55b","system_id":"levelo_inurba_marseille","lat":43.24385,"lon":5.37057,"is_reserved":false,"is_disabled":false,"rental_uris":{"android":"levelo://app?vid=4ee09f11-5387-4eb9-ae15-b6668577c55b","ios":"levelo://app?vid=4ee09f11-5387-4eb9-ae15-b6668577c55b"},"vehicle_type_id":"4","last_reported":1730416201,"current_range_meters":36800,"station_id":"ce4bhhh2rcd13ifvqfk0","pricing_plan_id":"cebpf4jnsgd1na2vs0mg"},{"bike_id":"dacaf0a1-652d-4a4b-ae67-ee7a01f2112c","system_id":"levelo_inurba_marseille","lat":43.23202,"lon":5.35549,"is_reserved":false,"is_disabled":false,"rental_uris":{"android":"levelo://app?vid=dacaf0a1-652d-4a4b-ae67-ee7a01f2112c","ios":"levelo://app?vid=dacaf0a1-652d-4a4b-ae67-ee7a01f2112c"},"vehicle_type_id":"4","last_reported":1730416201,"current_range_meters":20400,"station_id":"ce4bhu92rcd13ifvqi70","pricing_plan_id":"cebpf4jnsgd1na2vs0mg"},{"bike_id":"46f626a0-2501-4540-ba80-fb070c2b5759","system_id":"levelo_inurba_marseille","lat":43.29541,"lon":5.38548,"is_reserved":false,"is_disabled":false,"rental_uris":{"android":"levelo://app?vid=46f626a0-2501-4540-ba80-fb070c2b5759","ios":"levelo://app?vid=46f626a0-2501-4540-ba80-fb070c2b5759"},"vehicle_type_id":"4","last_reported":1730416201,"current_range_meters":38000,"station_id":"ce4bgih2rcd13ifvqba0","pricing_plan_id":"cebpf4jnsgd1na2vs0mg"},{"bike_id":"0c0d4548-c9f5-4b26-84f3-518a85e46544","system_id":"levelo_inurba_marseille","lat":43.27428,"lon":5.39418,"is_reserved":false,"is_disabled":false,"rental_uris":{"android":"levelo://app?vid=0c0d4548-c9f5-4b26-84f3-518a85e46544","ios":"levelo://app?vid=0c0d4548-c9f5-4b26-84f3-518a85e46544"},"vehicle_type_id":"4","last_reported":1730416201,"current_range_meters":38800,"station_id":"ce4bhdp2rcd13ifvqf20","pricing_plan_id":"cebpf4jnsgd1na2vs0mg"},{"bike_id":"09876b4e-96cc-44b2-95cf-9e2124098dc6","system_id":"levelo_inurba_marseille","lat":43.27431,"lon":5.39418,"is_reserved":false,"is_disabled":false,"rental_uris":{"android":"levelo://app?vid=09876b4e-96cc-44b2-95cf-9e2124098dc6","ios":"levelo://app?vid=09876b4e-96cc-44b2-95cf-9e2124098dc6"},"vehicle_type_id":"4","last_reported":1730416201,"current_range_meters":16800,"station_id":"ce4bhdp2rcd13ifvqf20","pricing_plan_id":"cebpf4jnsgd1na2vs0mg"},{"bike_id":"33a06482-b928-4cd4-a453-8795f3c663d3","system_id":"levelo_inurba_marseille","lat":43.269623,"lon":5.401927,"is_reserved":false,"is_disabled":false,"rental_uris":{"android":"levelo://app?vid=33a06482-b928-4cd4-a453-8795f3c663d3","ios":"levelo://app?vid=33a06482-b928-4cd4-a453-8795f3c663d3"},"vehicle_type_id":"4","last_reported":1730416201,"current_range_meters":12400,"station_id":"cjm6bp8fraef2m0cb0m0","pricing_plan_id":"cebpf4jnsgd1na2vs0mg"},{"bike_id":"c713a5b0-9279-4b6b-92a6-beb74806a54f","system_id":"levelo_inurba_marseille","lat":43.28087,"lon":5.36163,"is_reserved":false,"is_disabled":false,"rental_uris":{"android":"levelo://app?vid=c713a5b0-9279-4b6b-92a6-beb74806a54f","ios":"levelo://app?vid=c713a5b0-9279-4b6b-92a6-beb74806a54f"},"vehicle_type_id":"4","last_reported":1730416201,"current_range_meters":30000,"station_id":"","pricing_plan_id":"cebpf4jnsgd1na2vs0mg"},{"bike_id":"d6570dca-baf7-46c8-8fe6-f64896384ef8","system_id":"levelo_inurba_marseille","lat":43.28609,"lon":5.37082,"is_reserved":false,"is_disabled":false,"rental_uris":{"android":"levelo://app?vid=d6570dca-baf7-46c8-8fe6-f64896384ef8","ios":"levelo://app?vid=d6570dca-baf7-46c8-8fe6-f64896384ef8"},"vehicle_type_id":"4","last_reported":1730416201,"current_range_meters":38800,"station_id":"ce4bht12rcd13ifvqi60","pricing_plan_id":"cebpf4jnsgd1na2vs0mg"},{"bike_id":"67510012-1cba-484e-acef-2ad6017acb8f","system_id":"levelo_inurba_marseille","lat":43.27943,"lon":5.41047,"is_reserved":false,"is_disabled":false,"rental_uris":{"android":"levelo://app?vid=67510012-1cba-484e-acef-2ad6017acb8f","ios":"levelo://app?vid=67510012-1cba-484e-acef-2ad6017acb8f"},"vehicle_type_id":"4","last_reported":1730416201,"current_range_meters":28000,"station_id":"ce4bhnp2rcd13ifvqh0g","pricing_plan_id":"cebpf4jnsgd1na2vs0mg"},{"bike_id":"432245c8-aae7-4413-a01a-f97683516aa8","system_id":"levelo_inurba_marseille","lat":43.31281,"lon":5.40176,"is_reserved":false,"is_disabled":false,"rental_uris":{"android":"levelo://app?vid=432245c8-aae7-4413-a01a-f97683516aa8","ios":"levelo://app?vid=432245c8-aae7-4413-a01a-f97683516aa8"},"vehicle_type_id":"4","last_reported":1730416201,"current_range_meters":38000,"station_id":"ce4bh092rcd13ifvqd30","pricing_plan_id":"cebpf4jnsgd1na2vs0mg"},{"bike_id":"b647ad8c-5239-4792-a303-51c2978d56fb","system_id":"levelo_inurba_marseille","lat":43.33614,"lon":5.41035,"is_reserved":false,"is_disabled":false,"rental_uris":{"android":"levelo://app?vid=b647ad8c-5239-4792-a303-51c2978d56fb","ios":"levelo://app?vid=b647ad8c-5239-4792-a303-51c2978d56fb"},"vehicle_type_id":"4","last_reported":1730416201,"current_range_meters":38800,"station_id":"ce4bhqh2rcd13ifvqhmg","pricing_plan_id":"cebpf4jnsgd1na2vs0mg"},{"bike_id":"cd506133-45e2-421c-adbd-9501e6e43795","system_id":"levelo_inurba_marseille","lat":43.28042,"lon":5.36958,"is_reserved":false,"is_disabled":false,"rental_uris":{"android":"levelo://app?vid=cd506133-45e2-421c-adbd-9501e6e43795","ios":"levelo://app?vid=cd506133-45e2-421c-adbd-9501e6e43795"},"vehicle_type_id":"4","last_reported":1730416201,"current_range_meters":36000,"station_id":"ce4bha12rcd13ifvqef0","pricing_plan_id":"cebpf4jnsgd1na2vs0mg"},{"bike_id":"eb12389b-542e-46ef-b54c-2ff199d29424","system_id":"levelo_inurba_marseille","lat":43.27625,"lon":5.36102,"is_reserved":false,"is_disabled":false,"rental_uris":{"android":"levelo://app?vid=eb12389b-542e-46ef-b54c-2ff199d29424","ios":"levelo://app?vid=eb12389b-542e-46ef-b54c-2ff199d29424"},"vehicle_type_id":"4","last_reported":1730416201,"current_range_meters":8800,"station_id":"ce4bgj92rcd13ifvqbe0","pricing_plan_id":"cebpf4jnsgd1na2vs0mg"},{"bike_id":"84eb234f-5cef-4e43-995c-c2a6c7272b1a","system_id":"levelo_inurba_marseille","lat":43.27945,"lon":5.41033,"is_reserved":false,"is_disabled":false,"rental_uris":{"android":"levelo://app?vid=84eb234f-5cef-4e43-995c-c2a6c7272b1a","ios":"levelo://app?vid=84eb234f-5cef-4e43-995c-c2a6c7272b1a"},"vehicle_type_id":"4","last_reported":1730416201,"current_range_meters":28000,"station_id":"ce4bhnp2rcd13ifvqh0g","pricing_plan_id":"cebpf4jnsgd1na2vs0mg"},{"bike_id":"d7ffa81d-2529-46b6-a8eb-e37e63999233","system_id":"levelo_inurba_marseille","lat":43.27428,"lon":5.39419,"is_reserved":false,"is_disabled":false,"rental_uris":{"android":"levelo://app?vid=d7ffa81d-2529-46b6-a8eb-e37e63999233","ios":"levelo://app?vid=d7ffa81d-2529-46b6-a8eb-e37e63999233"},"vehicle_type_id":"4","last_reported":1730416201,"current_range_meters":30800,"station_id":"ce4bhdp2rcd13ifvqf20","pricing_plan_id":"cebpf4jnsgd1na2vs0mg"},{"bike_id":"51839d7a-26e7-47a1-af1e-7744eba12fc5","system_id":"levelo_inurba_marseille","lat":43.2721,"lon":5.39187,"is_reserved":false,"is_disabled":false,"rental_uris":{"android":"levelo://app?vid=51839d7a-26e7-47a1-af1e-7744eba12fc5","ios":"levelo://app?vid=51839d7a-26e7-47a1-af1e-7744eba12fc5"},"vehicle_type_id":"4","last_reported":1730416201,"current_range_meters":38800,"station_id":"ce4bhhp2rcd13ifvqfm0","pricing_plan_id":"cebpf4jnsgd1na2vs0mg"},{"bike_id":"08644204-8aff-4544-94a7-e7830a6e4707","system_id":"levelo_inurba_marseille","lat":43.31699,"lon":5.40459,"is_reserved":false,"is_disabled":false,"rental_uris":{"android":"levelo://app?vid=08644204-8aff-4544-94a7-e7830a6e4707","ios":"levelo://app?vid=08644204-8aff-4544-94a7-e7830a6e4707"},"vehicle_type_id":"4","last_reported":1730416201,"current_range_meters":22400,"station_id":"ce4bh012rcd13ifvqd00","pricing_plan_id":"cebpf4jnsgd1na2vs0mg"},{"bike_id":"655e5c84-6957-4a22-898b-b606bb7480d4","system_id":"levelo_inurba_marseille","lat":43.2293,"lon":5.35381,"is_reserved":false,"is_disabled":false,"rental_uris":{"android":"levelo://app?vid=655e5c84-6957-4a22-898b-b606bb7480d4","ios":"levelo://app?vid=655e5c84-6957-4a22-898b-b606bb7480d4"},"vehicle_type_id":"4","last_reported":1730416201,"current_range_meters":28800,"station_id":"cpo3532slgdg3j2ikp40","pricing_plan_id":"cebpf4jnsgd1na2vs0mg"},{"bike_id":"f2aad784-ee99-4126-a099-b2394ec7a7e2","system_id":"levelo_inurba_marseille","lat":43.28159,"lon":5.42608,"is_reserved":false,"is_disabled":false,"rental_uris":{"android":"levelo://app?vid=f2aad784-ee99-4126-a099-b2394ec7a7e2","ios":"levelo://app?vid=f2aad784-ee99-4126-a099-b2394ec7a7e2"},"vehicle_type_id":"4","last_reported":1730416201,"current_range_meters":7200,"station_id":"ce4bhnh2rcd13ifvqgug","pricing_plan_id":"cebpf4jnsgd1na2vs0mg"},{"bike_id":"7f63bad8-4a52-4d55-90b0-82a9e1692add","system_id":"levelo_inurba_marseille","lat":43.29447,"lon":5.3975,"is_reserved":false,"is_disabled":false,"rental_uris":{"android":"levelo://app?vid=7f63bad8-4a52-4d55-90b0-82a9e1692add","ios":"levelo://app?vid=7f63bad8-4a52-4d55-90b0-82a9e1692add"},"vehicle_type_id":"4","last_reported":1730416201,"current_range_meters":20000,"station_id":"ce4bh3h2rcd13ifvqdo0","pricing_plan_id":"cebpf4jnsgd1na2vs0mg"},{"bike_id":"aaba3d43-eb81-4033-90d6-d4f77595aa51","system_id":"levelo_inurba_marseille","lat":43.31072,"lon":5.38354,"is_reserved":false,"is_disabled":false,"rental_uris":{"android":"levelo://app?vid=aaba3d43-eb81-4033-90d6-d4f77595aa51","ios":"levelo://app?vid=aaba3d43-eb81-4033-90d6-d4f77595aa51"},"vehicle_type_id":"4","last_reported":1730416201,"current_range_meters":24400,"station_id":"ce4bgv92rcd13ifvqcr0","pricing_plan_id":"cebpf4jnsgd1na2vs0mg"},{"bike_id":"40b2df89-0e34-4c52-bf4d-75a37cd05dab","system_id":"levelo_inurba_marseille","lat":43.31894,"lon":5.40738,"is_reserved":false,"is_disabled":false,"rental_uris":{"android":"levelo://app?vid=40b2df89-0e34-4c52-bf4d-75a37cd05dab","ios":"levelo://app?vid=40b2df89-0e34-4c52-bf4d-75a37cd05dab"},"vehicle_type_id":"4","last_reported":1730416201,"current_range_meters":37600,"station_id":"ce4bhq12rcd13ifvqhig","pricing_plan_id":"cebpf4jnsgd1na2vs0mg"},{"bike_id":"6199e713-b0e6-424d-8a9c-fa742b54da7e","system_id":"levelo_inurba_marseille","lat":43.29791,"lon":5.38094,"is_reserved":false,"is_disabled":false,"rental_uris":{"android":"levelo://app?vid=6199e713-b0e6-424d-8a9c-fa742b54da7e","ios":"levelo://app?vid=6199e713-b0e6-424d-8a9c-fa742b54da7e"},"vehicle_type_id":"4","last_reported":1730416201,"current_range_meters":38400,"station_id":"ce4bgip2rcd13ifvqbb0","pricing_plan_id":"cebpf4jnsgd1na2vs0mg"},{"bike_id":"6d58bf63-0344-4e01-b872-27a4ce914d16","system_id":"levelo_inurba_marseille","lat":43.29887,"lon":5.38916,"is_reserved":false,"is_disabled":false,"rental_uris":{"android":"levelo://app?vid=6d58bf63-0344-4e01-b872-27a4ce914d16","ios":"levelo://app?vid=6d58bf63-0344-4e01-b872-27a4ce914d16"},"vehicle_type_id":"4","last_reported":1730416201,"current_range_meters":38800,"station_id":"ce4bh392rcd13ifvqdl0","pricing_plan_id":"cebpf4jnsgd1na2vs0mg"},{"bike_id":"7dc07648-9fb1-4248-92f4-9aec012db4cc","system_id":"levelo_inurba_marseille","lat":43.27208,"lon":5.39186,"is_reserved":false,"is_disabled":false,"rental_uris":{"android":"levelo://app?vid=7dc07648-9fb1-4248-92f4-9aec012db4cc","ios":"levelo://app?vid=7dc07648-9fb1-4248-92f4-9aec012db4cc"},"vehicle_type_id":"4","last_reported":1730416201,"current_range_meters":3600,"station_id":"ce4bhhp2rcd13ifvqfm0","pricing_plan_id":"cebpf4jnsgd1na2vs0mg"},{"bike_id":"8f55f6cc-0b54-4d5f-9029-aa15dfd6d9b0","system_id":"levelo_inurba_marseille","lat":43.31618,"lon":5.39066,"is_reserved":false,"is_disabled":false,"rental_uris":{"android":"levelo://app?vid=8f55f6cc-0b54-4d5f-9029-aa15dfd6d9b0","ios":"levelo://app?vid=8f55f6cc-0b54-4d5f-9029-aa15dfd6d9b0"},"vehicle_type_id":"4","last_reported":1730416201,"current_range_meters":12000,"station_id":"","pricing_plan_id":"cebpf4jnsgd1na2vs0mg"},{"bike_id":"82fc33c9-8df5-4ecc-84d7-15cbf03ea71f","system_id":"levelo_inurba_marseille","lat":43.25111,"lon":5.40326,"is_reserved":false,"is_disabled":false,"rental_uris":{"android":"levelo://app?vid=82fc33c9-8df5-4ecc-84d7-15cbf03ea71f","ios":"levelo://app?vid=82fc33c9-8df5-4ecc-84d7-15cbf03ea71f"},"vehicle_type_id":"4","last_reported":1730416201,"current_range_meters":15200,"station_id":"ce4bhlh2rcd13ifvqgig","pricing_plan_id":"cebpf4jnsgd1na2vs0mg"},{"bike_id":"f43d672d-bc61-4cce-908b-d99b79faaa4f","system_id":"levelo_inurba_marseille","lat":43.29549,"lon":5.38553,"is_reserved":false,"is_disabled":false,"rental_uris":{"android":"levelo://app?vid=f43d672d-bc61-4cce-908b-d99b79faaa4f","ios":"levelo://app?vid=f43d672d-bc61-4cce-908b-d99b79faaa4f"},"vehicle_type_id":"4","last_reported":1730416201,"current_range_meters":11600,"station_id":"ce4bgih2rcd13ifvqba0","pricing_plan_id":"cebpf4jnsgd1na2vs0mg"},{"bike_id":"eeda3afa-2071-4f66-8359-4068473adcce","system_id":"levelo_inurba_marseille","lat":43.2988,"lon":5.38917,"is_reserved":false,"is_disabled":false,"rental_uris":{"android":"levelo://app?vid=eeda3afa-2071-4f66-8359-4068473adcce","ios":"levelo://app?vid=eeda3afa-2071-4f66-8359-4068473adcce"},"vehicle_type_id":"4","last_reported":1730416201,"current_range_meters":36800,"station_id":"ce4bh392rcd13ifvqdl0","pricing_plan_id":"cebpf4jnsgd1na2vs0mg"},{"bike_id":"5ff74640-5d39-40f8-808a-e5695df59fd4","system_id":"levelo_inurba_marseille","lat":43.27209,"lon":5.41038,"is_reserved":false,"is_disabled":false,"rental_uris":{"android":"levelo://app?vid=5ff74640-5d39-40f8-808a-e5695df59fd4","ios":"levelo://app?vid=5ff74640-5d39-40f8-808a-e5695df59fd4"},"vehicle_type_id":"4","last_reported":1730416201,"current_range_meters":4800,"station_id":"","pricing_plan_id":"cebpf4jnsgd1na2vs0mg"},{"bike_id":"0025026b-9323-4a17-8cbb-98d007ce909d","system_id":"levelo_inurba_marseille","lat":43.31084,"lon":5.42429,"is_reserved":false,"is_disabled":false,"rental_uris":{"android":"levelo://app?vid=0025026b-9323-4a17-8cbb-98d007ce909d","ios":"levelo://app?vid=0025026b-9323-4a17-8cbb-98d007ce909d"},"vehicle_type_id":"4","last_reported":1730416201,"current_range_meters":10800,"station_id":"ce4bhp92rcd13ifvqhag","pricing_plan_id":"cebpf4jnsgd1na2vs0mg"},{"bike_id":"31e1a95c-905f-419b-92f9-c0c1fbb05d32","system_id":"levelo_inurba_marseille","lat":43.28944,"lon":5.36392,"is_reserved":false,"is_disabled":false,"rental_uris":{"android":"levelo://app?vid=31e1a95c-905f-419b-92f9-c0c1fbb05d32","ios":"levelo://app?vid=31e1a95c-905f-419b-92f9-c0c1fbb05d32"},"vehicle_type_id":"4","last_reported":1730416201,"current_range_meters":9200,"station_id":"ce4bhc92rcd13ifvqetg","pricing_plan_id":"cebpf4jnsgd1na2vs0mg"},{"bike_id":"f6e7ee66-34c8-4aac-8df5-1eabf5cc153c","system_id":"levelo_inurba_marseille","lat":43.29273,"lon":5.38454,"is_reserved":false,"is_disabled":false,"rental_uris":{"android":"levelo://app?vid=f6e7ee66-34c8-4aac-8df5-1eabf5cc153c","ios":"levelo://app?vid=f6e7ee66-34c8-4aac-8df5-1eabf5cc153c"},"vehicle_type_id":"4","last_reported":1730416201,"current_range_meters":16400,"station_id":"ce4bh692rcd13ifvqea0","pricing_plan_id":"cebpf4jnsgd1na2vs0mg"},{"bike_id":"e5659d1a-b65f-45fa-ad8e-f1a137e339e9","system_id":"levelo_inurba_marseille","lat":43.29798,"lon":5.38102,"is_reserved":false,"is_disabled":false,"rental_uris":{"android":"levelo://app?vid=e5659d1a-b65f-45fa-ad8e-f1a137e339e9","ios":"levelo://app?vid=e5659d1a-b65f-45fa-ad8e-f1a137e339e9"},"vehicle_type_id":"4","last_reported":1730416201,"current_range_meters":8400,"station_id":"ce4bgip2rcd13ifvqbb0","pricing_plan_id":"cebpf4jnsgd1na2vs0mg"},{"bike_id":"e0668f95-9931-4760-9d86-0788d318d622","system_id":"levelo_inurba_marseille","lat":43.26194,"lon":5.37446,"is_reserved":false,"is_disabled":false,"rental_uris":{"android":"levelo://app?vid=e0668f95-9931-4760-9d86-0788d318d622","ios":"levelo://app?vid=e0668f95-9931-4760-9d86-0788d318d622"},"vehicle_type_id":"4","last_reported":1730416201,"current_range_meters":25600,"station_id":"ce4bhgp2rcd13ifvqfc0","pricing_plan_id":"cebpf4jnsgd1na2vs0mg"},{"bike_id":"b4c274ad-1995-4bce-ba3e-0e7834939abd","system_id":"levelo_inurba_marseille","lat":43.29008,"lon":5.35618,"is_reserved":false,"is_disabled":false,"rental_uris":{"android":"levelo://app?vid=b4c274ad-1995-4bce-ba3e-0e7834939abd","ios":"levelo://app?vid=b4c274ad-1995-4bce-ba3e-0e7834939abd"},"vehicle_type_id":"4","last_reported":1730416201,"current_range_meters":9200,"station_id":"ce4bhb92rcd13ifvqen0","pricing_plan_id":"cebpf4jnsgd1na2vs0mg"},{"bike_id":"f36d82a0-b454-4386-9d13-d28ff2fc8463","system_id":"levelo_inurba_marseille","lat":43.33603,"lon":5.41033,"is_reserved":false,"is_disabled":false,"rental_uris":{"android":"levelo://app?vid=f36d82a0-b454-4386-9d13-d28ff2fc8463","ios":"levelo://app?vid=f36d82a0-b454-4386-9d13-d28ff2fc8463"},"vehicle_type_id":"4","last_reported":1730416201,"current_range_meters":38000,"station_id":"ce4bhqh2rcd13ifvqhmg","pricing_plan_id":"cebpf4jnsgd1na2vs0mg"},{"bike_id":"252958f8-299c-4d61-b499-58fd97a25178","system_id":"levelo_inurba_marseille","lat":43.273187,"lon":5.390877,"is_reserved":false,"is_disabled":false,"rental_uris":{"android":"levelo://app?vid=252958f8-299c-4d61-b499-58fd97a25178","ios":"levelo://app?vid=252958f8-299c-4d61-b499-58fd97a25178"},"vehicle_type_id":"4","last_reported":1730416201,"current_range_meters":34800,"station_id":"ce4bhgp2rcd13ifvqfe0","pricing_plan_id":"cebpf4jnsgd1na2vs0mg"},{"bike_id":"c15ea315-f443-4692-bdb8-8ccb72400909","system_id":"levelo_inurba_marseille","lat":43.30803,"lon":5.38161,"is_reserved":false,"is_disabled":false,"rental_uris":{"android":"levelo://app?vid=c15ea315-f443-4692-bdb8-8ccb72400909","ios":"levelo://app?vid=c15ea315-f443-4692-bdb8-8ccb72400909"},"vehicle_type_id":"4","last_reported":1730416201,"current_range_meters":4800,"station_id":"ce4bgt12rcd13ifvqce0","pricing_plan_id":"cebpf4jnsgd1na2vs0mg"},{"bike_id":"3958b000-eb5e-4965-a1f2-66f242ca8473","system_id":"levelo_inurba_marseille","lat":43.30441,"lon":5.3889,"is_reserved":false,"is_disabled":false,"rental_uris":{"android":"levelo://app?vid=3958b000-eb5e-4965-a1f2-66f242ca8473","ios":"levelo://app?vid=3958b000-eb5e-4965-a1f2-66f242ca8473"},"vehicle_type_id":"4","last_reported":1730416201,"current_range_meters":15200,"station_id":"ce4bgk12rcd13ifvqbi0","pricing_plan_id":"cebpf4jnsgd1na2vs0mg"},{"bike_id":"5d215c0b-6297-4293-bd3f-e5a21e1a0175","system_id":"levelo_inurba_marseille","lat":43.28501,"lon":5.38565,"is_reserved":false,"is_disabled":false,"rental_uris":{"android":"levelo://app?vid=5d215c0b-6297-4293-bd3f-e5a21e1a0175","ios":"levelo://app?vid=5d215c0b-6297-4293-bd3f-e5a21e1a0175"},"vehicle_type_id":"4","last_reported":1730416201,"current_range_meters":28400,"station_id":"ce4bh8p2rcd13ifvqeb0","pricing_plan_id":"cebpf4jnsgd1na2vs0mg"},{"bike_id":"9125c06e-a999-402e-964e-74463a7d5f9e","system_id":"levelo_inurba_marseille","lat":43.2721,"lon":5.39179,"is_reserved":false,"is_disabled":false,"rental_uris":{"android":"levelo://app?vid=9125c06e-a999-402e-964e-74463a7d5f9e","ios":"levelo://app?vid=9125c06e-a999-402e-964e-74463a7d5f9e"},"vehicle_type_id":"4","last_reported":1730416201,"current_range_meters":38800,"station_id":"ce4bhhp2rcd13ifvqfm0","pricing_plan_id":"cebpf4jnsgd1na2vs0mg"},{"bike_id":"3a09ceaf-2e70-40df-b9b5-539e96d81463","system_id":"levelo_inurba_marseille","lat":43.26948,"lon":5.3864,"is_reserved":false,"is_disabled":false,"rental_uris":{"android":"levelo://app?vid=3a09ceaf-2e70-40df-b9b5-539e96d81463","ios":"levelo://app?vid=3a09ceaf-2e70-40df-b9b5-539e96d81463"},"vehicle_type_id":"4","last_reported":1730416201,"current_range_meters":30400,"station_id":"ce4bhh92rcd13ifvqfh0","pricing_plan_id":"cebpf4jnsgd1na2vs0mg"},{"bike_id":"5b1beb29-08c3-4517-96e1-89c4b727e0c3","system_id":"levelo_inurba_marseille","lat":43.23199,"lon":5.35551,"is_reserved":false,"is_disabled":false,"rental_uris":{"android":"levelo://app?vid=5b1beb29-08c3-4517-96e1-89c4b727e0c3","ios":"levelo://app?vid=5b1beb29-08c3-4517-96e1-89c4b727e0c3"},"vehicle_type_id":"4","last_reported":1730416201,"current_range_meters":32400,"station_id":"ce4bhu92rcd13ifvqi70","pricing_plan_id":"cebpf4jnsgd1na2vs0mg"},{"bike_id":"b8c309ac-2d71-44a4-9ec0-1d42458adc5a","system_id":"levelo_inurba_marseille","lat":43.29426,"lon":5.3861,"is_reserved":false,"is_disabled":false,"rental_uris":{"android":"levelo://app?vid=b8c309ac-2d71-44a4-9ec0-1d42458adc5a","ios":"levelo://app?vid=b8c309ac-2d71-44a4-9ec0-1d42458adc5a"},"vehicle_type_id":"4","last_reported":1730416201,"current_range_meters":38400,"station_id":"ce4bh2h2rcd13ifvqdh0","pricing_plan_id":"cebpf4jnsgd1na2vs0mg"},{"bike_id":"d8de5714-58af-4d06-95fa-16cf8ce84d6a","system_id":"levelo_inurba_marseille","lat":43.3079,"lon":5.37645,"is_reserved":false,"is_disabled":false,"rental_uris":{"android":"levelo://app?vid=d8de5714-58af-4d06-95fa-16cf8ce84d6a","ios":"levelo://app?vid=d8de5714-58af-4d06-95fa-16cf8ce84d6a"},"vehicle_type_id":"4","last_reported":1730416201,"current_range_meters":38800,"station_id":"ce4bgv92rcd13ifvqcq0","pricing_plan_id":"cebpf4jnsgd1na2vs0mg"},{"bike_id":"678bd49d-4e97-464a-9d6b-ff8f1a094f5f","system_id":"levelo_inurba_marseille","lat":43.29023,"lon":5.38641,"is_reserved":false,"is_disabled":false,"rental_uris":{"android":"levelo://app?vid=678bd49d-4e97-464a-9d6b-ff8f1a094f5f","ios":"levelo://app?vid=678bd49d-4e97-464a-9d6b-ff8f1a094f5f"},"vehicle_type_id":"4","last_reported":1730416201,"current_range_meters":39200,"station_id":"ce4bh4p2rcd13ifvqe0g","pricing_plan_id":"cebpf4jnsgd1na2vs0mg"},{"bike_id":"3e327412-b97e-4df4-824e-ea37ac5a7548","system_id":"levelo_inurba_marseille","lat":43.28729,"lon":5.36094,"is_reserved":false,"is_disabled":false,"rental_uris":{"android":"levelo://app?vid=3e327412-b97e-4df4-824e-ea37ac5a7548","ios":"levelo://app?vid=3e327412-b97e-4df4-824e-ea37ac5a7548"},"vehicle_type_id":"4","last_reported":1730416201,"current_range_meters":33600,"station_id":"cki0cbj6b192h4jlfktg","pricing_plan_id":"cebpf4jnsgd1na2vs0mg"},{"bike_id":"f99547b6-e0b7-4a86-b4bb-f600f8ca5cb2","system_id":"levelo_inurba_marseille","lat":43.24168,"lon":5.36401,"is_reserved":false,"is_disabled":false,"rental_uris":{"android":"levelo://app?vid=f99547b6-e0b7-4a86-b4bb-f600f8ca5cb2","ios":"levelo://app?vid=f99547b6-e0b7-4a86-b4bb-f600f8ca5cb2"},"vehicle_type_id":"4","last_reported":1730416201,"current_range_meters":8800,"station_id":"cpo36qri1sfpv3e86is0","pricing_plan_id":"cebpf4jnsgd1na2vs0mg"},{"bike_id":"592f4fc4-36f6-4068-ad0e-e5415fc9cbe7","system_id":"levelo_inurba_marseille","lat":43.24208,"lon":5.37943,"is_reserved":false,"is_disabled":false,"rental_uris":{"android":"levelo://app?vid=592f4fc4-36f6-4068-ad0e-e5415fc9cbe7","ios":"levelo://app?vid=592f4fc4-36f6-4068-ad0e-e5415fc9cbe7"},"vehicle_type_id":"4","last_reported":1730416201,"current_range_meters":7200,"station_id":"ce4bhnp2rcd13ifvqgvg","pricing_plan_id":"cebpf4jnsgd1na2vs0mg"},{"bike_id":"794d23c0-def7-4557-a69a-112ea268f585","system_id":"levelo_inurba_marseille","lat":43.231922,"lon":5.355573,"is_reserved":false,"is_disabled":false,"rental_uris":{"android":"levelo://app?vid=794d23c0-def7-4557-a69a-112ea268f585","ios":"levelo://app?vid=794d23c0-def7-4557-a69a-112ea268f585"},"vehicle_type_id":"4","last_reported":1730416201,"current_range_meters":39200,"station_id":"ce4bhu92rcd13ifvqi70","pricing_plan_id":"cebpf4jnsgd1na2vs0mg"},{"bike_id":"d66059ff-f033-40f3-b26d-de5e031226fa","system_id":"levelo_inurba_marseille","lat":43.28469,"lon":5.35894,"is_reserved":false,"is_disabled":false,"rental_uris":{"android":"levelo://app?vid=d66059ff-f033-40f3-b26d-de5e031226fa","ios":"levelo://app?vid=d66059ff-f033-40f3-b26d-de5e031226fa"},"vehicle_type_id":"4","last_reported":1730416201,"current_range_meters":27200,"station_id":"ce4bhah2rcd13ifvqei0","pricing_plan_id":"cebpf4jnsgd1na2vs0mg"},{"bike_id":"5454e530-5c87-4957-bf94-620cb84627b6","system_id":"levelo_inurba_marseille","lat":43.28154,"lon":5.42649,"is_reserved":false,"is_disabled":false,"rental_uris":{"android":"levelo://app?vid=5454e530-5c87-4957-bf94-620cb84627b6","ios":"levelo://app?vid=5454e530-5c87-4957-bf94-620cb84627b6"},"vehicle_type_id":"4","last_reported":1730416201,"current_range_meters":20800,"station_id":"ce4bhnh2rcd13ifvqgug","pricing_plan_id":"cebpf4jnsgd1na2vs0mg"},{"bike_id":"d843627f-14fd-4686-94e3-ce47a963fbbd","system_id":"levelo_inurba_marseille","lat":43.29264,"lon":5.38436,"is_reserved":false,"is_disabled":false,"rental_uris":{"android":"levelo://app?vid=d843627f-14fd-4686-94e3-ce47a963fbbd","ios":"levelo://app?vid=d843627f-14fd-4686-94e3-ce47a963fbbd"},"vehicle_type_id":"4","last_reported":1730416201,"current_range_meters":38800,"station_id":"ce4bh692rcd13ifvqea0","pricing_plan_id":"cebpf4jnsgd1na2vs0mg"},{"bike_id":"c9fe9305-e5b5-403a-8ac6-ee784523647c","system_id":"levelo_inurba_marseille","lat":43.23433,"lon":5.35947,"is_reserved":false,"is_disabled":false,"rental_uris":{"android":"levelo://app?vid=c9fe9305-e5b5-403a-8ac6-ee784523647c","ios":"levelo://app?vid=c9fe9305-e5b5-403a-8ac6-ee784523647c"},"vehicle_type_id":"4","last_reported":1730416201,"current_range_meters":25200,"station_id":"","pricing_plan_id":"cebpf4jnsgd1na2vs0mg"},{"bike_id":"3762b5b7-778d-4d2e-9b34-ac4ef4125c24","system_id":"levelo_inurba_marseille","lat":43.27617,"lon":5.36109,"is_reserved":false,"is_disabled":false,"rental_uris":{"android":"levelo://app?vid=3762b5b7-778d-4d2e-9b34-ac4ef4125c24","ios":"levelo://app?vid=3762b5b7-778d-4d2e-9b34-ac4ef4125c24"},"vehicle_type_id":"4","last_reported":1730416201,"current_range_meters":36400,"station_id":"ce4bgj92rcd13ifvqbe0","pricing_plan_id":"cebpf4jnsgd1na2vs0mg"},{"bike_id":"e1f38475-1a5f-460f-8d3a-c2ed01dbd393","system_id":"levelo_inurba_marseille","lat":43.29028,"lon":5.38641,"is_reserved":false,"is_disabled":false,"rental_uris":{"android":"levelo://app?vid=e1f38475-1a5f-460f-8d3a-c2ed01dbd393","ios":"levelo://app?vid=e1f38475-1a5f-460f-8d3a-c2ed01dbd393"},"vehicle_type_id":"4","last_reported":1730416201,"current_range_meters":38800,"station_id":"ce4bh4p2rcd13ifvqe0g","pricing_plan_id":"cebpf4jnsgd1na2vs0mg"},{"bike_id":"d8a409ff-6144-4374-8c56-d9110c2c8c33","system_id":"levelo_inurba_marseille","lat":43.301392,"lon":5.398741,"is_reserved":false,"is_disabled":false,"rental_uris":{"android":"levelo://app?vid=d8a409ff-6144-4374-8c56-d9110c2c8c33","ios":"levelo://app?vid=d8a409ff-6144-4374-8c56-d9110c2c8c33"},"vehicle_type_id":"4","last_reported":1730416201,"current_range_meters":9600,"station_id":"ce4bh0h2rcd13ifvqd40","pricing_plan_id":"cebpf4jnsgd1na2vs0mg"},{"bike_id":"5b65c998-a70a-4147-a5ad-cfde4a53ff4d","system_id":"levelo_inurba_marseille","lat":43.290195,"lon":5.386415,"is_reserved":false,"is_disabled":false,"rental_uris":{"android":"levelo://app?vid=5b65c998-a70a-4147-a5ad-cfde4a53ff4d","ios":"levelo://app?vid=5b65c998-a70a-4147-a5ad-cfde4a53ff4d"},"vehicle_type_id":"4","last_reported":1730416201,"current_range_meters":27200,"station_id":"ce4bh4p2rcd13ifvqe0g","pricing_plan_id":"cebpf4jnsgd1na2vs0mg"},{"bike_id":"60223806-a44d-4bd3-a685-de2b36919390","system_id":"levelo_inurba_marseille","lat":43.2759,"lon":5.38515,"is_reserved":false,"is_disabled":false,"rental_uris":{"android":"levelo://app?vid=60223806-a44d-4bd3-a685-de2b36919390","ios":"levelo://app?vid=60223806-a44d-4bd3-a685-de2b36919390"},"vehicle_type_id":"4","last_reported":1730416201,"current_range_meters":16000,"station_id":"","pricing_plan_id":"cebpf4jnsgd1na2vs0mg"},{"bike_id":"7e57f650-9611-43e9-8e9d-0037a90a6037","system_id":"levelo_inurba_marseille","lat":43.30931,"lon":5.40144,"is_reserved":false,"is_disabled":false,"rental_uris":{"android":"levelo://app?vid=7e57f650-9611-43e9-8e9d-0037a90a6037","ios":"levelo://app?vid=7e57f650-9611-43e9-8e9d-0037a90a6037"},"vehicle_type_id":"4","last_reported":1730416201,"current_range_meters":20800,"station_id":"ce4bgvp2rcd13ifvqct0","pricing_plan_id":"cebpf4jnsgd1na2vs0mg"},{"bike_id":"128e004d-d866-4629-b9a8-0ef62bb11b68","system_id":"levelo_inurba_marseille","lat":43.29894,"lon":5.43663,"is_reserved":false,"is_disabled":false,"rental_uris":{"android":"levelo://app?vid=128e004d-d866-4629-b9a8-0ef62bb11b68","ios":"levelo://app?vid=128e004d-d866-4629-b9a8-0ef62bb11b68"},"vehicle_type_id":"4","last_reported":1730416201,"current_range_meters":11600,"station_id":"ce4bhpp2rcd13ifvqhfg","pricing_plan_id":"cebpf4jnsgd1na2vs0mg"},{"bike_id":"501e2dd8-5de1-4db3-9502-fb8ae08b3030","system_id":"levelo_inurba_marseille","lat":43.2721,"lon":5.391857,"is_reserved":false,"is_disabled":false,"rental_uris":{"android":"levelo://app?vid=501e2dd8-5de1-4db3-9502-fb8ae08b3030","ios":"levelo://app?vid=501e2dd8-5de1-4db3-9502-fb8ae08b3030"},"vehicle_type_id":"4","last_reported":1730416201,"current_range_meters":12000,"station_id":"ce4bhhp2rcd13ifvqfm0","pricing_plan_id":"cebpf4jnsgd1na2vs0mg"},{"bike_id":"a170b4cb-3e23-4249-961a-c8b3c67a8011","system_id":"levelo_inurba_marseille","lat":43.29541,"lon":5.38542,"is_reserved":false,"is_disabled":false,"rental_uris":{"android":"levelo://app?vid=a170b4cb-3e23-4249-961a-c8b3c67a8011","ios":"levelo://app?vid=a170b4cb-3e23-4249-961a-c8b3c67a8011"},"vehicle_type_id":"4","last_reported":1730416201,"current_range_meters":12400,"station_id":"ce4bgih2rcd13ifvqba0","pricing_plan_id":"cebpf4jnsgd1na2vs0mg"},{"bike_id":"b019a3db-d3dc-4eb2-99df-c13cffd04fab","system_id":"levelo_inurba_marseille","lat":43.27909,"lon":5.39589,"is_reserved":false,"is_disabled":false,"rental_uris":{"android":"levelo://app?vid=b019a3db-d3dc-4eb2-99df-c13cffd04fab","ios":"levelo://app?vid=b019a3db-d3dc-4eb2-99df-c13cffd04fab"},"vehicle_type_id":"4","last_reported":1730416201,"current_range_meters":38800,"station_id":"ce4bhf92rcd13ifvqf40","pricing_plan_id":"cebpf4jnsgd1na2vs0mg"},{"bike_id":"f64780b2-1768-4481-bc9c-3c6d67099c9d","system_id":"levelo_inurba_marseille","lat":43.30106,"lon":5.39084,"is_reserved":false,"is_disabled":false,"rental_uris":{"android":"levelo://app?vid=f64780b2-1768-4481-bc9c-3c6d67099c9d","ios":"levelo://app?vid=f64780b2-1768-4481-bc9c-3c6d67099c9d"},"vehicle_type_id":"4","last_reported":1730416201,"current_range_meters":37600,"station_id":"ce4bh192rcd13ifvqdb0","pricing_plan_id":"cebpf4jnsgd1na2vs0mg"},{"bike_id":"91135560-0827-4820-8db7-18690afe81ab","system_id":"levelo_inurba_marseille","lat":43.30594,"lon":5.37214,"is_reserved":false,"is_disabled":false,"rental_uris":{"android":"levelo://app?vid=91135560-0827-4820-8db7-18690afe81ab","ios":"levelo://app?vid=91135560-0827-4820-8db7-18690afe81ab"},"vehicle_type_id":"4","last_reported":1730416201,"current_range_meters":24000,"station_id":"ce4bgqh2rcd13ifvqc4g","pricing_plan_id":"cebpf4jnsgd1na2vs0mg"},{"bike_id":"a75fbca2-5497-4a02-b16d-20d1c5a8f209","system_id":"levelo_inurba_marseille","lat":43.27211,"lon":5.39175,"is_reserved":false,"is_disabled":false,"rental_uris":{"android":"levelo://app?vid=a75fbca2-5497-4a02-b16d-20d1c5a8f209","ios":"levelo://app?vid=a75fbca2-5497-4a02-b16d-20d1c5a8f209"},"vehicle_type_id":"4","last_reported":1730416201,"current_range_meters":36800,"station_id":"ce4bhhp2rcd13ifvqfm0","pricing_plan_id":"cebpf4jnsgd1na2vs0mg"},{"bike_id":"30cd3637-5231-4451-8b17-3902824e2d98","system_id":"levelo_inurba_marseille","lat":43.31436,"lon":5.39304,"is_reserved":false,"is_disabled":false,"rental_uris":{"android":"levelo://app?vid=30cd3637-5231-4451-8b17-3902824e2d98","ios":"levelo://app?vid=30cd3637-5231-4451-8b17-3902824e2d98"},"vehicle_type_id":"4","last_reported":1730416201,"current_range_meters":20000,"station_id":"","pricing_plan_id":"cebpf4jnsgd1na2vs0mg"},{"bike_id":"2a311701-dcc7-496f-a760-0e581d5d4522","system_id":"levelo_inurba_marseille","lat":43.29032,"lon":5.37575,"is_reserved":false,"is_disabled":false,"rental_uris":{"android":"levelo://app?vid=2a311701-dcc7-496f-a760-0e581d5d4522","ios":"levelo://app?vid=2a311701-dcc7-496f-a760-0e581d5d4522"},"vehicle_type_id":"4","last_reported":1730416201,"current_range_meters":22400,"station_id":"ce4bh692rcd13ifvqe90","pricing_plan_id":"cebpf4jnsgd1na2vs0mg"},{"bike_id":"1a42306b-60a4-428c-be70-5356ee634902","system_id":"levelo_inurba_marseille","lat":43.29261,"lon":5.40903,"is_reserved":false,"is_disabled":false,"rental_uris":{"android":"levelo://app?vid=1a42306b-60a4-428c-be70-5356ee634902","ios":"levelo://app?vid=1a42306b-60a4-428c-be70-5356ee634902"},"vehicle_type_id":"4","last_reported":1730416201,"current_range_meters":27200,"station_id":"ce4bh192rcd13ifvqdc0","pricing_plan_id":"cebpf4jnsgd1na2vs0mg"},{"bike_id":"e8c4e24f-476f-443e-b5f0-ef78d7e0d75f","system_id":"levelo_inurba_marseille","lat":43.31274,"lon":5.40176,"is_reserved":false,"is_disabled":false,"rental_uris":{"android":"levelo://app?vid=e8c4e24f-476f-443e-b5f0-ef78d7e0d75f","ios":"levelo://app?vid=e8c4e24f-476f-443e-b5f0-ef78d7e0d75f"},"vehicle_type_id":"4","last_reported":1730416201,"current_range_meters":4800,"station_id":"ce4bh092rcd13ifvqd30","pricing_plan_id":"cebpf4jnsgd1na2vs0mg"},{"bike_id":"4cedc86e-eaef-4646-9511-6e0be320f185","system_id":"levelo_inurba_marseille","lat":43.27432,"lon":5.39427,"is_reserved":false,"is_disabled":false,"rental_uris":{"android":"levelo://app?vid=4cedc86e-eaef-4646-9511-6e0be320f185","ios":"levelo://app?vid=4cedc86e-eaef-4646-9511-6e0be320f185"},"vehicle_type_id":"4","last_reported":1730416201,"current_range_meters":26800,"station_id":"ce4bhdp2rcd13ifvqf20","pricing_plan_id":"cebpf4jnsgd1na2vs0mg"},{"bike_id":"3aeec801-f328-4fc4-b8d3-6e95204a7c20","system_id":"levelo_inurba_marseille","lat":43.28004,"lon":5.40395,"is_reserved":false,"is_disabled":false,"rental_uris":{"android":"levelo://app?vid=3aeec801-f328-4fc4-b8d3-6e95204a7c20","ios":"levelo://app?vid=3aeec801-f328-4fc4-b8d3-6e95204a7c20"},"vehicle_type_id":"4","last_reported":1730416201,"current_range_meters":3200,"station_id":"","pricing_plan_id":"cebpf4jnsgd1na2vs0mg"},{"bike_id":"f221aab7-1d6f-4b38-9b62-97b3a1fc5f0e","system_id":"levelo_inurba_marseille","lat":43.3149,"lon":5.37302,"is_reserved":false,"is_disabled":false,"rental_uris":{"android":"levelo://app?vid=f221aab7-1d6f-4b38-9b62-97b3a1fc5f0e","ios":"levelo://app?vid=f221aab7-1d6f-4b38-9b62-97b3a1fc5f0e"},"vehicle_type_id":"4","last_reported":1730416201,"current_range_meters":33600,"station_id":"ce4bgt12rcd13ifvqcd0","pricing_plan_id":"cebpf4jnsgd1na2vs0mg"},{"bike_id":"28d3908a-af05-463f-ba89-60bb7ec0116a","system_id":"levelo_inurba_marseille","lat":43.29549,"lon":5.38561,"is_reserved":false,"is_disabled":false,"rental_uris":{"android":"levelo://app?vid=28d3908a-af05-463f-ba89-60bb7ec0116a","ios":"levelo://app?vid=28d3908a-af05-463f-ba89-60bb7ec0116a"},"vehicle_type_id":"4","last_reported":1730416201,"current_range_meters":36000,"station_id":"ce4bgih2rcd13ifvqba0","pricing_plan_id":"cebpf4jnsgd1na2vs0mg"},{"bike_id":"a696201d-b0ac-4c94-8645-57d3fc3b34ed","system_id":"levelo_inurba_marseille","lat":43.25578,"lon":5.38232,"is_reserved":false,"is_disabled":false,"rental_uris":{"android":"levelo://app?vid=a696201d-b0ac-4c94-8645-57d3fc3b34ed","ios":"levelo://app?vid=a696201d-b0ac-4c94-8645-57d3fc3b34ed"},"vehicle_type_id":"4","last_reported":1730416201,"current_range_meters":24400,"station_id":"ce4bhih2rcd13ifvqfs0","pricing_plan_id":"cebpf4jnsgd1na2vs0mg"},{"bike_id":"04c24d9e-08eb-4dff-90d7-1f58cff3ed66","system_id":"levelo_inurba_marseille","lat":43.28154,"lon":5.42652,"is_reserved":false,"is_disabled":false,"rental_uris":{"android":"levelo://app?vid=04c24d9e-08eb-4dff-90d7-1f58cff3ed66","ios":"levelo://app?vid=04c24d9e-08eb-4dff-90d7-1f58cff3ed66"},"vehicle_type_id":"4","last_reported":1730416201,"current_range_meters":6400,"station_id":"ce4bhnh2rcd13ifvqgug","pricing_plan_id":"cebpf4jnsgd1na2vs0mg"},{"bike_id":"2e67f7b6-01c2-4ccc-9d96-369af4546414","system_id":"levelo_inurba_marseille","lat":43.2955,"lon":5.3855,"is_reserved":false,"is_disabled":false,"rental_uris":{"android":"levelo://app?vid=2e67f7b6-01c2-4ccc-9d96-369af4546414","ios":"levelo://app?vid=2e67f7b6-01c2-4ccc-9d96-369af4546414"},"vehicle_type_id":"4","last_reported":1730416201,"current_range_meters":38400,"station_id":"ce4bgih2rcd13ifvqba0","pricing_plan_id":"cebpf4jnsgd1na2vs0mg"},{"bike_id":"a36019a5-dead-4d2b-a33f-5df6973c719f","system_id":"levelo_inurba_marseille","lat":43.2942,"lon":5.38631,"is_reserved":false,"is_disabled":false,"rental_uris":{"android":"levelo://app?vid=a36019a5-dead-4d2b-a33f-5df6973c719f","ios":"levelo://app?vid=a36019a5-dead-4d2b-a33f-5df6973c719f"},"vehicle_type_id":"4","last_reported":1730416201,"current_range_meters":4400,"station_id":"ce4bh2h2rcd13ifvqdh0","pricing_plan_id":"cebpf4jnsgd1na2vs0mg"},{"bike_id":"58748d2a-dff2-4bfe-ba69-a9beed25e62c","system_id":"levelo_inurba_marseille","lat":43.27111,"lon":5.39448,"is_reserved":false,"is_disabled":false,"rental_uris":{"android":"levelo://app?vid=58748d2a-dff2-4bfe-ba69-a9beed25e62c","ios":"levelo://app?vid=58748d2a-dff2-4bfe-ba69-a9beed25e62c"},"vehicle_type_id":"4","last_reported":1730416201,"current_range_meters":26000,"station_id":"","pricing_plan_id":"cebpf4jnsgd1na2vs0mg"},{"bike_id":"08ed22d7-663d-413b-8e4a-a32596a7792f","system_id":"levelo_inurba_marseille","lat":43.32487,"lon":5.41577,"is_reserved":false,"is_disabled":false,"rental_uris":{"android":"levelo://app?vid=08ed22d7-663d-413b-8e4a-a32596a7792f","ios":"levelo://app?vid=08ed22d7-663d-413b-8e4a-a32596a7792f"},"vehicle_type_id":"4","last_reported":1730416201,"current_range_meters":38800,"station_id":"","pricing_plan_id":"cebpf4jnsgd1na2vs0mg"},{"bike_id":"04854eef-7766-458c-9757-24ae146e0c9d","system_id":"levelo_inurba_marseille","lat":43.27808,"lon":5.40708,"is_reserved":false,"is_disabled":false,"rental_uris":{"android":"levelo://app?vid=04854eef-7766-458c-9757-24ae146e0c9d","ios":"levelo://app?vid=04854eef-7766-458c-9757-24ae146e0c9d"},"vehicle_type_id":"4","last_reported":1730416201,"current_range_meters":38000,"station_id":"ce4bhnh2rcd13ifvqgtg","pricing_plan_id":"cebpf4jnsgd1na2vs0mg"},{"bike_id":"fb536a03-1f45-4685-8473-f3f23d542b83","system_id":"levelo_inurba_marseille","lat":43.27312,"lon":5.39108,"is_reserved":false,"is_disabled":false,"rental_uris":{"android":"levelo://app?vid=fb536a03-1f45-4685-8473-f3f23d542b83","ios":"levelo://app?vid=fb536a03-1f45-4685-8473-f3f23d542b83"},"vehicle_type_id":"4","last_reported":1730416201,"current_range_meters":32800,"station_id":"ce4bhgp2rcd13ifvqfe0","pricing_plan_id":"cebpf4jnsgd1na2vs0mg"},{"bike_id":"eb5cb92a-273d-4bea-a89a-700fabb49ce0","system_id":"levelo_inurba_marseille","lat":43.27207,"lon":5.39184,"is_reserved":false,"is_disabled":false,"rental_uris":{"android":"levelo://app?vid=eb5cb92a-273d-4bea-a89a-700fabb49ce0","ios":"levelo://app?vid=eb5cb92a-273d-4bea-a89a-700fabb49ce0"},"vehicle_type_id":"4","last_reported":1730416201,"current_range_meters":4400,"station_id":"ce4bhhp2rcd13ifvqfm0","pricing_plan_id":"cebpf4jnsgd1na2vs0mg"},{"bike_id":"c557ff30-64af-48d0-84c0-028a6bb21719","system_id":"levelo_inurba_marseille","lat":43.28707,"lon":5.39986,"is_reserved":false,"is_disabled":false,"rental_uris":{"android":"levelo://app?vid=c557ff30-64af-48d0-84c0-028a6bb21719","ios":"levelo://app?vid=c557ff30-64af-48d0-84c0-028a6bb21719"},"vehicle_type_id":"4","last_reported":1730416201,"current_range_meters":8400,"station_id":"ce4bho92rcd13ifvqh3g","pricing_plan_id":"cebpf4jnsgd1na2vs0mg"},{"bike_id":"35b9aca8-7f70-4db8-a360-d94a8449d6d6","system_id":"levelo_inurba_marseille","lat":43.29606,"lon":5.38096,"is_reserved":false,"is_disabled":false,"rental_uris":{"android":"levelo://app?vid=35b9aca8-7f70-4db8-a360-d94a8449d6d6","ios":"levelo://app?vid=35b9aca8-7f70-4db8-a360-d94a8449d6d6"},"vehicle_type_id":"4","last_reported":1730416201,"current_range_meters":7200,"station_id":"ce4bgl12rcd13ifvqbo0","pricing_plan_id":"cebpf4jnsgd1na2vs0mg"},{"bike_id":"a8bf15a2-3da0-456e-bd97-081c5a518dd1","system_id":"levelo_inurba_marseille","lat":43.27375,"lon":5.36249,"is_reserved":false,"is_disabled":false,"rental_uris":{"android":"levelo://app?vid=a8bf15a2-3da0-456e-bd97-081c5a518dd1","ios":"levelo://app?vid=a8bf15a2-3da0-456e-bd97-081c5a518dd1"},"vehicle_type_id":"4","last_reported":1730416201,"current_range_meters":38800,"station_id":"ce4bhbh2rcd13ifvqeo0","pricing_plan_id":"cebpf4jnsgd1na2vs0mg"},{"bike_id":"ea860d18-d5bb-4b0e-a22b-25a2ca231534","system_id":"levelo_inurba_marseille","lat":43.29037,"lon":5.38657,"is_reserved":false,"is_disabled":false,"rental_uris":{"android":"levelo://app?vid=ea860d18-d5bb-4b0e-a22b-25a2ca231534","ios":"levelo://app?vid=ea860d18-d5bb-4b0e-a22b-25a2ca231534"},"vehicle_type_id":"4","last_reported":1730416201,"current_range_meters":34800,"station_id":"ce4bh4p2rcd13ifvqe0g","pricing_plan_id":"cebpf4jnsgd1na2vs0mg"},{"bike_id":"4748c607-e231-4758-abac-4ae44466df2c","system_id":"levelo_inurba_marseille","lat":43.29271,"lon":5.3845,"is_reserved":false,"is_disabled":false,"rental_uris":{"android":"levelo://app?vid=4748c607-e231-4758-abac-4ae44466df2c","ios":"levelo://app?vid=4748c607-e231-4758-abac-4ae44466df2c"},"vehicle_type_id":"4","last_reported":1730416201,"current_range_meters":39200,"station_id":"ce4bh692rcd13ifvqea0","pricing_plan_id":"cebpf4jnsgd1na2vs0mg"},{"bike_id":"94279a57-03c0-47b7-abe3-7226e86fd3b0","system_id":"levelo_inurba_marseille","lat":43.27616,"lon":5.36103,"is_reserved":false,"is_disabled":false,"rental_uris":{"android":"levelo://app?vid=94279a57-03c0-47b7-abe3-7226e86fd3b0","ios":"levelo://app?vid=94279a57-03c0-47b7-abe3-7226e86fd3b0"},"vehicle_type_id":"4","last_reported":1730416201,"current_range_meters":28000,"station_id":"ce4bgj92rcd13ifvqbe0","pricing_plan_id":"cebpf4jnsgd1na2vs0mg"},{"bike_id":"864a552f-87dd-464a-977f-d7ea2d5d0d29","system_id":"levelo_inurba_marseille","lat":43.27615,"lon":5.36105,"is_reserved":false,"is_disabled":false,"rental_uris":{"android":"levelo://app?vid=864a552f-87dd-464a-977f-d7ea2d5d0d29","ios":"levelo://app?vid=864a552f-87dd-464a-977f-d7ea2d5d0d29"},"vehicle_type_id":"4","last_reported":1730416201,"current_range_meters":24800,"station_id":"ce4bgj92rcd13ifvqbe0","pricing_plan_id":"cebpf4jnsgd1na2vs0mg"},{"bike_id":"1c03b1dd-0784-49b8-889b-839041fa077d","system_id":"levelo_inurba_marseille","lat":43.27617,"lon":5.36113,"is_reserved":false,"is_disabled":false,"rental_uris":{"android":"levelo://app?vid=1c03b1dd-0784-49b8-889b-839041fa077d","ios":"levelo://app?vid=1c03b1dd-0784-49b8-889b-839041fa077d"},"vehicle_type_id":"4","last_reported":1730416201,"current_range_meters":34800,"station_id":"ce4bgj92rcd13ifvqbe0","pricing_plan_id":"cebpf4jnsgd1na2vs0mg"},{"bike_id":"6ed6a989-9445-42cb-88f4-17f899a86427","system_id":"levelo_inurba_marseille","lat":43.2558,"lon":5.38228,"is_reserved":false,"is_disabled":false,"rental_uris":{"android":"levelo://app?vid=6ed6a989-9445-42cb-88f4-17f899a86427","ios":"levelo://app?vid=6ed6a989-9445-42cb-88f4-17f899a86427"},"vehicle_type_id":"4","last_reported":1730416201,"current_range_meters":34800,"station_id":"ce4bhih2rcd13ifvqfs0","pricing_plan_id":"cebpf4jnsgd1na2vs0mg"},{"bike_id":"46177a8e-0b94-46e7-964d-83d8f4973b3d","system_id":"levelo_inurba_marseille","lat":43.28106,"lon":5.37841,"is_reserved":false,"is_disabled":false,"rental_uris":{"android":"levelo://app?vid=46177a8e-0b94-46e7-964d-83d8f4973b3d","ios":"levelo://app?vid=46177a8e-0b94-46e7-964d-83d8f4973b3d"},"vehicle_type_id":"4","last_reported":1730416201,"current_range_meters":37600,"station_id":"ce4bha12rcd13ifvqee0","pricing_plan_id":"cebpf4jnsgd1na2vs0mg"},{"bike_id":"8a0bd193-24fa-4c05-a2cd-1d9d504a375a","system_id":"levelo_inurba_marseille","lat":43.32369,"lon":5.38884,"is_reserved":false,"is_disabled":false,"rental_uris":{"android":"levelo://app?vid=8a0bd193-24fa-4c05-a2cd-1d9d504a375a","ios":"levelo://app?vid=8a0bd193-24fa-4c05-a2cd-1d9d504a375a"},"vehicle_type_id":"4","last_reported":1730416201,"current_range_meters":34000,"station_id":"ce4bhqp2rcd13ifvqhog","pricing_plan_id":"cebpf4jnsgd1na2vs0mg"},{"bike_id":"ce7a9679-1309-4337-a277-05901a838b7d","system_id":"levelo_inurba_marseille","lat":43.29434,"lon":5.43383,"is_reserved":false,"is_disabled":false,"rental_uris":{"android":"levelo://app?vid=ce7a9679-1309-4337-a277-05901a838b7d","ios":"levelo://app?vid=ce7a9679-1309-4337-a277-05901a838b7d"},"vehicle_type_id":"4","last_reported":1730416201,"current_range_meters":19600,"station_id":"","pricing_plan_id":"cebpf4jnsgd1na2vs0mg"},{"bike_id":"298b0ed8-17ca-4d6f-aaf1-7b6ca6e3bf1e","system_id":"levelo_inurba_marseille","lat":43.28731,"lon":5.36101,"is_reserved":false,"is_disabled":false,"rental_uris":{"android":"levelo://app?vid=298b0ed8-17ca-4d6f-aaf1-7b6ca6e3bf1e","ios":"levelo://app?vid=298b0ed8-17ca-4d6f-aaf1-7b6ca6e3bf1e"},"vehicle_type_id":"4","last_reported":1730416201,"current_range_meters":33200,"station_id":"cki0cbj6b192h4jlfktg","pricing_plan_id":"cebpf4jnsgd1na2vs0mg"},{"bike_id":"742e3b39-99d0-477f-8dff-13676bdb1f4a","system_id":"levelo_inurba_marseille","lat":43.27065,"lon":5.42273,"is_reserved":false,"is_disabled":false,"rental_uris":{"android":"levelo://app?vid=742e3b39-99d0-477f-8dff-13676bdb1f4a","ios":"levelo://app?vid=742e3b39-99d0-477f-8dff-13676bdb1f4a"},"vehicle_type_id":"4","last_reported":1730416201,"current_range_meters":38800,"station_id":"ce4bhk92rcd13ifvqgb0","pricing_plan_id":"cebpf4jnsgd1na2vs0mg"},{"bike_id":"dcb8f151-5f72-4ce7-a41b-c8f44dd67b21","system_id":"levelo_inurba_marseille","lat":43.31365,"lon":5.38498,"is_reserved":false,"is_disabled":false,"rental_uris":{"android":"levelo://app?vid=dcb8f151-5f72-4ce7-a41b-c8f44dd67b21","ios":"levelo://app?vid=dcb8f151-5f72-4ce7-a41b-c8f44dd67b21"},"vehicle_type_id":"4","last_reported":1730416201,"current_range_meters":6000,"station_id":"ce4bgt92rcd13ifvqcf0","pricing_plan_id":"cebpf4jnsgd1na2vs0mg"},{"bike_id":"0327b2c3-a953-4a00-af49-25eb8099bcbf","system_id":"levelo_inurba_marseille","lat":43.31332,"lon":5.39697,"is_reserved":false,"is_disabled":false,"rental_uris":{"android":"levelo://app?vid=0327b2c3-a953-4a00-af49-25eb8099bcbf","ios":"levelo://app?vid=0327b2c3-a953-4a00-af49-25eb8099bcbf"},"vehicle_type_id":"4","last_reported":1730416201,"current_range_meters":38800,"station_id":"ce4bgvp2rcd13ifvqcu0","pricing_plan_id":"cebpf4jnsgd1na2vs0mg"},{"bike_id":"1e118e6b-ca08-4a1f-82dd-7bc52207365a","system_id":"levelo_inurba_marseille","lat":43.29422,"lon":5.38608,"is_reserved":false,"is_disabled":false,"rental_uris":{"android":"levelo://app?vid=1e118e6b-ca08-4a1f-82dd-7bc52207365a","ios":"levelo://app?vid=1e118e6b-ca08-4a1f-82dd-7bc52207365a"},"vehicle_type_id":"4","last_reported":1730416201,"current_range_meters":29600,"station_id":"ce4bh2h2rcd13ifvqdh0","pricing_plan_id":"cebpf4jnsgd1na2vs0mg"},{"bike_id":"6beb40b3-a83c-4877-9031-300bb62dfde5","system_id":"levelo_inurba_marseille","lat":43.31497,"lon":5.37306,"is_reserved":false,"is_disabled":false,"rental_uris":{"android":"levelo://app?vid=6beb40b3-a83c-4877-9031-300bb62dfde5","ios":"levelo://app?vid=6beb40b3-a83c-4877-9031-300bb62dfde5"},"vehicle_type_id":"4","last_reported":1730416201,"current_range_meters":38800,"station_id":"ce4bgt12rcd13ifvqcd0","pricing_plan_id":"cebpf4jnsgd1na2vs0mg"},{"bike_id":"95a62df0-b289-4d09-bdac-78323faeefa3","system_id":"levelo_inurba_marseille","lat":43.29056,"lon":5.35916,"is_reserved":false,"is_disabled":false,"rental_uris":{"android":"levelo://app?vid=95a62df0-b289-4d09-bdac-78323faeefa3","ios":"levelo://app?vid=95a62df0-b289-4d09-bdac-78323faeefa3"},"vehicle_type_id":"4","last_reported":1730416201,"current_range_meters":14400,"station_id":"ce4bha92rcd13ifvqeg0","pricing_plan_id":"cebpf4jnsgd1na2vs0mg"},{"bike_id":"98b6d671-73be-4e9f-9eb5-4e9410e42c9d","system_id":"levelo_inurba_marseille","lat":43.27611,"lon":5.36114,"is_reserved":false,"is_disabled":false,"rental_uris":{"android":"levelo://app?vid=98b6d671-73be-4e9f-9eb5-4e9410e42c9d","ios":"levelo://app?vid=98b6d671-73be-4e9f-9eb5-4e9410e42c9d"},"vehicle_type_id":"4","last_reported":1730416201,"current_range_meters":38400,"station_id":"ce4bgj92rcd13ifvqbe0","pricing_plan_id":"cebpf4jnsgd1na2vs0mg"},{"bike_id":"35fa3dc7-0f44-44fe-aed1-8d04f2c14a3b","system_id":"levelo_inurba_marseille","lat":43.24074,"lon":5.37759,"is_reserved":false,"is_disabled":false,"rental_uris":{"android":"levelo://app?vid=35fa3dc7-0f44-44fe-aed1-8d04f2c14a3b","ios":"levelo://app?vid=35fa3dc7-0f44-44fe-aed1-8d04f2c14a3b"},"vehicle_type_id":"4","last_reported":1730416201,"current_range_meters":11600,"station_id":"ce4bhnp2rcd13ifvqgvg","pricing_plan_id":"cebpf4jnsgd1na2vs0mg"},{"bike_id":"ddcb8c78-8f0e-409e-886a-863067960766","system_id":"levelo_inurba_marseille","lat":43.2857,"lon":5.39505,"is_reserved":false,"is_disabled":false,"rental_uris":{"android":"levelo://app?vid=ddcb8c78-8f0e-409e-886a-863067960766","ios":"levelo://app?vid=ddcb8c78-8f0e-409e-886a-863067960766"},"vehicle_type_id":"4","last_reported":1730416201,"current_range_meters":37600,"station_id":"ce4bh292rcd13ifvqdg0","pricing_plan_id":"cebpf4jnsgd1na2vs0mg"},{"bike_id":"99f60d99-0a57-4992-9e28-beeb29ec765f","system_id":"levelo_inurba_marseille","lat":43.3229,"lon":5.38278,"is_reserved":false,"is_disabled":false,"rental_uris":{"android":"levelo://app?vid=99f60d99-0a57-4992-9e28-beeb29ec765f","ios":"levelo://app?vid=99f60d99-0a57-4992-9e28-beeb29ec765f"},"vehicle_type_id":"4","last_reported":1730416201,"current_range_meters":38000,"station_id":"ce4bhr12rcd13ifvqhqg","pricing_plan_id":"cebpf4jnsgd1na2vs0mg"},{"bike_id":"c781ee69-b36b-4548-bb92-3e1f31cb6aa0","system_id":"levelo_inurba_marseille","lat":43.276306,"lon":5.389408,"is_reserved":false,"is_disabled":false,"rental_uris":{"android":"levelo://app?vid=c781ee69-b36b-4548-bb92-3e1f31cb6aa0","ios":"levelo://app?vid=c781ee69-b36b-4548-bb92-3e1f31cb6aa0"},"vehicle_type_id":"4","last_reported":1730416201,"current_range_meters":4000,"station_id":"ce4bh4p2rcd13ifvqe1g","pricing_plan_id":"cebpf4jnsgd1na2vs0mg"},{"bike_id":"9c215870-8e02-463b-9f28-2a4f318141ab","system_id":"levelo_inurba_marseille","lat":43.30553,"lon":5.36537,"is_reserved":false,"is_disabled":false,"rental_uris":{"android":"levelo://app?vid=9c215870-8e02-463b-9f28-2a4f318141ab","ios":"levelo://app?vid=9c215870-8e02-463b-9f28-2a4f318141ab"},"vehicle_type_id":"4","last_reported":1730416201,"current_range_meters":38800,"station_id":"ce4bgs12rcd13ifvqcag","pricing_plan_id":"cebpf4jnsgd1na2vs0mg"},{"bike_id":"160c3125-d109-49e3-a687-ede78b99dea2","system_id":"levelo_inurba_marseille","lat":43.23204,"lon":5.35549,"is_reserved":false,"is_disabled":false,"rental_uris":{"android":"levelo://app?vid=160c3125-d109-49e3-a687-ede78b99dea2","ios":"levelo://app?vid=160c3125-d109-49e3-a687-ede78b99dea2"},"vehicle_type_id":"4","last_reported":1730416201,"current_range_meters":32800,"station_id":"ce4bhu92rcd13ifvqi70","pricing_plan_id":"cebpf4jnsgd1na2vs0mg"},{"bike_id":"0e664c17-da14-4dad-904a-bfe1e659c0e3","system_id":"levelo_inurba_marseille","lat":43.29423,"lon":5.38611,"is_reserved":false,"is_disabled":false,"rental_uris":{"android":"levelo://app?vid=0e664c17-da14-4dad-904a-bfe1e659c0e3","ios":"levelo://app?vid=0e664c17-da14-4dad-904a-bfe1e659c0e3"},"vehicle_type_id":"4","last_reported":1730416201,"current_range_meters":30400,"station_id":"ce4bh2h2rcd13ifvqdh0","pricing_plan_id":"cebpf4jnsgd1na2vs0mg"},{"bike_id":"ae31f7aa-ec14-4090-9ea9-479b30ff0ee5","system_id":"levelo_inurba_marseille","lat":43.33601,"lon":5.41038,"is_reserved":false,"is_disabled":false,"rental_uris":{"android":"levelo://app?vid=ae31f7aa-ec14-4090-9ea9-479b30ff0ee5","ios":"levelo://app?vid=ae31f7aa-ec14-4090-9ea9-479b30ff0ee5"},"vehicle_type_id":"4","last_reported":1730416201,"current_range_meters":34000,"station_id":"ce4bhqh2rcd13ifvqhmg","pricing_plan_id":"cebpf4jnsgd1na2vs0mg"},{"bike_id":"807117da-db55-4447-a26a-5d81b73c4d70","system_id":"levelo_inurba_marseille","lat":43.30543,"lon":5.36709,"is_reserved":false,"is_disabled":false,"rental_uris":{"android":"levelo://app?vid=807117da-db55-4447-a26a-5d81b73c4d70","ios":"levelo://app?vid=807117da-db55-4447-a26a-5d81b73c4d70"},"vehicle_type_id":"4","last_reported":1730416201,"current_range_meters":29600,"station_id":"ce4bgrp2rcd13ifvqc9g","pricing_plan_id":"cebpf4jnsgd1na2vs0mg"},{"bike_id":"9f4b3ed9-8fdf-49ee-82b0-52062da6c3cd","system_id":"levelo_inurba_marseille","lat":43.29425,"lon":5.38599,"is_reserved":false,"is_disabled":false,"rental_uris":{"android":"levelo://app?vid=9f4b3ed9-8fdf-49ee-82b0-52062da6c3cd","ios":"levelo://app?vid=9f4b3ed9-8fdf-49ee-82b0-52062da6c3cd"},"vehicle_type_id":"4","last_reported":1730416201,"current_range_meters":14000,"station_id":"ce4bh2h2rcd13ifvqdh0","pricing_plan_id":"cebpf4jnsgd1na2vs0mg"},{"bike_id":"4c61f11b-de49-4664-8246-0fd92e617235","system_id":"levelo_inurba_marseille","lat":43.27817,"lon":5.40716,"is_reserved":false,"is_disabled":false,"rental_uris":{"android":"levelo://app?vid=4c61f11b-de49-4664-8246-0fd92e617235","ios":"levelo://app?vid=4c61f11b-de49-4664-8246-0fd92e617235"},"vehicle_type_id":"4","last_reported":1730416201,"current_range_meters":24000,"station_id":"ce4bhnh2rcd13ifvqgtg","pricing_plan_id":"cebpf4jnsgd1na2vs0mg"},{"bike_id":"71d10f41-2ffe-4394-bc10-bfa4bb58be1e","system_id":"levelo_inurba_marseille","lat":43.3235,"lon":5.40627,"is_reserved":false,"is_disabled":false,"rental_uris":{"android":"levelo://app?vid=71d10f41-2ffe-4394-bc10-bfa4bb58be1e","ios":"levelo://app?vid=71d10f41-2ffe-4394-bc10-bfa4bb58be1e"},"vehicle_type_id":"4","last_reported":1730416201,"current_range_meters":26800,"station_id":"ce4bhq92rcd13ifvqhjg","pricing_plan_id":"cebpf4jnsgd1na2vs0mg"},{"bike_id":"be0b493b-5477-4ea1-9585-58f7a31d0da4","system_id":"levelo_inurba_marseille","lat":43.32663,"lon":5.40997,"is_reserved":false,"is_disabled":false,"rental_uris":{"android":"levelo://app?vid=be0b493b-5477-4ea1-9585-58f7a31d0da4","ios":"levelo://app?vid=be0b493b-5477-4ea1-9585-58f7a31d0da4"},"vehicle_type_id":"4","last_reported":1730416201,"current_range_meters":35600,"station_id":"ce4bhpp2rcd13ifvqhgg","pricing_plan_id":"cebpf4jnsgd1na2vs0mg"},{"bike_id":"0fc0dd9d-8907-4045-a63a-e14ec9e36073","system_id":"levelo_inurba_marseille","lat":43.30137,"lon":5.38772,"is_reserved":false,"is_disabled":false,"rental_uris":{"android":"levelo://app?vid=0fc0dd9d-8907-4045-a63a-e14ec9e36073","ios":"levelo://app?vid=0fc0dd9d-8907-4045-a63a-e14ec9e36073"},"vehicle_type_id":"4","last_reported":1730416201,"current_range_meters":10000,"station_id":"ce4bghh2rcd13ifvqb60","pricing_plan_id":"cebpf4jnsgd1na2vs0mg"},{"bike_id":"56bf23b5-b89b-4068-aa80-4548df17eb67","system_id":"levelo_inurba_marseille","lat":43.28071,"lon":5.39662,"is_reserved":false,"is_disabled":false,"rental_uris":{"android":"levelo://app?vid=56bf23b5-b89b-4068-aa80-4548df17eb67","ios":"levelo://app?vid=56bf23b5-b89b-4068-aa80-4548df17eb67"},"vehicle_type_id":"4","last_reported":1730416201,"current_range_meters":34000,"station_id":"ce4bho12rcd13ifvqh2g","pricing_plan_id":"cebpf4jnsgd1na2vs0mg"},{"bike_id":"4689cbb6-09b2-4662-8c90-1b40d7eb69e6","system_id":"levelo_inurba_marseille","lat":43.30303,"lon":5.39211,"is_reserved":false,"is_disabled":false,"rental_uris":{"android":"levelo://app?vid=4689cbb6-09b2-4662-8c90-1b40d7eb69e6","ios":"levelo://app?vid=4689cbb6-09b2-4662-8c90-1b40d7eb69e6"},"vehicle_type_id":"4","last_reported":1730416201,"current_range_meters":38000,"station_id":"ce4bgkh2rcd13ifvqbk0","pricing_plan_id":"cebpf4jnsgd1na2vs0mg"},{"bike_id":"55e1af11-35c0-4783-8161-ff7c6b2baf37","system_id":"levelo_inurba_marseille","lat":43.29264,"lon":5.40905,"is_reserved":false,"is_disabled":false,"rental_uris":{"android":"levelo://app?vid=55e1af11-35c0-4783-8161-ff7c6b2baf37","ios":"levelo://app?vid=55e1af11-35c0-4783-8161-ff7c6b2baf37"},"vehicle_type_id":"4","last_reported":1730416201,"current_range_meters":16400,"station_id":"ce4bh192rcd13ifvqdc0","pricing_plan_id":"cebpf4jnsgd1na2vs0mg"},{"bike_id":"a4e1ca50-ded6-4271-a5da-c67edd55fc27","system_id":"levelo_inurba_marseille","lat":43.27909,"lon":5.39577,"is_reserved":false,"is_disabled":false,"rental_uris":{"android":"levelo://app?vid=a4e1ca50-ded6-4271-a5da-c67edd55fc27","ios":"levelo://app?vid=a4e1ca50-ded6-4271-a5da-c67edd55fc27"},"vehicle_type_id":"4","last_reported":1730416201,"current_range_meters":32000,"station_id":"ce4bhf92rcd13ifvqf40","pricing_plan_id":"cebpf4jnsgd1na2vs0mg"},{"bike_id":"9c0ce7c2-266b-456a-b600-aad012ecaf01","system_id":"levelo_inurba_marseille","lat":43.262002,"lon":5.379316,"is_reserved":false,"is_disabled":false,"rental_uris":{"android":"levelo://app?vid=9c0ce7c2-266b-456a-b600-aad012ecaf01","ios":"levelo://app?vid=9c0ce7c2-266b-456a-b600-aad012ecaf01"},"vehicle_type_id":"4","last_reported":1730416201,"current_range_meters":38800,"station_id":"ce4bhjp2rcd13ifvqg90","pricing_plan_id":"cebpf4jnsgd1na2vs0mg"},{"bike_id":"0e0f9916-abb0-4760-b41d-5a618465c4f4","system_id":"levelo_inurba_marseille","lat":43.291784,"lon":5.372123,"is_reserved":false,"is_disabled":false,"rental_uris":{"android":"levelo://app?vid=0e0f9916-abb0-4760-b41d-5a618465c4f4","ios":"levelo://app?vid=0e0f9916-abb0-4760-b41d-5a618465c4f4"},"vehicle_type_id":"4","last_reported":1730416201,"current_range_meters":28800,"station_id":"ce4bha92rcd13ifvqeh0","pricing_plan_id":"cebpf4jnsgd1na2vs0mg"},{"bike_id":"5a7102aa-9597-4a17-8c6d-5a1e60c5554f","system_id":"levelo_inurba_marseille","lat":43.295362,"lon":5.385519,"is_reserved":false,"is_disabled":false,"rental_uris":{"android":"levelo://app?vid=5a7102aa-9597-4a17-8c6d-5a1e60c5554f","ios":"levelo://app?vid=5a7102aa-9597-4a17-8c6d-5a1e60c5554f"},"vehicle_type_id":"4","last_reported":1730416201,"current_range_meters":32400,"station_id":"ce4bhdp2rcd13ifvqf20","pricing_plan_id":"cebpf4jnsgd1na2vs0mg"},{"bike_id":"910b774b-3781-44e7-9fd7-527755c3fbcf","system_id":"levelo_inurba_marseille","lat":43.31499,"lon":5.37313,"is_reserved":false,"is_disabled":false,"rental_uris":{"android":"levelo://app?vid=910b774b-3781-44e7-9fd7-527755c3fbcf","ios":"levelo://app?vid=910b774b-3781-44e7-9fd7-527755c3fbcf"},"vehicle_type_id":"4","last_reported":1730416201,"current_range_meters":32800,"station_id":"ce4bgt12rcd13ifvqcd0","pricing_plan_id":"cebpf4jnsgd1na2vs0mg"},{"bike_id":"6e1d41e8-acaa-405f-a40c-308d8e9c8a8d","system_id":"levelo_inurba_marseille","lat":43.29789,"lon":5.3811,"is_reserved":false,"is_disabled":false,"rental_uris":{"android":"levelo://app?vid=6e1d41e8-acaa-405f-a40c-308d8e9c8a8d","ios":"levelo://app?vid=6e1d41e8-acaa-405f-a40c-308d8e9c8a8d"},"vehicle_type_id":"4","last_reported":1730416201,"current_range_meters":38800,"station_id":"ce4bgip2rcd13ifvqbb0","pricing_plan_id":"cebpf4jnsgd1na2vs0mg"},{"bike_id":"e8293b4e-059a-4396-9bed-846c599622d5","system_id":"levelo_inurba_marseille","lat":43.27181,"lon":5.40989,"is_reserved":false,"is_disabled":false,"rental_uris":{"android":"levelo://app?vid=e8293b4e-059a-4396-9bed-846c599622d5","ios":"levelo://app?vid=e8293b4e-059a-4396-9bed-846c599622d5"},"vehicle_type_id":"4","last_reported":1730416201,"current_range_meters":39200,"station_id":"ce4bhl12rcd13ifvqgf0","pricing_plan_id":"cebpf4jnsgd1na2vs0mg"},{"bike_id":"99707656-d074-445f-946e-d33df28f7c09","system_id":"levelo_inurba_marseille","lat":43.30162,"lon":5.40052,"is_reserved":false,"is_disabled":false,"rental_uris":{"android":"levelo://app?vid=99707656-d074-445f-946e-d33df28f7c09","ios":"levelo://app?vid=99707656-d074-445f-946e-d33df28f7c09"},"vehicle_type_id":"4","last_reported":1730416201,"current_range_meters":17200,"station_id":"ce4bgvh2rcd13ifvqcs0","pricing_plan_id":"cebpf4jnsgd1na2vs0mg"},{"bike_id":"646971bd-7b4e-417e-a986-35e42b284858","system_id":"levelo_inurba_marseille","lat":43.273109,"lon":5.390857,"is_reserved":false,"is_disabled":false,"rental_uris":{"android":"levelo://app?vid=646971bd-7b4e-417e-a986-35e42b284858","ios":"levelo://app?vid=646971bd-7b4e-417e-a986-35e42b284858"},"vehicle_type_id":"4","last_reported":1730416201,"current_range_meters":32000,"station_id":"ce4bhgp2rcd13ifvqfe0","pricing_plan_id":"cebpf4jnsgd1na2vs0mg"},{"bike_id":"b043ba10-06bc-4e41-b505-f0312d4de2fb","system_id":"levelo_inurba_marseille","lat":43.2721,"lon":5.39175,"is_reserved":false,"is_disabled":false,"rental_uris":{"android":"levelo://app?vid=b043ba10-06bc-4e41-b505-f0312d4de2fb","ios":"levelo://app?vid=b043ba10-06bc-4e41-b505-f0312d4de2fb"},"vehicle_type_id":"4","last_reported":1730416201,"current_range_meters":4400,"station_id":"ce4bhhp2rcd13ifvqfm0","pricing_plan_id":"cebpf4jnsgd1na2vs0mg"},