{"last_updated":1701806877,"ttl":30,"version":"2.2","data":{"bikes":[{"bike_id":"8ee70e3e-3f92-4052-9adb-c54e45d3ba0b","system_id":"levelo_inurba_marseille","lat":43.312239,"lon":5.368562,"is_reserved":false,"is_disabled":false,"rental_uris":{"android":"levelo://app?vid=8ee70e3e-3f92-4052-9adb-c54e45d3ba0b","ios":"levelo://app?vid=8ee70e3e-3f92-4052-9adb-c54e45d3ba0b"},"vehicle_type_id":"4","last_reported":1701806877,"current_range_meters":22800,"station_id":"ce4bgl92rcd13ifvqbq0","pricing_plan_id":"free"},{"bike_id":"1913bd3d-b906-4748-8c6a-e440cb35796d","system_id":"levelo_inurba_marseille","lat":43.31477,"lon":5.37161,"is_reserved":false,"is_disabled":false,"rental_uris":{"android":"levelo://app?vid=1913bd3d-b906-4748-8c6a-e440cb35796d","ios":"levelo://app?vid=1913bd3d-b906-4748-8c6a-e440cb35796d"},"vehicle_type_id":"4","last_reported":1701806877,"current_range_meters":0,"station_id":"","pricing_plan_id":"free"},{"bike_id":"3a2dda2e-3aab-4d0e-a954-793f1706ec09","system_id":"levelo_inurba_marseille","lat":43.31127,"lon":5.37283,"is_reserved":false,"is_disabled":false,"rental_uris":{"android":"levelo://app?vid=3a2dda2e-3aab-4d0e-a954-793f1706ec09","ios":"levelo://app?vid=3a2dda2e-3aab-4d0e-a954-793f1706ec09"},"vehicle_type_id":"4","last_reported":1701806877,"current_range_meters":22800,"station_id":"","pricing_plan_id":"free"},{"bike_id":"04c4ad68-55c8-4fb9-9b07-80995231d40b","system_id":"levelo_inurba_marseille","lat":43.314811,"lon":5.373104,"is_reserved":false,"is_disabled":false,"rental_uris":{"android":"levelo://app?vid=04c4ad68-55c8-4fb9-9b07-80995231d40b","ios":"levelo://app?vid=04c4ad68-55c8-4fb9-9b07-80995231d40b"},"vehicle_type_id":"4","last_reported":1701806877,"current_range_meters":16400,"station_id":"ce4bgt12rcd13ifvqcd0","pricing_plan_id":"free"},{"bike_id":"21ba4707-635d-43bd-9305-653b198e8b4d","system_id":"levelo_inurba_marseille","lat":43.309039,"lon":5.371797,"is_reserved":false,"is_disabled":false,"rental_uris":{"android":"levelo://app?vid=21ba4707-635d-43bd-9305-653b198e8b4d","ios":"levelo://app?vid=21ba4707-635d-43bd-9305-653b198e8b4d"},"vehicle_type_id":"4","last_reported":1701806877,"current_range_meters":15200,"station_id":"ce4bguh2rcd13ifvqckg","pricing_plan_id":"free"},{"bike_id":"299c1eda-a86c-4f2c-a320-58b4e01cd6b9","system_id":"levelo_inurba_marseille","lat":43.30551,"lon":5.36534,"is_reserved":false,"is_disabled":false,"rental_uris":{"android":"levelo://app?vid=299c1eda-a86c-4f2c-a320-58b4e01cd6b9","ios":"levelo://app?vid=299c1eda-a86c-4f2c-a320-58b4e01cd6b9"},"vehicle_type_id":"4","last_reported":1701806877,"current_range_meters":0,"station_id":"ce4bgs12rcd13ifvqcag","pricing_plan_id":"free"},{"bike_id":"7b857181-5d9d-4edc-b928-452e73fa4133","system_id":"levelo_inurba_marseille","lat":43.311125,"lon":5.377624,"is_reserved":false,"is_disabled":false,"rental_uris":{"android":"levelo://app?vid=7b857181-5d9d-4edc-b928-452e73fa4133","ios":"levelo://app?vid=7b857181-5d9d-4edc-b928-452e73fa4133"},"vehicle_type_id":"4","last_reported":1701806877,"current_range_meters":5200,"station_id":"ce4bgt92rcd13ifvqcg0","pricing_plan_id":"free"},{"bike_id":"b065b12a-ef87-47d8-8ac6-a38844050d40","system_id":"levelo_inurba_marseille","lat":43.319338,"lon":5.372928,"is_reserved":false,"is_disabled":false,"rental_uris":{"android":"levelo://app?vid=b065b12a-ef87-47d8-8ac6-a38844050d40","ios":"levelo://app?vid=b065b12a-ef87-47d8-8ac6-a38844050d40"},"vehicle_type_id":"4","last_reported":1701806877,"current_range_meters":0,"station_id":"","pricing_plan_id":"free"},{"bike_id":"90b506dd-3d95-4a0b-ac4f-e68f4a01ecc2","system_id":"levelo_inurba_marseille","lat":43.311125,"lon":5.377624,"is_reserved":false,"is_disabled":false,"rental_uris":{"android":"levelo://app?vid=90b506dd-3d95-4a0b-ac4f-e68f4a01ecc2","ios":"levelo://app?vid=90b506dd-3d95-4a0b-ac4f-e68f4a01ecc2"},"vehicle_type_id":"4","last_reported":1701806877,"current_range_meters":11200,"station_id":"ce4bgt92rcd13ifvqcg0","pricing_plan_id":"free"},{"bike_id":"42f62e83-4394-4c63-86d3-e201bad15ffc","system_id":"levelo_inurba_marseille","lat":43.311125,"lon":5.377624,"is_reserved":false,"is_disabled":false,"rental_uris":{"android":"levelo://app?vid=42f62e83-4394-4c63-86d3-e201bad15ffc","ios":"levelo://app?vid=42f62e83-4394-4c63-86d3-e201bad15ffc"},"vehicle_type_id":"4","last_reported":1701806877,"current_range_meters":26400,"station_id":"ce4bgt92rcd13ifvqcg0","pricing_plan_id":"free"},{"bike_id":"0e0ed175-dde8-4de6-b3e4-ae727adbbd46","system_id":"levelo_inurba_marseille","lat":43.311125,"lon":5.377624,"is_reserved":false,"is_disabled":false,"rental_uris":{"android":"levelo://app?vid=0e0ed175-dde8-4de6-b3e4-ae727adbbd46","ios":"levelo://app?vid=0e0ed175-dde8-4de6-b3e4-ae727adbbd46"},"vehicle_type_id":"4","last_reported":1701806877,"current_range_meters":22400,"station_id":"ce4bgt92rcd13ifvqcg0","pricing_plan_id":"free"},{"bike_id":"94cd7a05-7d84-4fa3-bed8-ddb1d181042a","system_id":"levelo_inurba_marseille","lat":43.307945,"lon":5.376487,"is_reserved":false,"is_disabled":false,"rental_uris":{"android":"levelo://app?vid=94cd7a05-7d84-4fa3-bed8-ddb1d181042a","ios":"levelo://app?vid=94cd7a05-7d84-4fa3-bed8-ddb1d181042a"},"vehicle_type_id":"4","last_reported":1701806877,"current_range_meters":12400,"station_id":"ce4bgv92rcd13ifvqcq0","pricing_plan_id":"free"},{"bike_id":"fb6fd937-527b-4585-9058-0dfdc6436ac8","system_id":"levelo_inurba_marseille","lat":43.31351,"lon":5.37909,"is_reserved":false,"is_disabled":false,"rental_uris":{"android":"levelo://app?vid=fb6fd937-527b-4585-9058-0dfdc6436ac8","ios":"levelo://app?vid=fb6fd937-527b-4585-9058-0dfdc6436ac8"},"vehicle_type_id":"4","last_reported":1701806877,"current_range_meters":9200,"station_id":"","pricing_plan_id":"free"},{"bike_id":"6b3e166f-228d-400a-a1a4-0d1967ecfcb7","system_id":"levelo_inurba_marseille","lat":43.301939,"lon":5.366286,"is_reserved":false,"is_disabled":false,"rental_uris":{"android":"levelo://app?vid=6b3e166f-228d-400a-a1a4-0d1967ecfcb7","ios":"levelo://app?vid=6b3e166f-228d-400a-a1a4-0d1967ecfcb7"},"vehicle_type_id":"4","last_reported":1701806877,"current_range_meters":22800,"station_id":"ce4bgrh2rcd13ifvqc8g","pricing_plan_id":"free"},{"bike_id":"a6691109-b6b5-408c-ba43-8e995cf35333","system_id":"levelo_inurba_marseille","lat":43.308082,"lon":5.381526,"is_reserved":false,"is_disabled":false,"rental_uris":{"android":"levelo://app?vid=a6691109-b6b5-408c-ba43-8e995cf35333","ios":"levelo://app?vid=a6691109-b6b5-408c-ba43-8e995cf35333"},"vehicle_type_id":"4","last_reported":1701806877,"current_range_meters":0,"station_id":"ce4bgt12rcd13ifvqce0","pricing_plan_id":"free"},{"bike_id":"af3ff8cb-f6e6-4096-86b5-99e7868d0944","system_id":"levelo_inurba_marseille","lat":43.32474,"lon":5.36579,"is_reserved":false,"is_disabled":false,"rental_uris":{"android":"levelo://app?vid=af3ff8cb-f6e6-4096-86b5-99e7868d0944","ios":"levelo://app?vid=af3ff8cb-f6e6-4096-86b5-99e7868d0944"},"vehicle_type_id":"4","last_reported":1701806877,"current_range_meters":0,"station_id":"ce4bhs12rcd13ifvqhvg","pricing_plan_id":"free"},{"bike_id":"ab542b0a-b258-4b62-baed-c4ff4b3a7961","system_id":"levelo_inurba_marseille","lat":43.324771,"lon":5.36557,"is_reserved":false,"is_disabled":false,"rental_uris":{"android":"levelo://app?vid=ab542b0a-b258-4b62-baed-c4ff4b3a7961","ios":"levelo://app?vid=ab542b0a-b258-4b62-baed-c4ff4b3a7961"},"vehicle_type_id":"4","last_reported":1701806877,"current_range_meters":31200,"station_id":"ce4bhs12rcd13ifvqhvg","pricing_plan_id":"free"},{"bike_id":"41280701-a143-4e50-93ef-fa297df3585f","system_id":"levelo_inurba_marseille","lat":43.32484,"lon":5.36574,"is_reserved":false,"is_disabled":false,"rental_uris":{"android":"levelo://app?vid=41280701-a143-4e50-93ef-fa297df3585f","ios":"levelo://app?vid=41280701-a143-4e50-93ef-fa297df3585f"},"vehicle_type_id":"4","last_reported":1701806877,"current_range_meters":24400,"station_id":"ce4bhs12rcd13ifvqhvg","pricing_plan_id":"free"},{"bike_id":"1e44eb00-5254-457d-b804-b536ef4db324","system_id":"levelo_inurba_marseille","lat":43.31995,"lon":5.38144,"is_reserved":false,"is_disabled":false,"rental_uris":{"android":"levelo://app?vid=1e44eb00-5254-457d-b804-b536ef4db324","ios":"levelo://app?vid=1e44eb00-5254-457d-b804-b536ef4db324"},"vehicle_type_id":"4","last_reported":1701806877,"current_range_meters":14400,"station_id":"ce4bhr12rcd13ifvqhpg","pricing_plan_id":"free"},{"bike_id":"65f8fa65-6ae7-4e94-86fb-6a8a6a019c04","system_id":"levelo_inurba_marseille","lat":43.319935,"lon":5.381699,"is_reserved":false,"is_disabled":false,"rental_uris":{"android":"levelo://app?vid=65f8fa65-6ae7-4e94-86fb-6a8a6a019c04","ios":"levelo://app?vid=65f8fa65-6ae7-4e94-86fb-6a8a6a019c04"},"vehicle_type_id":"4","last_reported":1701806877,"current_range_meters":12800,"station_id":"ce4bhr12rcd13ifvqhpg","pricing_plan_id":"free"},{"bike_id":"a7503af2-3416-42b0-89b3-360ea5b90ea2","system_id":"levelo_inurba_marseille","lat":43.319935,"lon":5.381699,"is_reserved":false,"is_disabled":false,"rental_uris":{"android":"levelo://app?vid=a7503af2-3416-42b0-89b3-360ea5b90ea2","ios":"levelo://app?vid=a7503af2-3416-42b0-89b3-360ea5b90ea2"},"vehicle_type_id":"4","last_reported":1701806877,"current_range_meters":27600,"station_id":"ce4bhr12rcd13ifvqhpg","pricing_plan_id":"free"},{"bike_id":"f5f04c81-8037-434c-a63c-f9abf8adddca","system_id":"levelo_inurba_marseille","lat":43.313642,"lon":5.384888,"is_reserved":false,"is_disabled":false,"rental_uris":{"android":"levelo://app?vid=f5f04c81-8037-434c-a63c-f9abf8adddca","ios":"levelo://app?vid=f5f04c81-8037-434c-a63c-f9abf8adddca"},"vehicle_type_id":"4","last_reported":1701806877,"current_range_meters":22000,"station_id":"ce4bgt92rcd13ifvqcf0","pricing_plan_id":"free"},{"bike_id":"96a50488-726c-45cc-b484-a5022842dac2","system_id":"levelo_inurba_marseille","lat":43.313571,"lon":5.384829,"is_reserved":false,"is_disabled":false,"rental_uris":{"android":"levelo://app?vid=96a50488-726c-45cc-b484-a5022842dac2","ios":"levelo://app?vid=96a50488-726c-45cc-b484-a5022842dac2"},"vehicle_type_id":"4","last_reported":1701806877,"current_range_meters":16800,"station_id":"ce4bgt92rcd13ifvqcf0","pricing_plan_id":"free"},{"bike_id":"9cc2c870-0603-47bb-93ca-e55ea7919681","system_id":"levelo_inurba_marseille","lat":43.305364,"lon":5.384119,"is_reserved":false,"is_disabled":false,"rental_uris":{"android":"levelo://app?vid=9cc2c870-0603-47bb-93ca-e55ea7919681","ios":"levelo://app?vid=9cc2c870-0603-47bb-93ca-e55ea7919681"},"vehicle_type_id":"4","last_reported":1701806877,"current_range_meters":5600,"station_id":"ce4bgg92rcd13ifvqb30","pricing_plan_id":"free"},{"bike_id":"5ca457cb-b5e6-4a28-97ea-d8bc25420337","system_id":"levelo_inurba_marseille","lat":43.29917,"lon":5.37458,"is_reserved":false,"is_disabled":false,"rental_uris":{"android":"levelo://app?vid=5ca457cb-b5e6-4a28-97ea-d8bc25420337","ios":"levelo://app?vid=5ca457cb-b5e6-4a28-97ea-d8bc25420337"},"vehicle_type_id":"4","last_reported":1701806877,"current_range_meters":0,"station_id":"ce4bgjh2rcd13ifvqbg0","pricing_plan_id":"free"},{"bike_id":"7d8005c6-46e4-426f-b718-71bb16b59421","system_id":"levelo_inurba_marseille","lat":43.311722,"lon":5.387247,"is_reserved":false,"is_disabled":false,"rental_uris":{"android":"levelo://app?vid=7d8005c6-46e4-426f-b718-71bb16b59421","ios":"levelo://app?vid=7d8005c6-46e4-426f-b718-71bb16b59421"},"vehicle_type_id":"4","last_reported":1701806877,"current_range_meters":7200,"station_id":"ce4bgv12rcd13ifvqcp0","pricing_plan_id":"free"},{"bike_id":"dd6dd1f1-1040-43b9-b552-18f1a1aea328","system_id":"levelo_inurba_marseille","lat":43.299243,"lon":5.37481,"is_reserved":false,"is_disabled":false,"rental_uris":{"android":"levelo://app?vid=dd6dd1f1-1040-43b9-b552-18f1a1aea328","ios":"levelo://app?vid=dd6dd1f1-1040-43b9-b552-18f1a1aea328"},"vehicle_type_id":"4","last_reported":1701806877,"current_range_meters":15600,"station_id":"ce4bgjh2rcd13ifvqbg0","pricing_plan_id":"free"},{"bike_id":"c591e47b-b453-49bb-8a54-18d732d15761","system_id":"levelo_inurba_marseille","lat":43.311722,"lon":5.387247,"is_reserved":false,"is_disabled":false,"rental_uris":{"android":"levelo://app?vid=c591e47b-b453-49bb-8a54-18d732d15761","ios":"levelo://app?vid=c591e47b-b453-49bb-8a54-18d732d15761"},"vehicle_type_id":"4","last_reported":1701806877,"current_range_meters":26400,"station_id":"ce4bgv12rcd13ifvqcp0","pricing_plan_id":"free"},{"bike_id":"3611eab9-ed88-408f-b94d-b09812a4463e","system_id":"levelo_inurba_marseille","lat":43.32291,"lon":5.38267,"is_reserved":false,"is_disabled":false,"rental_uris":{"android":"levelo://app?vid=3611eab9-ed88-408f-b94d-b09812a4463e","ios":"levelo://app?vid=3611eab9-ed88-408f-b94d-b09812a4463e"},"vehicle_type_id":"4","last_reported":1701806877,"current_range_meters":25600,"station_id":"ce4bhr12rcd13ifvqhqg","pricing_plan_id":"free"},{"bike_id":"b4879a0b-f87c-476b-ba9f-57011b8686d8","system_id":"levelo_inurba_marseille","lat":43.298218,"lon":5.374416,"is_reserved":false,"is_disabled":false,"rental_uris":{"android":"levelo://app?vid=b4879a0b-f87c-476b-ba9f-57011b8686d8","ios":"levelo://app?vid=b4879a0b-f87c-476b-ba9f-57011b8686d8"},"vehicle_type_id":"4","last_reported":1701806877,"current_range_meters":16400,"station_id":"","pricing_plan_id":"free"},{"bike_id":"d0e3dd59-0f60-4e4e-993e-967a9d97ad75","system_id":"levelo_inurba_marseille","lat":43.2968,"lon":5.37291,"is_reserved":false,"is_disabled":false,"rental_uris":{"android":"levelo://app?vid=d0e3dd59-0f60-4e4e-993e-967a9d97ad75","ios":"levelo://app?vid=d0e3dd59-0f60-4e4e-993e-967a9d97ad75"},"vehicle_type_id":"4","last_reported":1701806877,"current_range_meters":27600,"station_id":"ce4bgk12rcd13ifvqbj0","pricing_plan_id":"free"},{"bike_id":"fad051df-9150-4866-a68e-71dc1b88d26f","system_id":"levelo_inurba_marseille","lat":43.316538,"lon":5.38954,"is_reserved":false,"is_disabled":false,"rental_uris":{"android":"levelo://app?vid=fad051df-9150-4866-a68e-71dc1b88d26f","ios":"levelo://app?vid=fad051df-9150-4866-a68e-71dc1b88d26f"},"vehicle_type_id":"4","last_reported":1701806877,"current_range_meters":12000,"station_id":"","pricing_plan_id":"free"},{"bike_id":"a848a516-edf5-4de1-bd8b-6fa090643430","system_id":"levelo_inurba_marseille","lat":43.30959,"lon":5.390284,"is_reserved":false,"is_disabled":false,"rental_uris":{"android":"levelo://app?vid=a848a516-edf5-4de1-bd8b-6fa090643430","ios":"levelo://app?vid=a848a516-edf5-4de1-bd8b-6fa090643430"},"vehicle_type_id":"4","last_reported":1701806877,"current_range_meters":0,"station_id":"ce4bgup2rcd13ifvqco0","pricing_plan_id":"free"},{"bike_id":"fefc3b5e-2f1c-4767-9461-d135dd072328","system_id":"levelo_inurba_marseille","lat":43.296282,"lon":5.37476,"is_reserved":false,"is_disabled":false,"rental_uris":{"android":"levelo://app?vid=fefc3b5e-2f1c-4767-9461-d135dd072328","ios":"levelo://app?vid=fefc3b5e-2f1c-4767-9461-d135dd072328"},"vehicle_type_id":"4","last_reported":1701806877,"current_range_meters":0,"station_id":"","pricing_plan_id":"free"},{"bike_id":"6b06cc57-06d6-4dc8-94d3-2a3dbdb86d2d","system_id":"levelo_inurba_marseille","lat":43.3176,"lon":5.38999,"is_reserved":false,"is_disabled":false,"rental_uris":{"android":"levelo://app?vid=6b06cc57-06d6-4dc8-94d3-2a3dbdb86d2d","ios":"levelo://app?vid=6b06cc57-06d6-4dc8-94d3-2a3dbdb86d2d"},"vehicle_type_id":"4","last_reported":1701806877,"current_range_meters":27600,"station_id":"ce4bhqp2rcd13ifvqhng","pricing_plan_id":"free"},{"bike_id":"4a7d648e-4869-45ed-9885-42883cc8e914","system_id":"levelo_inurba_marseille","lat":43.317557,"lon":5.390173,"is_reserved":false,"is_disabled":false,"rental_uris":{"android":"levelo://app?vid=4a7d648e-4869-45ed-9885-42883cc8e914","ios":"levelo://app?vid=4a7d648e-4869-45ed-9885-42883cc8e914"},"vehicle_type_id":"4","last_reported":1701806877,"current_range_meters":27600,"station_id":"ce4bhqp2rcd13ifvqhng","pricing_plan_id":"free"},{"bike_id":"abe84497-fb17-455f-b511-71d1ec1fd3ce","system_id":"levelo_inurba_marseille","lat":43.32369,"lon":5.3888,"is_reserved":false,"is_disabled":false,"rental_uris":{"android":"levelo://app?vid=abe84497-fb17-455f-b511-71d1ec1fd3ce","ios":"levelo://app?vid=abe84497-fb17-455f-b511-71d1ec1fd3ce"},"vehicle_type_id":"4","last_reported":1701806877,"current_range_meters":8000,"station_id":"ce4bhqp2rcd13ifvqhog","pricing_plan_id":"free"},{"bike_id":"c3643ac2-cdd1-4bd1-99e6-62e33012d634","system_id":"levelo_inurba_marseille","lat":43.32365,"lon":5.38885,"is_reserved":false,"is_disabled":false,"rental_uris":{"android":"levelo://app?vid=c3643ac2-cdd1-4bd1-99e6-62e33012d634","ios":"levelo://app?vid=c3643ac2-cdd1-4bd1-99e6-62e33012d634"},"vehicle_type_id":"4","last_reported":1701806877,"current_range_meters":11200,"station_id":"ce4bhqp2rcd13ifvqhog","pricing_plan_id":"free"},{"bike_id":"ca368842-b702-4997-b62f-9f6a79bf4b99","system_id":"levelo_inurba_marseille","lat":43.293259,"lon":5.371586,"is_reserved":false,"is_disabled":false,"rental_uris":{"android":"levelo://app?vid=ca368842-b702-4997-b62f-9f6a79bf4b99","ios":"levelo://app?vid=ca368842-b702-4997-b62f-9f6a79bf4b99"},"vehicle_type_id":"4","last_reported":1701806877,"current_range_meters":24400,"station_id":"ce4bgh92rcd13ifvqb40","pricing_plan_id":"free"},{"bike_id":"7f730568-85d3-4281-95de-877a6ac2df6d","system_id":"levelo_inurba_marseille","lat":43.292749,"lon":5.368402,"is_reserved":false,"is_disabled":false,"rental_uris":{"android":"levelo://app?vid=7f730568-85d3-4281-95de-877a6ac2df6d","ios":"levelo://app?vid=7f730568-85d3-4281-95de-877a6ac2df6d"},"vehicle_type_id":"4","last_reported":1701806877,"current_range_meters":0,"station_id":"ce4bhbp2rcd13ifvqesg","pricing_plan_id":"free"},{"bike_id":"2b5c1b68-81e3-47ef-876b-101cf2b4d0ce","system_id":"levelo_inurba_marseille","lat":43.305994,"lon":5.393687,"is_reserved":false,"is_disabled":false,"rental_uris":{"android":"levelo://app?vid=2b5c1b68-81e3-47ef-876b-101cf2b4d0ce","ios":"levelo://app?vid=2b5c1b68-81e3-47ef-876b-101cf2b4d0ce"},"vehicle_type_id":"4","last_reported":1701806877,"current_range_meters":6800,"station_id":"ce4bh0p2rcd13ifvqd80","pricing_plan_id":"free"},{"bike_id":"2cc39867-ca8b-4d47-809a-e38b33eaa720","system_id":"levelo_inurba_marseille","lat":43.305994,"lon":5.393687,"is_reserved":false,"is_disabled":false,"rental_uris":{"android":"levelo://app?vid=2cc39867-ca8b-4d47-809a-e38b33eaa720","ios":"levelo://app?vid=2cc39867-ca8b-4d47-809a-e38b33eaa720"},"vehicle_type_id":"4","last_reported":1701806877,"current_range_meters":18000,"station_id":"ce4bh0p2rcd13ifvqd80","pricing_plan_id":"free"},{"bike_id":"bdb14ca2-48fd-4ea2-a604-568eacfc89e3","system_id":"levelo_inurba_marseille","lat":43.3031,"lon":5.39212,"is_reserved":false,"is_disabled":false,"rental_uris":{"android":"levelo://app?vid=bdb14ca2-48fd-4ea2-a604-568eacfc89e3","ios":"levelo://app?vid=bdb14ca2-48fd-4ea2-a604-568eacfc89e3"},"vehicle_type_id":"4","last_reported":1701806877,"current_range_meters":0,"station_id":"ce4bgkh2rcd13ifvqbk0","pricing_plan_id":"free"},{"bike_id":"8167b232-5cd0-4527-a915-66dd7d8efa81","system_id":"levelo_inurba_marseille","lat":43.302992,"lon":5.392136,"is_reserved":false,"is_disabled":false,"rental_uris":{"android":"levelo://app?vid=8167b232-5cd0-4527-a915-66dd7d8efa81","ios":"levelo://app?vid=8167b232-5cd0-4527-a915-66dd7d8efa81"},"vehicle_type_id":"4","last_reported":1701806877,"current_range_meters":3600,"station_id":"ce4bgkh2rcd13ifvqbk0","pricing_plan_id":"free"},{"bike_id":"0c1f58bf-316d-4456-ad46-b20c7d73a0cb","system_id":"levelo_inurba_marseille","lat":43.292311,"lon":5.360731,"is_reserved":false,"is_disabled":false,"rental_uris":{"android":"levelo://app?vid=0c1f58bf-316d-4456-ad46-b20c7d73a0cb","ios":"levelo://app?vid=0c1f58bf-316d-4456-ad46-b20c7d73a0cb"},"vehicle_type_id":"4","last_reported":1701806877,"current_range_meters":12800,"station_id":"ce4bhbh2rcd13ifvqeqg","pricing_plan_id":"free"},{"bike_id":"47c4ebbd-4c7e-4ce1-b1b5-4ae048d28088","system_id":"levelo_inurba_marseille","lat":43.291675,"lon":5.371583,"is_reserved":false,"is_disabled":false,"rental_uris":{"android":"levelo://app?vid=47c4ebbd-4c7e-4ce1-b1b5-4ae048d28088","ios":"levelo://app?vid=47c4ebbd-4c7e-4ce1-b1b5-4ae048d28088"},"vehicle_type_id":"4","last_reported":1701806877,"current_range_meters":3600,"station_id":"ce4bha92rcd13ifvqeh0","pricing_plan_id":"free"},{"bike_id":"3d18c477-71fc-4b10-b10f-7da4113e8f84","system_id":"levelo_inurba_marseille","lat":43.29869,"lon":5.38908,"is_reserved":false,"is_disabled":false,"rental_uris":{"android":"levelo://app?vid=3d18c477-71fc-4b10-b10f-7da4113e8f84","ios":"levelo://app?vid=3d18c477-71fc-4b10-b10f-7da4113e8f84"},"vehicle_type_id":"4","last_reported":1701806877,"current_range_meters":18800,"station_id":"ce4bh392rcd13ifvqdl0","pricing_plan_id":"free"},{"bike_id":"8146f9b5-b15a-4a68-934b-8d7fdd7ab4e5","system_id":"levelo_inurba_marseille","lat":43.31368,"lon":5.39641,"is_reserved":false,"is_disabled":false,"rental_uris":{"android":"levelo://app?vid=8146f9b5-b15a-4a68-934b-8d7fdd7ab4e5","ios":"levelo://app?vid=8146f9b5-b15a-4a68-934b-8d7fdd7ab4e5"},"vehicle_type_id":"4","last_reported":1701806877,"current_range_meters":20800,"station_id":"","pricing_plan_id":"free"},{"bike_id":"6a5e039c-7a06-494f-a77b-0dd227d25b6f","system_id":"levelo_inurba_marseille","lat":43.291994,"lon":5.357886,"is_reserved":false,"is_disabled":false,"rental_uris":{"android":"levelo://app?vid=6a5e039c-7a06-494f-a77b-0dd227d25b6f","ios":"levelo://app?vid=6a5e039c-7a06-494f-a77b-0dd227d25b6f"},"vehicle_type_id":"4","last_reported":1701806877,"current_range_meters":0,"station_id":"ce4bhb12rcd13ifvqel0","pricing_plan_id":"free"},{"bike_id":"c5057dd8-9112-4831-ba7e-e9625981fc2e","system_id":"levelo_inurba_marseille","lat":43.291994,"lon":5.357886,"is_reserved":false,"is_disabled":false,"rental_uris":{"android":"levelo://app?vid=c5057dd8-9112-4831-ba7e-e9625981fc2e","ios":"levelo://app?vid=c5057dd8-9112-4831-ba7e-e9625981fc2e"},"vehicle_type_id":"4","last_reported":1701806877,"current_range_meters":2000,"station_id":"ce4bhb12rcd13ifvqel0","pricing_plan_id":"free"},{"bike_id":"038360cb-ffc5-43fb-95c7-0034c792cd07","system_id":"levelo_inurba_marseille","lat":43.29191,"lon":5.35791,"is_reserved":false,"is_disabled":false,"rental_uris":{"android":"levelo://app?vid=038360cb-ffc5-43fb-95c7-0034c792cd07","ios":"levelo://app?vid=038360cb-ffc5-43fb-95c7-0034c792cd07"},"vehicle_type_id":"4","last_reported":1701806877,"current_range_meters":4400,"station_id":"ce4bhb12rcd13ifvqel0","pricing_plan_id":"free"},{"bike_id":"ea69faec-60fe-435d-9410-5ff881d6e290","system_id":"levelo_inurba_marseille","lat":43.313291,"lon":5.396838,"is_reserved":false,"is_disabled":false,"rental_uris":{"android":"levelo://app?vid=ea69faec-60fe-435d-9410-5ff881d6e290","ios":"levelo://app?vid=ea69faec-60fe-435d-9410-5ff881d6e290"},"vehicle_type_id":"4","last_reported":1701806877,"current_range_meters":6800,"station_id":"ce4bgvp2rcd13ifvqcu0","pricing_plan_id":"free"},{"bike_id":"f287bc70-d05d-423d-9328-888c011300a7","system_id":"levelo_inurba_marseille","lat":43.3133,"lon":5.39697,"is_reserved":false,"is_disabled":false,"rental_uris":{"android":"levelo://app?vid=f287bc70-d05d-423d-9328-888c011300a7","ios":"levelo://app?vid=f287bc70-d05d-423d-9328-888c011300a7"},"vehicle_type_id":"4","last_reported":1701806877,"current_range_meters":29600,"station_id":"ce4bgvp2rcd13ifvqcu0","pricing_plan_id":"free"},{"bike_id":"8ce91b26-a046-42c6-8925-f25f5ce5a055","system_id":"levelo_inurba_marseille","lat":43.313291,"lon":5.396838,"is_reserved":false,"is_disabled":false,"rental_uris":{"android":"levelo://app?vid=8ce91b26-a046-42c6-8925-f25f5ce5a055","ios":"levelo://app?vid=8ce91b26-a046-42c6-8925-f25f5ce5a055"},"vehicle_type_id":"4","last_reported":1701806877,"current_range_meters":31200,"station_id":"ce4bgvp2rcd13ifvqcu0","pricing_plan_id":"free"},{"bike_id":"8493695c-d658-4c40-aaf3-a1a15ec6025b","system_id":"levelo_inurba_marseille","lat":43.308985,"lon":5.396558,"is_reserved":false,"is_disabled":false,"rental_uris":{"android":"levelo://app?vid=8493695c-d658-4c40-aaf3-a1a15ec6025b","ios":"levelo://app?vid=8493695c-d658-4c40-aaf3-a1a15ec6025b"},"vehicle_type_id":"4","last_reported":1701806877,"current_range_meters":0,"station_id":"ce4bh012rcd13ifvqcv0","pricing_plan_id":"free"},{"bike_id":"a4b4b89a-437c-4a3a-a652-57e59f9d1db8","system_id":"levelo_inurba_marseille","lat":43.29529,"lon":5.385581,"is_reserved":false,"is_disabled":false,"rental_uris":{"android":"levelo://app?vid=a4b4b89a-437c-4a3a-a652-57e59f9d1db8","ios":"levelo://app?vid=a4b4b89a-437c-4a3a-a652-57e59f9d1db8"},"vehicle_type_id":"4","last_reported":1701806877,"current_range_meters":8000,"station_id":"ce4bgih2rcd13ifvqba0","pricing_plan_id":"free"},{"bike_id":"d6af51a3-492f-480d-a356-ef5250250991","system_id":"levelo_inurba_marseille","lat":43.29529,"lon":5.385581,"is_reserved":false,"is_disabled":false,"rental_uris":{"android":"levelo://app?vid=d6af51a3-492f-480d-a356-ef5250250991","ios":"levelo://app?vid=d6af51a3-492f-480d-a356-ef5250250991"},"vehicle_type_id":"4","last_reported":1701806877,"current_range_meters":1200,"station_id":"ce4bgih2rcd13ifvqba0","pricing_plan_id":"free"},{"bike_id":"2829e749-957b-4675-bf3a-ea463333f4d4","system_id":"levelo_inurba_marseille","lat":43.302008,"lon":5.394694,"is_reserved":false,"is_disabled":false,"rental_uris":{"android":"levelo://app?vid=2829e749-957b-4675-bf3a-ea463333f4d4","ios":"levelo://app?vid=2829e749-957b-4675-bf3a-ea463333f4d4"},"vehicle_type_id":"4","last_reported":1701806877,"current_range_meters":24400,"station_id":"ce4bh0p2rcd13ifvqd70","pricing_plan_id":"free"},{"bike_id":"3b9f74c9-21ca-4692-9bd5-752d34976af9","system_id":"levelo_inurba_marseille","lat":43.290631,"lon":5.359244,"is_reserved":false,"is_disabled":false,"rental_uris":{"android":"levelo://app?vid=3b9f74c9-21ca-4692-9bd5-752d34976af9","ios":"levelo://app?vid=3b9f74c9-21ca-4692-9bd5-752d34976af9"},"vehicle_type_id":"4","last_reported":1701806877,"current_range_meters":23200,"station_id":"ce4bha92rcd13ifvqeg0","pricing_plan_id":"free"},{"bike_id":"6c4f76c1-b8b9-4a78-9517-eb625c25404e","system_id":"levelo_inurba_marseille","lat":43.290624,"lon":5.359245,"is_reserved":false,"is_disabled":false,"rental_uris":{"android":"levelo://app?vid=6c4f76c1-b8b9-4a78-9517-eb625c25404e","ios":"levelo://app?vid=6c4f76c1-b8b9-4a78-9517-eb625c25404e"},"vehicle_type_id":"4","last_reported":1701806877,"current_range_meters":15200,"station_id":"ce4bha92rcd13ifvqeg0","pricing_plan_id":"free"},{"bike_id":"c8c909ab-95f8-4e3c-bc5e-4c9f8d158cd6","system_id":"levelo_inurba_marseille","lat":43.290624,"lon":5.359245,"is_reserved":false,"is_disabled":false,"rental_uris":{"android":"levelo://app?vid=c8c909ab-95f8-4e3c-bc5e-4c9f8d158cd6","ios":"levelo://app?vid=c8c909ab-95f8-4e3c-bc5e-4c9f8d158cd6"},"vehicle_type_id":"4","last_reported":1701806877,"current_range_meters":19200,"station_id":"ce4bha92rcd13ifvqeg0","pricing_plan_id":"free"},{"bike_id":"079280f3-b12b-41c0-90de-c2730446b1bc","system_id":"levelo_inurba_marseille","lat":43.294153,"lon":5.386305,"is_reserved":false,"is_disabled":false,"rental_uris":{"android":"levelo://app?vid=079280f3-b12b-41c0-90de-c2730446b1bc","ios":"levelo://app?vid=079280f3-b12b-41c0-90de-c2730446b1bc"},"vehicle_type_id":"4","last_reported":1701806877,"current_range_meters":16000,"station_id":"ce4bh2h2rcd13ifvqdh0","pricing_plan_id":"free"},{"bike_id":"aba7ff72-91f0-4142-aaa5-251101e02c55","system_id":"levelo_inurba_marseille","lat":43.294153,"lon":5.386305,"is_reserved":false,"is_disabled":false,"rental_uris":{"android":"levelo://app?vid=aba7ff72-91f0-4142-aaa5-251101e02c55","ios":"levelo://app?vid=aba7ff72-91f0-4142-aaa5-251101e02c55"},"vehicle_type_id":"4","last_reported":1701806877,"current_range_meters":12400,"station_id":"ce4bh2h2rcd13ifvqdh0","pricing_plan_id":"free"},{"bike_id":"14eb453f-cf3a-462f-b113-96829cdb11fe","system_id":"levelo_inurba_marseille","lat":43.289184,"lon":5.366408,"is_reserved":false,"is_disabled":false,"rental_uris":{"android":"levelo://app?vid=14eb453f-cf3a-462f-b113-96829cdb11fe","ios":"levelo://app?vid=14eb453f-cf3a-462f-b113-96829cdb11fe"},"vehicle_type_id":"4","last_reported":1701806877,"current_range_meters":800,"station_id":"ce4bhap2rcd13ifvqek0","pricing_plan_id":"free"},{"bike_id":"553a3ee4-144c-4c68-89e8-f12bcd947c15","system_id":"levelo_inurba_marseille","lat":43.289184,"lon":5.366408,"is_reserved":false,"is_disabled":false,"rental_uris":{"android":"levelo://app?vid=553a3ee4-144c-4c68-89e8-f12bcd947c15","ios":"levelo://app?vid=553a3ee4-144c-4c68-89e8-f12bcd947c15"},"vehicle_type_id":"4","last_reported":1701806877,"current_range_meters":12000,"station_id":"ce4bhap2rcd13ifvqek0","pricing_plan_id":"free"},{"bike_id":"34e00508-6ef6-4c50-a2c2-eb6001d4ed04","system_id":"levelo_inurba_marseille","lat":43.289313,"lon":5.366384,"is_reserved":false,"is_disabled":false,"rental_uris":{"android":"levelo://app?vid=34e00508-6ef6-4c50-a2c2-eb6001d4ed04","ios":"levelo://app?vid=34e00508-6ef6-4c50-a2c2-eb6001d4ed04"},"vehicle_type_id":"4","last_reported":1701806877,"current_range_meters":24800,"station_id":"","pricing_plan_id":"free"},{"bike_id":"3ed78a9e-1d22-46b9-977a-44f38d66a860","system_id":"levelo_inurba_marseille","lat":43.330442,"lon":5.389148,"is_reserved":false,"is_disabled":false,"rental_uris":{"android":"levelo://app?vid=3ed78a9e-1d22-46b9-977a-44f38d66a860","ios":"levelo://app?vid=3ed78a9e-1d22-46b9-977a-44f38d66a860"},"vehicle_type_id":"4","last_reported":1701806877,"current_range_meters":20800,"station_id":"ce4bhr92rcd13ifvqhrg","pricing_plan_id":"free"},{"bike_id":"f68e2c8b-de08-4ad7-b342-74483183b5be","system_id":"levelo_inurba_marseille","lat":43.33034,"lon":5.38938,"is_reserved":false,"is_disabled":false,"rental_uris":{"android":"levelo://app?vid=f68e2c8b-de08-4ad7-b342-74483183b5be","ios":"levelo://app?vid=f68e2c8b-de08-4ad7-b342-74483183b5be"},"vehicle_type_id":"4","last_reported":1701806877,"current_range_meters":29600,"station_id":"ce4bhr92rcd13ifvqhrg","pricing_plan_id":"free"},{"bike_id":"838543b0-eaa7-4f27-b9e2-0ddf94d08938","system_id":"levelo_inurba_marseille","lat":43.297873,"lon":5.393417,"is_reserved":false,"is_disabled":false,"rental_uris":{"android":"levelo://app?vid=838543b0-eaa7-4f27-b9e2-0ddf94d08938","ios":"levelo://app?vid=838543b0-eaa7-4f27-b9e2-0ddf94d08938"},"vehicle_type_id":"4","last_reported":1701806877,"current_range_meters":9600,"station_id":"chh1huq6cuj3fo74tm60","pricing_plan_id":"free"},{"bike_id":"085dd7cc-de2f-45c7-8acc-7204a716d3a6","system_id":"levelo_inurba_marseille","lat":43.289743,"lon":5.378304,"is_reserved":false,"is_disabled":false,"rental_uris":{"android":"levelo://app?vid=085dd7cc-de2f-45c7-8acc-7204a716d3a6","ios":"levelo://app?vid=085dd7cc-de2f-45c7-8acc-7204a716d3a6"},"vehicle_type_id":"4","last_reported":1701806877,"current_range_meters":30400,"station_id":"ce4bh9p2rcd13ifvqed0","pricing_plan_id":"free"},{"bike_id":"cb0bbf43-702b-4ed9-a913-67066d990615","system_id":"levelo_inurba_marseille","lat":43.295169,"lon":5.390426,"is_reserved":false,"is_disabled":false,"rental_uris":{"android":"levelo://app?vid=cb0bbf43-702b-4ed9-a913-67066d990615","ios":"levelo://app?vid=cb0bbf43-702b-4ed9-a913-67066d990615"},"vehicle_type_id":"4","last_reported":1701806877,"current_range_meters":15200,"station_id":"ce4bh3p2rcd13ifvqdp0","pricing_plan_id":"free"},{"bike_id":"cbaee4c1-bfcc-4bba-8ec4-0fdbc3151256","system_id":"levelo_inurba_marseille","lat":43.295169,"lon":5.390426,"is_reserved":false,"is_disabled":false,"rental_uris":{"android":"levelo://app?vid=cbaee4c1-bfcc-4bba-8ec4-0fdbc3151256","ios":"levelo://app?vid=cbaee4c1-bfcc-4bba-8ec4-0fdbc3151256"},"vehicle_type_id":"4","last_reported":1701806877,"current_range_meters":14400,"station_id":"ce4bh3p2rcd13ifvqdp0","pricing_plan_id":"free"},{"bike_id":"36164747-3e25-4a1f-989d-7e8b2aa1d1d1","system_id":"levelo_inurba_marseille","lat":43.28856,"lon":5.35858,"is_reserved":false,"is_disabled":false,"rental_uris":{"android":"levelo://app?vid=36164747-3e25-4a1f-989d-7e8b2aa1d1d1","ios":"levelo://app?vid=36164747-3e25-4a1f-989d-7e8b2aa1d1d1"},"vehicle_type_id":"4","last_reported":1701806877,"current_range_meters":0,"station_id":"ce4bhb12rcd13ifvqem0","pricing_plan_id":"free"},{"bike_id":"52667820-3094-43dd-807c-963d040c35cb","system_id":"levelo_inurba_marseille","lat":43.31282,"lon":5.401697,"is_reserved":false,"is_disabled":false,"rental_uris":{"android":"levelo://app?vid=52667820-3094-43dd-807c-963d040c35cb","ios":"levelo://app?vid=52667820-3094-43dd-807c-963d040c35cb"},"vehicle_type_id":"4","last_reported":1701806877,"current_range_meters":16000,"station_id":"ce4bh092rcd13ifvqd30","pricing_plan_id":"free"},{"bike_id":"2fbea006-0d22-445c-bfc1-d379dcddc1c1","system_id":"levelo_inurba_marseille","lat":43.33747,"lon":5.37468,"is_reserved":false,"is_disabled":false,"rental_uris":{"android":"levelo://app?vid=2fbea006-0d22-445c-bfc1-d379dcddc1c1","ios":"levelo://app?vid=2fbea006-0d22-445c-bfc1-d379dcddc1c1"},"vehicle_type_id":"4","last_reported":1701806877,"current_range_meters":27600,"station_id":"","pricing_plan_id":"free"},{"bike_id":"b1da507f-59bc-4bfa-9de7-dd18b0d37739","system_id":"levelo_inurba_marseille","lat":43.337514,"lon":5.374493,"is_reserved":false,"is_disabled":false,"rental_uris":{"android":"levelo://app?vid=b1da507f-59bc-4bfa-9de7-dd18b0d37739","ios":"levelo://app?vid=b1da507f-59bc-4bfa-9de7-dd18b0d37739"},"vehicle_type_id":"4","last_reported":1701806877,"current_range_meters":30400,"station_id":"","pricing_plan_id":"free"},{"bike_id":"2c28f17a-6f0a-4e72-8fbc-c25601de9b78","system_id":"levelo_inurba_marseille","lat":43.33752,"lon":5.37448,"is_reserved":false,"is_disabled":false,"rental_uris":{"android":"levelo://app?vid=2c28f17a-6f0a-4e72-8fbc-c25601de9b78","ios":"levelo://app?vid=2c28f17a-6f0a-4e72-8fbc-c25601de9b78"},"vehicle_type_id":"4","last_reported":1701806877,"current_range_meters":31200,"station_id":"","pricing_plan_id":"free"},{"bike_id":"61e94894-252e-4e6e-9735-b09eceabfad5","system_id":"levelo_inurba_marseille","lat":43.337475,"lon":5.374789,"is_reserved":false,"is_disabled":false,"rental_uris":{"android":"levelo://app?vid=61e94894-252e-4e6e-9735-b09eceabfad5","ios":"levelo://app?vid=61e94894-252e-4e6e-9735-b09eceabfad5"},"vehicle_type_id":"4","last_reported":1701806877,"current_range_meters":31200,"station_id":"","pricing_plan_id":"free"},{"bike_id":"f0464f50-e84c-41e8-8839-9b31e220379c","system_id":"levelo_inurba_marseille","lat":43.337566,"lon":5.374596,"is_reserved":false,"is_disabled":false,"rental_uris":{"android":"levelo://app?vid=f0464f50-e84c-41e8-8839-9b31e220379c","ios":"levelo://app?vid=f0464f50-e84c-41e8-8839-9b31e220379c"},"vehicle_type_id":"4","last_reported":1701806877,"current_range_meters":30800,"station_id":"","pricing_plan_id":"free"},{"bike_id":"94559e2c-f22c-4ac5-af24-05076ed30144","system_id":"levelo_inurba_marseille","lat":43.33761,"lon":5.37446,"is_reserved":false,"is_disabled":false,"rental_uris":{"android":"levelo://app?vid=94559e2c-f22c-4ac5-af24-05076ed30144","ios":"levelo://app?vid=94559e2c-f22c-4ac5-af24-05076ed30144"},"vehicle_type_id":"4","last_reported":1701806877,"current_range_meters":30800,"station_id":"","pricing_plan_id":"free"},{"bike_id":"94be4217-e462-4a14-8227-cad10de641b8","system_id":"levelo_inurba_marseille","lat":43.30642,"lon":5.401031,"is_reserved":false,"is_disabled":false,"rental_uris":{"android":"levelo://app?vid=94be4217-e462-4a14-8227-cad10de641b8","ios":"levelo://app?vid=94be4217-e462-4a14-8227-cad10de641b8"},"vehicle_type_id":"4","last_reported":1701806877,"current_range_meters":0,"station_id":"ce4bh112rcd13ifvqda0","pricing_plan_id":"free"},{"bike_id":"a01a8d62-3f82-430f-8cbf-bf5e5048b82c","system_id":"levelo_inurba_marseille","lat":43.337623,"lon":5.37469,"is_reserved":false,"is_disabled":false,"rental_uris":{"android":"levelo://app?vid=a01a8d62-3f82-430f-8cbf-bf5e5048b82c","ios":"levelo://app?vid=a01a8d62-3f82-430f-8cbf-bf5e5048b82c"},"vehicle_type_id":"4","last_reported":1701806877,"current_range_meters":27200,"station_id":"","pricing_plan_id":"free"},{"bike_id":"9a1e2a86-2307-443e-8986-35b02223d9a7","system_id":"levelo_inurba_marseille","lat":43.33762,"lon":5.37476,"is_reserved":false,"is_disabled":false,"rental_uris":{"android":"levelo://app?vid=9a1e2a86-2307-443e-8986-35b02223d9a7","ios":"levelo://app?vid=9a1e2a86-2307-443e-8986-35b02223d9a7"},"vehicle_type_id":"4","last_reported":1701806877,"current_range_meters":18800,"station_id":"","pricing_plan_id":"free"},{"bike_id":"12e146b1-8304-45c4-9371-d2db74be89fe","system_id":"levelo_inurba_marseille","lat":43.309038,"lon":5.396546,"is_reserved":false,"is_disabled":false,"rental_uris":{"android":"levelo://app?vid=12e146b1-8304-45c4-9371-d2db74be89fe","ios":"levelo://app?vid=12e146b1-8304-45c4-9371-d2db74be89fe"},"vehicle_type_id":"4","last_reported":1701806877,"current_range_meters":4800,"station_id":"ce4bh012rcd13ifvqcv0","pricing_plan_id":"free"},{"bike_id":"4be40a1e-fbe0-453a-b659-8e3f3789adb8","system_id":"levelo_inurba_marseille","lat":43.301117,"lon":5.398795,"is_reserved":false,"is_disabled":false,"rental_uris":{"android":"levelo://app?vid=4be40a1e-fbe0-453a-b659-8e3f3789adb8","ios":"levelo://app?vid=4be40a1e-fbe0-453a-b659-8e3f3789adb8"},"vehicle_type_id":"4","last_reported":1701806877,"current_range_meters":3200,"station_id":"ce4bh0h2rcd13ifvqd40","pricing_plan_id":"free"},{"bike_id":"5835fa53-e99e-4426-850c-2c1fdb1dc507","system_id":"levelo_inurba_marseille","lat":43.30123,"lon":5.39868,"is_reserved":false,"is_disabled":false,"rental_uris":{"android":"levelo://app?vid=5835fa53-e99e-4426-850c-2c1fdb1dc507","ios":"levelo://app?vid=5835fa53-e99e-4426-850c-2c1fdb1dc507"},"vehicle_type_id":"4","last_reported":1701806877,"current_range_meters":0,"station_id":"ce4bh0h2rcd13ifvqd40","pricing_plan_id":"free"},{"bike_id":"1658dd3b-9f05-49bc-82a4-60882e063b01","system_id":"levelo_inurba_marseille","lat":43.28727,"lon":5.36078,"is_reserved":false,"is_disabled":false,"rental_uris":{"android":"levelo://app?vid=1658dd3b-9f05-49bc-82a4-60882e063b01","ios":"levelo://app?vid=1658dd3b-9f05-49bc-82a4-60882e063b01"},"vehicle_type_id":"4","last_reported":1701806877,"current_range_meters":12000,"station_id":"cki0cbj6b192h4jlfktg","pricing_plan_id":"free"},{"bike_id":"b1c44fb3-b780-4346-9631-da6afb4f789a","system_id":"levelo_inurba_marseille","lat":43.28727,"lon":5.36078,"is_reserved":false,"is_disabled":false,"rental_uris":{"android":"levelo://app?vid=b1c44fb3-b780-4346-9631-da6afb4f789a","ios":"levelo://app?vid=b1c44fb3-b780-4346-9631-da6afb4f789a"},"vehicle_type_id":"4","last_reported":1701806877,"current_range_meters":4000,"station_id":"cki0cbj6b192h4jlfktg","pricing_plan_id":"free"},{"bike_id":"7219e02c-5e23-48ee-8dc7-5a2658fa9e15","system_id":"levelo_inurba_marseille","lat":43.29871,"lon":5.39723,"is_reserved":false,"is_disabled":false,"rental_uris":{"android":"levelo://app?vid=7219e02c-5e23-48ee-8dc7-5a2658fa9e15","ios":"levelo://app?vid=7219e02c-5e23-48ee-8dc7-5a2658fa9e15"},"vehicle_type_id":"4","last_reported":1701806877,"current_range_meters":2400,"station_id":"ce4bh0h2rcd13ifvqd50","pricing_plan_id":"free"},{"bike_id":"d0fcae1a-67fe-487e-b541-c3fca2f38c20","system_id":"levelo_inurba_marseille","lat":43.298681,"lon":5.397225,"is_reserved":false,"is_disabled":false,"rental_uris":{"android":"levelo://app?vid=d0fcae1a-67fe-487e-b541-c3fca2f38c20","ios":"levelo://app?vid=d0fcae1a-67fe-487e-b541-c3fca2f38c20"},"vehicle_type_id":"4","last_reported":1701806877,"current_range_meters":23200,"station_id":"ce4bh0h2rcd13ifvqd50","pricing_plan_id":"free"},{"bike_id":"f7d14164-3aa2-4b6e-a9b6-1d28af1f1b8c","system_id":"levelo_inurba_marseille","lat":43.291994,"lon":5.392907,"is_reserved":false,"is_disabled":false,"rental_uris":{"android":"levelo://app?vid=f7d14164-3aa2-4b6e-a9b6-1d28af1f1b8c","ios":"levelo://app?vid=f7d14164-3aa2-4b6e-a9b6-1d28af1f1b8c"},"vehicle_type_id":"4","last_reported":1701806877,"current_range_meters":24400,"station_id":"ce4bh192rcd13ifvqdd0","pricing_plan_id":"free"},{"bike_id":"20f95e80-10f6-4cb7-b3fb-b875994e234f","system_id":"levelo_inurba_marseille","lat":43.298681,"lon":5.397225,"is_reserved":false,"is_disabled":false,"rental_uris":{"android":"levelo://app?vid=20f95e80-10f6-4cb7-b3fb-b875994e234f","ios":"levelo://app?vid=20f95e80-10f6-4cb7-b3fb-b875994e234f"},"vehicle_type_id":"4","last_reported":1701806877,"current_range_meters":5200,"station_id":"ce4bh0h2rcd13ifvqd50","pricing_plan_id":"free"},{"bike_id":"19e8cf46-de88-4dd7-98a1-63aa7e5df212","system_id":"levelo_inurba_marseille","lat":43.29867,"lon":5.39734,"is_reserved":false,"is_disabled":false,"rental_uris":{"android":"levelo://app?vid=19e8cf46-de88-4dd7-98a1-63aa7e5df212","ios":"levelo://app?vid=19e8cf46-de88-4dd7-98a1-63aa7e5df212"},"vehicle_type_id":"4","last_reported":1701806877,"current_range_meters":0,"station_id":"ce4bh0h2rcd13ifvqd50","pricing_plan_id":"free"},{"bike_id":"6cfc7387-1955-4523-b32c-09b498812221","system_id":"levelo_inurba_marseille","lat":43.28933,"lon":5.38401,"is_reserved":false,"is_disabled":false,"rental_uris":{"android":"levelo://app?vid=6cfc7387-1955-4523-b32c-09b498812221","ios":"levelo://app?vid=6cfc7387-1955-4523-b32c-09b498812221"},"vehicle_type_id":"4","last_reported":1701806877,"current_range_meters":16800,"station_id":"ce4bh612rcd13ifvqe6g","pricing_plan_id":"free"},{"bike_id":"5400bd56-c564-40d8-8873-8e8fe4158dcb","system_id":"levelo_inurba_marseille","lat":43.289307,"lon":5.38406,"is_reserved":false,"is_disabled":false,"rental_uris":{"android":"levelo://app?vid=5400bd56-c564-40d8-8873-8e8fe4158dcb","ios":"levelo://app?vid=5400bd56-c564-40d8-8873-8e8fe4158dcb"},"vehicle_type_id":"4","last_reported":1701806877,"current_range_meters":8800,"station_id":"ce4bh612rcd13ifvqe6g","pricing_plan_id":"free"},{"bike_id":"e05a83b2-96e5-473c-9425-25592f028f13","system_id":"levelo_inurba_marseille","lat":43.289307,"lon":5.38406,"is_reserved":false,"is_disabled":false,"rental_uris":{"android":"levelo://app?vid=e05a83b2-96e5-473c-9425-25592f028f13","ios":"levelo://app?vid=e05a83b2-96e5-473c-9425-25592f028f13"},"vehicle_type_id":"4","last_reported":1701806877,"current_range_meters":29200,"station_id":"ce4bh612rcd13ifvqe6g","pricing_plan_id":"free"},{"bike_id":"8b29ca00-5866-4881-94d4-93d3f975b8d4","system_id":"levelo_inurba_marseille","lat":43.289307,"lon":5.38406,"is_reserved":false,"is_disabled":false,"rental_uris":{"android":"levelo://app?vid=8b29ca00-5866-4881-94d4-93d3f975b8d4","ios":"levelo://app?vid=8b29ca00-5866-4881-94d4-93d3f975b8d4"},"vehicle_type_id":"4","last_reported":1701806877,"current_range_meters":16000,"station_id":"ce4bh612rcd13ifvqe6g","pricing_plan_id":"free"},{"bike_id":"fbdecc6f-8375-4057-ab2a-43610a6a63db","system_id":"levelo_inurba_marseille","lat":43.287184,"lon":5.37937,"is_reserved":false,"is_disabled":false,"rental_uris":{"android":"levelo://app?vid=fbdecc6f-8375-4057-ab2a-43610a6a63db","ios":"levelo://app?vid=fbdecc6f-8375-4057-ab2a-43610a6a63db"},"vehicle_type_id":"4","last_reported":1701806877,"current_range_meters":3200,"station_id":"ce4bh9p2rcd13ifvqec0","pricing_plan_id":"free"},{"bike_id":"1c711f41-a9f2-4d0e-b20a-8e2293eacfad","system_id":"levelo_inurba_marseille","lat":43.287185,"lon":5.379373,"is_reserved":false,"is_disabled":false,"rental_uris":{"android":"levelo://app?vid=1c711f41-a9f2-4d0e-b20a-8e2293eacfad","ios":"levelo://app?vid=1c711f41-a9f2-4d0e-b20a-8e2293eacfad"},"vehicle_type_id":"4","last_reported":1701806877,"current_range_meters":9200,"station_id":"ce4bh9p2rcd13ifvqec0","pricing_plan_id":"free"},{"bike_id":"336e77e6-6ddf-4f32-8537-e40bbd9280eb","system_id":"levelo_inurba_marseille","lat":43.287184,"lon":5.37937,"is_reserved":false,"is_disabled":false,"rental_uris":{"android":"levelo://app?vid=336e77e6-6ddf-4f32-8537-e40bbd9280eb","ios":"levelo://app?vid=336e77e6-6ddf-4f32-8537-e40bbd9280eb"},"vehicle_type_id":"4","last_reported":1701806877,"current_range_meters":12400,"station_id":"ce4bh9p2rcd13ifvqec0","pricing_plan_id":"free"},{"bike_id":"6f3c10b8-c07f-4bc4-a5c5-63d22e7d684d","system_id":"levelo_inurba_marseille","lat":43.287184,"lon":5.37937,"is_reserved":false,"is_disabled":false,"rental_uris":{"android":"levelo://app?vid=6f3c10b8-c07f-4bc4-a5c5-63d22e7d684d","ios":"levelo://app?vid=6f3c10b8-c07f-4bc4-a5c5-63d22e7d684d"},"vehicle_type_id":"4","last_reported":1701806877,"current_range_meters":13600,"station_id":"ce4bh9p2rcd13ifvqec0","pricing_plan_id":"free"},{"bike_id":"5376b66c-ef5f-4a6e-b6eb-13040305bf9f","system_id":"levelo_inurba_marseille","lat":43.29393,"lon":5.39434,"is_reserved":false,"is_disabled":false,"rental_uris":{"android":"levelo://app?vid=5376b66c-ef5f-4a6e-b6eb-13040305bf9f","ios":"levelo://app?vid=5376b66c-ef5f-4a6e-b6eb-13040305bf9f"},"vehicle_type_id":"4","last_reported":1701806877,"current_range_meters":0,"station_id":"","pricing_plan_id":"free"},{"bike_id":"35672a9f-8e3b-4f82-bb53-c7b69cca7103","system_id":"levelo_inurba_marseille","lat":43.316517,"lon":5.404375,"is_reserved":false,"is_disabled":false,"rental_uris":{"android":"levelo://app?vid=35672a9f-8e3b-4f82-bb53-c7b69cca7103","ios":"levelo://app?vid=35672a9f-8e3b-4f82-bb53-c7b69cca7103"},"vehicle_type_id":"4","last_reported":1701806877,"current_range_meters":17600,"station_id":"ce4bh012rcd13ifvqd00","pricing_plan_id":"free"},{"bike_id":"9b742553-428a-45fa-b5bc-238becbd6059","system_id":"levelo_inurba_marseille","lat":43.316517,"lon":5.404375,"is_reserved":false,"is_disabled":false,"rental_uris":{"android":"levelo://app?vid=9b742553-428a-45fa-b5bc-238becbd6059","ios":"levelo://app?vid=9b742553-428a-45fa-b5bc-238becbd6059"},"vehicle_type_id":"4","last_reported":1701806877,"current_range_meters":22000,"station_id":"ce4bh012rcd13ifvqd00","pricing_plan_id":"free"},{"bike_id":"1d21733c-fc20-4e07-bf97-2e22daed83ce","system_id":"levelo_inurba_marseille","lat":43.291994,"lon":5.392907,"is_reserved":false,"is_disabled":false,"rental_uris":{"android":"levelo://app?vid=1d21733c-fc20-4e07-bf97-2e22daed83ce","ios":"levelo://app?vid=1d21733c-fc20-4e07-bf97-2e22daed83ce"},"vehicle_type_id":"4","last_reported":1701806877,"current_range_meters":14400,"station_id":"ce4bh192rcd13ifvqdd0","pricing_plan_id":"free"},{"bike_id":"383fefec-aba2-4ed7-b60f-92294683ce2e","system_id":"levelo_inurba_marseille","lat":43.292003,"lon":5.393248,"is_reserved":false,"is_disabled":false,"rental_uris":{"android":"levelo://app?vid=383fefec-aba2-4ed7-b60f-92294683ce2e","ios":"levelo://app?vid=383fefec-aba2-4ed7-b60f-92294683ce2e"},"vehicle_type_id":"4","last_reported":1701806877,"current_range_meters":0,"station_id":"ce4bh192rcd13ifvqdd0","pricing_plan_id":"free"},{"bike_id":"f56f8be2-ebde-4d23-8461-f7a6797dcf91","system_id":"levelo_inurba_marseille","lat":43.284538,"lon":5.358657,"is_reserved":false,"is_disabled":false,"rental_uris":{"android":"levelo://app?vid=f56f8be2-ebde-4d23-8461-f7a6797dcf91","ios":"levelo://app?vid=f56f8be2-ebde-4d23-8461-f7a6797dcf91"},"vehicle_type_id":"4","last_reported":1701806877,"current_range_meters":18800,"station_id":"ce4bhah2rcd13ifvqei0","pricing_plan_id":"free"},{"bike_id":"8ecdd6d8-318d-48d6-b323-0a270a0205b8","system_id":"levelo_inurba_marseille","lat":43.284538,"lon":5.358657,"is_reserved":false,"is_disabled":false,"rental_uris":{"android":"levelo://app?vid=8ecdd6d8-318d-48d6-b323-0a270a0205b8","ios":"levelo://app?vid=8ecdd6d8-318d-48d6-b323-0a270a0205b8"},"vehicle_type_id":"4","last_reported":1701806877,"current_range_meters":16800,"station_id":"ce4bhah2rcd13ifvqei0","pricing_plan_id":"free"},{"bike_id":"23e20ab3-3c32-4bb8-b269-6448f0753884","system_id":"levelo_inurba_marseille","lat":43.284534,"lon":5.358662,"is_reserved":false,"is_disabled":false,"rental_uris":{"android":"levelo://app?vid=23e20ab3-3c32-4bb8-b269-6448f0753884","ios":"levelo://app?vid=23e20ab3-3c32-4bb8-b269-6448f0753884"},"vehicle_type_id":"4","last_reported":1701806877,"current_range_meters":21200,"station_id":"ce4bhah2rcd13ifvqei0","pricing_plan_id":"free"},{"bike_id":"51c79b9f-7d85-4db7-b30c-7d97acf8cc13","system_id":"levelo_inurba_marseille","lat":43.284538,"lon":5.358657,"is_reserved":false,"is_disabled":false,"rental_uris":{"android":"levelo://app?vid=51c79b9f-7d85-4db7-b30c-7d97acf8cc13","ios":"levelo://app?vid=51c79b9f-7d85-4db7-b30c-7d97acf8cc13"},"vehicle_type_id":"4","last_reported":1701806877,"current_range_meters":21600,"station_id":"ce4bhah2rcd13ifvqei0","pricing_plan_id":"free"},{"bike_id":"8666040e-b6eb-4b35-8626-e4aaade3e572","system_id":"levelo_inurba_marseille","lat":43.284534,"lon":5.358662,"is_reserved":false,"is_disabled":false,"rental_uris":{"android":"levelo://app?vid=8666040e-b6eb-4b35-8626-e4aaade3e572","ios":"levelo://app?vid=8666040e-b6eb-4b35-8626-e4aaade3e572"},"vehicle_type_id":"4","last_reported":1701806877,"current_range_meters":8400,"station_id":"ce4bhah2rcd13ifvqei0","pricing_plan_id":"free"},{"bike_id":"377edaf2-a03f-485e-8dfc-662d69a5852c","system_id":"levelo_inurba_marseille","lat":43.284538,"lon":5.358657,"is_reserved":false,"is_disabled":false,"rental_uris":{"android":"levelo://app?vid=377edaf2-a03f-485e-8dfc-662d69a5852c","ios":"levelo://app?vid=377edaf2-a03f-485e-8dfc-662d69a5852c"},"vehicle_type_id":"4","last_reported":1701806877,"current_range_meters":24000,"station_id":"ce4bhah2rcd13ifvqei0","pricing_plan_id":"free"},{"bike_id":"c2d61f0c-efc2-4ad3-a5a4-0a2aa4f5f246","system_id":"levelo_inurba_marseille","lat":43.285856,"lon":5.350771,"is_reserved":false,"is_disabled":false,"rental_uris":{"android":"levelo://app?vid=c2d61f0c-efc2-4ad3-a5a4-0a2aa4f5f246","ios":"levelo://app?vid=c2d61f0c-efc2-4ad3-a5a4-0a2aa4f5f246"},"vehicle_type_id":"4","last_reported":1701806877,"current_range_meters":5600,"station_id":"ce4bhch2rcd13ifvqeug","pricing_plan_id":"free"},{"bike_id":"2efd7ac1-eca2-4e85-b931-ce611380bd00","system_id":"levelo_inurba_marseille","lat":43.285856,"lon":5.350771,"is_reserved":false,"is_disabled":false,"rental_uris":{"android":"levelo://app?vid=2efd7ac1-eca2-4e85-b931-ce611380bd00","ios":"levelo://app?vid=2efd7ac1-eca2-4e85-b931-ce611380bd00"},"vehicle_type_id":"4","last_reported":1701806877,"current_range_meters":22400,"station_id":"ce4bhch2rcd13ifvqeug","pricing_plan_id":"free"},{"bike_id":"a1d5832e-e516-411c-88ec-8f4f7f0daaf8","system_id":"levelo_inurba_marseille","lat":43.286168,"lon":5.351093,"is_reserved":false,"is_disabled":false,"rental_uris":{"android":"levelo://app?vid=a1d5832e-e516-411c-88ec-8f4f7f0daaf8","ios":"levelo://app?vid=a1d5832e-e516-411c-88ec-8f4f7f0daaf8"},"vehicle_type_id":"4","last_reported":1701806877,"current_range_meters":4400,"station_id":"ce4bhch2rcd13ifvqeug","pricing_plan_id":"free"},{"bike_id":"5b186023-b6d7-486d-948d-c4e9f1f8233d","system_id":"levelo_inurba_marseille","lat":43.28613,"lon":5.35102,"is_reserved":false,"is_disabled":false,"rental_uris":{"android":"levelo://app?vid=5b186023-b6d7-486d-948d-c4e9f1f8233d","ios":"levelo://app?vid=5b186023-b6d7-486d-948d-c4e9f1f8233d"},"vehicle_type_id":"4","last_reported":1701806877,"current_range_meters":20400,"station_id":"ce4bhch2rcd13ifvqeug","pricing_plan_id":"free"},{"bike_id":"9c5f8c4a-90e1-4102-91d2-021816b36661","system_id":"levelo_inurba_marseille","lat":43.28672,"lon":5.38653,"is_reserved":false,"is_disabled":false,"rental_uris":{"android":"levelo://app?vid=9c5f8c4a-90e1-4102-91d2-021816b36661","ios":"levelo://app?vid=9c5f8c4a-90e1-4102-91d2-021816b36661"},"vehicle_type_id":"4","last_reported":1701806877,"current_range_meters":12400,"station_id":"ce4bh492rcd13ifvqdug","pricing_plan_id":"free"},{"bike_id":"4c008d08-afb9-45ca-bb85-1ad6c8fdb117","system_id":"levelo_inurba_marseille","lat":43.28678,"lon":5.38669,"is_reserved":false,"is_disabled":false,"rental_uris":{"android":"levelo://app?vid=4c008d08-afb9-45ca-bb85-1ad6c8fdb117","ios":"levelo://app?vid=4c008d08-afb9-45ca-bb85-1ad6c8fdb117"},"vehicle_type_id":"4","last_reported":1701806877,"current_range_meters":17200,"station_id":"ce4bh492rcd13ifvqdug","pricing_plan_id":"free"},{"bike_id":"7127ceea-75af-42f1-8310-0c95985b8baa","system_id":"levelo_inurba_marseille","lat":43.28671,"lon":5.38676,"is_reserved":false,"is_disabled":false,"rental_uris":{"android":"levelo://app?vid=7127ceea-75af-42f1-8310-0c95985b8baa","ios":"levelo://app?vid=7127ceea-75af-42f1-8310-0c95985b8baa"},"vehicle_type_id":"4","last_reported":1701806877,"current_range_meters":30800,"station_id":"ce4bh492rcd13ifvqdug","pricing_plan_id":"free"},{"bike_id":"5fad739f-ecbb-465f-9d5d-01fd562691c5","system_id":"levelo_inurba_marseille","lat":43.318799,"lon":5.407356,"is_reserved":false,"is_disabled":false,"rental_uris":{"android":"levelo://app?vid=5fad739f-ecbb-465f-9d5d-01fd562691c5","ios":"levelo://app?vid=5fad739f-ecbb-465f-9d5d-01fd562691c5"},"vehicle_type_id":"4","last_reported":1701806877,"current_range_meters":0,"station_id":"ce4bhq12rcd13ifvqhig","pricing_plan_id":"free"},{"bike_id":"3734231e-d673-4404-b15d-d7a23ba8c854","system_id":"levelo_inurba_marseille","lat":43.28806,"lon":5.391473,"is_reserved":false,"is_disabled":false,"rental_uris":{"android":"levelo://app?vid=3734231e-d673-4404-b15d-d7a23ba8c854","ios":"levelo://app?vid=3734231e-d673-4404-b15d-d7a23ba8c854"},"vehicle_type_id":"4","last_reported":1701806877,"current_range_meters":0,"station_id":"","pricing_plan_id":"free"},{"bike_id":"db920be0-fb0f-4fdb-91ad-92736490ed79","system_id":"levelo_inurba_marseille","lat":43.323464,"lon":5.406297,"is_reserved":false,"is_disabled":false,"rental_uris":{"android":"levelo://app?vid=db920be0-fb0f-4fdb-91ad-92736490ed79","ios":"levelo://app?vid=db920be0-fb0f-4fdb-91ad-92736490ed79"},"vehicle_type_id":"4","last_reported":1701806877,"current_range_meters":15600,"station_id":"ce4bhq92rcd13ifvqhjg","pricing_plan_id":"free"},{"bike_id":"5050b9ff-74f9-4a14-8513-e3a7b57aae00","system_id":"levelo_inurba_marseille","lat":43.297946,"lon":5.404063,"is_reserved":false,"is_disabled":false,"rental_uris":{"android":"levelo://app?vid=5050b9ff-74f9-4a14-8513-e3a7b57aae00","ios":"levelo://app?vid=5050b9ff-74f9-4a14-8513-e3a7b57aae00"},"vehicle_type_id":"4","last_reported":1701806877,"current_range_meters":16000,"station_id":"ce4bh112rcd13ifvqd90","pricing_plan_id":"free"},{"bike_id":"f2bb2c70-563e-46eb-a1fb-f441f9386e84","system_id":"levelo_inurba_marseille","lat":43.288501,"lon":5.393087,"is_reserved":false,"is_disabled":false,"rental_uris":{"android":"levelo://app?vid=f2bb2c70-563e-46eb-a1fb-f441f9386e84","ios":"levelo://app?vid=f2bb2c70-563e-46eb-a1fb-f441f9386e84"},"vehicle_type_id":"4","last_reported":1701806877,"current_range_meters":22400,"station_id":"ce4bh2p2rcd13ifvqdi0","pricing_plan_id":"free"},{"bike_id":"30fd6f3c-00b1-4dc4-98ee-f07d03a6ee8f","system_id":"levelo_inurba_marseille","lat":43.289363,"lon":5.396322,"is_reserved":false,"is_disabled":false,"rental_uris":{"android":"levelo://app?vid=30fd6f3c-00b1-4dc4-98ee-f07d03a6ee8f","ios":"levelo://app?vid=30fd6f3c-00b1-4dc4-98ee-f07d03a6ee8f"},"vehicle_type_id":"4","last_reported":1701806877,"current_range_meters":6000,"station_id":"ce4bh3h2rcd13ifvqdn0","pricing_plan_id":"free"},{"bike_id":"4c2aad82-0f2f-4a7a-a5df-a7d49217e2af","system_id":"levelo_inurba_marseille","lat":43.292724,"lon":5.401131,"is_reserved":false,"is_disabled":false,"rental_uris":{"android":"levelo://app?vid=4c2aad82-0f2f-4a7a-a5df-a7d49217e2af","ios":"levelo://app?vid=4c2aad82-0f2f-4a7a-a5df-a7d49217e2af"},"vehicle_type_id":"4","last_reported":1701806877,"current_range_meters":9600,"station_id":"ce4bh312rcd13ifvqdk0","pricing_plan_id":"free"},{"bike_id":"bce71c12-22d6-45da-b79d-1da2154b978f","system_id":"levelo_inurba_marseille","lat":43.282744,"lon":5.350533,"is_reserved":false,"is_disabled":false,"rental_uris":{"android":"levelo://app?vid=bce71c12-22d6-45da-b79d-1da2154b978f","ios":"levelo://app?vid=bce71c12-22d6-45da-b79d-1da2154b978f"},"vehicle_type_id":"4","last_reported":1701806877,"current_range_meters":10400,"station_id":"ce4bhbp2rcd13ifvqerg","pricing_plan_id":"free"},{"bike_id":"756c4df3-0640-4aee-84c9-9bd41f9503ab","system_id":"levelo_inurba_marseille","lat":43.282744,"lon":5.350533,"is_reserved":false,"is_disabled":false,"rental_uris":{"android":"levelo://app?vid=756c4df3-0640-4aee-84c9-9bd41f9503ab","ios":"levelo://app?vid=756c4df3-0640-4aee-84c9-9bd41f9503ab"},"vehicle_type_id":"4","last_reported":1701806877,"current_range_meters":7600,"station_id":"ce4bhbp2rcd13ifvqerg","pricing_plan_id":"free"},{"bike_id":"f27ec9c0-8dd8-4d29-822f-5dc7bb489720","system_id":"levelo_inurba_marseille","lat":43.283502,"lon":5.386471,"is_reserved":false,"is_disabled":false,"rental_uris":{"android":"levelo://app?vid=f27ec9c0-8dd8-4d29-822f-5dc7bb489720","ios":"levelo://app?vid=f27ec9c0-8dd8-4d29-822f-5dc7bb489720"},"vehicle_type_id":"4","last_reported":1701806877,"current_range_meters":12400,"station_id":"ce4bh492rcd13ifvqdvg","pricing_plan_id":"free"},{"bike_id":"3e63bd18-083f-433f-90d8-accbcf1dd2cc","system_id":"levelo_inurba_marseille","lat":43.28039,"lon":5.369297,"is_reserved":false,"is_disabled":false,"rental_uris":{"android":"levelo://app?vid=3e63bd18-083f-433f-90d8-accbcf1dd2cc","ios":"levelo://app?vid=3e63bd18-083f-433f-90d8-accbcf1dd2cc"},"vehicle_type_id":"4","last_reported":1701806877,"current_range_meters":5600,"station_id":"ce4bha12rcd13ifvqef0","pricing_plan_id":"free"},{"bike_id":"97a64f72-b090-414b-8a60-3da1faf338af","system_id":"levelo_inurba_marseille","lat":43.283494,"lon":5.380945,"is_reserved":false,"is_disabled":false,"rental_uris":{"android":"levelo://app?vid=97a64f72-b090-414b-8a60-3da1faf338af","ios":"levelo://app?vid=97a64f72-b090-414b-8a60-3da1faf338af"},"vehicle_type_id":"4","last_reported":1701806877,"current_range_meters":22800,"station_id":"ce4bh412rcd13ifvqdr0","pricing_plan_id":"free"},{"bike_id":"1c3b0755-b9af-433a-a1c9-3fe422d07b2c","system_id":"levelo_inurba_marseille","lat":43.284462,"lon":5.392121,"is_reserved":false,"is_disabled":false,"rental_uris":{"android":"levelo://app?vid=1c3b0755-b9af-433a-a1c9-3fe422d07b2c","ios":"levelo://app?vid=1c3b0755-b9af-433a-a1c9-3fe422d07b2c"},"vehicle_type_id":"4","last_reported":1701806877,"current_range_meters":13200,"station_id":"ce4bhoh2rcd13ifvqh5g","pricing_plan_id":"free"},{"bike_id":"6082b999-84ba-464a-ac4c-d6fbc13f6292","system_id":"levelo_inurba_marseille","lat":43.284462,"lon":5.392121,"is_reserved":false,"is_disabled":false,"rental_uris":{"android":"levelo://app?vid=6082b999-84ba-464a-ac4c-d6fbc13f6292","ios":"levelo://app?vid=6082b999-84ba-464a-ac4c-d6fbc13f6292"},"vehicle_type_id":"4","last_reported":1701806877,"current_range_meters":28000,"station_id":"ce4bhoh2rcd13ifvqh5g","pricing_plan_id":"free"},{"bike_id":"486efaf5-0116-4223-967f-075be4dc6679","system_id":"levelo_inurba_marseille","lat":43.279087,"lon":5.380114,"is_reserved":false,"is_disabled":false,"rental_uris":{"android":"levelo://app?vid=486efaf5-0116-4223-967f-075be4dc6679","ios":"levelo://app?vid=486efaf5-0116-4223-967f-075be4dc6679"},"vehicle_type_id":"4","last_reported":1701806877,"current_range_meters":18400,"station_id":"ce4bhf92rcd13ifvqf50","pricing_plan_id":"free"},{"bike_id":"4b79bbca-8700-4c2d-ad87-790991472f90","system_id":"levelo_inurba_marseille","lat":43.279087,"lon":5.380114,"is_reserved":false,"is_disabled":false,"rental_uris":{"android":"levelo://app?vid=4b79bbca-8700-4c2d-ad87-790991472f90","ios":"levelo://app?vid=4b79bbca-8700-4c2d-ad87-790991472f90"},"vehicle_type_id":"4","last_reported":1701806877,"current_range_meters":15200,"station_id":"ce4bhf92rcd13ifvqf50","pricing_plan_id":"free"},{"bike_id":"7acf2a34-4b55-466b-8d19-c8b56e779d9d","system_id":"levelo_inurba_marseille","lat":43.287154,"lon":5.399979,"is_reserved":false,"is_disabled":false,"rental_uris":{"android":"levelo://app?vid=7acf2a34-4b55-466b-8d19-c8b56e779d9d","ios":"levelo://app?vid=7acf2a34-4b55-466b-8d19-c8b56e779d9d"},"vehicle_type_id":"4","last_reported":1701806877,"current_range_meters":19200,"station_id":"ce4bho92rcd13ifvqh3g","pricing_plan_id":"free"},{"bike_id":"4fcc6f08-3b05-4a6c-a797-d66e356cfa7c","system_id":"levelo_inurba_marseille","lat":43.292569,"lon":5.409107,"is_reserved":false,"is_disabled":false,"rental_uris":{"android":"levelo://app?vid=4fcc6f08-3b05-4a6c-a797-d66e356cfa7c","ios":"levelo://app?vid=4fcc6f08-3b05-4a6c-a797-d66e356cfa7c"},"vehicle_type_id":"4","last_reported":1701806877,"current_range_meters":20000,"station_id":"ce4bh192rcd13ifvqdc0","pricing_plan_id":"free"},{"bike_id":"8d37f3f3-cafe-41b3-93ac-86502e716d0e","system_id":"levelo_inurba_marseille","lat":43.292569,"lon":5.409107,"is_reserved":false,"is_disabled":false,"rental_uris":{"android":"levelo://app?vid=8d37f3f3-cafe-41b3-93ac-86502e716d0e","ios":"levelo://app?vid=8d37f3f3-cafe-41b3-93ac-86502e716d0e"},"vehicle_type_id":"4","last_reported":1701806877,"current_range_meters":400,"station_id":"ce4bh192rcd13ifvqdc0","pricing_plan_id":"free"},{"bike_id":"de4911c3-10ee-4afa-8faf-48aa57838170","system_id":"levelo_inurba_marseille","lat":43.292571,"lon":5.409107,"is_reserved":false,"is_disabled":false,"rental_uris":{"android":"levelo://app?vid=de4911c3-10ee-4afa-8faf-48aa57838170","ios":"levelo://app?vid=de4911c3-10ee-4afa-8faf-48aa57838170"},"vehicle_type_id":"4","last_reported":1701806877,"current_range_meters":24000,"station_id":"ce4bh192rcd13ifvqdc0","pricing_plan_id":"free"},{"bike_id":"17db11e9-ff6b-4265-a772-9fca0f8a787a","system_id":"levelo_inurba_marseille","lat":43.28479,"lon":5.40409,"is_reserved":false,"is_disabled":false,"rental_uris":{"android":"levelo://app?vid=17db11e9-ff6b-4265-a772-9fca0f8a787a","ios":"levelo://app?vid=17db11e9-ff6b-4265-a772-9fca0f8a787a"},"vehicle_type_id":"4","last_reported":1701806877,"current_range_meters":0,"station_id":"","pricing_plan_id":"free"},{"bike_id":"836698bf-0593-4c6f-a29c-25959d245d4a","system_id":"levelo_inurba_marseille","lat":43.273613,"lon":5.362705,"is_reserved":false,"is_disabled":false,"rental_uris":{"android":"levelo://app?vid=836698bf-0593-4c6f-a29c-25959d245d4a","ios":"levelo://app?vid=836698bf-0593-4c6f-a29c-25959d245d4a"},"vehicle_type_id":"4","last_reported":1701806877,"current_range_meters":19600,"station_id":"ce4bhbh2rcd13ifvqeo0","pricing_plan_id":"free"},{"bike_id":"9f545bdf-f55b-479c-8163-f23d47de37f2","system_id":"levelo_inurba_marseille","lat":43.33612,"lon":5.410321,"is_reserved":false,"is_disabled":false,"rental_uris":{"android":"levelo://app?vid=9f545bdf-f55b-479c-8163-f23d47de37f2","ios":"levelo://app?vid=9f545bdf-f55b-479c-8163-f23d47de37f2"},"vehicle_type_id":"4","last_reported":1701806877,"current_range_meters":8000,"station_id":"ce4bhqh2rcd13ifvqhmg","pricing_plan_id":"free"},{"bike_id":"b1e0d68f-b5ce-4efc-a11d-bb9890d3062f","system_id":"levelo_inurba_marseille","lat":43.27871,"lon":5.39491,"is_reserved":false,"is_disabled":false,"rental_uris":{"android":"levelo://app?vid=b1e0d68f-b5ce-4efc-a11d-bb9890d3062f","ios":"levelo://app?vid=b1e0d68f-b5ce-4efc-a11d-bb9890d3062f"},"vehicle_type_id":"4","last_reported":1701806877,"current_range_meters":28000,"station_id":"","pricing_plan_id":"free"},{"bike_id":"972ad8df-576c-4a6c-98b8-67136b54b8e0","system_id":"levelo_inurba_marseille","lat":43.279952,"lon":5.400085,"is_reserved":false,"is_disabled":false,"rental_uris":{"android":"levelo://app?vid=972ad8df-576c-4a6c-98b8-67136b54b8e0","ios":"levelo://app?vid=972ad8df-576c-4a6c-98b8-67136b54b8e0"},"vehicle_type_id":"4","last_reported":1701806877,"current_range_meters":0,"station_id":"ce4bho92rcd13ifvqh4g","pricing_plan_id":"free"},{"bike_id":"1dfd93a0-0414-43c2-acce-eca48a96708b","system_id":"levelo_inurba_marseille","lat":43.279952,"lon":5.400085,"is_reserved":false,"is_disabled":false,"rental_uris":{"android":"levelo://app?vid=1dfd93a0-0414-43c2-acce-eca48a96708b","ios":"levelo://app?vid=1dfd93a0-0414-43c2-acce-eca48a96708b"},"vehicle_type_id":"4","last_reported":1701806877,"current_range_meters":8000,"station_id":"ce4bho92rcd13ifvqh4g","pricing_plan_id":"free"},{"bike_id":"2c337d2b-cceb-4a65-b16d-e1c20cfe6466","system_id":"levelo_inurba_marseille","lat":43.279975,"lon":5.40009,"is_reserved":false,"is_disabled":false,"rental_uris":{"android":"levelo://app?vid=2c337d2b-cceb-4a65-b16d-e1c20cfe6466","ios":"levelo://app?vid=2c337d2b-cceb-4a65-b16d-e1c20cfe6466"},"vehicle_type_id":"4","last_reported":1701806877,"current_range_meters":22000,"station_id":"ce4bho92rcd13ifvqh4g","pricing_plan_id":"free"},{"bike_id":"4f3c361f-dc39-4eb2-8cb4-572b7625ae11","system_id":"levelo_inurba_marseille","lat":43.279952,"lon":5.400085,"is_reserved":false,"is_disabled":false,"rental_uris":{"android":"levelo://app?vid=4f3c361f-dc39-4eb2-8cb4-572b7625ae11","ios":"levelo://app?vid=4f3c361f-dc39-4eb2-8cb4-572b7625ae11"},"vehicle_type_id":"4","last_reported":1701806877,"current_range_meters":12000,"station_id":"ce4bho92rcd13ifvqh4g","pricing_plan_id":"free"},{"bike_id":"6f069aab-0dfd-4bb1-a7c7-dafdd20df186","system_id":"levelo_inurba_marseille","lat":43.279952,"lon":5.400085,"is_reserved":false,"is_disabled":false,"rental_uris":{"android":"levelo://app?vid=6f069aab-0dfd-4bb1-a7c7-dafdd20df186","ios":"levelo://app?vid=6f069aab-0dfd-4bb1-a7c7-dafdd20df186"},"vehicle_type_id":"4","last_reported":1701806877,"current_range_meters":29200,"station_id":"ce4bho92rcd13ifvqh4g","pricing_plan_id":"free"},{"bike_id":"dd6b756e-3032-4bf3-8729-0e0248edbc6c","system_id":"levelo_inurba_marseille","lat":43.317121,"lon":5.423936,"is_reserved":false,"is_disabled":false,"rental_uris":{"android":"levelo://app?vid=dd6b756e-3032-4bf3-8729-0e0248edbc6c","ios":"levelo://app?vid=dd6b756e-3032-4bf3-8729-0e0248edbc6c"},"vehicle_type_id":"4","last_reported":1701806877,"current_range_meters":26800,"station_id":"ce4bhp92rcd13ifvqhbg","pricing_plan_id":"free"},{"bike_id":"2d0b3718-12ab-42ba-a7ed-eeb40b410813","system_id":"levelo_inurba_marseille","lat":43.310785,"lon":5.424305,"is_reserved":false,"is_disabled":false,"rental_uris":{"android":"levelo://app?vid=2d0b3718-12ab-42ba-a7ed-eeb40b410813","ios":"levelo://app?vid=2d0b3718-12ab-42ba-a7ed-eeb40b410813"},"vehicle_type_id":"4","last_reported":1701806877,"current_range_meters":11600,"station_id":"ce4bhp92rcd13ifvqhag","pricing_plan_id":"free"},{"bike_id":"910fd3aa-d2e0-4553-894a-6161d41c7fcd","system_id":"levelo_inurba_marseille","lat":43.275783,"lon":5.39537,"is_reserved":false,"is_disabled":false,"rental_uris":{"android":"levelo://app?vid=910fd3aa-d2e0-4553-894a-6161d41c7fcd","ios":"levelo://app?vid=910fd3aa-d2e0-4553-894a-6161d41c7fcd"},"vehicle_type_id":"4","last_reported":1701806877,"current_range_meters":5200,"station_id":"","pricing_plan_id":"free"},{"bike_id":"5bfe272b-b913-4e28-bf34-9a1fd0a1ecb7","system_id":"levelo_inurba_marseille","lat":43.30419,"lon":5.42539,"is_reserved":false,"is_disabled":false,"rental_uris":{"android":"levelo://app?vid=5bfe272b-b913-4e28-bf34-9a1fd0a1ecb7","ios":"levelo://app?vid=5bfe272b-b913-4e28-bf34-9a1fd0a1ecb7"},"vehicle_type_id":"4","last_reported":1701806877,"current_range_meters":27200,"station_id":"ce4bhoh2rcd13ifvqh6g","pricing_plan_id":"free"},{"bike_id":"4bef7c23-6dcc-424c-ba7f-bc9af1aa3c09","system_id":"levelo_inurba_marseille","lat":43.304096,"lon":5.425385,"is_reserved":false,"is_disabled":false,"rental_uris":{"android":"levelo://app?vid=4bef7c23-6dcc-424c-ba7f-bc9af1aa3c09","ios":"levelo://app?vid=4bef7c23-6dcc-424c-ba7f-bc9af1aa3c09"},"vehicle_type_id":"4","last_reported":1701806877,"current_range_meters":6800,"station_id":"ce4bhoh2rcd13ifvqh6g","pricing_plan_id":"free"},{"bike_id":"a11fb346-e9c7-4f14-b9d0-d97adcd5dbd2","system_id":"levelo_inurba_marseille","lat":43.295523,"lon":5.422926,"is_reserved":false,"is_disabled":false,"rental_uris":{"android":"levelo://app?vid=a11fb346-e9c7-4f14-b9d0-d97adcd5dbd2","ios":"levelo://app?vid=a11fb346-e9c7-4f14-b9d0-d97adcd5dbd2"},"vehicle_type_id":"4","last_reported":1701806877,"current_range_meters":32000,"station_id":"ce4bhph2rcd13ifvqhdg","pricing_plan_id":"free"},{"bike_id":"e59609f1-3b9c-4b3f-a55d-086a51d2b364","system_id":"levelo_inurba_marseille","lat":43.295523,"lon":5.422926,"is_reserved":false,"is_disabled":false,"rental_uris":{"android":"levelo://app?vid=e59609f1-3b9c-4b3f-a55d-086a51d2b364","ios":"levelo://app?vid=e59609f1-3b9c-4b3f-a55d-086a51d2b364"},"vehicle_type_id":"4","last_reported":1701806877,"current_range_meters":16800,"station_id":"ce4bhph2rcd13ifvqhdg","pricing_plan_id":"free"},{"bike_id":"44b7e749-26e2-4b57-bc9c-9a6ffa54d913","system_id":"levelo_inurba_marseille","lat":43.295511,"lon":5.422926,"is_reserved":false,"is_disabled":false,"rental_uris":{"android":"levelo://app?vid=44b7e749-26e2-4b57-bc9c-9a6ffa54d913","ios":"levelo://app?vid=44b7e749-26e2-4b57-bc9c-9a6ffa54d913"},"vehicle_type_id":"4","last_reported":1701806877,"current_range_meters":27200,"station_id":"ce4bhph2rcd13ifvqhdg","pricing_plan_id":"free"},{"bike_id":"30606be1-5b96-4f23-bf9b-1a637fac67ac","system_id":"levelo_inurba_marseille","lat":43.295511,"lon":5.422926,"is_reserved":false,"is_disabled":false,"rental_uris":{"android":"levelo://app?vid=30606be1-5b96-4f23-bf9b-1a637fac67ac","ios":"levelo://app?vid=30606be1-5b96-4f23-bf9b-1a637fac67ac"},"vehicle_type_id":"4","last_reported":1701806877,"current_range_meters":26000,"station_id":"ce4bhph2rcd13ifvqhdg","pricing_plan_id":"free"},{"bike_id":"4aaafaa4-5992-4d41-aca4-45ea537c3e9e","system_id":"levelo_inurba_marseille","lat":43.27214,"lon":5.3925,"is_reserved":false,"is_disabled":false,"rental_uris":{"android":"levelo://app?vid=4aaafaa4-5992-4d41-aca4-45ea537c3e9e","ios":"levelo://app?vid=4aaafaa4-5992-4d41-aca4-45ea537c3e9e"},"vehicle_type_id":"4","last_reported":1701806877,"current_range_meters":16000,"station_id":"","pricing_plan_id":"free"},{"bike_id":"6e89b011-7732-4e7e-aa31-d04adefd18ba","system_id":"levelo_inurba_marseille","lat":43.269467,"lon":5.386439,"is_reserved":false,"is_disabled":false,"rental_uris":{"android":"levelo://app?vid=6e89b011-7732-4e7e-aa31-d04adefd18ba","ios":"levelo://app?vid=6e89b011-7732-4e7e-aa31-d04adefd18ba"},"vehicle_type_id":"4","last_reported":1701806877,"current_range_meters":18400,"station_id":"ce4bhh92rcd13ifvqfh0","pricing_plan_id":"free"},{"bike_id":"732281a7-1ca1-4193-9ac9-f3d031b09359","system_id":"levelo_inurba_marseille","lat":43.269319,"lon":5.389397,"is_reserved":false,"is_disabled":false,"rental_uris":{"android":"levelo://app?vid=732281a7-1ca1-4193-9ac9-f3d031b09359","ios":"levelo://app?vid=732281a7-1ca1-4193-9ac9-f3d031b09359"},"vehicle_type_id":"4","last_reported":1701806877,"current_range_meters":28800,"station_id":"ce4bhhh2rcd13ifvqfl0","pricing_plan_id":"free"},{"bike_id":"dc4074c4-cc24-403f-a189-9d432876569f","system_id":"levelo_inurba_marseille","lat":43.26993,"lon":5.39908,"is_reserved":false,"is_disabled":false,"rental_uris":{"android":"levelo://app?vid=dc4074c4-cc24-403f-a189-9d432876569f","ios":"levelo://app?vid=dc4074c4-cc24-403f-a189-9d432876569f"},"vehicle_type_id":"4","last_reported":1701806877,"current_range_meters":0,"station_id":"","pricing_plan_id":"free"},{"bike_id":"8e50a2a3-63a6-454e-bfc7-0d30cf65c822","system_id":"levelo_inurba_marseille","lat":43.308051,"lon":5.43527,"is_reserved":false,"is_disabled":false,"rental_uris":{"android":"levelo://app?vid=8e50a2a3-63a6-454e-bfc7-0d30cf65c822","ios":"levelo://app?vid=8e50a2a3-63a6-454e-bfc7-0d30cf65c822"},"vehicle_type_id":"4","last_reported":1701806877,"current_range_meters":30000,"station_id":"ce4bhph2rcd13ifvqheg","pricing_plan_id":"free"},{"bike_id":"555cc387-bb37-404d-8816-a2e25514cb3f","system_id":"levelo_inurba_marseille","lat":43.26944,"lon":5.40243,"is_reserved":false,"is_disabled":false,"rental_uris":{"android":"levelo://app?vid=555cc387-bb37-404d-8816-a2e25514cb3f","ios":"levelo://app?vid=555cc387-bb37-404d-8816-a2e25514cb3f"},"vehicle_type_id":"4","last_reported":1701806877,"current_range_meters":8400,"station_id":"cjm6bp8fraef2m0cb0m0","pricing_plan_id":"free"},{"bike_id":"5bc8d166-b955-4972-866c-c97335d2855d","system_id":"levelo_inurba_marseille","lat":43.261782,"lon":5.374515,"is_reserved":false,"is_disabled":false,"rental_uris":{"android":"levelo://app?vid=5bc8d166-b955-4972-866c-c97335d2855d","ios":"levelo://app?vid=5bc8d166-b955-4972-866c-c97335d2855d"},"vehicle_type_id":"4","last_reported":1701806877,"current_range_meters":20000,"station_id":"ce4bhgp2rcd13ifvqfc0","pricing_plan_id":"free"},{"bike_id":"4f34044e-b6b5-4f45-aa26-16b610aacef7","system_id":"levelo_inurba_marseille","lat":43.317104,"lon":5.436818,"is_reserved":false,"is_disabled":false,"rental_uris":{"android":"levelo://app?vid=4f34044e-b6b5-4f45-aa26-16b610aacef7","ios":"levelo://app?vid=4f34044e-b6b5-4f45-aa26-16b610aacef7"},"vehicle_type_id":"4","last_reported":1701806877,"current_range_meters":28800,"station_id":"ce4bhp92rcd13ifvqhcg","pricing_plan_id":"free"},{"bike_id":"39d0c53e-50cf-439d-836a-11d14d8b7dc5","system_id":"levelo_inurba_marseille","lat":43.317104,"lon":5.436818,"is_reserved":false,"is_disabled":false,"rental_uris":{"android":"levelo://app?vid=39d0c53e-50cf-439d-836a-11d14d8b7dc5","ios":"levelo://app?vid=39d0c53e-50cf-439d-836a-11d14d8b7dc5"},"vehicle_type_id":"4","last_reported":1701806877,"current_range_meters":27600,"station_id":"ce4bhp92rcd13ifvqhcg","pricing_plan_id":"free"},{"bike_id":"37038aca-97ca-4cb2-81d0-9a4826818ca5","system_id":"levelo_inurba_marseille","lat":43.26202,"lon":5.379299,"is_reserved":false,"is_disabled":false,"rental_uris":{"android":"levelo://app?vid=37038aca-97ca-4cb2-81d0-9a4826818ca5","ios":"levelo://app?vid=37038aca-97ca-4cb2-81d0-9a4826818ca5"},"vehicle_type_id":"4","last_reported":1701806877,"current_range_meters":26800,"station_id":"ce4bhjp2rcd13ifvqg90","pricing_plan_id":"free"},{"bike_id":"8d6df383-5a39-4a30-afcb-9ab54e715027","system_id":"levelo_inurba_marseille","lat":43.271388,"lon":5.409269,"is_reserved":false,"is_disabled":false,"rental_uris":{"android":"levelo://app?vid=8d6df383-5a39-4a30-afcb-9ab54e715027","ios":"levelo://app?vid=8d6df383-5a39-4a30-afcb-9ab54e715027"},"vehicle_type_id":"4","last_reported":1701806877,"current_range_meters":11200,"station_id":"ce4bhl12rcd13ifvqgf0","pricing_plan_id":"free"},{"bike_id":"c54cd023-a6f2-4d68-aabc-4be9f862ccbb","system_id":"levelo_inurba_marseille","lat":43.298768,"lon":5.43643,"is_reserved":false,"is_disabled":false,"rental_uris":{"android":"levelo://app?vid=c54cd023-a6f2-4d68-aabc-4be9f862ccbb","ios":"levelo://app?vid=c54cd023-a6f2-4d68-aabc-4be9f862ccbb"},"vehicle_type_id":"4","last_reported":1701806877,"current_range_meters":31200,"station_id":"ce4bhpp2rcd13ifvqhfg","pricing_plan_id":"free"},{"bike_id":"16076b9d-08c1-4b78-aef5-4c8ec51413f4","system_id":"levelo_inurba_marseille","lat":43.298768,"lon":5.43643,"is_reserved":false,"is_disabled":false,"rental_uris":{"android":"levelo://app?vid=16076b9d-08c1-4b78-aef5-4c8ec51413f4","ios":"levelo://app?vid=16076b9d-08c1-4b78-aef5-4c8ec51413f4"},"vehicle_type_id":"4","last_reported":1701806877,"current_range_meters":17200,"station_id":"ce4bhpp2rcd13ifvqhfg","pricing_plan_id":"free"},{"bike_id":"79a33485-724b-41f9-bc1d-f28cf939c45f","system_id":"levelo_inurba_marseille","lat":43.281548,"lon":5.42643,"is_reserved":false,"is_disabled":false,"rental_uris":{"android":"levelo://app?vid=79a33485-724b-41f9-bc1d-f28cf939c45f","ios":"levelo://app?vid=79a33485-724b-41f9-bc1d-f28cf939c45f"},"vehicle_type_id":"4","last_reported":1701806877,"current_range_meters":23200,"station_id":"ce4bhnh2rcd13ifvqgug","pricing_plan_id":"free"},{"bike_id":"04084ff2-22b3-4d3a-a2b3-330bf0f68d36","system_id":"levelo_inurba_marseille","lat":43.2607,"lon":5.393983,"is_reserved":false,"is_disabled":false,"rental_uris":{"android":"levelo://app?vid=04084ff2-22b3-4d3a-a2b3-330bf0f68d36","ios":"levelo://app?vid=04084ff2-22b3-4d3a-a2b3-330bf0f68d36"},"vehicle_type_id":"4","last_reported":1701806877,"current_range_meters":14000,"station_id":"ce4bhh92rcd13ifvqfj0","pricing_plan_id":"free"},{"bike_id":"5eb11eb2-f185-4107-99f2-c9d88b83df4b","system_id":"levelo_inurba_marseille","lat":43.2607,"lon":5.393983,"is_reserved":false,"is_disabled":false,"rental_uris":{"android":"levelo://app?vid=5eb11eb2-f185-4107-99f2-c9d88b83df4b","ios":"levelo://app?vid=5eb11eb2-f185-4107-99f2-c9d88b83df4b"},"vehicle_type_id":"4","last_reported":1701806877,"current_range_meters":12800,"station_id":"ce4bhh92rcd13ifvqfj0","pricing_plan_id":"free"},{"bike_id":"4191cf86-882a-4d7f-9463-410517764665","system_id":"levelo_inurba_marseille","lat":43.2607,"lon":5.393983,"is_reserved":false,"is_disabled":false,"rental_uris":{"android":"levelo://app?vid=4191cf86-882a-4d7f-9463-410517764665","ios":"levelo://app?vid=4191cf86-882a-4d7f-9463-410517764665"},"vehicle_type_id":"4","last_reported":1701806877,"current_range_meters":19200,"station_id":"ce4bhh92rcd13ifvqfj0","pricing_plan_id":"free"},{"bike_id":"cf118c9d-5639-4dad-b7e1-c9f544571c67","system_id":"levelo_inurba_marseille","lat":43.2607,"lon":5.393983,"is_reserved":false,"is_disabled":false,"rental_uris":{"android":"levelo://app?vid=cf118c9d-5639-4dad-b7e1-c9f544571c67","ios":"levelo://app?vid=cf118c9d-5639-4dad-b7e1-c9f544571c67"},"vehicle_type_id":"4","last_reported":1701806877,"current_range_meters":13600,"station_id":"ce4bhh92rcd13ifvqfj0","pricing_plan_id":"free"},{"bike_id":"64dd76e8-c95e-4237-a17b-1e654cdcb968","system_id":"levelo_inurba_marseille","lat":43.2607,"lon":5.393983,"is_reserved":false,"is_disabled":false,"rental_uris":{"android":"levelo://app?vid=64dd76e8-c95e-4237-a17b-1e654cdcb968","ios":"levelo://app?vid=64dd76e8-c95e-4237-a17b-1e654cdcb968"},"vehicle_type_id":"4","last_reported":1701806877,"current_range_meters":18800,"station_id":"ce4bhh92rcd13ifvqfj0","pricing_plan_id":"free"},{"bike_id":"97c974c3-ac7e-4ddb-bea7-d5fdeb802085","system_id":"levelo_inurba_marseille","lat":43.2607,"lon":5.393983,"is_reserved":false,"is_disabled":false,"rental_uris":{"android":"levelo://app?vid=97c974c3-ac7e-4ddb-bea7-d5fdeb802085","ios":"levelo://app?vid=97c974c3-ac7e-4ddb-bea7-d5fdeb802085"},"vehicle_type_id":"4","last_reported":1701806877,"current_range_meters":16000,"station_id":"ce4bhh92rcd13ifvqfj0","pricing_plan_id":"free"},{"bike_id":"c625d6aa-f33a-44f3-91fb-4f8c4434a6f5","system_id":"levelo_inurba_marseille","lat":43.2607,"lon":5.393983,"is_reserved":false,"is_disabled":false,"rental_uris":{"android":"levelo://app?vid=c625d6aa-f33a-44f3-91fb-4f8c4434a6f5","ios":"levelo://app?vid=c625d6aa-f33a-44f3-91fb-4f8c4434a6f5"},"vehicle_type_id":"4","last_reported":1701806877,"current_range_meters":0,"station_id":"ce4bhh92rcd13ifvqfj0","pricing_plan_id":"free"},{"bike_id":"975e0b10-ac13-4585-8057-827f9694c26d","system_id":"levelo_inurba_marseille","lat":43.25584,"lon":5.3823,"is_reserved":false,"is_disabled":false,"rental_uris":{"android":"levelo://app?vid=975e0b10-ac13-4585-8057-827f9694c26d","ios":"levelo://app?vid=975e0b10-ac13-4585-8057-827f9694c26d"},"vehicle_type_id":"4","last_reported":1701806877,"current_range_meters":0,"station_id":"ce4bhih2rcd13ifvqfs0","pricing_plan_id":"free"},{"bike_id":"17f04a7c-4c0d-410b-8b98-175b327b84b8","system_id":"levelo_inurba_marseille","lat":43.258224,"lon":5.394369,"is_reserved":false,"is_disabled":false,"rental_uris":{"android":"levelo://app?vid=17f04a7c-4c0d-410b-8b98-175b327b84b8","ios":"levelo://app?vid=17f04a7c-4c0d-410b-8b98-175b327b84b8"},"vehicle_type_id":"4","last_reported":1701806877,"current_range_meters":21200,"station_id":"ce4bhip2rcd13ifvqft0","pricing_plan_id":"free"},{"bike_id":"384b966c-d236-417a-a771-456ce212af0d","system_id":"levelo_inurba_marseille","lat":43.254947,"lon":5.376454,"is_reserved":false,"is_disabled":false,"rental_uris":{"android":"levelo://app?vid=384b966c-d236-417a-a771-456ce212af0d","ios":"levelo://app?vid=384b966c-d236-417a-a771-456ce212af0d"},"vehicle_type_id":"4","last_reported":1701806877,"current_range_meters":2800,"station_id":"ce4bhh12rcd13ifvqff0","pricing_plan_id":"free"},{"bike_id":"d59d4f1f-1c60-4600-8082-37fd57458e13","system_id":"levelo_inurba_marseille","lat":43.254947,"lon":5.376454,"is_reserved":false,"is_disabled":false,"rental_uris":{"android":"levelo://app?vid=d59d4f1f-1c60-4600-8082-37fd57458e13","ios":"levelo://app?vid=d59d4f1f-1c60-4600-8082-37fd57458e13"},"vehicle_type_id":"4","last_reported":1701806877,"current_range_meters":3600,"station_id":"ce4bhh12rcd13ifvqff0","pricing_plan_id":"free"},{"bike_id":"8f89f353-41d7-4e9e-a80a-2b933d397bfc","system_id":"levelo_inurba_marseille","lat":43.254947,"lon":5.376454,"is_reserved":false,"is_disabled":false,"rental_uris":{"android":"levelo://app?vid=8f89f353-41d7-4e9e-a80a-2b933d397bfc","ios":"levelo://app?vid=8f89f353-41d7-4e9e-a80a-2b933d397bfc"},"vehicle_type_id":"4","last_reported":1701806877,"current_range_meters":26800,"station_id":"ce4bhh12rcd13ifvqff0","pricing_plan_id":"free"},{"bike_id":"247af584-b3f4-42a0-9236-07d89794d35d","system_id":"levelo_inurba_marseille","lat":43.270721,"lon":5.422764,"is_reserved":false,"is_disabled":false,"rental_uris":{"android":"levelo://app?vid=247af584-b3f4-42a0-9236-07d89794d35d","ios":"levelo://app?vid=247af584-b3f4-42a0-9236-07d89794d35d"},"vehicle_type_id":"4","last_reported":1701806877,"current_range_meters":14800,"station_id":"ce4bhk92rcd13ifvqgb0","pricing_plan_id":"free"},{"bike_id":"8b3d6b5e-cefe-45c0-903d-452bb75449c8","system_id":"levelo_inurba_marseille","lat":43.259013,"lon":5.409301,"is_reserved":false,"is_disabled":false,"rental_uris":{"android":"levelo://app?vid=8b3d6b5e-cefe-45c0-903d-452bb75449c8","ios":"levelo://app?vid=8b3d6b5e-cefe-45c0-903d-452bb75449c8"},"vehicle_type_id":"4","last_reported":1701806877,"current_range_meters":15600,"station_id":"ce4bhm92rcd13ifvqglg","pricing_plan_id":"free"},{"bike_id":"85461d52-108f-4674-9751-e4e6d032a0f3","system_id":"levelo_inurba_marseille","lat":43.25727,"lon":5.41107,"is_reserved":false,"is_disabled":false,"rental_uris":{"android":"levelo://app?vid=85461d52-108f-4674-9751-e4e6d032a0f3","ios":"levelo://app?vid=85461d52-108f-4674-9751-e4e6d032a0f3"},"vehicle_type_id":"4","last_reported":1701806877,"current_range_meters":13600,"station_id":"ce4bhkp2rcd13ifvqgd0","pricing_plan_id":"free"},{"bike_id":"96da180c-7b6f-4c60-8c7c-dbf05c2d449c","system_id":"levelo_inurba_marseille","lat":43.250966,"lon":5.395186,"is_reserved":false,"is_disabled":false,"rental_uris":{"android":"levelo://app?vid=96da180c-7b6f-4c60-8c7c-dbf05c2d449c","ios":"levelo://app?vid=96da180c-7b6f-4c60-8c7c-dbf05c2d449c"},"vehicle_type_id":"4","last_reported":1701806877,"current_range_meters":18800,"station_id":"ce4bhm12rcd13ifvqgkg","pricing_plan_id":"free"},{"bike_id":"12cbe630-05b0-4088-92e4-99c0ab782742","system_id":"levelo_inurba_marseille","lat":43.25089,"lon":5.39524,"is_reserved":false,"is_disabled":false,"rental_uris":{"android":"levelo://app?vid=12cbe630-05b0-4088-92e4-99c0ab782742","ios":"levelo://app?vid=12cbe630-05b0-4088-92e4-99c0ab782742"},"vehicle_type_id":"4","last_reported":1701806877,"current_range_meters":19200,"station_id":"ce4bhm12rcd13ifvqgkg","pricing_plan_id":"free"},{"bike_id":"7fa12c18-a7c6-491a-85c1-eafba9158c72","system_id":"levelo_inurba_marseille","lat":43.24693,"lon":5.382096,"is_reserved":false,"is_disabled":false,"rental_uris":{"android":"levelo://app?vid=7fa12c18-a7c6-491a-85c1-eafba9158c72","ios":"levelo://app?vid=7fa12c18-a7c6-491a-85c1-eafba9158c72"},"vehicle_type_id":"4","last_reported":1701806877,"current_range_meters":25200,"station_id":"ce4bhih2rcd13ifvqfr0","pricing_plan_id":"free"},{"bike_id":"2d806185-ffad-417a-84b3-a2e69bec5c0e","system_id":"levelo_inurba_marseille","lat":43.24693,"lon":5.382096,"is_reserved":false,"is_disabled":false,"rental_uris":{"android":"levelo://app?vid=2d806185-ffad-417a-84b3-a2e69bec5c0e","ios":"levelo://app?vid=2d806185-ffad-417a-84b3-a2e69bec5c0e"},"vehicle_type_id":"4","last_reported":1701806877,"current_range_meters":0,"station_id":"ce4bhih2rcd13ifvqfr0","pricing_plan_id":"free"},{"bike_id":"419609ae-83af-494c-adfe-6c348b157580","system_id":"levelo_inurba_marseille","lat":43.245581,"lon":5.395069,"is_reserved":false,"is_disabled":false,"rental_uris":{"android":"levelo://app?vid=419609ae-83af-494c-adfe-6c348b157580","ios":"levelo://app?vid=419609ae-83af-494c-adfe-6c348b157580"},"vehicle_type_id":"4","last_reported":1701806877,"current_range_meters":20800,"station_id":"ce4bhlp2rcd13ifvqgjg","pricing_plan_id":"free"},{"bike_id":"997fd2e8-a739-42e8-907b-cbaffd16bd36","system_id":"levelo_inurba_marseille","lat":43.240623,"lon":5.377642,"is_reserved":false,"is_disabled":false,"rental_uris":{"android":"levelo://app?vid=997fd2e8-a739-42e8-907b-cbaffd16bd36","ios":"levelo://app?vid=997fd2e8-a739-42e8-907b-cbaffd16bd36"},"vehicle_type_id":"4","last_reported":1701806877,"current_range_meters":31600,"station_id":"ce4bhnp2rcd13ifvqgvg","pricing_plan_id":"free"},{"bike_id":"df4802ce-495b-4417-a15f-c7720679d879","system_id":"levelo_inurba_marseille","lat":43.240623,"lon":5.377642,"is_reserved":false,"is_disabled":false,"rental_uris":{"android":"levelo://app?vid=df4802ce-495b-4417-a15f-c7720679d879","ios":"levelo://app?vid=df4802ce-495b-4417-a15f-c7720679d879"},"vehicle_type_id":"4","last_reported":1701806877,"current_range_meters":14000,"station_id":"ce4bhnp2rcd13ifvqgvg","pricing_plan_id":"free"},{"bike_id":"352f574b-c452-4c3b-8642-6864ebc083d1","system_id":"levelo_inurba_marseille","lat":43.23971,"lon":5.36616,"is_reserved":false,"is_disabled":false,"rental_uris":{"android":"levelo://app?vid=352f574b-c452-4c3b-8642-6864ebc083d1","ios":"levelo://app?vid=352f574b-c452-4c3b-8642-6864ebc083d1"},"vehicle_type_id":"4","last_reported":1701806877,"current_range_meters":0,"station_id":"ce4bhi12rcd13ifvqfp0","pricing_plan_id":"free"},{"bike_id":"0d7981aa-e871-4e71-9b76-3353e06c4c96","system_id":"levelo_inurba_marseille","lat":43.239588,"lon":5.366238,"is_reserved":false,"is_disabled":false,"rental_uris":{"android":"levelo://app?vid=0d7981aa-e871-4e71-9b76-3353e06c4c96","ios":"levelo://app?vid=0d7981aa-e871-4e71-9b76-3353e06c4c96"},"vehicle_type_id":"4","last_reported":1701806877,"current_range_meters":26000,"station_id":"ce4bhi12rcd13ifvqfp0","pricing_plan_id":"free"},{"bike_id":"04b00323-44dc-4556-add8-5a131157a4f0","system_id":"levelo_inurba_marseille","lat":43.244001,"lon":5.401615,"is_reserved":false,"is_disabled":false,"rental_uris":{"android":"levelo://app?vid=04b00323-44dc-4556-add8-5a131157a4f0","ios":"levelo://app?vid=04b00323-44dc-4556-add8-5a131157a4f0"},"vehicle_type_id":"4","last_reported":1701806877,"current_range_meters":1200,"station_id":"","pricing_plan_id":"free"},{"bike_id":"83bb2897-9a21-4f10-bd03-e2bc9777e287","system_id":"levelo_inurba_marseille","lat":43.241782,"lon":5.397261,"is_reserved":false,"is_disabled":false,"rental_uris":{"android":"levelo://app?vid=83bb2897-9a21-4f10-bd03-e2bc9777e287","ios":"levelo://app?vid=83bb2897-9a21-4f10-bd03-e2bc9777e287"},"vehicle_type_id":"4","last_reported":1701806877,"current_range_meters":17600,"station_id":"ce4bhn12rcd13ifvqgpg","pricing_plan_id":"free"},{"bike_id":"b647ae29-4a45-4e8d-986c-9155e46c40e4","system_id":"levelo_inurba_marseille","lat":43.231923,"lon":5.355545,"is_reserved":false,"is_disabled":false,"rental_uris":{"android":"levelo://app?vid=b647ae29-4a45-4e8d-986c-9155e46c40e4","ios":"levelo://app?vid=b647ae29-4a45-4e8d-986c-9155e46c40e4"},"vehicle_type_id":"4","last_reported":1701806877,"current_range_meters":19600,"station_id":"ce4bhu92rcd13ifvqi70","pricing_plan_id":"free"},{"bike_id":"7ae9092d-f687-4103-895b-5b378b9914a3","system_id":"levelo_inurba_marseille","lat":43.23194,"lon":5.35558,"is_reserved":false,"is_disabled":false,"rental_uris":{"android":"levelo://app?vid=7ae9092d-f687-4103-895b-5b378b9914a3","ios":"levelo://app?vid=7ae9092d-f687-4103-895b-5b378b9914a3"},"vehicle_type_id":"4","last_reported":1701806877,"current_range_meters":1200,"station_id":"ce4bhu92rcd13ifvqi70","pricing_plan_id":"free"},{"bike_id":"e2fb0602-0025-4bc2-a80e-ca4c6079bddc","system_id":"levelo_inurba_marseille","lat":43.231923,"lon":5.355545,"is_reserved":false,"is_disabled":false,"rental_uris":{"android":"levelo://app?vid=e2fb0602-0025-4bc2-a80e-ca4c6079bddc","ios":"levelo://app?vid=e2fb0602-0025-4bc2-a80e-ca4c6079bddc"},"vehicle_type_id":"4","last_reported":1701806877,"current_range_meters":5200,"station_id":"ce4bhu92rcd13ifvqi70","pricing_plan_id":"free"},{"bike_id":"cf3102c4-88e0-4a41-86b7-69a76932d3e6","system_id":"levelo_inurba_marseille","lat":43.231923,"lon":5.355545,"is_reserved":false,"is_disabled":false,"rental_uris":{"android":"levelo://app?vid=cf3102c4-88e0-4a41-86b7-69a76932d3e6","ios":"levelo://app?vid=cf3102c4-88e0-4a41-86b7-69a76932d3e6"},"vehicle_type_id":"4","last_reported":1701806877,"current_range_meters":31600,"station_id":"ce4bhu92rcd13ifvqi70","pricing_plan_id":"free"},{"bike_id":"d868c0b5-242c-4b9f-b108-cbde91aaec79","system_id":"levelo_inurba_marseille","lat":43.231923,"lon":5.355545,"is_reserved":false,"is_disabled":false,"rental_uris":{"android":"levelo://app?vid=d868c0b5-242c-4b9f-b108-cbde91aaec79","ios":"levelo://app?vid=d868c0b5-242c-4b9f-b108-cbde91aaec79"},"vehicle_type_id":"4","last_reported":1701806877,"current_range_meters":23600,"station_id":"ce4bhu92rcd13ifvqi70","pricing_plan_id":"free"},{"bike_id":"b988d3fe-c649-4089-ae26-b7efbdfc136a","system_id":"levelo_inurba_marseille","lat":43.231794,"lon":5.400052,"is_reserved":false,"is_disabled":false,"rental_uris":{"android":"levelo://app?vid=b988d3fe-c649-4089-ae26-b7efbdfc136a","ios":"levelo://app?vid=b988d3fe-c649-4089-ae26-b7efbdfc136a"},"vehicle_type_id":"4","last_reported":1701806877,"current_range_meters":31200,"station_id":"ce4bhn12rcd13ifvqgqg","pricing_plan_id":"free"}]}}