{"last_updated":1730538547,"ttl":60,"version":"2.2","data":{"bikes":[{"bike_id":"f0611827-b485-43d7-a872-d5332d39d31e","system_id":"levelo_inurba_marseille","lat":43.27202,"lon":5.39186,"is_reserved":false,"is_disabled":false,"rental_uris":{"android":"levelo://app?vid=f0611827-b485-43d7-a872-d5332d39d31e","ios":"levelo://app?vid=f0611827-b485-43d7-a872-d5332d39d31e"},"vehicle_type_id":"4","last_reported":1730538547,"current_range_meters":11200,"station_id":"ce4bhhp2rcd13ifvqfm0","pricing_plan_id":"cebpf4jnsgd1na2vs0mg"},{"bike_id":"1100e5a9-b924-4d01-8a4c-246bee3d586b","system_id":"levelo_inurba_marseille","lat":43.24696,"lon":5.41512,"is_reserved":false,"is_disabled":false,"rental_uris":{"android":"levelo://app?vid=1100e5a9-b924-4d01-8a4c-246bee3d586b","ios":"levelo://app?vid=1100e5a9-b924-4d01-8a4c-246bee3d586b"},"vehicle_type_id":"4","last_reported":1730538547,"current_range_meters":4400,"station_id":"","pricing_plan_id":"cebpf4jnsgd1na2vs0mg"},{"bike_id":"a5e999ad-6c85-42ac-8053-03e6a78e8914","system_id":"levelo_inurba_marseille","lat":43.29709,"lon":5.36613,"is_reserved":false,"is_disabled":false,"rental_uris":{"android":"levelo://app?vid=a5e999ad-6c85-42ac-8053-03e6a78e8914","ios":"levelo://app?vid=a5e999ad-6c85-42ac-8053-03e6a78e8914"},"vehicle_type_id":"4","last_reported":1730538547,"current_range_meters":33200,"station_id":"ce4bgn12rcd13ifvqbt0","pricing_plan_id":"cebpf4jnsgd1na2vs0mg"},{"bike_id":"8edb629f-9edb-4e6d-8453-3a06eb0fc1e0","system_id":"levelo_inurba_marseille","lat":43.24668,"lon":5.3817,"is_reserved":false,"is_disabled":false,"rental_uris":{"android":"levelo://app?vid=8edb629f-9edb-4e6d-8453-3a06eb0fc1e0","ios":"levelo://app?vid=8edb629f-9edb-4e6d-8453-3a06eb0fc1e0"},"vehicle_type_id":"4","last_reported":1730538547,"current_range_meters":29600,"station_id":"ce4bhih2rcd13ifvqfr0","pricing_plan_id":"cebpf4jnsgd1na2vs0mg"},{"bike_id":"fb29093b-f2cf-4386-a4f0-84965008c68b","system_id":"levelo_inurba_marseille","lat":43.31111,"lon":5.37777,"is_reserved":false,"is_disabled":false,"rental_uris":{"android":"levelo://app?vid=fb29093b-f2cf-4386-a4f0-84965008c68b","ios":"levelo://app?vid=fb29093b-f2cf-4386-a4f0-84965008c68b"},"vehicle_type_id":"4","last_reported":1730538547,"current_range_meters":34800,"station_id":"ce4bgt92rcd13ifvqcg0","pricing_plan_id":"cebpf4jnsgd1na2vs0mg"},{"bike_id":"53361ed5-44e3-4331-b1db-d839ce43605d","system_id":"levelo_inurba_marseille","lat":43.32656,"lon":5.40986,"is_reserved":false,"is_disabled":false,"rental_uris":{"android":"levelo://app?vid=53361ed5-44e3-4331-b1db-d839ce43605d","ios":"levelo://app?vid=53361ed5-44e3-4331-b1db-d839ce43605d"},"vehicle_type_id":"4","last_reported":1730538547,"current_range_meters":8800,"station_id":"ce4bhpp2rcd13ifvqhgg","pricing_plan_id":"cebpf4jnsgd1na2vs0mg"},{"bike_id":"8682c02d-b75e-4986-bf40-c0b0cf6578e7","system_id":"levelo_inurba_marseille","lat":43.32105,"lon":5.36778,"is_reserved":false,"is_disabled":false,"rental_uris":{"android":"levelo://app?vid=8682c02d-b75e-4986-bf40-c0b0cf6578e7","ios":"levelo://app?vid=8682c02d-b75e-4986-bf40-c0b0cf6578e7"},"vehicle_type_id":"4","last_reported":1730538547,"current_range_meters":38400,"station_id":"ce4bhrh2rcd13ifvqhug","pricing_plan_id":"cebpf4jnsgd1na2vs0mg"},{"bike_id":"dbd026cc-4570-4761-bfa1-68dae00b3a97","system_id":"levelo_inurba_marseille","lat":43.305408,"lon":5.365546,"is_reserved":false,"is_disabled":false,"rental_uris":{"android":"levelo://app?vid=dbd026cc-4570-4761-bfa1-68dae00b3a97","ios":"levelo://app?vid=dbd026cc-4570-4761-bfa1-68dae00b3a97"},"vehicle_type_id":"4","last_reported":1730538547,"current_range_meters":39200,"station_id":"ce4bgs12rcd13ifvqcag","pricing_plan_id":"cebpf4jnsgd1na2vs0mg"},{"bike_id":"9c76359b-1e4f-45fe-ad26-9d59924e2a72","system_id":"levelo_inurba_marseille","lat":43.31176,"lon":5.38715,"is_reserved":false,"is_disabled":false,"rental_uris":{"android":"levelo://app?vid=9c76359b-1e4f-45fe-ad26-9d59924e2a72","ios":"levelo://app?vid=9c76359b-1e4f-45fe-ad26-9d59924e2a72"},"vehicle_type_id":"4","last_reported":1730538547,"current_range_meters":38000,"station_id":"ce4bgv12rcd13ifvqcp0","pricing_plan_id":"cebpf4jnsgd1na2vs0mg"},{"bike_id":"ae2ccb33-795f-44d2-a6c0-9c58090a88ce","system_id":"levelo_inurba_marseille","lat":43.24383,"lon":5.37053,"is_reserved":false,"is_disabled":false,"rental_uris":{"android":"levelo://app?vid=ae2ccb33-795f-44d2-a6c0-9c58090a88ce","ios":"levelo://app?vid=ae2ccb33-795f-44d2-a6c0-9c58090a88ce"},"vehicle_type_id":"4","last_reported":1730538547,"current_range_meters":32400,"station_id":"ce4bhhh2rcd13ifvqfk0","pricing_plan_id":"cebpf4jnsgd1na2vs0mg"},{"bike_id":"b33bab39-97a8-4e8d-b0f4-a619646bec56","system_id":"levelo_inurba_marseille","lat":43.29557,"lon":5.42286,"is_reserved":false,"is_disabled":false,"rental_uris":{"android":"levelo://app?vid=b33bab39-97a8-4e8d-b0f4-a619646bec56","ios":"levelo://app?vid=b33bab39-97a8-4e8d-b0f4-a619646bec56"},"vehicle_type_id":"4","last_reported":1730538547,"current_range_meters":38800,"station_id":"ce4bhph2rcd13ifvqhdg","pricing_plan_id":"cebpf4jnsgd1na2vs0mg"},{"bike_id":"b46f1536-9668-4958-9926-bdb7af8ef666","system_id":"levelo_inurba_marseille","lat":43.31877,"lon":5.4074,"is_reserved":false,"is_disabled":false,"rental_uris":{"android":"levelo://app?vid=b46f1536-9668-4958-9926-bdb7af8ef666","ios":"levelo://app?vid=b46f1536-9668-4958-9926-bdb7af8ef666"},"vehicle_type_id":"4","last_reported":1730538547,"current_range_meters":37600,"station_id":"ce4bhq12rcd13ifvqhig","pricing_plan_id":"cebpf4jnsgd1na2vs0mg"},{"bike_id":"01247e72-d93d-44bb-a492-b9bb7634f5bf","system_id":"levelo_inurba_marseille","lat":43.31168,"lon":5.38712,"is_reserved":false,"is_disabled":false,"rental_uris":{"android":"levelo://app?vid=01247e72-d93d-44bb-a492-b9bb7634f5bf","ios":"levelo://app?vid=01247e72-d93d-44bb-a492-b9bb7634f5bf"},"vehicle_type_id":"4","last_reported":1730538547,"current_range_meters":38000,"station_id":"ce4bgv12rcd13ifvqcp0","pricing_plan_id":"cebpf4jnsgd1na2vs0mg"},{"bike_id":"fb7f8183-7447-4baa-b80d-313056d35dd4","system_id":"levelo_inurba_marseille","lat":43.25729,"lon":5.41107,"is_reserved":false,"is_disabled":false,"rental_uris":{"android":"levelo://app?vid=fb7f8183-7447-4baa-b80d-313056d35dd4","ios":"levelo://app?vid=fb7f8183-7447-4baa-b80d-313056d35dd4"},"vehicle_type_id":"4","last_reported":1730538547,"current_range_meters":39200,"station_id":"ce4bhkp2rcd13ifvqgd0","pricing_plan_id":"cebpf4jnsgd1na2vs0mg"},{"bike_id":"512c4bd5-3edb-49b7-a54a-bbe327a08aa0","system_id":"levelo_inurba_marseille","lat":43.25729,"lon":5.41099,"is_reserved":false,"is_disabled":false,"rental_uris":{"android":"levelo://app?vid=512c4bd5-3edb-49b7-a54a-bbe327a08aa0","ios":"levelo://app?vid=512c4bd5-3edb-49b7-a54a-bbe327a08aa0"},"vehicle_type_id":"4","last_reported":1730538547,"current_range_meters":22800,"station_id":"ce4bhkp2rcd13ifvqgd0","pricing_plan_id":"cebpf4jnsgd1na2vs0mg"},{"bike_id":"a4627486-a087-47d1-bdea-e9476cd49986","system_id":"levelo_inurba_marseille","lat":43.23196,"lon":5.3555,"is_reserved":false,"is_disabled":false,"rental_uris":{"android":"levelo://app?vid=a4627486-a087-47d1-bdea-e9476cd49986","ios":"levelo://app?vid=a4627486-a087-47d1-bdea-e9476cd49986"},"vehicle_type_id":"4","last_reported":1730538547,"current_range_meters":27600,"station_id":"ce4bhu92rcd13ifvqi70","pricing_plan_id":"cebpf4jnsgd1na2vs0mg"},{"bike_id":"f555af36-d455-4608-9036-95344ddeca0e","system_id":"levelo_inurba_marseille","lat":43.28412,"lon":5.37514,"is_reserved":false,"is_disabled":false,"rental_uris":{"android":"levelo://app?vid=f555af36-d455-4608-9036-95344ddeca0e","ios":"levelo://app?vid=f555af36-d455-4608-9036-95344ddeca0e"},"vehicle_type_id":"4","last_reported":1730538547,"current_range_meters":34000,"station_id":"ce4bh412rcd13ifvqds0","pricing_plan_id":"cebpf4jnsgd1na2vs0mg"},{"bike_id":"c8a4625e-05cf-4c95-8abf-452b0a4f5f46","system_id":"levelo_inurba_marseille","lat":43.30946,"lon":5.39033,"is_reserved":false,"is_disabled":false,"rental_uris":{"android":"levelo://app?vid=c8a4625e-05cf-4c95-8abf-452b0a4f5f46","ios":"levelo://app?vid=c8a4625e-05cf-4c95-8abf-452b0a4f5f46"},"vehicle_type_id":"4","last_reported":1730538547,"current_range_meters":30000,"station_id":"ce4bgup2rcd13ifvqco0","pricing_plan_id":"cebpf4jnsgd1na2vs0mg"},{"bike_id":"509a9bdc-ca48-4855-8040-748bb9b3087b","system_id":"levelo_inurba_marseille","lat":43.25934,"lon":5.409,"is_reserved":false,"is_disabled":false,"rental_uris":{"android":"levelo://app?vid=509a9bdc-ca48-4855-8040-748bb9b3087b","ios":"levelo://app?vid=509a9bdc-ca48-4855-8040-748bb9b3087b"},"vehicle_type_id":"4","last_reported":1730538547,"current_range_meters":21600,"station_id":"ce4bhm92rcd13ifvqglg","pricing_plan_id":"cebpf4jnsgd1na2vs0mg"},{"bike_id":"437e4bd3-fd16-4385-bde5-eb0551d338b8","system_id":"levelo_inurba_marseille","lat":43.25002,"lon":5.38922,"is_reserved":false,"is_disabled":false,"rental_uris":{"android":"levelo://app?vid=437e4bd3-fd16-4385-bde5-eb0551d338b8","ios":"levelo://app?vid=437e4bd3-fd16-4385-bde5-eb0551d338b8"},"vehicle_type_id":"4","last_reported":1730538547,"current_range_meters":17200,"station_id":"ce4bhgp2rcd13ifvqfd0","pricing_plan_id":"cebpf4jnsgd1na2vs0mg"},{"bike_id":"b1333dea-44a0-44d1-8736-6f7f866c1675","system_id":"levelo_inurba_marseille","lat":43.28476,"lon":5.38562,"is_reserved":false,"is_disabled":false,"rental_uris":{"android":"levelo://app?vid=b1333dea-44a0-44d1-8736-6f7f866c1675","ios":"levelo://app?vid=b1333dea-44a0-44d1-8736-6f7f866c1675"},"vehicle_type_id":"4","last_reported":1730538547,"current_range_meters":19600,"station_id":"ce4bh8p2rcd13ifvqeb0","pricing_plan_id":"cebpf4jnsgd1na2vs0mg"},{"bike_id":"afcf058f-7c8d-4d4b-aef1-f8b80ff55cb5","system_id":"levelo_inurba_marseille","lat":43.30313,"lon":5.3689,"is_reserved":false,"is_disabled":false,"rental_uris":{"android":"levelo://app?vid=afcf058f-7c8d-4d4b-aef1-f8b80ff55cb5","ios":"levelo://app?vid=afcf058f-7c8d-4d4b-aef1-f8b80ff55cb5"},"vehicle_type_id":"4","last_reported":1730538547,"current_range_meters":40000,"station_id":"ce4bgqh2rcd13ifvqc5g","pricing_plan_id":"cebpf4jnsgd1na2vs0mg"},{"bike_id":"3a758925-ff45-4c49-b4ee-de6c8fbb558b","system_id":"levelo_inurba_marseille","lat":43.25118,"lon":5.40326,"is_reserved":false,"is_disabled":false,"rental_uris":{"android":"levelo://app?vid=3a758925-ff45-4c49-b4ee-de6c8fbb558b","ios":"levelo://app?vid=3a758925-ff45-4c49-b4ee-de6c8fbb558b"},"vehicle_type_id":"4","last_reported":1730538547,"current_range_meters":4000,"station_id":"ce4bhlh2rcd13ifvqgig","pricing_plan_id":"cebpf4jnsgd1na2vs0mg"},{"bike_id":"efbe383f-83c6-4df5-ac1f-ffa8f2e0197b","system_id":"levelo_inurba_marseille","lat":43.3133,"lon":5.39692,"is_reserved":false,"is_disabled":false,"rental_uris":{"android":"levelo://app?vid=efbe383f-83c6-4df5-ac1f-ffa8f2e0197b","ios":"levelo://app?vid=efbe383f-83c6-4df5-ac1f-ffa8f2e0197b"},"vehicle_type_id":"4","last_reported":1730538547,"current_range_meters":4800,"station_id":"ce4bgvp2rcd13ifvqcu0","pricing_plan_id":"cebpf4jnsgd1na2vs0mg"},{"bike_id":"6aee0ce1-c7a0-45e8-a515-069ca31b3763","system_id":"levelo_inurba_marseille","lat":43.25733,"lon":5.41107,"is_reserved":false,"is_disabled":false,"rental_uris":{"android":"levelo://app?vid=6aee0ce1-c7a0-45e8-a515-069ca31b3763","ios":"levelo://app?vid=6aee0ce1-c7a0-45e8-a515-069ca31b3763"},"vehicle_type_id":"4","last_reported":1730538547,"current_range_meters":38400,"station_id":"ce4bhkp2rcd13ifvqgd0","pricing_plan_id":"cebpf4jnsgd1na2vs0mg"},{"bike_id":"1586e445-a9a1-4791-922c-55fb02dcbcb9","system_id":"levelo_inurba_marseille","lat":43.30801,"lon":5.43525,"is_reserved":false,"is_disabled":false,"rental_uris":{"android":"levelo://app?vid=1586e445-a9a1-4791-922c-55fb02dcbcb9","ios":"levelo://app?vid=1586e445-a9a1-4791-922c-55fb02dcbcb9"},"vehicle_type_id":"4","last_reported":1730538547,"current_range_meters":38400,"station_id":"ce4bhph2rcd13ifvqheg","pricing_plan_id":"cebpf4jnsgd1na2vs0mg"},{"bike_id":"c368d0bc-b01f-4385-a5cb-f8e1caa1eaf3","system_id":"levelo_inurba_marseille","lat":43.3043,"lon":5.3975,"is_reserved":false,"is_disabled":false,"rental_uris":{"android":"levelo://app?vid=c368d0bc-b01f-4385-a5cb-f8e1caa1eaf3","ios":"levelo://app?vid=c368d0bc-b01f-4385-a5cb-f8e1caa1eaf3"},"vehicle_type_id":"4","last_reported":1730538547,"current_range_meters":30800,"station_id":"ce4bh092rcd13ifvqd20","pricing_plan_id":"cebpf4jnsgd1na2vs0mg"},{"bike_id":"09975cdf-abcd-414e-a4e4-7a0e2a69d702","system_id":"levelo_inurba_marseille","lat":43.30207,"lon":5.39462,"is_reserved":false,"is_disabled":false,"rental_uris":{"android":"levelo://app?vid=09975cdf-abcd-414e-a4e4-7a0e2a69d702","ios":"levelo://app?vid=09975cdf-abcd-414e-a4e4-7a0e2a69d702"},"vehicle_type_id":"4","last_reported":1730538547,"current_range_meters":34000,"station_id":"ce4bh0p2rcd13ifvqd70","pricing_plan_id":"cebpf4jnsgd1na2vs0mg"},{"bike_id":"7d467372-7059-4321-81bc-a3b8c1dcaf52","system_id":"levelo_inurba_marseille","lat":43.298491,"lon":5.36271,"is_reserved":false,"is_disabled":false,"rental_uris":{"android":"levelo://app?vid=7d467372-7059-4321-81bc-a3b8c1dcaf52","ios":"levelo://app?vid=7d467372-7059-4321-81bc-a3b8c1dcaf52"},"vehicle_type_id":"4","last_reported":1730538547,"current_range_meters":36400,"station_id":"ce4bgpp2rcd13ifvqc3g","pricing_plan_id":"cebpf4jnsgd1na2vs0mg"},{"bike_id":"0a1bf25d-2fde-4d16-b754-3a148d73baeb","system_id":"levelo_inurba_marseille","lat":43.28863,"lon":5.39309,"is_reserved":false,"is_disabled":false,"rental_uris":{"android":"levelo://app?vid=0a1bf25d-2fde-4d16-b754-3a148d73baeb","ios":"levelo://app?vid=0a1bf25d-2fde-4d16-b754-3a148d73baeb"},"vehicle_type_id":"4","last_reported":1730538547,"current_range_meters":38000,"station_id":"ce4bh2p2rcd13ifvqdi0","pricing_plan_id":"cebpf4jnsgd1na2vs0mg"},{"bike_id":"9b50e853-0c2f-402a-9edc-493d94c176f6","system_id":"levelo_inurba_marseille","lat":43.2957,"lon":5.37511,"is_reserved":false,"is_disabled":false,"rental_uris":{"android":"levelo://app?vid=9b50e853-0c2f-402a-9edc-493d94c176f6","ios":"levelo://app?vid=9b50e853-0c2f-402a-9edc-493d94c176f6"},"vehicle_type_id":"4","last_reported":1730538547,"current_range_meters":28400,"station_id":"ce4bgh92rcd13ifvqb50","pricing_plan_id":"cebpf4jnsgd1na2vs0mg"},{"bike_id":"4f0de445-15e8-4d4f-b6cb-dd85cf93ce95","system_id":"levelo_inurba_marseille","lat":43.2984,"lon":5.36272,"is_reserved":false,"is_disabled":false,"rental_uris":{"android":"levelo://app?vid=4f0de445-15e8-4d4f-b6cb-dd85cf93ce95","ios":"levelo://app?vid=4f0de445-15e8-4d4f-b6cb-dd85cf93ce95"},"vehicle_type_id":"4","last_reported":1730538547,"current_range_meters":38800,"station_id":"ce4bgpp2rcd13ifvqc3g","pricing_plan_id":"cebpf4jnsgd1na2vs0mg"},{"bike_id":"299e3efd-4d92-44c1-bd7d-f404d4de5970","system_id":"levelo_inurba_marseille","lat":43.29567,"lon":5.37514,"is_reserved":false,"is_disabled":false,"rental_uris":{"android":"levelo://app?vid=299e3efd-4d92-44c1-bd7d-f404d4de5970","ios":"levelo://app?vid=299e3efd-4d92-44c1-bd7d-f404d4de5970"},"vehicle_type_id":"4","last_reported":1730538547,"current_range_meters":38800,"station_id":"ce4bgh92rcd13ifvqb50","pricing_plan_id":"cebpf4jnsgd1na2vs0mg"},{"bike_id":"35899c9a-01eb-4f85-bc4b-c14d5912c2f3","system_id":"levelo_inurba_marseille","lat":43.30131,"lon":5.39862,"is_reserved":false,"is_disabled":false,"rental_uris":{"android":"levelo://app?vid=35899c9a-01eb-4f85-bc4b-c14d5912c2f3","ios":"levelo://app?vid=35899c9a-01eb-4f85-bc4b-c14d5912c2f3"},"vehicle_type_id":"4","last_reported":1730538547,"current_range_meters":38400,"station_id":"ce4bh0h2rcd13ifvqd40","pricing_plan_id":"cebpf4jnsgd1na2vs0mg"},{"bike_id":"13f23c0b-a4f0-4ba8-ab4c-58cdaf8c18f0","system_id":"levelo_inurba_marseille","lat":43.26556,"lon":5.37283,"is_reserved":false,"is_disabled":false,"rental_uris":{"android":"levelo://app?vid=13f23c0b-a4f0-4ba8-ab4c-58cdaf8c18f0","ios":"levelo://app?vid=13f23c0b-a4f0-4ba8-ab4c-58cdaf8c18f0"},"vehicle_type_id":"4","last_reported":1730538547,"current_range_meters":24000,"station_id":"ce4bhg12rcd13ifvqf70","pricing_plan_id":"cebpf4jnsgd1na2vs0mg"},{"bike_id":"4109850f-6033-4b57-af3f-cfd0f5a4e9a0","system_id":"levelo_inurba_marseille","lat":43.2826,"lon":5.35083,"is_reserved":false,"is_disabled":false,"rental_uris":{"android":"levelo://app?vid=4109850f-6033-4b57-af3f-cfd0f5a4e9a0","ios":"levelo://app?vid=4109850f-6033-4b57-af3f-cfd0f5a4e9a0"},"vehicle_type_id":"4","last_reported":1730538547,"current_range_meters":34000,"station_id":"ce4bhbp2rcd13ifvqerg","pricing_plan_id":"cebpf4jnsgd1na2vs0mg"},{"bike_id":"8ac4f741-2911-42d6-a00a-51cf057a7d47","system_id":"levelo_inurba_marseille","lat":43.2749,"lon":5.42451,"is_reserved":false,"is_disabled":false,"rental_uris":{"android":"levelo://app?vid=8ac4f741-2911-42d6-a00a-51cf057a7d47","ios":"levelo://app?vid=8ac4f741-2911-42d6-a00a-51cf057a7d47"},"vehicle_type_id":"4","last_reported":1730538547,"current_range_meters":38000,"station_id":"ce4bhn92rcd13ifvqgrg","pricing_plan_id":"cebpf4jnsgd1na2vs0mg"},{"bike_id":"70181fa1-eb04-4c19-aee5-d214077eecb5","system_id":"levelo_inurba_marseille","lat":43.29189,"lon":5.39319,"is_reserved":false,"is_disabled":false,"rental_uris":{"android":"levelo://app?vid=70181fa1-eb04-4c19-aee5-d214077eecb5","ios":"levelo://app?vid=70181fa1-eb04-4c19-aee5-d214077eecb5"},"vehicle_type_id":"4","last_reported":1730538547,"current_range_meters":38800,"station_id":"ce4bh192rcd13ifvqdd0","pricing_plan_id":"cebpf4jnsgd1na2vs0mg"},{"bike_id":"d451d28d-010b-4a6d-8180-76be35e28442","system_id":"levelo_inurba_marseille","lat":43.29307,"lon":5.3717,"is_reserved":false,"is_disabled":false,"rental_uris":{"android":"levelo://app?vid=d451d28d-010b-4a6d-8180-76be35e28442","ios":"levelo://app?vid=d451d28d-010b-4a6d-8180-76be35e28442"},"vehicle_type_id":"4","last_reported":1730538547,"current_range_meters":20000,"station_id":"ce4bgh92rcd13ifvqb40","pricing_plan_id":"cebpf4jnsgd1na2vs0mg"},{"bike_id":"1fb673db-cdb4-4577-bbb1-5a1baeff033c","system_id":"levelo_inurba_marseille","lat":43.3117,"lon":5.38715,"is_reserved":false,"is_disabled":false,"rental_uris":{"android":"levelo://app?vid=1fb673db-cdb4-4577-bbb1-5a1baeff033c","ios":"levelo://app?vid=1fb673db-cdb4-4577-bbb1-5a1baeff033c"},"vehicle_type_id":"4","last_reported":1730538547,"current_range_meters":37600,"station_id":"ce4bgv12rcd13ifvqcp0","pricing_plan_id":"cebpf4jnsgd1na2vs0mg"},{"bike_id":"56718da5-6f14-4899-9587-02310c5b0baa","system_id":"levelo_inurba_marseille","lat":43.28982,"lon":5.37839,"is_reserved":false,"is_disabled":false,"rental_uris":{"android":"levelo://app?vid=56718da5-6f14-4899-9587-02310c5b0baa","ios":"levelo://app?vid=56718da5-6f14-4899-9587-02310c5b0baa"},"vehicle_type_id":"4","last_reported":1730538547,"current_range_meters":4000,"station_id":"ce4bh9p2rcd13ifvqed0","pricing_plan_id":"cebpf4jnsgd1na2vs0mg"},{"bike_id":"96631ec9-100e-47df-aa82-1b0f19499bc2","system_id":"levelo_inurba_marseille","lat":43.29415,"lon":5.38624,"is_reserved":false,"is_disabled":false,"rental_uris":{"android":"levelo://app?vid=96631ec9-100e-47df-aa82-1b0f19499bc2","ios":"levelo://app?vid=96631ec9-100e-47df-aa82-1b0f19499bc2"},"vehicle_type_id":"4","last_reported":1730538547,"current_range_meters":10800,"station_id":"ce4bh2h2rcd13ifvqdh0","pricing_plan_id":"cebpf4jnsgd1na2vs0mg"},{"bike_id":"dccc613c-7c9d-44fc-9625-47ccbc365073","system_id":"levelo_inurba_marseille","lat":43.27487,"lon":5.4246,"is_reserved":false,"is_disabled":false,"rental_uris":{"android":"levelo://app?vid=dccc613c-7c9d-44fc-9625-47ccbc365073","ios":"levelo://app?vid=dccc613c-7c9d-44fc-9625-47ccbc365073"},"vehicle_type_id":"4","last_reported":1730538547,"current_range_meters":36400,"station_id":"ce4bhn92rcd13ifvqgrg","pricing_plan_id":"cebpf4jnsgd1na2vs0mg"},{"bike_id":"5a7bfed0-6bbc-4af5-b975-7f94ee876232","system_id":"levelo_inurba_marseille","lat":43.33747,"lon":5.37456,"is_reserved":false,"is_disabled":false,"rental_uris":{"android":"levelo://app?vid=5a7bfed0-6bbc-4af5-b975-7f94ee876232","ios":"levelo://app?vid=5a7bfed0-6bbc-4af5-b975-7f94ee876232"},"vehicle_type_id":"4","last_reported":1730538547,"current_range_meters":37600,"station_id":"","pricing_plan_id":"cebpf4jnsgd1na2vs0mg"},{"bike_id":"adfaff32-5e7d-44dd-a6ad-3322d753e148","system_id":"levelo_inurba_marseille","lat":43.28707,"lon":5.39985,"is_reserved":false,"is_disabled":false,"rental_uris":{"android":"levelo://app?vid=adfaff32-5e7d-44dd-a6ad-3322d753e148","ios":"levelo://app?vid=adfaff32-5e7d-44dd-a6ad-3322d753e148"},"vehicle_type_id":"4","last_reported":1730538547,"current_range_meters":15200,"station_id":"ce4bho92rcd13ifvqh3g","pricing_plan_id":"cebpf4jnsgd1na2vs0mg"},{"bike_id":"a2b2b2b7-968f-41ee-9f63-385cfc5d375a","system_id":"levelo_inurba_marseille","lat":43.23148,"lon":5.43724,"is_reserved":false,"is_disabled":false,"rental_uris":{"android":"levelo://app?vid=a2b2b2b7-968f-41ee-9f63-385cfc5d375a","ios":"levelo://app?vid=a2b2b2b7-968f-41ee-9f63-385cfc5d375a"},"vehicle_type_id":"4","last_reported":1730538547,"current_range_meters":38800,"station_id":"ce4bhmp2rcd13ifvqgog","pricing_plan_id":"cebpf4jnsgd1na2vs0mg"},{"bike_id":"33c513c1-0c30-413c-9d3b-35dd29a13d6f","system_id":"levelo_inurba_marseille","lat":43.31698,"lon":5.40469,"is_reserved":false,"is_disabled":false,"rental_uris":{"android":"levelo://app?vid=33c513c1-0c30-413c-9d3b-35dd29a13d6f","ios":"levelo://app?vid=33c513c1-0c30-413c-9d3b-35dd29a13d6f"},"vehicle_type_id":"4","last_reported":1730538547,"current_range_meters":40000,"station_id":"ce4bh012rcd13ifvqd00","pricing_plan_id":"cebpf4jnsgd1na2vs0mg"},{"bike_id":"90f0cabd-ec2c-4869-a68e-3fa606f04d51","system_id":"levelo_inurba_marseille","lat":43.28842,"lon":5.39314,"is_reserved":false,"is_disabled":false,"rental_uris":{"android":"levelo://app?vid=90f0cabd-ec2c-4869-a68e-3fa606f04d51","ios":"levelo://app?vid=90f0cabd-ec2c-4869-a68e-3fa606f04d51"},"vehicle_type_id":"4","last_reported":1730538547,"current_range_meters":38800,"station_id":"ce4bh2p2rcd13ifvqdi0","pricing_plan_id":"cebpf4jnsgd1na2vs0mg"},{"bike_id":"ef71a38e-b485-4656-9d28-cdd95fa91cf3","system_id":"levelo_inurba_marseille","lat":43.26558,"lon":5.39007,"is_reserved":false,"is_disabled":false,"rental_uris":{"android":"levelo://app?vid=ef71a38e-b485-4656-9d28-cdd95fa91cf3","ios":"levelo://app?vid=ef71a38e-b485-4656-9d28-cdd95fa91cf3"},"vehicle_type_id":"4","last_reported":1730538547,"current_range_meters":38000,"station_id":"ce4bhe12rcd13ifvqf30","pricing_plan_id":"cebpf4jnsgd1na2vs0mg"},{"bike_id":"337cd0a4-1ee8-4f9d-8ee4-4137d5c3c5e2","system_id":"levelo_inurba_marseille","lat":43.31174,"lon":5.38709,"is_reserved":false,"is_disabled":false,"rental_uris":{"android":"levelo://app?vid=337cd0a4-1ee8-4f9d-8ee4-4137d5c3c5e2","ios":"levelo://app?vid=337cd0a4-1ee8-4f9d-8ee4-4137d5c3c5e2"},"vehicle_type_id":"4","last_reported":1730538547,"current_range_meters":38800,"station_id":"ce4bgv12rcd13ifvqcp0","pricing_plan_id":"cebpf4jnsgd1na2vs0mg"},{"bike_id":"7d801467-fce3-48f2-9da4-5e00c903cc12","system_id":"levelo_inurba_marseille","lat":43.23184,"lon":5.39985,"is_reserved":false,"is_disabled":false,"rental_uris":{"android":"levelo://app?vid=7d801467-fce3-48f2-9da4-5e00c903cc12","ios":"levelo://app?vid=7d801467-fce3-48f2-9da4-5e00c903cc12"},"vehicle_type_id":"4","last_reported":1730538547,"current_range_meters":4800,"station_id":"ce4bhn12rcd13ifvqgqg","pricing_plan_id":"cebpf4jnsgd1na2vs0mg"},{"bike_id":"af0f958e-34c3-444c-927f-1763ff36aafb","system_id":"levelo_inurba_marseille","lat":43.30461,"lon":5.38892,"is_reserved":false,"is_disabled":false,"rental_uris":{"android":"levelo://app?vid=af0f958e-34c3-444c-927f-1763ff36aafb","ios":"levelo://app?vid=af0f958e-34c3-444c-927f-1763ff36aafb"},"vehicle_type_id":"4","last_reported":1730538547,"current_range_meters":36800,"station_id":"ce4bgk12rcd13ifvqbi0","pricing_plan_id":"cebpf4jnsgd1na2vs0mg"},{"bike_id":"5a84c97e-f31d-4406-92af-5271994087b0","system_id":"levelo_inurba_marseille","lat":43.28406,"lon":5.37515,"is_reserved":false,"is_disabled":false,"rental_uris":{"android":"levelo://app?vid=5a84c97e-f31d-4406-92af-5271994087b0","ios":"levelo://app?vid=5a84c97e-f31d-4406-92af-5271994087b0"},"vehicle_type_id":"4","last_reported":1730538547,"current_range_meters":17600,"station_id":"ce4bh412rcd13ifvqds0","pricing_plan_id":"cebpf4jnsgd1na2vs0mg"},{"bike_id":"7dc1c1ed-2472-4dd8-84f9-9b00a0c2baff","system_id":"levelo_inurba_marseille","lat":43.29556,"lon":5.42293,"is_reserved":false,"is_disabled":false,"rental_uris":{"android":"levelo://app?vid=7dc1c1ed-2472-4dd8-84f9-9b00a0c2baff","ios":"levelo://app?vid=7dc1c1ed-2472-4dd8-84f9-9b00a0c2baff"},"vehicle_type_id":"4","last_reported":1730538547,"current_range_meters":37600,"station_id":"ce4bhph2rcd13ifvqhdg","pricing_plan_id":"cebpf4jnsgd1na2vs0mg"},{"bike_id":"3a58f7e0-04ca-425a-900d-21346b549a93","system_id":"levelo_inurba_marseille","lat":43.26557,"lon":5.37289,"is_reserved":false,"is_disabled":false,"rental_uris":{"android":"levelo://app?vid=3a58f7e0-04ca-425a-900d-21346b549a93","ios":"levelo://app?vid=3a58f7e0-04ca-425a-900d-21346b549a93"},"vehicle_type_id":"4","last_reported":1730538547,"current_range_meters":28000,"station_id":"ce4bhg12rcd13ifvqf70","pricing_plan_id":"cebpf4jnsgd1na2vs0mg"},{"bike_id":"c9c5d1b8-e098-419c-8872-b35296cf4983","system_id":"levelo_inurba_marseille","lat":43.26677,"lon":5.38267,"is_reserved":false,"is_disabled":false,"rental_uris":{"android":"levelo://app?vid=c9c5d1b8-e098-419c-8872-b35296cf4983","ios":"levelo://app?vid=c9c5d1b8-e098-419c-8872-b35296cf4983"},"vehicle_type_id":"4","last_reported":1730538547,"current_range_meters":16000,"station_id":"ce4bhg92rcd13ifvqf90","pricing_plan_id":"cebpf4jnsgd1na2vs0mg"},{"bike_id":"ba57a119-f9b5-45ec-a6d0-a52e287ee306","system_id":"levelo_inurba_marseille","lat":43.30909,"lon":5.36847,"is_reserved":false,"is_disabled":false,"rental_uris":{"android":"levelo://app?vid=ba57a119-f9b5-45ec-a6d0-a52e287ee306","ios":"levelo://app?vid=ba57a119-f9b5-45ec-a6d0-a52e287ee306"},"vehicle_type_id":"4","last_reported":1730538547,"current_range_meters":37600,"station_id":"ce4bgn92rcd13ifvqbvg","pricing_plan_id":"cebpf4jnsgd1na2vs0mg"},{"bike_id":"3e298234-f57f-4eba-8e7a-4b84891b1fba","system_id":"levelo_inurba_marseille","lat":43.30593,"lon":5.39352,"is_reserved":false,"is_disabled":false,"rental_uris":{"android":"levelo://app?vid=3e298234-f57f-4eba-8e7a-4b84891b1fba","ios":"levelo://app?vid=3e298234-f57f-4eba-8e7a-4b84891b1fba"},"vehicle_type_id":"4","last_reported":1730538547,"current_range_meters":37600,"station_id":"ce4bh0p2rcd13ifvqd80","pricing_plan_id":"cebpf4jnsgd1na2vs0mg"},{"bike_id":"4dd74b80-423d-4a82-8b5a-fef5ebd97f46","system_id":"levelo_inurba_marseille","lat":43.24393,"lon":5.37053,"is_reserved":false,"is_disabled":false,"rental_uris":{"android":"levelo://app?vid=4dd74b80-423d-4a82-8b5a-fef5ebd97f46","ios":"levelo://app?vid=4dd74b80-423d-4a82-8b5a-fef5ebd97f46"},"vehicle_type_id":"4","last_reported":1730538547,"current_range_meters":23200,"station_id":"ce4bhhh2rcd13ifvqfk0","pricing_plan_id":"cebpf4jnsgd1na2vs0mg"},{"bike_id":"b01d8e03-804a-44bc-9744-262a136c8232","system_id":"levelo_inurba_marseille","lat":43.29186,"lon":5.35834,"is_reserved":false,"is_disabled":false,"rental_uris":{"android":"levelo://app?vid=b01d8e03-804a-44bc-9744-262a136c8232","ios":"levelo://app?vid=b01d8e03-804a-44bc-9744-262a136c8232"},"vehicle_type_id":"4","last_reported":1730538547,"current_range_meters":38800,"station_id":"ce4bhb12rcd13ifvqel0","pricing_plan_id":"cebpf4jnsgd1na2vs0mg"},{"bike_id":"9938ebcd-9900-4f33-ae62-087d07b91466","system_id":"levelo_inurba_marseille","lat":43.25728,"lon":5.41113,"is_reserved":false,"is_disabled":false,"rental_uris":{"android":"levelo://app?vid=9938ebcd-9900-4f33-ae62-087d07b91466","ios":"levelo://app?vid=9938ebcd-9900-4f33-ae62-087d07b91466"},"vehicle_type_id":"4","last_reported":1730538547,"current_range_meters":40000,"station_id":"ce4bhkp2rcd13ifvqgd0","pricing_plan_id":"cebpf4jnsgd1na2vs0mg"},{"bike_id":"9d4d7888-e57c-4697-8fc3-2691f4062dff","system_id":"levelo_inurba_marseille","lat":43.28574,"lon":5.39491,"is_reserved":false,"is_disabled":false,"rental_uris":{"android":"levelo://app?vid=9d4d7888-e57c-4697-8fc3-2691f4062dff","ios":"levelo://app?vid=9d4d7888-e57c-4697-8fc3-2691f4062dff"},"vehicle_type_id":"4","last_reported":1730538547,"current_range_meters":27600,"station_id":"ce4bh292rcd13ifvqdg0","pricing_plan_id":"cebpf4jnsgd1na2vs0mg"},{"bike_id":"e960ac30-070e-494a-a9c1-effafcd9c6f4","system_id":"levelo_inurba_marseille","lat":43.29459,"lon":5.39596,"is_reserved":false,"is_disabled":false,"rental_uris":{"android":"levelo://app?vid=e960ac30-070e-494a-a9c1-effafcd9c6f4","ios":"levelo://app?vid=e960ac30-070e-494a-a9c1-effafcd9c6f4"},"vehicle_type_id":"4","last_reported":1730538547,"current_range_meters":8800,"station_id":"","pricing_plan_id":"cebpf4jnsgd1na2vs0mg"},{"bike_id":"e0bb0bf6-b6d3-48bd-a1ae-730dc47848d5","system_id":"levelo_inurba_marseille","lat":43.30466,"lon":5.37904,"is_reserved":false,"is_disabled":false,"rental_uris":{"android":"levelo://app?vid=e0bb0bf6-b6d3-48bd-a1ae-730dc47848d5","ios":"levelo://app?vid=e0bb0bf6-b6d3-48bd-a1ae-730dc47848d5"},"vehicle_type_id":"4","last_reported":1730538547,"current_range_meters":17600,"station_id":"ce4bgup2rcd13ifvqcn0","pricing_plan_id":"cebpf4jnsgd1na2vs0mg"},{"bike_id":"a35b17f7-012c-4f42-b09f-20abe952f1de","system_id":"levelo_inurba_marseille","lat":43.273086,"lon":5.391174,"is_reserved":false,"is_disabled":false,"rental_uris":{"android":"levelo://app?vid=a35b17f7-012c-4f42-b09f-20abe952f1de","ios":"levelo://app?vid=a35b17f7-012c-4f42-b09f-20abe952f1de"},"vehicle_type_id":"4","last_reported":1730538547,"current_range_meters":39200,"station_id":"ce4bhgp2rcd13ifvqfe0","pricing_plan_id":"cebpf4jnsgd1na2vs0mg"},{"bike_id":"4f207157-0a3f-446e-a706-7d73dc0c6f39","system_id":"levelo_inurba_marseille","lat":43.31181,"lon":5.38712,"is_reserved":false,"is_disabled":false,"rental_uris":{"android":"levelo://app?vid=4f207157-0a3f-446e-a706-7d73dc0c6f39","ios":"levelo://app?vid=4f207157-0a3f-446e-a706-7d73dc0c6f39"},"vehicle_type_id":"4","last_reported":1730538547,"current_range_meters":38000,"station_id":"ce4bgv12rcd13ifvqcp0","pricing_plan_id":"cebpf4jnsgd1na2vs0mg"},{"bike_id":"4d27cffc-3999-45c5-b6b3-1d59b59644ee","system_id":"levelo_inurba_marseille","lat":43.26024,"lon":5.39403,"is_reserved":false,"is_disabled":false,"rental_uris":{"android":"levelo://app?vid=4d27cffc-3999-45c5-b6b3-1d59b59644ee","ios":"levelo://app?vid=4d27cffc-3999-45c5-b6b3-1d59b59644ee"},"vehicle_type_id":"4","last_reported":1730538547,"current_range_meters":24400,"station_id":"ce4bhh92rcd13ifvqfj0","pricing_plan_id":"cebpf4jnsgd1na2vs0mg"},{"bike_id":"42890dc6-02c7-4ea9-9f5a-99ce200c07cf","system_id":"levelo_inurba_marseille","lat":43.30206,"lon":5.39461,"is_reserved":false,"is_disabled":false,"rental_uris":{"android":"levelo://app?vid=42890dc6-02c7-4ea9-9f5a-99ce200c07cf","ios":"levelo://app?vid=42890dc6-02c7-4ea9-9f5a-99ce200c07cf"},"vehicle_type_id":"4","last_reported":1730538547,"current_range_meters":36400,"station_id":"ce4bh0p2rcd13ifvqd70","pricing_plan_id":"cebpf4jnsgd1na2vs0mg"},{"bike_id":"cd9c51c3-66f1-4423-a637-2a576f24f89d","system_id":"levelo_inurba_marseille","lat":43.27068,"lon":5.42274,"is_reserved":false,"is_disabled":false,"rental_uris":{"android":"levelo://app?vid=cd9c51c3-66f1-4423-a637-2a576f24f89d","ios":"levelo://app?vid=cd9c51c3-66f1-4423-a637-2a576f24f89d"},"vehicle_type_id":"4","last_reported":1730538547,"current_range_meters":11200,"station_id":"ce4bhk92rcd13ifvqgb0","pricing_plan_id":"cebpf4jnsgd1na2vs0mg"},{"bike_id":"4fb399d0-8f17-42d9-ba12-7bd558cecaf9","system_id":"levelo_inurba_marseille","lat":43.3205,"lon":5.41548,"is_reserved":false,"is_disabled":false,"rental_uris":{"android":"levelo://app?vid=4fb399d0-8f17-42d9-ba12-7bd558cecaf9","ios":"levelo://app?vid=4fb399d0-8f17-42d9-ba12-7bd558cecaf9"},"vehicle_type_id":"4","last_reported":1730538547,"current_range_meters":27200,"station_id":"ce4bhq92rcd13ifvqhkg","pricing_plan_id":"cebpf4jnsgd1na2vs0mg"},{"bike_id":"ca2f85fe-525a-48c9-95b5-53b5b61ca1b9","system_id":"levelo_inurba_marseille","lat":43.30432,"lon":5.38899,"is_reserved":false,"is_disabled":false,"rental_uris":{"android":"levelo://app?vid=ca2f85fe-525a-48c9-95b5-53b5b61ca1b9","ios":"levelo://app?vid=ca2f85fe-525a-48c9-95b5-53b5b61ca1b9"},"vehicle_type_id":"4","last_reported":1730538547,"current_range_meters":40000,"station_id":"ce4bgk12rcd13ifvqbi0","pricing_plan_id":"cebpf4jnsgd1na2vs0mg"},{"bike_id":"d69eef29-33f1-400b-9dbd-e583b4f600d8","system_id":"levelo_inurba_marseille","lat":43.24648,"lon":5.38901,"is_reserved":false,"is_disabled":false,"rental_uris":{"android":"levelo://app?vid=d69eef29-33f1-400b-9dbd-e583b4f600d8","ios":"levelo://app?vid=d69eef29-33f1-400b-9dbd-e583b4f600d8"},"vehicle_type_id":"4","last_reported":1730538547,"current_range_meters":40000,"station_id":"ce4bhg12rcd13ifvqf60","pricing_plan_id":"cebpf4jnsgd1na2vs0mg"},{"bike_id":"30f8586e-8d15-424b-9edf-3e5dc46689be","system_id":"levelo_inurba_marseille","lat":43.32478,"lon":5.36574,"is_reserved":false,"is_disabled":false,"rental_uris":{"android":"levelo://app?vid=30f8586e-8d15-424b-9edf-3e5dc46689be","ios":"levelo://app?vid=30f8586e-8d15-424b-9edf-3e5dc46689be"},"vehicle_type_id":"4","last_reported":1730538547,"current_range_meters":26000,"station_id":"ce4bhs12rcd13ifvqhvg","pricing_plan_id":"cebpf4jnsgd1na2vs0mg"},{"bike_id":"e515cc14-ec45-4493-a6ef-e8658b9cbc95","system_id":"levelo_inurba_marseille","lat":43.26203,"lon":5.37932,"is_reserved":false,"is_disabled":false,"rental_uris":{"android":"levelo://app?vid=e515cc14-ec45-4493-a6ef-e8658b9cbc95","ios":"levelo://app?vid=e515cc14-ec45-4493-a6ef-e8658b9cbc95"},"vehicle_type_id":"4","last_reported":1730538547,"current_range_meters":38800,"station_id":"ce4bhjp2rcd13ifvqg90","pricing_plan_id":"cebpf4jnsgd1na2vs0mg"},{"bike_id":"816f9c1a-6f7c-46b3-bac6-b46f60b14bf2","system_id":"levelo_inurba_marseille","lat":43.29789,"lon":5.38097,"is_reserved":false,"is_disabled":false,"rental_uris":{"android":"levelo://app?vid=816f9c1a-6f7c-46b3-bac6-b46f60b14bf2","ios":"levelo://app?vid=816f9c1a-6f7c-46b3-bac6-b46f60b14bf2"},"vehicle_type_id":"4","last_reported":1730538547,"current_range_meters":31200,"station_id":"ce4bgip2rcd13ifvqbb0","pricing_plan_id":"cebpf4jnsgd1na2vs0mg"},{"bike_id":"fce750cb-a798-44bd-9f6b-b11316d988eb","system_id":"levelo_inurba_marseille","lat":43.27054,"lon":5.40265,"is_reserved":false,"is_disabled":false,"rental_uris":{"android":"levelo://app?vid=fce750cb-a798-44bd-9f6b-b11316d988eb","ios":"levelo://app?vid=fce750cb-a798-44bd-9f6b-b11316d988eb"},"vehicle_type_id":"4","last_reported":1730538547,"current_range_meters":19600,"station_id":"ce4bhk92rcd13ifvqgc0","pricing_plan_id":"cebpf4jnsgd1na2vs0mg"},{"bike_id":"ad870fa4-be6b-414e-a16c-0a08af510dc8","system_id":"levelo_inurba_marseille","lat":43.29983,"lon":5.38492,"is_reserved":false,"is_disabled":false,"rental_uris":{"android":"levelo://app?vid=ad870fa4-be6b-414e-a16c-0a08af510dc8","ios":"levelo://app?vid=ad870fa4-be6b-414e-a16c-0a08af510dc8"},"vehicle_type_id":"4","last_reported":1730538547,"current_range_meters":30000,"station_id":"ce4bgj92rcd13ifvqbd0","pricing_plan_id":"cebpf4jnsgd1na2vs0mg"},{"bike_id":"245b4e38-7d8f-4725-9697-1642283430f4","system_id":"levelo_inurba_marseille","lat":43.289364,"lon":5.396203,"is_reserved":false,"is_disabled":false,"rental_uris":{"android":"levelo://app?vid=245b4e38-7d8f-4725-9697-1642283430f4","ios":"levelo://app?vid=245b4e38-7d8f-4725-9697-1642283430f4"},"vehicle_type_id":"4","last_reported":1730538547,"current_range_meters":11600,"station_id":"ce4bh3h2rcd13ifvqdn0","pricing_plan_id":"cebpf4jnsgd1na2vs0mg"},{"bike_id":"f5b1e407-3225-4a1b-a796-f9d7ee942750","system_id":"levelo_inurba_marseille","lat":43.31518,"lon":5.38044,"is_reserved":false,"is_disabled":false,"rental_uris":{"android":"levelo://app?vid=f5b1e407-3225-4a1b-a796-f9d7ee942750","ios":"levelo://app?vid=f5b1e407-3225-4a1b-a796-f9d7ee942750"},"vehicle_type_id":"4","last_reported":1730538547,"current_range_meters":38800,"station_id":"ce4bhsp2rcd13ifvqi50","pricing_plan_id":"cebpf4jnsgd1na2vs0mg"},{"bike_id":"658dacf4-7ef3-4634-8126-9bbd88e5a6eb","system_id":"levelo_inurba_marseille","lat":43.23196,"lon":5.35545,"is_reserved":false,"is_disabled":false,"rental_uris":{"android":"levelo://app?vid=658dacf4-7ef3-4634-8126-9bbd88e5a6eb","ios":"levelo://app?vid=658dacf4-7ef3-4634-8126-9bbd88e5a6eb"},"vehicle_type_id":"4","last_reported":1730538547,"current_range_meters":20000,"station_id":"ce4bhu92rcd13ifvqi70","pricing_plan_id":"cebpf4jnsgd1na2vs0mg"},{"bike_id":"60e43d56-bbd7-49d9-b00f-8f0987dc2224","system_id":"levelo_inurba_marseille","lat":43.28841,"lon":5.39329,"is_reserved":false,"is_disabled":false,"rental_uris":{"android":"levelo://app?vid=60e43d56-bbd7-49d9-b00f-8f0987dc2224","ios":"levelo://app?vid=60e43d56-bbd7-49d9-b00f-8f0987dc2224"},"vehicle_type_id":"4","last_reported":1730538547,"current_range_meters":34000,"station_id":"ce4bh2p2rcd13ifvqdi0","pricing_plan_id":"cebpf4jnsgd1na2vs0mg"},{"bike_id":"b98cfd7f-acdf-400e-bf8f-9132b0f74693","system_id":"levelo_inurba_marseille","lat":43.28098,"lon":5.37856,"is_reserved":false,"is_disabled":false,"rental_uris":{"android":"levelo://app?vid=b98cfd7f-acdf-400e-bf8f-9132b0f74693","ios":"levelo://app?vid=b98cfd7f-acdf-400e-bf8f-9132b0f74693"},"vehicle_type_id":"4","last_reported":1730538547,"current_range_meters":27200,"station_id":"ce4bha12rcd13ifvqee0","pricing_plan_id":"cebpf4jnsgd1na2vs0mg"},{"bike_id":"e62e38a9-284c-4b15-bfe8-8b214b98f04b","system_id":"levelo_inurba_marseille","lat":43.23061,"lon":5.35491,"is_reserved":false,"is_disabled":false,"rental_uris":{"android":"levelo://app?vid=e62e38a9-284c-4b15-bfe8-8b214b98f04b","ios":"levelo://app?vid=e62e38a9-284c-4b15-bfe8-8b214b98f04b"},"vehicle_type_id":"4","last_reported":1730538547,"current_range_meters":22800,"station_id":"cpo3342slgdg3j2ifvpg","pricing_plan_id":"cebpf4jnsgd1na2vs0mg"},{"bike_id":"dc94b757-67d6-4deb-a551-c1abf5329566","system_id":"levelo_inurba_marseille","lat":43.28486,"lon":5.38536,"is_reserved":false,"is_disabled":false,"rental_uris":{"android":"levelo://app?vid=dc94b757-67d6-4deb-a551-c1abf5329566","ios":"levelo://app?vid=dc94b757-67d6-4deb-a551-c1abf5329566"},"vehicle_type_id":"4","last_reported":1730538547,"current_range_meters":38400,"station_id":"ce4bh8p2rcd13ifvqeb0","pricing_plan_id":"cebpf4jnsgd1na2vs0mg"},{"bike_id":"4eb7a39b-7732-4901-8b76-36d37cfbe821","system_id":"levelo_inurba_marseille","lat":43.30156,"lon":5.38081,"is_reserved":false,"is_disabled":false,"rental_uris":{"android":"levelo://app?vid=4eb7a39b-7732-4901-8b76-36d37cfbe821","ios":"levelo://app?vid=4eb7a39b-7732-4901-8b76-36d37cfbe821"},"vehicle_type_id":"4","last_reported":1730538547,"current_range_meters":18800,"station_id":"ce4bgjp2rcd13ifvqbh0","pricing_plan_id":"cebpf4jnsgd1na2vs0mg"},{"bike_id":"fa1232ca-5715-42c4-984f-624a8552d886","system_id":"levelo_inurba_marseille","lat":43.32287,"lon":5.3828,"is_reserved":false,"is_disabled":false,"rental_uris":{"android":"levelo://app?vid=fa1232ca-5715-42c4-984f-624a8552d886","ios":"levelo://app?vid=fa1232ca-5715-42c4-984f-624a8552d886"},"vehicle_type_id":"4","last_reported":1730538547,"current_range_meters":38800,"station_id":"ce4bhr12rcd13ifvqhqg","pricing_plan_id":"cebpf4jnsgd1na2vs0mg"},{"bike_id":"f493fcf3-d01a-4471-8350-8f1edd0382a9","system_id":"levelo_inurba_marseille","lat":43.23148,"lon":5.4372,"is_reserved":false,"is_disabled":false,"rental_uris":{"android":"levelo://app?vid=f493fcf3-d01a-4471-8350-8f1edd0382a9","ios":"levelo://app?vid=f493fcf3-d01a-4471-8350-8f1edd0382a9"},"vehicle_type_id":"4","last_reported":1730538547,"current_range_meters":38800,"station_id":"ce4bhmp2rcd13ifvqgog","pricing_plan_id":"cebpf4jnsgd1na2vs0mg"},{"bike_id":"aad83483-aaa8-43f3-b586-ce82558627fc","system_id":"levelo_inurba_marseille","lat":43.30307,"lon":5.39214,"is_reserved":false,"is_disabled":false,"rental_uris":{"android":"levelo://app?vid=aad83483-aaa8-43f3-b586-ce82558627fc","ios":"levelo://app?vid=aad83483-aaa8-43f3-b586-ce82558627fc"},"vehicle_type_id":"4","last_reported":1730538547,"current_range_meters":36400,"station_id":"ce4bgkh2rcd13ifvqbk0","pricing_plan_id":"cebpf4jnsgd1na2vs0mg"},{"bike_id":"284faaa3-21e1-4483-8e3c-8ce4eb4e219e","system_id":"levelo_inurba_marseille","lat":43.31755,"lon":5.39026,"is_reserved":false,"is_disabled":false,"rental_uris":{"android":"levelo://app?vid=284faaa3-21e1-4483-8e3c-8ce4eb4e219e","ios":"levelo://app?vid=284faaa3-21e1-4483-8e3c-8ce4eb4e219e"},"vehicle_type_id":"4","last_reported":1730538547,"current_range_meters":18000,"station_id":"ce4bhqp2rcd13ifvqhng","pricing_plan_id":"cebpf4jnsgd1na2vs0mg"},{"bike_id":"c26eeef8-a0b8-4f07-9f71-c1559be85236","system_id":"levelo_inurba_marseille","lat":43.25729,"lon":5.41109,"is_reserved":false,"is_disabled":false,"rental_uris":{"android":"levelo://app?vid=c26eeef8-a0b8-4f07-9f71-c1559be85236","ios":"levelo://app?vid=c26eeef8-a0b8-4f07-9f71-c1559be85236"},"vehicle_type_id":"4","last_reported":1730538547,"current_range_meters":38400,"station_id":"ce4bhkp2rcd13ifvqgd0","pricing_plan_id":"cebpf4jnsgd1na2vs0mg"},{"bike_id":"c7096b37-5860-433a-958f-04dab67c2479","system_id":"levelo_inurba_marseille","lat":43.25503,"lon":5.37653,"is_reserved":false,"is_disabled":false,"rental_uris":{"android":"levelo://app?vid=c7096b37-5860-433a-958f-04dab67c2479","ios":"levelo://app?vid=c7096b37-5860-433a-958f-04dab67c2479"},"vehicle_type_id":"4","last_reported":1730538547,"current_range_meters":36000,"station_id":"ce4bhh12rcd13ifvqff0","pricing_plan_id":"cebpf4jnsgd1na2vs0mg"},{"bike_id":"a79b3df7-4053-41ab-917d-fe2f09e9503c","system_id":"levelo_inurba_marseille","lat":43.3016,"lon":5.38081,"is_reserved":false,"is_disabled":false,"rental_uris":{"android":"levelo://app?vid=a79b3df7-4053-41ab-917d-fe2f09e9503c","ios":"levelo://app?vid=a79b3df7-4053-41ab-917d-fe2f09e9503c"},"vehicle_type_id":"4","last_reported":1730538547,"current_range_meters":38800,"station_id":"ce4bgjp2rcd13ifvqbh0","pricing_plan_id":"cebpf4jnsgd1na2vs0mg"},{"bike_id":"b0d0f0bb-42ff-4ebf-8686-64832137c359","system_id":"levelo_inurba_marseille","lat":43.29021,"lon":5.38137,"is_reserved":false,"is_disabled":false,"rental_uris":{"android":"levelo://app?vid=b0d0f0bb-42ff-4ebf-8686-64832137c359","ios":"levelo://app?vid=b0d0f0bb-42ff-4ebf-8686-64832137c359"},"vehicle_type_id":"4","last_reported":1730538547,"current_range_meters":33200,"station_id":"ce4bh4p2rcd13ifvqe1g","pricing_plan_id":"cebpf4jnsgd1na2vs0mg"},{"bike_id":"b890158d-4cc0-42ea-b1b1-cf934d08cc8a","system_id":"levelo_inurba_marseille","lat":43.32365,"lon":5.38881,"is_reserved":false,"is_disabled":false,"rental_uris":{"android":"levelo://app?vid=b890158d-4cc0-42ea-b1b1-cf934d08cc8a","ios":"levelo://app?vid=b890158d-4cc0-42ea-b1b1-cf934d08cc8a"},"vehicle_type_id":"4","last_reported":1730538547,"current_range_meters":28400,"station_id":"ce4bhqp2rcd13ifvqhog","pricing_plan_id":"cebpf4jnsgd1na2vs0mg"},{"bike_id":"9f50d1b5-a97d-4395-b8db-d8674099c25e","system_id":"levelo_inurba_marseille","lat":43.29981,"lon":5.37181,"is_reserved":false,"is_disabled":false,"rental_uris":{"android":"levelo://app?vid=9f50d1b5-a97d-4395-b8db-d8674099c25e","ios":"levelo://app?vid=9f50d1b5-a97d-4395-b8db-d8674099c25e"},"vehicle_type_id":"4","last_reported":1730538547,"current_range_meters":38800,"station_id":"ce4bgr92rcd13ifvqc7g","pricing_plan_id":"cebpf4jnsgd1na2vs0mg"},{"bike_id":"887d3f15-9262-4464-a567-0c0c5d22959d","system_id":"levelo_inurba_marseille","lat":43.30305,"lon":5.36909,"is_reserved":false,"is_disabled":false,"rental_uris":{"android":"levelo://app?vid=887d3f15-9262-4464-a567-0c0c5d22959d","ios":"levelo://app?vid=887d3f15-9262-4464-a567-0c0c5d22959d"},"vehicle_type_id":"4","last_reported":1730538547,"current_range_meters":30000,"station_id":"ce4bgqh2rcd13ifvqc5g","pricing_plan_id":"cebpf4jnsgd1na2vs0mg"},{"bike_id":"13204629-6f37-4fdc-ae71-efb691ec9cf2","system_id":"levelo_inurba_marseille","lat":43.27177,"lon":5.4099,"is_reserved":false,"is_disabled":false,"rental_uris":{"android":"levelo://app?vid=13204629-6f37-4fdc-ae71-efb691ec9cf2","ios":"levelo://app?vid=13204629-6f37-4fdc-ae71-efb691ec9cf2"},"vehicle_type_id":"4","last_reported":1730538547,"current_range_meters":38800,"station_id":"ce4bhl12rcd13ifvqgf0","pricing_plan_id":"cebpf4jnsgd1na2vs0mg"},{"bike_id":"6a5cb283-33f1-4bd1-86d1-7432bbe10b16","system_id":"levelo_inurba_marseille","lat":43.30156,"lon":5.38088,"is_reserved":false,"is_disabled":false,"rental_uris":{"android":"levelo://app?vid=6a5cb283-33f1-4bd1-86d1-7432bbe10b16","ios":"levelo://app?vid=6a5cb283-33f1-4bd1-86d1-7432bbe10b16"},"vehicle_type_id":"4","last_reported":1730538547,"current_range_meters":35600,"station_id":"ce4bgjp2rcd13ifvqbh0","pricing_plan_id":"cebpf4jnsgd1na2vs0mg"},{"bike_id":"8268eafd-86cc-417b-b00e-7735474716a6","system_id":"levelo_inurba_marseille","lat":43.25001,"lon":5.3893,"is_reserved":false,"is_disabled":false,"rental_uris":{"android":"levelo://app?vid=8268eafd-86cc-417b-b00e-7735474716a6","ios":"levelo://app?vid=8268eafd-86cc-417b-b00e-7735474716a6"},"vehicle_type_id":"4","last_reported":1730538547,"current_range_meters":16000,"station_id":"ce4bhgp2rcd13ifvqfd0","pricing_plan_id":"cebpf4jnsgd1na2vs0mg"},{"bike_id":"ed4b265d-1d35-4b1e-a20f-83de00489890","system_id":"levelo_inurba_marseille","lat":43.29013,"lon":5.38132,"is_reserved":false,"is_disabled":false,"rental_uris":{"android":"levelo://app?vid=ed4b265d-1d35-4b1e-a20f-83de00489890","ios":"levelo://app?vid=ed4b265d-1d35-4b1e-a20f-83de00489890"},"vehicle_type_id":"4","last_reported":1730538547,"current_range_meters":37600,"station_id":"ce4bh4p2rcd13ifvqe1g","pricing_plan_id":"cebpf4jnsgd1na2vs0mg"},{"bike_id":"92302f0a-76d1-4a31-9f02-bb578743cbea","system_id":"levelo_inurba_marseille","lat":43.26956,"lon":5.38636,"is_reserved":false,"is_disabled":false,"rental_uris":{"android":"levelo://app?vid=92302f0a-76d1-4a31-9f02-bb578743cbea","ios":"levelo://app?vid=92302f0a-76d1-4a31-9f02-bb578743cbea"},"vehicle_type_id":"4","last_reported":1730538547,"current_range_meters":24400,"station_id":"ce4bhh92rcd13ifvqfh0","pricing_plan_id":"cebpf4jnsgd1na2vs0mg"},{"bike_id":"bfab254b-dda0-49c5-ae2e-902568de5a52","system_id":"levelo_inurba_marseille","lat":43.25105,"lon":5.40321,"is_reserved":false,"is_disabled":false,"rental_uris":{"android":"levelo://app?vid=bfab254b-dda0-49c5-ae2e-902568de5a52","ios":"levelo://app?vid=bfab254b-dda0-49c5-ae2e-902568de5a52"},"vehicle_type_id":"4","last_reported":1730538547,"current_range_meters":8000,"station_id":"ce4bhlh2rcd13ifvqgig","pricing_plan_id":"cebpf4jnsgd1na2vs0mg"},{"bike_id":"f51e880f-c981-4797-8719-e2c7bbca8ec7","system_id":"levelo_inurba_marseille","lat":43.30464,"lon":5.37899,"is_reserved":false,"is_disabled":false,"rental_uris":{"android":"levelo://app?vid=f51e880f-c981-4797-8719-e2c7bbca8ec7","ios":"levelo://app?vid=f51e880f-c981-4797-8719-e2c7bbca8ec7"},"vehicle_type_id":"4","last_reported":1730538547,"current_range_meters":32000,"station_id":"ce4bgup2rcd13ifvqcn0","pricing_plan_id":"cebpf4jnsgd1na2vs0mg"},{"bike_id":"9dc4bbff-21ca-407b-985c-c70214b6bc8c","system_id":"levelo_inurba_marseille","lat":43.32478,"lon":5.36554,"is_reserved":false,"is_disabled":false,"rental_uris":{"android":"levelo://app?vid=9dc4bbff-21ca-407b-985c-c70214b6bc8c","ios":"levelo://app?vid=9dc4bbff-21ca-407b-985c-c70214b6bc8c"},"vehicle_type_id":"4","last_reported":1730538547,"current_range_meters":38800,"station_id":"ce4bhs12rcd13ifvqhvg","pricing_plan_id":"cebpf4jnsgd1na2vs0mg"},{"bike_id":"b9dae35d-f9f9-4405-947e-479a57dd0f89","system_id":"levelo_inurba_marseille","lat":43.28846,"lon":5.3586,"is_reserved":false,"is_disabled":false,"rental_uris":{"android":"levelo://app?vid=b9dae35d-f9f9-4405-947e-479a57dd0f89","ios":"levelo://app?vid=b9dae35d-f9f9-4405-947e-479a57dd0f89"},"vehicle_type_id":"4","last_reported":1730538547,"current_range_meters":37600,"station_id":"ce4bhb12rcd13ifvqem0","pricing_plan_id":"cebpf4jnsgd1na2vs0mg"},{"bike_id":"379b04d9-20e2-4f2f-a080-e8290f8e87e1","system_id":"levelo_inurba_marseille","lat":43.31265,"lon":5.40173,"is_reserved":false,"is_disabled":false,"rental_uris":{"android":"levelo://app?vid=379b04d9-20e2-4f2f-a080-e8290f8e87e1","ios":"levelo://app?vid=379b04d9-20e2-4f2f-a080-e8290f8e87e1"},"vehicle_type_id":"4","last_reported":1730538547,"current_range_meters":38800,"station_id":"ce4bh092rcd13ifvqd30","pricing_plan_id":"cebpf4jnsgd1na2vs0mg"},{"bike_id":"ebbf7ab2-391f-4921-994e-c3d982c24e0d","system_id":"levelo_inurba_marseille","lat":43.286347,"lon":5.386736,"is_reserved":false,"is_disabled":false,"rental_uris":{"android":"levelo://app?vid=ebbf7ab2-391f-4921-994e-c3d982c24e0d","ios":"levelo://app?vid=ebbf7ab2-391f-4921-994e-c3d982c24e0d"},"vehicle_type_id":"4","last_reported":1730538547,"current_range_meters":38400,"station_id":"ce4bh492rcd13ifvqdug","pricing_plan_id":"cebpf4jnsgd1na2vs0mg"},{"bike_id":"2670d31c-21a8-42d7-b34e-5f9a0a78dc6c","system_id":"levelo_inurba_marseille","lat":43.29294,"lon":5.37138,"is_reserved":false,"is_disabled":false,"rental_uris":{"android":"levelo://app?vid=2670d31c-21a8-42d7-b34e-5f9a0a78dc6c","ios":"levelo://app?vid=2670d31c-21a8-42d7-b34e-5f9a0a78dc6c"},"vehicle_type_id":"4","last_reported":1730538547,"current_range_meters":39200,"station_id":"ce4bgh92rcd13ifvqb40","pricing_plan_id":"cebpf4jnsgd1na2vs0mg"},{"bike_id":"02230dac-ebce-4aa4-9174-db473244d1bc","system_id":"levelo_inurba_marseille","lat":43.3302,"lon":5.39046,"is_reserved":false,"is_disabled":false,"rental_uris":{"android":"levelo://app?vid=02230dac-ebce-4aa4-9174-db473244d1bc","ios":"levelo://app?vid=02230dac-ebce-4aa4-9174-db473244d1bc"},"vehicle_type_id":"4","last_reported":1730538547,"current_range_meters":38800,"station_id":"ce4bhr92rcd13ifvqhrg","pricing_plan_id":"cebpf4jnsgd1na2vs0mg"},{"bike_id":"f196abfc-d230-41d9-a007-b59195fbc8ef","system_id":"levelo_inurba_marseille","lat":43.28471,"lon":5.38419,"is_reserved":false,"is_disabled":false,"rental_uris":{"android":"levelo://app?vid=f196abfc-d230-41d9-a007-b59195fbc8ef","ios":"levelo://app?vid=f196abfc-d230-41d9-a007-b59195fbc8ef"},"vehicle_type_id":"4","last_reported":1730538547,"current_range_meters":37600,"station_id":"ce4bh512rcd13ifvqe3g","pricing_plan_id":"cebpf4jnsgd1na2vs0mg"},{"bike_id":"64f2c005-032c-4707-acd0-06377d52b98a","system_id":"levelo_inurba_marseille","lat":43.31698,"lon":5.37759,"is_reserved":false,"is_disabled":false,"rental_uris":{"android":"levelo://app?vid=64f2c005-032c-4707-acd0-06377d52b98a","ios":"levelo://app?vid=64f2c005-032c-4707-acd0-06377d52b98a"},"vehicle_type_id":"4","last_reported":1730538547,"current_range_meters":15200,"station_id":"ce4bgth2rcd13ifvqch0","pricing_plan_id":"cebpf4jnsgd1na2vs0mg"},{"bike_id":"89f4e217-f3e8-49bc-98ee-4cb53f505767","system_id":"levelo_inurba_marseille","lat":43.31885,"lon":5.40739,"is_reserved":false,"is_disabled":false,"rental_uris":{"android":"levelo://app?vid=89f4e217-f3e8-49bc-98ee-4cb53f505767","ios":"levelo://app?vid=89f4e217-f3e8-49bc-98ee-4cb53f505767"},"vehicle_type_id":"4","last_reported":1730538547,"current_range_meters":37600,"station_id":"ce4bhq12rcd13ifvqhig","pricing_plan_id":"cebpf4jnsgd1na2vs0mg"},{"bike_id":"f0365e39-da4f-4fcd-a178-7855790154f7","system_id":"levelo_inurba_marseille","lat":43.30138,"lon":5.37414,"is_reserved":false,"is_disabled":false,"rental_uris":{"android":"levelo://app?vid=f0365e39-da4f-4fcd-a178-7855790154f7","ios":"levelo://app?vid=f0365e39-da4f-4fcd-a178-7855790154f7"},"vehicle_type_id":"4","last_reported":1730538547,"current_range_meters":38800,"station_id":"ce4bgs92rcd13ifvqcc0","pricing_plan_id":"cebpf4jnsgd1na2vs0mg"},{"bike_id":"5d49116d-9ac2-4fe3-b140-1c8daccc859c","system_id":"levelo_inurba_marseille","lat":43.30286,"lon":5.377,"is_reserved":false,"is_disabled":false,"rental_uris":{"android":"levelo://app?vid=5d49116d-9ac2-4fe3-b140-1c8daccc859c","ios":"levelo://app?vid=5d49116d-9ac2-4fe3-b140-1c8daccc859c"},"vehicle_type_id":"4","last_reported":1730538547,"current_range_meters":38800,"station_id":"ce4bguh2rcd13ifvqcj0","pricing_plan_id":"cebpf4jnsgd1na2vs0mg"},{"bike_id":"15097f61-a1d7-4b0b-80aa-883f8eebec37","system_id":"levelo_inurba_marseille","lat":43.30604,"lon":5.3935,"is_reserved":false,"is_disabled":false,"rental_uris":{"android":"levelo://app?vid=15097f61-a1d7-4b0b-80aa-883f8eebec37","ios":"levelo://app?vid=15097f61-a1d7-4b0b-80aa-883f8eebec37"},"vehicle_type_id":"4","last_reported":1730538547,"current_range_meters":38800,"station_id":"ce4bh0p2rcd13ifvqd80","pricing_plan_id":"cebpf4jnsgd1na2vs0mg"},{"bike_id":"b2362997-f37b-4511-b744-2795bb584636","system_id":"levelo_inurba_marseille","lat":43.28098,"lon":5.37848,"is_reserved":false,"is_disabled":false,"rental_uris":{"android":"levelo://app?vid=b2362997-f37b-4511-b744-2795bb584636","ios":"levelo://app?vid=b2362997-f37b-4511-b744-2795bb584636"},"vehicle_type_id":"4","last_reported":1730538547,"current_range_meters":32000,"station_id":"ce4bha12rcd13ifvqee0","pricing_plan_id":"cebpf4jnsgd1na2vs0mg"},{"bike_id":"934507e4-c3c3-46c2-8192-19c2198f8203","system_id":"levelo_inurba_marseille","lat":43.29569,"lon":5.37508,"is_reserved":false,"is_disabled":false,"rental_uris":{"android":"levelo://app?vid=934507e4-c3c3-46c2-8192-19c2198f8203","ios":"levelo://app?vid=934507e4-c3c3-46c2-8192-19c2198f8203"},"vehicle_type_id":"4","last_reported":1730538547,"current_range_meters":9200,"station_id":"ce4bgh92rcd13ifvqb50","pricing_plan_id":"cebpf4jnsgd1na2vs0mg"},{"bike_id":"9ca12022-716a-4ed5-ac9c-2033946b0c38","system_id":"levelo_inurba_marseille","lat":43.29846,"lon":5.36277,"is_reserved":false,"is_disabled":false,"rental_uris":{"android":"levelo://app?vid=9ca12022-716a-4ed5-ac9c-2033946b0c38","ios":"levelo://app?vid=9ca12022-716a-4ed5-ac9c-2033946b0c38"},"vehicle_type_id":"4","last_reported":1730538547,"current_range_meters":30400,"station_id":"ce4bgpp2rcd13ifvqc3g","pricing_plan_id":"cebpf4jnsgd1na2vs0mg"},{"bike_id":"5d8e5259-4a2a-4dfc-867a-89ff0f505038","system_id":"levelo_inurba_marseille","lat":43.2842,"lon":5.34982,"is_reserved":false,"is_disabled":false,"rental_uris":{"android":"levelo://app?vid=5d8e5259-4a2a-4dfc-867a-89ff0f505038","ios":"levelo://app?vid=5d8e5259-4a2a-4dfc-867a-89ff0f505038"},"vehicle_type_id":"4","last_reported":1730538547,"current_range_meters":38400,"station_id":"ce4bhbh2rcd13ifvqepg","pricing_plan_id":"cebpf4jnsgd1na2vs0mg"},{"bike_id":"f7fc6701-fd62-4b48-bbdb-a453dbb89c2a","system_id":"levelo_inurba_marseille","lat":43.29043,"lon":5.35913,"is_reserved":false,"is_disabled":false,"rental_uris":{"android":"levelo://app?vid=f7fc6701-fd62-4b48-bbdb-a453dbb89c2a","ios":"levelo://app?vid=f7fc6701-fd62-4b48-bbdb-a453dbb89c2a"},"vehicle_type_id":"4","last_reported":1730538547,"current_range_meters":17200,"station_id":"ce4bha92rcd13ifvqeg0","pricing_plan_id":"cebpf4jnsgd1na2vs0mg"},{"bike_id":"507aba0b-8403-499f-b8c9-bb3669e4a444","system_id":"levelo_inurba_marseille","lat":43.27665,"lon":5.3892,"is_reserved":false,"is_disabled":false,"rental_uris":{"android":"levelo://app?vid=507aba0b-8403-499f-b8c9-bb3669e4a444","ios":"levelo://app?vid=507aba0b-8403-499f-b8c9-bb3669e4a444"},"vehicle_type_id":"4","last_reported":1730538547,"current_range_meters":25600,"station_id":"ce4bhi12rcd13ifvqfo0","pricing_plan_id":"cebpf4jnsgd1na2vs0mg"},{"bike_id":"5fb5fa84-352d-40ff-b332-81dccc5738c9","system_id":"levelo_inurba_marseille","lat":43.28842,"lon":5.35849,"is_reserved":false,"is_disabled":false,"rental_uris":{"android":"levelo://app?vid=5fb5fa84-352d-40ff-b332-81dccc5738c9","ios":"levelo://app?vid=5fb5fa84-352d-40ff-b332-81dccc5738c9"},"vehicle_type_id":"4","last_reported":1730538547,"current_range_meters":38000,"station_id":"ce4bhb12rcd13ifvqem0","pricing_plan_id":"cebpf4jnsgd1na2vs0mg"},{"bike_id":"25efdd14-e5a3-4f02-a8ea-e62e3c219fa3","system_id":"levelo_inurba_marseille","lat":43.28151,"lon":5.42653,"is_reserved":false,"is_disabled":false,"rental_uris":{"android":"levelo://app?vid=25efdd14-e5a3-4f02-a8ea-e62e3c219fa3","ios":"levelo://app?vid=25efdd14-e5a3-4f02-a8ea-e62e3c219fa3"},"vehicle_type_id":"4","last_reported":1730538547,"current_range_meters":40000,"station_id":"ce4bhnh2rcd13ifvqgug","pricing_plan_id":"cebpf4jnsgd1na2vs0mg"},{"bike_id":"a7539dfc-e8ec-47cd-8dbc-d48543cf053d","system_id":"levelo_inurba_marseille","lat":43.30537,"lon":5.36541,"is_reserved":false,"is_disabled":false,"rental_uris":{"android":"levelo://app?vid=a7539dfc-e8ec-47cd-8dbc-d48543cf053d","ios":"levelo://app?vid=a7539dfc-e8ec-47cd-8dbc-d48543cf053d"},"vehicle_type_id":"4","last_reported":1730538547,"current_range_meters":40000,"station_id":"ce4bgs12rcd13ifvqcag","pricing_plan_id":"cebpf4jnsgd1na2vs0mg"},{"bike_id":"32c6f570-953a-4135-8460-fdfba34fd3fb","system_id":"levelo_inurba_marseille","lat":43.2902,"lon":5.39997,"is_reserved":false,"is_disabled":false,"rental_uris":{"android":"levelo://app?vid=32c6f570-953a-4135-8460-fdfba34fd3fb","ios":"levelo://app?vid=32c6f570-953a-4135-8460-fdfba34fd3fb"},"vehicle_type_id":"4","last_reported":1730538547,"current_range_meters":27600,"station_id":"ce4bh392rcd13ifvqdm0","pricing_plan_id":"cebpf4jnsgd1na2vs0mg"},{"bike_id":"18402065-9e87-476b-95ad-30853de181a0","system_id":"levelo_inurba_marseille","lat":43.32457,"lon":5.4555,"is_reserved":false,"is_disabled":false,"rental_uris":{"android":"levelo://app?vid=18402065-9e87-476b-95ad-30853de181a0","ios":"levelo://app?vid=18402065-9e87-476b-95ad-30853de181a0"},"vehicle_type_id":"4","last_reported":1730538547,"current_range_meters":8400,"station_id":"","pricing_plan_id":"cebpf4jnsgd1na2vs0mg"},{"bike_id":"711fc037-1485-48d1-a756-6d4246ae9cd4","system_id":"levelo_inurba_marseille","lat":43.24651,"lon":5.38901,"is_reserved":false,"is_disabled":false,"rental_uris":{"android":"levelo://app?vid=711fc037-1485-48d1-a756-6d4246ae9cd4","ios":"levelo://app?vid=711fc037-1485-48d1-a756-6d4246ae9cd4"},"vehicle_type_id":"4","last_reported":1730538547,"current_range_meters":3600,"station_id":"ce4bhg12rcd13ifvqf60","pricing_plan_id":"cebpf4jnsgd1na2vs0mg"},{"bike_id":"74ad3962-1184-40b4-bf9d-f8698b00948f","system_id":"levelo_inurba_marseille","lat":43.2293,"lon":5.35381,"is_reserved":false,"is_disabled":false,"rental_uris":{"android":"levelo://app?vid=74ad3962-1184-40b4-bf9d-f8698b00948f","ios":"levelo://app?vid=74ad3962-1184-40b4-bf9d-f8698b00948f"},"vehicle_type_id":"4","last_reported":1730538547,"current_range_meters":23200,"station_id":"cpo3532slgdg3j2ikp40","pricing_plan_id":"cebpf4jnsgd1na2vs0mg"},{"bike_id":"dff5bc59-e5df-4238-8f28-e24fbf4edb05","system_id":"levelo_inurba_marseille","lat":43.29975,"lon":5.38483,"is_reserved":false,"is_disabled":false,"rental_uris":{"android":"levelo://app?vid=dff5bc59-e5df-4238-8f28-e24fbf4edb05","ios":"levelo://app?vid=dff5bc59-e5df-4238-8f28-e24fbf4edb05"},"vehicle_type_id":"4","last_reported":1730538547,"current_range_meters":30000,"station_id":"ce4bgj92rcd13ifvqbd0","pricing_plan_id":"cebpf4jnsgd1na2vs0mg"},{"bike_id":"e7d2d590-173c-47e5-a164-68db5b6e9fe4","system_id":"levelo_inurba_marseille","lat":43.30529,"lon":5.36721,"is_reserved":false,"is_disabled":false,"rental_uris":{"android":"levelo://app?vid=e7d2d590-173c-47e5-a164-68db5b6e9fe4","ios":"levelo://app?vid=e7d2d590-173c-47e5-a164-68db5b6e9fe4"},"vehicle_type_id":"4","last_reported":1730538547,"current_range_meters":38800,"station_id":"ce4bgrp2rcd13ifvqc9g","pricing_plan_id":"cebpf4jnsgd1na2vs0mg"},{"bike_id":"196f9a90-e386-4eca-9e59-d2754fd6a95a","system_id":"levelo_inurba_marseille","lat":43.28347,"lon":5.38103,"is_reserved":false,"is_disabled":false,"rental_uris":{"android":"levelo://app?vid=196f9a90-e386-4eca-9e59-d2754fd6a95a","ios":"levelo://app?vid=196f9a90-e386-4eca-9e59-d2754fd6a95a"},"vehicle_type_id":"4","last_reported":1730538547,"current_range_meters":5600,"station_id":"ce4bh412rcd13ifvqdr0","pricing_plan_id":"cebpf4jnsgd1na2vs0mg"},{"bike_id":"460f8dbf-5c74-4538-b47c-2be4684064c4","system_id":"levelo_inurba_marseille","lat":43.24393,"lon":5.37054,"is_reserved":false,"is_disabled":false,"rental_uris":{"android":"levelo://app?vid=460f8dbf-5c74-4538-b47c-2be4684064c4","ios":"levelo://app?vid=460f8dbf-5c74-4538-b47c-2be4684064c4"},"vehicle_type_id":"4","last_reported":1730538547,"current_range_meters":39200,"station_id":"ce4bhhh2rcd13ifvqfk0","pricing_plan_id":"cebpf4jnsgd1na2vs0mg"},{"bike_id":"4fa38293-21db-4908-a002-6c1d0874c60f","system_id":"levelo_inurba_marseille","lat":43.30432,"lon":5.39751,"is_reserved":false,"is_disabled":false,"rental_uris":{"android":"levelo://app?vid=4fa38293-21db-4908-a002-6c1d0874c60f","ios":"levelo://app?vid=4fa38293-21db-4908-a002-6c1d0874c60f"},"vehicle_type_id":"4","last_reported":1730538547,"current_range_meters":37600,"station_id":"ce4bh092rcd13ifvqd20","pricing_plan_id":"cebpf4jnsgd1na2vs0mg"},{"bike_id":"ef30c907-9b95-4f0a-99f1-0cbd098879ad","system_id":"levelo_inurba_marseille","lat":43.28567,"lon":5.39517,"is_reserved":false,"is_disabled":false,"rental_uris":{"android":"levelo://app?vid=ef30c907-9b95-4f0a-99f1-0cbd098879ad","ios":"levelo://app?vid=ef30c907-9b95-4f0a-99f1-0cbd098879ad"},"vehicle_type_id":"4","last_reported":1730538547,"current_range_meters":37600,"station_id":"ce4bh292rcd13ifvqdg0","pricing_plan_id":"cebpf4jnsgd1na2vs0mg"},{"bike_id":"36b7683f-a5b1-4d0e-88bd-230c484ff507","system_id":"levelo_inurba_marseille","lat":43.28441,"lon":5.39184,"is_reserved":false,"is_disabled":false,"rental_uris":{"android":"levelo://app?vid=36b7683f-a5b1-4d0e-88bd-230c484ff507","ios":"levelo://app?vid=36b7683f-a5b1-4d0e-88bd-230c484ff507"},"vehicle_type_id":"4","last_reported":1730538547,"current_range_meters":38800,"station_id":"ce4bhoh2rcd13ifvqh5g","pricing_plan_id":"cebpf4jnsgd1na2vs0mg"},{"bike_id":"be9e047c-0762-412b-b7e4-d4063f0a402a","system_id":"levelo_inurba_marseille","lat":43.290058,"lon":5.356166,"is_reserved":false,"is_disabled":false,"rental_uris":{"android":"levelo://app?vid=be9e047c-0762-412b-b7e4-d4063f0a402a","ios":"levelo://app?vid=be9e047c-0762-412b-b7e4-d4063f0a402a"},"vehicle_type_id":"4","last_reported":1730538547,"current_range_meters":12400,"station_id":"ce4bhb92rcd13ifvqen0","pricing_plan_id":"cebpf4jnsgd1na2vs0mg"},{"bike_id":"dda6c3e3-b7b6-4995-95f6-b110d979a056","system_id":"levelo_inurba_marseille","lat":43.29969,"lon":5.37168,"is_reserved":false,"is_disabled":false,"rental_uris":{"android":"levelo://app?vid=dda6c3e3-b7b6-4995-95f6-b110d979a056","ios":"levelo://app?vid=dda6c3e3-b7b6-4995-95f6-b110d979a056"},"vehicle_type_id":"4","last_reported":1730538547,"current_range_meters":30800,"station_id":"ce4bgr92rcd13ifvqc7g","pricing_plan_id":"cebpf4jnsgd1na2vs0mg"},{"bike_id":"ed9cc6a3-f7cf-44f3-953b-9f03e6c52b9a","system_id":"levelo_inurba_marseille","lat":43.28564,"lon":5.39517,"is_reserved":false,"is_disabled":false,"rental_uris":{"android":"levelo://app?vid=ed9cc6a3-f7cf-44f3-953b-9f03e6c52b9a","ios":"levelo://app?vid=ed9cc6a3-f7cf-44f3-953b-9f03e6c52b9a"},"vehicle_type_id":"4","last_reported":1730538547,"current_range_meters":38400,"station_id":"ce4bh292rcd13ifvqdg0","pricing_plan_id":"cebpf4jnsgd1na2vs0mg"},{"bike_id":"c464d67e-1a73-40bd-b8bb-ad08b05c10b4","system_id":"levelo_inurba_marseille","lat":43.31278,"lon":5.40177,"is_reserved":false,"is_disabled":false,"rental_uris":{"android":"levelo://app?vid=c464d67e-1a73-40bd-b8bb-ad08b05c10b4","ios":"levelo://app?vid=c464d67e-1a73-40bd-b8bb-ad08b05c10b4"},"vehicle_type_id":"4","last_reported":1730538547,"current_range_meters":8400,"station_id":"ce4bh092rcd13ifvqd30","pricing_plan_id":"cebpf4jnsgd1na2vs0mg"},{"bike_id":"039a64d6-5e87-4141-81e3-2e1ffc1e11a5","system_id":"levelo_inurba_marseille","lat":43.27985,"lon":5.40026,"is_reserved":false,"is_disabled":false,"rental_uris":{"android":"levelo://app?vid=039a64d6-5e87-4141-81e3-2e1ffc1e11a5","ios":"levelo://app?vid=039a64d6-5e87-4141-81e3-2e1ffc1e11a5"},"vehicle_type_id":"4","last_reported":1730538547,"current_range_meters":38800,"station_id":"ce4bho92rcd13ifvqh4g","pricing_plan_id":"cebpf4jnsgd1na2vs0mg"},{"bike_id":"4be17eee-2bee-4bce-abc6-693cda9fbd8f","system_id":"levelo_inurba_marseille","lat":43.25005,"lon":5.38919,"is_reserved":false,"is_disabled":false,"rental_uris":{"android":"levelo://app?vid=4be17eee-2bee-4bce-abc6-693cda9fbd8f","ios":"levelo://app?vid=4be17eee-2bee-4bce-abc6-693cda9fbd8f"},"vehicle_type_id":"4","last_reported":1730538547,"current_range_meters":36400,"station_id":"ce4bhgp2rcd13ifvqfd0","pricing_plan_id":"cebpf4jnsgd1na2vs0mg"},{"bike_id":"21ff1bff-f285-482f-b9d5-5da60c9f151d","system_id":"levelo_inurba_marseille","lat":43.32481,"lon":5.3657,"is_reserved":false,"is_disabled":false,"rental_uris":{"android":"levelo://app?vid=21ff1bff-f285-482f-b9d5-5da60c9f151d","ios":"levelo://app?vid=21ff1bff-f285-482f-b9d5-5da60c9f151d"},"vehicle_type_id":"4","last_reported":1730538547,"current_range_meters":34000,"station_id":"ce4bhs12rcd13ifvqhvg","pricing_plan_id":"cebpf4jnsgd1na2vs0mg"},{"bike_id":"a9a6908f-e016-4463-a289-1b8cb17b4191","system_id":"levelo_inurba_marseille","lat":43.29277,"lon":5.36847,"is_reserved":false,"is_disabled":false,"rental_uris":{"android":"levelo://app?vid=a9a6908f-e016-4463-a289-1b8cb17b4191","ios":"levelo://app?vid=a9a6908f-e016-4463-a289-1b8cb17b4191"},"vehicle_type_id":"4","last_reported":1730538547,"current_range_meters":38800,"station_id":"ce4bhbp2rcd13ifvqesg","pricing_plan_id":"cebpf4jnsgd1na2vs0mg"},{"bike_id":"737bc67f-fd14-4a5d-ac27-77337e116799","system_id":"levelo_inurba_marseille","lat":43.246492,"lon":5.388904,"is_reserved":false,"is_disabled":false,"rental_uris":{"android":"levelo://app?vid=737bc67f-fd14-4a5d-ac27-77337e116799","ios":"levelo://app?vid=737bc67f-fd14-4a5d-ac27-77337e116799"},"vehicle_type_id":"4","last_reported":1730538547,"current_range_meters":36400,"station_id":"ce4bhg12rcd13ifvqf60","pricing_plan_id":"cebpf4jnsgd1na2vs0mg"},{"bike_id":"3de800fd-f5d1-48bd-870f-7142412472d7","system_id":"levelo_inurba_marseille","lat":43.29577,"lon":5.36744,"is_reserved":false,"is_disabled":false,"rental_uris":{"android":"levelo://app?vid=3de800fd-f5d1-48bd-870f-7142412472d7","ios":"levelo://app?vid=3de800fd-f5d1-48bd-870f-7142412472d7"},"vehicle_type_id":"4","last_reported":1730538547,"current_range_meters":27200,"station_id":"ce4bgph2rcd13ifvqc2g","pricing_plan_id":"cebpf4jnsgd1na2vs0mg"},{"bike_id":"b18f9999-3088-4ef8-9376-9cfecad69475","system_id":"levelo_inurba_marseille","lat":43.30783,"lon":5.37653,"is_reserved":false,"is_disabled":false,"rental_uris":{"android":"levelo://app?vid=b18f9999-3088-4ef8-9376-9cfecad69475","ios":"levelo://app?vid=b18f9999-3088-4ef8-9376-9cfecad69475"},"vehicle_type_id":"4","last_reported":1730538547,"current_range_meters":19600,"station_id":"ce4bgv92rcd13ifvqcq0","pricing_plan_id":"cebpf4jnsgd1na2vs0mg"},{"bike_id":"d61fa55a-d805-4f16-aadf-773cc1d5bef1","system_id":"levelo_inurba_marseille","lat":43.27315,"lon":5.39107,"is_reserved":false,"is_disabled":false,"rental_uris":{"android":"levelo://app?vid=d61fa55a-d805-4f16-aadf-773cc1d5bef1","ios":"levelo://app?vid=d61fa55a-d805-4f16-aadf-773cc1d5bef1"},"vehicle_type_id":"4","last_reported":1730538547,"current_range_meters":39200,"station_id":"ce4bhgp2rcd13ifvqfe0","pricing_plan_id":"cebpf4jnsgd1na2vs0mg"},{"bike_id":"89f9b078-381e-4f1b-943b-461fcea88c01","system_id":"levelo_inurba_marseille","lat":43.28722,"lon":5.39995,"is_reserved":false,"is_disabled":false,"rental_uris":{"android":"levelo://app?vid=89f9b078-381e-4f1b-943b-461fcea88c01","ios":"levelo://app?vid=89f9b078-381e-4f1b-943b-461fcea88c01"},"vehicle_type_id":"4","last_reported":1730538547,"current_range_meters":38000,"station_id":"ce4bho92rcd13ifvqh3g","pricing_plan_id":"cebpf4jnsgd1na2vs0mg"},{"bike_id":"8096177b-5481-43c4-9ad0-8378e8bbb67c","system_id":"levelo_inurba_marseille","lat":43.26544,"lon":5.37291,"is_reserved":false,"is_disabled":false,"rental_uris":{"android":"levelo://app?vid=8096177b-5481-43c4-9ad0-8378e8bbb67c","ios":"levelo://app?vid=8096177b-5481-43c4-9ad0-8378e8bbb67c"},"vehicle_type_id":"4","last_reported":1730538547,"current_range_meters":38400,"station_id":"ce4bhg12rcd13ifvqf70","pricing_plan_id":"cebpf4jnsgd1na2vs0mg"},{"bike_id":"3e774943-d4aa-471b-a041-87e0abbf5d55","system_id":"levelo_inurba_marseille","lat":43.27182,"lon":5.40987,"is_reserved":false,"is_disabled":false,"rental_uris":{"android":"levelo://app?vid=3e774943-d4aa-471b-a041-87e0abbf5d55","ios":"levelo://app?vid=3e774943-d4aa-471b-a041-87e0abbf5d55"},"vehicle_type_id":"4","last_reported":1730538547,"current_range_meters":9600,"station_id":"ce4bhl12rcd13ifvqgf0","pricing_plan_id":"cebpf4jnsgd1na2vs0mg"},{"bike_id":"ef10497a-439b-4c81-9e9b-6c7dcb7e5450","system_id":"levelo_inurba_marseille","lat":43.28706,"lon":5.3999,"is_reserved":false,"is_disabled":false,"rental_uris":{"android":"levelo://app?vid=ef10497a-439b-4c81-9e9b-6c7dcb7e5450","ios":"levelo://app?vid=ef10497a-439b-4c81-9e9b-6c7dcb7e5450"},"vehicle_type_id":"4","last_reported":1730538547,"current_range_meters":36800,"station_id":"ce4bho92rcd13ifvqh3g","pricing_plan_id":"cebpf4jnsgd1na2vs0mg"},{"bike_id":"fcc7a8c3-cb80-40e7-ba5f-c133f0182200","system_id":"levelo_inurba_marseille","lat":43.2738,"lon":5.36261,"is_reserved":false,"is_disabled":false,"rental_uris":{"android":"levelo://app?vid=fcc7a8c3-cb80-40e7-ba5f-c133f0182200","ios":"levelo://app?vid=fcc7a8c3-cb80-40e7-ba5f-c133f0182200"},"vehicle_type_id":"4","last_reported":1730538547,"current_range_meters":36800,"station_id":"ce4bhbh2rcd13ifvqeo0","pricing_plan_id":"cebpf4jnsgd1na2vs0mg"},{"bike_id":"ad3e9952-3f50-44d8-a74e-6763bc2ff022","system_id":"levelo_inurba_marseille","lat":43.26213,"lon":5.37441,"is_reserved":false,"is_disabled":false,"rental_uris":{"android":"levelo://app?vid=ad3e9952-3f50-44d8-a74e-6763bc2ff022","ios":"levelo://app?vid=ad3e9952-3f50-44d8-a74e-6763bc2ff022"},"vehicle_type_id":"4","last_reported":1730538547,"current_range_meters":32800,"station_id":"ce4bhgp2rcd13ifvqfc0","pricing_plan_id":"cebpf4jnsgd1na2vs0mg"},{"bike_id":"9c510165-3fd2-45d1-85c8-68b221c6f474","system_id":"levelo_inurba_marseille","lat":43.23951,"lon":5.36663,"is_reserved":false,"is_disabled":false,"rental_uris":{"android":"levelo://app?vid=9c510165-3fd2-45d1-85c8-68b221c6f474","ios":"levelo://app?vid=9c510165-3fd2-45d1-85c8-68b221c6f474"},"vehicle_type_id":"4","last_reported":1730538547,"current_range_meters":40000,"station_id":"ce4bhi12rcd13ifvqfp0","pricing_plan_id":"cebpf4jnsgd1na2vs0mg"},{"bike_id":"1f02438c-5d22-4334-9c88-5ddf05045bbc","system_id":"levelo_inurba_marseille","lat":43.2957,"lon":5.37513,"is_reserved":false,"is_disabled":false,"rental_uris":{"android":"levelo://app?vid=1f02438c-5d22-4334-9c88-5ddf05045bbc","ios":"levelo://app?vid=1f02438c-5d22-4334-9c88-5ddf05045bbc"},"vehicle_type_id":"4","last_reported":1730538547,"current_range_meters":37600,"station_id":"ce4bgh92rcd13ifvqb50","pricing_plan_id":"cebpf4jnsgd1na2vs0mg"},{"bike_id":"119fdf17-649d-41bd-9cf5-f2a0ecae2428","system_id":"levelo_inurba_marseille","lat":43.25726,"lon":5.41103,"is_reserved":false,"is_disabled":false,"rental_uris":{"android":"levelo://app?vid=119fdf17-649d-41bd-9cf5-f2a0ecae2428","ios":"levelo://app?vid=119fdf17-649d-41bd-9cf5-f2a0ecae2428"},"vehicle_type_id":"4","last_reported":1730538547,"current_range_meters":8400,"station_id":"ce4bhkp2rcd13ifvqgd0","pricing_plan_id":"cebpf4jnsgd1na2vs0mg"},{"bike_id":"4aca9276-a75c-423e-b263-5d8176dc7d7b","system_id":"levelo_inurba_marseille","lat":43.30929,"lon":5.40148,"is_reserved":false,"is_disabled":false,"rental_uris":{"android":"levelo://app?vid=4aca9276-a75c-423e-b263-5d8176dc7d7b","ios":"levelo://app?vid=4aca9276-a75c-423e-b263-5d8176dc7d7b"},"vehicle_type_id":"4","last_reported":1730538547,"current_range_meters":12400,"station_id":"ce4bgvp2rcd13ifvqct0","pricing_plan_id":"cebpf4jnsgd1na2vs0mg"},{"bike_id":"b2b9258c-b097-4dc5-8960-f8e623787420","system_id":"levelo_inurba_marseille","lat":43.30088,"lon":5.39076,"is_reserved":false,"is_disabled":false,"rental_uris":{"android":"levelo://app?vid=b2b9258c-b097-4dc5-8960-f8e623787420","ios":"levelo://app?vid=b2b9258c-b097-4dc5-8960-f8e623787420"},"vehicle_type_id":"4","last_reported":1730538547,"current_range_meters":18000,"station_id":"ce4bh192rcd13ifvqdb0","pricing_plan_id":"cebpf4jnsgd1na2vs0mg"},{"bike_id":"8c67d340-801d-46e5-b910-2f8aff3ff078","system_id":"levelo_inurba_marseille","lat":43.33339,"lon":5.37054,"is_reserved":false,"is_disabled":false,"rental_uris":{"android":"levelo://app?vid=8c67d340-801d-46e5-b910-2f8aff3ff078","ios":"levelo://app?vid=8c67d340-801d-46e5-b910-2f8aff3ff078"},"vehicle_type_id":"4","last_reported":1730538547,"current_range_meters":10800,"station_id":"","pricing_plan_id":"cebpf4jnsgd1na2vs0mg"},{"bike_id":"83356032-baeb-401a-bdff-8adddb83ed12","system_id":"levelo_inurba_marseille","lat":43.23193,"lon":5.35548,"is_reserved":false,"is_disabled":false,"rental_uris":{"android":"levelo://app?vid=83356032-baeb-401a-bdff-8adddb83ed12","ios":"levelo://app?vid=83356032-baeb-401a-bdff-8adddb83ed12"},"vehicle_type_id":"4","last_reported":1730538547,"current_range_meters":37600,"station_id":"ce4bhu92rcd13ifvqi70","pricing_plan_id":"cebpf4jnsgd1na2vs0mg"},{"bike_id":"7a8cd18a-3a1c-4d11-b74b-be3707d01020","system_id":"levelo_inurba_marseille","lat":43.26188,"lon":5.37451,"is_reserved":false,"is_disabled":false,"rental_uris":{"android":"levelo://app?vid=7a8cd18a-3a1c-4d11-b74b-be3707d01020","ios":"levelo://app?vid=7a8cd18a-3a1c-4d11-b74b-be3707d01020"},"vehicle_type_id":"4","last_reported":1730538547,"current_range_meters":9600,"station_id":"ce4bhgp2rcd13ifvqfc0","pricing_plan_id":"cebpf4jnsgd1na2vs0mg"},{"bike_id":"af963c11-4218-4474-b8e9-bbb749cadb90","system_id":"levelo_inurba_marseille","lat":43.302118,"lon":5.394575,"is_reserved":false,"is_disabled":false,"rental_uris":{"android":"levelo://app?vid=af963c11-4218-4474-b8e9-bbb749cadb90","ios":"levelo://app?vid=af963c11-4218-4474-b8e9-bbb749cadb90"},"vehicle_type_id":"4","last_reported":1730538547,"current_range_meters":19200,"station_id":"ce4bh0p2rcd13ifvqd70","pricing_plan_id":"cebpf4jnsgd1na2vs0mg"},{"bike_id":"9721b847-0fda-4cfc-aa25-024f3816fa88","system_id":"levelo_inurba_marseille","lat":43.29291,"lon":5.37461,"is_reserved":false,"is_disabled":false,"rental_uris":{"android":"levelo://app?vid=9721b847-0fda-4cfc-aa25-024f3816fa88","ios":"levelo://app?vid=9721b847-0fda-4cfc-aa25-024f3816fa88"},"vehicle_type_id":"4","last_reported":1730538547,"current_range_meters":19200,"station_id":"ce4bgi12rcd13ifvqb70","pricing_plan_id":"cebpf4jnsgd1na2vs0mg"},{"bike_id":"df63b9c4-e15c-4263-a5c8-6ddf8c81a210","system_id":"levelo_inurba_marseille","lat":43.26052,"lon":5.39401,"is_reserved":false,"is_disabled":false,"rental_uris":{"android":"levelo://app?vid=df63b9c4-e15c-4263-a5c8-6ddf8c81a210","ios":"levelo://app?vid=df63b9c4-e15c-4263-a5c8-6ddf8c81a210"},"vehicle_type_id":"4","last_reported":1730538547,"current_range_meters":40000,"station_id":"ce4bhh92rcd13ifvqfj0","pricing_plan_id":"cebpf4jnsgd1na2vs0mg"},{"bike_id":"69a0d18e-0381-4102-9fad-3f8c57fc1228","system_id":"levelo_inurba_marseille","lat":43.23069,"lon":5.35492,"is_reserved":false,"is_disabled":false,"rental_uris":{"android":"levelo://app?vid=69a0d18e-0381-4102-9fad-3f8c57fc1228","ios":"levelo://app?vid=69a0d18e-0381-4102-9fad-3f8c57fc1228"},"vehicle_type_id":"4","last_reported":1730538547,"current_range_meters":37600,"station_id":"cpo3342slgdg3j2ifvpg","pricing_plan_id":"cebpf4jnsgd1na2vs0mg"},{"bike_id":"07d0df56-f8bc-46e6-871c-8e071fb175e5","system_id":"levelo_inurba_marseille","lat":43.23196,"lon":5.35552,"is_reserved":false,"is_disabled":false,"rental_uris":{"android":"levelo://app?vid=07d0df56-f8bc-46e6-871c-8e071fb175e5","ios":"levelo://app?vid=07d0df56-f8bc-46e6-871c-8e071fb175e5"},"vehicle_type_id":"4","last_reported":1730538547,"current_range_meters":37600,"station_id":"ce4bhu92rcd13ifvqi70","pricing_plan_id":"cebpf4jnsgd1na2vs0mg"},{"bike_id":"e32fea97-46a8-4e52-b5ac-e00ac11acbc2","system_id":"levelo_inurba_marseille","lat":43.27318,"lon":5.39088,"is_reserved":false,"is_disabled":false,"rental_uris":{"android":"levelo://app?vid=e32fea97-46a8-4e52-b5ac-e00ac11acbc2","ios":"levelo://app?vid=e32fea97-46a8-4e52-b5ac-e00ac11acbc2"},"vehicle_type_id":"4","last_reported":1730538547,"current_range_meters":37600,"station_id":"ce4bhgp2rcd13ifvqfe0","pricing_plan_id":"cebpf4jnsgd1na2vs0mg"},{"bike_id":"19e6008c-0743-45ac-b4bf-fc683ef0e14c","system_id":"levelo_inurba_marseille","lat":43.25721,"lon":5.41112,"is_reserved":false,"is_disabled":false,"rental_uris":{"android":"levelo://app?vid=19e6008c-0743-45ac-b4bf-fc683ef0e14c","ios":"levelo://app?vid=19e6008c-0743-45ac-b4bf-fc683ef0e14c"},"vehicle_type_id":"4","last_reported":1730538547,"current_range_meters":26800,"station_id":"ce4bhkp2rcd13ifvqgd0","pricing_plan_id":"cebpf4jnsgd1na2vs0mg"},{"bike_id":"ab8829f0-c8a7-44a4-9d60-322dda417b22","system_id":"levelo_inurba_marseille","lat":43.30421,"lon":5.39763,"is_reserved":false,"is_disabled":false,"rental_uris":{"android":"levelo://app?vid=ab8829f0-c8a7-44a4-9d60-322dda417b22","ios":"levelo://app?vid=ab8829f0-c8a7-44a4-9d60-322dda417b22"},"vehicle_type_id":"4","last_reported":1730538547,"current_range_meters":36800,"station_id":"ce4bh092rcd13ifvqd20","pricing_plan_id":"cebpf4jnsgd1na2vs0mg"},{"bike_id":"55b4d402-cd88-41c4-94f3-0c54ee939bb0","system_id":"levelo_inurba_marseille","lat":43.25866,"lon":5.399,"is_reserved":false,"is_disabled":false,"rental_uris":{"android":"levelo://app?vid=55b4d402-cd88-41c4-94f3-0c54ee939bb0","ios":"levelo://app?vid=55b4d402-cd88-41c4-94f3-0c54ee939bb0"},"vehicle_type_id":"4","last_reported":1730538547,"current_range_meters":19200,"station_id":"ce4bhl92rcd13ifvqghg","pricing_plan_id":"cebpf4jnsgd1na2vs0mg"},{"bike_id":"18ef1713-105e-4c7a-b926-0ff4a7d9bee9","system_id":"levelo_inurba_marseille","lat":43.2862,"lon":5.35109,"is_reserved":false,"is_disabled":false,"rental_uris":{"android":"levelo://app?vid=18ef1713-105e-4c7a-b926-0ff4a7d9bee9","ios":"levelo://app?vid=18ef1713-105e-4c7a-b926-0ff4a7d9bee9"},"vehicle_type_id":"4","last_reported":1730538547,"current_range_meters":22400,"station_id":"ce4bhch2rcd13ifvqeug","pricing_plan_id":"cebpf4jnsgd1na2vs0mg"},{"bike_id":"290e79c1-cfed-4bca-aaec-0b0fedfbaa73","system_id":"levelo_inurba_marseille","lat":43.296,"lon":5.38097,"is_reserved":false,"is_disabled":false,"rental_uris":{"android":"levelo://app?vid=290e79c1-cfed-4bca-aaec-0b0fedfbaa73","ios":"levelo://app?vid=290e79c1-cfed-4bca-aaec-0b0fedfbaa73"},"vehicle_type_id":"4","last_reported":1730538547,"current_range_meters":32800,"station_id":"ce4bgl12rcd13ifvqbo0","pricing_plan_id":"cebpf4jnsgd1na2vs0mg"},{"bike_id":"c14abbb4-4d06-46c3-8367-d2701001bce7","system_id":"levelo_inurba_marseille","lat":43.30309,"lon":5.36911,"is_reserved":false,"is_disabled":false,"rental_uris":{"android":"levelo://app?vid=c14abbb4-4d06-46c3-8367-d2701001bce7","ios":"levelo://app?vid=c14abbb4-4d06-46c3-8367-d2701001bce7"},"vehicle_type_id":"4","last_reported":1730538547,"current_range_meters":31200,"station_id":"ce4bgqh2rcd13ifvqc5g","pricing_plan_id":"cebpf4jnsgd1na2vs0mg"},{"bike_id":"111268d9-fc2e-4ec0-bcc5-29d5d31449cd","system_id":"levelo_inurba_marseille","lat":43.28845,"lon":5.39319,"is_reserved":false,"is_disabled":false,"rental_uris":{"android":"levelo://app?vid=111268d9-fc2e-4ec0-bcc5-29d5d31449cd","ios":"levelo://app?vid=111268d9-fc2e-4ec0-bcc5-29d5d31449cd"},"vehicle_type_id":"4","last_reported":1730538547,"current_range_meters":38800,"station_id":"ce4bh2p2rcd13ifvqdi0","pricing_plan_id":"cebpf4jnsgd1na2vs0mg"},{"bike_id":"11c750a2-d7b5-480d-8e51-6aba667e5991","system_id":"levelo_inurba_marseille","lat":43.31724,"lon":5.42394,"is_reserved":false,"is_disabled":false,"rental_uris":{"android":"levelo://app?vid=11c750a2-d7b5-480d-8e51-6aba667e5991","ios":"levelo://app?vid=11c750a2-d7b5-480d-8e51-6aba667e5991"},"vehicle_type_id":"4","last_reported":1730538547,"current_range_meters":38800,"station_id":"ce4bhp92rcd13ifvqhbg","pricing_plan_id":"cebpf4jnsgd1na2vs0mg"},{"bike_id":"4b6fbce8-98a2-47ce-a902-cae64b02b309","system_id":"levelo_inurba_marseille","lat":43.30949,"lon":5.39021,"is_reserved":false,"is_disabled":false,"rental_uris":{"android":"levelo://app?vid=4b6fbce8-98a2-47ce-a902-cae64b02b309","ios":"levelo://app?vid=4b6fbce8-98a2-47ce-a902-cae64b02b309"},"vehicle_type_id":"4","last_reported":1730538547,"current_range_meters":34000,"station_id":"ce4bgup2rcd13ifvqco0","pricing_plan_id":"cebpf4jnsgd1na2vs0mg"},{"bike_id":"36d9ede7-87fb-4371-9071-4e62e682c92d","system_id":"levelo_inurba_marseille","lat":43.296173,"lon":5.371661,"is_reserved":false,"is_disabled":false,"rental_uris":{"android":"levelo://app?vid=36d9ede7-87fb-4371-9071-4e62e682c92d","ios":"levelo://app?vid=36d9ede7-87fb-4371-9071-4e62e682c92d"},"vehicle_type_id":"4","last_reported":1730538547,"current_range_meters":38400,"station_id":"ce4bgnh2rcd13ifvqc0g","pricing_plan_id":"cebpf4jnsgd1na2vs0mg"},{"bike_id":"43608341-edfe-4dda-8551-eed96cf315f6","system_id":"levelo_inurba_marseille","lat":43.29,"lon":5.37472,"is_reserved":false,"is_disabled":false,"rental_uris":{"android":"levelo://app?vid=43608341-edfe-4dda-8551-eed96cf315f6","ios":"levelo://app?vid=43608341-edfe-4dda-8551-eed96cf315f6"},"vehicle_type_id":"4","last_reported":1730538547,"current_range_meters":36400,"station_id":"ce4bhbp2rcd13ifvqerg","pricing_plan_id":"cebpf4jnsgd1na2vs0mg"},{"bike_id":"e316822c-24ef-41b5-8cad-fd80a2dd02f9","system_id":"levelo_inurba_marseille","lat":43.31089,"lon":5.38359,"is_reserved":false,"is_disabled":false,"rental_uris":{"android":"levelo://app?vid=e316822c-24ef-41b5-8cad-fd80a2dd02f9","ios":"levelo://app?vid=e316822c-24ef-41b5-8cad-fd80a2dd02f9"},"vehicle_type_id":"4","last_reported":1730538547,"current_range_meters":23200,"station_id":"ce4bgv92rcd13ifvqcr0","pricing_plan_id":"cebpf4jnsgd1na2vs0mg"},{"bike_id":"10ff0e75-6443-4419-b59b-5c0fc7db1fb9","system_id":"levelo_inurba_marseille","lat":43.30529,"lon":5.36707,"is_reserved":false,"is_disabled":false,"rental_uris":{"android":"levelo://app?vid=10ff0e75-6443-4419-b59b-5c0fc7db1fb9","ios":"levelo://app?vid=10ff0e75-6443-4419-b59b-5c0fc7db1fb9"},"vehicle_type_id":"4","last_reported":1730538547,"current_range_meters":38800,"station_id":"ce4bgrp2rcd13ifvqc9g","pricing_plan_id":"cebpf4jnsgd1na2vs0mg"},{"bike_id":"536b3b96-b168-48a9-900f-a9bfebbd46ad","system_id":"levelo_inurba_marseille","lat":43.29194,"lon":5.358,"is_reserved":false,"is_disabled":false,"rental_uris":{"android":"levelo://app?vid=536b3b96-b168-48a9-900f-a9bfebbd46ad","ios":"levelo://app?vid=536b3b96-b168-48a9-900f-a9bfebbd46ad"},"vehicle_type_id":"4","last_reported":1730538547,"current_range_meters":37600,"station_id":"ce4bhb12rcd13ifvqel0","pricing_plan_id":"cebpf4jnsgd1na2vs0mg"},{"bike_id":"367151e3-d9d1-496e-afc3-1d3ad14f98c6","system_id":"levelo_inurba_marseille","lat":43.3236,"lon":5.38894,"is_reserved":false,"is_disabled":false,"rental_uris":{"android":"levelo://app?vid=367151e3-d9d1-496e-afc3-1d3ad14f98c6","ios":"levelo://app?vid=367151e3-d9d1-496e-afc3-1d3ad14f98c6"},"vehicle_type_id":"4","last_reported":1730538547,"current_range_meters":33200,"station_id":"ce4bhqp2rcd13ifvqhog","pricing_plan_id":"cebpf4jnsgd1na2vs0mg"},{"bike_id":"ffa47a9c-9d30-4413-b7a7-fb369d45a50e","system_id":"levelo_inurba_marseille","lat":43.337444,"lon":5.374475,"is_reserved":false,"is_disabled":false,"rental_uris":{"android":"levelo://app?vid=ffa47a9c-9d30-4413-b7a7-fb369d45a50e","ios":"levelo://app?vid=ffa47a9c-9d30-4413-b7a7-fb369d45a50e"},"vehicle_type_id":"4","last_reported":1730538547,"current_range_meters":38000,"station_id":"","pricing_plan_id":"cebpf4jnsgd1na2vs0mg"},{"bike_id":"5190bd0b-9650-4572-8bc0-ff78064d712a","system_id":"levelo_inurba_marseille","lat":43.28567,"lon":5.39502,"is_reserved":false,"is_disabled":false,"rental_uris":{"android":"levelo://app?vid=5190bd0b-9650-4572-8bc0-ff78064d712a","ios":"levelo://app?vid=5190bd0b-9650-4572-8bc0-ff78064d712a"},"vehicle_type_id":"4","last_reported":1730538547,"current_range_meters":31200,"station_id":"ce4bh292rcd13ifvqdg0","pricing_plan_id":"cebpf4jnsgd1na2vs0mg"},{"bike_id":"489deead-2c79-4bdc-a0ac-07d26068957f","system_id":"levelo_inurba_marseille","lat":43.29784,"lon":5.39364,"is_reserved":false,"is_disabled":false,"rental_uris":{"android":"levelo://app?vid=489deead-2c79-4bdc-a0ac-07d26068957f","ios":"levelo://app?vid=489deead-2c79-4bdc-a0ac-07d26068957f"},"vehicle_type_id":"4","last_reported":1730538547,"current_range_meters":17600,"station_id":"ce4bgs92rcd13ifvqcc0","pricing_plan_id":"cebpf4jnsgd1na2vs0mg"},{"bike_id":"daf144e9-19b3-4722-9ae1-2fdb90fcc256","system_id":"levelo_inurba_marseille","lat":43.30937,"lon":5.40153,"is_reserved":false,"is_disabled":false,"rental_uris":{"android":"levelo://app?vid=daf144e9-19b3-4722-9ae1-2fdb90fcc256","ios":"levelo://app?vid=daf144e9-19b3-4722-9ae1-2fdb90fcc256"},"vehicle_type_id":"4","last_reported":1730538547,"current_range_meters":7200,"station_id":"ce4bgvp2rcd13ifvqct0","pricing_plan_id":"cebpf4jnsgd1na2vs0mg"},{"bike_id":"dfe320a2-29f8-4816-98fb-5f3fe9260eaf","system_id":"levelo_inurba_marseille","lat":43.28153,"lon":5.42646,"is_reserved":false,"is_disabled":false,"rental_uris":{"android":"levelo://app?vid=dfe320a2-29f8-4816-98fb-5f3fe9260eaf","ios":"levelo://app?vid=dfe320a2-29f8-4816-98fb-5f3fe9260eaf"},"vehicle_type_id":"4","last_reported":1730538547,"current_range_meters":26800,"station_id":"ce4bhnh2rcd13ifvqgug","pricing_plan_id":"cebpf4jnsgd1na2vs0mg"},{"bike_id":"184be8ec-fbf1-42f9-9d0b-336d167638cd","system_id":"levelo_inurba_marseille","lat":43.27809,"lon":5.40714,"is_reserved":false,"is_disabled":false,"rental_uris":{"android":"levelo://app?vid=184be8ec-fbf1-42f9-9d0b-336d167638cd","ios":"levelo://app?vid=184be8ec-fbf1-42f9-9d0b-336d167638cd"},"vehicle_type_id":"4","last_reported":1730538547,"current_range_meters":36800,"station_id":"ce4bhnh2rcd13ifvqgtg","pricing_plan_id":"cebpf4jnsgd1na2vs0mg"},{"bike_id":"31438b49-3f30-4c70-b7cc-3940fa88b5ae","system_id":"levelo_inurba_marseille","lat":43.30156,"lon":5.38082,"is_reserved":false,"is_disabled":false,"rental_uris":{"android":"levelo://app?vid=31438b49-3f30-4c70-b7cc-3940fa88b5ae","ios":"levelo://app?vid=31438b49-3f30-4c70-b7cc-3940fa88b5ae"},"vehicle_type_id":"4","last_reported":1730538547,"current_range_meters":10800,"station_id":"ce4bgjp2rcd13ifvqbh0","pricing_plan_id":"cebpf4jnsgd1na2vs0mg"},{"bike_id":"e380af21-a9ce-4fa0-8ec7-026ab3ce71e8","system_id":"levelo_inurba_marseille","lat":43.30433,"lon":5.39755,"is_reserved":false,"is_disabled":false,"rental_uris":{"android":"levelo://app?vid=e380af21-a9ce-4fa0-8ec7-026ab3ce71e8","ios":"levelo://app?vid=e380af21-a9ce-4fa0-8ec7-026ab3ce71e8"},"vehicle_type_id":"4","last_reported":1730538547,"current_range_meters":36800,"station_id":"ce4bh092rcd13ifvqd20","pricing_plan_id":"cebpf4jnsgd1na2vs0mg"},{"bike_id":"f8fe032d-85f5-447e-a12f-4e0a63195622","system_id":"levelo_inurba_marseille","lat":43.2655,"lon":5.39017,"is_reserved":false,"is_disabled":false,"rental_uris":{"android":"levelo://app?vid=f8fe032d-85f5-447e-a12f-4e0a63195622","ios":"levelo://app?vid=f8fe032d-85f5-447e-a12f-4e0a63195622"},"vehicle_type_id":"4","last_reported":1730538547,"current_range_meters":38800,"station_id":"ce4bhe12rcd13ifvqf30","pricing_plan_id":"cebpf4jnsgd1na2vs0mg"},{"bike_id":"c26efe84-277b-4c48-9add-8103ae31a3f3","system_id":"levelo_inurba_marseille","lat":43.2439,"lon":5.37062,"is_reserved":false,"is_disabled":false,"rental_uris":{"android":"levelo://app?vid=c26efe84-277b-4c48-9add-8103ae31a3f3","ios":"levelo://app?vid=c26efe84-277b-4c48-9add-8103ae31a3f3"},"vehicle_type_id":"4","last_reported":1730538547,"current_range_meters":2000,"station_id":"ce4bhhh2rcd13ifvqfk0","pricing_plan_id":"cebpf4jnsgd1na2vs0mg"},{"bike_id":"13e33eb4-4047-42db-bde6-bdaecc8f2346","system_id":"levelo_inurba_marseille","lat":43.2952,"lon":5.39406,"is_reserved":false,"is_disabled":false,"rental_uris":{"android":"levelo://app?vid=13e33eb4-4047-42db-bde6-bdaecc8f2346","ios":"levelo://app?vid=13e33eb4-4047-42db-bde6-bdaecc8f2346"},"vehicle_type_id":"4","last_reported":1730538547,"current_range_meters":32400,"station_id":"ce4bh292rcd13ifvqdf0","pricing_plan_id":"cebpf4jnsgd1na2vs0mg"},{"bike_id":"51005842-8be0-42e0-8f64-b3c183e5b4a1","system_id":"levelo_inurba_marseille","lat":43.22928,"lon":5.35375,"is_reserved":false,"is_disabled":false,"rental_uris":{"android":"levelo://app?vid=51005842-8be0-42e0-8f64-b3c183e5b4a1","ios":"levelo://app?vid=51005842-8be0-42e0-8f64-b3c183e5b4a1"},"vehicle_type_id":"4","last_reported":1730538547,"current_range_meters":17600,"station_id":"cpo3532slgdg3j2ikp40","pricing_plan_id":"cebpf4jnsgd1na2vs0mg"},{"bike_id":"381ec629-1aa8-4c1e-aa5f-80c357699a57","system_id":"levelo_inurba_marseille","lat":43.30085,"lon":5.39089,"is_reserved":false,"is_disabled":false,"rental_uris":{"android":"levelo://app?vid=381ec629-1aa8-4c1e-aa5f-80c357699a57","ios":"levelo://app?vid=381ec629-1aa8-4c1e-aa5f-80c357699a57"},"vehicle_type_id":"4","last_reported":1730538547,"current_range_meters":26800,"station_id":"ce4bh192rcd13ifvqdb0","pricing_plan_id":"cebpf4jnsgd1na2vs0mg"},{"bike_id":"5c27b960-6461-4f9d-887b-b61a1549abaa","system_id":"levelo_inurba_marseille","lat":43.25121,"lon":5.40317,"is_reserved":false,"is_disabled":false,"rental_uris":{"android":"levelo://app?vid=5c27b960-6461-4f9d-887b-b61a1549abaa","ios":"levelo://app?vid=5c27b960-6461-4f9d-887b-b61a1549abaa"},"vehicle_type_id":"4","last_reported":1730538547,"current_range_meters":4000,"station_id":"ce4bhlh2rcd13ifvqgig","pricing_plan_id":"cebpf4jnsgd1na2vs0mg"},{"bike_id":"2875d132-b86c-4530-91db-97c0e35f7115","system_id":"levelo_inurba_marseille","lat":43.23185,"lon":5.39987,"is_reserved":false,"is_disabled":false,"rental_uris":{"android":"levelo://app?vid=2875d132-b86c-4530-91db-97c0e35f7115","ios":"levelo://app?vid=2875d132-b86c-4530-91db-97c0e35f7115"},"vehicle_type_id":"4","last_reported":1730538547,"current_range_meters":39200,"station_id":"ce4bhn12rcd13ifvqgqg","pricing_plan_id":"cebpf4jnsgd1na2vs0mg"},{"bike_id":"d2060e85-22b1-4e7c-bb98-594e7acf358f","system_id":"levelo_inurba_marseille","lat":43.29034,"lon":5.3997,"is_reserved":false,"is_disabled":false,"rental_uris":{"android":"levelo://app?vid=d2060e85-22b1-4e7c-bb98-594e7acf358f","ios":"levelo://app?vid=d2060e85-22b1-4e7c-bb98-594e7acf358f"},"vehicle_type_id":"4","last_reported":1730538547,"current_range_meters":18000,"station_id":"ce4bh392rcd13ifvqdm0","pricing_plan_id":"cebpf4jnsgd1na2vs0mg"},{"bike_id":"bd9da8da-0e62-42e0-b8e3-48974947ce73","system_id":"levelo_inurba_marseille","lat":43.27816,"lon":5.40712,"is_reserved":false,"is_disabled":false,"rental_uris":{"android":"levelo://app?vid=bd9da8da-0e62-42e0-b8e3-48974947ce73","ios":"levelo://app?vid=bd9da8da-0e62-42e0-b8e3-48974947ce73"},"vehicle_type_id":"4","last_reported":1730538547,"current_range_meters":37600,"station_id":"ce4bhnh2rcd13ifvqgtg","pricing_plan_id":"cebpf4jnsgd1na2vs0mg"},{"bike_id":"cbe00ea4-7f32-4f15-a6bf-0529ca93fc8f","system_id":"levelo_inurba_marseille","lat":43.265658,"lon":5.390057,"is_reserved":false,"is_disabled":false,"rental_uris":{"android":"levelo://app?vid=cbe00ea4-7f32-4f15-a6bf-0529ca93fc8f","ios":"levelo://app?vid=cbe00ea4-7f32-4f15-a6bf-0529ca93fc8f"},"vehicle_type_id":"4","last_reported":1730538547,"current_range_meters":38800,"station_id":"ce4bhe12rcd13ifvqf30","pricing_plan_id":"cebpf4jnsgd1na2vs0mg"},{"bike_id":"b27b6b18-d801-4b0b-a4e3-bc55bc4a9aed","system_id":"levelo_inurba_marseille","lat":43.2572,"lon":5.41115,"is_reserved":false,"is_disabled":false,"rental_uris":{"android":"levelo://app?vid=b27b6b18-d801-4b0b-a4e3-bc55bc4a9aed","ios":"levelo://app?vid=b27b6b18-d801-4b0b-a4e3-bc55bc4a9aed"},"vehicle_type_id":"4","last_reported":1730538547,"current_range_meters":38400,"station_id":"ce4bhkp2rcd13ifvqgd0","pricing_plan_id":"cebpf4jnsgd1na2vs0mg"},{"bike_id":"2421274d-2178-42be-9d7c-c04af1b9eefe","system_id":"levelo_inurba_marseille","lat":43.25004,"lon":5.38928,"is_reserved":false,"is_disabled":false,"rental_uris":{"android":"levelo://app?vid=2421274d-2178-42be-9d7c-c04af1b9eefe","ios":"levelo://app?vid=2421274d-2178-42be-9d7c-c04af1b9eefe"},"vehicle_type_id":"4","last_reported":1730538547,"current_range_meters":6000,"station_id":"ce4bhgp2rcd13ifvqfd0","pricing_plan_id":"cebpf4jnsgd1na2vs0mg"},{"bike_id":"f82cfb4f-c90d-4c29-b56c-0e4ee19bcf61","system_id":"levelo_inurba_marseille","lat":43.25114,"lon":5.40321,"is_reserved":false,"is_disabled":false,"rental_uris":{"android":"levelo://app?vid=f82cfb4f-c90d-4c29-b56c-0e4ee19bcf61","ios":"levelo://app?vid=f82cfb4f-c90d-4c29-b56c-0e4ee19bcf61"},"vehicle_type_id":"4","last_reported":1730538547,"current_range_meters":33200,"station_id":"ce4bhlh2rcd13ifvqgig","pricing_plan_id":"cebpf4jnsgd1na2vs0mg"},{"bike_id":"9dc03996-e494-461d-a2e6-0cceab572c73","system_id":"levelo_inurba_marseille","lat":43.30433,"lon":5.39752,"is_reserved":false,"is_disabled":false,"rental_uris":{"android":"levelo://app?vid=9dc03996-e494-461d-a2e6-0cceab572c73","ios":"levelo://app?vid=9dc03996-e494-461d-a2e6-0cceab572c73"},"vehicle_type_id":"4","last_reported":1730538547,"current_range_meters":38400,"station_id":"ce4bh092rcd13ifvqd20","pricing_plan_id":"cebpf4jnsgd1na2vs0mg"},{"bike_id":"639bb546-5a14-42d0-a97f-a7a60c11c0e2","system_id":"levelo_inurba_marseille","lat":43.30805,"lon":5.38143,"is_reserved":false,"is_disabled":false,"rental_uris":{"android":"levelo://app?vid=639bb546-5a14-42d0-a97f-a7a60c11c0e2","ios":"levelo://app?vid=639bb546-5a14-42d0-a97f-a7a60c11c0e2"},"vehicle_type_id":"4","last_reported":1730538547,"current_range_meters":37600,"station_id":"ce4bgt12rcd13ifvqce0","pricing_plan_id":"cebpf4jnsgd1na2vs0mg"},{"bike_id":"b5141bc9-9d88-4bb1-b22f-04de0c14c40d","system_id":"levelo_inurba_marseille","lat":43.29625,"lon":5.37173,"is_reserved":false,"is_disabled":false,"rental_uris":{"android":"levelo://app?vid=b5141bc9-9d88-4bb1-b22f-04de0c14c40d","ios":"levelo://app?vid=b5141bc9-9d88-4bb1-b22f-04de0c14c40d"},"vehicle_type_id":"4","last_reported":1730538547,"current_range_meters":38800,"station_id":"ce4bgnh2rcd13ifvqc0g","pricing_plan_id":"cebpf4jnsgd1na2vs0mg"},{"bike_id":"94279a57-03c0-47b7-abe3-7226e86fd3b0","system_id":"levelo_inurba_marseille","lat":43.2761,"lon":5.36113,"is_reserved":false,"is_disabled":false,"rental_uris":{"android":"levelo://app?vid=94279a57-03c0-47b7-abe3-7226e86fd3b0","ios":"levelo://app?vid=94279a57-03c0-47b7-abe3-7226e86fd3b0"},"vehicle_type_id":"4","last_reported":1730538547,"current_range_meters":20400,"station_id":"ce4bgj92rcd13ifvqbe0","pricing_plan_id":"cebpf4jnsgd1na2vs0mg"},{"bike_id":"d6968ef7-c114-4a3a-abc5-d63f92b41111","system_id":"levelo_inurba_marseille","lat":43.299737,"lon":5.384798,"is_reserved":false,"is_disabled":false,"rental_uris":{"android":"levelo://app?vid=d6968ef7-c114-4a3a-abc5-d63f92b41111","ios":"levelo://app?vid=d6968ef7-c114-4a3a-abc5-d63f92b41111"},"vehicle_type_id":"4","last_reported":1730538547,"current_range_meters":23200,"station_id":"ce4bhg12rcd13ifvqf60","pricing_plan_id":"cebpf4jnsgd1na2vs0mg"},{"bike_id":"5ba96efd-c7f6-4c98-a13a-ac0276d3d2f3","system_id":"levelo_inurba_marseille","lat":43.31682,"lon":5.37592,"is_reserved":false,"is_disabled":false,"rental_uris":{"android":"levelo://app?vid=5ba96efd-c7f6-4c98-a13a-ac0276d3d2f3","ios":"levelo://app?vid=5ba96efd-c7f6-4c98-a13a-ac0276d3d2f3"},"vehicle_type_id":"4","last_reported":1730538547,"current_range_meters":30800,"station_id":"","pricing_plan_id":"cebpf4jnsgd1na2vs0mg"},{"bike_id":"5ba8e5a8-09bf-412b-b182-000192a6d1f7","system_id":"levelo_inurba_marseille","lat":43.33023,"lon":5.39046,"is_reserved":false,"is_disabled":false,"rental_uris":{"android":"levelo://app?vid=5ba8e5a8-09bf-412b-b182-000192a6d1f7","ios":"levelo://app?vid=5ba8e5a8-09bf-412b-b182-000192a6d1f7"},"vehicle_type_id":"4","last_reported":1730538547,"current_range_meters":22800,"station_id":"ce4bhr92rcd13ifvqhrg","pricing_plan_id":"cebpf4jnsgd1na2vs0mg"},{"bike_id":"16b3fb65-f37b-4d13-a3ce-e47f10333d42","system_id":"levelo_inurba_marseille","lat":43.29616,"lon":5.37729,"is_reserved":false,"is_disabled":false,"rental_uris":{"android":"levelo://app?vid=16b3fb65-f37b-4d13-a3ce-e47f10333d42","ios":"levelo://app?vid=16b3fb65-f37b-4d13-a3ce-e47f10333d42"},"vehicle_type_id":"4","last_reported":1730538547,"current_range_meters":39200,"station_id":"ce4bgi92rcd13ifvqb90","pricing_plan_id":"cebpf4jnsgd1na2vs0mg"},{"bike_id":"56e38add-0f78-4341-b643-7b0849d3280d","system_id":"levelo_inurba_marseille","lat":43.22928,"lon":5.35376,"is_reserved":false,"is_disabled":false,"rental_uris":{"android":"levelo://app?vid=56e38add-0f78-4341-b643-7b0849d3280d","ios":"levelo://app?vid=56e38add-0f78-4341-b643-7b0849d3280d"},"vehicle_type_id":"4","last_reported":1730538547,"current_range_meters":17200,"station_id":"cpo3532slgdg3j2ikp40","pricing_plan_id":"cebpf4jnsgd1na2vs0mg"},{"bike_id":"57e9c9c3-2402-4987-9c1e-fefa68c11d56","system_id":"levelo_inurba_marseille","lat":43.27317,"lon":5.39092,"is_reserved":false,"is_disabled":false,"rental_uris":{"android":"levelo://app?vid=57e9c9c3-2402-4987-9c1e-fefa68c11d56","ios":"levelo://app?vid=57e9c9c3-2402-4987-9c1e-fefa68c11d56"},"vehicle_type_id":"4","last_reported":1730538547,"current_range_meters":36800,"station_id":"ce4bhgp2rcd13ifvqfe0","pricing_plan_id":"cebpf4jnsgd1na2vs0mg"},{"bike_id":"0eb329d0-d755-4bcc-a5c1-929d532e5555","system_id":"levelo_inurba_marseille","lat":43.28928,"lon":5.38396,"is_reserved":false,"is_disabled":false,"rental_uris":{"android":"levelo://app?vid=0eb329d0-d755-4bcc-a5c1-929d532e5555","ios":"levelo://app?vid=0eb329d0-d755-4bcc-a5c1-929d532e5555"},"vehicle_type_id":"4","last_reported":1730538547,"current_range_meters":36800,"station_id":"ce4bh612rcd13ifvqe6g","pricing_plan_id":"cebpf4jnsgd1na2vs0mg"},{"bike_id":"e8b43754-33a1-41a8-b735-7427e20c35c8","system_id":"levelo_inurba_marseille","lat":43.29583,"lon":5.3751,"is_reserved":false,"is_disabled":false,"rental_uris":{"android":"levelo://app?vid=e8b43754-33a1-41a8-b735-7427e20c35c8","ios":"levelo://app?vid=e8b43754-33a1-41a8-b735-7427e20c35c8"},"vehicle_type_id":"4","last_reported":1730538547,"current_range_meters":38800,"station_id":"ce4bgh92rcd13ifvqb50","pricing_plan_id":"cebpf4jnsgd1na2vs0mg"},{"bike_id":"a17289ad-b197-4e77-b642-2cb8d3a03a57","system_id":"levelo_inurba_marseille","lat":43.28485,"lon":5.384,"is_reserved":false,"is_disabled":false,"rental_uris":{"android":"levelo://app?vid=a17289ad-b197-4e77-b642-2cb8d3a03a57","ios":"levelo://app?vid=a17289ad-b197-4e77-b642-2cb8d3a03a57"},"vehicle_type_id":"4","last_reported":1730538547,"current_range_meters":36000,"station_id":"ce4bh512rcd13ifvqe3g","pricing_plan_id":"cebpf4jnsgd1na2vs0mg"},{"bike_id":"50ba03d9-a669-47fc-a282-92fb1fc39cca","system_id":"levelo_inurba_marseille","lat":43.29612,"lon":5.37732,"is_reserved":false,"is_disabled":false,"rental_uris":{"android":"levelo://app?vid=50ba03d9-a669-47fc-a282-92fb1fc39cca","ios":"levelo://app?vid=50ba03d9-a669-47fc-a282-92fb1fc39cca"},"vehicle_type_id":"4","last_reported":1730538547,"current_range_meters":38400,"station_id":"ce4bgi92rcd13ifvqb90","pricing_plan_id":"cebpf4jnsgd1na2vs0mg"},{"bike_id":"ce7a9679-1309-4337-a277-05901a838b7d","system_id":"levelo_inurba_marseille","lat":43.29355,"lon":5.43436,"is_reserved":false,"is_disabled":false,"rental_uris":{"android":"levelo://app?vid=ce7a9679-1309-4337-a277-05901a838b7d","ios":"levelo://app?vid=ce7a9679-1309-4337-a277-05901a838b7d"},"vehicle_type_id":"4","last_reported":1730538547,"current_range_meters":12000,"station_id":"","pricing_plan_id":"cebpf4jnsgd1na2vs0mg"},{"bike_id":"7860a8eb-8bd7-4aa0-83fa-7000922a7285","system_id":"levelo_inurba_marseille","lat":43.32287,"lon":5.38269,"is_reserved":false,"is_disabled":false,"rental_uris":{"android":"levelo://app?vid=7860a8eb-8bd7-4aa0-83fa-7000922a7285","ios":"levelo://app?vid=7860a8eb-8bd7-4aa0-83fa-7000922a7285"},"vehicle_type_id":"4","last_reported":1730538547,"current_range_meters":24400,"station_id":"ce4bhr12rcd13ifvqhqg","pricing_plan_id":"cebpf4jnsgd1na2vs0mg"},