{"last_updated":1708565912,"ttl":30,"version":"2.2","data":{"bikes":[{"bike_id":"d649cd95-726a-4eec-acf8-9d39db8a8443","system_id":"levelo_inurba_marseille","lat":43.313391,"lon":5.36706,"is_reserved":false,"is_disabled":false,"rental_uris":{"android":"levelo://app?vid=d649cd95-726a-4eec-acf8-9d39db8a8443","ios":"levelo://app?vid=d649cd95-726a-4eec-acf8-9d39db8a8443"},"vehicle_type_id":"4","last_reported":1708565912,"current_range_meters":26400,"station_id":"ce4bgr92rcd13ifvqc6g","pricing_plan_id":"cebpf4jnsgd1na2vs0mg"},{"bike_id":"89742324-c0fe-48a9-8ccb-407e45a7d6a0","system_id":"levelo_inurba_marseille","lat":43.312239,"lon":5.368562,"is_reserved":false,"is_disabled":false,"rental_uris":{"android":"levelo://app?vid=89742324-c0fe-48a9-8ccb-407e45a7d6a0","ios":"levelo://app?vid=89742324-c0fe-48a9-8ccb-407e45a7d6a0"},"vehicle_type_id":"4","last_reported":1708565912,"current_range_meters":26000,"station_id":"ce4bgl92rcd13ifvqbq0","pricing_plan_id":"cebpf4jnsgd1na2vs0mg"},{"bike_id":"fea177a7-2ba2-4dc3-a5e8-4f63938991ef","system_id":"levelo_inurba_marseille","lat":43.312239,"lon":5.368562,"is_reserved":false,"is_disabled":false,"rental_uris":{"android":"levelo://app?vid=fea177a7-2ba2-4dc3-a5e8-4f63938991ef","ios":"levelo://app?vid=fea177a7-2ba2-4dc3-a5e8-4f63938991ef"},"vehicle_type_id":"4","last_reported":1708565912,"current_range_meters":19600,"station_id":"ce4bgl92rcd13ifvqbq0","pricing_plan_id":"cebpf4jnsgd1na2vs0mg"},{"bike_id":"a9bb622d-a332-474a-bf81-60ca5b5872f8","system_id":"levelo_inurba_marseille","lat":43.312239,"lon":5.368562,"is_reserved":false,"is_disabled":false,"rental_uris":{"android":"levelo://app?vid=a9bb622d-a332-474a-bf81-60ca5b5872f8","ios":"levelo://app?vid=a9bb622d-a332-474a-bf81-60ca5b5872f8"},"vehicle_type_id":"4","last_reported":1708565912,"current_range_meters":13600,"station_id":"ce4bgl92rcd13ifvqbq0","pricing_plan_id":"cebpf4jnsgd1na2vs0mg"},{"bike_id":"108de9dd-b3eb-42c4-91cf-8f55ca10bc35","system_id":"levelo_inurba_marseille","lat":43.314811,"lon":5.373103,"is_reserved":false,"is_disabled":false,"rental_uris":{"android":"levelo://app?vid=108de9dd-b3eb-42c4-91cf-8f55ca10bc35","ios":"levelo://app?vid=108de9dd-b3eb-42c4-91cf-8f55ca10bc35"},"vehicle_type_id":"4","last_reported":1708565912,"current_range_meters":13600,"station_id":"ce4bgt12rcd13ifvqcd0","pricing_plan_id":"cebpf4jnsgd1na2vs0mg"},{"bike_id":"26ca4b80-40a2-46a6-b14b-227276bde35f","system_id":"levelo_inurba_marseille","lat":43.314811,"lon":5.373103,"is_reserved":false,"is_disabled":false,"rental_uris":{"android":"levelo://app?vid=26ca4b80-40a2-46a6-b14b-227276bde35f","ios":"levelo://app?vid=26ca4b80-40a2-46a6-b14b-227276bde35f"},"vehicle_type_id":"4","last_reported":1708565912,"current_range_meters":20000,"station_id":"ce4bgt12rcd13ifvqcd0","pricing_plan_id":"cebpf4jnsgd1na2vs0mg"},{"bike_id":"39dea32c-7e6a-4af6-93ed-71408e555889","system_id":"levelo_inurba_marseille","lat":43.31481,"lon":5.37308,"is_reserved":false,"is_disabled":false,"rental_uris":{"android":"levelo://app?vid=39dea32c-7e6a-4af6-93ed-71408e555889","ios":"levelo://app?vid=39dea32c-7e6a-4af6-93ed-71408e555889"},"vehicle_type_id":"4","last_reported":1708565912,"current_range_meters":9200,"station_id":"ce4bgt12rcd13ifvqcd0","pricing_plan_id":"cebpf4jnsgd1na2vs0mg"},{"bike_id":"9242d2ef-c973-4390-840a-bb02dac4916d","system_id":"levelo_inurba_marseille","lat":43.314811,"lon":5.373104,"is_reserved":false,"is_disabled":false,"rental_uris":{"android":"levelo://app?vid=9242d2ef-c973-4390-840a-bb02dac4916d","ios":"levelo://app?vid=9242d2ef-c973-4390-840a-bb02dac4916d"},"vehicle_type_id":"4","last_reported":1708565912,"current_range_meters":30000,"station_id":"ce4bgt12rcd13ifvqcd0","pricing_plan_id":"cebpf4jnsgd1na2vs0mg"},{"bike_id":"e93cfb81-67e1-4ee3-9f96-bb0a6cbd4bed","system_id":"levelo_inurba_marseille","lat":43.290779,"lon":5.371482,"is_reserved":false,"is_disabled":false,"rental_uris":{"android":"levelo://app?vid=e93cfb81-67e1-4ee3-9f96-bb0a6cbd4bed","ios":"levelo://app?vid=e93cfb81-67e1-4ee3-9f96-bb0a6cbd4bed"},"vehicle_type_id":"4","last_reported":1708565912,"current_range_meters":24000,"station_id":"ce4bh5p2rcd13ifvqe4g","pricing_plan_id":"cebpf4jnsgd1na2vs0mg"},{"bike_id":"34ca0b0a-7cff-48db-b590-085fab3dfffa","system_id":"levelo_inurba_marseille","lat":43.314811,"lon":5.373103,"is_reserved":false,"is_disabled":false,"rental_uris":{"android":"levelo://app?vid=34ca0b0a-7cff-48db-b590-085fab3dfffa","ios":"levelo://app?vid=34ca0b0a-7cff-48db-b590-085fab3dfffa"},"vehicle_type_id":"4","last_reported":1708565912,"current_range_meters":31200,"station_id":"ce4bgt12rcd13ifvqcd0","pricing_plan_id":"cebpf4jnsgd1na2vs0mg"},{"bike_id":"5801b675-ea3c-473f-8252-ffbab53b72b2","system_id":"levelo_inurba_marseille","lat":43.314811,"lon":5.373104,"is_reserved":false,"is_disabled":false,"rental_uris":{"android":"levelo://app?vid=5801b675-ea3c-473f-8252-ffbab53b72b2","ios":"levelo://app?vid=5801b675-ea3c-473f-8252-ffbab53b72b2"},"vehicle_type_id":"4","last_reported":1708565912,"current_range_meters":23600,"station_id":"ce4bgt12rcd13ifvqcd0","pricing_plan_id":"cebpf4jnsgd1na2vs0mg"},{"bike_id":"7580059f-acef-4679-bd29-a632e2940ff2","system_id":"levelo_inurba_marseille","lat":43.309039,"lon":5.371797,"is_reserved":false,"is_disabled":false,"rental_uris":{"android":"levelo://app?vid=7580059f-acef-4679-bd29-a632e2940ff2","ios":"levelo://app?vid=7580059f-acef-4679-bd29-a632e2940ff2"},"vehicle_type_id":"4","last_reported":1708565912,"current_range_meters":30000,"station_id":"ce4bguh2rcd13ifvqckg","pricing_plan_id":"cebpf4jnsgd1na2vs0mg"},{"bike_id":"4c743e16-6323-4bc3-b76c-7184afc40cef","system_id":"levelo_inurba_marseille","lat":43.30555,"lon":5.365318,"is_reserved":false,"is_disabled":false,"rental_uris":{"android":"levelo://app?vid=4c743e16-6323-4bc3-b76c-7184afc40cef","ios":"levelo://app?vid=4c743e16-6323-4bc3-b76c-7184afc40cef"},"vehicle_type_id":"4","last_reported":1708565912,"current_range_meters":0,"station_id":"ce4bgs12rcd13ifvqcag","pricing_plan_id":"cebpf4jnsgd1na2vs0mg"},{"bike_id":"06c5c821-1400-44f2-a0a7-3fc80cf47d12","system_id":"levelo_inurba_marseille","lat":43.306079,"lon":5.372361,"is_reserved":false,"is_disabled":false,"rental_uris":{"android":"levelo://app?vid=06c5c821-1400-44f2-a0a7-3fc80cf47d12","ios":"levelo://app?vid=06c5c821-1400-44f2-a0a7-3fc80cf47d12"},"vehicle_type_id":"4","last_reported":1708565912,"current_range_meters":21200,"station_id":"ce4bgqh2rcd13ifvqc4g","pricing_plan_id":"cebpf4jnsgd1na2vs0mg"},{"bike_id":"4675ec3f-b534-4eb0-ae16-7aef30f45f6f","system_id":"levelo_inurba_marseille","lat":43.311125,"lon":5.377624,"is_reserved":false,"is_disabled":false,"rental_uris":{"android":"levelo://app?vid=4675ec3f-b534-4eb0-ae16-7aef30f45f6f","ios":"levelo://app?vid=4675ec3f-b534-4eb0-ae16-7aef30f45f6f"},"vehicle_type_id":"4","last_reported":1708565912,"current_range_meters":23200,"station_id":"ce4bgt92rcd13ifvqcg0","pricing_plan_id":"cebpf4jnsgd1na2vs0mg"},{"bike_id":"d99f5e5f-b763-41a3-9300-b1b434e296d4","system_id":"levelo_inurba_marseille","lat":43.311125,"lon":5.377624,"is_reserved":false,"is_disabled":false,"rental_uris":{"android":"levelo://app?vid=d99f5e5f-b763-41a3-9300-b1b434e296d4","ios":"levelo://app?vid=d99f5e5f-b763-41a3-9300-b1b434e296d4"},"vehicle_type_id":"4","last_reported":1708565912,"current_range_meters":28000,"station_id":"ce4bgt92rcd13ifvqcg0","pricing_plan_id":"cebpf4jnsgd1na2vs0mg"},{"bike_id":"fdbee48e-e73d-4dc5-bf89-99ff94c47cbf","system_id":"levelo_inurba_marseille","lat":43.311125,"lon":5.377624,"is_reserved":false,"is_disabled":false,"rental_uris":{"android":"levelo://app?vid=fdbee48e-e73d-4dc5-bf89-99ff94c47cbf","ios":"levelo://app?vid=fdbee48e-e73d-4dc5-bf89-99ff94c47cbf"},"vehicle_type_id":"4","last_reported":1708565912,"current_range_meters":25200,"station_id":"ce4bgt92rcd13ifvqcg0","pricing_plan_id":"cebpf4jnsgd1na2vs0mg"},{"bike_id":"f3c1a207-8448-4ead-b928-4b99b6ca3566","system_id":"levelo_inurba_marseille","lat":43.311131,"lon":5.377651,"is_reserved":false,"is_disabled":false,"rental_uris":{"android":"levelo://app?vid=f3c1a207-8448-4ead-b928-4b99b6ca3566","ios":"levelo://app?vid=f3c1a207-8448-4ead-b928-4b99b6ca3566"},"vehicle_type_id":"4","last_reported":1708565912,"current_range_meters":17600,"station_id":"ce4bgt92rcd13ifvqcg0","pricing_plan_id":"cebpf4jnsgd1na2vs0mg"},{"bike_id":"47a3c1e4-4507-4a96-bb28-0bc7ebd96be3","system_id":"levelo_inurba_marseille","lat":43.311125,"lon":5.377624,"is_reserved":false,"is_disabled":false,"rental_uris":{"android":"levelo://app?vid=47a3c1e4-4507-4a96-bb28-0bc7ebd96be3","ios":"levelo://app?vid=47a3c1e4-4507-4a96-bb28-0bc7ebd96be3"},"vehicle_type_id":"4","last_reported":1708565912,"current_range_meters":18400,"station_id":"ce4bgt92rcd13ifvqcg0","pricing_plan_id":"cebpf4jnsgd1na2vs0mg"},{"bike_id":"dc22c28f-522a-4fb4-b7ab-c6251b90de82","system_id":"levelo_inurba_marseille","lat":43.31654,"lon":5.37675,"is_reserved":false,"is_disabled":false,"rental_uris":{"android":"levelo://app?vid=dc22c28f-522a-4fb4-b7ab-c6251b90de82","ios":"levelo://app?vid=dc22c28f-522a-4fb4-b7ab-c6251b90de82"},"vehicle_type_id":"4","last_reported":1708565912,"current_range_meters":25600,"station_id":"","pricing_plan_id":"cebpf4jnsgd1na2vs0mg"},{"bike_id":"6356d138-f96c-4ece-b202-d8da273c62ab","system_id":"levelo_inurba_marseille","lat":43.316582,"lon":5.376807,"is_reserved":false,"is_disabled":false,"rental_uris":{"android":"levelo://app?vid=6356d138-f96c-4ece-b202-d8da273c62ab","ios":"levelo://app?vid=6356d138-f96c-4ece-b202-d8da273c62ab"},"vehicle_type_id":"4","last_reported":1708565912,"current_range_meters":10000,"station_id":"","pricing_plan_id":"cebpf4jnsgd1na2vs0mg"},{"bike_id":"82927855-1e2e-411a-a6fb-a7723427e057","system_id":"levelo_inurba_marseille","lat":43.307945,"lon":5.376487,"is_reserved":false,"is_disabled":false,"rental_uris":{"android":"levelo://app?vid=82927855-1e2e-411a-a6fb-a7723427e057","ios":"levelo://app?vid=82927855-1e2e-411a-a6fb-a7723427e057"},"vehicle_type_id":"4","last_reported":1708565912,"current_range_meters":31200,"station_id":"ce4bgv92rcd13ifvqcq0","pricing_plan_id":"cebpf4jnsgd1na2vs0mg"},{"bike_id":"93539ab4-11de-490b-af08-008a8269fa43","system_id":"levelo_inurba_marseille","lat":43.307945,"lon":5.376487,"is_reserved":false,"is_disabled":false,"rental_uris":{"android":"levelo://app?vid=93539ab4-11de-490b-af08-008a8269fa43","ios":"levelo://app?vid=93539ab4-11de-490b-af08-008a8269fa43"},"vehicle_type_id":"4","last_reported":1708565912,"current_range_meters":25600,"station_id":"ce4bgv92rcd13ifvqcq0","pricing_plan_id":"cebpf4jnsgd1na2vs0mg"},{"bike_id":"017e20a3-9bef-415a-9098-ad4219762367","system_id":"levelo_inurba_marseille","lat":43.307945,"lon":5.376487,"is_reserved":false,"is_disabled":false,"rental_uris":{"android":"levelo://app?vid=017e20a3-9bef-415a-9098-ad4219762367","ios":"levelo://app?vid=017e20a3-9bef-415a-9098-ad4219762367"},"vehicle_type_id":"4","last_reported":1708565912,"current_range_meters":25600,"station_id":"ce4bgv92rcd13ifvqcq0","pricing_plan_id":"cebpf4jnsgd1na2vs0mg"},{"bike_id":"0646764f-178d-4533-bd04-35f43b7ed671","system_id":"levelo_inurba_marseille","lat":43.307945,"lon":5.376487,"is_reserved":false,"is_disabled":false,"rental_uris":{"android":"levelo://app?vid=0646764f-178d-4533-bd04-35f43b7ed671","ios":"levelo://app?vid=0646764f-178d-4533-bd04-35f43b7ed671"},"vehicle_type_id":"4","last_reported":1708565912,"current_range_meters":25600,"station_id":"ce4bgv92rcd13ifvqcq0","pricing_plan_id":"cebpf4jnsgd1na2vs0mg"},{"bike_id":"b8dfd805-9c6f-4616-b6c0-ae21303c8cd4","system_id":"levelo_inurba_marseille","lat":43.307945,"lon":5.376487,"is_reserved":false,"is_disabled":false,"rental_uris":{"android":"levelo://app?vid=b8dfd805-9c6f-4616-b6c0-ae21303c8cd4","ios":"levelo://app?vid=b8dfd805-9c6f-4616-b6c0-ae21303c8cd4"},"vehicle_type_id":"4","last_reported":1708565912,"current_range_meters":19200,"station_id":"ce4bgv92rcd13ifvqcq0","pricing_plan_id":"cebpf4jnsgd1na2vs0mg"},{"bike_id":"8acc267a-b18a-42c6-80fd-4f862e84038f","system_id":"levelo_inurba_marseille","lat":43.307945,"lon":5.376487,"is_reserved":false,"is_disabled":false,"rental_uris":{"android":"levelo://app?vid=8acc267a-b18a-42c6-80fd-4f862e84038f","ios":"levelo://app?vid=8acc267a-b18a-42c6-80fd-4f862e84038f"},"vehicle_type_id":"4","last_reported":1708565912,"current_range_meters":3600,"station_id":"ce4bgv92rcd13ifvqcq0","pricing_plan_id":"cebpf4jnsgd1na2vs0mg"},{"bike_id":"83c8f234-d3b6-4193-a9b6-30fe31fe0cdd","system_id":"levelo_inurba_marseille","lat":43.307945,"lon":5.376487,"is_reserved":false,"is_disabled":false,"rental_uris":{"android":"levelo://app?vid=83c8f234-d3b6-4193-a9b6-30fe31fe0cdd","ios":"levelo://app?vid=83c8f234-d3b6-4193-a9b6-30fe31fe0cdd"},"vehicle_type_id":"4","last_reported":1708565912,"current_range_meters":14800,"station_id":"ce4bgv92rcd13ifvqcq0","pricing_plan_id":"cebpf4jnsgd1na2vs0mg"},{"bike_id":"b9b43757-2604-4d44-b7fe-8af614a65b5d","system_id":"levelo_inurba_marseille","lat":43.30782,"lon":5.37655,"is_reserved":false,"is_disabled":false,"rental_uris":{"android":"levelo://app?vid=b9b43757-2604-4d44-b7fe-8af614a65b5d","ios":"levelo://app?vid=b9b43757-2604-4d44-b7fe-8af614a65b5d"},"vehicle_type_id":"4","last_reported":1708565912,"current_range_meters":30800,"station_id":"","pricing_plan_id":"cebpf4jnsgd1na2vs0mg"},{"bike_id":"e122d3cf-2dbb-4f60-b27b-ff2308d999db","system_id":"levelo_inurba_marseille","lat":43.307945,"lon":5.376487,"is_reserved":false,"is_disabled":false,"rental_uris":{"android":"levelo://app?vid=e122d3cf-2dbb-4f60-b27b-ff2308d999db","ios":"levelo://app?vid=e122d3cf-2dbb-4f60-b27b-ff2308d999db"},"vehicle_type_id":"4","last_reported":1708565912,"current_range_meters":29200,"station_id":"ce4bgv92rcd13ifvqcq0","pricing_plan_id":"cebpf4jnsgd1na2vs0mg"},{"bike_id":"e9ca0df7-9d12-4d6a-95d0-ceeb7d710869","system_id":"levelo_inurba_marseille","lat":43.307945,"lon":5.376487,"is_reserved":false,"is_disabled":false,"rental_uris":{"android":"levelo://app?vid=e9ca0df7-9d12-4d6a-95d0-ceeb7d710869","ios":"levelo://app?vid=e9ca0df7-9d12-4d6a-95d0-ceeb7d710869"},"vehicle_type_id":"4","last_reported":1708565912,"current_range_meters":31200,"station_id":"ce4bgv92rcd13ifvqcq0","pricing_plan_id":"cebpf4jnsgd1na2vs0mg"},{"bike_id":"e9eccf01-b9b3-473e-aeea-0af0dcc4f674","system_id":"levelo_inurba_marseille","lat":43.307945,"lon":5.376487,"is_reserved":false,"is_disabled":false,"rental_uris":{"android":"levelo://app?vid=e9eccf01-b9b3-473e-aeea-0af0dcc4f674","ios":"levelo://app?vid=e9eccf01-b9b3-473e-aeea-0af0dcc4f674"},"vehicle_type_id":"4","last_reported":1708565912,"current_range_meters":400,"station_id":"ce4bgv92rcd13ifvqcq0","pricing_plan_id":"cebpf4jnsgd1na2vs0mg"},{"bike_id":"e683024e-cbcd-4fc2-9950-c20c0c07dd32","system_id":"levelo_inurba_marseille","lat":43.307945,"lon":5.376487,"is_reserved":false,"is_disabled":false,"rental_uris":{"android":"levelo://app?vid=e683024e-cbcd-4fc2-9950-c20c0c07dd32","ios":"levelo://app?vid=e683024e-cbcd-4fc2-9950-c20c0c07dd32"},"vehicle_type_id":"4","last_reported":1708565912,"current_range_meters":3600,"station_id":"ce4bgv92rcd13ifvqcq0","pricing_plan_id":"cebpf4jnsgd1na2vs0mg"},{"bike_id":"8335b374-9ed7-4ebb-ab34-949d0718f352","system_id":"levelo_inurba_marseille","lat":43.307945,"lon":5.376487,"is_reserved":false,"is_disabled":false,"rental_uris":{"android":"levelo://app?vid=8335b374-9ed7-4ebb-ab34-949d0718f352","ios":"levelo://app?vid=8335b374-9ed7-4ebb-ab34-949d0718f352"},"vehicle_type_id":"4","last_reported":1708565912,"current_range_meters":21600,"station_id":"ce4bgv92rcd13ifvqcq0","pricing_plan_id":"cebpf4jnsgd1na2vs0mg"},{"bike_id":"e940a45f-5fab-4976-94e4-0f9151471b8b","system_id":"levelo_inurba_marseille","lat":43.307945,"lon":5.376487,"is_reserved":false,"is_disabled":false,"rental_uris":{"android":"levelo://app?vid=e940a45f-5fab-4976-94e4-0f9151471b8b","ios":"levelo://app?vid=e940a45f-5fab-4976-94e4-0f9151471b8b"},"vehicle_type_id":"4","last_reported":1708565912,"current_range_meters":16400,"station_id":"ce4bgv92rcd13ifvqcq0","pricing_plan_id":"cebpf4jnsgd1na2vs0mg"},{"bike_id":"a1ae05d7-73f2-46bf-9c7f-d805a78fd7e8","system_id":"levelo_inurba_marseille","lat":43.307945,"lon":5.376487,"is_reserved":false,"is_disabled":false,"rental_uris":{"android":"levelo://app?vid=a1ae05d7-73f2-46bf-9c7f-d805a78fd7e8","ios":"levelo://app?vid=a1ae05d7-73f2-46bf-9c7f-d805a78fd7e8"},"vehicle_type_id":"4","last_reported":1708565912,"current_range_meters":6800,"station_id":"ce4bgv92rcd13ifvqcq0","pricing_plan_id":"cebpf4jnsgd1na2vs0mg"},{"bike_id":"9d5ba42e-09e1-4efe-8d39-6ce86ed0c121","system_id":"levelo_inurba_marseille","lat":43.317075,"lon":5.377367,"is_reserved":false,"is_disabled":false,"rental_uris":{"android":"levelo://app?vid=9d5ba42e-09e1-4efe-8d39-6ce86ed0c121","ios":"levelo://app?vid=9d5ba42e-09e1-4efe-8d39-6ce86ed0c121"},"vehicle_type_id":"4","last_reported":1708565912,"current_range_meters":5600,"station_id":"ce4bgth2rcd13ifvqch0","pricing_plan_id":"cebpf4jnsgd1na2vs0mg"},{"bike_id":"b0e61ad8-1550-42e6-afdf-86e3d1a0409c","system_id":"levelo_inurba_marseille","lat":43.317075,"lon":5.377367,"is_reserved":false,"is_disabled":false,"rental_uris":{"android":"levelo://app?vid=b0e61ad8-1550-42e6-afdf-86e3d1a0409c","ios":"levelo://app?vid=b0e61ad8-1550-42e6-afdf-86e3d1a0409c"},"vehicle_type_id":"4","last_reported":1708565912,"current_range_meters":12400,"station_id":"ce4bgth2rcd13ifvqch0","pricing_plan_id":"cebpf4jnsgd1na2vs0mg"},{"bike_id":"51231e14-7d04-4030-8c0d-345bccbbbeb3","system_id":"levelo_inurba_marseille","lat":43.317075,"lon":5.377367,"is_reserved":false,"is_disabled":false,"rental_uris":{"android":"levelo://app?vid=51231e14-7d04-4030-8c0d-345bccbbbeb3","ios":"levelo://app?vid=51231e14-7d04-4030-8c0d-345bccbbbeb3"},"vehicle_type_id":"4","last_reported":1708565912,"current_range_meters":3600,"station_id":"ce4bgth2rcd13ifvqch0","pricing_plan_id":"cebpf4jnsgd1na2vs0mg"},{"bike_id":"c9356d07-b09d-4572-838a-45dc45790cbe","system_id":"levelo_inurba_marseille","lat":43.317075,"lon":5.377367,"is_reserved":false,"is_disabled":false,"rental_uris":{"android":"levelo://app?vid=c9356d07-b09d-4572-838a-45dc45790cbe","ios":"levelo://app?vid=c9356d07-b09d-4572-838a-45dc45790cbe"},"vehicle_type_id":"4","last_reported":1708565912,"current_range_meters":30000,"station_id":"ce4bgth2rcd13ifvqch0","pricing_plan_id":"cebpf4jnsgd1na2vs0mg"},{"bike_id":"0f6f6541-413e-4380-9493-8d25b6d3d332","system_id":"levelo_inurba_marseille","lat":43.317075,"lon":5.377367,"is_reserved":false,"is_disabled":false,"rental_uris":{"android":"levelo://app?vid=0f6f6541-413e-4380-9493-8d25b6d3d332","ios":"levelo://app?vid=0f6f6541-413e-4380-9493-8d25b6d3d332"},"vehicle_type_id":"4","last_reported":1708565912,"current_range_meters":15600,"station_id":"ce4bgth2rcd13ifvqch0","pricing_plan_id":"cebpf4jnsgd1na2vs0mg"},{"bike_id":"2091d652-b602-4295-80f9-745a2541b03a","system_id":"levelo_inurba_marseille","lat":43.317075,"lon":5.377367,"is_reserved":false,"is_disabled":false,"rental_uris":{"android":"levelo://app?vid=2091d652-b602-4295-80f9-745a2541b03a","ios":"levelo://app?vid=2091d652-b602-4295-80f9-745a2541b03a"},"vehicle_type_id":"4","last_reported":1708565912,"current_range_meters":6800,"station_id":"ce4bgth2rcd13ifvqch0","pricing_plan_id":"cebpf4jnsgd1na2vs0mg"},{"bike_id":"c640a8c1-4269-45c5-af59-6df7e4f3324e","system_id":"levelo_inurba_marseille","lat":43.317075,"lon":5.377367,"is_reserved":false,"is_disabled":false,"rental_uris":{"android":"levelo://app?vid=c640a8c1-4269-45c5-af59-6df7e4f3324e","ios":"levelo://app?vid=c640a8c1-4269-45c5-af59-6df7e4f3324e"},"vehicle_type_id":"4","last_reported":1708565912,"current_range_meters":19600,"station_id":"ce4bgth2rcd13ifvqch0","pricing_plan_id":"cebpf4jnsgd1na2vs0mg"},{"bike_id":"2fdee98a-f697-45bc-8de9-c6509a38d890","system_id":"levelo_inurba_marseille","lat":43.31711,"lon":5.377539,"is_reserved":false,"is_disabled":false,"rental_uris":{"android":"levelo://app?vid=2fdee98a-f697-45bc-8de9-c6509a38d890","ios":"levelo://app?vid=2fdee98a-f697-45bc-8de9-c6509a38d890"},"vehicle_type_id":"4","last_reported":1708565912,"current_range_meters":5600,"station_id":"ce4bgth2rcd13ifvqch0","pricing_plan_id":"cebpf4jnsgd1na2vs0mg"},{"bike_id":"a9107724-bf94-4625-9505-de67816d6f9c","system_id":"levelo_inurba_marseille","lat":43.317075,"lon":5.377367,"is_reserved":false,"is_disabled":false,"rental_uris":{"android":"levelo://app?vid=a9107724-bf94-4625-9505-de67816d6f9c","ios":"levelo://app?vid=a9107724-bf94-4625-9505-de67816d6f9c"},"vehicle_type_id":"4","last_reported":1708565912,"current_range_meters":31200,"station_id":"ce4bgth2rcd13ifvqch0","pricing_plan_id":"cebpf4jnsgd1na2vs0mg"},{"bike_id":"8f9827ff-6989-411e-adf7-8b41c4896bc1","system_id":"levelo_inurba_marseille","lat":43.315293,"lon":5.380349,"is_reserved":false,"is_disabled":false,"rental_uris":{"android":"levelo://app?vid=8f9827ff-6989-411e-adf7-8b41c4896bc1","ios":"levelo://app?vid=8f9827ff-6989-411e-adf7-8b41c4896bc1"},"vehicle_type_id":"4","last_reported":1708565912,"current_range_meters":26400,"station_id":"ce4bhsp2rcd13ifvqi50","pricing_plan_id":"cebpf4jnsgd1na2vs0mg"},{"bike_id":"35cf3f4f-6f35-4ecd-bdb1-437479877dd4","system_id":"levelo_inurba_marseille","lat":43.315293,"lon":5.380349,"is_reserved":false,"is_disabled":false,"rental_uris":{"android":"levelo://app?vid=35cf3f4f-6f35-4ecd-bdb1-437479877dd4","ios":"levelo://app?vid=35cf3f4f-6f35-4ecd-bdb1-437479877dd4"},"vehicle_type_id":"4","last_reported":1708565912,"current_range_meters":20400,"station_id":"ce4bhsp2rcd13ifvqi50","pricing_plan_id":"cebpf4jnsgd1na2vs0mg"},{"bike_id":"9d40227a-7516-4798-97b7-8e69c0f7a326","system_id":"levelo_inurba_marseille","lat":43.315293,"lon":5.380349,"is_reserved":false,"is_disabled":false,"rental_uris":{"android":"levelo://app?vid=9d40227a-7516-4798-97b7-8e69c0f7a326","ios":"levelo://app?vid=9d40227a-7516-4798-97b7-8e69c0f7a326"},"vehicle_type_id":"4","last_reported":1708565912,"current_range_meters":24400,"station_id":"ce4bhsp2rcd13ifvqi50","pricing_plan_id":"cebpf4jnsgd1na2vs0mg"},{"bike_id":"a9ba3daf-823d-4300-bb79-f29299239744","system_id":"levelo_inurba_marseille","lat":43.30796,"lon":5.38143,"is_reserved":false,"is_disabled":false,"rental_uris":{"android":"levelo://app?vid=a9ba3daf-823d-4300-bb79-f29299239744","ios":"levelo://app?vid=a9ba3daf-823d-4300-bb79-f29299239744"},"vehicle_type_id":"4","last_reported":1708565912,"current_range_meters":25600,"station_id":"ce4bgt12rcd13ifvqce0","pricing_plan_id":"cebpf4jnsgd1na2vs0mg"},{"bike_id":"44bc7686-779a-4dd4-a245-abf0a84d5cd5","system_id":"levelo_inurba_marseille","lat":43.308012,"lon":5.381511,"is_reserved":false,"is_disabled":false,"rental_uris":{"android":"levelo://app?vid=44bc7686-779a-4dd4-a245-abf0a84d5cd5","ios":"levelo://app?vid=44bc7686-779a-4dd4-a245-abf0a84d5cd5"},"vehicle_type_id":"4","last_reported":1708565912,"current_range_meters":21600,"station_id":"ce4bgt12rcd13ifvqce0","pricing_plan_id":"cebpf4jnsgd1na2vs0mg"},{"bike_id":"c383ba24-c633-4306-b31a-daa4da7aa401","system_id":"levelo_inurba_marseille","lat":43.308057,"lon":5.381531,"is_reserved":false,"is_disabled":false,"rental_uris":{"android":"levelo://app?vid=c383ba24-c633-4306-b31a-daa4da7aa401","ios":"levelo://app?vid=c383ba24-c633-4306-b31a-daa4da7aa401"},"vehicle_type_id":"4","last_reported":1708565912,"current_range_meters":0,"station_id":"ce4bgt12rcd13ifvqce0","pricing_plan_id":"cebpf4jnsgd1na2vs0mg"},{"bike_id":"7b80c7c9-dbf5-4741-a86e-e2dfd0e34366","system_id":"levelo_inurba_marseille","lat":43.308012,"lon":5.381511,"is_reserved":false,"is_disabled":false,"rental_uris":{"android":"levelo://app?vid=7b80c7c9-dbf5-4741-a86e-e2dfd0e34366","ios":"levelo://app?vid=7b80c7c9-dbf5-4741-a86e-e2dfd0e34366"},"vehicle_type_id":"4","last_reported":1708565912,"current_range_meters":23200,"station_id":"ce4bgt12rcd13ifvqce0","pricing_plan_id":"cebpf4jnsgd1na2vs0mg"},{"bike_id":"be3bd6ab-5d20-45e7-9711-6bad131af93a","system_id":"levelo_inurba_marseille","lat":43.308005,"lon":5.381539,"is_reserved":false,"is_disabled":false,"rental_uris":{"android":"levelo://app?vid=be3bd6ab-5d20-45e7-9711-6bad131af93a","ios":"levelo://app?vid=be3bd6ab-5d20-45e7-9711-6bad131af93a"},"vehicle_type_id":"4","last_reported":1708565912,"current_range_meters":14000,"station_id":"ce4bgt12rcd13ifvqce0","pricing_plan_id":"cebpf4jnsgd1na2vs0mg"},{"bike_id":"ea9a0f9b-f132-4c07-abea-cd176ceaf8c0","system_id":"levelo_inurba_marseille","lat":43.30799,"lon":5.381545,"is_reserved":false,"is_disabled":false,"rental_uris":{"android":"levelo://app?vid=ea9a0f9b-f132-4c07-abea-cd176ceaf8c0","ios":"levelo://app?vid=ea9a0f9b-f132-4c07-abea-cd176ceaf8c0"},"vehicle_type_id":"4","last_reported":1708565912,"current_range_meters":18400,"station_id":"ce4bgt12rcd13ifvqce0","pricing_plan_id":"cebpf4jnsgd1na2vs0mg"},{"bike_id":"0de503bd-6958-4a4a-b22a-514282751f91","system_id":"levelo_inurba_marseille","lat":43.308012,"lon":5.381511,"is_reserved":false,"is_disabled":false,"rental_uris":{"android":"levelo://app?vid=0de503bd-6958-4a4a-b22a-514282751f91","ios":"levelo://app?vid=0de503bd-6958-4a4a-b22a-514282751f91"},"vehicle_type_id":"4","last_reported":1708565912,"current_range_meters":21200,"station_id":"ce4bgt12rcd13ifvqce0","pricing_plan_id":"cebpf4jnsgd1na2vs0mg"},{"bike_id":"950c3951-e8fd-42aa-918f-a31e0999f50f","system_id":"levelo_inurba_marseille","lat":43.307989,"lon":5.381599,"is_reserved":false,"is_disabled":false,"rental_uris":{"android":"levelo://app?vid=950c3951-e8fd-42aa-918f-a31e0999f50f","ios":"levelo://app?vid=950c3951-e8fd-42aa-918f-a31e0999f50f"},"vehicle_type_id":"4","last_reported":1708565912,"current_range_meters":24000,"station_id":"ce4bgt12rcd13ifvqce0","pricing_plan_id":"cebpf4jnsgd1na2vs0mg"},{"bike_id":"8e606ba4-fdf7-48b3-ac1f-a35f37d4a8ca","system_id":"levelo_inurba_marseille","lat":43.308012,"lon":5.381511,"is_reserved":false,"is_disabled":false,"rental_uris":{"android":"levelo://app?vid=8e606ba4-fdf7-48b3-ac1f-a35f37d4a8ca","ios":"levelo://app?vid=8e606ba4-fdf7-48b3-ac1f-a35f37d4a8ca"},"vehicle_type_id":"4","last_reported":1708565912,"current_range_meters":14000,"station_id":"ce4bgt12rcd13ifvqce0","pricing_plan_id":"cebpf4jnsgd1na2vs0mg"},{"bike_id":"5cd86c96-0713-4e13-ba6c-1a470ee572bf","system_id":"levelo_inurba_marseille","lat":43.308012,"lon":5.381511,"is_reserved":false,"is_disabled":false,"rental_uris":{"android":"levelo://app?vid=5cd86c96-0713-4e13-ba6c-1a470ee572bf","ios":"levelo://app?vid=5cd86c96-0713-4e13-ba6c-1a470ee572bf"},"vehicle_type_id":"4","last_reported":1708565912,"current_range_meters":5600,"station_id":"ce4bgt12rcd13ifvqce0","pricing_plan_id":"cebpf4jnsgd1na2vs0mg"},{"bike_id":"1cfa33bf-ae54-4e9c-b859-fdd5988f19b2","system_id":"levelo_inurba_marseille","lat":43.308012,"lon":5.381511,"is_reserved":false,"is_disabled":false,"rental_uris":{"android":"levelo://app?vid=1cfa33bf-ae54-4e9c-b859-fdd5988f19b2","ios":"levelo://app?vid=1cfa33bf-ae54-4e9c-b859-fdd5988f19b2"},"vehicle_type_id":"4","last_reported":1708565912,"current_range_meters":7600,"station_id":"ce4bgt12rcd13ifvqce0","pricing_plan_id":"cebpf4jnsgd1na2vs0mg"},{"bike_id":"0f1a4f87-cc99-4d46-821c-57ac45ffa512","system_id":"levelo_inurba_marseille","lat":43.304606,"lon":5.379026,"is_reserved":false,"is_disabled":false,"rental_uris":{"android":"levelo://app?vid=0f1a4f87-cc99-4d46-821c-57ac45ffa512","ios":"levelo://app?vid=0f1a4f87-cc99-4d46-821c-57ac45ffa512"},"vehicle_type_id":"4","last_reported":1708565912,"current_range_meters":17600,"station_id":"ce4bgup2rcd13ifvqcn0","pricing_plan_id":"cebpf4jnsgd1na2vs0mg"},{"bike_id":"4cd60cd3-101b-4a05-9703-76840434a255","system_id":"levelo_inurba_marseille","lat":43.324771,"lon":5.36557,"is_reserved":false,"is_disabled":false,"rental_uris":{"android":"levelo://app?vid=4cd60cd3-101b-4a05-9703-76840434a255","ios":"levelo://app?vid=4cd60cd3-101b-4a05-9703-76840434a255"},"vehicle_type_id":"4","last_reported":1708565912,"current_range_meters":18000,"station_id":"ce4bhs12rcd13ifvqhvg","pricing_plan_id":"cebpf4jnsgd1na2vs0mg"},{"bike_id":"6c581da6-d340-44bb-8dcf-2d6491d8b2b7","system_id":"levelo_inurba_marseille","lat":43.324771,"lon":5.36557,"is_reserved":false,"is_disabled":false,"rental_uris":{"android":"levelo://app?vid=6c581da6-d340-44bb-8dcf-2d6491d8b2b7","ios":"levelo://app?vid=6c581da6-d340-44bb-8dcf-2d6491d8b2b7"},"vehicle_type_id":"4","last_reported":1708565912,"current_range_meters":21200,"station_id":"ce4bhs12rcd13ifvqhvg","pricing_plan_id":"cebpf4jnsgd1na2vs0mg"},{"bike_id":"1bac4c8a-cd75-4e6e-8f7e-d90d2252ca76","system_id":"levelo_inurba_marseille","lat":43.324771,"lon":5.36557,"is_reserved":false,"is_disabled":false,"rental_uris":{"android":"levelo://app?vid=1bac4c8a-cd75-4e6e-8f7e-d90d2252ca76","ios":"levelo://app?vid=1bac4c8a-cd75-4e6e-8f7e-d90d2252ca76"},"vehicle_type_id":"4","last_reported":1708565912,"current_range_meters":1200,"station_id":"ce4bhs12rcd13ifvqhvg","pricing_plan_id":"cebpf4jnsgd1na2vs0mg"},{"bike_id":"caaf26f8-fbed-445b-be7b-3ecf625cc521","system_id":"levelo_inurba_marseille","lat":43.324771,"lon":5.36557,"is_reserved":false,"is_disabled":false,"rental_uris":{"android":"levelo://app?vid=caaf26f8-fbed-445b-be7b-3ecf625cc521","ios":"levelo://app?vid=caaf26f8-fbed-445b-be7b-3ecf625cc521"},"vehicle_type_id":"4","last_reported":1708565912,"current_range_meters":23600,"station_id":"ce4bhs12rcd13ifvqhvg","pricing_plan_id":"cebpf4jnsgd1na2vs0mg"},{"bike_id":"22b73e16-38da-4530-8d8a-3453426d23df","system_id":"levelo_inurba_marseille","lat":43.324771,"lon":5.36557,"is_reserved":false,"is_disabled":false,"rental_uris":{"android":"levelo://app?vid=22b73e16-38da-4530-8d8a-3453426d23df","ios":"levelo://app?vid=22b73e16-38da-4530-8d8a-3453426d23df"},"vehicle_type_id":"4","last_reported":1708565912,"current_range_meters":22400,"station_id":"ce4bhs12rcd13ifvqhvg","pricing_plan_id":"cebpf4jnsgd1na2vs0mg"},{"bike_id":"ec5c5936-1a53-4737-a699-b0348ce89032","system_id":"levelo_inurba_marseille","lat":43.324771,"lon":5.36557,"is_reserved":false,"is_disabled":false,"rental_uris":{"android":"levelo://app?vid=ec5c5936-1a53-4737-a699-b0348ce89032","ios":"levelo://app?vid=ec5c5936-1a53-4737-a699-b0348ce89032"},"vehicle_type_id":"4","last_reported":1708565912,"current_range_meters":3600,"station_id":"ce4bhs12rcd13ifvqhvg","pricing_plan_id":"cebpf4jnsgd1na2vs0mg"},{"bike_id":"b9ae61e1-8ac4-46f9-a192-ec9a4f6353bd","system_id":"levelo_inurba_marseille","lat":43.324771,"lon":5.36557,"is_reserved":false,"is_disabled":false,"rental_uris":{"android":"levelo://app?vid=b9ae61e1-8ac4-46f9-a192-ec9a4f6353bd","ios":"levelo://app?vid=b9ae61e1-8ac4-46f9-a192-ec9a4f6353bd"},"vehicle_type_id":"4","last_reported":1708565912,"current_range_meters":12400,"station_id":"ce4bhs12rcd13ifvqhvg","pricing_plan_id":"cebpf4jnsgd1na2vs0mg"},{"bike_id":"f2cff5d1-a87e-43e1-8ace-015f611533e5","system_id":"levelo_inurba_marseille","lat":43.324771,"lon":5.36557,"is_reserved":false,"is_disabled":false,"rental_uris":{"android":"levelo://app?vid=f2cff5d1-a87e-43e1-8ace-015f611533e5","ios":"levelo://app?vid=f2cff5d1-a87e-43e1-8ace-015f611533e5"},"vehicle_type_id":"4","last_reported":1708565912,"current_range_meters":7600,"station_id":"ce4bhs12rcd13ifvqhvg","pricing_plan_id":"cebpf4jnsgd1na2vs0mg"},{"bike_id":"99e90435-9362-4238-b73b-2423e73b8891","system_id":"levelo_inurba_marseille","lat":43.310721,"lon":5.383473,"is_reserved":false,"is_disabled":false,"rental_uris":{"android":"levelo://app?vid=99e90435-9362-4238-b73b-2423e73b8891","ios":"levelo://app?vid=99e90435-9362-4238-b73b-2423e73b8891"},"vehicle_type_id":"4","last_reported":1708565912,"current_range_meters":8000,"station_id":"ce4bgv92rcd13ifvqcr0","pricing_plan_id":"cebpf4jnsgd1na2vs0mg"},{"bike_id":"f9b794ca-bdd7-495d-81f1-37102c71af57","system_id":"levelo_inurba_marseille","lat":43.310804,"lon":5.38359,"is_reserved":false,"is_disabled":false,"rental_uris":{"android":"levelo://app?vid=f9b794ca-bdd7-495d-81f1-37102c71af57","ios":"levelo://app?vid=f9b794ca-bdd7-495d-81f1-37102c71af57"},"vehicle_type_id":"4","last_reported":1708565912,"current_range_meters":4000,"station_id":"ce4bgv92rcd13ifvqcr0","pricing_plan_id":"cebpf4jnsgd1na2vs0mg"},{"bike_id":"35c89ec2-1317-462b-bc9d-9b7471e0310e","system_id":"levelo_inurba_marseille","lat":43.310804,"lon":5.38359,"is_reserved":false,"is_disabled":false,"rental_uris":{"android":"levelo://app?vid=35c89ec2-1317-462b-bc9d-9b7471e0310e","ios":"levelo://app?vid=35c89ec2-1317-462b-bc9d-9b7471e0310e"},"vehicle_type_id":"4","last_reported":1708565912,"current_range_meters":24400,"station_id":"ce4bgv92rcd13ifvqcr0","pricing_plan_id":"cebpf4jnsgd1na2vs0mg"},{"bike_id":"972022a9-894c-4b38-81e2-29cf64f53229","system_id":"levelo_inurba_marseille","lat":43.310804,"lon":5.38359,"is_reserved":false,"is_disabled":false,"rental_uris":{"android":"levelo://app?vid=972022a9-894c-4b38-81e2-29cf64f53229","ios":"levelo://app?vid=972022a9-894c-4b38-81e2-29cf64f53229"},"vehicle_type_id":"4","last_reported":1708565912,"current_range_meters":19600,"station_id":"ce4bgv92rcd13ifvqcr0","pricing_plan_id":"cebpf4jnsgd1na2vs0mg"},{"bike_id":"c669488c-1edd-46a5-bc0e-250386872100","system_id":"levelo_inurba_marseille","lat":43.301429,"lon":5.37413,"is_reserved":false,"is_disabled":false,"rental_uris":{"android":"levelo://app?vid=c669488c-1edd-46a5-bc0e-250386872100","ios":"levelo://app?vid=c669488c-1edd-46a5-bc0e-250386872100"},"vehicle_type_id":"4","last_reported":1708565912,"current_range_meters":14400,"station_id":"ce4bgs92rcd13ifvqcc0","pricing_plan_id":"cebpf4jnsgd1na2vs0mg"},{"bike_id":"b55de403-1a78-4076-9bfc-2bcb1169923e","system_id":"levelo_inurba_marseille","lat":43.30278,"lon":5.37699,"is_reserved":false,"is_disabled":false,"rental_uris":{"android":"levelo://app?vid=b55de403-1a78-4076-9bfc-2bcb1169923e","ios":"levelo://app?vid=b55de403-1a78-4076-9bfc-2bcb1169923e"},"vehicle_type_id":"4","last_reported":1708565912,"current_range_meters":20400,"station_id":"ce4bguh2rcd13ifvqcj0","pricing_plan_id":"cebpf4jnsgd1na2vs0mg"},{"bike_id":"a5614bc4-b42b-4250-a6d7-5b785c947934","system_id":"levelo_inurba_marseille","lat":43.30143,"lon":5.37413,"is_reserved":false,"is_disabled":false,"rental_uris":{"android":"levelo://app?vid=a5614bc4-b42b-4250-a6d7-5b785c947934","ios":"levelo://app?vid=a5614bc4-b42b-4250-a6d7-5b785c947934"},"vehicle_type_id":"4","last_reported":1708565912,"current_range_meters":27200,"station_id":"ce4bgs92rcd13ifvqcc0","pricing_plan_id":"cebpf4jnsgd1na2vs0mg"},{"bike_id":"76cb3c24-5e51-42a4-8fa3-c5cd762ab669","system_id":"levelo_inurba_marseille","lat":43.30661,"lon":5.38199,"is_reserved":false,"is_disabled":false,"rental_uris":{"android":"levelo://app?vid=76cb3c24-5e51-42a4-8fa3-c5cd762ab669","ios":"levelo://app?vid=76cb3c24-5e51-42a4-8fa3-c5cd762ab669"},"vehicle_type_id":"4","last_reported":1708565912,"current_range_meters":22000,"station_id":"","pricing_plan_id":"cebpf4jnsgd1na2vs0mg"},{"bike_id":"8e2def0f-3cc0-4780-a4e7-d709135681cc","system_id":"levelo_inurba_marseille","lat":43.319935,"lon":5.381699,"is_reserved":false,"is_disabled":false,"rental_uris":{"android":"levelo://app?vid=8e2def0f-3cc0-4780-a4e7-d709135681cc","ios":"levelo://app?vid=8e2def0f-3cc0-4780-a4e7-d709135681cc"},"vehicle_type_id":"4","last_reported":1708565912,"current_range_meters":4800,"station_id":"ce4bhr12rcd13ifvqhpg","pricing_plan_id":"cebpf4jnsgd1na2vs0mg"},{"bike_id":"ba476218-799b-4051-8a73-1d31173b4597","system_id":"levelo_inurba_marseille","lat":43.319935,"lon":5.381699,"is_reserved":false,"is_disabled":false,"rental_uris":{"android":"levelo://app?vid=ba476218-799b-4051-8a73-1d31173b4597","ios":"levelo://app?vid=ba476218-799b-4051-8a73-1d31173b4597"},"vehicle_type_id":"4","last_reported":1708565912,"current_range_meters":16000,"station_id":"ce4bhr12rcd13ifvqhpg","pricing_plan_id":"cebpf4jnsgd1na2vs0mg"},{"bike_id":"0268a593-05f3-40b2-809a-21f4c866fa88","system_id":"levelo_inurba_marseille","lat":43.319935,"lon":5.381699,"is_reserved":false,"is_disabled":false,"rental_uris":{"android":"levelo://app?vid=0268a593-05f3-40b2-809a-21f4c866fa88","ios":"levelo://app?vid=0268a593-05f3-40b2-809a-21f4c866fa88"},"vehicle_type_id":"4","last_reported":1708565912,"current_range_meters":400,"station_id":"ce4bhr12rcd13ifvqhpg","pricing_plan_id":"cebpf4jnsgd1na2vs0mg"},{"bike_id":"2dfb92cc-ea3b-4091-8c27-ecfa50d3effe","system_id":"levelo_inurba_marseille","lat":43.31997,"lon":5.3815,"is_reserved":false,"is_disabled":false,"rental_uris":{"android":"levelo://app?vid=2dfb92cc-ea3b-4091-8c27-ecfa50d3effe","ios":"levelo://app?vid=2dfb92cc-ea3b-4091-8c27-ecfa50d3effe"},"vehicle_type_id":"4","last_reported":1708565912,"current_range_meters":2800,"station_id":"ce4bhr12rcd13ifvqhpg","pricing_plan_id":"cebpf4jnsgd1na2vs0mg"},{"bike_id":"d3aeb068-bd7b-49e8-816f-c6030cda4afc","system_id":"levelo_inurba_marseille","lat":43.319935,"lon":5.381699,"is_reserved":false,"is_disabled":false,"rental_uris":{"android":"levelo://app?vid=d3aeb068-bd7b-49e8-816f-c6030cda4afc","ios":"levelo://app?vid=d3aeb068-bd7b-49e8-816f-c6030cda4afc"},"vehicle_type_id":"4","last_reported":1708565912,"current_range_meters":27200,"station_id":"ce4bhr12rcd13ifvqhpg","pricing_plan_id":"cebpf4jnsgd1na2vs0mg"},{"bike_id":"bd6dd9e9-9b0d-4e67-8a52-ee9abfc17e25","system_id":"levelo_inurba_marseille","lat":43.319935,"lon":5.381699,"is_reserved":false,"is_disabled":false,"rental_uris":{"android":"levelo://app?vid=bd6dd9e9-9b0d-4e67-8a52-ee9abfc17e25","ios":"levelo://app?vid=bd6dd9e9-9b0d-4e67-8a52-ee9abfc17e25"},"vehicle_type_id":"4","last_reported":1708565912,"current_range_meters":4400,"station_id":"ce4bhr12rcd13ifvqhpg","pricing_plan_id":"cebpf4jnsgd1na2vs0mg"},{"bike_id":"928cf716-e2f4-42ad-a9ab-f209d6d652f8","system_id":"levelo_inurba_marseille","lat":43.319976,"lon":5.381532,"is_reserved":false,"is_disabled":false,"rental_uris":{"android":"levelo://app?vid=928cf716-e2f4-42ad-a9ab-f209d6d652f8","ios":"levelo://app?vid=928cf716-e2f4-42ad-a9ab-f209d6d652f8"},"vehicle_type_id":"4","last_reported":1708565912,"current_range_meters":9600,"station_id":"ce4bhr12rcd13ifvqhpg","pricing_plan_id":"cebpf4jnsgd1na2vs0mg"},{"bike_id":"a88e631f-9ad3-4e3a-b1ce-d7828b6ae959","system_id":"levelo_inurba_marseille","lat":43.319935,"lon":5.381699,"is_reserved":false,"is_disabled":false,"rental_uris":{"android":"levelo://app?vid=a88e631f-9ad3-4e3a-b1ce-d7828b6ae959","ios":"levelo://app?vid=a88e631f-9ad3-4e3a-b1ce-d7828b6ae959"},"vehicle_type_id":"4","last_reported":1708565912,"current_range_meters":0,"station_id":"ce4bhr12rcd13ifvqhpg","pricing_plan_id":"cebpf4jnsgd1na2vs0mg"},{"bike_id":"23439572-bd6c-4326-b437-8708a90d80fc","system_id":"levelo_inurba_marseille","lat":43.313571,"lon":5.384829,"is_reserved":false,"is_disabled":false,"rental_uris":{"android":"levelo://app?vid=23439572-bd6c-4326-b437-8708a90d80fc","ios":"levelo://app?vid=23439572-bd6c-4326-b437-8708a90d80fc"},"vehicle_type_id":"4","last_reported":1708565912,"current_range_meters":20800,"station_id":"ce4bgt92rcd13ifvqcf0","pricing_plan_id":"cebpf4jnsgd1na2vs0mg"},{"bike_id":"d4ff0b38-a9aa-448c-b1d1-a62db7cf3b90","system_id":"levelo_inurba_marseille","lat":43.313571,"lon":5.384829,"is_reserved":false,"is_disabled":false,"rental_uris":{"android":"levelo://app?vid=d4ff0b38-a9aa-448c-b1d1-a62db7cf3b90","ios":"levelo://app?vid=d4ff0b38-a9aa-448c-b1d1-a62db7cf3b90"},"vehicle_type_id":"4","last_reported":1708565912,"current_range_meters":17600,"station_id":"ce4bgt92rcd13ifvqcf0","pricing_plan_id":"cebpf4jnsgd1na2vs0mg"},{"bike_id":"c07bbd7e-9d62-4e2d-bdca-04429ff52059","system_id":"levelo_inurba_marseille","lat":43.313571,"lon":5.384829,"is_reserved":false,"is_disabled":false,"rental_uris":{"android":"levelo://app?vid=c07bbd7e-9d62-4e2d-bdca-04429ff52059","ios":"levelo://app?vid=c07bbd7e-9d62-4e2d-bdca-04429ff52059"},"vehicle_type_id":"4","last_reported":1708565912,"current_range_meters":18400,"station_id":"ce4bgt92rcd13ifvqcf0","pricing_plan_id":"cebpf4jnsgd1na2vs0mg"},{"bike_id":"4e5f536f-cc8e-4b04-a393-fac4e748719b","system_id":"levelo_inurba_marseille","lat":43.313571,"lon":5.384829,"is_reserved":false,"is_disabled":false,"rental_uris":{"android":"levelo://app?vid=4e5f536f-cc8e-4b04-a393-fac4e748719b","ios":"levelo://app?vid=4e5f536f-cc8e-4b04-a393-fac4e748719b"},"vehicle_type_id":"4","last_reported":1708565912,"current_range_meters":16400,"station_id":"ce4bgt92rcd13ifvqcf0","pricing_plan_id":"cebpf4jnsgd1na2vs0mg"},{"bike_id":"703850bc-2606-4521-b6e1-fafa7f943345","system_id":"levelo_inurba_marseille","lat":43.313571,"lon":5.384829,"is_reserved":false,"is_disabled":false,"rental_uris":{"android":"levelo://app?vid=703850bc-2606-4521-b6e1-fafa7f943345","ios":"levelo://app?vid=703850bc-2606-4521-b6e1-fafa7f943345"},"vehicle_type_id":"4","last_reported":1708565912,"current_range_meters":14000,"station_id":"ce4bgt92rcd13ifvqcf0","pricing_plan_id":"cebpf4jnsgd1na2vs0mg"},{"bike_id":"f9d2fa65-654d-4b81-9eac-f2b3a1a50d2e","system_id":"levelo_inurba_marseille","lat":43.313571,"lon":5.384829,"is_reserved":false,"is_disabled":false,"rental_uris":{"android":"levelo://app?vid=f9d2fa65-654d-4b81-9eac-f2b3a1a50d2e","ios":"levelo://app?vid=f9d2fa65-654d-4b81-9eac-f2b3a1a50d2e"},"vehicle_type_id":"4","last_reported":1708565912,"current_range_meters":9200,"station_id":"ce4bgt92rcd13ifvqcf0","pricing_plan_id":"cebpf4jnsgd1na2vs0mg"},{"bike_id":"a804ce14-0298-4924-9860-3ae76a940536","system_id":"levelo_inurba_marseille","lat":43.313571,"lon":5.384829,"is_reserved":false,"is_disabled":false,"rental_uris":{"android":"levelo://app?vid=a804ce14-0298-4924-9860-3ae76a940536","ios":"levelo://app?vid=a804ce14-0298-4924-9860-3ae76a940536"},"vehicle_type_id":"4","last_reported":1708565912,"current_range_meters":17200,"station_id":"ce4bgt92rcd13ifvqcf0","pricing_plan_id":"cebpf4jnsgd1na2vs0mg"},{"bike_id":"1ff14fe2-d89f-48e6-9ffd-f203f9c85ece","system_id":"levelo_inurba_marseille","lat":43.299724,"lon":5.371829,"is_reserved":false,"is_disabled":false,"rental_uris":{"android":"levelo://app?vid=1ff14fe2-d89f-48e6-9ffd-f203f9c85ece","ios":"levelo://app?vid=1ff14fe2-d89f-48e6-9ffd-f203f9c85ece"},"vehicle_type_id":"4","last_reported":1708565912,"current_range_meters":20400,"station_id":"ce4bgr92rcd13ifvqc7g","pricing_plan_id":"cebpf4jnsgd1na2vs0mg"},{"bike_id":"a366bbef-4121-451f-97f4-4103e2fb0d6b","system_id":"levelo_inurba_marseille","lat":43.29981,"lon":5.37178,"is_reserved":false,"is_disabled":false,"rental_uris":{"android":"levelo://app?vid=a366bbef-4121-451f-97f4-4103e2fb0d6b","ios":"levelo://app?vid=a366bbef-4121-451f-97f4-4103e2fb0d6b"},"vehicle_type_id":"4","last_reported":1708565912,"current_range_meters":10000,"station_id":"ce4bgr92rcd13ifvqc7g","pricing_plan_id":"cebpf4jnsgd1na2vs0mg"},{"bike_id":"fa3f980b-435c-43a3-aeed-349667a6e711","system_id":"levelo_inurba_marseille","lat":43.299724,"lon":5.371829,"is_reserved":false,"is_disabled":false,"rental_uris":{"android":"levelo://app?vid=fa3f980b-435c-43a3-aeed-349667a6e711","ios":"levelo://app?vid=fa3f980b-435c-43a3-aeed-349667a6e711"},"vehicle_type_id":"4","last_reported":1708565912,"current_range_meters":22800,"station_id":"ce4bgr92rcd13ifvqc7g","pricing_plan_id":"cebpf4jnsgd1na2vs0mg"},{"bike_id":"c263ddc2-c641-4b9d-be29-24276f82ac05","system_id":"levelo_inurba_marseille","lat":43.314031,"lon":5.38609,"is_reserved":false,"is_disabled":false,"rental_uris":{"android":"levelo://app?vid=c263ddc2-c641-4b9d-be29-24276f82ac05","ios":"levelo://app?vid=c263ddc2-c641-4b9d-be29-24276f82ac05"},"vehicle_type_id":"4","last_reported":1708565912,"current_range_meters":23200,"station_id":"","pricing_plan_id":"cebpf4jnsgd1na2vs0mg"},{"bike_id":"eb1a4d24-c883-4e05-9d49-2ffac9a37af3","system_id":"levelo_inurba_marseille","lat":43.299243,"lon":5.374807,"is_reserved":false,"is_disabled":false,"rental_uris":{"android":"levelo://app?vid=eb1a4d24-c883-4e05-9d49-2ffac9a37af3","ios":"levelo://app?vid=eb1a4d24-c883-4e05-9d49-2ffac9a37af3"},"vehicle_type_id":"4","last_reported":1708565912,"current_range_meters":25600,"station_id":"ce4bgjh2rcd13ifvqbg0","pricing_plan_id":"cebpf4jnsgd1na2vs0mg"},{"bike_id":"e3b83e8e-20bf-4e56-ba89-ae4b48e18956","system_id":"levelo_inurba_marseille","lat":43.31173,"lon":5.38712,"is_reserved":false,"is_disabled":false,"rental_uris":{"android":"levelo://app?vid=e3b83e8e-20bf-4e56-ba89-ae4b48e18956","ios":"levelo://app?vid=e3b83e8e-20bf-4e56-ba89-ae4b48e18956"},"vehicle_type_id":"4","last_reported":1708565912,"current_range_meters":26400,"station_id":"ce4bgv12rcd13ifvqcp0","pricing_plan_id":"cebpf4jnsgd1na2vs0mg"},{"bike_id":"f5bee2ff-6e6d-4488-af97-808ba6ea4c98","system_id":"levelo_inurba_marseille","lat":43.31171,"lon":5.38714,"is_reserved":false,"is_disabled":false,"rental_uris":{"android":"levelo://app?vid=f5bee2ff-6e6d-4488-af97-808ba6ea4c98","ios":"levelo://app?vid=f5bee2ff-6e6d-4488-af97-808ba6ea4c98"},"vehicle_type_id":"4","last_reported":1708565912,"current_range_meters":27600,"station_id":"ce4bgv12rcd13ifvqcp0","pricing_plan_id":"cebpf4jnsgd1na2vs0mg"},{"bike_id":"8d6c41e8-3af5-4183-b345-7301b4b0e91a","system_id":"levelo_inurba_marseille","lat":43.31169,"lon":5.38716,"is_reserved":false,"is_disabled":false,"rental_uris":{"android":"levelo://app?vid=8d6c41e8-3af5-4183-b345-7301b4b0e91a","ios":"levelo://app?vid=8d6c41e8-3af5-4183-b345-7301b4b0e91a"},"vehicle_type_id":"4","last_reported":1708565912,"current_range_meters":27600,"station_id":"ce4bgv12rcd13ifvqcp0","pricing_plan_id":"cebpf4jnsgd1na2vs0mg"},{"bike_id":"198e68ed-de4b-41c6-838d-8a27951fc9fd","system_id":"levelo_inurba_marseille","lat":43.31161,"lon":5.38718,"is_reserved":false,"is_disabled":false,"rental_uris":{"android":"levelo://app?vid=198e68ed-de4b-41c6-838d-8a27951fc9fd","ios":"levelo://app?vid=198e68ed-de4b-41c6-838d-8a27951fc9fd"},"vehicle_type_id":"4","last_reported":1708565912,"current_range_meters":10400,"station_id":"ce4bgv12rcd13ifvqcp0","pricing_plan_id":"cebpf4jnsgd1na2vs0mg"},{"bike_id":"9f976fdb-2df1-4ffc-b491-8dcb29c762d4","system_id":"levelo_inurba_marseille","lat":43.311578,"lon":5.387249,"is_reserved":false,"is_disabled":false,"rental_uris":{"android":"levelo://app?vid=9f976fdb-2df1-4ffc-b491-8dcb29c762d4","ios":"levelo://app?vid=9f976fdb-2df1-4ffc-b491-8dcb29c762d4"},"vehicle_type_id":"4","last_reported":1708565912,"current_range_meters":3600,"station_id":"ce4bgv12rcd13ifvqcp0","pricing_plan_id":"cebpf4jnsgd1na2vs0mg"},{"bike_id":"39272b67-8820-469d-a73a-8c92f1b816ea","system_id":"levelo_inurba_marseille","lat":43.297794,"lon":5.370888,"is_reserved":false,"is_disabled":false,"rental_uris":{"android":"levelo://app?vid=39272b67-8820-469d-a73a-8c92f1b816ea","ios":"levelo://app?vid=39272b67-8820-469d-a73a-8c92f1b816ea"},"vehicle_type_id":"4","last_reported":1708565912,"current_range_meters":14800,"station_id":"ce4bgop2rcd13ifvqc1g","pricing_plan_id":"cebpf4jnsgd1na2vs0mg"},{"bike_id":"dc84b517-faa5-4085-b8eb-ffade7a3674d","system_id":"levelo_inurba_marseille","lat":43.322872,"lon":5.382756,"is_reserved":false,"is_disabled":false,"rental_uris":{"android":"levelo://app?vid=dc84b517-faa5-4085-b8eb-ffade7a3674d","ios":"levelo://app?vid=dc84b517-faa5-4085-b8eb-ffade7a3674d"},"vehicle_type_id":"4","last_reported":1708565912,"current_range_meters":30000,"station_id":"ce4bhr12rcd13ifvqhqg","pricing_plan_id":"cebpf4jnsgd1na2vs0mg"},{"bike_id":"8c38fcf2-2074-4863-b8d6-e4d0562d5ae9","system_id":"levelo_inurba_marseille","lat":43.322872,"lon":5.382756,"is_reserved":false,"is_disabled":false,"rental_uris":{"android":"levelo://app?vid=8c38fcf2-2074-4863-b8d6-e4d0562d5ae9","ios":"levelo://app?vid=8c38fcf2-2074-4863-b8d6-e4d0562d5ae9"},"vehicle_type_id":"4","last_reported":1708565912,"current_range_meters":26000,"station_id":"ce4bhr12rcd13ifvqhqg","pricing_plan_id":"cebpf4jnsgd1na2vs0mg"},{"bike_id":"315279a6-c766-4621-85fb-2d30497faa5f","system_id":"levelo_inurba_marseille","lat":43.30177,"lon":5.38173,"is_reserved":false,"is_disabled":false,"rental_uris":{"android":"levelo://app?vid=315279a6-c766-4621-85fb-2d30497faa5f","ios":"levelo://app?vid=315279a6-c766-4621-85fb-2d30497faa5f"},"vehicle_type_id":"4","last_reported":1708565912,"current_range_meters":18400,"station_id":"","pricing_plan_id":"cebpf4jnsgd1na2vs0mg"},{"bike_id":"582f99f4-6790-4850-9fdb-a48b4c5856f9","system_id":"levelo_inurba_marseille","lat":43.297163,"lon":5.365866,"is_reserved":false,"is_disabled":false,"rental_uris":{"android":"levelo://app?vid=582f99f4-6790-4850-9fdb-a48b4c5856f9","ios":"levelo://app?vid=582f99f4-6790-4850-9fdb-a48b4c5856f9"},"vehicle_type_id":"4","last_reported":1708565912,"current_range_meters":31200,"station_id":"ce4bgn12rcd13ifvqbt0","pricing_plan_id":"cebpf4jnsgd1na2vs0mg"},{"bike_id":"85a4d11c-289d-4628-8388-5671fa361a18","system_id":"levelo_inurba_marseille","lat":43.29704,"lon":5.3661,"is_reserved":false,"is_disabled":false,"rental_uris":{"android":"levelo://app?vid=85a4d11c-289d-4628-8388-5671fa361a18","ios":"levelo://app?vid=85a4d11c-289d-4628-8388-5671fa361a18"},"vehicle_type_id":"4","last_reported":1708565912,"current_range_meters":27200,"station_id":"ce4bgn12rcd13ifvqbt0","pricing_plan_id":"cebpf4jnsgd1na2vs0mg"},{"bike_id":"e6961fda-8768-4921-9524-520e4ea32d92","system_id":"levelo_inurba_marseille","lat":43.309589,"lon":5.390258,"is_reserved":false,"is_disabled":false,"rental_uris":{"android":"levelo://app?vid=e6961fda-8768-4921-9524-520e4ea32d92","ios":"levelo://app?vid=e6961fda-8768-4921-9524-520e4ea32d92"},"vehicle_type_id":"4","last_reported":1708565912,"current_range_meters":30400,"station_id":"ce4bgup2rcd13ifvqco0","pricing_plan_id":"cebpf4jnsgd1na2vs0mg"},{"bike_id":"6d38667b-caf7-426c-9682-4f401d1f605e","system_id":"levelo_inurba_marseille","lat":43.31761,"lon":5.39007,"is_reserved":false,"is_disabled":false,"rental_uris":{"android":"levelo://app?vid=6d38667b-caf7-426c-9682-4f401d1f605e","ios":"levelo://app?vid=6d38667b-caf7-426c-9682-4f401d1f605e"},"vehicle_type_id":"4","last_reported":1708565912,"current_range_meters":26000,"station_id":"ce4bhqp2rcd13ifvqhng","pricing_plan_id":"cebpf4jnsgd1na2vs0mg"},{"bike_id":"c4eea628-8412-4da0-8993-64b792016ba4","system_id":"levelo_inurba_marseille","lat":43.31755,"lon":5.39015,"is_reserved":false,"is_disabled":false,"rental_uris":{"android":"levelo://app?vid=c4eea628-8412-4da0-8993-64b792016ba4","ios":"levelo://app?vid=c4eea628-8412-4da0-8993-64b792016ba4"},"vehicle_type_id":"4","last_reported":1708565912,"current_range_meters":6000,"station_id":"ce4bhqp2rcd13ifvqhng","pricing_plan_id":"cebpf4jnsgd1na2vs0mg"},{"bike_id":"0c228192-9b6d-49e6-87dd-6796cddaa509","system_id":"levelo_inurba_marseille","lat":43.317557,"lon":5.390173,"is_reserved":false,"is_disabled":false,"rental_uris":{"android":"levelo://app?vid=0c228192-9b6d-49e6-87dd-6796cddaa509","ios":"levelo://app?vid=0c228192-9b6d-49e6-87dd-6796cddaa509"},"vehicle_type_id":"4","last_reported":1708565912,"current_range_meters":26000,"station_id":"ce4bhqp2rcd13ifvqhng","pricing_plan_id":"cebpf4jnsgd1na2vs0mg"},{"bike_id":"af08c82d-ac9e-405b-9884-7b4d86d1edbe","system_id":"levelo_inurba_marseille","lat":43.317557,"lon":5.390173,"is_reserved":false,"is_disabled":false,"rental_uris":{"android":"levelo://app?vid=af08c82d-ac9e-405b-9884-7b4d86d1edbe","ios":"levelo://app?vid=af08c82d-ac9e-405b-9884-7b4d86d1edbe"},"vehicle_type_id":"4","last_reported":1708565912,"current_range_meters":22800,"station_id":"ce4bhqp2rcd13ifvqhng","pricing_plan_id":"cebpf4jnsgd1na2vs0mg"},{"bike_id":"4ca73dbe-6f7c-430f-9d1c-f9360aef9711","system_id":"levelo_inurba_marseille","lat":43.29536,"lon":5.36265,"is_reserved":false,"is_disabled":false,"rental_uris":{"android":"levelo://app?vid=4ca73dbe-6f7c-430f-9d1c-f9360aef9711","ios":"levelo://app?vid=4ca73dbe-6f7c-430f-9d1c-f9360aef9711"},"vehicle_type_id":"4","last_reported":1708565912,"current_range_meters":18400,"station_id":"","pricing_plan_id":"cebpf4jnsgd1na2vs0mg"},{"bike_id":"f7ac2c49-6f93-4edc-9120-f88266891552","system_id":"levelo_inurba_marseille","lat":43.30432,"lon":5.38884,"is_reserved":false,"is_disabled":false,"rental_uris":{"android":"levelo://app?vid=f7ac2c49-6f93-4edc-9120-f88266891552","ios":"levelo://app?vid=f7ac2c49-6f93-4edc-9120-f88266891552"},"vehicle_type_id":"4","last_reported":1708565912,"current_range_meters":9200,"station_id":"ce4bgk12rcd13ifvqbi0","pricing_plan_id":"cebpf4jnsgd1na2vs0mg"},{"bike_id":"d0b04147-7650-4a56-bfce-03f2ea473212","system_id":"levelo_inurba_marseille","lat":43.304341,"lon":5.388858,"is_reserved":false,"is_disabled":false,"rental_uris":{"android":"levelo://app?vid=d0b04147-7650-4a56-bfce-03f2ea473212","ios":"levelo://app?vid=d0b04147-7650-4a56-bfce-03f2ea473212"},"vehicle_type_id":"4","last_reported":1708565912,"current_range_meters":14400,"station_id":"ce4bgk12rcd13ifvqbi0","pricing_plan_id":"cebpf4jnsgd1na2vs0mg"},{"bike_id":"03adbbda-23da-4814-afe1-318988bc93e9","system_id":"levelo_inurba_marseille","lat":43.304367,"lon":5.388891,"is_reserved":false,"is_disabled":false,"rental_uris":{"android":"levelo://app?vid=03adbbda-23da-4814-afe1-318988bc93e9","ios":"levelo://app?vid=03adbbda-23da-4814-afe1-318988bc93e9"},"vehicle_type_id":"4","last_reported":1708565912,"current_range_meters":17200,"station_id":"ce4bgk12rcd13ifvqbi0","pricing_plan_id":"cebpf4jnsgd1na2vs0mg"},{"bike_id":"f591246c-1b7a-4c55-b424-910c554cf511","system_id":"levelo_inurba_marseille","lat":43.30438,"lon":5.38893,"is_reserved":false,"is_disabled":false,"rental_uris":{"android":"levelo://app?vid=f591246c-1b7a-4c55-b424-910c554cf511","ios":"levelo://app?vid=f591246c-1b7a-4c55-b424-910c554cf511"},"vehicle_type_id":"4","last_reported":1708565912,"current_range_meters":8400,"station_id":"ce4bgk12rcd13ifvqbi0","pricing_plan_id":"cebpf4jnsgd1na2vs0mg"},{"bike_id":"96d68c5e-82c6-45e7-a65e-d0733c5dd49b","system_id":"levelo_inurba_marseille","lat":43.304318,"lon":5.388888,"is_reserved":false,"is_disabled":false,"rental_uris":{"android":"levelo://app?vid=96d68c5e-82c6-45e7-a65e-d0733c5dd49b","ios":"levelo://app?vid=96d68c5e-82c6-45e7-a65e-d0733c5dd49b"},"vehicle_type_id":"4","last_reported":1708565912,"current_range_meters":20800,"station_id":"ce4bgk12rcd13ifvqbi0","pricing_plan_id":"cebpf4jnsgd1na2vs0mg"},{"bike_id":"7b34ac0e-9a6e-42d6-a317-85c40a094f2f","system_id":"levelo_inurba_marseille","lat":43.304326,"lon":5.388927,"is_reserved":false,"is_disabled":false,"rental_uris":{"android":"levelo://app?vid=7b34ac0e-9a6e-42d6-a317-85c40a094f2f","ios":"levelo://app?vid=7b34ac0e-9a6e-42d6-a317-85c40a094f2f"},"vehicle_type_id":"4","last_reported":1708565912,"current_range_meters":10000,"station_id":"ce4bgk12rcd13ifvqbi0","pricing_plan_id":"cebpf4jnsgd1na2vs0mg"},{"bike_id":"a6ec0533-e284-49d4-b34f-617311b86a65","system_id":"levelo_inurba_marseille","lat":43.304274,"lon":5.388873,"is_reserved":false,"is_disabled":false,"rental_uris":{"android":"levelo://app?vid=a6ec0533-e284-49d4-b34f-617311b86a65","ios":"levelo://app?vid=a6ec0533-e284-49d4-b34f-617311b86a65"},"vehicle_type_id":"4","last_reported":1708565912,"current_range_meters":26400,"station_id":"ce4bgk12rcd13ifvqbi0","pricing_plan_id":"cebpf4jnsgd1na2vs0mg"},{"bike_id":"f8afbad2-4705-40fe-84c2-abfa94c177f4","system_id":"levelo_inurba_marseille","lat":43.304275,"lon":5.388908,"is_reserved":false,"is_disabled":false,"rental_uris":{"android":"levelo://app?vid=f8afbad2-4705-40fe-84c2-abfa94c177f4","ios":"levelo://app?vid=f8afbad2-4705-40fe-84c2-abfa94c177f4"},"vehicle_type_id":"4","last_reported":1708565912,"current_range_meters":22000,"station_id":"ce4bgk12rcd13ifvqbi0","pricing_plan_id":"cebpf4jnsgd1na2vs0mg"},{"bike_id":"89237188-73f9-4f9e-8244-e24c99b028ea","system_id":"levelo_inurba_marseille","lat":43.304274,"lon":5.388873,"is_reserved":false,"is_disabled":false,"rental_uris":{"android":"levelo://app?vid=89237188-73f9-4f9e-8244-e24c99b028ea","ios":"levelo://app?vid=89237188-73f9-4f9e-8244-e24c99b028ea"},"vehicle_type_id":"4","last_reported":1708565912,"current_range_meters":30800,"station_id":"ce4bgk12rcd13ifvqbi0","pricing_plan_id":"cebpf4jnsgd1na2vs0mg"},{"bike_id":"8467e59d-581b-4e3d-881f-ce7ada2cf312","system_id":"levelo_inurba_marseille","lat":43.30433,"lon":5.38903,"is_reserved":false,"is_disabled":false,"rental_uris":{"android":"levelo://app?vid=8467e59d-581b-4e3d-881f-ce7ada2cf312","ios":"levelo://app?vid=8467e59d-581b-4e3d-881f-ce7ada2cf312"},"vehicle_type_id":"4","last_reported":1708565912,"current_range_meters":18400,"station_id":"ce4bgk12rcd13ifvqbi0","pricing_plan_id":"cebpf4jnsgd1na2vs0mg"},{"bike_id":"28c8b51a-fc6e-48a9-9275-24a05dfaaafe","system_id":"levelo_inurba_marseille","lat":43.299724,"lon":5.384848,"is_reserved":false,"is_disabled":false,"rental_uris":{"android":"levelo://app?vid=28c8b51a-fc6e-48a9-9275-24a05dfaaafe","ios":"levelo://app?vid=28c8b51a-fc6e-48a9-9275-24a05dfaaafe"},"vehicle_type_id":"4","last_reported":1708565912,"current_range_meters":400,"station_id":"ce4bgj92rcd13ifvqbd0","pricing_plan_id":"cebpf4jnsgd1na2vs0mg"},{"bike_id":"c7772c2e-88fd-4edf-81a0-26a77bf28d5a","system_id":"levelo_inurba_marseille","lat":43.32367,"lon":5.388836,"is_reserved":false,"is_disabled":false,"rental_uris":{"android":"levelo://app?vid=c7772c2e-88fd-4edf-81a0-26a77bf28d5a","ios":"levelo://app?vid=c7772c2e-88fd-4edf-81a0-26a77bf28d5a"},"vehicle_type_id":"4","last_reported":1708565912,"current_range_meters":12000,"station_id":"ce4bhqp2rcd13ifvqhog","pricing_plan_id":"cebpf4jnsgd1na2vs0mg"},{"bike_id":"235cf193-61ae-44c7-a824-0fdab5666ccc","system_id":"levelo_inurba_marseille","lat":43.31107,"lon":5.39324,"is_reserved":false,"is_disabled":false,"rental_uris":{"android":"levelo://app?vid=235cf193-61ae-44c7-a824-0fdab5666ccc","ios":"levelo://app?vid=235cf193-61ae-44c7-a824-0fdab5666ccc"},"vehicle_type_id":"4","last_reported":1708565912,"current_range_meters":20800,"station_id":"","pricing_plan_id":"cebpf4jnsgd1na2vs0mg"},{"bike_id":"e1331ad4-e372-4556-a92a-5ceabd47d69f","system_id":"levelo_inurba_marseille","lat":43.32367,"lon":5.388836,"is_reserved":false,"is_disabled":false,"rental_uris":{"android":"levelo://app?vid=e1331ad4-e372-4556-a92a-5ceabd47d69f","ios":"levelo://app?vid=e1331ad4-e372-4556-a92a-5ceabd47d69f"},"vehicle_type_id":"4","last_reported":1708565912,"current_range_meters":0,"station_id":"ce4bhqp2rcd13ifvqhog","pricing_plan_id":"cebpf4jnsgd1na2vs0mg"},{"bike_id":"71255df0-7a97-4081-be41-5c0f53a7608c","system_id":"levelo_inurba_marseille","lat":43.32367,"lon":5.388836,"is_reserved":false,"is_disabled":false,"rental_uris":{"android":"levelo://app?vid=71255df0-7a97-4081-be41-5c0f53a7608c","ios":"levelo://app?vid=71255df0-7a97-4081-be41-5c0f53a7608c"},"vehicle_type_id":"4","last_reported":1708565912,"current_range_meters":16000,"station_id":"ce4bhqp2rcd13ifvqhog","pricing_plan_id":"cebpf4jnsgd1na2vs0mg"},{"bike_id":"83b7bea1-b4a8-450e-a684-4aefcf81733c","system_id":"levelo_inurba_marseille","lat":43.32367,"lon":5.388836,"is_reserved":false,"is_disabled":false,"rental_uris":{"android":"levelo://app?vid=83b7bea1-b4a8-450e-a684-4aefcf81733c","ios":"levelo://app?vid=83b7bea1-b4a8-450e-a684-4aefcf81733c"},"vehicle_type_id":"4","last_reported":1708565912,"current_range_meters":12800,"station_id":"ce4bhqp2rcd13ifvqhog","pricing_plan_id":"cebpf4jnsgd1na2vs0mg"},{"bike_id":"5e419ec8-e3e1-4756-ac2b-ffa1b2c8f48b","system_id":"levelo_inurba_marseille","lat":43.32367,"lon":5.388836,"is_reserved":false,"is_disabled":false,"rental_uris":{"android":"levelo://app?vid=5e419ec8-e3e1-4756-ac2b-ffa1b2c8f48b","ios":"levelo://app?vid=5e419ec8-e3e1-4756-ac2b-ffa1b2c8f48b"},"vehicle_type_id":"4","last_reported":1708565912,"current_range_meters":8400,"station_id":"ce4bhqp2rcd13ifvqhog","pricing_plan_id":"cebpf4jnsgd1na2vs0mg"},{"bike_id":"c715f11e-055a-451d-9624-e5fff258cb8f","system_id":"levelo_inurba_marseille","lat":43.29602,"lon":5.381084,"is_reserved":false,"is_disabled":false,"rental_uris":{"android":"levelo://app?vid=c715f11e-055a-451d-9624-e5fff258cb8f","ios":"levelo://app?vid=c715f11e-055a-451d-9624-e5fff258cb8f"},"vehicle_type_id":"4","last_reported":1708565912,"current_range_meters":22400,"station_id":"ce4bgl12rcd13ifvqbo0","pricing_plan_id":"cebpf4jnsgd1na2vs0mg"},{"bike_id":"b04aaa4b-0eea-44b2-9470-893bcf8ba0df","system_id":"levelo_inurba_marseille","lat":43.29601,"lon":5.381084,"is_reserved":false,"is_disabled":false,"rental_uris":{"android":"levelo://app?vid=b04aaa4b-0eea-44b2-9470-893bcf8ba0df","ios":"levelo://app?vid=b04aaa4b-0eea-44b2-9470-893bcf8ba0df"},"vehicle_type_id":"4","last_reported":1708565912,"current_range_meters":0,"station_id":"ce4bgl12rcd13ifvqbo0","pricing_plan_id":"cebpf4jnsgd1na2vs0mg"},{"bike_id":"8521c94e-a2d8-4301-ad27-e65e94818cb8","system_id":"levelo_inurba_marseille","lat":43.29267,"lon":5.36848,"is_reserved":false,"is_disabled":false,"rental_uris":{"android":"levelo://app?vid=8521c94e-a2d8-4301-ad27-e65e94818cb8","ios":"levelo://app?vid=8521c94e-a2d8-4301-ad27-e65e94818cb8"},"vehicle_type_id":"4","last_reported":1708565912,"current_range_meters":27200,"station_id":"ce4bhbp2rcd13ifvqesg","pricing_plan_id":"cebpf4jnsgd1na2vs0mg"},{"bike_id":"97134168-a4b2-4bbf-8fd7-04260d82f683","system_id":"levelo_inurba_marseille","lat":43.293009,"lon":5.374584,"is_reserved":false,"is_disabled":false,"rental_uris":{"android":"levelo://app?vid=97134168-a4b2-4bbf-8fd7-04260d82f683","ios":"levelo://app?vid=97134168-a4b2-4bbf-8fd7-04260d82f683"},"vehicle_type_id":"4","last_reported":1708565912,"current_range_meters":4000,"station_id":"ce4bgi12rcd13ifvqb70","pricing_plan_id":"cebpf4jnsgd1na2vs0mg"},{"bike_id":"09e2f58a-e126-4c96-955b-0c02fc1885f2","system_id":"levelo_inurba_marseille","lat":43.305994,"lon":5.393687,"is_reserved":false,"is_disabled":false,"rental_uris":{"android":"levelo://app?vid=09e2f58a-e126-4c96-955b-0c02fc1885f2","ios":"levelo://app?vid=09e2f58a-e126-4c96-955b-0c02fc1885f2"},"vehicle_type_id":"4","last_reported":1708565912,"current_range_meters":27600,"station_id":"ce4bh0p2rcd13ifvqd80","pricing_plan_id":"cebpf4jnsgd1na2vs0mg"},{"bike_id":"803f9f80-7289-49f5-9161-c7de9833dbf8","system_id":"levelo_inurba_marseille","lat":43.294644,"lon":5.380354,"is_reserved":false,"is_disabled":false,"rental_uris":{"android":"levelo://app?vid=803f9f80-7289-49f5-9161-c7de9833dbf8","ios":"levelo://app?vid=803f9f80-7289-49f5-9161-c7de9833dbf8"},"vehicle_type_id":"4","last_reported":1708565912,"current_range_meters":3600,"station_id":"","pricing_plan_id":"cebpf4jnsgd1na2vs0mg"},{"bike_id":"a206341b-1869-47f3-a1dc-1861d12f3e47","system_id":"levelo_inurba_marseille","lat":43.306011,"lon":5.393656,"is_reserved":false,"is_disabled":false,"rental_uris":{"android":"levelo://app?vid=a206341b-1869-47f3-a1dc-1861d12f3e47","ios":"levelo://app?vid=a206341b-1869-47f3-a1dc-1861d12f3e47"},"vehicle_type_id":"4","last_reported":1708565912,"current_range_meters":19600,"station_id":"ce4bh0p2rcd13ifvqd80","pricing_plan_id":"cebpf4jnsgd1na2vs0mg"},{"bike_id":"e219bb00-3e66-4740-9ed3-d45cbf2b93dc","system_id":"levelo_inurba_marseille","lat":43.303002,"lon":5.392142,"is_reserved":false,"is_disabled":false,"rental_uris":{"android":"levelo://app?vid=e219bb00-3e66-4740-9ed3-d45cbf2b93dc","ios":"levelo://app?vid=e219bb00-3e66-4740-9ed3-d45cbf2b93dc"},"vehicle_type_id":"4","last_reported":1708565912,"current_range_meters":12000,"station_id":"ce4bgkh2rcd13ifvqbk0","pricing_plan_id":"cebpf4jnsgd1na2vs0mg"},{"bike_id":"6def3e69-3f1c-4788-830d-a3a345b9adb6","system_id":"levelo_inurba_marseille","lat":43.29226,"lon":5.36052,"is_reserved":false,"is_disabled":false,"rental_uris":{"android":"levelo://app?vid=6def3e69-3f1c-4788-830d-a3a345b9adb6","ios":"levelo://app?vid=6def3e69-3f1c-4788-830d-a3a345b9adb6"},"vehicle_type_id":"4","last_reported":1708565912,"current_range_meters":12400,"station_id":"ce4bhbh2rcd13ifvqeqg","pricing_plan_id":"cebpf4jnsgd1na2vs0mg"},{"bike_id":"8726305d-e6dd-4dd2-b9cc-631ea9be41b8","system_id":"levelo_inurba_marseille","lat":43.29221,"lon":5.360565,"is_reserved":false,"is_disabled":false,"rental_uris":{"android":"levelo://app?vid=8726305d-e6dd-4dd2-b9cc-631ea9be41b8","ios":"levelo://app?vid=8726305d-e6dd-4dd2-b9cc-631ea9be41b8"},"vehicle_type_id":"4","last_reported":1708565912,"current_range_meters":31200,"station_id":"ce4bhbh2rcd13ifvqeqg","pricing_plan_id":"cebpf4jnsgd1na2vs0mg"},{"bike_id":"9961486a-cc9c-4a4d-8fad-3b72637f61f1","system_id":"levelo_inurba_marseille","lat":43.300852,"lon":5.390859,"is_reserved":false,"is_disabled":false,"rental_uris":{"android":"levelo://app?vid=9961486a-cc9c-4a4d-8fad-3b72637f61f1","ios":"levelo://app?vid=9961486a-cc9c-4a4d-8fad-3b72637f61f1"},"vehicle_type_id":"4","last_reported":1708565912,"current_range_meters":5200,"station_id":"ce4bh192rcd13ifvqdb0","pricing_plan_id":"cebpf4jnsgd1na2vs0mg"},{"bike_id":"5e506f77-1dab-459b-891f-e74a2a104258","system_id":"levelo_inurba_marseille","lat":43.300852,"lon":5.390859,"is_reserved":false,"is_disabled":false,"rental_uris":{"android":"levelo://app?vid=5e506f77-1dab-459b-891f-e74a2a104258","ios":"levelo://app?vid=5e506f77-1dab-459b-891f-e74a2a104258"},"vehicle_type_id":"4","last_reported":1708565912,"current_range_meters":21600,"station_id":"ce4bh192rcd13ifvqdb0","pricing_plan_id":"cebpf4jnsgd1na2vs0mg"},{"bike_id":"48df24b0-1a3f-4d44-a65b-95b2c6faf8d8","system_id":"levelo_inurba_marseille","lat":43.292207,"lon":5.360514,"is_reserved":false,"is_disabled":false,"rental_uris":{"android":"levelo://app?vid=48df24b0-1a3f-4d44-a65b-95b2c6faf8d8","ios":"levelo://app?vid=48df24b0-1a3f-4d44-a65b-95b2c6faf8d8"},"vehicle_type_id":"4","last_reported":1708565912,"current_range_meters":28000,"station_id":"ce4bhbh2rcd13ifvqeqg","pricing_plan_id":"cebpf4jnsgd1na2vs0mg"},{"bike_id":"27b8be7c-dae7-4263-b969-4dd7ef0943b3","system_id":"levelo_inurba_marseille","lat":43.3008,"lon":5.39088,"is_reserved":false,"is_disabled":false,"rental_uris":{"android":"levelo://app?vid=27b8be7c-dae7-4263-b969-4dd7ef0943b3","ios":"levelo://app?vid=27b8be7c-dae7-4263-b969-4dd7ef0943b3"},"vehicle_type_id":"4","last_reported":1708565912,"current_range_meters":27600,"station_id":"","pricing_plan_id":"cebpf4jnsgd1na2vs0mg"},{"bike_id":"62e42057-1be5-4aa1-a5fb-49b015e300d6","system_id":"levelo_inurba_marseille","lat":43.298764,"lon":5.388973,"is_reserved":false,"is_disabled":false,"rental_uris":{"android":"levelo://app?vid=62e42057-1be5-4aa1-a5fb-49b015e300d6","ios":"levelo://app?vid=62e42057-1be5-4aa1-a5fb-49b015e300d6"},"vehicle_type_id":"4","last_reported":1708565912,"current_range_meters":0,"station_id":"ce4bh392rcd13ifvqdl0","pricing_plan_id":"cebpf4jnsgd1na2vs0mg"},{"bike_id":"6d977ead-008e-4b63-9e05-f7ae6b15ff6d","system_id":"levelo_inurba_marseille","lat":43.29873,"lon":5.38902,"is_reserved":false,"is_disabled":false,"rental_uris":{"android":"levelo://app?vid=6d977ead-008e-4b63-9e05-f7ae6b15ff6d","ios":"levelo://app?vid=6d977ead-008e-4b63-9e05-f7ae6b15ff6d"},"vehicle_type_id":"4","last_reported":1708565912,"current_range_meters":22400,"station_id":"ce4bh392rcd13ifvqdl0","pricing_plan_id":"cebpf4jnsgd1na2vs0mg"},{"bike_id":"5009213e-fd43-4568-a938-a1b6b775fa40","system_id":"levelo_inurba_marseille","lat":43.298764,"lon":5.388973,"is_reserved":false,"is_disabled":false,"rental_uris":{"android":"levelo://app?vid=5009213e-fd43-4568-a938-a1b6b775fa40","ios":"levelo://app?vid=5009213e-fd43-4568-a938-a1b6b775fa40"},"vehicle_type_id":"4","last_reported":1708565912,"current_range_meters":2400,"station_id":"ce4bh392rcd13ifvqdl0","pricing_plan_id":"cebpf4jnsgd1na2vs0mg"},{"bike_id":"c8f9cec4-206d-47c7-804c-bfdf74044dde","system_id":"levelo_inurba_marseille","lat":43.298764,"lon":5.388973,"is_reserved":false,"is_disabled":false,"rental_uris":{"android":"levelo://app?vid=c8f9cec4-206d-47c7-804c-bfdf74044dde","ios":"levelo://app?vid=c8f9cec4-206d-47c7-804c-bfdf74044dde"},"vehicle_type_id":"4","last_reported":1708565912,"current_range_meters":10800,"station_id":"ce4bh392rcd13ifvqdl0","pricing_plan_id":"cebpf4jnsgd1na2vs0mg"},{"bike_id":"0eaa2b07-8e1e-4ebf-b515-8a3dc8a90f10","system_id":"levelo_inurba_marseille","lat":43.298764,"lon":5.388973,"is_reserved":false,"is_disabled":false,"rental_uris":{"android":"levelo://app?vid=0eaa2b07-8e1e-4ebf-b515-8a3dc8a90f10","ios":"levelo://app?vid=0eaa2b07-8e1e-4ebf-b515-8a3dc8a90f10"},"vehicle_type_id":"4","last_reported":1708565912,"current_range_meters":2800,"station_id":"ce4bh392rcd13ifvqdl0","pricing_plan_id":"cebpf4jnsgd1na2vs0mg"},{"bike_id":"b1064b26-7d46-4735-a349-f6a81a25ba6f","system_id":"levelo_inurba_marseille","lat":43.298764,"lon":5.388973,"is_reserved":false,"is_disabled":false,"rental_uris":{"android":"levelo://app?vid=b1064b26-7d46-4735-a349-f6a81a25ba6f","ios":"levelo://app?vid=b1064b26-7d46-4735-a349-f6a81a25ba6f"},"vehicle_type_id":"4","last_reported":1708565912,"current_range_meters":31200,"station_id":"ce4bh392rcd13ifvqdl0","pricing_plan_id":"cebpf4jnsgd1na2vs0mg"},{"bike_id":"2fba6f72-41d0-4e78-b374-f5facf51b3ca","system_id":"levelo_inurba_marseille","lat":43.292004,"lon":5.358146,"is_reserved":false,"is_disabled":false,"rental_uris":{"android":"levelo://app?vid=2fba6f72-41d0-4e78-b374-f5facf51b3ca","ios":"levelo://app?vid=2fba6f72-41d0-4e78-b374-f5facf51b3ca"},"vehicle_type_id":"4","last_reported":1708565912,"current_range_meters":0,"station_id":"ce4bhb12rcd13ifvqel0","pricing_plan_id":"cebpf4jnsgd1na2vs0mg"},{"bike_id":"39975749-bd00-43f8-ae9b-d9c405b8909e","system_id":"levelo_inurba_marseille","lat":43.30881,"lon":5.39629,"is_reserved":false,"is_disabled":false,"rental_uris":{"android":"levelo://app?vid=39975749-bd00-43f8-ae9b-d9c405b8909e","ios":"levelo://app?vid=39975749-bd00-43f8-ae9b-d9c405b8909e"},"vehicle_type_id":"4","last_reported":1708565912,"current_range_meters":4000,"station_id":"ce4bh012rcd13ifvqcv0","pricing_plan_id":"cebpf4jnsgd1na2vs0mg"},{"bike_id":"d2e76ae0-3012-4b01-a41b-9709ed70ed8a","system_id":"levelo_inurba_marseille","lat":43.30884,"lon":5.39631,"is_reserved":false,"is_disabled":false,"rental_uris":{"android":"levelo://app?vid=d2e76ae0-3012-4b01-a41b-9709ed70ed8a","ios":"levelo://app?vid=d2e76ae0-3012-4b01-a41b-9709ed70ed8a"},"vehicle_type_id":"4","last_reported":1708565912,"current_range_meters":20800,"station_id":"ce4bh012rcd13ifvqcv0","pricing_plan_id":"cebpf4jnsgd1na2vs0mg"},{"bike_id":"d6b3fd8d-e464-4ae7-baf2-68252ecd473b","system_id":"levelo_inurba_marseille","lat":43.30885,"lon":5.39635,"is_reserved":false,"is_disabled":false,"rental_uris":{"android":"levelo://app?vid=d6b3fd8d-e464-4ae7-baf2-68252ecd473b","ios":"levelo://app?vid=d6b3fd8d-e464-4ae7-baf2-68252ecd473b"},"vehicle_type_id":"4","last_reported":1708565912,"current_range_meters":14400,"station_id":"ce4bh012rcd13ifvqcv0","pricing_plan_id":"cebpf4jnsgd1na2vs0mg"},{"bike_id":"c91731f1-20f5-488c-9ca0-eba0498083e7","system_id":"levelo_inurba_marseille","lat":43.308827,"lon":5.396346,"is_reserved":false,"is_disabled":false,"rental_uris":{"android":"levelo://app?vid=c91731f1-20f5-488c-9ca0-eba0498083e7","ios":"levelo://app?vid=c91731f1-20f5-488c-9ca0-eba0498083e7"},"vehicle_type_id":"4","last_reported":1708565912,"current_range_meters":25200,"station_id":"ce4bh012rcd13ifvqcv0","pricing_plan_id":"cebpf4jnsgd1na2vs0mg"},{"bike_id":"b5722d61-cbb1-4c56-9ce0-6e7ec3bff96e","system_id":"levelo_inurba_marseille","lat":43.30887,"lon":5.39637,"is_reserved":false,"is_disabled":false,"rental_uris":{"android":"levelo://app?vid=b5722d61-cbb1-4c56-9ce0-6e7ec3bff96e","ios":"levelo://app?vid=b5722d61-cbb1-4c56-9ce0-6e7ec3bff96e"},"vehicle_type_id":"4","last_reported":1708565912,"current_range_meters":0,"station_id":"ce4bh012rcd13ifvqcv0","pricing_plan_id":"cebpf4jnsgd1na2vs0mg"},{"bike_id":"73005881-9095-40ff-8472-9854d95ec076","system_id":"levelo_inurba_marseille","lat":43.313291,"lon":5.396838,"is_reserved":false,"is_disabled":false,"rental_uris":{"android":"levelo://app?vid=73005881-9095-40ff-8472-9854d95ec076","ios":"levelo://app?vid=73005881-9095-40ff-8472-9854d95ec076"},"vehicle_type_id":"4","last_reported":1708565912,"current_range_meters":11200,"station_id":"ce4bgvp2rcd13ifvqcu0","pricing_plan_id":"cebpf4jnsgd1na2vs0mg"},{"bike_id":"8bcadd97-2cbf-46d1-952a-441b1b883d99","system_id":"levelo_inurba_marseille","lat":43.313291,"lon":5.396838,"is_reserved":false,"is_disabled":false,"rental_uris":{"android":"levelo://app?vid=8bcadd97-2cbf-46d1-952a-441b1b883d99","ios":"levelo://app?vid=8bcadd97-2cbf-46d1-952a-441b1b883d99"},"vehicle_type_id":"4","last_reported":1708565912,"current_range_meters":12800,"station_id":"ce4bgvp2rcd13ifvqcu0","pricing_plan_id":"cebpf4jnsgd1na2vs0mg"},{"bike_id":"04d8d66d-38cf-420a-9e58-c6d815877faf","system_id":"levelo_inurba_marseille","lat":43.30884,"lon":5.39638,"is_reserved":false,"is_disabled":false,"rental_uris":{"android":"levelo://app?vid=04d8d66d-38cf-420a-9e58-c6d815877faf","ios":"levelo://app?vid=04d8d66d-38cf-420a-9e58-c6d815877faf"},"vehicle_type_id":"4","last_reported":1708565912,"current_range_meters":26800,"station_id":"ce4bh012rcd13ifvqcv0","pricing_plan_id":"cebpf4jnsgd1na2vs0mg"},{"bike_id":"e7685a00-3b1e-4d0e-9988-a0d294cdb5dd","system_id":"levelo_inurba_marseille","lat":43.309038,"lon":5.396546,"is_reserved":false,"is_disabled":false,"rental_uris":{"android":"levelo://app?vid=e7685a00-3b1e-4d0e-9988-a0d294cdb5dd","ios":"levelo://app?vid=e7685a00-3b1e-4d0e-9988-a0d294cdb5dd"},"vehicle_type_id":"4","last_reported":1708565912,"current_range_meters":30800,"station_id":"ce4bh012rcd13ifvqcv0","pricing_plan_id":"cebpf4jnsgd1na2vs0mg"},{"bike_id":"f15d0195-b1d6-467f-aec9-1f9b5a852d89","system_id":"levelo_inurba_marseille","lat":43.308799,"lon":5.396378,"is_reserved":false,"is_disabled":false,"rental_uris":{"android":"levelo://app?vid=f15d0195-b1d6-467f-aec9-1f9b5a852d89","ios":"levelo://app?vid=f15d0195-b1d6-467f-aec9-1f9b5a852d89"},"vehicle_type_id":"4","last_reported":1708565912,"current_range_meters":17200,"station_id":"ce4bh012rcd13ifvqcv0","pricing_plan_id":"cebpf4jnsgd1na2vs0mg"},{"bike_id":"da2b206d-86d3-417e-92d4-46c22c3e1bcd","system_id":"levelo_inurba_marseille","lat":43.313291,"lon":5.396838,"is_reserved":false,"is_disabled":false,"rental_uris":{"android":"levelo://app?vid=da2b206d-86d3-417e-92d4-46c22c3e1bcd","ios":"levelo://app?vid=da2b206d-86d3-417e-92d4-46c22c3e1bcd"},"vehicle_type_id":"4","last_reported":1708565912,"current_range_meters":22000,"station_id":"ce4bgvp2rcd13ifvqcu0","pricing_plan_id":"cebpf4jnsgd1na2vs0mg"},{"bike_id":"c2316938-e5ab-41c5-a015-9c669c8b584f","system_id":"levelo_inurba_marseille","lat":43.308865,"lon":5.396403,"is_reserved":false,"is_disabled":false,"rental_uris":{"android":"levelo://app?vid=c2316938-e5ab-41c5-a015-9c669c8b584f","ios":"levelo://app?vid=c2316938-e5ab-41c5-a015-9c669c8b584f"},"vehicle_type_id":"4","last_reported":1708565912,"current_range_meters":2400,"station_id":"ce4bh012rcd13ifvqcv0","pricing_plan_id":"cebpf4jnsgd1na2vs0mg"},{"bike_id":"e43f5693-bdf4-4000-8d59-c5582bb22ad6","system_id":"levelo_inurba_marseille","lat":43.29192,"lon":5.35803,"is_reserved":false,"is_disabled":false,"rental_uris":{"android":"levelo://app?vid=e43f5693-bdf4-4000-8d59-c5582bb22ad6","ios":"levelo://app?vid=e43f5693-bdf4-4000-8d59-c5582bb22ad6"},"vehicle_type_id":"4","last_reported":1708565912,"current_range_meters":31200,"station_id":"ce4bhb12rcd13ifvqel0","pricing_plan_id":"cebpf4jnsgd1na2vs0mg"},{"bike_id":"a432ab9f-685c-4b66-9de6-9ca469252cba","system_id":"levelo_inurba_marseille","lat":43.309047,"lon":5.396551,"is_reserved":false,"is_disabled":false,"rental_uris":{"android":"levelo://app?vid=a432ab9f-685c-4b66-9de6-9ca469252cba","ios":"levelo://app?vid=a432ab9f-685c-4b66-9de6-9ca469252cba"},"vehicle_type_id":"4","last_reported":1708565912,"current_range_meters":27600,"station_id":"ce4bh012rcd13ifvqcv0","pricing_plan_id":"cebpf4jnsgd1na2vs0mg"},{"bike_id":"553ac31c-1fdb-4662-8fad-344a38a03419","system_id":"levelo_inurba_marseille","lat":43.30876,"lon":5.3964,"is_reserved":false,"is_disabled":false,"rental_uris":{"android":"levelo://app?vid=553ac31c-1fdb-4662-8fad-344a38a03419","ios":"levelo://app?vid=553ac31c-1fdb-4662-8fad-344a38a03419"},"vehicle_type_id":"4","last_reported":1708565912,"current_range_meters":8000,"station_id":"ce4bh012rcd13ifvqcv0","pricing_plan_id":"cebpf4jnsgd1na2vs0mg"},{"bike_id":"4c79dbf3-648e-4b04-a815-6ea8b27e9798","system_id":"levelo_inurba_marseille","lat":43.313291,"lon":5.396838,"is_reserved":false,"is_disabled":false,"rental_uris":{"android":"levelo://app?vid=4c79dbf3-648e-4b04-a815-6ea8b27e9798","ios":"levelo://app?vid=4c79dbf3-648e-4b04-a815-6ea8b27e9798"},"vehicle_type_id":"4","last_reported":1708565912,"current_range_meters":30800,"station_id":"ce4bgvp2rcd13ifvqcu0","pricing_plan_id":"cebpf4jnsgd1na2vs0mg"},{"bike_id":"05e7815b-6b2a-447b-b952-b70f7ea302cb","system_id":"levelo_inurba_marseille","lat":43.309038,"lon":5.396546,"is_reserved":false,"is_disabled":false,"rental_uris":{"android":"levelo://app?vid=05e7815b-6b2a-447b-b952-b70f7ea302cb","ios":"levelo://app?vid=05e7815b-6b2a-447b-b952-b70f7ea302cb"},"vehicle_type_id":"4","last_reported":1708565912,"current_range_meters":25600,"station_id":"ce4bh012rcd13ifvqcv0","pricing_plan_id":"cebpf4jnsgd1na2vs0mg"},{"bike_id":"bf49e66f-0bfb-442d-a33b-2e4da996e4a3","system_id":"levelo_inurba_marseille","lat":43.308926,"lon":5.396453,"is_reserved":false,"is_disabled":false,"rental_uris":{"android":"levelo://app?vid=bf49e66f-0bfb-442d-a33b-2e4da996e4a3","ios":"levelo://app?vid=bf49e66f-0bfb-442d-a33b-2e4da996e4a3"},"vehicle_type_id":"4","last_reported":1708565912,"current_range_meters":12800,"station_id":"ce4bh012rcd13ifvqcv0","pricing_plan_id":"cebpf4jnsgd1na2vs0mg"},{"bike_id":"751bd1d8-46c5-40c4-b363-779ce7c3732c","system_id":"levelo_inurba_marseille","lat":43.30879,"lon":5.39642,"is_reserved":false,"is_disabled":false,"rental_uris":{"android":"levelo://app?vid=751bd1d8-46c5-40c4-b363-779ce7c3732c","ios":"levelo://app?vid=751bd1d8-46c5-40c4-b363-779ce7c3732c"},"vehicle_type_id":"4","last_reported":1708565912,"current_range_meters":1600,"station_id":"ce4bh012rcd13ifvqcv0","pricing_plan_id":"cebpf4jnsgd1na2vs0mg"},{"bike_id":"8edc9bad-95da-4a8c-99f4-39034fb031ad","system_id":"levelo_inurba_marseille","lat":43.30888,"lon":5.39645,"is_reserved":false,"is_disabled":false,"rental_uris":{"android":"levelo://app?vid=8edc9bad-95da-4a8c-99f4-39034fb031ad","ios":"levelo://app?vid=8edc9bad-95da-4a8c-99f4-39034fb031ad"},"vehicle_type_id":"4","last_reported":1708565912,"current_range_meters":17600,"station_id":"ce4bh012rcd13ifvqcv0","pricing_plan_id":"cebpf4jnsgd1na2vs0mg"},{"bike_id":"8d0615fe-bdb2-4b44-8c31-f03f6cbb329c","system_id":"levelo_inurba_marseille","lat":43.31332,"lon":5.39692,"is_reserved":false,"is_disabled":false,"rental_uris":{"android":"levelo://app?vid=8d0615fe-bdb2-4b44-8c31-f03f6cbb329c","ios":"levelo://app?vid=8d0615fe-bdb2-4b44-8c31-f03f6cbb329c"},"vehicle_type_id":"4","last_reported":1708565912,"current_range_meters":7600,"station_id":"ce4bgvp2rcd13ifvqcu0","pricing_plan_id":"cebpf4jnsgd1na2vs0mg"},{"bike_id":"fa5382d6-2dc0-4314-bb86-4ebe7a97c444","system_id":"levelo_inurba_marseille","lat":43.313291,"lon":5.396838,"is_reserved":false,"is_disabled":false,"rental_uris":{"android":"levelo://app?vid=fa5382d6-2dc0-4314-bb86-4ebe7a97c444","ios":"levelo://app?vid=fa5382d6-2dc0-4314-bb86-4ebe7a97c444"},"vehicle_type_id":"4","last_reported":1708565912,"current_range_meters":9200,"station_id":"ce4bgvp2rcd13ifvqcu0","pricing_plan_id":"cebpf4jnsgd1na2vs0mg"},{"bike_id":"50cfe226-b270-4a8b-a2c2-c711cda37840","system_id":"levelo_inurba_marseille","lat":43.309038,"lon":5.396546,"is_reserved":false,"is_disabled":false,"rental_uris":{"android":"levelo://app?vid=50cfe226-b270-4a8b-a2c2-c711cda37840","ios":"levelo://app?vid=50cfe226-b270-4a8b-a2c2-c711cda37840"},"vehicle_type_id":"4","last_reported":1708565912,"current_range_meters":25200,"station_id":"ce4bh012rcd13ifvqcv0","pricing_plan_id":"cebpf4jnsgd1na2vs0mg"},{"bike_id":"71afaae6-1e9e-423d-953c-3a6eba8f4f6f","system_id":"levelo_inurba_marseille","lat":43.3133,"lon":5.39693,"is_reserved":false,"is_disabled":false,"rental_uris":{"android":"levelo://app?vid=71afaae6-1e9e-423d-953c-3a6eba8f4f6f","ios":"levelo://app?vid=71afaae6-1e9e-423d-953c-3a6eba8f4f6f"},"vehicle_type_id":"4","last_reported":1708565912,"current_range_meters":0,"station_id":"ce4bgvp2rcd13ifvqcu0","pricing_plan_id":"cebpf4jnsgd1na2vs0mg"},{"bike_id":"8ea50faf-9792-4ce1-a686-e9e63d484ef6","system_id":"levelo_inurba_marseille","lat":43.3133,"lon":5.39693,"is_reserved":false,"is_disabled":false,"rental_uris":{"android":"levelo://app?vid=8ea50faf-9792-4ce1-a686-e9e63d484ef6","ios":"levelo://app?vid=8ea50faf-9792-4ce1-a686-e9e63d484ef6"},"vehicle_type_id":"4","last_reported":1708565912,"current_range_meters":15200,"station_id":"ce4bgvp2rcd13ifvqcu0","pricing_plan_id":"cebpf4jnsgd1na2vs0mg"},{"bike_id":"1e63554d-11d9-4a35-86a8-116fe8a9f3c3","system_id":"levelo_inurba_marseille","lat":43.308898,"lon":5.396472,"is_reserved":false,"is_disabled":false,"rental_uris":{"android":"levelo://app?vid=1e63554d-11d9-4a35-86a8-116fe8a9f3c3","ios":"levelo://app?vid=1e63554d-11d9-4a35-86a8-116fe8a9f3c3"},"vehicle_type_id":"4","last_reported":1708565912,"current_range_meters":400,"station_id":"ce4bh012rcd13ifvqcv0","pricing_plan_id":"cebpf4jnsgd1na2vs0mg"},{"bike_id":"155f81e6-d6b4-406f-b2a5-ca6a2d321b6b","system_id":"levelo_inurba_marseille","lat":43.308894,"lon":5.396471,"is_reserved":false,"is_disabled":false,"rental_uris":{"android":"levelo://app?vid=155f81e6-d6b4-406f-b2a5-ca6a2d321b6b","ios":"levelo://app?vid=155f81e6-d6b4-406f-b2a5-ca6a2d321b6b"},"vehicle_type_id":"4","last_reported":1708565912,"current_range_meters":800,"station_id":"ce4bh012rcd13ifvqcv0","pricing_plan_id":"cebpf4jnsgd1na2vs0mg"},{"bike_id":"894b1826-f42e-4407-ab09-a650a0b14f27","system_id":"levelo_inurba_marseille","lat":43.309038,"lon":5.396546,"is_reserved":false,"is_disabled":false,"rental_uris":{"android":"levelo://app?vid=894b1826-f42e-4407-ab09-a650a0b14f27","ios":"levelo://app?vid=894b1826-f42e-4407-ab09-a650a0b14f27"},"vehicle_type_id":"4","last_reported":1708565912,"current_range_meters":30400,"station_id":"ce4bh012rcd13ifvqcv0","pricing_plan_id":"cebpf4jnsgd1na2vs0mg"},{"bike_id":"475a941b-68c3-41d1-965e-d969142a1536","system_id":"levelo_inurba_marseille","lat":43.313291,"lon":5.396838,"is_reserved":false,"is_disabled":false,"rental_uris":{"android":"levelo://app?vid=475a941b-68c3-41d1-965e-d969142a1536","ios":"levelo://app?vid=475a941b-68c3-41d1-965e-d969142a1536"},"vehicle_type_id":"4","last_reported":1708565912,"current_range_meters":5600,"station_id":"ce4bgvp2rcd13ifvqcu0","pricing_plan_id":"cebpf4jnsgd1na2vs0mg"},{"bike_id":"98a2f629-1365-4c4f-8707-b615126c80a6","system_id":"levelo_inurba_marseille","lat":43.313291,"lon":5.396838,"is_reserved":false,"is_disabled":false,"rental_uris":{"android":"levelo://app?vid=98a2f629-1365-4c4f-8707-b615126c80a6","ios":"levelo://app?vid=98a2f629-1365-4c4f-8707-b615126c80a6"},"vehicle_type_id":"4","last_reported":1708565912,"current_range_meters":2400,"station_id":"ce4bgvp2rcd13ifvqcu0","pricing_plan_id":"cebpf4jnsgd1na2vs0mg"},{"bike_id":"ae0dae5c-6d14-4513-84e4-98decf70e417","system_id":"levelo_inurba_marseille","lat":43.30879,"lon":5.39647,"is_reserved":false,"is_disabled":false,"rental_uris":{"android":"levelo://app?vid=ae0dae5c-6d14-4513-84e4-98decf70e417","ios":"levelo://app?vid=ae0dae5c-6d14-4513-84e4-98decf70e417"},"vehicle_type_id":"4","last_reported":1708565912,"current_range_meters":2000,"station_id":"ce4bh012rcd13ifvqcv0","pricing_plan_id":"cebpf4jnsgd1na2vs0mg"},{"bike_id":"a01f3ae9-7905-47de-b50e-302797093ab0","system_id":"levelo_inurba_marseille","lat":43.309038,"lon":5.396546,"is_reserved":false,"is_disabled":false,"rental_uris":{"android":"levelo://app?vid=a01f3ae9-7905-47de-b50e-302797093ab0","ios":"levelo://app?vid=a01f3ae9-7905-47de-b50e-302797093ab0"},"vehicle_type_id":"4","last_reported":1708565912,"current_range_meters":26800,"station_id":"ce4bh012rcd13ifvqcv0","pricing_plan_id":"cebpf4jnsgd1na2vs0mg"},{"bike_id":"1d4d7044-d4e2-443f-9247-dbdedc572d06","system_id":"levelo_inurba_marseille","lat":43.313291,"lon":5.396838,"is_reserved":false,"is_disabled":false,"rental_uris":{"android":"levelo://app?vid=1d4d7044-d4e2-443f-9247-dbdedc572d06","ios":"levelo://app?vid=1d4d7044-d4e2-443f-9247-dbdedc572d06"},"vehicle_type_id":"4","last_reported":1708565912,"current_range_meters":6000,"station_id":"ce4bgvp2rcd13ifvqcu0","pricing_plan_id":"cebpf4jnsgd1na2vs0mg"},{"bike_id":"3032157a-f4bb-4cdd-a4e0-7cc1262d8902","system_id":"levelo_inurba_marseille","lat":43.31328,"lon":5.39698,"is_reserved":false,"is_disabled":false,"rental_uris":{"android":"levelo://app?vid=3032157a-f4bb-4cdd-a4e0-7cc1262d8902","ios":"levelo://app?vid=3032157a-f4bb-4cdd-a4e0-7cc1262d8902"},"vehicle_type_id":"4","last_reported":1708565912,"current_range_meters":14800,"station_id":"ce4bgvp2rcd13ifvqcu0","pricing_plan_id":"cebpf4jnsgd1na2vs0mg"},{"bike_id":"cc618080-23f0-4ddc-a041-0d6ab1ad460e","system_id":"levelo_inurba_marseille","lat":43.30887,"lon":5.39657,"is_reserved":false,"is_disabled":false,"rental_uris":{"android":"levelo://app?vid=cc618080-23f0-4ddc-a041-0d6ab1ad460e","ios":"levelo://app?vid=cc618080-23f0-4ddc-a041-0d6ab1ad460e"},"vehicle_type_id":"4","last_reported":1708565912,"current_range_meters":16400,"station_id":"ce4bh012rcd13ifvqcv0","pricing_plan_id":"cebpf4jnsgd1na2vs0mg"},{"bike_id":"87c7ccfc-0369-440c-ad33-8ef5b9c5492c","system_id":"levelo_inurba_marseille","lat":43.31327,"lon":5.39704,"is_reserved":false,"is_disabled":false,"rental_uris":{"android":"levelo://app?vid=87c7ccfc-0369-440c-ad33-8ef5b9c5492c","ios":"levelo://app?vid=87c7ccfc-0369-440c-ad33-8ef5b9c5492c"},"vehicle_type_id":"4","last_reported":1708565912,"current_range_meters":6400,"station_id":"ce4bgvp2rcd13ifvqcu0","pricing_plan_id":"cebpf4jnsgd1na2vs0mg"},{"bike_id":"f8bbb7a7-8709-4b91-8adb-c6da3d16ac65","system_id":"levelo_inurba_marseille","lat":43.3089,"lon":5.3966,"is_reserved":false,"is_disabled":false,"rental_uris":{"android":"levelo://app?vid=f8bbb7a7-8709-4b91-8adb-c6da3d16ac65","ios":"levelo://app?vid=f8bbb7a7-8709-4b91-8adb-c6da3d16ac65"},"vehicle_type_id":"4","last_reported":1708565912,"current_range_meters":8000,"station_id":"ce4bh012rcd13ifvqcv0","pricing_plan_id":"cebpf4jnsgd1na2vs0mg"},{"bike_id":"7acdffe1-7d26-4334-881a-e07bd571ea5b","system_id":"levelo_inurba_marseille","lat":43.31325,"lon":5.39706,"is_reserved":false,"is_disabled":false,"rental_uris":{"android":"levelo://app?vid=7acdffe1-7d26-4334-881a-e07bd571ea5b","ios":"levelo://app?vid=7acdffe1-7d26-4334-881a-e07bd571ea5b"},"vehicle_type_id":"4","last_reported":1708565912,"current_range_meters":8400,"station_id":"ce4bgvp2rcd13ifvqcu0","pricing_plan_id":"cebpf4jnsgd1na2vs0mg"},{"bike_id":"a6adbe1d-3c0c-4700-87a7-232caff1c784","system_id":"levelo_inurba_marseille","lat":43.30896,"lon":5.39662,"is_reserved":false,"is_disabled":false,"rental_uris":{"android":"levelo://app?vid=a6adbe1d-3c0c-4700-87a7-232caff1c784","ios":"levelo://app?vid=a6adbe1d-3c0c-4700-87a7-232caff1c784"},"vehicle_type_id":"4","last_reported":1708565912,"current_range_meters":18400,"station_id":"ce4bh012rcd13ifvqcv0","pricing_plan_id":"cebpf4jnsgd1na2vs0mg"},{"bike_id":"f5f77574-efbd-4940-b8eb-87844daed484","system_id":"levelo_inurba_marseille","lat":43.3088,"lon":5.39663,"is_reserved":false,"is_disabled":false,"rental_uris":{"android":"levelo://app?vid=f5f77574-efbd-4940-b8eb-87844daed484","ios":"levelo://app?vid=f5f77574-efbd-4940-b8eb-87844daed484"},"vehicle_type_id":"4","last_reported":1708565912,"current_range_meters":19600,"station_id":"ce4bh012rcd13ifvqcv0","pricing_plan_id":"cebpf4jnsgd1na2vs0mg"},{"bike_id":"dd7704a6-a9f1-42ef-93f9-e6aecc3361c3","system_id":"levelo_inurba_marseille","lat":43.29146,"lon":5.35905,"is_reserved":false,"is_disabled":false,"rental_uris":{"android":"levelo://app?vid=dd7704a6-a9f1-42ef-93f9-e6aecc3361c3","ios":"levelo://app?vid=dd7704a6-a9f1-42ef-93f9-e6aecc3361c3"},"vehicle_type_id":"4","last_reported":1708565912,"current_range_meters":4800,"station_id":"","pricing_plan_id":"cebpf4jnsgd1na2vs0mg"},{"bike_id":"6ae3c40f-b20c-4488-9c71-d4ede834d86a","system_id":"levelo_inurba_marseille","lat":43.29073,"lon":5.37168,"is_reserved":false,"is_disabled":false,"rental_uris":{"android":"levelo://app?vid=6ae3c40f-b20c-4488-9c71-d4ede834d86a","ios":"levelo://app?vid=6ae3c40f-b20c-4488-9c71-d4ede834d86a"},"vehicle_type_id":"4","last_reported":1708565912,"current_range_meters":0,"station_id":"ce4bh5p2rcd13ifvqe4g","pricing_plan_id":"cebpf4jnsgd1na2vs0mg"},{"bike_id":"62308972-da13-4c91-b6ba-0f61d5b70f98","system_id":"levelo_inurba_marseille","lat":43.302079,"lon":5.394627,"is_reserved":false,"is_disabled":false,"rental_uris":{"android":"levelo://app?vid=62308972-da13-4c91-b6ba-0f61d5b70f98","ios":"levelo://app?vid=62308972-da13-4c91-b6ba-0f61d5b70f98"},"vehicle_type_id":"4","last_reported":1708565912,"current_range_meters":0,"station_id":"ce4bh0p2rcd13ifvqd70","pricing_plan_id":"cebpf4jnsgd1na2vs0mg"},{"bike_id":"078a53b1-9e06-4eb1-ac31-c2c20375fdf6","system_id":"levelo_inurba_marseille","lat":43.302008,"lon":5.394694,"is_reserved":false,"is_disabled":false,"rental_uris":{"android":"levelo://app?vid=078a53b1-9e06-4eb1-ac31-c2c20375fdf6","ios":"levelo://app?vid=078a53b1-9e06-4eb1-ac31-c2c20375fdf6"},"vehicle_type_id":"4","last_reported":1708565912,"current_range_meters":11600,"station_id":"ce4bh0p2rcd13ifvqd70","pricing_plan_id":"cebpf4jnsgd1na2vs0mg"},{"bike_id":"8b25c66d-5696-42ff-834e-2c6bce08f8ae","system_id":"levelo_inurba_marseille","lat":43.302008,"lon":5.394694,"is_reserved":false,"is_disabled":false,"rental_uris":{"android":"levelo://app?vid=8b25c66d-5696-42ff-834e-2c6bce08f8ae","ios":"levelo://app?vid=8b25c66d-5696-42ff-834e-2c6bce08f8ae"},"vehicle_type_id":"4","last_reported":1708565912,"current_range_meters":24800,"station_id":"ce4bh0p2rcd13ifvqd70","pricing_plan_id":"cebpf4jnsgd1na2vs0mg"},{"bike_id":"57a31fe8-51b2-4515-ad11-98917de84a84","system_id":"levelo_inurba_marseille","lat":43.302008,"lon":5.394694,"is_reserved":false,"is_disabled":false,"rental_uris":{"android":"levelo://app?vid=57a31fe8-51b2-4515-ad11-98917de84a84","ios":"levelo://app?vid=57a31fe8-51b2-4515-ad11-98917de84a84"},"vehicle_type_id":"4","last_reported":1708565912,"current_range_meters":25600,"station_id":"ce4bh0p2rcd13ifvqd70","pricing_plan_id":"cebpf4jnsgd1na2vs0mg"},{"bike_id":"1f0babcd-3de1-4ac1-82a2-19c717952ed4","system_id":"levelo_inurba_marseille","lat":43.290624,"lon":5.359245,"is_reserved":false,"is_disabled":false,"rental_uris":{"android":"levelo://app?vid=1f0babcd-3de1-4ac1-82a2-19c717952ed4","ios":"levelo://app?vid=1f0babcd-3de1-4ac1-82a2-19c717952ed4"},"vehicle_type_id":"4","last_reported":1708565912,"current_range_meters":16400,"station_id":"ce4bha92rcd13ifvqeg0","pricing_plan_id":"cebpf4jnsgd1na2vs0mg"},{"bike_id":"f0cb419e-082d-4543-b9df-cb2f37840ff3","system_id":"levelo_inurba_marseille","lat":43.290435,"lon":5.35912,"is_reserved":false,"is_disabled":false,"rental_uris":{"android":"levelo://app?vid=f0cb419e-082d-4543-b9df-cb2f37840ff3","ios":"levelo://app?vid=f0cb419e-082d-4543-b9df-cb2f37840ff3"},"vehicle_type_id":"4","last_reported":1708565912,"current_range_meters":1600,"station_id":"ce4bha92rcd13ifvqeg0","pricing_plan_id":"cebpf4jnsgd1na2vs0mg"},{"bike_id":"8467db1f-03bd-42f1-adab-40693ac1a4df","system_id":"levelo_inurba_marseille","lat":43.290624,"lon":5.359245,"is_reserved":false,"is_disabled":false,"rental_uris":{"android":"levelo://app?vid=8467db1f-03bd-42f1-adab-40693ac1a4df","ios":"levelo://app?vid=8467db1f-03bd-42f1-adab-40693ac1a4df"},"vehicle_type_id":"4","last_reported":1708565912,"current_range_meters":30400,"station_id":"ce4bha92rcd13ifvqeg0","pricing_plan_id":"cebpf4jnsgd1na2vs0mg"},{"bike_id":"08f71bd9-e58b-4b3f-80e3-beebe540fc14","system_id":"levelo_inurba_marseille","lat":43.290631,"lon":5.359244,"is_reserved":false,"is_disabled":false,"rental_uris":{"android":"levelo://app?vid=08f71bd9-e58b-4b3f-80e3-beebe540fc14","ios":"levelo://app?vid=08f71bd9-e58b-4b3f-80e3-beebe540fc14"},"vehicle_type_id":"4","last_reported":1708565912,"current_range_meters":21600,"station_id":"ce4bha92rcd13ifvqeg0","pricing_plan_id":"cebpf4jnsgd1na2vs0mg"},{"bike_id":"6473e46c-432b-45d6-b1f2-8bfecf288c57","system_id":"levelo_inurba_marseille","lat":43.290327,"lon":5.375711,"is_reserved":false,"is_disabled":false,"rental_uris":{"android":"levelo://app?vid=6473e46c-432b-45d6-b1f2-8bfecf288c57","ios":"levelo://app?vid=6473e46c-432b-45d6-b1f2-8bfecf288c57"},"vehicle_type_id":"4","last_reported":1708565912,"current_range_meters":16400,"station_id":"ce4bh692rcd13ifvqe90","pricing_plan_id":"cebpf4jnsgd1na2vs0mg"},{"bike_id":"b393c523-9a04-48f3-8461-dcb2c28a60fa","system_id":"levelo_inurba_marseille","lat":43.28943,"lon":5.36627,"is_reserved":false,"is_disabled":false,"rental_uris":{"android":"levelo://app?vid=b393c523-9a04-48f3-8461-dcb2c28a60fa","ios":"levelo://app?vid=b393c523-9a04-48f3-8461-dcb2c28a60fa"},"vehicle_type_id":"4","last_reported":1708565912,"current_range_meters":28800,"station_id":"ce4bhap2rcd13ifvqek0","pricing_plan_id":"cebpf4jnsgd1na2vs0mg"},{"bike_id":"c7539fe3-44a0-4df3-9cb2-7511d597a46e","system_id":"levelo_inurba_marseille","lat":43.289184,"lon":5.366408,"is_reserved":false,"is_disabled":false,"rental_uris":{"android":"levelo://app?vid=c7539fe3-44a0-4df3-9cb2-7511d597a46e","ios":"levelo://app?vid=c7539fe3-44a0-4df3-9cb2-7511d597a46e"},"vehicle_type_id":"4","last_reported":1708565912,"current_range_meters":22400,"station_id":"ce4bhap2rcd13ifvqek0","pricing_plan_id":"cebpf4jnsgd1na2vs0mg"},{"bike_id":"252cafef-5fe4-4a91-9ff0-2e240b51a76d","system_id":"levelo_inurba_marseille","lat":43.289468,"lon":5.363719,"is_reserved":false,"is_disabled":false,"rental_uris":{"android":"levelo://app?vid=252cafef-5fe4-4a91-9ff0-2e240b51a76d","ios":"levelo://app?vid=252cafef-5fe4-4a91-9ff0-2e240b51a76d"},"vehicle_type_id":"4","last_reported":1708565912,"current_range_meters":25600,"station_id":"ce4bhc92rcd13ifvqetg","pricing_plan_id":"cebpf4jnsgd1na2vs0mg"},{"bike_id":"f0ab33d6-0007-4eb0-95c2-cf8983999901","system_id":"levelo_inurba_marseille","lat":43.289468,"lon":5.363719,"is_reserved":false,"is_disabled":false,"rental_uris":{"android":"levelo://app?vid=f0ab33d6-0007-4eb0-95c2-cf8983999901","ios":"levelo://app?vid=f0ab33d6-0007-4eb0-95c2-cf8983999901"},"vehicle_type_id":"4","last_reported":1708565912,"current_range_meters":30400,"station_id":"ce4bhc92rcd13ifvqetg","pricing_plan_id":"cebpf4jnsgd1na2vs0mg"},{"bike_id":"c70f5eff-8df3-438a-85c7-ddfb1f0001f8","system_id":"levelo_inurba_marseille","lat":43.290424,"lon":5.377871,"is_reserved":false,"is_disabled":false,"rental_uris":{"android":"levelo://app?vid=c70f5eff-8df3-438a-85c7-ddfb1f0001f8","ios":"levelo://app?vid=c70f5eff-8df3-438a-85c7-ddfb1f0001f8"},"vehicle_type_id":"4","last_reported":1708565912,"current_range_meters":0,"station_id":"","pricing_plan_id":"cebpf4jnsgd1na2vs0mg"},{"bike_id":"fef916dc-f749-4c46-96af-2d8fb01e2b1a","system_id":"levelo_inurba_marseille","lat":43.304274,"lon":5.397513,"is_reserved":false,"is_disabled":false,"rental_uris":{"android":"levelo://app?vid=fef916dc-f749-4c46-96af-2d8fb01e2b1a","ios":"levelo://app?vid=fef916dc-f749-4c46-96af-2d8fb01e2b1a"},"vehicle_type_id":"4","last_reported":1708565912,"current_range_meters":29600,"station_id":"ce4bh092rcd13ifvqd20","pricing_plan_id":"cebpf4jnsgd1na2vs0mg"},{"bike_id":"a74b55b7-9121-4884-bb9b-957dada63eac","system_id":"levelo_inurba_marseille","lat":43.292642,"lon":5.384254,"is_reserved":false,"is_disabled":false,"rental_uris":{"android":"levelo://app?vid=a74b55b7-9121-4884-bb9b-957dada63eac","ios":"levelo://app?vid=a74b55b7-9121-4884-bb9b-957dada63eac"},"vehicle_type_id":"4","last_reported":1708565912,"current_range_meters":30800,"station_id":"ce4bh692rcd13ifvqea0","pricing_plan_id":"cebpf4jnsgd1na2vs0mg"},{"bike_id":"17bfc0fc-2060-4f3d-b793-bb827830cf65","system_id":"levelo_inurba_marseille","lat":43.304296,"lon":5.397513,"is_reserved":false,"is_disabled":false,"rental_uris":{"android":"levelo://app?vid=17bfc0fc-2060-4f3d-b793-bb827830cf65","ios":"levelo://app?vid=17bfc0fc-2060-4f3d-b793-bb827830cf65"},"vehicle_type_id":"4","last_reported":1708565912,"current_range_meters":9200,"station_id":"ce4bh092rcd13ifvqd20","pricing_plan_id":"cebpf4jnsgd1na2vs0mg"},{"bike_id":"c535cec4-2f9a-4bb0-a8ec-c20cbd1c1a79","system_id":"levelo_inurba_marseille","lat":43.304296,"lon":5.397513,"is_reserved":false,"is_disabled":false,"rental_uris":{"android":"levelo://app?vid=c535cec4-2f9a-4bb0-a8ec-c20cbd1c1a79","ios":"levelo://app?vid=c535cec4-2f9a-4bb0-a8ec-c20cbd1c1a79"},"vehicle_type_id":"4","last_reported":1708565912,"current_range_meters":31200,"station_id":"ce4bh092rcd13ifvqd20","pricing_plan_id":"cebpf4jnsgd1na2vs0mg"},{"bike_id":"769da7ad-b110-4671-aeaf-c3adefc04c34","system_id":"levelo_inurba_marseille","lat":43.304274,"lon":5.397513,"is_reserved":false,"is_disabled":false,"rental_uris":{"android":"levelo://app?vid=769da7ad-b110-4671-aeaf-c3adefc04c34","ios":"levelo://app?vid=769da7ad-b110-4671-aeaf-c3adefc04c34"},"vehicle_type_id":"4","last_reported":1708565912,"current_range_meters":24000,"station_id":"ce4bh092rcd13ifvqd20","pricing_plan_id":"cebpf4jnsgd1na2vs0mg"},{"bike_id":"123d8869-bfd9-453e-8b8c-b230a39d01f3","system_id":"levelo_inurba_marseille","lat":43.290104,"lon":5.356111,"is_reserved":false,"is_disabled":false,"rental_uris":{"android":"levelo://app?vid=123d8869-bfd9-453e-8b8c-b230a39d01f3","ios":"levelo://app?vid=123d8869-bfd9-453e-8b8c-b230a39d01f3"},"vehicle_type_id":"4","last_reported":1708565912,"current_range_meters":400,"station_id":"ce4bhb92rcd13ifvqen0","pricing_plan_id":"cebpf4jnsgd1na2vs0mg"},{"bike_id":"64c8a977-e817-4529-bbbf-d54830de4873","system_id":"levelo_inurba_marseille","lat":43.29103,"lon":5.38085,"is_reserved":false,"is_disabled":false,"rental_uris":{"android":"levelo://app?vid=64c8a977-e817-4529-bbbf-d54830de4873","ios":"levelo://app?vid=64c8a977-e817-4529-bbbf-d54830de4873"},"vehicle_type_id":"4","last_reported":1708565912,"current_range_meters":7200,"station_id":"","pricing_plan_id":"cebpf4jnsgd1na2vs0mg"},{"bike_id":"013ae6a5-9d0e-45f6-8303-cdbad1ca4ff5","system_id":"levelo_inurba_marseille","lat":43.290104,"lon":5.356111,"is_reserved":false,"is_disabled":false,"rental_uris":{"android":"levelo://app?vid=013ae6a5-9d0e-45f6-8303-cdbad1ca4ff5","ios":"levelo://app?vid=013ae6a5-9d0e-45f6-8303-cdbad1ca4ff5"},"vehicle_type_id":"4","last_reported":1708565912,"current_range_meters":0,"station_id":"ce4bhb92rcd13ifvqen0","pricing_plan_id":"cebpf4jnsgd1na2vs0mg"},{"bike_id":"931bff72-558c-494e-9f0d-fb339064c390","system_id":"levelo_inurba_marseille","lat":43.290104,"lon":5.356111,"is_reserved":false,"is_disabled":false,"rental_uris":{"android":"levelo://app?vid=931bff72-558c-494e-9f0d-fb339064c390","ios":"levelo://app?vid=931bff72-558c-494e-9f0d-fb339064c390"},"vehicle_type_id":"4","last_reported":1708565912,"current_range_meters":27200,"station_id":"ce4bhb92rcd13ifvqen0","pricing_plan_id":"cebpf4jnsgd1na2vs0mg"},{"bike_id":"9c1dda56-a2e5-4e14-bddf-43a99b312584","system_id":"levelo_inurba_marseille","lat":43.290104,"lon":5.356111,"is_reserved":false,"is_disabled":false,"rental_uris":{"android":"levelo://app?vid=9c1dda56-a2e5-4e14-bddf-43a99b312584","ios":"levelo://app?vid=9c1dda56-a2e5-4e14-bddf-43a99b312584"},"vehicle_type_id":"4","last_reported":1708565912,"current_range_meters":0,"station_id":"ce4bhb92rcd13ifvqen0","pricing_plan_id":"cebpf4jnsgd1na2vs0mg"},{"bike_id":"bd6e0c7b-8456-4853-b58d-5221a79b4763","system_id":"levelo_inurba_marseille","lat":43.290104,"lon":5.356111,"is_reserved":false,"is_disabled":false,"rental_uris":{"android":"levelo://app?vid=bd6e0c7b-8456-4853-b58d-5221a79b4763","ios":"levelo://app?vid=bd6e0c7b-8456-4853-b58d-5221a79b4763"},"vehicle_type_id":"4","last_reported":1708565912,"current_range_meters":800,"station_id":"ce4bhb92rcd13ifvqen0","pricing_plan_id":"cebpf4jnsgd1na2vs0mg"},{"bike_id":"38581a57-c835-4252-b7d9-5629baa963f8","system_id":"levelo_inurba_marseille","lat":43.297904,"lon":5.393488,"is_reserved":false,"is_disabled":false,"rental_uris":{"android":"levelo://app?vid=38581a57-c835-4252-b7d9-5629baa963f8","ios":"levelo://app?vid=38581a57-c835-4252-b7d9-5629baa963f8"},