{"last_updated":1728486528,"ttl":60,"version":"2.2","data":{"bikes":[{"bike_id":"b53f77ab-ba1c-4ba1-af64-411b74248eb8","system_id":"levelo_inurba_marseille","lat":43.32457,"lon":5.39012,"is_reserved":false,"is_disabled":false,"rental_uris":{"android":"levelo://app?vid=b53f77ab-ba1c-4ba1-af64-411b74248eb8","ios":"levelo://app?vid=b53f77ab-ba1c-4ba1-af64-411b74248eb8"},"vehicle_type_id":"4","last_reported":1728486528,"current_range_meters":6400,"station_id":"","pricing_plan_id":"cebpf4jnsgd1na2vs0mg"},{"bike_id":"caa8a38e-63a7-4e20-96d1-7df828c3dc33","system_id":"levelo_inurba_marseille","lat":43.3012,"lon":5.39858,"is_reserved":false,"is_disabled":false,"rental_uris":{"android":"levelo://app?vid=caa8a38e-63a7-4e20-96d1-7df828c3dc33","ios":"levelo://app?vid=caa8a38e-63a7-4e20-96d1-7df828c3dc33"},"vehicle_type_id":"4","last_reported":1728486528,"current_range_meters":24000,"station_id":"ce4bh0h2rcd13ifvqd40","pricing_plan_id":"cebpf4jnsgd1na2vs0mg"},{"bike_id":"fd865786-3502-4ce7-b3d6-ca9d3ba57bbd","system_id":"levelo_inurba_marseille","lat":43.29443,"lon":5.39754,"is_reserved":false,"is_disabled":false,"rental_uris":{"android":"levelo://app?vid=fd865786-3502-4ce7-b3d6-ca9d3ba57bbd","ios":"levelo://app?vid=fd865786-3502-4ce7-b3d6-ca9d3ba57bbd"},"vehicle_type_id":"4","last_reported":1728486528,"current_range_meters":34000,"station_id":"ce4bh3h2rcd13ifvqdo0","pricing_plan_id":"cebpf4jnsgd1na2vs0mg"},{"bike_id":"4d05d63f-111c-4b0a-b626-f412071e31cd","system_id":"levelo_inurba_marseille","lat":43.26684,"lon":5.38271,"is_reserved":false,"is_disabled":false,"rental_uris":{"android":"levelo://app?vid=4d05d63f-111c-4b0a-b626-f412071e31cd","ios":"levelo://app?vid=4d05d63f-111c-4b0a-b626-f412071e31cd"},"vehicle_type_id":"4","last_reported":1728486528,"current_range_meters":25200,"station_id":"ce4bhg92rcd13ifvqf90","pricing_plan_id":"cebpf4jnsgd1na2vs0mg"},{"bike_id":"2b9de801-4944-4b89-ac1e-d0606188b06a","system_id":"levelo_inurba_marseille","lat":43.32212,"lon":5.39215,"is_reserved":false,"is_disabled":false,"rental_uris":{"android":"levelo://app?vid=2b9de801-4944-4b89-ac1e-d0606188b06a","ios":"levelo://app?vid=2b9de801-4944-4b89-ac1e-d0606188b06a"},"vehicle_type_id":"4","last_reported":1728486528,"current_range_meters":30400,"station_id":"","pricing_plan_id":"cebpf4jnsgd1na2vs0mg"},{"bike_id":"6b8918a4-396b-43e5-9a7f-f056357bf660","system_id":"levelo_inurba_marseille","lat":43.2307,"lon":5.35491,"is_reserved":false,"is_disabled":false,"rental_uris":{"android":"levelo://app?vid=6b8918a4-396b-43e5-9a7f-f056357bf660","ios":"levelo://app?vid=6b8918a4-396b-43e5-9a7f-f056357bf660"},"vehicle_type_id":"4","last_reported":1728486528,"current_range_meters":8400,"station_id":"cpo3342slgdg3j2ifvpg","pricing_plan_id":"cebpf4jnsgd1na2vs0mg"},{"bike_id":"98204301-504d-476c-bd31-d60054bcd170","system_id":"levelo_inurba_marseille","lat":43.32036,"lon":5.41569,"is_reserved":false,"is_disabled":false,"rental_uris":{"android":"levelo://app?vid=98204301-504d-476c-bd31-d60054bcd170","ios":"levelo://app?vid=98204301-504d-476c-bd31-d60054bcd170"},"vehicle_type_id":"4","last_reported":1728486528,"current_range_meters":8000,"station_id":"ce4bhq92rcd13ifvqhkg","pricing_plan_id":"cebpf4jnsgd1na2vs0mg"},{"bike_id":"0b463b55-db15-4269-8850-687ae18787e6","system_id":"levelo_inurba_marseille","lat":43.30602,"lon":5.37233,"is_reserved":false,"is_disabled":false,"rental_uris":{"android":"levelo://app?vid=0b463b55-db15-4269-8850-687ae18787e6","ios":"levelo://app?vid=0b463b55-db15-4269-8850-687ae18787e6"},"vehicle_type_id":"4","last_reported":1728486528,"current_range_meters":31200,"station_id":"ce4bgqh2rcd13ifvqc4g","pricing_plan_id":"cebpf4jnsgd1na2vs0mg"},{"bike_id":"b93a26d5-9cf8-4836-b415-9436c4beb0bb","system_id":"levelo_inurba_marseille","lat":43.26499,"lon":5.39543,"is_reserved":false,"is_disabled":false,"rental_uris":{"android":"levelo://app?vid=b93a26d5-9cf8-4836-b415-9436c4beb0bb","ios":"levelo://app?vid=b93a26d5-9cf8-4836-b415-9436c4beb0bb"},"vehicle_type_id":"4","last_reported":1728486528,"current_range_meters":2800,"station_id":"ce4bhi12rcd13ifvqfq0","pricing_plan_id":"cebpf4jnsgd1na2vs0mg"},{"bike_id":"ded92e28-6430-49c5-861a-e60f4af59b68","system_id":"levelo_inurba_marseille","lat":43.322285,"lon":5.410933,"is_reserved":false,"is_disabled":false,"rental_uris":{"android":"levelo://app?vid=ded92e28-6430-49c5-861a-e60f4af59b68","ios":"levelo://app?vid=ded92e28-6430-49c5-861a-e60f4af59b68"},"vehicle_type_id":"4","last_reported":1728486528,"current_range_meters":7200,"station_id":"ce4bgs12rcd13ifvqcag","pricing_plan_id":"cebpf4jnsgd1na2vs0mg"},{"bike_id":"16ce4078-3210-4f48-a56c-05355451624e","system_id":"levelo_inurba_marseille","lat":43.27105,"lon":5.38971,"is_reserved":false,"is_disabled":false,"rental_uris":{"android":"levelo://app?vid=16ce4078-3210-4f48-a56c-05355451624e","ios":"levelo://app?vid=16ce4078-3210-4f48-a56c-05355451624e"},"vehicle_type_id":"4","last_reported":1728486528,"current_range_meters":8000,"station_id":"ce4bhgp2rcd13ifvqfe0","pricing_plan_id":"cebpf4jnsgd1na2vs0mg"},{"bike_id":"cee7b4fc-b12b-412a-8546-e9c3c52fde0e","system_id":"levelo_inurba_marseille","lat":43.33024,"lon":5.39047,"is_reserved":false,"is_disabled":false,"rental_uris":{"android":"levelo://app?vid=cee7b4fc-b12b-412a-8546-e9c3c52fde0e","ios":"levelo://app?vid=cee7b4fc-b12b-412a-8546-e9c3c52fde0e"},"vehicle_type_id":"4","last_reported":1728486528,"current_range_meters":27200,"station_id":"ce4bhr92rcd13ifvqhrg","pricing_plan_id":"cebpf4jnsgd1na2vs0mg"},{"bike_id":"64c9abdc-a744-4b43-9856-a64e8ee5db15","system_id":"levelo_inurba_marseille","lat":43.23069,"lon":5.35487,"is_reserved":false,"is_disabled":false,"rental_uris":{"android":"levelo://app?vid=64c9abdc-a744-4b43-9856-a64e8ee5db15","ios":"levelo://app?vid=64c9abdc-a744-4b43-9856-a64e8ee5db15"},"vehicle_type_id":"4","last_reported":1728486528,"current_range_meters":37600,"station_id":"cpo3342slgdg3j2ifvpg","pricing_plan_id":"cebpf4jnsgd1na2vs0mg"},{"bike_id":"9d13c01b-10b8-49a1-b6c6-6ff14f27f769","system_id":"levelo_inurba_marseille","lat":43.31995,"lon":5.38166,"is_reserved":false,"is_disabled":false,"rental_uris":{"android":"levelo://app?vid=9d13c01b-10b8-49a1-b6c6-6ff14f27f769","ios":"levelo://app?vid=9d13c01b-10b8-49a1-b6c6-6ff14f27f769"},"vehicle_type_id":"4","last_reported":1728486528,"current_range_meters":5600,"station_id":"ce4bhr12rcd13ifvqhpg","pricing_plan_id":"cebpf4jnsgd1na2vs0mg"},{"bike_id":"fa676a5e-9c79-4a67-bacd-add425a4036d","system_id":"levelo_inurba_marseille","lat":43.23177,"lon":5.39978,"is_reserved":false,"is_disabled":false,"rental_uris":{"android":"levelo://app?vid=fa676a5e-9c79-4a67-bacd-add425a4036d","ios":"levelo://app?vid=fa676a5e-9c79-4a67-bacd-add425a4036d"},"vehicle_type_id":"4","last_reported":1728486528,"current_range_meters":39200,"station_id":"ce4bhn12rcd13ifvqgqg","pricing_plan_id":"cebpf4jnsgd1na2vs0mg"},{"bike_id":"5270b2bd-16dc-48ce-970c-ba490ce0c3dd","system_id":"levelo_inurba_marseille","lat":43.28031,"lon":5.36951,"is_reserved":false,"is_disabled":false,"rental_uris":{"android":"levelo://app?vid=5270b2bd-16dc-48ce-970c-ba490ce0c3dd","ios":"levelo://app?vid=5270b2bd-16dc-48ce-970c-ba490ce0c3dd"},"vehicle_type_id":"4","last_reported":1728486528,"current_range_meters":39200,"station_id":"ce4bha12rcd13ifvqef0","pricing_plan_id":"cebpf4jnsgd1na2vs0mg"},{"bike_id":"34c0aa67-8ee4-4f8c-a17a-645d30d6ab32","system_id":"levelo_inurba_marseille","lat":43.32041,"lon":5.4156,"is_reserved":false,"is_disabled":false,"rental_uris":{"android":"levelo://app?vid=34c0aa67-8ee4-4f8c-a17a-645d30d6ab32","ios":"levelo://app?vid=34c0aa67-8ee4-4f8c-a17a-645d30d6ab32"},"vehicle_type_id":"4","last_reported":1728486528,"current_range_meters":26000,"station_id":"ce4bhq92rcd13ifvqhkg","pricing_plan_id":"cebpf4jnsgd1na2vs0mg"},{"bike_id":"1c409644-e5b5-44bb-a329-0cfb59912b71","system_id":"levelo_inurba_marseille","lat":43.2693,"lon":5.38913,"is_reserved":false,"is_disabled":false,"rental_uris":{"android":"levelo://app?vid=1c409644-e5b5-44bb-a329-0cfb59912b71","ios":"levelo://app?vid=1c409644-e5b5-44bb-a329-0cfb59912b71"},"vehicle_type_id":"4","last_reported":1728486528,"current_range_meters":12800,"station_id":"ce4bhhh2rcd13ifvqfl0","pricing_plan_id":"cebpf4jnsgd1na2vs0mg"},{"bike_id":"d5e5ad6e-6acd-44ba-a6e0-ef813ae79617","system_id":"levelo_inurba_marseille","lat":43.31121,"lon":5.37772,"is_reserved":false,"is_disabled":false,"rental_uris":{"android":"levelo://app?vid=d5e5ad6e-6acd-44ba-a6e0-ef813ae79617","ios":"levelo://app?vid=d5e5ad6e-6acd-44ba-a6e0-ef813ae79617"},"vehicle_type_id":"4","last_reported":1728486528,"current_range_meters":38800,"station_id":"ce4bgt92rcd13ifvqcg0","pricing_plan_id":"cebpf4jnsgd1na2vs0mg"},{"bike_id":"8f0537cd-4bfb-40de-b6b6-261a67b14026","system_id":"levelo_inurba_marseille","lat":43.27821,"lon":5.40715,"is_reserved":false,"is_disabled":false,"rental_uris":{"android":"levelo://app?vid=8f0537cd-4bfb-40de-b6b6-261a67b14026","ios":"levelo://app?vid=8f0537cd-4bfb-40de-b6b6-261a67b14026"},"vehicle_type_id":"4","last_reported":1728486528,"current_range_meters":26800,"station_id":"ce4bhnh2rcd13ifvqgtg","pricing_plan_id":"cebpf4jnsgd1na2vs0mg"},{"bike_id":"56ce137e-37b8-4da0-8ddb-243cffb9239c","system_id":"levelo_inurba_marseille","lat":43.31723,"lon":5.42395,"is_reserved":false,"is_disabled":false,"rental_uris":{"android":"levelo://app?vid=56ce137e-37b8-4da0-8ddb-243cffb9239c","ios":"levelo://app?vid=56ce137e-37b8-4da0-8ddb-243cffb9239c"},"vehicle_type_id":"4","last_reported":1728486528,"current_range_meters":37600,"station_id":"ce4bhp92rcd13ifvqhbg","pricing_plan_id":"cebpf4jnsgd1na2vs0mg"},{"bike_id":"5e0ccbd1-9405-4bc4-85c2-0e76cec39abc","system_id":"levelo_inurba_marseille","lat":43.28425,"lon":5.34986,"is_reserved":false,"is_disabled":false,"rental_uris":{"android":"levelo://app?vid=5e0ccbd1-9405-4bc4-85c2-0e76cec39abc","ios":"levelo://app?vid=5e0ccbd1-9405-4bc4-85c2-0e76cec39abc"},"vehicle_type_id":"4","last_reported":1728486528,"current_range_meters":19600,"station_id":"ce4bhbh2rcd13ifvqepg","pricing_plan_id":"cebpf4jnsgd1na2vs0mg"},{"bike_id":"fc1556b1-d4ca-4057-a707-15e4d321d915","system_id":"levelo_inurba_marseille","lat":43.29249,"lon":5.40908,"is_reserved":false,"is_disabled":false,"rental_uris":{"android":"levelo://app?vid=fc1556b1-d4ca-4057-a707-15e4d321d915","ios":"levelo://app?vid=fc1556b1-d4ca-4057-a707-15e4d321d915"},"vehicle_type_id":"4","last_reported":1728486528,"current_range_meters":6400,"station_id":"ce4bh192rcd13ifvqdc0","pricing_plan_id":"cebpf4jnsgd1na2vs0mg"},{"bike_id":"6695a7e3-6411-477c-a59b-6e4c153d882c","system_id":"levelo_inurba_marseille","lat":43.24655,"lon":5.388907,"is_reserved":false,"is_disabled":false,"rental_uris":{"android":"levelo://app?vid=6695a7e3-6411-477c-a59b-6e4c153d882c","ios":"levelo://app?vid=6695a7e3-6411-477c-a59b-6e4c153d882c"},"vehicle_type_id":"4","last_reported":1728486528,"current_range_meters":7200,"station_id":"ce4bhg12rcd13ifvqf60","pricing_plan_id":"cebpf4jnsgd1na2vs0mg"},{"bike_id":"cdec1be1-7f8c-4d20-b15a-cee3bcfaecfc","system_id":"levelo_inurba_marseille","lat":43.31758,"lon":5.3902,"is_reserved":false,"is_disabled":false,"rental_uris":{"android":"levelo://app?vid=cdec1be1-7f8c-4d20-b15a-cee3bcfaecfc","ios":"levelo://app?vid=cdec1be1-7f8c-4d20-b15a-cee3bcfaecfc"},"vehicle_type_id":"4","last_reported":1728486528,"current_range_meters":23200,"station_id":"ce4bhqp2rcd13ifvqhng","pricing_plan_id":"cebpf4jnsgd1na2vs0mg"},{"bike_id":"d17168ca-18e2-43b4-abb5-338236f751a3","system_id":"levelo_inurba_marseille","lat":43.25105,"lon":5.40323,"is_reserved":false,"is_disabled":false,"rental_uris":{"android":"levelo://app?vid=d17168ca-18e2-43b4-abb5-338236f751a3","ios":"levelo://app?vid=d17168ca-18e2-43b4-abb5-338236f751a3"},"vehicle_type_id":"4","last_reported":1728486528,"current_range_meters":3600,"station_id":"ce4bhlh2rcd13ifvqgig","pricing_plan_id":"cebpf4jnsgd1na2vs0mg"},{"bike_id":"af2107d7-af95-4c2c-aa8f-4aca7ca52cd6","system_id":"levelo_inurba_marseille","lat":43.25825,"lon":5.39432,"is_reserved":false,"is_disabled":false,"rental_uris":{"android":"levelo://app?vid=af2107d7-af95-4c2c-aa8f-4aca7ca52cd6","ios":"levelo://app?vid=af2107d7-af95-4c2c-aa8f-4aca7ca52cd6"},"vehicle_type_id":"4","last_reported":1728486528,"current_range_meters":36800,"station_id":"ce4bhip2rcd13ifvqft0","pricing_plan_id":"cebpf4jnsgd1na2vs0mg"},{"bike_id":"e8f52422-6ac7-4fe1-8eb0-f84c2bebf6a3","system_id":"levelo_inurba_marseille","lat":43.29972,"lon":5.38488,"is_reserved":false,"is_disabled":false,"rental_uris":{"android":"levelo://app?vid=e8f52422-6ac7-4fe1-8eb0-f84c2bebf6a3","ios":"levelo://app?vid=e8f52422-6ac7-4fe1-8eb0-f84c2bebf6a3"},"vehicle_type_id":"4","last_reported":1728486528,"current_range_meters":3600,"station_id":"ce4bgj92rcd13ifvqbd0","pricing_plan_id":"cebpf4jnsgd1na2vs0mg"},{"bike_id":"59a20882-e884-470e-b111-32ed424e7cc3","system_id":"levelo_inurba_marseille","lat":43.33716,"lon":5.39192,"is_reserved":false,"is_disabled":false,"rental_uris":{"android":"levelo://app?vid=59a20882-e884-470e-b111-32ed424e7cc3","ios":"levelo://app?vid=59a20882-e884-470e-b111-32ed424e7cc3"},"vehicle_type_id":"4","last_reported":1728486528,"current_range_meters":30400,"station_id":"ce4bhr92rcd13ifvqhsg","pricing_plan_id":"cebpf4jnsgd1na2vs0mg"},{"bike_id":"86e68555-84a6-4e3d-8a7e-2b589cb6fa42","system_id":"levelo_inurba_marseille","lat":43.30802,"lon":5.43525,"is_reserved":false,"is_disabled":false,"rental_uris":{"android":"levelo://app?vid=86e68555-84a6-4e3d-8a7e-2b589cb6fa42","ios":"levelo://app?vid=86e68555-84a6-4e3d-8a7e-2b589cb6fa42"},"vehicle_type_id":"4","last_reported":1728486528,"current_range_meters":9600,"station_id":"ce4bhph2rcd13ifvqheg","pricing_plan_id":"cebpf4jnsgd1na2vs0mg"},{"bike_id":"72078f29-e154-4c5b-836a-c7e362ba1f09","system_id":"levelo_inurba_marseille","lat":43.33756,"lon":5.37471,"is_reserved":false,"is_disabled":false,"rental_uris":{"android":"levelo://app?vid=72078f29-e154-4c5b-836a-c7e362ba1f09","ios":"levelo://app?vid=72078f29-e154-4c5b-836a-c7e362ba1f09"},"vehicle_type_id":"4","last_reported":1728486528,"current_range_meters":10800,"station_id":"ce4rr2p2rcd13i802rgg","pricing_plan_id":"cebpf4jnsgd1na2vs0mg"},{"bike_id":"7d7ab187-9965-49a4-bf26-b6ade39671fc","system_id":"levelo_inurba_marseille","lat":43.23195,"lon":5.3555,"is_reserved":false,"is_disabled":false,"rental_uris":{"android":"levelo://app?vid=7d7ab187-9965-49a4-bf26-b6ade39671fc","ios":"levelo://app?vid=7d7ab187-9965-49a4-bf26-b6ade39671fc"},"vehicle_type_id":"4","last_reported":1728486528,"current_range_meters":24800,"station_id":"ce4bhu92rcd13ifvqi70","pricing_plan_id":"cebpf4jnsgd1na2vs0mg"},{"bike_id":"d51f0193-0dff-4957-8877-479daabe2300","system_id":"levelo_inurba_marseille","lat":43.337444,"lon":5.374475,"is_reserved":false,"is_disabled":false,"rental_uris":{"android":"levelo://app?vid=d51f0193-0dff-4957-8877-479daabe2300","ios":"levelo://app?vid=d51f0193-0dff-4957-8877-479daabe2300"},"vehicle_type_id":"4","last_reported":1728486528,"current_range_meters":38000,"station_id":"ce4rr2p2rcd13i802rgg","pricing_plan_id":"cebpf4jnsgd1na2vs0mg"},{"bike_id":"dc80b0e4-e686-4875-9991-4f06e3429d36","system_id":"levelo_inurba_marseille","lat":43.31761,"lon":5.3901,"is_reserved":false,"is_disabled":false,"rental_uris":{"android":"levelo://app?vid=dc80b0e4-e686-4875-9991-4f06e3429d36","ios":"levelo://app?vid=dc80b0e4-e686-4875-9991-4f06e3429d36"},"vehicle_type_id":"4","last_reported":1728486528,"current_range_meters":14000,"station_id":"ce4bhqp2rcd13ifvqhng","pricing_plan_id":"cebpf4jnsgd1na2vs0mg"},{"bike_id":"301688a8-dd40-425e-b930-2d6189497ee4","system_id":"levelo_inurba_marseille","lat":43.26685,"lon":5.3827,"is_reserved":false,"is_disabled":false,"rental_uris":{"android":"levelo://app?vid=301688a8-dd40-425e-b930-2d6189497ee4","ios":"levelo://app?vid=301688a8-dd40-425e-b930-2d6189497ee4"},"vehicle_type_id":"4","last_reported":1728486528,"current_range_meters":38000,"station_id":"ce4bhg92rcd13ifvqf90","pricing_plan_id":"cebpf4jnsgd1na2vs0mg"},{"bike_id":"35c3427a-cf13-40b4-b75f-e8e3a621cbba","system_id":"levelo_inurba_marseille","lat":43.31332,"lon":5.39696,"is_reserved":false,"is_disabled":false,"rental_uris":{"android":"levelo://app?vid=35c3427a-cf13-40b4-b75f-e8e3a621cbba","ios":"levelo://app?vid=35c3427a-cf13-40b4-b75f-e8e3a621cbba"},"vehicle_type_id":"4","last_reported":1728486528,"current_range_meters":34000,"station_id":"ce4bgvp2rcd13ifvqcu0","pricing_plan_id":"cebpf4jnsgd1na2vs0mg"},{"bike_id":"d0bd2bd9-1eb8-4cdd-8bc6-380094c39bfb","system_id":"levelo_inurba_marseille","lat":43.296936,"lon":5.365962,"is_reserved":false,"is_disabled":false,"rental_uris":{"android":"levelo://app?vid=d0bd2bd9-1eb8-4cdd-8bc6-380094c39bfb","ios":"levelo://app?vid=d0bd2bd9-1eb8-4cdd-8bc6-380094c39bfb"},"vehicle_type_id":"4","last_reported":1728486528,"current_range_meters":36400,"station_id":"ce4bgip2rcd13ifvqbb0","pricing_plan_id":"cebpf4jnsgd1na2vs0mg"},{"bike_id":"74e9ce9d-9e9f-4c6b-92fb-2f9a88c1f0f4","system_id":"levelo_inurba_marseille","lat":43.24178,"lon":5.36392,"is_reserved":false,"is_disabled":false,"rental_uris":{"android":"levelo://app?vid=74e9ce9d-9e9f-4c6b-92fb-2f9a88c1f0f4","ios":"levelo://app?vid=74e9ce9d-9e9f-4c6b-92fb-2f9a88c1f0f4"},"vehicle_type_id":"4","last_reported":1728486528,"current_range_meters":36800,"station_id":"cpo36qri1sfpv3e86is0","pricing_plan_id":"cebpf4jnsgd1na2vs0mg"},{"bike_id":"1a7e1ef3-7057-4ea5-9718-c1a6dab8faf6","system_id":"levelo_inurba_marseille","lat":43.29254,"lon":5.409,"is_reserved":false,"is_disabled":false,"rental_uris":{"android":"levelo://app?vid=1a7e1ef3-7057-4ea5-9718-c1a6dab8faf6","ios":"levelo://app?vid=1a7e1ef3-7057-4ea5-9718-c1a6dab8faf6"},"vehicle_type_id":"4","last_reported":1728486528,"current_range_meters":22800,"station_id":"ce4bh192rcd13ifvqdc0","pricing_plan_id":"cebpf4jnsgd1na2vs0mg"},{"bike_id":"9ac7778d-7002-40eb-a3fb-6595a61b9ac2","system_id":"levelo_inurba_marseille","lat":43.29264,"lon":5.40912,"is_reserved":false,"is_disabled":false,"rental_uris":{"android":"levelo://app?vid=9ac7778d-7002-40eb-a3fb-6595a61b9ac2","ios":"levelo://app?vid=9ac7778d-7002-40eb-a3fb-6595a61b9ac2"},"vehicle_type_id":"4","last_reported":1728486528,"current_range_meters":17200,"station_id":"ce4bh192rcd13ifvqdc0","pricing_plan_id":"cebpf4jnsgd1na2vs0mg"},{"bike_id":"91cb3a62-73bf-409d-85c9-22eca380e567","system_id":"levelo_inurba_marseille","lat":43.29099,"lon":5.38144,"is_reserved":false,"is_disabled":false,"rental_uris":{"android":"levelo://app?vid=91cb3a62-73bf-409d-85c9-22eca380e567","ios":"levelo://app?vid=91cb3a62-73bf-409d-85c9-22eca380e567"},"vehicle_type_id":"4","last_reported":1728486528,"current_range_meters":6000,"station_id":"ce4bh512rcd13ifvqe2g","pricing_plan_id":"cebpf4jnsgd1na2vs0mg"},{"bike_id":"792577a6-685a-43bd-bdfe-2ef41696d1e8","system_id":"levelo_inurba_marseille","lat":43.23188,"lon":5.39994,"is_reserved":false,"is_disabled":false,"rental_uris":{"android":"levelo://app?vid=792577a6-685a-43bd-bdfe-2ef41696d1e8","ios":"levelo://app?vid=792577a6-685a-43bd-bdfe-2ef41696d1e8"},"vehicle_type_id":"4","last_reported":1728486528,"current_range_meters":32000,"station_id":"ce4bhn12rcd13ifvqgqg","pricing_plan_id":"cebpf4jnsgd1na2vs0mg"},{"bike_id":"d8f791f5-19cf-46b9-b2c4-491cf41eae26","system_id":"levelo_inurba_marseille","lat":43.28703,"lon":5.37382,"is_reserved":false,"is_disabled":false,"rental_uris":{"android":"levelo://app?vid=d8f791f5-19cf-46b9-b2c4-491cf41eae26","ios":"levelo://app?vid=d8f791f5-19cf-46b9-b2c4-491cf41eae26"},"vehicle_type_id":"4","last_reported":1728486528,"current_range_meters":4000,"station_id":"ce4bh3p2rcd13ifvqdq0","pricing_plan_id":"cebpf4jnsgd1na2vs0mg"},{"bike_id":"d6e76bb6-ed17-413e-b0d3-f5a5cff069b8","system_id":"levelo_inurba_marseille","lat":43.27057,"lon":5.40264,"is_reserved":false,"is_disabled":false,"rental_uris":{"android":"levelo://app?vid=d6e76bb6-ed17-413e-b0d3-f5a5cff069b8","ios":"levelo://app?vid=d6e76bb6-ed17-413e-b0d3-f5a5cff069b8"},"vehicle_type_id":"4","last_reported":1728486528,"current_range_meters":8000,"station_id":"ce4bhk92rcd13ifvqgc0","pricing_plan_id":"cebpf4jnsgd1na2vs0mg"},{"bike_id":"c8b0f9ec-3371-4835-b214-a1b79f4757b6","system_id":"levelo_inurba_marseille","lat":43.32549,"lon":5.41426,"is_reserved":false,"is_disabled":false,"rental_uris":{"android":"levelo://app?vid=c8b0f9ec-3371-4835-b214-a1b79f4757b6","ios":"levelo://app?vid=c8b0f9ec-3371-4835-b214-a1b79f4757b6"},"vehicle_type_id":"4","last_reported":1728486528,"current_range_meters":27600,"station_id":"ce4bhq12rcd13ifvqhhg","pricing_plan_id":"cebpf4jnsgd1na2vs0mg"},{"bike_id":"4b8a7c39-2320-4981-971e-193665672007","system_id":"levelo_inurba_marseille","lat":43.2904,"lon":5.37551,"is_reserved":false,"is_disabled":false,"rental_uris":{"android":"levelo://app?vid=4b8a7c39-2320-4981-971e-193665672007","ios":"levelo://app?vid=4b8a7c39-2320-4981-971e-193665672007"},"vehicle_type_id":"4","last_reported":1728486528,"current_range_meters":31200,"station_id":"ce4bh692rcd13ifvqe90","pricing_plan_id":"cebpf4jnsgd1na2vs0mg"},{"bike_id":"ac45a0e0-9a70-4810-97dd-a872e45e1a81","system_id":"levelo_inurba_marseille","lat":43.27621,"lon":5.36116,"is_reserved":false,"is_disabled":false,"rental_uris":{"android":"levelo://app?vid=ac45a0e0-9a70-4810-97dd-a872e45e1a81","ios":"levelo://app?vid=ac45a0e0-9a70-4810-97dd-a872e45e1a81"},"vehicle_type_id":"4","last_reported":1728486528,"current_range_meters":17600,"station_id":"ce4bgj92rcd13ifvqbe0","pricing_plan_id":"cebpf4jnsgd1na2vs0mg"},{"bike_id":"67f5c9ce-d342-43bc-a463-b94ab74a1fe0","system_id":"levelo_inurba_marseille","lat":43.33023,"lon":5.39037,"is_reserved":false,"is_disabled":false,"rental_uris":{"android":"levelo://app?vid=67f5c9ce-d342-43bc-a463-b94ab74a1fe0","ios":"levelo://app?vid=67f5c9ce-d342-43bc-a463-b94ab74a1fe0"},"vehicle_type_id":"4","last_reported":1728486528,"current_range_meters":16400,"station_id":"ce4bhr92rcd13ifvqhrg","pricing_plan_id":"cebpf4jnsgd1na2vs0mg"},{"bike_id":"8513be67-a978-4cfc-9563-19285ed6fe5a","system_id":"levelo_inurba_marseille","lat":43.23196,"lon":5.35544,"is_reserved":false,"is_disabled":false,"rental_uris":{"android":"levelo://app?vid=8513be67-a978-4cfc-9563-19285ed6fe5a","ios":"levelo://app?vid=8513be67-a978-4cfc-9563-19285ed6fe5a"},"vehicle_type_id":"4","last_reported":1728486528,"current_range_meters":11200,"station_id":"ce4bhu92rcd13ifvqi70","pricing_plan_id":"cebpf4jnsgd1na2vs0mg"},{"bike_id":"930e9a6a-ce27-4dc1-b41b-09b8406a6c3b","system_id":"levelo_inurba_marseille","lat":43.24906,"lon":5.40884,"is_reserved":false,"is_disabled":false,"rental_uris":{"android":"levelo://app?vid=930e9a6a-ce27-4dc1-b41b-09b8406a6c3b","ios":"levelo://app?vid=930e9a6a-ce27-4dc1-b41b-09b8406a6c3b"},"vehicle_type_id":"4","last_reported":1728486528,"current_range_meters":2800,"station_id":"","pricing_plan_id":"cebpf4jnsgd1na2vs0mg"},{"bike_id":"2b970d01-0965-4688-9715-ceb4622733fc","system_id":"levelo_inurba_marseille","lat":43.25087,"lon":5.39519,"is_reserved":false,"is_disabled":false,"rental_uris":{"android":"levelo://app?vid=2b970d01-0965-4688-9715-ceb4622733fc","ios":"levelo://app?vid=2b970d01-0965-4688-9715-ceb4622733fc"},"vehicle_type_id":"4","last_reported":1728486528,"current_range_meters":22400,"station_id":"ce4bhm12rcd13ifvqgkg","pricing_plan_id":"cebpf4jnsgd1na2vs0mg"},{"bike_id":"c65ae82e-6371-4506-ac29-dc9e1eccf47a","system_id":"levelo_inurba_marseille","lat":43.320383,"lon":5.415688,"is_reserved":false,"is_disabled":false,"rental_uris":{"android":"levelo://app?vid=c65ae82e-6371-4506-ac29-dc9e1eccf47a","ios":"levelo://app?vid=c65ae82e-6371-4506-ac29-dc9e1eccf47a"},"vehicle_type_id":"4","last_reported":1728486528,"current_range_meters":17200,"station_id":"ce4bhq92rcd13ifvqhkg","pricing_plan_id":"cebpf4jnsgd1na2vs0mg"},{"bike_id":"922252e8-02c2-4987-8eed-1d6d69073568","system_id":"levelo_inurba_marseille","lat":43.26686,"lon":5.38265,"is_reserved":false,"is_disabled":false,"rental_uris":{"android":"levelo://app?vid=922252e8-02c2-4987-8eed-1d6d69073568","ios":"levelo://app?vid=922252e8-02c2-4987-8eed-1d6d69073568"},"vehicle_type_id":"4","last_reported":1728486528,"current_range_meters":31200,"station_id":"ce4bhg92rcd13ifvqf90","pricing_plan_id":"cebpf4jnsgd1na2vs0mg"},{"bike_id":"c283bee0-b392-40e1-b183-58fab03c3b3d","system_id":"levelo_inurba_marseille","lat":43.28433,"lon":5.34987,"is_reserved":false,"is_disabled":false,"rental_uris":{"android":"levelo://app?vid=c283bee0-b392-40e1-b183-58fab03c3b3d","ios":"levelo://app?vid=c283bee0-b392-40e1-b183-58fab03c3b3d"},"vehicle_type_id":"4","last_reported":1728486528,"current_range_meters":20000,"station_id":"ce4bhbh2rcd13ifvqepg","pricing_plan_id":"cebpf4jnsgd1na2vs0mg"},{"bike_id":"67eef66e-b30e-408e-86a3-5dd278f59894","system_id":"levelo_inurba_marseille","lat":43.27073,"lon":5.42276,"is_reserved":false,"is_disabled":false,"rental_uris":{"android":"levelo://app?vid=67eef66e-b30e-408e-86a3-5dd278f59894","ios":"levelo://app?vid=67eef66e-b30e-408e-86a3-5dd278f59894"},"vehicle_type_id":"4","last_reported":1728486528,"current_range_meters":8800,"station_id":"ce4bhk92rcd13ifvqgb0","pricing_plan_id":"cebpf4jnsgd1na2vs0mg"},{"bike_id":"3581338b-5365-459a-a049-2f529317ea1d","system_id":"levelo_inurba_marseille","lat":43.29611,"lon":5.37708,"is_reserved":false,"is_disabled":false,"rental_uris":{"android":"levelo://app?vid=3581338b-5365-459a-a049-2f529317ea1d","ios":"levelo://app?vid=3581338b-5365-459a-a049-2f529317ea1d"},"vehicle_type_id":"4","last_reported":1728486528,"current_range_meters":20000,"station_id":"ce4bgi92rcd13ifvqb90","pricing_plan_id":"cebpf4jnsgd1na2vs0mg"},{"bike_id":"a6b3d3c3-66cf-4ef9-93fa-38e21f9a6c77","system_id":"levelo_inurba_marseille","lat":43.26683,"lon":5.3827,"is_reserved":false,"is_disabled":false,"rental_uris":{"android":"levelo://app?vid=a6b3d3c3-66cf-4ef9-93fa-38e21f9a6c77","ios":"levelo://app?vid=a6b3d3c3-66cf-4ef9-93fa-38e21f9a6c77"},"vehicle_type_id":"4","last_reported":1728486528,"current_range_meters":38800,"station_id":"ce4bhg92rcd13ifvqf90","pricing_plan_id":"cebpf4jnsgd1na2vs0mg"},{"bike_id":"40772b0a-3541-454e-955f-67182eca5403","system_id":"levelo_inurba_marseille","lat":43.30545,"lon":5.3654,"is_reserved":false,"is_disabled":false,"rental_uris":{"android":"levelo://app?vid=40772b0a-3541-454e-955f-67182eca5403","ios":"levelo://app?vid=40772b0a-3541-454e-955f-67182eca5403"},"vehicle_type_id":"4","last_reported":1728486528,"current_range_meters":8800,"station_id":"ce4bgs12rcd13ifvqcag","pricing_plan_id":"cebpf4jnsgd1na2vs0mg"},{"bike_id":"321ff2c6-cc16-4857-84cd-6f10af9a2a6d","system_id":"levelo_inurba_marseille","lat":43.31758,"lon":5.3901,"is_reserved":false,"is_disabled":false,"rental_uris":{"android":"levelo://app?vid=321ff2c6-cc16-4857-84cd-6f10af9a2a6d","ios":"levelo://app?vid=321ff2c6-cc16-4857-84cd-6f10af9a2a6d"},"vehicle_type_id":"4","last_reported":1728486528,"current_range_meters":26800,"station_id":"ce4bhqp2rcd13ifvqhng","pricing_plan_id":"cebpf4jnsgd1na2vs0mg"},{"bike_id":"abdeb7b7-9443-4a2e-90f2-c4f781442d2e","system_id":"levelo_inurba_marseille","lat":43.29902,"lon":5.43657,"is_reserved":false,"is_disabled":false,"rental_uris":{"android":"levelo://app?vid=abdeb7b7-9443-4a2e-90f2-c4f781442d2e","ios":"levelo://app?vid=abdeb7b7-9443-4a2e-90f2-c4f781442d2e"},"vehicle_type_id":"4","last_reported":1728486528,"current_range_meters":14800,"station_id":"ce4bhpp2rcd13ifvqhfg","pricing_plan_id":"cebpf4jnsgd1na2vs0mg"},{"bike_id":"d38dd870-fb35-4ebe-8242-7b8d175eed8b","system_id":"levelo_inurba_marseille","lat":43.32267,"lon":5.40662,"is_reserved":false,"is_disabled":false,"rental_uris":{"android":"levelo://app?vid=d38dd870-fb35-4ebe-8242-7b8d175eed8b","ios":"levelo://app?vid=d38dd870-fb35-4ebe-8242-7b8d175eed8b"},"vehicle_type_id":"4","last_reported":1728486528,"current_range_meters":10800,"station_id":"","pricing_plan_id":"cebpf4jnsgd1na2vs0mg"},{"bike_id":"a9bf4170-e770-4566-9e2f-312be169973d","system_id":"levelo_inurba_marseille","lat":43.31081,"lon":5.38346,"is_reserved":false,"is_disabled":false,"rental_uris":{"android":"levelo://app?vid=a9bf4170-e770-4566-9e2f-312be169973d","ios":"levelo://app?vid=a9bf4170-e770-4566-9e2f-312be169973d"},"vehicle_type_id":"4","last_reported":1728486528,"current_range_meters":38800,"station_id":"ce4bgv92rcd13ifvqcr0","pricing_plan_id":"cebpf4jnsgd1na2vs0mg"},{"bike_id":"e678a2b9-b7f5-4d5f-9060-cb45d198e76d","system_id":"levelo_inurba_marseille","lat":43.2619,"lon":5.37452,"is_reserved":false,"is_disabled":false,"rental_uris":{"android":"levelo://app?vid=e678a2b9-b7f5-4d5f-9060-cb45d198e76d","ios":"levelo://app?vid=e678a2b9-b7f5-4d5f-9060-cb45d198e76d"},"vehicle_type_id":"4","last_reported":1728486528,"current_range_meters":33600,"station_id":"ce4bhgp2rcd13ifvqfc0","pricing_plan_id":"cebpf4jnsgd1na2vs0mg"},{"bike_id":"bea741d8-b892-4b59-a962-93f72f9fcac7","system_id":"levelo_inurba_marseille","lat":43.26215,"lon":5.37443,"is_reserved":false,"is_disabled":false,"rental_uris":{"android":"levelo://app?vid=bea741d8-b892-4b59-a962-93f72f9fcac7","ios":"levelo://app?vid=bea741d8-b892-4b59-a962-93f72f9fcac7"},"vehicle_type_id":"4","last_reported":1728486528,"current_range_meters":26000,"station_id":"ce4bhgp2rcd13ifvqfc0","pricing_plan_id":"cebpf4jnsgd1na2vs0mg"},{"bike_id":"ea6c2f2f-07a9-4f41-a458-b4e450643441","system_id":"levelo_inurba_marseille","lat":43.28462,"lon":5.35889,"is_reserved":false,"is_disabled":false,"rental_uris":{"android":"levelo://app?vid=ea6c2f2f-07a9-4f41-a458-b4e450643441","ios":"levelo://app?vid=ea6c2f2f-07a9-4f41-a458-b4e450643441"},"vehicle_type_id":"4","last_reported":1728486528,"current_range_meters":2800,"station_id":"ce4bhah2rcd13ifvqei0","pricing_plan_id":"cebpf4jnsgd1na2vs0mg"},{"bike_id":"be2acaab-76c6-4c71-8dd3-3f0f00b78585","system_id":"levelo_inurba_marseille","lat":43.3154,"lon":5.38027,"is_reserved":false,"is_disabled":false,"rental_uris":{"android":"levelo://app?vid=be2acaab-76c6-4c71-8dd3-3f0f00b78585","ios":"levelo://app?vid=be2acaab-76c6-4c71-8dd3-3f0f00b78585"},"vehicle_type_id":"4","last_reported":1728486528,"current_range_meters":28000,"station_id":"ce4bhsp2rcd13ifvqi50","pricing_plan_id":"cebpf4jnsgd1na2vs0mg"},{"bike_id":"2847ac29-dbab-4e9a-bacf-94d1c270189c","system_id":"levelo_inurba_marseille","lat":43.29581,"lon":5.37507,"is_reserved":false,"is_disabled":false,"rental_uris":{"android":"levelo://app?vid=2847ac29-dbab-4e9a-bacf-94d1c270189c","ios":"levelo://app?vid=2847ac29-dbab-4e9a-bacf-94d1c270189c"},"vehicle_type_id":"4","last_reported":1728486528,"current_range_meters":38800,"station_id":"ce4bgh92rcd13ifvqb50","pricing_plan_id":"cebpf4jnsgd1na2vs0mg"},{"bike_id":"62930a7f-74ee-49d2-82a3-62a466b84fb0","system_id":"levelo_inurba_marseille","lat":43.3267,"lon":5.38931,"is_reserved":false,"is_disabled":false,"rental_uris":{"android":"levelo://app?vid=62930a7f-74ee-49d2-82a3-62a466b84fb0","ios":"levelo://app?vid=62930a7f-74ee-49d2-82a3-62a466b84fb0"},"vehicle_type_id":"4","last_reported":1728486528,"current_range_meters":8400,"station_id":"","pricing_plan_id":"cebpf4jnsgd1na2vs0mg"},{"bike_id":"4d1f92d1-45e1-4868-aab4-b5f946a70f29","system_id":"levelo_inurba_marseille","lat":43.326496,"lon":5.410005,"is_reserved":false,"is_disabled":false,"rental_uris":{"android":"levelo://app?vid=4d1f92d1-45e1-4868-aab4-b5f946a70f29","ios":"levelo://app?vid=4d1f92d1-45e1-4868-aab4-b5f946a70f29"},"vehicle_type_id":"4","last_reported":1728486528,"current_range_meters":28000,"station_id":"ce4bhpp2rcd13ifvqhgg","pricing_plan_id":"cebpf4jnsgd1na2vs0mg"},{"bike_id":"509bc6d7-2569-4a5d-9c1e-eb0bcd1e2663","system_id":"levelo_inurba_marseille","lat":43.298492,"lon":5.362866,"is_reserved":false,"is_disabled":false,"rental_uris":{"android":"levelo://app?vid=509bc6d7-2569-4a5d-9c1e-eb0bcd1e2663","ios":"levelo://app?vid=509bc6d7-2569-4a5d-9c1e-eb0bcd1e2663"},"vehicle_type_id":"4","last_reported":1728486528,"current_range_meters":24800,"station_id":"ce4bgpp2rcd13ifvqc3g","pricing_plan_id":"cebpf4jnsgd1na2vs0mg"},{"bike_id":"575d955b-1b5e-4e1e-a5a1-69f12a792cad","system_id":"levelo_inurba_marseille","lat":43.29582,"lon":5.36744,"is_reserved":false,"is_disabled":false,"rental_uris":{"android":"levelo://app?vid=575d955b-1b5e-4e1e-a5a1-69f12a792cad","ios":"levelo://app?vid=575d955b-1b5e-4e1e-a5a1-69f12a792cad"},"vehicle_type_id":"4","last_reported":1728486528,"current_range_meters":38800,"station_id":"ce4bgph2rcd13ifvqc2g","pricing_plan_id":"cebpf4jnsgd1na2vs0mg"},{"bike_id":"70579604-fe31-4626-8ce5-732c300fd65a","system_id":"levelo_inurba_marseille","lat":43.299413,"lon":5.365383,"is_reserved":false,"is_disabled":false,"rental_uris":{"android":"levelo://app?vid=70579604-fe31-4626-8ce5-732c300fd65a","ios":"levelo://app?vid=70579604-fe31-4626-8ce5-732c300fd65a"},"vehicle_type_id":"4","last_reported":1728486528,"current_range_meters":8400,"station_id":"ce4bgm92rcd13ifvqbr0","pricing_plan_id":"cebpf4jnsgd1na2vs0mg"},{"bike_id":"f0e3fb5e-32fe-460b-a50c-b07e4eb83122","system_id":"levelo_inurba_marseille","lat":43.32365,"lon":5.38887,"is_reserved":false,"is_disabled":false,"rental_uris":{"android":"levelo://app?vid=f0e3fb5e-32fe-460b-a50c-b07e4eb83122","ios":"levelo://app?vid=f0e3fb5e-32fe-460b-a50c-b07e4eb83122"},"vehicle_type_id":"4","last_reported":1728486528,"current_range_meters":28800,"station_id":"ce4bhqp2rcd13ifvqhog","pricing_plan_id":"cebpf4jnsgd1na2vs0mg"},{"bike_id":"2740e795-0456-4143-adb0-2081223ac643","system_id":"levelo_inurba_marseille","lat":43.26946,"lon":5.40248,"is_reserved":false,"is_disabled":false,"rental_uris":{"android":"levelo://app?vid=2740e795-0456-4143-adb0-2081223ac643","ios":"levelo://app?vid=2740e795-0456-4143-adb0-2081223ac643"},"vehicle_type_id":"4","last_reported":1728486528,"current_range_meters":5600,"station_id":"cjm6bp8fraef2m0cb0m0","pricing_plan_id":"cebpf4jnsgd1na2vs0mg"},{"bike_id":"fe090380-9c56-44ec-98aa-f2997e53747a","system_id":"levelo_inurba_marseille","lat":43.29773,"lon":5.37117,"is_reserved":false,"is_disabled":false,"rental_uris":{"android":"levelo://app?vid=fe090380-9c56-44ec-98aa-f2997e53747a","ios":"levelo://app?vid=fe090380-9c56-44ec-98aa-f2997e53747a"},"vehicle_type_id":"4","last_reported":1728486528,"current_range_meters":28400,"station_id":"ce4bgop2rcd13ifvqc1g","pricing_plan_id":"cebpf4jnsgd1na2vs0mg"},{"bike_id":"6217f0d4-29aa-4911-a3f9-c02e45328700","system_id":"levelo_inurba_marseille","lat":43.23193,"lon":5.35544,"is_reserved":false,"is_disabled":false,"rental_uris":{"android":"levelo://app?vid=6217f0d4-29aa-4911-a3f9-c02e45328700","ios":"levelo://app?vid=6217f0d4-29aa-4911-a3f9-c02e45328700"},"vehicle_type_id":"4","last_reported":1728486528,"current_range_meters":32000,"station_id":"ce4bhu92rcd13ifvqi70","pricing_plan_id":"cebpf4jnsgd1na2vs0mg"},{"bike_id":"ed6568e4-b251-478f-9f9c-945041cbdd63","system_id":"levelo_inurba_marseille","lat":43.25871,"lon":5.39897,"is_reserved":false,"is_disabled":false,"rental_uris":{"android":"levelo://app?vid=ed6568e4-b251-478f-9f9c-945041cbdd63","ios":"levelo://app?vid=ed6568e4-b251-478f-9f9c-945041cbdd63"},"vehicle_type_id":"4","last_reported":1728486528,"current_range_meters":19200,"station_id":"ce4bhl92rcd13ifvqghg","pricing_plan_id":"cebpf4jnsgd1na2vs0mg"},{"bike_id":"920db849-51d8-4810-9098-e63abbf75a19","system_id":"levelo_inurba_marseille","lat":43.29587,"lon":5.37511,"is_reserved":false,"is_disabled":false,"rental_uris":{"android":"levelo://app?vid=920db849-51d8-4810-9098-e63abbf75a19","ios":"levelo://app?vid=920db849-51d8-4810-9098-e63abbf75a19"},"vehicle_type_id":"4","last_reported":1728486528,"current_range_meters":37600,"station_id":"ce4bgh92rcd13ifvqb50","pricing_plan_id":"cebpf4jnsgd1na2vs0mg"},{"bike_id":"32fa8335-4597-4bc8-ac62-244f358e90a4","system_id":"levelo_inurba_marseille","lat":43.2511,"lon":5.40334,"is_reserved":false,"is_disabled":false,"rental_uris":{"android":"levelo://app?vid=32fa8335-4597-4bc8-ac62-244f358e90a4","ios":"levelo://app?vid=32fa8335-4597-4bc8-ac62-244f358e90a4"},"vehicle_type_id":"4","last_reported":1728486528,"current_range_meters":8000,"station_id":"ce4bhlh2rcd13ifvqgig","pricing_plan_id":"cebpf4jnsgd1na2vs0mg"},{"bike_id":"bee145ee-fc59-4185-a037-bd0349d05714","system_id":"levelo_inurba_marseille","lat":43.31753,"lon":5.39018,"is_reserved":false,"is_disabled":false,"rental_uris":{"android":"levelo://app?vid=bee145ee-fc59-4185-a037-bd0349d05714","ios":"levelo://app?vid=bee145ee-fc59-4185-a037-bd0349d05714"},"vehicle_type_id":"4","last_reported":1728486528,"current_range_meters":16800,"station_id":"ce4bhqp2rcd13ifvqhng","pricing_plan_id":"cebpf4jnsgd1na2vs0mg"},{"bike_id":"7e1bf413-28d3-4c16-9648-140fc6a69cc3","system_id":"levelo_inurba_marseille","lat":43.26964,"lon":5.40185,"is_reserved":false,"is_disabled":false,"rental_uris":{"android":"levelo://app?vid=7e1bf413-28d3-4c16-9648-140fc6a69cc3","ios":"levelo://app?vid=7e1bf413-28d3-4c16-9648-140fc6a69cc3"},"vehicle_type_id":"4","last_reported":1728486528,"current_range_meters":37600,"station_id":"","pricing_plan_id":"cebpf4jnsgd1na2vs0mg"},{"bike_id":"fde7cf76-2bbb-462c-878e-7256af82b32b","system_id":"levelo_inurba_marseille","lat":43.23197,"lon":5.35546,"is_reserved":false,"is_disabled":false,"rental_uris":{"android":"levelo://app?vid=fde7cf76-2bbb-462c-878e-7256af82b32b","ios":"levelo://app?vid=fde7cf76-2bbb-462c-878e-7256af82b32b"},"vehicle_type_id":"4","last_reported":1728486528,"current_range_meters":38800,"station_id":"ce4bhu92rcd13ifvqi70","pricing_plan_id":"cebpf4jnsgd1na2vs0mg"},{"bike_id":"1c049354-88e0-46b5-963f-28088b33ca77","system_id":"levelo_inurba_marseille","lat":43.29708,"lon":5.36613,"is_reserved":false,"is_disabled":false,"rental_uris":{"android":"levelo://app?vid=1c049354-88e0-46b5-963f-28088b33ca77","ios":"levelo://app?vid=1c049354-88e0-46b5-963f-28088b33ca77"},"vehicle_type_id":"4","last_reported":1728486528,"current_range_meters":38800,"station_id":"ce4bgn12rcd13ifvqbt0","pricing_plan_id":"cebpf4jnsgd1na2vs0mg"},{"bike_id":"2b6677d5-7b62-4a07-b6c3-7bf77f5bcd5c","system_id":"levelo_inurba_marseille","lat":43.28447,"lon":5.39186,"is_reserved":false,"is_disabled":false,"rental_uris":{"android":"levelo://app?vid=2b6677d5-7b62-4a07-b6c3-7bf77f5bcd5c","ios":"levelo://app?vid=2b6677d5-7b62-4a07-b6c3-7bf77f5bcd5c"},"vehicle_type_id":"4","last_reported":1728486528,"current_range_meters":36800,"station_id":"ce4bhoh2rcd13ifvqh5g","pricing_plan_id":"cebpf4jnsgd1na2vs0mg"},{"bike_id":"75395850-4213-4a16-89df-f01b6c1235a8","system_id":"levelo_inurba_marseille","lat":43.30882,"lon":5.39658,"is_reserved":false,"is_disabled":false,"rental_uris":{"android":"levelo://app?vid=75395850-4213-4a16-89df-f01b6c1235a8","ios":"levelo://app?vid=75395850-4213-4a16-89df-f01b6c1235a8"},"vehicle_type_id":"4","last_reported":1728486528,"current_range_meters":37600,"station_id":"ce4bh012rcd13ifvqcv0","pricing_plan_id":"cebpf4jnsgd1na2vs0mg"},{"bike_id":"5bfa1cc2-dbbd-4f7b-8554-d46eb81ae493","system_id":"levelo_inurba_marseille","lat":43.30303,"lon":5.39215,"is_reserved":false,"is_disabled":false,"rental_uris":{"android":"levelo://app?vid=5bfa1cc2-dbbd-4f7b-8554-d46eb81ae493","ios":"levelo://app?vid=5bfa1cc2-dbbd-4f7b-8554-d46eb81ae493"},"vehicle_type_id":"4","last_reported":1728486528,"current_range_meters":12800,"station_id":"ce4bgkh2rcd13ifvqbk0","pricing_plan_id":"cebpf4jnsgd1na2vs0mg"},{"bike_id":"d80bfdf3-f9a5-4093-8b7b-d5ae47861bec","system_id":"levelo_inurba_marseille","lat":43.30807,"lon":5.4352,"is_reserved":false,"is_disabled":false,"rental_uris":{"android":"levelo://app?vid=d80bfdf3-f9a5-4093-8b7b-d5ae47861bec","ios":"levelo://app?vid=d80bfdf3-f9a5-4093-8b7b-d5ae47861bec"},"vehicle_type_id":"4","last_reported":1728486528,"current_range_meters":16800,"station_id":"ce4bhph2rcd13ifvqheg","pricing_plan_id":"cebpf4jnsgd1na2vs0mg"},{"bike_id":"e9d63d80-714f-412f-9d79-f9b71cc2b9c8","system_id":"levelo_inurba_marseille","lat":43.28434,"lon":5.39198,"is_reserved":false,"is_disabled":false,"rental_uris":{"android":"levelo://app?vid=e9d63d80-714f-412f-9d79-f9b71cc2b9c8","ios":"levelo://app?vid=e9d63d80-714f-412f-9d79-f9b71cc2b9c8"},"vehicle_type_id":"4","last_reported":1728486528,"current_range_meters":7200,"station_id":"ce4bhoh2rcd13ifvqh5g","pricing_plan_id":"cebpf4jnsgd1na2vs0mg"},{"bike_id":"046883e3-2543-42c6-9043-656689a3e6d3","system_id":"levelo_inurba_marseille","lat":43.25002,"lon":5.38924,"is_reserved":false,"is_disabled":false,"rental_uris":{"android":"levelo://app?vid=046883e3-2543-42c6-9043-656689a3e6d3","ios":"levelo://app?vid=046883e3-2543-42c6-9043-656689a3e6d3"},"vehicle_type_id":"4","last_reported":1728486528,"current_range_meters":9600,"station_id":"ce4bhgp2rcd13ifvqfd0","pricing_plan_id":"cebpf4jnsgd1na2vs0mg"},{"bike_id":"3cfc4409-26a5-4448-b348-e816f2448f79","system_id":"levelo_inurba_marseille","lat":43.30777,"lon":5.37661,"is_reserved":false,"is_disabled":false,"rental_uris":{"android":"levelo://app?vid=3cfc4409-26a5-4448-b348-e816f2448f79","ios":"levelo://app?vid=3cfc4409-26a5-4448-b348-e816f2448f79"},"vehicle_type_id":"4","last_reported":1728486528,"current_range_meters":35600,"station_id":"ce4bgv92rcd13ifvqcq0","pricing_plan_id":"cebpf4jnsgd1na2vs0mg"},{"bike_id":"25afecff-8faf-4ca5-beb4-ce74280dcb13","system_id":"levelo_inurba_marseille","lat":43.2319,"lon":5.35541,"is_reserved":false,"is_disabled":false,"rental_uris":{"android":"levelo://app?vid=25afecff-8faf-4ca5-beb4-ce74280dcb13","ios":"levelo://app?vid=25afecff-8faf-4ca5-beb4-ce74280dcb13"},"vehicle_type_id":"4","last_reported":1728486528,"current_range_meters":2800,"station_id":"ce4bhu92rcd13ifvqi70","pricing_plan_id":"cebpf4jnsgd1na2vs0mg"},{"bike_id":"295c0c5a-de02-4f25-9266-1c1f7cc00b0c","system_id":"levelo_inurba_marseille","lat":43.31169,"lon":5.38716,"is_reserved":false,"is_disabled":false,"rental_uris":{"android":"levelo://app?vid=295c0c5a-de02-4f25-9266-1c1f7cc00b0c","ios":"levelo://app?vid=295c0c5a-de02-4f25-9266-1c1f7cc00b0c"},"vehicle_type_id":"4","last_reported":1728486528,"current_range_meters":32800,"station_id":"ce4bgv12rcd13ifvqcp0","pricing_plan_id":"cebpf4jnsgd1na2vs0mg"},{"bike_id":"59769b5a-682f-468c-a2ad-5a2fba78e41c","system_id":"levelo_inurba_marseille","lat":43.271908,"lon":5.409967,"is_reserved":false,"is_disabled":false,"rental_uris":{"android":"levelo://app?vid=59769b5a-682f-468c-a2ad-5a2fba78e41c","ios":"levelo://app?vid=59769b5a-682f-468c-a2ad-5a2fba78e41c"},"vehicle_type_id":"4","last_reported":1728486528,"current_range_meters":9600,"station_id":"ce4bhl12rcd13ifvqgf0","pricing_plan_id":"cebpf4jnsgd1na2vs0mg"},{"bike_id":"201b87d1-8040-4acf-bf4c-b92708026c49","system_id":"levelo_inurba_marseille","lat":43.29306,"lon":5.371841,"is_reserved":false,"is_disabled":false,"rental_uris":{"android":"levelo://app?vid=201b87d1-8040-4acf-bf4c-b92708026c49","ios":"levelo://app?vid=201b87d1-8040-4acf-bf4c-b92708026c49"},"vehicle_type_id":"4","last_reported":1728486528,"current_range_meters":37600,"station_id":"ce4bgh92rcd13ifvqb40","pricing_plan_id":"cebpf4jnsgd1na2vs0mg"},{"bike_id":"7219fee0-219f-4cfa-8633-b620db7597ae","system_id":"levelo_inurba_marseille","lat":43.29838,"lon":5.37096,"is_reserved":false,"is_disabled":false,"rental_uris":{"android":"levelo://app?vid=7219fee0-219f-4cfa-8633-b620db7597ae","ios":"levelo://app?vid=7219fee0-219f-4cfa-8633-b620db7597ae"},"vehicle_type_id":"4","last_reported":1728486528,"current_range_meters":10000,"station_id":"","pricing_plan_id":"cebpf4jnsgd1na2vs0mg"},{"bike_id":"f91066a1-e8cb-48d4-8373-4e9e845c15f1","system_id":"levelo_inurba_marseille","lat":43.30802,"lon":5.4352,"is_reserved":false,"is_disabled":false,"rental_uris":{"android":"levelo://app?vid=f91066a1-e8cb-48d4-8373-4e9e845c15f1","ios":"levelo://app?vid=f91066a1-e8cb-48d4-8373-4e9e845c15f1"},"vehicle_type_id":"4","last_reported":1728486528,"current_range_meters":8800,"station_id":"ce4bhph2rcd13ifvqheg","pricing_plan_id":"cebpf4jnsgd1na2vs0mg"},{"bike_id":"ec77b745-1b78-47ba-a122-ea1caf847ee8","system_id":"levelo_inurba_marseille","lat":43.29801,"lon":5.40402,"is_reserved":false,"is_disabled":false,"rental_uris":{"android":"levelo://app?vid=ec77b745-1b78-47ba-a122-ea1caf847ee8","ios":"levelo://app?vid=ec77b745-1b78-47ba-a122-ea1caf847ee8"},"vehicle_type_id":"4","last_reported":1728486528,"current_range_meters":22400,"station_id":"ce4bh112rcd13ifvqd90","pricing_plan_id":"cebpf4jnsgd1na2vs0mg"},{"bike_id":"69fd9571-169a-48b6-894b-a82505010907","system_id":"levelo_inurba_marseille","lat":43.29622,"lon":5.37718,"is_reserved":false,"is_disabled":false,"rental_uris":{"android":"levelo://app?vid=69fd9571-169a-48b6-894b-a82505010907","ios":"levelo://app?vid=69fd9571-169a-48b6-894b-a82505010907"},"vehicle_type_id":"4","last_reported":1728486528,"current_range_meters":30800,"station_id":"ce4bgi92rcd13ifvqb90","pricing_plan_id":"cebpf4jnsgd1na2vs0mg"},{"bike_id":"1922322b-2628-4eb8-8842-fb01a3184fb8","system_id":"levelo_inurba_marseille","lat":43.31327,"lon":5.39686,"is_reserved":false,"is_disabled":false,"rental_uris":{"android":"levelo://app?vid=1922322b-2628-4eb8-8842-fb01a3184fb8","ios":"levelo://app?vid=1922322b-2628-4eb8-8842-fb01a3184fb8"},"vehicle_type_id":"4","last_reported":1728486528,"current_range_meters":22800,"station_id":"ce4bgvp2rcd13ifvqcu0","pricing_plan_id":"cebpf4jnsgd1na2vs0mg"},{"bike_id":"537295f0-e34c-4ec3-a8ad-9b4d471be691","system_id":"levelo_inurba_marseille","lat":43.23193,"lon":5.35554,"is_reserved":false,"is_disabled":false,"rental_uris":{"android":"levelo://app?vid=537295f0-e34c-4ec3-a8ad-9b4d471be691","ios":"levelo://app?vid=537295f0-e34c-4ec3-a8ad-9b4d471be691"},"vehicle_type_id":"4","last_reported":1728486528,"current_range_meters":9200,"station_id":"ce4bhu92rcd13ifvqi70","pricing_plan_id":"cebpf4jnsgd1na2vs0mg"},{"bike_id":"15f85ecf-efb1-4bc3-b579-4620408f5d64","system_id":"levelo_inurba_marseille","lat":43.29523,"lon":5.3904,"is_reserved":false,"is_disabled":false,"rental_uris":{"android":"levelo://app?vid=15f85ecf-efb1-4bc3-b579-4620408f5d64","ios":"levelo://app?vid=15f85ecf-efb1-4bc3-b579-4620408f5d64"},"vehicle_type_id":"4","last_reported":1728486528,"current_range_meters":20400,"station_id":"ce4bh3p2rcd13ifvqdp0","pricing_plan_id":"cebpf4jnsgd1na2vs0mg"},{"bike_id":"ff99e78d-1c45-4dcc-8552-ada019b7c497","system_id":"levelo_inurba_marseille","lat":43.26574,"lon":5.39006,"is_reserved":false,"is_disabled":false,"rental_uris":{"android":"levelo://app?vid=ff99e78d-1c45-4dcc-8552-ada019b7c497","ios":"levelo://app?vid=ff99e78d-1c45-4dcc-8552-ada019b7c497"},"vehicle_type_id":"4","last_reported":1728486528,"current_range_meters":30800,"station_id":"ce4bhe12rcd13ifvqf30","pricing_plan_id":"cebpf4jnsgd1na2vs0mg"},{"bike_id":"003dfcd1-e77c-45f7-bd34-289604a833af","system_id":"levelo_inurba_marseille","lat":43.31713,"lon":5.43708,"is_reserved":false,"is_disabled":false,"rental_uris":{"android":"levelo://app?vid=003dfcd1-e77c-45f7-bd34-289604a833af","ios":"levelo://app?vid=003dfcd1-e77c-45f7-bd34-289604a833af"},"vehicle_type_id":"4","last_reported":1728486528,"current_range_meters":27200,"station_id":"ce4bhp92rcd13ifvqhcg","pricing_plan_id":"cebpf4jnsgd1na2vs0mg"},{"bike_id":"2da6e46e-c4a1-45ae-a363-4743b2ed352c","system_id":"levelo_inurba_marseille","lat":43.23206,"lon":5.3555,"is_reserved":false,"is_disabled":false,"rental_uris":{"android":"levelo://app?vid=2da6e46e-c4a1-45ae-a363-4743b2ed352c","ios":"levelo://app?vid=2da6e46e-c4a1-45ae-a363-4743b2ed352c"},"vehicle_type_id":"4","last_reported":1728486528,"current_range_meters":7200,"station_id":"ce4bhu92rcd13ifvqi70","pricing_plan_id":"cebpf4jnsgd1na2vs0mg"},{"bike_id":"f8c89daa-2334-4874-8ce7-912df7e0b40c","system_id":"levelo_inurba_marseille","lat":43.28935,"lon":5.38406,"is_reserved":false,"is_disabled":false,"rental_uris":{"android":"levelo://app?vid=f8c89daa-2334-4874-8ce7-912df7e0b40c","ios":"levelo://app?vid=f8c89daa-2334-4874-8ce7-912df7e0b40c"},"vehicle_type_id":"4","last_reported":1728486528,"current_range_meters":38800,"station_id":"ce4bh612rcd13ifvqe6g","pricing_plan_id":"cebpf4jnsgd1na2vs0mg"},{"bike_id":"25a2868e-602b-4f1b-ba48-12224ce94b10","system_id":"levelo_inurba_marseille","lat":43.26212,"lon":5.37445,"is_reserved":false,"is_disabled":false,"rental_uris":{"android":"levelo://app?vid=25a2868e-602b-4f1b-ba48-12224ce94b10","ios":"levelo://app?vid=25a2868e-602b-4f1b-ba48-12224ce94b10"},"vehicle_type_id":"4","last_reported":1728486528,"current_range_meters":16000,"station_id":"ce4bhgp2rcd13ifvqfc0","pricing_plan_id":"cebpf4jnsgd1na2vs0mg"},{"bike_id":"2fb9ef94-ca52-4246-b63a-92d1d548411e","system_id":"levelo_inurba_marseille","lat":43.31275,"lon":5.40172,"is_reserved":false,"is_disabled":false,"rental_uris":{"android":"levelo://app?vid=2fb9ef94-ca52-4246-b63a-92d1d548411e","ios":"levelo://app?vid=2fb9ef94-ca52-4246-b63a-92d1d548411e"},"vehicle_type_id":"4","last_reported":1728486528,"current_range_meters":8800,"station_id":"ce4bh092rcd13ifvqd30","pricing_plan_id":"cebpf4jnsgd1na2vs0mg"},{"bike_id":"bff8a6d7-46f6-44ac-8180-a8336917e336","system_id":"levelo_inurba_marseille","lat":43.23964,"lon":5.36634,"is_reserved":false,"is_disabled":false,"rental_uris":{"android":"levelo://app?vid=bff8a6d7-46f6-44ac-8180-a8336917e336","ios":"levelo://app?vid=bff8a6d7-46f6-44ac-8180-a8336917e336"},"vehicle_type_id":"4","last_reported":1728486528,"current_range_meters":10000,"station_id":"ce4bhi12rcd13ifvqfp0","pricing_plan_id":"cebpf4jnsgd1na2vs0mg"},{"bike_id":"a3663720-7ff3-4a36-97ee-8783af8de5a0","system_id":"levelo_inurba_marseille","lat":43.23199,"lon":5.35555,"is_reserved":false,"is_disabled":false,"rental_uris":{"android":"levelo://app?vid=a3663720-7ff3-4a36-97ee-8783af8de5a0","ios":"levelo://app?vid=a3663720-7ff3-4a36-97ee-8783af8de5a0"},"vehicle_type_id":"4","last_reported":1728486528,"current_range_meters":6800,"station_id":"ce4bhu92rcd13ifvqi70","pricing_plan_id":"cebpf4jnsgd1na2vs0mg"},{"bike_id":"6db97b3d-f8e7-435b-8c12-f6524a5a70ce","system_id":"levelo_inurba_marseille","lat":43.3248,"lon":5.36566,"is_reserved":false,"is_disabled":false,"rental_uris":{"android":"levelo://app?vid=6db97b3d-f8e7-435b-8c12-f6524a5a70ce","ios":"levelo://app?vid=6db97b3d-f8e7-435b-8c12-f6524a5a70ce"},"vehicle_type_id":"4","last_reported":1728486528,"current_range_meters":25600,"station_id":"ce4bhs12rcd13ifvqhvg","pricing_plan_id":"cebpf4jnsgd1na2vs0mg"},{"bike_id":"55c3b219-12c8-418c-ac12-266ef43908dd","system_id":"levelo_inurba_marseille","lat":43.29149,"lon":5.38495,"is_reserved":false,"is_disabled":false,"rental_uris":{"android":"levelo://app?vid=55c3b219-12c8-418c-ac12-266ef43908dd","ios":"levelo://app?vid=55c3b219-12c8-418c-ac12-266ef43908dd"},"vehicle_type_id":"4","last_reported":1728486528,"current_range_meters":14800,"station_id":"","pricing_plan_id":"cebpf4jnsgd1na2vs0mg"},{"bike_id":"2499ff39-67cd-4dd9-b3fb-d8ce6c66364d","system_id":"levelo_inurba_marseille","lat":43.25495,"lon":5.37644,"is_reserved":false,"is_disabled":false,"rental_uris":{"android":"levelo://app?vid=2499ff39-67cd-4dd9-b3fb-d8ce6c66364d","ios":"levelo://app?vid=2499ff39-67cd-4dd9-b3fb-d8ce6c66364d"},"vehicle_type_id":"4","last_reported":1728486528,"current_range_meters":38800,"station_id":"ce4bhh12rcd13ifvqff0","pricing_plan_id":"cebpf4jnsgd1na2vs0mg"},{"bike_id":"5d862168-95b5-4208-92c3-e05c70972864","system_id":"levelo_inurba_marseille","lat":43.29514,"lon":5.39399,"is_reserved":false,"is_disabled":false,"rental_uris":{"android":"levelo://app?vid=5d862168-95b5-4208-92c3-e05c70972864","ios":"levelo://app?vid=5d862168-95b5-4208-92c3-e05c70972864"},"vehicle_type_id":"4","last_reported":1728486528,"current_range_meters":25200,"station_id":"ce4bh292rcd13ifvqdf0","pricing_plan_id":"cebpf4jnsgd1na2vs0mg"},{"bike_id":"dd612bb5-685a-4953-9271-a126c89074ab","system_id":"levelo_inurba_marseille","lat":43.27576,"lon":5.38405,"is_reserved":false,"is_disabled":false,"rental_uris":{"android":"levelo://app?vid=dd612bb5-685a-4953-9271-a126c89074ab","ios":"levelo://app?vid=dd612bb5-685a-4953-9271-a126c89074ab"},"vehicle_type_id":"4","last_reported":1728486528,"current_range_meters":38000,"station_id":"ce4bhh92rcd13ifvqfi0","pricing_plan_id":"cebpf4jnsgd1na2vs0mg"},{"bike_id":"2f17eb5a-ede3-4f1f-a3a9-25144d1a6b54","system_id":"levelo_inurba_marseille","lat":43.31182,"lon":5.38711,"is_reserved":false,"is_disabled":false,"rental_uris":{"android":"levelo://app?vid=2f17eb5a-ede3-4f1f-a3a9-25144d1a6b54","ios":"levelo://app?vid=2f17eb5a-ede3-4f1f-a3a9-25144d1a6b54"},"vehicle_type_id":"4","last_reported":1728486528,"current_range_meters":7200,"station_id":"ce4bgv12rcd13ifvqcp0","pricing_plan_id":"cebpf4jnsgd1na2vs0mg"},{"bike_id":"f822f007-826e-45c5-94f2-ec6ce2d12e84","system_id":"levelo_inurba_marseille","lat":43.27815,"lon":5.40713,"is_reserved":false,"is_disabled":false,"rental_uris":{"android":"levelo://app?vid=f822f007-826e-45c5-94f2-ec6ce2d12e84","ios":"levelo://app?vid=f822f007-826e-45c5-94f2-ec6ce2d12e84"},"vehicle_type_id":"4","last_reported":1728486528,"current_range_meters":3600,"station_id":"ce4bhnh2rcd13ifvqgtg","pricing_plan_id":"cebpf4jnsgd1na2vs0mg"},{"bike_id":"31400b79-9bea-4eff-b39d-83eace75e8db","system_id":"levelo_inurba_marseille","lat":43.32543,"lon":5.41435,"is_reserved":false,"is_disabled":false,"rental_uris":{"android":"levelo://app?vid=31400b79-9bea-4eff-b39d-83eace75e8db","ios":"levelo://app?vid=31400b79-9bea-4eff-b39d-83eace75e8db"},"vehicle_type_id":"4","last_reported":1728486528,"current_range_meters":22800,"station_id":"ce4bhq12rcd13ifvqhhg","pricing_plan_id":"cebpf4jnsgd1na2vs0mg"},{"bike_id":"ed2a1fba-b4d1-455d-8d57-837aa46a7bfc","system_id":"levelo_inurba_marseille","lat":43.31173,"lon":5.38712,"is_reserved":false,"is_disabled":false,"rental_uris":{"android":"levelo://app?vid=ed2a1fba-b4d1-455d-8d57-837aa46a7bfc","ios":"levelo://app?vid=ed2a1fba-b4d1-455d-8d57-837aa46a7bfc"},"vehicle_type_id":"4","last_reported":1728486528,"current_range_meters":28400,"station_id":"ce4bgv12rcd13ifvqcp0","pricing_plan_id":"cebpf4jnsgd1na2vs0mg"},{"bike_id":"61a32543-d63e-4862-8e5e-f3df6ee61632","system_id":"levelo_inurba_marseille","lat":43.28155,"lon":5.42637,"is_reserved":false,"is_disabled":false,"rental_uris":{"android":"levelo://app?vid=61a32543-d63e-4862-8e5e-f3df6ee61632","ios":"levelo://app?vid=61a32543-d63e-4862-8e5e-f3df6ee61632"},"vehicle_type_id":"4","last_reported":1728486528,"current_range_meters":22400,"station_id":"ce4bhnh2rcd13ifvqgug","pricing_plan_id":"cebpf4jnsgd1na2vs0mg"},{"bike_id":"f63cf4a2-5fba-4c54-9baa-8b1b4a02004d","system_id":"levelo_inurba_marseille","lat":43.30802,"lon":5.4352,"is_reserved":false,"is_disabled":false,"rental_uris":{"android":"levelo://app?vid=f63cf4a2-5fba-4c54-9baa-8b1b4a02004d","ios":"levelo://app?vid=f63cf4a2-5fba-4c54-9baa-8b1b4a02004d"},"vehicle_type_id":"4","last_reported":1728486528,"current_range_meters":24400,"station_id":"ce4bhph2rcd13ifvqheg","pricing_plan_id":"cebpf4jnsgd1na2vs0mg"},{"bike_id":"6caf95ac-909f-41e1-8bc7-0f91444d16fb","system_id":"levelo_inurba_marseille","lat":43.23069,"lon":5.35494,"is_reserved":false,"is_disabled":false,"rental_uris":{"android":"levelo://app?vid=6caf95ac-909f-41e1-8bc7-0f91444d16fb","ios":"levelo://app?vid=6caf95ac-909f-41e1-8bc7-0f91444d16fb"},"vehicle_type_id":"4","last_reported":1728486528,"current_range_meters":17600,"station_id":"cpo3342slgdg3j2ifvpg","pricing_plan_id":"cebpf4jnsgd1na2vs0mg"},{"bike_id":"3fab305b-1728-4a45-9f4f-fb39052b80d2","system_id":"levelo_inurba_marseille","lat":43.25488,"lon":5.37647,"is_reserved":false,"is_disabled":false,"rental_uris":{"android":"levelo://app?vid=3fab305b-1728-4a45-9f4f-fb39052b80d2","ios":"levelo://app?vid=3fab305b-1728-4a45-9f4f-fb39052b80d2"},"vehicle_type_id":"4","last_reported":1728486528,"current_range_meters":36800,"station_id":"ce4bhh12rcd13ifvqff0","pricing_plan_id":"cebpf4jnsgd1na2vs0mg"},{"bike_id":"ede68b2f-f53f-4ad5-a3f5-950bc936b5eb","system_id":"levelo_inurba_marseille","lat":43.33773,"lon":5.37398,"is_reserved":false,"is_disabled":false,"rental_uris":{"android":"levelo://app?vid=ede68b2f-f53f-4ad5-a3f5-950bc936b5eb","ios":"levelo://app?vid=ede68b2f-f53f-4ad5-a3f5-950bc936b5eb"},"vehicle_type_id":"4","last_reported":1728486528,"current_range_meters":33200,"station_id":"","pricing_plan_id":"cebpf4jnsgd1na2vs0mg"},{"bike_id":"85cb2d2b-a4f4-46b1-8268-37a2bef78eb1","system_id":"levelo_inurba_marseille","lat":43.29526,"lon":5.39028,"is_reserved":false,"is_disabled":false,"rental_uris":{"android":"levelo://app?vid=85cb2d2b-a4f4-46b1-8268-37a2bef78eb1","ios":"levelo://app?vid=85cb2d2b-a4f4-46b1-8268-37a2bef78eb1"},"vehicle_type_id":"4","last_reported":1728486528,"current_range_meters":16400,"station_id":"ce4bh3p2rcd13ifvqdp0","pricing_plan_id":"cebpf4jnsgd1na2vs0mg"},{"bike_id":"0d7c6cc1-b0e5-476a-8fba-53e2d22b4c15","system_id":"levelo_inurba_marseille","lat":43.29281,"lon":5.40117,"is_reserved":false,"is_disabled":false,"rental_uris":{"android":"levelo://app?vid=0d7c6cc1-b0e5-476a-8fba-53e2d22b4c15","ios":"levelo://app?vid=0d7c6cc1-b0e5-476a-8fba-53e2d22b4c15"},"vehicle_type_id":"4","last_reported":1728486528,"current_range_meters":20000,"station_id":"ce4bh312rcd13ifvqdk0","pricing_plan_id":"cebpf4jnsgd1na2vs0mg"},{"bike_id":"b9f35de0-0bf3-4bea-bf68-d8893f94426e","system_id":"levelo_inurba_marseille","lat":43.31704,"lon":5.4371,"is_reserved":false,"is_disabled":false,"rental_uris":{"android":"levelo://app?vid=b9f35de0-0bf3-4bea-bf68-d8893f94426e","ios":"levelo://app?vid=b9f35de0-0bf3-4bea-bf68-d8893f94426e"},"vehicle_type_id":"4","last_reported":1728486528,"current_range_meters":36800,"station_id":"ce4bhp92rcd13ifvqhcg","pricing_plan_id":"cebpf4jnsgd1na2vs0mg"},{"bike_id":"607dd0a2-66a4-4bb9-bab0-f605b7889fb0","system_id":"levelo_inurba_marseille","lat":43.30508,"lon":5.38423,"is_reserved":false,"is_disabled":false,"rental_uris":{"android":"levelo://app?vid=607dd0a2-66a4-4bb9-bab0-f605b7889fb0","ios":"levelo://app?vid=607dd0a2-66a4-4bb9-bab0-f605b7889fb0"},"vehicle_type_id":"4","last_reported":1728486528,"current_range_meters":16800,"station_id":"ce4bgg92rcd13ifvqb30","pricing_plan_id":"cebpf4jnsgd1na2vs0mg"},{"bike_id":"dc981358-1a00-47e6-bea1-99abdf33d107","system_id":"levelo_inurba_marseille","lat":43.28949,"lon":5.36398,"is_reserved":false,"is_disabled":false,"rental_uris":{"android":"levelo://app?vid=dc981358-1a00-47e6-bea1-99abdf33d107","ios":"levelo://app?vid=dc981358-1a00-47e6-bea1-99abdf33d107"},"vehicle_type_id":"4","last_reported":1728486528,"current_range_meters":4800,"station_id":"ce4bhc92rcd13ifvqetg","pricing_plan_id":"cebpf4jnsgd1na2vs0mg"},{"bike_id":"4491d5b8-77ca-45c1-bb70-de6cca7c1f16","system_id":"levelo_inurba_marseille","lat":43.31119,"lon":5.37765,"is_reserved":false,"is_disabled":false,"rental_uris":{"android":"levelo://app?vid=4491d5b8-77ca-45c1-bb70-de6cca7c1f16","ios":"levelo://app?vid=4491d5b8-77ca-45c1-bb70-de6cca7c1f16"},"vehicle_type_id":"4","last_reported":1728486528,"current_range_meters":21600,"station_id":"ce4bgt92rcd13ifvqcg0","pricing_plan_id":"cebpf4jnsgd1na2vs0mg"},{"bike_id":"706bfd60-adfc-4490-9153-52d273002d44","system_id":"levelo_inurba_marseille","lat":43.29623,"lon":5.37722,"is_reserved":false,"is_disabled":false,"rental_uris":{"android":"levelo://app?vid=706bfd60-adfc-4490-9153-52d273002d44","ios":"levelo://app?vid=706bfd60-adfc-4490-9153-52d273002d44"},"vehicle_type_id":"4","last_reported":1728486528,"current_range_meters":20000,"station_id":"ce4bgi92rcd13ifvqb90","pricing_plan_id":"cebpf4jnsgd1na2vs0mg"},{"bike_id":"c834194a-39ba-4fa4-ba45-8836b8980bf9","system_id":"levelo_inurba_marseille","lat":43.27375,"lon":5.36255,"is_reserved":false,"is_disabled":false,"rental_uris":{"android":"levelo://app?vid=c834194a-39ba-4fa4-ba45-8836b8980bf9","ios":"levelo://app?vid=c834194a-39ba-4fa4-ba45-8836b8980bf9"},"vehicle_type_id":"4","last_reported":1728486528,"current_range_meters":16800,"station_id":"ce4bhbh2rcd13ifvqeo0","pricing_plan_id":"cebpf4jnsgd1na2vs0mg"},{"bike_id":"810b32d6-b30c-480b-a6ee-5bd54d112eb8","system_id":"levelo_inurba_marseille","lat":43.33749,"lon":5.37442,"is_reserved":false,"is_disabled":false,"rental_uris":{"android":"levelo://app?vid=810b32d6-b30c-480b-a6ee-5bd54d112eb8","ios":"levelo://app?vid=810b32d6-b30c-480b-a6ee-5bd54d112eb8"},"vehicle_type_id":"4","last_reported":1728486528,"current_range_meters":27600,"station_id":"ce4rr2p2rcd13i802rgg","pricing_plan_id":"cebpf4jnsgd1na2vs0mg"},{"bike_id":"998d4f08-ab38-4827-9215-5b73e6ca89ac","system_id":"levelo_inurba_marseille","lat":43.30805,"lon":5.43518,"is_reserved":false,"is_disabled":false,"rental_uris":{"android":"levelo://app?vid=998d4f08-ab38-4827-9215-5b73e6ca89ac","ios":"levelo://app?vid=998d4f08-ab38-4827-9215-5b73e6ca89ac"},"vehicle_type_id":"4","last_reported":1728486528,"current_range_meters":28800,"station_id":"ce4bhph2rcd13ifvqheg","pricing_plan_id":"cebpf4jnsgd1na2vs0mg"},{"bike_id":"8361aa4d-799a-4947-91c9-09acc277d8b2","system_id":"levelo_inurba_marseille","lat":43.29532,"lon":5.38544,"is_reserved":false,"is_disabled":false,"rental_uris":{"android":"levelo://app?vid=8361aa4d-799a-4947-91c9-09acc277d8b2","ios":"levelo://app?vid=8361aa4d-799a-4947-91c9-09acc277d8b2"},"vehicle_type_id":"4","last_reported":1728486528,"current_range_meters":2800,"station_id":"ce4bgih2rcd13ifvqba0","pricing_plan_id":"cebpf4jnsgd1na2vs0mg"},{"bike_id":"ae655603-266a-4021-b589-16dce2c09a46","system_id":"levelo_inurba_marseille","lat":43.29536,"lon":5.3855,"is_reserved":false,"is_disabled":false,"rental_uris":{"android":"levelo://app?vid=ae655603-266a-4021-b589-16dce2c09a46","ios":"levelo://app?vid=ae655603-266a-4021-b589-16dce2c09a46"},"vehicle_type_id":"4","last_reported":1728486528,"current_range_meters":33600,"station_id":"ce4bgih2rcd13ifvqba0","pricing_plan_id":"cebpf4jnsgd1na2vs0mg"},{"bike_id":"ced9d31a-50a0-43f6-9ba8-7660d0c2ce0b","system_id":"levelo_inurba_marseille","lat":43.28001,"lon":5.41659,"is_reserved":false,"is_disabled":false,"rental_uris":{"android":"levelo://app?vid=ced9d31a-50a0-43f6-9ba8-7660d0c2ce0b","ios":"levelo://app?vid=ced9d31a-50a0-43f6-9ba8-7660d0c2ce0b"},"vehicle_type_id":"4","last_reported":1728486528,"current_range_meters":22000,"station_id":"ce4bho12rcd13ifvqh1g","pricing_plan_id":"cebpf4jnsgd1na2vs0mg"},{"bike_id":"dc6fd02e-5e16-4fcd-97e0-ad566b170ff3","system_id":"levelo_inurba_marseille","lat":43.31324,"lon":5.39686,"is_reserved":false,"is_disabled":false,"rental_uris":{"android":"levelo://app?vid=dc6fd02e-5e16-4fcd-97e0-ad566b170ff3","ios":"levelo://app?vid=dc6fd02e-5e16-4fcd-97e0-ad566b170ff3"},"vehicle_type_id":"4","last_reported":1728486528,"current_range_meters":25200,"station_id":"ce4bgvp2rcd13ifvqcu0","pricing_plan_id":"cebpf4jnsgd1na2vs0mg"},{"bike_id":"c31f607b-5599-4000-bebb-a344bc207d52","system_id":"levelo_inurba_marseille","lat":43.29201,"lon":5.40035,"is_reserved":false,"is_disabled":false,"rental_uris":{"android":"levelo://app?vid=c31f607b-5599-4000-bebb-a344bc207d52","ios":"levelo://app?vid=c31f607b-5599-4000-bebb-a344bc207d52"},"vehicle_type_id":"4","last_reported":1728486528,"current_range_meters":4000,"station_id":"ce4bh312rcd13ifvqdj0","pricing_plan_id":"cebpf4jnsgd1na2vs0mg"},{"bike_id":"c72b9af4-c35b-440a-9994-8303a74ec58e","system_id":"levelo_inurba_marseille","lat":43.23194,"lon":5.39982,"is_reserved":false,"is_disabled":false,"rental_uris":{"android":"levelo://app?vid=c72b9af4-c35b-440a-9994-8303a74ec58e","ios":"levelo://app?vid=c72b9af4-c35b-440a-9994-8303a74ec58e"},"vehicle_type_id":"4","last_reported":1728486528,"current_range_meters":3200,"station_id":"ce4bhn12rcd13ifvqgqg","pricing_plan_id":"cebpf4jnsgd1na2vs0mg"},{"bike_id":"e2c95318-b722-4bcf-a849-5ca8d545730e","system_id":"levelo_inurba_marseille","lat":43.29869,"lon":5.39731,"is_reserved":false,"is_disabled":false,"rental_uris":{"android":"levelo://app?vid=e2c95318-b722-4bcf-a849-5ca8d545730e","ios":"levelo://app?vid=e2c95318-b722-4bcf-a849-5ca8d545730e"},"vehicle_type_id":"4","last_reported":1728486528,"current_range_meters":30800,"station_id":"ce4bh0h2rcd13ifvqd50","pricing_plan_id":"cebpf4jnsgd1na2vs0mg"},{"bike_id":"8036edc3-6572-4426-bd05-89fcde7bf877","system_id":"levelo_inurba_marseille","lat":43.28171,"lon":5.39481,"is_reserved":false,"is_disabled":false,"rental_uris":{"android":"levelo://app?vid=8036edc3-6572-4426-bd05-89fcde7bf877","ios":"levelo://app?vid=8036edc3-6572-4426-bd05-89fcde7bf877"},"vehicle_type_id":"4","last_reported":1728486528,"current_range_meters":38000,"station_id":"ce4bho12rcd13ifvqh2g","pricing_plan_id":"cebpf4jnsgd1na2vs0mg"},{"bike_id":"d72100ed-aa92-4325-a5d9-a192d982eaf8","system_id":"levelo_inurba_marseille","lat":43.2319,"lon":5.3555,"is_reserved":false,"is_disabled":false,"rental_uris":{"android":"levelo://app?vid=d72100ed-aa92-4325-a5d9-a192d982eaf8","ios":"levelo://app?vid=d72100ed-aa92-4325-a5d9-a192d982eaf8"},"vehicle_type_id":"4","last_reported":1728486528,"current_range_meters":4800,"station_id":"ce4bhu92rcd13ifvqi70","pricing_plan_id":"cebpf4jnsgd1na2vs0mg"},{"bike_id":"30a123c7-c6aa-4ab8-b6fd-6bb95b77d21e","system_id":"levelo_inurba_marseille","lat":43.337444,"lon":5.374475,"is_reserved":false,"is_disabled":false,"rental_uris":{"android":"levelo://app?vid=30a123c7-c6aa-4ab8-b6fd-6bb95b77d21e","ios":"levelo://app?vid=30a123c7-c6aa-4ab8-b6fd-6bb95b77d21e"},"vehicle_type_id":"4","last_reported":1728486528,"current_range_meters":37600,"station_id":"ce4bgvp2rcd13ifvqcu0","pricing_plan_id":"cebpf4jnsgd1na2vs0mg"},{"bike_id":"b2dfe3da-63c8-44ee-8bb2-f661c7c26cf7","system_id":"levelo_inurba_marseille","lat":43.29099,"lon":5.38143,"is_reserved":false,"is_disabled":false,"rental_uris":{"android":"levelo://app?vid=b2dfe3da-63c8-44ee-8bb2-f661c7c26cf7","ios":"levelo://app?vid=b2dfe3da-63c8-44ee-8bb2-f661c7c26cf7"},"vehicle_type_id":"4","last_reported":1728486528,"current_range_meters":2800,"station_id":"ce4bh512rcd13ifvqe2g","pricing_plan_id":"cebpf4jnsgd1na2vs0mg"},{"bike_id":"987bf759-1628-42a5-ab6f-efeaf8c39ad9","system_id":"levelo_inurba_marseille","lat":43.29522,"lon":5.39362,"is_reserved":false,"is_disabled":false,"rental_uris":{"android":"levelo://app?vid=987bf759-1628-42a5-ab6f-efeaf8c39ad9","ios":"levelo://app?vid=987bf759-1628-42a5-ab6f-efeaf8c39ad9"},"vehicle_type_id":"4","last_reported":1728486528,"current_range_meters":29600,"station_id":"ce4bh312rcd13ifvqdj0","pricing_plan_id":"cebpf4jnsgd1na2vs0mg"},{"bike_id":"cfff5cd8-5881-439d-a5ee-7db6d56119b3","system_id":"levelo_inurba_marseille","lat":43.29586,"lon":5.36742,"is_reserved":false,"is_disabled":false,"rental_uris":{"android":"levelo://app?vid=cfff5cd8-5881-439d-a5ee-7db6d56119b3","ios":"levelo://app?vid=cfff5cd8-5881-439d-a5ee-7db6d56119b3"},"vehicle_type_id":"4","last_reported":1728486528,"current_range_meters":32400,"station_id":"ce4bgph2rcd13ifvqc2g","pricing_plan_id":"cebpf4jnsgd1na2vs0mg"},{"bike_id":"82f03b2f-1450-4d85-8a48-5d34a1bdee15","system_id":"levelo_inurba_marseille","lat":43.33757,"lon":5.37437,"is_reserved":false,"is_disabled":false,"rental_uris":{"android":"levelo://app?vid=82f03b2f-1450-4d85-8a48-5d34a1bdee15","ios":"levelo://app?vid=82f03b2f-1450-4d85-8a48-5d34a1bdee15"},"vehicle_type_id":"4","last_reported":1728486528,"current_range_meters":36000,"station_id":"","pricing_plan_id":"cebpf4jnsgd1na2vs0mg"},{"bike_id":"afbc6494-d542-4b4b-9a88-07136cc96194","system_id":"levelo_inurba_marseille","lat":43.308,"lon":5.43524,"is_reserved":false,"is_disabled":false,"rental_uris":{"android":"levelo://app?vid=afbc6494-d542-4b4b-9a88-07136cc96194","ios":"levelo://app?vid=afbc6494-d542-4b4b-9a88-07136cc96194"},"vehicle_type_id":"4","last_reported":1728486528,"current_range_meters":25200,"station_id":"ce4bhph2rcd13ifvqheg","pricing_plan_id":"cebpf4jnsgd1na2vs0mg"},{"bike_id":"a7705a29-8973-45f1-afb4-90324c5cfa98","system_id":"levelo_inurba_marseille","lat":43.30226,"lon":5.37524,"is_reserved":false,"is_disabled":false,"rental_uris":{"android":"levelo://app?vid=a7705a29-8973-45f1-afb4-90324c5cfa98","ios":"levelo://app?vid=a7705a29-8973-45f1-afb4-90324c5cfa98"},"vehicle_type_id":"4","last_reported":1728486528,"current_range_meters":8000,"station_id":"","pricing_plan_id":"cebpf4jnsgd1na2vs0mg"},{"bike_id":"6188b98c-3673-4a50-a968-5246685c5716","system_id":"levelo_inurba_marseille","lat":43.27944,"lon":5.41045,"is_reserved":false,"is_disabled":false,"rental_uris":{"android":"levelo://app?vid=6188b98c-3673-4a50-a968-5246685c5716","ios":"levelo://app?vid=6188b98c-3673-4a50-a968-5246685c5716"},"vehicle_type_id":"4","last_reported":1728486528,"current_range_meters":16800,"station_id":"ce4bhnp2rcd13ifvqh0g","pricing_plan_id":"cebpf4jnsgd1na2vs0mg"},{"bike_id":"097bd79b-d189-4982-ae7d-2dd1eb78a121","system_id":"levelo_inurba_marseille","lat":43.27566,"lon":5.38426,"is_reserved":false,"is_disabled":false,"rental_uris":{"android":"levelo://app?vid=097bd79b-d189-4982-ae7d-2dd1eb78a121","ios":"levelo://app?vid=097bd79b-d189-4982-ae7d-2dd1eb78a121"},"vehicle_type_id":"4","last_reported":1728486528,"current_range_meters":19200,"station_id":"ce4bhh92rcd13ifvqfi0","pricing_plan_id":"cebpf4jnsgd1na2vs0mg"},{"bike_id":"dfc6e5cd-6357-4e1e-a84c-8c5dff48aa3f","system_id":"levelo_inurba_marseille","lat":43.31716,"lon":5.37743,"is_reserved":false,"is_disabled":false,"rental_uris":{"android":"levelo://app?vid=dfc6e5cd-6357-4e1e-a84c-8c5dff48aa3f","ios":"levelo://app?vid=dfc6e5cd-6357-4e1e-a84c-8c5dff48aa3f"},"vehicle_type_id":"4","last_reported":1728486528,"current_range_meters":28000,"station_id":"ce4bgth2rcd13ifvqch0","pricing_plan_id":"cebpf4jnsgd1na2vs0mg"},{"bike_id":"e7855714-a5ce-429d-9523-46b002bd1f13","system_id":"levelo_inurba_marseille","lat":43.25491,"lon":5.37644,"is_reserved":false,"is_disabled":false,"rental_uris":{"android":"levelo://app?vid=e7855714-a5ce-429d-9523-46b002bd1f13","ios":"levelo://app?vid=e7855714-a5ce-429d-9523-46b002bd1f13"},"vehicle_type_id":"4","last_reported":1728486528,"current_range_meters":4400,"station_id":"ce4bhh12rcd13ifvqff0","pricing_plan_id":"cebpf4jnsgd1na2vs0mg"},{"bike_id":"115f99b9-4f17-436d-b64b-539a809a91f1","system_id":"levelo_inurba_marseille","lat":43.33024,"lon":5.39034,"is_reserved":false,"is_disabled":false,"rental_uris":{"android":"levelo://app?vid=115f99b9-4f17-436d-b64b-539a809a91f1","ios":"levelo://app?vid=115f99b9-4f17-436d-b64b-539a809a91f1"},"vehicle_type_id":"4","last_reported":1728486528,"current_range_meters":37600,"station_id":"ce4bhr92rcd13ifvqhrg","pricing_plan_id":"cebpf4jnsgd1na2vs0mg"},{"bike_id":"7e58e11c-48ba-41a2-86b0-395bdd1d6afc","system_id":"levelo_inurba_marseille","lat":43.27373,"lon":5.36254,"is_reserved":false,"is_disabled":false,"rental_uris":{"android":"levelo://app?vid=7e58e11c-48ba-41a2-86b0-395bdd1d6afc","ios":"levelo://app?vid=7e58e11c-48ba-41a2-86b0-395bdd1d6afc"},"vehicle_type_id":"4","last_reported":1728486528,"current_range_meters":16800,"station_id":"ce4bhbh2rcd13ifvqeo0","pricing_plan_id":"cebpf4jnsgd1na2vs0mg"},{"bike_id":"7654022a-5f12-4134-896e-ddffa8447963","system_id":"levelo_inurba_marseille","lat":43.298001,"lon":5.363686,"is_reserved":false,"is_disabled":false,"rental_uris":{"android":"levelo://app?vid=7654022a-5f12-4134-896e-ddffa8447963","ios":"levelo://app?vid=7654022a-5f12-4134-896e-ddffa8447963"},"vehicle_type_id":"4","last_reported":1728486528,"current_range_meters":6800,"station_id":"ce4bgpp2rcd13ifvqc3g","pricing_plan_id":"cebpf4jnsgd1na2vs0mg"},{"bike_id":"27bc020e-17e2-45b8-83e8-ade6aa71191f","system_id":"levelo_inurba_marseille","lat":43.25103,"lon":5.40324,"is_reserved":false,"is_disabled":false,"rental_uris":{"android":"levelo://app?vid=27bc020e-17e2-45b8-83e8-ade6aa71191f","ios":"levelo://app?vid=27bc020e-17e2-45b8-83e8-ade6aa71191f"},"vehicle_type_id":"4","last_reported":1728486528,"current_range_meters":2000,"station_id":"ce4bhlh2rcd13ifvqgig","pricing_plan_id":"cebpf4jnsgd1na2vs0mg"},{"bike_id":"fd6c2938-5292-4afa-833a-bd2af8bf8ddb","system_id":"levelo_inurba_marseille","lat":43.27213,"lon":5.39179,"is_reserved":false,"is_disabled":false,"rental_uris":{"android":"levelo://app?vid=fd6c2938-5292-4afa-833a-bd2af8bf8ddb","ios":"levelo://app?vid=fd6c2938-5292-4afa-833a-bd2af8bf8ddb"},"vehicle_type_id":"4","last_reported":1728486528,"current_range_meters":12000,"station_id":"ce4bhhp2rcd13ifvqfm0","pricing_plan_id":"cebpf4jnsgd1na2vs0mg"},{"bike_id":"42477009-9349-4c45-99b5-e67b99fff305","system_id":"levelo_inurba_marseille","lat":43.25088,"lon":5.39511,"is_reserved":false,"is_disabled":false,"rental_uris":{"android":"levelo://app?vid=42477009-9349-4c45-99b5-e67b99fff305","ios":"levelo://app?vid=42477009-9349-4c45-99b5-e67b99fff305"},"vehicle_type_id":"4","last_reported":1728486528,"current_range_meters":12400,"station_id":"ce4bhm12rcd13ifvqgkg","pricing_plan_id":"cebpf4jnsgd1na2vs0mg"},{"bike_id":"b34b7f19-fa33-458a-9944-bb7a4b5e6ee2","system_id":"levelo_inurba_marseille","lat":43.29085,"lon":5.37148,"is_reserved":false,"is_disabled":false,"rental_uris":{"android":"levelo://app?vid=b34b7f19-fa33-458a-9944-bb7a4b5e6ee2","ios":"levelo://app?vid=b34b7f19-fa33-458a-9944-bb7a4b5e6ee2"},"vehicle_type_id":"4","last_reported":1728486528,"current_range_meters":33200,"station_id":"ce4bh5p2rcd13ifvqe4g","pricing_plan_id":"cebpf4jnsgd1na2vs0mg"},{"bike_id":"e595cea1-c9d9-48c1-a588-7623d5e1e94a","system_id":"levelo_inurba_marseille","lat":43.23963,"lon":5.36623,"is_reserved":false,"is_disabled":false,"rental_uris":{"android":"levelo://app?vid=e595cea1-c9d9-48c1-a588-7623d5e1e94a","ios":"levelo://app?vid=e595cea1-c9d9-48c1-a588-7623d5e1e94a"},"vehicle_type_id":"4","last_reported":1728486528,"current_range_meters":9600,"station_id":"ce4bhi12rcd13ifvqfp0","pricing_plan_id":"cebpf4jnsgd1na2vs0mg"},{"bike_id":"6d651a29-3468-4f92-9e6c-23fbb04ae46f","system_id":"levelo_inurba_marseille","lat":43.2844,"lon":5.39183,"is_reserved":false,"is_disabled":false,"rental_uris":{"android":"levelo://app?vid=6d651a29-3468-4f92-9e6c-23fbb04ae46f","ios":"levelo://app?vid=6d651a29-3468-4f92-9e6c-23fbb04ae46f"},"vehicle_type_id":"4","last_reported":1728486528,"current_range_meters":24800,"station_id":"ce4bhoh2rcd13ifvqh5g","pricing_plan_id":"cebpf4jnsgd1na2vs0mg"},{"bike_id":"93c42a23-0294-4b10-829e-ab22c07e8da9","system_id":"levelo_inurba_marseille","lat":43.30863,"lon":5.38088,"is_reserved":false,"is_disabled":false,"rental_uris":{"android":"levelo://app?vid=93c42a23-0294-4b10-829e-ab22c07e8da9","ios":"levelo://app?vid=93c42a23-0294-4b10-829e-ab22c07e8da9"},"vehicle_type_id":"4","last_reported":1728486528,"current_range_meters":27600,"station_id":"ce4bgt12rcd13ifvqce0","pricing_plan_id":"cebpf4jnsgd1na2vs0mg"},{"bike_id":"25efc2ba-381f-45c5-af46-f5bef20b991b","system_id":"levelo_inurba_marseille","lat":43.23186,"lon":5.39984,"is_reserved":false,"is_disabled":false,"rental_uris":{"android":"levelo://app?vid=25efc2ba-381f-45c5-af46-f5bef20b991b","ios":"levelo://app?vid=25efc2ba-381f-45c5-af46-f5bef20b991b"},"vehicle_type_id":"4","last_reported":1728486528,"current_range_meters":4800,"station_id":"ce4bhn12rcd13ifvqgqg","pricing_plan_id":"cebpf4jnsgd1na2vs0mg"},{"bike_id":"3c09f7b8-d2f2-4115-891f-6710edae6e20","system_id":"levelo_inurba_marseille","lat":43.29275,"lon":5.36849,"is_reserved":false,"is_disabled":false,"rental_uris":{"android":"levelo://app?vid=3c09f7b8-d2f2-4115-891f-6710edae6e20","ios":"levelo://app?vid=3c09f7b8-d2f2-4115-891f-6710edae6e20"},"vehicle_type_id":"4","last_reported":1728486528,"current_range_meters":38800,"station_id":"ce4bhbp2rcd13ifvqesg","pricing_plan_id":"cebpf4jnsgd1na2vs0mg"},{"bike_id":"157aa6dc-123f-4b5a-ba92-fae9816f0990","system_id":"levelo_inurba_marseille","lat":43.2926,"lon":5.37741,"is_reserved":false,"is_disabled":false,"rental_uris":{"android":"levelo://app?vid=157aa6dc-123f-4b5a-ba92-fae9816f0990","ios":"levelo://app?vid=157aa6dc-123f-4b5a-ba92-fae9816f0990"},"vehicle_type_id":"4","last_reported":1728486528,"current_range_meters":4400,"station_id":"ce4bh9p2rcd13ifvqed0","pricing_plan_id":"cebpf4jnsgd1na2vs0mg"},{"bike_id":"d7aa7eff-f7e2-4056-9d2a-1ed2772d8f2c","system_id":"levelo_inurba_marseille","lat":43.29444,"lon":5.39752,"is_reserved":false,"is_disabled":false,"rental_uris":{"android":"levelo://app?vid=d7aa7eff-f7e2-4056-9d2a-1ed2772d8f2c","ios":"levelo://app?vid=d7aa7eff-f7e2-4056-9d2a-1ed2772d8f2c"},"vehicle_type_id":"4","last_reported":1728486528,"current_range_meters":32000,"station_id":"ce4bh3h2rcd13ifvqdo0","pricing_plan_id":"cebpf4jnsgd1na2vs0mg"},{"bike_id":"8df55138-c4c7-4793-af32-d9feab0d2617","system_id":"levelo_inurba_marseille","lat":43.30543,"lon":5.365407,"is_reserved":false,"is_disabled":false,"rental_uris":{"android":"levelo://app?vid=8df55138-c4c7-4793-af32-d9feab0d2617","ios":"levelo://app?vid=8df55138-c4c7-4793-af32-d9feab0d2617"},"vehicle_type_id":"4","last_reported":1728486528,"current_range_meters":3200,"station_id":"ce4bgs12rcd13ifvqcag","pricing_plan_id":"cebpf4jnsgd1na2vs0mg"},{"bike_id":"6ef1f698-cbba-4733-831d-be293232fb1b","system_id":"levelo_inurba_marseille","lat":43.31332,"lon":5.39692,"is_reserved":false,"is_disabled":false,"rental_uris":{"android":"levelo://app?vid=6ef1f698-cbba-4733-831d-be293232fb1b","ios":"levelo://app?vid=6ef1f698-cbba-4733-831d-be293232fb1b"},"vehicle_type_id":"4","last_reported":1728486528,"current_range_meters":14800,"station_id":"ce4bgvp2rcd13ifvqcu0","pricing_plan_id":"cebpf4jnsgd1na2vs0mg"},{"bike_id":"81d49c0c-b020-45f2-8d81-6459353c9809","system_id":"levelo_inurba_marseille","lat":43.31754,"lon":5.39012,"is_reserved":false,"is_disabled":false,"rental_uris":{"android":"levelo://app?vid=81d49c0c-b020-45f2-8d81-6459353c9809","ios":"levelo://app?vid=81d49c0c-b020-45f2-8d81-6459353c9809"},"vehicle_type_id":"4","last_reported":1728486528,"current_range_meters":23200,"station_id":"ce4bhqp2rcd13ifvqhng","pricing_plan_id":"cebpf4jnsgd1na2vs0mg"},{"bike_id":"d59d0612-a7d1-48b3-89c2-fb71670d93cf","system_id":"levelo_inurba_marseille","lat":43.26803,"lon":5.40264,"is_reserved":false,"is_disabled":false,"rental_uris":{"android":"levelo://app?vid=d59d0612-a7d1-48b3-89c2-fb71670d93cf","ios":"levelo://app?vid=d59d0612-a7d1-48b3-89c2-fb71670d93cf"},"vehicle_type_id":"4","last_reported":1728486528,"current_range_meters":38800,"station_id":"ce501612rcd8frsf0b60","pricing_plan_id":"cebpf4jnsgd1na2vs0mg"},{"bike_id":"da0829c1-c224-43fc-8978-2a1f55d774eb","system_id":"levelo_inurba_marseille","lat":43.30178,"lon":5.36602,"is_reserved":false,"is_disabled":false,"rental_uris":{"android":"levelo://app?vid=da0829c1-c224-43fc-8978-2a1f55d774eb","ios":"levelo://app?vid=da0829c1-c224-43fc-8978-2a1f55d774eb"},"vehicle_type_id":"4","last_reported":1728486528,"current_range_meters":25200,"station_id":"ce4bgrh2rcd13ifvqc8g","pricing_plan_id":"cebpf4jnsgd1na2vs0mg"},{"bike_id":"8523fe4d-2d7b-4a96-a923-b96c618938bb","system_id":"levelo_inurba_marseille","lat":43.32337,"lon":5.40621,"is_reserved":false,"is_disabled":false,"rental_uris":{"android":"levelo://app?vid=8523fe4d-2d7b-4a96-a923-b96c618938bb","ios":"levelo://app?vid=8523fe4d-2d7b-4a96-a923-b96c618938bb"},"vehicle_type_id":"4","last_reported":1728486528,"current_range_meters":37600,"station_id":"ce4bhq92rcd13ifvqhjg","pricing_plan_id":"cebpf4jnsgd1na2vs0mg"},{"bike_id":"c1d00cb1-821d-487e-9c80-d4480847985f","system_id":"levelo_inurba_marseille","lat":43.28723,"lon":5.36082,"is_reserved":false,"is_disabled":false,"rental_uris":{"android":"levelo://app?vid=c1d00cb1-821d-487e-9c80-d4480847985f","ios":"levelo://app?vid=c1d00cb1-821d-487e-9c80-d4480847985f"},"vehicle_type_id":"4","last_reported":1728486528,"current_range_meters":18000,"station_id":"cki0cbj6b192h4jlfktg","pricing_plan_id":"cebpf4jnsgd1na2vs0mg"},{"bike_id":"e044e4d1-07fc-4fc2-bfac-c283edf63284","system_id":"levelo_inurba_marseille","lat":43.31997,"lon":5.38161,"is_reserved":false,"is_disabled":false,"rental_uris":{"android":"levelo://app?vid=e044e4d1-07fc-4fc2-bfac-c283edf63284","ios":"levelo://app?vid=e044e4d1-07fc-4fc2-bfac-c283edf63284"},"vehicle_type_id":"4","last_reported":1728486528,"current_range_meters":16400,"station_id":"ce4bhr12rcd13ifvqhpg","pricing_plan_id":"cebpf4jnsgd1na2vs0mg"},{"bike_id":"f078dbea-30ba-4216-b1ff-2753e7432a8b","system_id":"levelo_inurba_marseille","lat":43.26567,"lon":5.39,"is_reserved":false,"is_disabled":false,"rental_uris":{"android":"levelo://app?vid=f078dbea-30ba-4216-b1ff-2753e7432a8b","ios":"levelo://app?vid=f078dbea-30ba-4216-b1ff-2753e7432a8b"},"vehicle_type_id":"4","last_reported":1728486528,"current_range_meters":16800,"station_id":"ce4bhe12rcd13ifvqf30","pricing_plan_id":"cebpf4jnsgd1na2vs0mg"},{"bike_id":"adb62727-74b6-4bcf-a629-467c1972071f","system_id":"levelo_inurba_marseille","lat":43.30142,"lon":5.38773,"is_reserved":false,"is_disabled":false,"rental_uris":{"android":"levelo://app?vid=adb62727-74b6-4bcf-a629-467c1972071f","ios":"levelo://app?vid=adb62727-74b6-4bcf-a629-467c1972071f"},"vehicle_type_id":"4","last_reported":1728486528,"current_range_meters":17200,"station_id":"ce4bghh2rcd13ifvqb60","pricing_plan_id":"cebpf4jnsgd1na2vs0mg"},{"bike_id":"212766d7-96d2-45d8-b125-9c2d881ca918","system_id":"levelo_inurba_marseille","lat":43.29873,"lon":5.39731,"is_reserved":false,"is_disabled":false,"rental_uris":{"android":"levelo://app?vid=212766d7-96d2-45d8-b125-9c2d881ca918","ios":"levelo://app?vid=212766d7-96d2-45d8-b125-9c2d881ca918"},"vehicle_type_id":"4","last_reported":1728486528,"current_range_meters":10800,"station_id":"ce4bh0h2rcd13ifvqd50","pricing_plan_id":"cebpf4jnsgd1na2vs0mg"},{"bike_id":"41a17c55-0c71-401a-8a6a-0db5622a9160","system_id":"levelo_inurba_marseille","lat":43.29312,"lon":5.37161,"is_reserved":false,"is_disabled":false,"rental_uris":{"android":"levelo://app?vid=41a17c55-0c71-401a-8a6a-0db5622a9160","ios":"levelo://app?vid=41a17c55-0c71-401a-8a6a-0db5622a9160"},"vehicle_type_id":"4","last_reported":1728486528,"current_range_meters":8400,"station_id":"ce4bgh92rcd13ifvqb40","pricing_plan_id":"cebpf4jnsgd1na2vs0mg"},{"bike_id":"333dad02-ab12-4e6f-a68f-108b73029bfe","system_id":"levelo_inurba_marseille","lat":43.26987,"lon":5.39937,"is_reserved":false,"is_disabled":false,"rental_uris":{"android":"levelo://app?vid=333dad02-ab12-4e6f-a68f-108b73029bfe","ios":"levelo://app?vid=333dad02-ab12-4e6f-a68f-108b73029bfe"},"vehicle_type_id":"4","last_reported":1728486528,"current_range_meters":6400,"station_id":"","pricing_plan_id":"cebpf4jnsgd1na2vs0mg"},{"bike_id":"02fcbb44-7a4e-4c99-9fff-bf5ba98d69ae","system_id":"levelo_inurba_marseille","lat":43.2954,"lon":5.38553,"is_reserved":false,"is_disabled":false,"rental_uris":{"android":"levelo://app?vid=02fcbb44-7a4e-4c99-9fff-bf5ba98d69ae","ios":"levelo://app?vid=02fcbb44-7a4e-4c99-9fff-bf5ba98d69ae"},"vehicle_type_id":"4","last_reported":1728486528,"current_range_meters":22000,"station_id":"ce4bgih2rcd13ifvqba0","pricing_plan_id":"cebpf4jnsgd1na2vs0mg"},{"bike_id":"320fcb01-1e17-4357-829a-4162317321ba","system_id":"levelo_inurba_marseille","lat":43.31115,"lon":5.37764,"is_reserved":false,"is_disabled":false,"rental_uris":{"android":"levelo://app?vid=320fcb01-1e17-4357-829a-4162317321ba","ios":"levelo://app?vid=320fcb01-1e17-4357-829a-4162317321ba"},"vehicle_type_id":"4","last_reported":1728486528,"current_range_meters":15200,"station_id":"ce4bgt92rcd13ifvqcg0","pricing_plan_id":"cebpf4jnsgd1na2vs0mg"},{"bike_id":"d29f2584-5754-4d3e-bb22-012d9f0af56c","system_id":"levelo_inurba_marseille","lat":43.28376,"lon":5.38631,"is_reserved":false,"is_disabled":false,"rental_uris":{"android":"levelo://app?vid=d29f2584-5754-4d3e-bb22-012d9f0af56c","ios":"levelo://app?vid=d29f2584-5754-4d3e-bb22-012d9f0af56c"},"vehicle_type_id":"4","last_reported":1728486528,"current_range_meters":8000,"station_id":"ce4bh492rcd13ifvqdvg","pricing_plan_id":"cebpf4jnsgd1na2vs0mg"},{"bike_id":"9ee4b00c-8ae8-4c19-879b-4045ffc15da5","system_id":"levelo_inurba_marseille","lat":43.25111,"lon":5.40326,"is_reserved":false,"is_disabled":false,"rental_uris":{"android":"levelo://app?vid=9ee4b00c-8ae8-4c19-879b-4045ffc15da5","ios":"levelo://app?vid=9ee4b00c-8ae8-4c19-879b-4045ffc15da5"},"vehicle_type_id":"4","last_reported":1728486528,"current_range_meters":8400,"station_id":"ce4bhlh2rcd13ifvqgig","pricing_plan_id":"cebpf4jnsgd1na2vs0mg"},{"bike_id":"b475dfe8-6c89-4597-9704-9f74d4d063ba","system_id":"levelo_inurba_marseille","lat":43.23198,"lon":5.35559,"is_reserved":false,"is_disabled":false,"rental_uris":{"android":"levelo://app?vid=b475dfe8-6c89-4597-9704-9f74d4d063ba","ios":"levelo://app?vid=b475dfe8-6c89-4597-9704-9f74d4d063ba"},"vehicle_type_id":"4","last_reported":1728486528,"current_range_meters":38400,"station_id":"ce4bhu92rcd13ifvqi70","pricing_plan_id":"cebpf4jnsgd1na2vs0mg"},{"bike_id":"3024d8ba-aeea-444a-85ae-b611efda9717","system_id":"levelo_inurba_marseille","lat":43.28464,"lon":5.38415,"is_reserved":false,"is_disabled":false,"rental_uris":{"android":"levelo://app?vid=3024d8ba-aeea-444a-85ae-b611efda9717","ios":"levelo://app?vid=3024d8ba-aeea-444a-85ae-b611efda9717"},"vehicle_type_id":"4","last_reported":1728486528,"current_range_meters":28800,"station_id":"ce4bh512rcd13ifvqe3g","pricing_plan_id":"cebpf4jnsgd1na2vs0mg"},{"bike_id":"77e2d85d-a0bb-4ca1-9858-8f41e1584409","system_id":"levelo_inurba_marseille","lat":43.30794,"lon":5.43524,"is_reserved":false,"is_disabled":false,"rental_uris":{"android":"levelo://app?vid=77e2d85d-a0bb-4ca1-9858-8f41e1584409","ios":"levelo://app?vid=77e2d85d-a0bb-4ca1-9858-8f41e1584409"},"vehicle_type_id":"4","last_reported":1728486528,"current_range_meters":22800,"station_id":"ce4bhph2rcd13ifvqheg","pricing_plan_id":"cebpf4jnsgd1na2vs0mg"},{"bike_id":"16f7b4d6-bd14-4962-a1a3-ed982e1d4b30","system_id":"levelo_inurba_marseille","lat":43.29202,"lon":5.3933,"is_reserved":false,"is_disabled":false,"rental_uris":{"android":"levelo://app?vid=16f7b4d6-bd14-4962-a1a3-ed982e1d4b30","ios":"levelo://app?vid=16f7b4d6-bd14-4962-a1a3-ed982e1d4b30"},"vehicle_type_id":"4","last_reported":1728486528,"current_range_meters":38400,"station_id":"ce4bh192rcd13ifvqdd0","pricing_plan_id":"cebpf4jnsgd1na2vs0mg"},{"bike_id":"f82c79c5-7c4b-4b89-bee2-06f59295a1dd","system_id":"levelo_inurba_marseille","lat":43.2894,"lon":5.39629,"is_reserved":false,"is_disabled":false,"rental_uris":{"android":"levelo://app?vid=f82c79c5-7c4b-4b89-bee2-06f59295a1dd","ios":"levelo://app?vid=f82c79c5-7c4b-4b89-bee2-06f59295a1dd"},"vehicle_type_id":"4","last_reported":1728486528,"current_range_meters":20000,"station_id":"ce4bh3h2rcd13ifvqdn0","pricing_plan_id":"cebpf4jnsgd1na2vs0mg"},{"bike_id":"70b2912f-3eaa-4535-b48b-2b124925c9b1","system_id":"levelo_inurba_marseille","lat":43.25946,"lon":5.37538,"is_reserved":false,"is_disabled":false,"rental_uris":{"android":"levelo://app?vid=70b2912f-3eaa-4535-b48b-2b124925c9b1","ios":"levelo://app?vid=70b2912f-3eaa-4535-b48b-2b124925c9b1"},"vehicle_type_id":"4","last_reported":1728486528,"current_range_meters":17200,"station_id":"ce4bgj92rcd13ifvqbe0","pricing_plan_id":"cebpf4jnsgd1na2vs0mg"},{"bike_id":"51440785-2105-4fe8-9ced-61f3b7fe58f6","system_id":"levelo_inurba_marseille","lat":43.33764,"lon":5.37448,"is_reserved":false,"is_disabled":false,"rental_uris":{"android":"levelo://app?vid=51440785-2105-4fe8-9ced-61f3b7fe58f6","ios":"levelo://app?vid=51440785-2105-4fe8-9ced-61f3b7fe58f6"},"vehicle_type_id":"4","last_reported":1728486528,"current_range_meters":36400,"station_id":"","pricing_plan_id":"cebpf4jnsgd1na2vs0mg"},{"bike_id":"a368d76e-e9c1-467f-82cb-b9fe018668fa","system_id":"levelo_inurba_marseille","lat":43.33759,"lon":5.37448,"is_reserved":false,"is_disabled":false,"rental_uris":{"android":"levelo://app?vid=a368d76e-e9c1-467f-82cb-b9fe018668fa","ios":"levelo://app?vid=a368d76e-e9c1-467f-82cb-b9fe018668fa"},"vehicle_type_id":"4","last_reported":1728486528,"current_range_meters":36800,"station_id":"ce4rr2p2rcd13i802rgg","pricing_plan_id":"cebpf4jnsgd1na2vs0mg"},{"bike_id":"c1c22585-9e09-4605-9d82-010921387876","system_id":"levelo_inurba_marseille","lat":43.2657,"lon":5.39005,"is_reserved":false,"is_disabled":false,"rental_uris":{"android":"levelo://app?vid=c1c22585-9e09-4605-9d82-010921387876","ios":"levelo://app?vid=c1c22585-9e09-4605-9d82-010921387876"},"vehicle_type_id":"4","last_reported":1728486528,"current_range_meters":24800,"station_id":"ce4bhe12rcd13ifvqf30","pricing_plan_id":"cebpf4jnsgd1na2vs0mg"},{"bike_id":"1c034d1a-afec-4b9e-882c-ff4d7b8c8e9c","system_id":"levelo_inurba_marseille","lat":43.33746,"lon":5.37449,"is_reserved":false,"is_disabled":false,"rental_uris":{"android":"levelo://app?vid=1c034d1a-afec-4b9e-882c-ff4d7b8c8e9c","ios":"levelo://app?vid=1c034d1a-afec-4b9e-882c-ff4d7b8c8e9c"},"vehicle_type_id":"4","last_reported":1728486528,"current_range_meters":24000,"station_id":"ce4rr2p2rcd13i802rgg","pricing_plan_id":"cebpf4jnsgd1na2vs0mg"},{"bike_id":"3e3c199b-5889-41b5-8ef3-932feffcfbb0","system_id":"levelo_inurba_marseille","lat":43.23058,"lon":5.35489,"is_reserved":false,"is_disabled":false,"rental_uris":{"android":"levelo://app?vid=3e3c199b-5889-41b5-8ef3-932feffcfbb0","ios":"levelo://app?vid=3e3c199b-5889-41b5-8ef3-932feffcfbb0"},"vehicle_type_id":"4","last_reported":1728486528,"current_range_meters":25600,"station_id":"cpo3342slgdg3j2ifvpg","pricing_plan_id":"cebpf4jnsgd1na2vs0mg"},{"bike_id":"7fcb7e36-0d26-41d0-ac04-a56646146102","system_id":"levelo_inurba_marseille","lat":43.22933,"lon":5.35379,"is_reserved":false,"is_disabled":false,"rental_uris":{"android":"levelo://app?vid=7fcb7e36-0d26-41d0-ac04-a56646146102","ios":"levelo://app?vid=7fcb7e36-0d26-41d0-ac04-a56646146102"},"vehicle_type_id":"4","last_reported":1728486528,"current_range_meters":16400,"station_id":"cpo3532slgdg3j2ikp40","pricing_plan_id":"cebpf4jnsgd1na2vs0mg"},{"bike_id":"150c293c-cf39-4c0c-9665-50455b6dfcb2","system_id":"levelo_inurba_marseille","lat":43.29272,"lon":5.38448,"is_reserved":false,"is_disabled":false,"rental_uris":{"android":"levelo://app?vid=150c293c-cf39-4c0c-9665-50455b6dfcb2","ios":"levelo://app?vid=150c293c-cf39-4c0c-9665-50455b6dfcb2"},"vehicle_type_id":"4","last_reported":1728486528,"current_range_meters":4400,"station_id":"ce4bh692rcd13ifvqea0","pricing_plan_id":"cebpf4jnsgd1na2vs0mg"},{"bike_id":"00b34ad9-86d5-489c-8efb-acc41c6180ea","system_id":"levelo_inurba_marseille","lat":43.268224,"lon":5.402829,"is_reserved":false,"is_disabled":false,"rental_uris":{"android":"levelo://app?vid=00b34ad9-86d5-489c-8efb-acc41c6180ea","ios":"levelo://app?vid=00b34ad9-86d5-489c-8efb-acc41c6180ea"},"vehicle_type_id":"4","last_reported":1728486528,"current_range_meters":30400,"station_id":"ce501612rcd8frsf0b60","pricing_plan_id":"cebpf4jnsgd1na2vs0mg"},{"bike_id":"8c9ea1bc-3927-4ebe-9bcb-6b16446e5fe5","system_id":"levelo_inurba_marseille","lat":43.28935,"lon":5.39631,"is_reserved":false,"is_disabled":false,"rental_uris":{"android":"levelo://app?vid=8c9ea1bc-3927-4ebe-9bcb-6b16446e5fe5","ios":"levelo://app?vid=8c9ea1bc-3927-4ebe-9bcb-6b16446e5fe5"},"vehicle_type_id":"4","last_reported":1728486528,"current_range_meters":4800,"station_id":"ce4bh3h2rcd13ifvqdn0","pricing_plan_id":"cebpf4jnsgd1na2vs0mg"},{"bike_id":"87ee0ff0-3ce9-482c-b070-ad06b0267b19","system_id":"levelo_inurba_marseille","lat":43.23196,"lon":5.35549,"is_reserved":false,"is_disabled":false,"rental_uris":{"android":"levelo://app?vid=87ee0ff0-3ce9-482c-b070-ad06b0267b19","ios":"levelo://app?vid=87ee0ff0-3ce9-482c-b070-ad06b0267b19"},"vehicle_type_id":"4","last_reported":1728486528,"current_range_meters":33600,"station_id":"ce4bhu92rcd13ifvqi70","pricing_plan_id":"cebpf4jnsgd1na2vs0mg"},{"bike_id":"b24b322f-844b-4ff5-aeac-b4e6502a650d","system_id":"levelo_inurba_marseille","lat":43.26961,"lon":5.38633,"is_reserved":false,"is_disabled":false,"rental_uris":{"android":"levelo://app?vid=b24b322f-844b-4ff5-aeac-b4e6502a650d","ios":"levelo://app?vid=b24b322f-844b-4ff5-aeac-b4e6502a650d"},"vehicle_type_id":"4","last_reported":1728486528,"current_range_meters":6000,"station_id":"ce4bhh92rcd13ifvqfh0","pricing_plan_id":"cebpf4jnsgd1na2vs0mg"},{"bike_id":"2e4e52ae-7a22-488f-b24f-6c734df05ab9","system_id":"levelo_inurba_marseille","lat":43.23191,"lon":5.3555,"is_reserved":false,"is_disabled":false,"rental_uris":{"android":"levelo://app?vid=2e4e52ae-7a22-488f-b24f-6c734df05ab9","ios":"levelo://app?vid=2e4e52ae-7a22-488f-b24f-6c734df05ab9"},"vehicle_type_id":"4","last_reported":1728486528,"current_range_meters":33200,"station_id":"ce4bhu92rcd13ifvqi70","pricing_plan_id":"cebpf4jnsgd1na2vs0mg"},{"bike_id":"7ae8331c-ff2e-402f-8b12-e9912d0758b5","system_id":"levelo_inurba_marseille","lat":43.31721,"lon":5.42392,"is_reserved":false,"is_disabled":false,"rental_uris":{"android":"levelo://app?vid=7ae8331c-ff2e-402f-8b12-e9912d0758b5","ios":"levelo://app?vid=7ae8331c-ff2e-402f-8b12-e9912d0758b5"},"vehicle_type_id":"4","last_reported":1728486528,"current_range_meters":34800,"station_id":"ce4bhp92rcd13ifvqhbg","pricing_plan_id":"cebpf4jnsgd1na2vs0mg"},{"bike_id":"59c893c5-1149-42f6-b12c-e879ba247010","system_id":"levelo_inurba_marseille","lat":43.337444,"lon":5.374475,"is_reserved":false,"is_disabled":false,"rental_uris":{"android":"levelo://app?vid=59c893c5-1149-42f6-b12c-e879ba247010","ios":"levelo://app?vid=59c893c5-1149-42f6-b12c-e879ba247010"},"vehicle_type_id":"4","last_reported":1728486528,"current_range_meters":36000,"station_id":"","pricing_plan_id":"cebpf4jnsgd1na2vs0mg"},{"bike_id":"d9ce3b82-b235-41eb-bdc5-1cfd869335b0","system_id":"levelo_inurba_marseille","lat":43.28617,"lon":5.35106,"is_reserved":false,"is_disabled":false,"rental_uris":{"android":"levelo://app?vid=d9ce3b82-b235-41eb-bdc5-1cfd869335b0","ios":"levelo://app?vid=d9ce3b82-b235-41eb-bdc5-1cfd869335b0"},"vehicle_type_id":"4","last_reported":1728486528,"current_range_meters":30400,"station_id":"ce4bhch2rcd13ifvqeug","pricing_plan_id":"cebpf4jnsgd1na2vs0mg"},{"bike_id":"4ec6cb53-bed4-418d-adb0-b1989e83d24e","system_id":"levelo_inurba_marseille","lat":43.28267,"lon":5.35061,"is_reserved":false,"is_disabled":false,"rental_uris":{"android":"levelo://app?vid=4ec6cb53-bed4-418d-adb0-b1989e83d24e","ios":"levelo://app?vid=4ec6cb53-bed4-418d-adb0-b1989e83d24e"},"vehicle_type_id":"4","last_reported":1728486528,"current_range_meters":12000,"station_id":"ce4bhbp2rcd13ifvqerg","pricing_plan_id":"cebpf4jnsgd1na2vs0mg"},{"bike_id":"04ede7c4-04f9-4d02-8425-a569eb68fb8c","system_id":"levelo_inurba_marseille","lat":43.29939,"lon":5.36552,"is_reserved":false,"is_disabled":false,"rental_uris":{"android":"levelo://app?vid=04ede7c4-04f9-4d02-8425-a569eb68fb8c","ios":"levelo://app?vid=04ede7c4-04f9-4d02-8425-a569eb68fb8c"},"vehicle_type_id":"4","last_reported":1728486528,"current_range_meters":32000,"station_id":"ce4bgm92rcd13ifvqbr0","pricing_plan_id":"cebpf4jnsgd1na2vs0mg"},{"bike_id":"f95a588b-6d9b-4055-aab7-d2226664b295","system_id":"levelo_inurba_marseille","lat":43.24947,"lon":5.38906,"is_reserved":false,"is_disabled":false,"rental_uris":{"android":"levelo://app?vid=f95a588b-6d9b-4055-aab7-d2226664b295","ios":"levelo://app?vid=f95a588b-6d9b-4055-aab7-d2226664b295"},"vehicle_type_id":"4","last_reported":1728486528,"current_range_meters":18800,"station_id":"","pricing_plan_id":"cebpf4jnsgd1na2vs0mg"},{"bike_id":"d0855355-5c33-47bf-9257-b3f845353c19","system_id":"levelo_inurba_marseille","lat":43.27565,"lon":5.38409,"is_reserved":false,"is_disabled":false,"rental_uris":{"android":"levelo://app?vid=d0855355-5c33-47bf-9257-b3f845353c19","ios":"levelo://app?vid=d0855355-5c33-47bf-9257-b3f845353c19"},"vehicle_type_id":"4","last_reported":1728486528,"current_range_meters":37600,"station_id":"ce4bhh92rcd13ifvqfi0","pricing_plan_id":"cebpf4jnsgd1na2vs0mg"},{"bike_id":"8ce9b618-6ab8-4d0e-88c5-db1cd0bf04b8","system_id":"levelo_inurba_marseille","lat":43.31758,"lon":5.3901,"is_reserved":false,"is_disabled":false,"rental_uris":{"android":"levelo://app?vid=8ce9b618-6ab8-4d0e-88c5-db1cd0bf04b8","ios":"levelo://app?vid=8ce9b618-6ab8-4d0e-88c5-db1cd0bf04b8"},"vehicle_type_id":"4","last_reported":1728486528,"current_range_meters":17200,"station_id":"ce4bhqp2rcd13ifvqhng","pricing_plan_id":"cebpf4jnsgd1na2vs0mg"},{"bike_id":"a8b59d8a-ad2a-4a37-ab64-ab8c38b97d66","system_id":"levelo_inurba_marseille","lat":43.31276,"lon":5.40157,"is_reserved":false,"is_disabled":false,"rental_uris":{"android":"levelo://app?vid=a8b59d8a-ad2a-4a37-ab64-ab8c38b97d66","ios":"levelo://app?vid=a8b59d8a-ad2a-4a37-ab64-ab8c38b97d66"},"vehicle_type_id":"4","last_reported":1728486528,"current_range_meters":38800,"station_id":"ce4bh092rcd13ifvqd30","pricing_plan_id":"cebpf4jnsgd1na2vs0mg"},{"bike_id":"dc495036-479f-4f0d-a031-62911c10a975","system_id":"levelo_inurba_marseille","lat":43.23198,"lon":5.35546,"is_reserved":false,"is_disabled":false,"rental_uris":{"android":"levelo://app?vid=dc495036-479f-4f0d-a031-62911c10a975","ios":"levelo://app?vid=dc495036-479f-4f0d-a031-62911c10a975"},"vehicle_type_id":"4","last_reported":1728486528,"current_range_meters":8000,"station_id":"ce4bhu92rcd13ifvqi70","pricing_plan_id":"cebpf4jnsgd1na2vs0mg"},{"bike_id":"703e2865-0aa3-4097-a8dd-63ac1ea55630","system_id":"levelo_inurba_marseille","lat":43.30885,"lon":5.3966,"is_reserved":false,"is_disabled":false,"rental_uris":{"android":"levelo://app?vid=703e2865-0aa3-4097-a8dd-63ac1ea55630","ios":"levelo://app?vid=703e2865-0aa3-4097-a8dd-63ac1ea55630"},"vehicle_type_id":"4","last_reported":1728486528,"current_range_meters":26000,"station_id":"ce4bh012rcd13ifvqcv0","pricing_plan_id":"cebpf4jnsgd1na2vs0mg"},{"bike_id":"5f9b7fe2-4922-4f14-858e-4e628aa966a9","system_id":"levelo_inurba_marseille","lat":43.28724,"lon":5.36086,"is_reserved":false,"is_disabled":false,"rental_uris":{"android":"levelo://app?vid=5f9b7fe2-4922-4f14-858e-4e628aa966a9","ios":"levelo://app?vid=5f9b7fe2-4922-4f14-858e-4e628aa966a9"},"vehicle_type_id":"4","last_reported":1728486528,"current_range_meters":3200,"station_id":"cki0cbj6b192h4jlfktg","pricing_plan_id":"cebpf4jnsgd1na2vs0mg"},{"bike_id":"7484fd3b-1ccc-4309-bbc3-faa2ebb8445c","system_id":"levelo_inurba_marseille","lat":43.32051,"lon":5.41578,"is_reserved":false,"is_disabled":false,"rental_uris":{"android":"levelo://app?vid=7484fd3b-1ccc-4309-bbc3-faa2ebb8445c","ios":"levelo://app?vid=7484fd3b-1ccc-4309-bbc3-faa2ebb8445c"},"vehicle_type_id":"4","last_reported":1728486528,"current_range_meters":28800,"station_id":"ce4bhq92rcd13ifvqhkg","pricing_plan_id":"cebpf4jnsgd1na2vs0mg"},{"bike_id":"9bef2fb3-fced-4681-90e7-e712d378e616","system_id":"levelo_inurba_marseille","lat":43.29763,"lon":5.39353,"is_reserved":false,"is_disabled":false,"rental_uris":{"android":"levelo://app?vid=9bef2fb3-fced-4681-90e7-e712d378e616","ios":"levelo://app?vid=9bef2fb3-fced-4681-90e7-e712d378e616"},"vehicle_type_id":"4","last_reported":1728486528,"current_range_meters":22400,"station_id":"chh1huq6cuj3fo74tm60","pricing_plan_id":"cebpf4jnsgd1na2vs0mg"},{"bike_id":"50eb3747-2257-4292-8378-8225ae82bf3c","system_id":"levelo_inurba_marseille","lat":43.31527,"lon":5.38027,"is_reserved":false,"is_disabled":false,"rental_uris":{"android":"levelo://app?vid=50eb3747-2257-4292-8378-8225ae82bf3c","ios":"levelo://app?vid=50eb3747-2257-4292-8378-8225ae82bf3c"},"vehicle_type_id":"4","last_reported":1728486528,"current_range_meters":32800,"station_id":"ce4bhsp2rcd13ifvqi50","pricing_plan_id":"cebpf4jnsgd1na2vs0mg"},{"bike_id":"f26984fb-51b4-439c-8861-e0ee213f4dc9","system_id":"levelo_inurba_marseille","lat":43.25865,"lon":5.39896,"is_reserved":false,"is_disabled":false,"rental_uris":{"android":"levelo://app?vid=f26984fb-51b4-439c-8861-e0ee213f4dc9","ios":"levelo://app?vid=f26984fb-51b4-439c-8861-e0ee213f4dc9"},"vehicle_type_id":"4","last_reported":1728486528,"current_range_meters":12800,"station_id":"ce4bhl92rcd13ifvqghg","pricing_plan_id":"cebpf4jnsgd1na2vs0mg"},{"bike_id":"2c5f01a2-78d5-453f-8e21-329290c6856f","system_id":"levelo_inurba_marseille","lat":43.28629,"lon":5.35115,"is_reserved":false,"is_disabled":false,"rental_uris":{"android":"levelo://app?vid=2c5f01a2-78d5-453f-8e21-329290c6856f","ios":"levelo://app?vid=2c5f01a2-78d5-453f-8e21-329290c6856f"},"vehicle_type_id":"4","last_reported":1728486528,"current_range_meters":36400,"station_id":"ce4bhch2rcd13ifvqeug","pricing_plan_id":"cebpf4jnsgd1na2vs0mg"},