{"last_updated":1692468426,"ttl":30,"version":"2.2","data":{"bikes":[{"bike_id":"9697f158-d42d-4a28-b759-74fb1b21f10e","system_id":"levelo_inurba_marseille","lat":43.312239,"lon":5.368562,"is_reserved":false,"is_disabled":false,"rental_uris":{"android":"levelo://app?vid=9697f158-d42d-4a28-b759-74fb1b21f10e","ios":"levelo://app?vid=9697f158-d42d-4a28-b759-74fb1b21f10e"},"vehicle_type_id":"4","last_reported":1692468426,"current_range_meters":0,"station_id":"ce4bgl92rcd13ifvqbq0","pricing_plan_id":"free"},{"bike_id":"f22ca441-4e4e-4660-b824-b2f46943e54d","system_id":"levelo_inurba_marseille","lat":43.312239,"lon":5.368562,"is_reserved":false,"is_disabled":false,"rental_uris":{"android":"levelo://app?vid=f22ca441-4e4e-4660-b824-b2f46943e54d","ios":"levelo://app?vid=f22ca441-4e4e-4660-b824-b2f46943e54d"},"vehicle_type_id":"4","last_reported":1692468426,"current_range_meters":31200,"station_id":"ce4bgl92rcd13ifvqbq0","pricing_plan_id":"free"},{"bike_id":"3799eb88-cc7f-4987-aa1e-1036adf5e431","system_id":"levelo_inurba_marseille","lat":43.312239,"lon":5.368562,"is_reserved":false,"is_disabled":false,"rental_uris":{"android":"levelo://app?vid=3799eb88-cc7f-4987-aa1e-1036adf5e431","ios":"levelo://app?vid=3799eb88-cc7f-4987-aa1e-1036adf5e431"},"vehicle_type_id":"4","last_reported":1692468426,"current_range_meters":8000,"station_id":"ce4bgl92rcd13ifvqbq0","pricing_plan_id":"free"},{"bike_id":"52ade9de-94db-4f0d-9a12-e4c787a7dd55","system_id":"levelo_inurba_marseille","lat":43.309076,"lon":5.368465,"is_reserved":false,"is_disabled":false,"rental_uris":{"android":"levelo://app?vid=52ade9de-94db-4f0d-9a12-e4c787a7dd55","ios":"levelo://app?vid=52ade9de-94db-4f0d-9a12-e4c787a7dd55"},"vehicle_type_id":"4","last_reported":1692468426,"current_range_meters":30000,"station_id":"ce4bgn92rcd13ifvqbvg","pricing_plan_id":"free"},{"bike_id":"3b1ed18b-cb03-46f6-890a-8ce6f6621804","system_id":"levelo_inurba_marseille","lat":43.314811,"lon":5.373103,"is_reserved":false,"is_disabled":false,"rental_uris":{"android":"levelo://app?vid=3b1ed18b-cb03-46f6-890a-8ce6f6621804","ios":"levelo://app?vid=3b1ed18b-cb03-46f6-890a-8ce6f6621804"},"vehicle_type_id":"4","last_reported":1692468426,"current_range_meters":31200,"station_id":"ce4bgt12rcd13ifvqcd0","pricing_plan_id":"free"},{"bike_id":"e287d30c-3631-427d-b26f-bef4e695b958","system_id":"levelo_inurba_marseille","lat":43.305368,"lon":5.367343,"is_reserved":false,"is_disabled":false,"rental_uris":{"android":"levelo://app?vid=e287d30c-3631-427d-b26f-bef4e695b958","ios":"levelo://app?vid=e287d30c-3631-427d-b26f-bef4e695b958"},"vehicle_type_id":"4","last_reported":1692468426,"current_range_meters":27200,"station_id":"ce4bgrp2rcd13ifvqc9g","pricing_plan_id":"free"},{"bike_id":"386ed8e3-b71e-4f68-86af-202c5b76503e","system_id":"levelo_inurba_marseille","lat":43.305368,"lon":5.367343,"is_reserved":false,"is_disabled":false,"rental_uris":{"android":"levelo://app?vid=386ed8e3-b71e-4f68-86af-202c5b76503e","ios":"levelo://app?vid=386ed8e3-b71e-4f68-86af-202c5b76503e"},"vehicle_type_id":"4","last_reported":1692468426,"current_range_meters":24400,"station_id":"ce4bgrp2rcd13ifvqc9g","pricing_plan_id":"free"},{"bike_id":"9fbe6e18-d192-44c2-98b5-cafb68b41aa4","system_id":"levelo_inurba_marseille","lat":43.30535,"lon":5.36532,"is_reserved":false,"is_disabled":false,"rental_uris":{"android":"levelo://app?vid=9fbe6e18-d192-44c2-98b5-cafb68b41aa4","ios":"levelo://app?vid=9fbe6e18-d192-44c2-98b5-cafb68b41aa4"},"vehicle_type_id":"4","last_reported":1692468426,"current_range_meters":10400,"station_id":"ce4bgs12rcd13ifvqcag","pricing_plan_id":"free"},{"bike_id":"8c2406bf-fe25-4bde-b08d-da0a14da0351","system_id":"levelo_inurba_marseille","lat":43.3053,"lon":5.36543,"is_reserved":false,"is_disabled":false,"rental_uris":{"android":"levelo://app?vid=8c2406bf-fe25-4bde-b08d-da0a14da0351","ios":"levelo://app?vid=8c2406bf-fe25-4bde-b08d-da0a14da0351"},"vehicle_type_id":"4","last_reported":1692468426,"current_range_meters":25600,"station_id":"ce4bgs12rcd13ifvqcag","pricing_plan_id":"free"},{"bike_id":"4b022537-6af7-4e47-9292-ca55e88ff8b4","system_id":"levelo_inurba_marseille","lat":43.305989,"lon":5.37225,"is_reserved":false,"is_disabled":false,"rental_uris":{"android":"levelo://app?vid=4b022537-6af7-4e47-9292-ca55e88ff8b4","ios":"levelo://app?vid=4b022537-6af7-4e47-9292-ca55e88ff8b4"},"vehicle_type_id":"4","last_reported":1692468426,"current_range_meters":6400,"station_id":"ce4bgqh2rcd13ifvqc4g","pricing_plan_id":"free"},{"bike_id":"053a4b75-8443-4d67-91bb-1e5d2416d423","system_id":"levelo_inurba_marseille","lat":43.311131,"lon":5.377651,"is_reserved":false,"is_disabled":false,"rental_uris":{"android":"levelo://app?vid=053a4b75-8443-4d67-91bb-1e5d2416d423","ios":"levelo://app?vid=053a4b75-8443-4d67-91bb-1e5d2416d423"},"vehicle_type_id":"4","last_reported":1692468426,"current_range_meters":4800,"station_id":"ce4bgt92rcd13ifvqcg0","pricing_plan_id":"free"},{"bike_id":"c9685727-2c35-4489-987b-9ac82284dd3f","system_id":"levelo_inurba_marseille","lat":43.311131,"lon":5.377651,"is_reserved":false,"is_disabled":false,"rental_uris":{"android":"levelo://app?vid=c9685727-2c35-4489-987b-9ac82284dd3f","ios":"levelo://app?vid=c9685727-2c35-4489-987b-9ac82284dd3f"},"vehicle_type_id":"4","last_reported":1692468426,"current_range_meters":27200,"station_id":"ce4bgt92rcd13ifvqcg0","pricing_plan_id":"free"},{"bike_id":"282618fa-733c-44b9-ab13-174a5082864b","system_id":"levelo_inurba_marseille","lat":43.30788,"lon":5.37637,"is_reserved":false,"is_disabled":false,"rental_uris":{"android":"levelo://app?vid=282618fa-733c-44b9-ab13-174a5082864b","ios":"levelo://app?vid=282618fa-733c-44b9-ab13-174a5082864b"},"vehicle_type_id":"4","last_reported":1692468426,"current_range_meters":29200,"station_id":"ce4bgv92rcd13ifvqcq0","pricing_plan_id":"free"},{"bike_id":"e92c44c6-bfb0-45fa-b2fe-a367fd139d46","system_id":"levelo_inurba_marseille","lat":43.31693,"lon":5.37744,"is_reserved":false,"is_disabled":false,"rental_uris":{"android":"levelo://app?vid=e92c44c6-bfb0-45fa-b2fe-a367fd139d46","ios":"levelo://app?vid=e92c44c6-bfb0-45fa-b2fe-a367fd139d46"},"vehicle_type_id":"4","last_reported":1692468426,"current_range_meters":20800,"station_id":"ce4bgth2rcd13ifvqch0","pricing_plan_id":"free"},{"bike_id":"ffbbd85b-2ccf-411b-a739-2c5fef19f1aa","system_id":"levelo_inurba_marseille","lat":43.317075,"lon":5.377367,"is_reserved":false,"is_disabled":false,"rental_uris":{"android":"levelo://app?vid=ffbbd85b-2ccf-411b-a739-2c5fef19f1aa","ios":"levelo://app?vid=ffbbd85b-2ccf-411b-a739-2c5fef19f1aa"},"vehicle_type_id":"4","last_reported":1692468426,"current_range_meters":8400,"station_id":"ce4bgth2rcd13ifvqch0","pricing_plan_id":"free"},{"bike_id":"ab732109-6ac3-40cc-8338-7d7633ce749e","system_id":"levelo_inurba_marseille","lat":43.30304,"lon":5.368987,"is_reserved":false,"is_disabled":false,"rental_uris":{"android":"levelo://app?vid=ab732109-6ac3-40cc-8338-7d7633ce749e","ios":"levelo://app?vid=ab732109-6ac3-40cc-8338-7d7633ce749e"},"vehicle_type_id":"4","last_reported":1692468426,"current_range_meters":22400,"station_id":"ce4bgqh2rcd13ifvqc5g","pricing_plan_id":"free"},{"bike_id":"0871042d-4c98-4a0d-a09d-36eb6b88fae9","system_id":"levelo_inurba_marseille","lat":43.315293,"lon":5.380349,"is_reserved":false,"is_disabled":false,"rental_uris":{"android":"levelo://app?vid=0871042d-4c98-4a0d-a09d-36eb6b88fae9","ios":"levelo://app?vid=0871042d-4c98-4a0d-a09d-36eb6b88fae9"},"vehicle_type_id":"4","last_reported":1692468426,"current_range_meters":23600,"station_id":"ce4bhsp2rcd13ifvqi50","pricing_plan_id":"free"},{"bike_id":"ddea2bd4-c1b0-4967-9ad7-ac2e7e4aa399","system_id":"levelo_inurba_marseille","lat":43.315293,"lon":5.380349,"is_reserved":false,"is_disabled":false,"rental_uris":{"android":"levelo://app?vid=ddea2bd4-c1b0-4967-9ad7-ac2e7e4aa399","ios":"levelo://app?vid=ddea2bd4-c1b0-4967-9ad7-ac2e7e4aa399"},"vehicle_type_id":"4","last_reported":1692468426,"current_range_meters":28400,"station_id":"ce4bhsp2rcd13ifvqi50","pricing_plan_id":"free"},{"bike_id":"d86cb049-aee0-420a-8442-55a132e92d88","system_id":"levelo_inurba_marseille","lat":43.31531,"lon":5.38048,"is_reserved":false,"is_disabled":false,"rental_uris":{"android":"levelo://app?vid=d86cb049-aee0-420a-8442-55a132e92d88","ios":"levelo://app?vid=d86cb049-aee0-420a-8442-55a132e92d88"},"vehicle_type_id":"4","last_reported":1692468426,"current_range_meters":4800,"station_id":"ce4bhsp2rcd13ifvqi50","pricing_plan_id":"free"},{"bike_id":"96a39d69-f0ef-4de9-8934-c53d4f108ce9","system_id":"levelo_inurba_marseille","lat":43.308012,"lon":5.381511,"is_reserved":false,"is_disabled":false,"rental_uris":{"android":"levelo://app?vid=96a39d69-f0ef-4de9-8934-c53d4f108ce9","ios":"levelo://app?vid=96a39d69-f0ef-4de9-8934-c53d4f108ce9"},"vehicle_type_id":"4","last_reported":1692468426,"current_range_meters":2800,"station_id":"ce4bgt12rcd13ifvqce0","pricing_plan_id":"free"},{"bike_id":"8f9423b6-2f75-4d37-9601-472d76ede970","system_id":"levelo_inurba_marseille","lat":43.3136,"lon":5.38465,"is_reserved":false,"is_disabled":false,"rental_uris":{"android":"levelo://app?vid=8f9423b6-2f75-4d37-9601-472d76ede970","ios":"levelo://app?vid=8f9423b6-2f75-4d37-9601-472d76ede970"},"vehicle_type_id":"4","last_reported":1692468426,"current_range_meters":6800,"station_id":"ce4bgt92rcd13ifvqcf0","pricing_plan_id":"free"},{"bike_id":"66a85102-d3be-452a-bf6c-182362e6a30b","system_id":"levelo_inurba_marseille","lat":43.31364,"lon":5.38489,"is_reserved":false,"is_disabled":false,"rental_uris":{"android":"levelo://app?vid=66a85102-d3be-452a-bf6c-182362e6a30b","ios":"levelo://app?vid=66a85102-d3be-452a-bf6c-182362e6a30b"},"vehicle_type_id":"4","last_reported":1692468426,"current_range_meters":1600,"station_id":"ce4bgt92rcd13ifvqcf0","pricing_plan_id":"free"},{"bike_id":"b885f463-e8c5-42cc-902f-7152167ce1c7","system_id":"levelo_inurba_marseille","lat":43.299243,"lon":5.374807,"is_reserved":false,"is_disabled":false,"rental_uris":{"android":"levelo://app?vid=b885f463-e8c5-42cc-902f-7152167ce1c7","ios":"levelo://app?vid=b885f463-e8c5-42cc-902f-7152167ce1c7"},"vehicle_type_id":"4","last_reported":1692468426,"current_range_meters":31200,"station_id":"ce4bgjh2rcd13ifvqbg0","pricing_plan_id":"free"},{"bike_id":"36a0a893-98e4-4939-ab77-57b6c42cb3eb","system_id":"levelo_inurba_marseille","lat":43.30204,"lon":5.38092,"is_reserved":false,"is_disabled":false,"rental_uris":{"android":"levelo://app?vid=36a0a893-98e4-4939-ab77-57b6c42cb3eb","ios":"levelo://app?vid=36a0a893-98e4-4939-ab77-57b6c42cb3eb"},"vehicle_type_id":"4","last_reported":1692468426,"current_range_meters":0,"station_id":"","pricing_plan_id":"free"},{"bike_id":"b815ce0f-8c6d-460d-8747-b98d1251b4b3","system_id":"levelo_inurba_marseille","lat":43.32286,"lon":5.38259,"is_reserved":false,"is_disabled":false,"rental_uris":{"android":"levelo://app?vid=b815ce0f-8c6d-460d-8747-b98d1251b4b3","ios":"levelo://app?vid=b815ce0f-8c6d-460d-8747-b98d1251b4b3"},"vehicle_type_id":"4","last_reported":1692468426,"current_range_meters":14400,"station_id":"ce4bhr12rcd13ifvqhqg","pricing_plan_id":"free"},{"bike_id":"673200d6-9c00-4797-bd65-06254571f6fe","system_id":"levelo_inurba_marseille","lat":43.32285,"lon":5.38264,"is_reserved":false,"is_disabled":false,"rental_uris":{"android":"levelo://app?vid=673200d6-9c00-4797-bd65-06254571f6fe","ios":"levelo://app?vid=673200d6-9c00-4797-bd65-06254571f6fe"},"vehicle_type_id":"4","last_reported":1692468426,"current_range_meters":22800,"station_id":"ce4bhr12rcd13ifvqhqg","pricing_plan_id":"free"},{"bike_id":"5b5c8cae-b425-4976-9ba8-5ae205664d6b","system_id":"levelo_inurba_marseille","lat":43.32285,"lon":5.38265,"is_reserved":false,"is_disabled":false,"rental_uris":{"android":"levelo://app?vid=5b5c8cae-b425-4976-9ba8-5ae205664d6b","ios":"levelo://app?vid=5b5c8cae-b425-4976-9ba8-5ae205664d6b"},"vehicle_type_id":"4","last_reported":1692468426,"current_range_meters":18400,"station_id":"ce4bhr12rcd13ifvqhqg","pricing_plan_id":"free"},{"bike_id":"37abf04b-75d1-4790-b864-78d0de8637fb","system_id":"levelo_inurba_marseille","lat":43.32285,"lon":5.38268,"is_reserved":false,"is_disabled":false,"rental_uris":{"android":"levelo://app?vid=37abf04b-75d1-4790-b864-78d0de8637fb","ios":"levelo://app?vid=37abf04b-75d1-4790-b864-78d0de8637fb"},"vehicle_type_id":"4","last_reported":1692468426,"current_range_meters":26000,"station_id":"ce4bhr12rcd13ifvqhqg","pricing_plan_id":"free"},{"bike_id":"b9784bc4-a1f4-4e7b-a996-3746dcc4c656","system_id":"levelo_inurba_marseille","lat":43.32289,"lon":5.3827,"is_reserved":false,"is_disabled":false,"rental_uris":{"android":"levelo://app?vid=b9784bc4-a1f4-4e7b-a996-3746dcc4c656","ios":"levelo://app?vid=b9784bc4-a1f4-4e7b-a996-3746dcc4c656"},"vehicle_type_id":"4","last_reported":1692468426,"current_range_meters":9600,"station_id":"ce4bhr12rcd13ifvqhqg","pricing_plan_id":"free"},{"bike_id":"a1f7b084-f437-4e0c-8b20-334f54c48d59","system_id":"levelo_inurba_marseille","lat":43.3229,"lon":5.38271,"is_reserved":false,"is_disabled":false,"rental_uris":{"android":"levelo://app?vid=a1f7b084-f437-4e0c-8b20-334f54c48d59","ios":"levelo://app?vid=a1f7b084-f437-4e0c-8b20-334f54c48d59"},"vehicle_type_id":"4","last_reported":1692468426,"current_range_meters":18800,"station_id":"ce4bhr12rcd13ifvqhqg","pricing_plan_id":"free"},{"bike_id":"648dadf8-ff22-438c-bfb7-5c83267bdf3f","system_id":"levelo_inurba_marseille","lat":43.3229,"lon":5.38272,"is_reserved":false,"is_disabled":false,"rental_uris":{"android":"levelo://app?vid=648dadf8-ff22-438c-bfb7-5c83267bdf3f","ios":"levelo://app?vid=648dadf8-ff22-438c-bfb7-5c83267bdf3f"},"vehicle_type_id":"4","last_reported":1692468426,"current_range_meters":30800,"station_id":"ce4bhr12rcd13ifvqhqg","pricing_plan_id":"free"},{"bike_id":"20066552-063e-4d3e-9e10-e0e8a6d2c838","system_id":"levelo_inurba_marseille","lat":43.32296,"lon":5.38276,"is_reserved":false,"is_disabled":false,"rental_uris":{"android":"levelo://app?vid=20066552-063e-4d3e-9e10-e0e8a6d2c838","ios":"levelo://app?vid=20066552-063e-4d3e-9e10-e0e8a6d2c838"},"vehicle_type_id":"4","last_reported":1692468426,"current_range_meters":29600,"station_id":"ce4bhr12rcd13ifvqhqg","pricing_plan_id":"free"},{"bike_id":"418f40db-23bc-4b66-8945-04cfb5eeb137","system_id":"levelo_inurba_marseille","lat":43.32827,"lon":5.36676,"is_reserved":false,"is_disabled":false,"rental_uris":{"android":"levelo://app?vid=418f40db-23bc-4b66-8945-04cfb5eeb137","ios":"levelo://app?vid=418f40db-23bc-4b66-8945-04cfb5eeb137"},"vehicle_type_id":"4","last_reported":1692468426,"current_range_meters":31200,"station_id":"ce4bhs92rcd13ifvqi0g","pricing_plan_id":"free"},{"bike_id":"8d437ee0-2979-43ba-a0d7-aeb1267ca420","system_id":"levelo_inurba_marseille","lat":43.32828,"lon":5.3668,"is_reserved":false,"is_disabled":false,"rental_uris":{"android":"levelo://app?vid=8d437ee0-2979-43ba-a0d7-aeb1267ca420","ios":"levelo://app?vid=8d437ee0-2979-43ba-a0d7-aeb1267ca420"},"vehicle_type_id":"4","last_reported":1692468426,"current_range_meters":8400,"station_id":"ce4bhs92rcd13ifvqi0g","pricing_plan_id":"free"},{"bike_id":"e3a21d07-f446-4608-85be-12a81574bffc","system_id":"levelo_inurba_marseille","lat":43.32828,"lon":5.36679,"is_reserved":false,"is_disabled":false,"rental_uris":{"android":"levelo://app?vid=e3a21d07-f446-4608-85be-12a81574bffc","ios":"levelo://app?vid=e3a21d07-f446-4608-85be-12a81574bffc"},"vehicle_type_id":"4","last_reported":1692468426,"current_range_meters":15600,"station_id":"ce4bhs92rcd13ifvqi0g","pricing_plan_id":"free"},{"bike_id":"dead8c06-66e1-4988-887a-a1c0b4d00137","system_id":"levelo_inurba_marseille","lat":43.32832,"lon":5.36679,"is_reserved":false,"is_disabled":false,"rental_uris":{"android":"levelo://app?vid=dead8c06-66e1-4988-887a-a1c0b4d00137","ios":"levelo://app?vid=dead8c06-66e1-4988-887a-a1c0b4d00137"},"vehicle_type_id":"4","last_reported":1692468426,"current_range_meters":7200,"station_id":"ce4bhs92rcd13ifvqi0g","pricing_plan_id":"free"},{"bike_id":"dd789220-e7b5-42c1-b9dc-dc4243148021","system_id":"levelo_inurba_marseille","lat":43.297163,"lon":5.365866,"is_reserved":false,"is_disabled":false,"rental_uris":{"android":"levelo://app?vid=dd789220-e7b5-42c1-b9dc-dc4243148021","ios":"levelo://app?vid=dd789220-e7b5-42c1-b9dc-dc4243148021"},"vehicle_type_id":"4","last_reported":1692468426,"current_range_meters":31200,"station_id":"ce4bgn12rcd13ifvqbt0","pricing_plan_id":"free"},{"bike_id":"d3139180-8ba9-4c91-b6e4-8baae3c22113","system_id":"levelo_inurba_marseille","lat":43.29625,"lon":5.37164,"is_reserved":false,"is_disabled":false,"rental_uris":{"android":"levelo://app?vid=d3139180-8ba9-4c91-b6e4-8baae3c22113","ios":"levelo://app?vid=d3139180-8ba9-4c91-b6e4-8baae3c22113"},"vehicle_type_id":"4","last_reported":1692468426,"current_range_meters":31200,"station_id":"","pricing_plan_id":"free"},{"bike_id":"bb155e93-116e-494a-9911-2df351c7dae8","system_id":"levelo_inurba_marseille","lat":43.296131,"lon":5.370773,"is_reserved":false,"is_disabled":false,"rental_uris":{"android":"levelo://app?vid=bb155e93-116e-494a-9911-2df351c7dae8","ios":"levelo://app?vid=bb155e93-116e-494a-9911-2df351c7dae8"},"vehicle_type_id":"4","last_reported":1692468426,"current_range_meters":30000,"station_id":"ce4bgnh2rcd13ifvqc0g","pricing_plan_id":"free"},{"bike_id":"27ca6f31-5cba-4881-b0dd-9b3fccfca8fc","system_id":"levelo_inurba_marseille","lat":43.296921,"lon":5.376579,"is_reserved":false,"is_disabled":false,"rental_uris":{"android":"levelo://app?vid=27ca6f31-5cba-4881-b0dd-9b3fccfca8fc","ios":"levelo://app?vid=27ca6f31-5cba-4881-b0dd-9b3fccfca8fc"},"vehicle_type_id":"4","last_reported":1692468426,"current_range_meters":11200,"station_id":"ce4bgkh2rcd13ifvqbl0","pricing_plan_id":"free"},{"bike_id":"cb473b11-4658-474d-8fb2-ae5524c6d84a","system_id":"levelo_inurba_marseille","lat":43.296921,"lon":5.376579,"is_reserved":false,"is_disabled":false,"rental_uris":{"android":"levelo://app?vid=cb473b11-4658-474d-8fb2-ae5524c6d84a","ios":"levelo://app?vid=cb473b11-4658-474d-8fb2-ae5524c6d84a"},"vehicle_type_id":"4","last_reported":1692468426,"current_range_meters":8800,"station_id":"ce4bgkh2rcd13ifvqbl0","pricing_plan_id":"free"},{"bike_id":"d0ef9a42-55b7-486e-98be-267eb4c8dc35","system_id":"levelo_inurba_marseille","lat":43.30949,"lon":5.39027,"is_reserved":false,"is_disabled":false,"rental_uris":{"android":"levelo://app?vid=d0ef9a42-55b7-486e-98be-267eb4c8dc35","ios":"levelo://app?vid=d0ef9a42-55b7-486e-98be-267eb4c8dc35"},"vehicle_type_id":"4","last_reported":1692468426,"current_range_meters":17200,"station_id":"ce4bgup2rcd13ifvqco0","pricing_plan_id":"free"},{"bike_id":"886c1799-b5d8-4f40-b22b-43413e46c870","system_id":"levelo_inurba_marseille","lat":43.309631,"lon":5.390336,"is_reserved":false,"is_disabled":false,"rental_uris":{"android":"levelo://app?vid=886c1799-b5d8-4f40-b22b-43413e46c870","ios":"levelo://app?vid=886c1799-b5d8-4f40-b22b-43413e46c870"},"vehicle_type_id":"4","last_reported":1692468426,"current_range_meters":10800,"station_id":"ce4bgup2rcd13ifvqco0","pricing_plan_id":"free"},{"bike_id":"8a30fbab-cf30-4b34-9f52-f33b2074a266","system_id":"levelo_inurba_marseille","lat":43.309589,"lon":5.390258,"is_reserved":false,"is_disabled":false,"rental_uris":{"android":"levelo://app?vid=8a30fbab-cf30-4b34-9f52-f33b2074a266","ios":"levelo://app?vid=8a30fbab-cf30-4b34-9f52-f33b2074a266"},"vehicle_type_id":"4","last_reported":1692468426,"current_range_meters":0,"station_id":"ce4bgup2rcd13ifvqco0","pricing_plan_id":"free"},{"bike_id":"61e929a1-45fe-43f9-a0bf-a47367f75574","system_id":"levelo_inurba_marseille","lat":43.309589,"lon":5.390258,"is_reserved":false,"is_disabled":false,"rental_uris":{"android":"levelo://app?vid=61e929a1-45fe-43f9-a0bf-a47367f75574","ios":"levelo://app?vid=61e929a1-45fe-43f9-a0bf-a47367f75574"},"vehicle_type_id":"4","last_reported":1692468426,"current_range_meters":4800,"station_id":"ce4bgup2rcd13ifvqco0","pricing_plan_id":"free"},{"bike_id":"73508f29-909d-43ce-963a-fd3f39614561","system_id":"levelo_inurba_marseille","lat":43.30945,"lon":5.39033,"is_reserved":false,"is_disabled":false,"rental_uris":{"android":"levelo://app?vid=73508f29-909d-43ce-963a-fd3f39614561","ios":"levelo://app?vid=73508f29-909d-43ce-963a-fd3f39614561"},"vehicle_type_id":"4","last_reported":1692468426,"current_range_meters":11200,"station_id":"ce4bgup2rcd13ifvqco0","pricing_plan_id":"free"},{"bike_id":"3ffbefc4-3bc7-42ed-9979-39ccbf921d00","system_id":"levelo_inurba_marseille","lat":43.309589,"lon":5.390258,"is_reserved":false,"is_disabled":false,"rental_uris":{"android":"levelo://app?vid=3ffbefc4-3bc7-42ed-9979-39ccbf921d00","ios":"levelo://app?vid=3ffbefc4-3bc7-42ed-9979-39ccbf921d00"},"vehicle_type_id":"4","last_reported":1692468426,"current_range_meters":22400,"station_id":"ce4bgup2rcd13ifvqco0","pricing_plan_id":"free"},{"bike_id":"e9682881-cb03-4ae3-b439-0cc7b7a607e3","system_id":"levelo_inurba_marseille","lat":43.317557,"lon":5.390173,"is_reserved":false,"is_disabled":false,"rental_uris":{"android":"levelo://app?vid=e9682881-cb03-4ae3-b439-0cc7b7a607e3","ios":"levelo://app?vid=e9682881-cb03-4ae3-b439-0cc7b7a607e3"},"vehicle_type_id":"4","last_reported":1692468426,"current_range_meters":26800,"station_id":"ce4bhqp2rcd13ifvqhng","pricing_plan_id":"free"},{"bike_id":"b19118f7-cbf1-4ae5-bf92-0d92bbaa7599","system_id":"levelo_inurba_marseille","lat":43.317557,"lon":5.390173,"is_reserved":false,"is_disabled":false,"rental_uris":{"android":"levelo://app?vid=b19118f7-cbf1-4ae5-bf92-0d92bbaa7599","ios":"levelo://app?vid=b19118f7-cbf1-4ae5-bf92-0d92bbaa7599"},"vehicle_type_id":"4","last_reported":1692468426,"current_range_meters":27200,"station_id":"ce4bhqp2rcd13ifvqhng","pricing_plan_id":"free"},{"bike_id":"98c39466-3ebe-4afe-be56-d17f24e92d0d","system_id":"levelo_inurba_marseille","lat":43.298037,"lon":5.381066,"is_reserved":false,"is_disabled":false,"rental_uris":{"android":"levelo://app?vid=98c39466-3ebe-4afe-be56-d17f24e92d0d","ios":"levelo://app?vid=98c39466-3ebe-4afe-be56-d17f24e92d0d"},"vehicle_type_id":"4","last_reported":1692468426,"current_range_meters":14800,"station_id":"ce4bgip2rcd13ifvqbb0","pricing_plan_id":"free"},{"bike_id":"27f85830-8fc6-4050-83d1-e57dd5d9d19b","system_id":"levelo_inurba_marseille","lat":43.298037,"lon":5.381066,"is_reserved":false,"is_disabled":false,"rental_uris":{"android":"levelo://app?vid=27f85830-8fc6-4050-83d1-e57dd5d9d19b","ios":"levelo://app?vid=27f85830-8fc6-4050-83d1-e57dd5d9d19b"},"vehicle_type_id":"4","last_reported":1692468426,"current_range_meters":25600,"station_id":"ce4bgip2rcd13ifvqbb0","pricing_plan_id":"free"},{"bike_id":"2febedf4-ec0d-4a2d-8dd2-1ae41401c79f","system_id":"levelo_inurba_marseille","lat":43.2979,"lon":5.38088,"is_reserved":false,"is_disabled":false,"rental_uris":{"android":"levelo://app?vid=2febedf4-ec0d-4a2d-8dd2-1ae41401c79f","ios":"levelo://app?vid=2febedf4-ec0d-4a2d-8dd2-1ae41401c79f"},"vehicle_type_id":"4","last_reported":1692468426,"current_range_meters":7600,"station_id":"ce4bgip2rcd13ifvqbb0","pricing_plan_id":"free"},{"bike_id":"5510c9a1-ea6f-4086-b15d-4ceb32ccc937","system_id":"levelo_inurba_marseille","lat":43.29786,"lon":5.38109,"is_reserved":false,"is_disabled":false,"rental_uris":{"android":"levelo://app?vid=5510c9a1-ea6f-4086-b15d-4ceb32ccc937","ios":"levelo://app?vid=5510c9a1-ea6f-4086-b15d-4ceb32ccc937"},"vehicle_type_id":"4","last_reported":1692468426,"current_range_meters":9200,"station_id":"ce4bgip2rcd13ifvqbb0","pricing_plan_id":"free"},{"bike_id":"a4df99ce-0488-49dd-a888-94686f562e88","system_id":"levelo_inurba_marseille","lat":43.29561,"lon":5.375,"is_reserved":false,"is_disabled":false,"rental_uris":{"android":"levelo://app?vid=a4df99ce-0488-49dd-a888-94686f562e88","ios":"levelo://app?vid=a4df99ce-0488-49dd-a888-94686f562e88"},"vehicle_type_id":"4","last_reported":1692468426,"current_range_meters":29200,"station_id":"ce4bgh92rcd13ifvqb50","pricing_plan_id":"free"},{"bike_id":"671d306a-3eb8-48d7-9aba-e40313ca6453","system_id":"levelo_inurba_marseille","lat":43.299717,"lon":5.384845,"is_reserved":false,"is_disabled":false,"rental_uris":{"android":"levelo://app?vid=671d306a-3eb8-48d7-9aba-e40313ca6453","ios":"levelo://app?vid=671d306a-3eb8-48d7-9aba-e40313ca6453"},"vehicle_type_id":"4","last_reported":1692468426,"current_range_meters":9600,"station_id":"ce4bgj92rcd13ifvqbd0","pricing_plan_id":"free"},{"bike_id":"e49d59dd-faca-4094-80cf-4d1d7911d144","system_id":"levelo_inurba_marseille","lat":43.299717,"lon":5.384845,"is_reserved":false,"is_disabled":false,"rental_uris":{"android":"levelo://app?vid=e49d59dd-faca-4094-80cf-4d1d7911d144","ios":"levelo://app?vid=e49d59dd-faca-4094-80cf-4d1d7911d144"},"vehicle_type_id":"4","last_reported":1692468426,"current_range_meters":4800,"station_id":"ce4bgj92rcd13ifvqbd0","pricing_plan_id":"free"},{"bike_id":"ade3fa10-41e2-4a9f-88cd-95ed2dbccfc5","system_id":"levelo_inurba_marseille","lat":43.299717,"lon":5.384845,"is_reserved":false,"is_disabled":false,"rental_uris":{"android":"levelo://app?vid=ade3fa10-41e2-4a9f-88cd-95ed2dbccfc5","ios":"levelo://app?vid=ade3fa10-41e2-4a9f-88cd-95ed2dbccfc5"},"vehicle_type_id":"4","last_reported":1692468426,"current_range_meters":4000,"station_id":"ce4bgj92rcd13ifvqbd0","pricing_plan_id":"free"},{"bike_id":"03f2098f-b50c-4ca4-a765-8806d474ecf2","system_id":"levelo_inurba_marseille","lat":43.32367,"lon":5.388836,"is_reserved":false,"is_disabled":false,"rental_uris":{"android":"levelo://app?vid=03f2098f-b50c-4ca4-a765-8806d474ecf2","ios":"levelo://app?vid=03f2098f-b50c-4ca4-a765-8806d474ecf2"},"vehicle_type_id":"4","last_reported":1692468426,"current_range_meters":8400,"station_id":"ce4bhqp2rcd13ifvqhog","pricing_plan_id":"free"},{"bike_id":"55f08f4d-333e-4077-9882-16e72e12ddbf","system_id":"levelo_inurba_marseille","lat":43.32367,"lon":5.388836,"is_reserved":false,"is_disabled":false,"rental_uris":{"android":"levelo://app?vid=55f08f4d-333e-4077-9882-16e72e12ddbf","ios":"levelo://app?vid=55f08f4d-333e-4077-9882-16e72e12ddbf"},"vehicle_type_id":"4","last_reported":1692468426,"current_range_meters":27200,"station_id":"ce4bhqp2rcd13ifvqhog","pricing_plan_id":"free"},{"bike_id":"635b8c21-3b11-40ce-917b-0afc63b9d496","system_id":"levelo_inurba_marseille","lat":43.32367,"lon":5.388836,"is_reserved":false,"is_disabled":false,"rental_uris":{"android":"levelo://app?vid=635b8c21-3b11-40ce-917b-0afc63b9d496","ios":"levelo://app?vid=635b8c21-3b11-40ce-917b-0afc63b9d496"},"vehicle_type_id":"4","last_reported":1692468426,"current_range_meters":2000,"station_id":"ce4bhqp2rcd13ifvqhog","pricing_plan_id":"free"},{"bike_id":"21fcea45-e491-4a85-bcbf-bf5cd0b62ccf","system_id":"levelo_inurba_marseille","lat":43.32369,"lon":5.38879,"is_reserved":false,"is_disabled":false,"rental_uris":{"android":"levelo://app?vid=21fcea45-e491-4a85-bcbf-bf5cd0b62ccf","ios":"levelo://app?vid=21fcea45-e491-4a85-bcbf-bf5cd0b62ccf"},"vehicle_type_id":"4","last_reported":1692468426,"current_range_meters":30800,"station_id":"ce4bhqp2rcd13ifvqhog","pricing_plan_id":"free"},{"bike_id":"a97f77a2-1520-4bfc-9df0-0f9c62851caa","system_id":"levelo_inurba_marseille","lat":43.32365,"lon":5.38883,"is_reserved":false,"is_disabled":false,"rental_uris":{"android":"levelo://app?vid=a97f77a2-1520-4bfc-9df0-0f9c62851caa","ios":"levelo://app?vid=a97f77a2-1520-4bfc-9df0-0f9c62851caa"},"vehicle_type_id":"4","last_reported":1692468426,"current_range_meters":27600,"station_id":"ce4bhqp2rcd13ifvqhog","pricing_plan_id":"free"},{"bike_id":"d49c7be8-2f16-4455-8835-7143b891d27c","system_id":"levelo_inurba_marseille","lat":43.32367,"lon":5.388836,"is_reserved":false,"is_disabled":false,"rental_uris":{"android":"levelo://app?vid=d49c7be8-2f16-4455-8835-7143b891d27c","ios":"levelo://app?vid=d49c7be8-2f16-4455-8835-7143b891d27c"},"vehicle_type_id":"4","last_reported":1692468426,"current_range_meters":26000,"station_id":"ce4bhqp2rcd13ifvqhog","pricing_plan_id":"free"},{"bike_id":"0126f869-77bb-4690-a14f-53e2dd9d4689","system_id":"levelo_inurba_marseille","lat":43.32373,"lon":5.38883,"is_reserved":false,"is_disabled":false,"rental_uris":{"android":"levelo://app?vid=0126f869-77bb-4690-a14f-53e2dd9d4689","ios":"levelo://app?vid=0126f869-77bb-4690-a14f-53e2dd9d4689"},"vehicle_type_id":"4","last_reported":1692468426,"current_range_meters":25200,"station_id":"ce4bhqp2rcd13ifvqhog","pricing_plan_id":"free"},{"bike_id":"6b6cba89-d2b8-44bb-8454-5df08cf65f67","system_id":"levelo_inurba_marseille","lat":43.32372,"lon":5.38886,"is_reserved":false,"is_disabled":false,"rental_uris":{"android":"levelo://app?vid=6b6cba89-d2b8-44bb-8454-5df08cf65f67","ios":"levelo://app?vid=6b6cba89-d2b8-44bb-8454-5df08cf65f67"},"vehicle_type_id":"4","last_reported":1692468426,"current_range_meters":12400,"station_id":"ce4bhqp2rcd13ifvqhog","pricing_plan_id":"free"},{"bike_id":"3ca3f621-3ed1-46b4-b4f6-37a71d187fa3","system_id":"levelo_inurba_marseille","lat":43.32367,"lon":5.388836,"is_reserved":false,"is_disabled":false,"rental_uris":{"android":"levelo://app?vid=3ca3f621-3ed1-46b4-b4f6-37a71d187fa3","ios":"levelo://app?vid=3ca3f621-3ed1-46b4-b4f6-37a71d187fa3"},"vehicle_type_id":"4","last_reported":1692468426,"current_range_meters":26000,"station_id":"ce4bhqp2rcd13ifvqhog","pricing_plan_id":"free"},{"bike_id":"bb689117-5ae0-437c-bfe2-683b090c3541","system_id":"levelo_inurba_marseille","lat":43.29593,"lon":5.38106,"is_reserved":false,"is_disabled":false,"rental_uris":{"android":"levelo://app?vid=bb689117-5ae0-437c-bfe2-683b090c3541","ios":"levelo://app?vid=bb689117-5ae0-437c-bfe2-683b090c3541"},"vehicle_type_id":"4","last_reported":1692468426,"current_range_meters":7200,"station_id":"ce4bgl12rcd13ifvqbo0","pricing_plan_id":"free"},{"bike_id":"38fef587-7cc5-4800-b069-87b8f296a10a","system_id":"levelo_inurba_marseille","lat":43.293009,"lon":5.374584,"is_reserved":false,"is_disabled":false,"rental_uris":{"android":"levelo://app?vid=38fef587-7cc5-4800-b069-87b8f296a10a","ios":"levelo://app?vid=38fef587-7cc5-4800-b069-87b8f296a10a"},"vehicle_type_id":"4","last_reported":1692468426,"current_range_meters":31200,"station_id":"ce4bgi12rcd13ifvqb70","pricing_plan_id":"free"},{"bike_id":"7681ad49-482b-4360-8894-fcfce0d6a97a","system_id":"levelo_inurba_marseille","lat":43.29222,"lon":5.36061,"is_reserved":false,"is_disabled":false,"rental_uris":{"android":"levelo://app?vid=7681ad49-482b-4360-8894-fcfce0d6a97a","ios":"levelo://app?vid=7681ad49-482b-4360-8894-fcfce0d6a97a"},"vehicle_type_id":"4","last_reported":1692468426,"current_range_meters":30400,"station_id":"ce4bhbh2rcd13ifvqeqg","pricing_plan_id":"free"},{"bike_id":"7dd14efb-0286-4275-a993-7bb8cda39ee2","system_id":"levelo_inurba_marseille","lat":43.29215,"lon":5.36053,"is_reserved":false,"is_disabled":false,"rental_uris":{"android":"levelo://app?vid=7dd14efb-0286-4275-a993-7bb8cda39ee2","ios":"levelo://app?vid=7dd14efb-0286-4275-a993-7bb8cda39ee2"},"vehicle_type_id":"4","last_reported":1692468426,"current_range_meters":19600,"station_id":"ce4bhbh2rcd13ifvqeqg","pricing_plan_id":"free"},{"bike_id":"f54f9832-2d8b-40b3-bc86-d185cf667839","system_id":"levelo_inurba_marseille","lat":43.29215,"lon":5.36049,"is_reserved":false,"is_disabled":false,"rental_uris":{"android":"levelo://app?vid=f54f9832-2d8b-40b3-bc86-d185cf667839","ios":"levelo://app?vid=f54f9832-2d8b-40b3-bc86-d185cf667839"},"vehicle_type_id":"4","last_reported":1692468426,"current_range_meters":31200,"station_id":"ce4bhbh2rcd13ifvqeqg","pricing_plan_id":"free"},{"bike_id":"c7ce820d-f983-4e87-a3f9-7fd8cba68549","system_id":"levelo_inurba_marseille","lat":43.30889,"lon":5.39635,"is_reserved":false,"is_disabled":false,"rental_uris":{"android":"levelo://app?vid=c7ce820d-f983-4e87-a3f9-7fd8cba68549","ios":"levelo://app?vid=c7ce820d-f983-4e87-a3f9-7fd8cba68549"},"vehicle_type_id":"4","last_reported":1692468426,"current_range_meters":0,"station_id":"ce4bh012rcd13ifvqcv0","pricing_plan_id":"free"},{"bike_id":"c21b6c08-f9a9-4005-bfdc-c5caade2897c","system_id":"levelo_inurba_marseille","lat":43.31327,"lon":5.39687,"is_reserved":false,"is_disabled":false,"rental_uris":{"android":"levelo://app?vid=c21b6c08-f9a9-4005-bfdc-c5caade2897c","ios":"levelo://app?vid=c21b6c08-f9a9-4005-bfdc-c5caade2897c"},"vehicle_type_id":"4","last_reported":1692468426,"current_range_meters":4400,"station_id":"ce4bgvp2rcd13ifvqcu0","pricing_plan_id":"free"},{"bike_id":"5e750213-5f3e-46b8-8a71-915fa759eeac","system_id":"levelo_inurba_marseille","lat":43.309038,"lon":5.396546,"is_reserved":false,"is_disabled":false,"rental_uris":{"android":"levelo://app?vid=5e750213-5f3e-46b8-8a71-915fa759eeac","ios":"levelo://app?vid=5e750213-5f3e-46b8-8a71-915fa759eeac"},"vehicle_type_id":"4","last_reported":1692468426,"current_range_meters":21200,"station_id":"ce4bh012rcd13ifvqcv0","pricing_plan_id":"free"},{"bike_id":"ba10e17c-98f5-446c-9ec2-cf3795c93f26","system_id":"levelo_inurba_marseille","lat":43.30886,"lon":5.39649,"is_reserved":false,"is_disabled":false,"rental_uris":{"android":"levelo://app?vid=ba10e17c-98f5-446c-9ec2-cf3795c93f26","ios":"levelo://app?vid=ba10e17c-98f5-446c-9ec2-cf3795c93f26"},"vehicle_type_id":"4","last_reported":1692468426,"current_range_meters":4800,"station_id":"ce4bh012rcd13ifvqcv0","pricing_plan_id":"free"},{"bike_id":"6c9a6c43-9c8c-4a7c-9834-bfc3b03adf47","system_id":"levelo_inurba_marseille","lat":43.30881,"lon":5.39648,"is_reserved":false,"is_disabled":false,"rental_uris":{"android":"levelo://app?vid=6c9a6c43-9c8c-4a7c-9834-bfc3b03adf47","ios":"levelo://app?vid=6c9a6c43-9c8c-4a7c-9834-bfc3b03adf47"},"vehicle_type_id":"4","last_reported":1692468426,"current_range_meters":2800,"station_id":"ce4bh012rcd13ifvqcv0","pricing_plan_id":"free"},{"bike_id":"5bb7bdd2-9f1b-42b2-8b9a-e9d4f7dc5e89","system_id":"levelo_inurba_marseille","lat":43.30883,"lon":5.39656,"is_reserved":false,"is_disabled":false,"rental_uris":{"android":"levelo://app?vid=5bb7bdd2-9f1b-42b2-8b9a-e9d4f7dc5e89","ios":"levelo://app?vid=5bb7bdd2-9f1b-42b2-8b9a-e9d4f7dc5e89"},"vehicle_type_id":"4","last_reported":1692468426,"current_range_meters":6000,"station_id":"ce4bh012rcd13ifvqcv0","pricing_plan_id":"free"},{"bike_id":"579dc272-9de1-48b0-979d-8b0cef64ed2c","system_id":"levelo_inurba_marseille","lat":43.2953,"lon":5.38542,"is_reserved":false,"is_disabled":false,"rental_uris":{"android":"levelo://app?vid=579dc272-9de1-48b0-979d-8b0cef64ed2c","ios":"levelo://app?vid=579dc272-9de1-48b0-979d-8b0cef64ed2c"},"vehicle_type_id":"4","last_reported":1692468426,"current_range_meters":10800,"station_id":"ce4bgih2rcd13ifvqba0","pricing_plan_id":"free"},{"bike_id":"4396de3d-0088-4366-8ef6-53194b97924d","system_id":"levelo_inurba_marseille","lat":43.29529,"lon":5.385581,"is_reserved":false,"is_disabled":false,"rental_uris":{"android":"levelo://app?vid=4396de3d-0088-4366-8ef6-53194b97924d","ios":"levelo://app?vid=4396de3d-0088-4366-8ef6-53194b97924d"},"vehicle_type_id":"4","last_reported":1692468426,"current_range_meters":21200,"station_id":"ce4bgih2rcd13ifvqba0","pricing_plan_id":"free"},{"bike_id":"71ebea4d-16c6-44e4-8fc0-9f7ad3d15452","system_id":"levelo_inurba_marseille","lat":43.290779,"lon":5.371482,"is_reserved":false,"is_disabled":false,"rental_uris":{"android":"levelo://app?vid=71ebea4d-16c6-44e4-8fc0-9f7ad3d15452","ios":"levelo://app?vid=71ebea4d-16c6-44e4-8fc0-9f7ad3d15452"},"vehicle_type_id":"4","last_reported":1692468426,"current_range_meters":22400,"station_id":"ce4bh5p2rcd13ifvqe4g","pricing_plan_id":"free"},{"bike_id":"30eb758c-8f29-4c8e-a125-3c5a9c79436e","system_id":"levelo_inurba_marseille","lat":43.290779,"lon":5.371482,"is_reserved":false,"is_disabled":false,"rental_uris":{"android":"levelo://app?vid=30eb758c-8f29-4c8e-a125-3c5a9c79436e","ios":"levelo://app?vid=30eb758c-8f29-4c8e-a125-3c5a9c79436e"},"vehicle_type_id":"4","last_reported":1692468426,"current_range_meters":2000,"station_id":"ce4bh5p2rcd13ifvqe4g","pricing_plan_id":"free"},{"bike_id":"53bb1ebb-aa2e-4b6b-b260-bd79d6cc2657","system_id":"levelo_inurba_marseille","lat":43.29054,"lon":5.35908,"is_reserved":false,"is_disabled":false,"rental_uris":{"android":"levelo://app?vid=53bb1ebb-aa2e-4b6b-b260-bd79d6cc2657","ios":"levelo://app?vid=53bb1ebb-aa2e-4b6b-b260-bd79d6cc2657"},"vehicle_type_id":"4","last_reported":1692468426,"current_range_meters":20000,"station_id":"","pricing_plan_id":"free"},{"bike_id":"f4b6aa8c-c8b9-4a94-97bf-c8e389d60884","system_id":"levelo_inurba_marseille","lat":43.292644,"lon":5.384257,"is_reserved":false,"is_disabled":false,"rental_uris":{"android":"levelo://app?vid=f4b6aa8c-c8b9-4a94-97bf-c8e389d60884","ios":"levelo://app?vid=f4b6aa8c-c8b9-4a94-97bf-c8e389d60884"},"vehicle_type_id":"4","last_reported":1692468426,"current_range_meters":7200,"station_id":"ce4bh692rcd13ifvqea0","pricing_plan_id":"free"},{"bike_id":"0cbbd5db-1e87-4d2f-aac2-b1dd109e61b3","system_id":"levelo_inurba_marseille","lat":43.292644,"lon":5.384257,"is_reserved":false,"is_disabled":false,"rental_uris":{"android":"levelo://app?vid=0cbbd5db-1e87-4d2f-aac2-b1dd109e61b3","ios":"levelo://app?vid=0cbbd5db-1e87-4d2f-aac2-b1dd109e61b3"},"vehicle_type_id":"4","last_reported":1692468426,"current_range_meters":15200,"station_id":"ce4bh692rcd13ifvqea0","pricing_plan_id":"free"},{"bike_id":"72a8897c-b694-4329-9621-3f500806dcfd","system_id":"levelo_inurba_marseille","lat":43.292644,"lon":5.384257,"is_reserved":false,"is_disabled":false,"rental_uris":{"android":"levelo://app?vid=72a8897c-b694-4329-9621-3f500806dcfd","ios":"levelo://app?vid=72a8897c-b694-4329-9621-3f500806dcfd"},"vehicle_type_id":"4","last_reported":1692468426,"current_range_meters":1200,"station_id":"ce4bh692rcd13ifvqea0","pricing_plan_id":"free"},{"bike_id":"db72ca58-9b52-4fb8-983c-096e53665573","system_id":"levelo_inurba_marseille","lat":43.304296,"lon":5.397513,"is_reserved":false,"is_disabled":false,"rental_uris":{"android":"levelo://app?vid=db72ca58-9b52-4fb8-983c-096e53665573","ios":"levelo://app?vid=db72ca58-9b52-4fb8-983c-096e53665573"},"vehicle_type_id":"4","last_reported":1692468426,"current_range_meters":8000,"station_id":"ce4bh092rcd13ifvqd20","pricing_plan_id":"free"},{"bike_id":"7d19a255-9f7a-4d0e-beba-2bfebb3c7b5e","system_id":"levelo_inurba_marseille","lat":43.33035,"lon":5.38911,"is_reserved":false,"is_disabled":false,"rental_uris":{"android":"levelo://app?vid=7d19a255-9f7a-4d0e-beba-2bfebb3c7b5e","ios":"levelo://app?vid=7d19a255-9f7a-4d0e-beba-2bfebb3c7b5e"},"vehicle_type_id":"4","last_reported":1692468426,"current_range_meters":23600,"station_id":"ce4bhr92rcd13ifvqhrg","pricing_plan_id":"free"},{"bike_id":"de450cac-4370-4660-9455-3e94463307a2","system_id":"levelo_inurba_marseille","lat":43.33039,"lon":5.38918,"is_reserved":false,"is_disabled":false,"rental_uris":{"android":"levelo://app?vid=de450cac-4370-4660-9455-3e94463307a2","ios":"levelo://app?vid=de450cac-4370-4660-9455-3e94463307a2"},"vehicle_type_id":"4","last_reported":1692468426,"current_range_meters":18800,"station_id":"ce4bhr92rcd13ifvqhrg","pricing_plan_id":"free"},{"bike_id":"86eac789-1e56-496d-abfa-705e29d378c7","system_id":"levelo_inurba_marseille","lat":43.33044,"lon":5.38913,"is_reserved":false,"is_disabled":false,"rental_uris":{"android":"levelo://app?vid=86eac789-1e56-496d-abfa-705e29d378c7","ios":"levelo://app?vid=86eac789-1e56-496d-abfa-705e29d378c7"},"vehicle_type_id":"4","last_reported":1692468426,"current_range_meters":30800,"station_id":"ce4bhr92rcd13ifvqhrg","pricing_plan_id":"free"},{"bike_id":"16105e4d-cb4a-4aae-91bb-2ecd41a7406b","system_id":"levelo_inurba_marseille","lat":43.3304,"lon":5.38922,"is_reserved":false,"is_disabled":false,"rental_uris":{"android":"levelo://app?vid=16105e4d-cb4a-4aae-91bb-2ecd41a7406b","ios":"levelo://app?vid=16105e4d-cb4a-4aae-91bb-2ecd41a7406b"},"vehicle_type_id":"4","last_reported":1692468426,"current_range_meters":23600,"station_id":"ce4bhr92rcd13ifvqhrg","pricing_plan_id":"free"},{"bike_id":"70576a93-fbdb-4696-908e-c08c0f1995f8","system_id":"levelo_inurba_marseille","lat":43.33047,"lon":5.38912,"is_reserved":false,"is_disabled":false,"rental_uris":{"android":"levelo://app?vid=70576a93-fbdb-4696-908e-c08c0f1995f8","ios":"levelo://app?vid=70576a93-fbdb-4696-908e-c08c0f1995f8"},"vehicle_type_id":"4","last_reported":1692468426,"current_range_meters":27200,"station_id":"ce4bhr92rcd13ifvqhrg","pricing_plan_id":"free"},{"bike_id":"5036c72a-6252-47f4-a9fb-50fd514d506a","system_id":"levelo_inurba_marseille","lat":43.33046,"lon":5.38919,"is_reserved":false,"is_disabled":false,"rental_uris":{"android":"levelo://app?vid=5036c72a-6252-47f4-a9fb-50fd514d506a","ios":"levelo://app?vid=5036c72a-6252-47f4-a9fb-50fd514d506a"},"vehicle_type_id":"4","last_reported":1692468426,"current_range_meters":23600,"station_id":"ce4bhr92rcd13ifvqhrg","pricing_plan_id":"free"},{"bike_id":"708f7f21-b221-4c14-94b6-b5d8e3289350","system_id":"levelo_inurba_marseille","lat":43.33048,"lon":5.38919,"is_reserved":false,"is_disabled":false,"rental_uris":{"android":"levelo://app?vid=708f7f21-b221-4c14-94b6-b5d8e3289350","ios":"levelo://app?vid=708f7f21-b221-4c14-94b6-b5d8e3289350"},"vehicle_type_id":"4","last_reported":1692468426,"current_range_meters":22000,"station_id":"ce4bhr92rcd13ifvqhrg","pricing_plan_id":"free"},{"bike_id":"78f1a325-e5b4-4a72-bb0e-b29d3285ba24","system_id":"levelo_inurba_marseille","lat":43.290104,"lon":5.356111,"is_reserved":false,"is_disabled":false,"rental_uris":{"android":"levelo://app?vid=78f1a325-e5b4-4a72-bb0e-b29d3285ba24","ios":"levelo://app?vid=78f1a325-e5b4-4a72-bb0e-b29d3285ba24"},"vehicle_type_id":"4","last_reported":1692468426,"current_range_meters":30400,"station_id":"ce4bhb92rcd13ifvqen0","pricing_plan_id":"free"},{"bike_id":"7adc4717-e588-4ae4-ad1e-d167e0edbf57","system_id":"levelo_inurba_marseille","lat":43.290103,"lon":5.356114,"is_reserved":false,"is_disabled":false,"rental_uris":{"android":"levelo://app?vid=7adc4717-e588-4ae4-ad1e-d167e0edbf57","ios":"levelo://app?vid=7adc4717-e588-4ae4-ad1e-d167e0edbf57"},"vehicle_type_id":"4","last_reported":1692468426,"current_range_meters":20800,"station_id":"ce4bhb92rcd13ifvqen0","pricing_plan_id":"free"},{"bike_id":"d073de46-768a-4215-95bb-05265f5734b8","system_id":"levelo_inurba_marseille","lat":43.290995,"lon":5.381361,"is_reserved":false,"is_disabled":false,"rental_uris":{"android":"levelo://app?vid=d073de46-768a-4215-95bb-05265f5734b8","ios":"levelo://app?vid=d073de46-768a-4215-95bb-05265f5734b8"},"vehicle_type_id":"4","last_reported":1692468426,"current_range_meters":0,"station_id":"ce4bh512rcd13ifvqe2g","pricing_plan_id":"free"},{"bike_id":"0ccf0310-33c0-4a6e-962a-50cdbd685c77","system_id":"levelo_inurba_marseille","lat":43.290995,"lon":5.381361,"is_reserved":false,"is_disabled":false,"rental_uris":{"android":"levelo://app?vid=0ccf0310-33c0-4a6e-962a-50cdbd685c77","ios":"levelo://app?vid=0ccf0310-33c0-4a6e-962a-50cdbd685c77"},"vehicle_type_id":"4","last_reported":1692468426,"current_range_meters":0,"station_id":"ce4bh512rcd13ifvqe2g","pricing_plan_id":"free"},{"bike_id":"9372a56c-1886-4813-9205-1638ea479943","system_id":"levelo_inurba_marseille","lat":43.2901,"lon":5.381269,"is_reserved":false,"is_disabled":false,"rental_uris":{"android":"levelo://app?vid=9372a56c-1886-4813-9205-1638ea479943","ios":"levelo://app?vid=9372a56c-1886-4813-9205-1638ea479943"},"vehicle_type_id":"4","last_reported":1692468426,"current_range_meters":18800,"station_id":"ce4bh4p2rcd13ifvqe1g","pricing_plan_id":"free"},{"bike_id":"ebea3e90-b4a3-4a58-9d43-4dfbd0e962f3","system_id":"levelo_inurba_marseille","lat":43.337457,"lon":5.374633,"is_reserved":false,"is_disabled":false,"rental_uris":{"android":"levelo://app?vid=ebea3e90-b4a3-4a58-9d43-4dfbd0e962f3","ios":"levelo://app?vid=ebea3e90-b4a3-4a58-9d43-4dfbd0e962f3"},"vehicle_type_id":"4","last_reported":1692468426,"current_range_meters":30400,"station_id":"","pricing_plan_id":"free"},{"bike_id":"1f5df658-8225-41fb-884d-ff0093935c6f","system_id":"levelo_inurba_marseille","lat":43.30643,"lon":5.40069,"is_reserved":false,"is_disabled":false,"rental_uris":{"android":"levelo://app?vid=1f5df658-8225-41fb-884d-ff0093935c6f","ios":"levelo://app?vid=1f5df658-8225-41fb-884d-ff0093935c6f"},"vehicle_type_id":"4","last_reported":1692468426,"current_range_meters":20400,"station_id":"ce4bh112rcd13ifvqda0","pricing_plan_id":"free"},{"bike_id":"d3a07fb7-a24e-436b-8abe-0a19c50d59d2","system_id":"levelo_inurba_marseille","lat":43.30642,"lon":5.401031,"is_reserved":false,"is_disabled":false,"rental_uris":{"android":"levelo://app?vid=d3a07fb7-a24e-436b-8abe-0a19c50d59d2","ios":"levelo://app?vid=d3a07fb7-a24e-436b-8abe-0a19c50d59d2"},"vehicle_type_id":"4","last_reported":1692468426,"current_range_meters":12800,"station_id":"ce4bh112rcd13ifvqda0","pricing_plan_id":"free"},{"bike_id":"14a62bd2-1ddc-4a06-9f2c-6499c0bef8d6","system_id":"levelo_inurba_marseille","lat":43.284217,"lon":5.349697,"is_reserved":false,"is_disabled":false,"rental_uris":{"android":"levelo://app?vid=14a62bd2-1ddc-4a06-9f2c-6499c0bef8d6","ios":"levelo://app?vid=14a62bd2-1ddc-4a06-9f2c-6499c0bef8d6"},"vehicle_type_id":"4","last_reported":1692468426,"current_range_meters":1200,"station_id":"ce4bhbh2rcd13ifvqepg","pricing_plan_id":"free"},{"bike_id":"23542ef4-3ab2-45de-b0be-af3f2110fe9d","system_id":"levelo_inurba_marseille","lat":43.286591,"lon":5.363346,"is_reserved":false,"is_disabled":false,"rental_uris":{"android":"levelo://app?vid=23542ef4-3ab2-45de-b0be-af3f2110fe9d","ios":"levelo://app?vid=23542ef4-3ab2-45de-b0be-af3f2110fe9d"},"vehicle_type_id":"4","last_reported":1692468426,"current_range_meters":28800,"station_id":"ce4bhah2rcd13ifvqej0","pricing_plan_id":"free"},{"bike_id":"75199276-b705-4ad7-b6a9-49aeaa84628a","system_id":"levelo_inurba_marseille","lat":43.286591,"lon":5.363346,"is_reserved":false,"is_disabled":false,"rental_uris":{"android":"levelo://app?vid=75199276-b705-4ad7-b6a9-49aeaa84628a","ios":"levelo://app?vid=75199276-b705-4ad7-b6a9-49aeaa84628a"},"vehicle_type_id":"4","last_reported":1692468426,"current_range_meters":31200,"station_id":"ce4bhah2rcd13ifvqej0","pricing_plan_id":"free"},{"bike_id":"81e26691-6426-4c15-8234-3f15c3e1b3a6","system_id":"levelo_inurba_marseille","lat":43.290336,"lon":5.386425,"is_reserved":false,"is_disabled":false,"rental_uris":{"android":"levelo://app?vid=81e26691-6426-4c15-8234-3f15c3e1b3a6","ios":"levelo://app?vid=81e26691-6426-4c15-8234-3f15c3e1b3a6"},"vehicle_type_id":"4","last_reported":1692468426,"current_range_meters":5200,"station_id":"ce4bh4p2rcd13ifvqe0g","pricing_plan_id":"free"},{"bike_id":"576b3907-259c-47d5-be95-55cbc39329c6","system_id":"levelo_inurba_marseille","lat":43.290336,"lon":5.386425,"is_reserved":false,"is_disabled":false,"rental_uris":{"android":"levelo://app?vid=576b3907-259c-47d5-be95-55cbc39329c6","ios":"levelo://app?vid=576b3907-259c-47d5-be95-55cbc39329c6"},"vehicle_type_id":"4","last_reported":1692468426,"current_range_meters":3200,"station_id":"ce4bh4p2rcd13ifvqe0g","pricing_plan_id":"free"},{"bike_id":"8eeefa85-4ea5-4af1-b39a-d6a9f7cef82f","system_id":"levelo_inurba_marseille","lat":43.290336,"lon":5.386425,"is_reserved":false,"is_disabled":false,"rental_uris":{"android":"levelo://app?vid=8eeefa85-4ea5-4af1-b39a-d6a9f7cef82f","ios":"levelo://app?vid=8eeefa85-4ea5-4af1-b39a-d6a9f7cef82f"},"vehicle_type_id":"4","last_reported":1692468426,"current_range_meters":4000,"station_id":"ce4bh4p2rcd13ifvqe0g","pricing_plan_id":"free"},{"bike_id":"dcc85b80-3b68-470e-bcb1-53415e1a3d68","system_id":"levelo_inurba_marseille","lat":43.286039,"lon":5.370679,"is_reserved":false,"is_disabled":false,"rental_uris":{"android":"levelo://app?vid=dcc85b80-3b68-470e-bcb1-53415e1a3d68","ios":"levelo://app?vid=dcc85b80-3b68-470e-bcb1-53415e1a3d68"},"vehicle_type_id":"4","last_reported":1692468426,"current_range_meters":19600,"station_id":"ce4bht12rcd13ifvqi60","pricing_plan_id":"free"},{"bike_id":"f49cbd29-5e90-4f87-9b4c-012f373cf4b3","system_id":"levelo_inurba_marseille","lat":43.286039,"lon":5.370679,"is_reserved":false,"is_disabled":false,"rental_uris":{"android":"levelo://app?vid=f49cbd29-5e90-4f87-9b4c-012f373cf4b3","ios":"levelo://app?vid=f49cbd29-5e90-4f87-9b4c-012f373cf4b3"},"vehicle_type_id":"4","last_reported":1692468426,"current_range_meters":15200,"station_id":"ce4bht12rcd13ifvqi60","pricing_plan_id":"free"},{"bike_id":"47c5c10d-b7c7-4a89-90e5-286791f7c748","system_id":"levelo_inurba_marseille","lat":43.286039,"lon":5.370681,"is_reserved":false,"is_disabled":false,"rental_uris":{"android":"levelo://app?vid=47c5c10d-b7c7-4a89-90e5-286791f7c748","ios":"levelo://app?vid=47c5c10d-b7c7-4a89-90e5-286791f7c748"},"vehicle_type_id":"4","last_reported":1692468426,"current_range_meters":16800,"station_id":"ce4bht12rcd13ifvqi60","pricing_plan_id":"free"},{"bike_id":"71a6768f-1259-4914-b498-2dc0d7a48351","system_id":"levelo_inurba_marseille","lat":43.286039,"lon":5.370679,"is_reserved":false,"is_disabled":false,"rental_uris":{"android":"levelo://app?vid=71a6768f-1259-4914-b498-2dc0d7a48351","ios":"levelo://app?vid=71a6768f-1259-4914-b498-2dc0d7a48351"},"vehicle_type_id":"4","last_reported":1692468426,"current_range_meters":4400,"station_id":"ce4bht12rcd13ifvqi60","pricing_plan_id":"free"},{"bike_id":"f43247d9-99c3-4c47-9469-b6403cd684c7","system_id":"levelo_inurba_marseille","lat":43.286039,"lon":5.370681,"is_reserved":false,"is_disabled":false,"rental_uris":{"android":"levelo://app?vid=f43247d9-99c3-4c47-9469-b6403cd684c7","ios":"levelo://app?vid=f43247d9-99c3-4c47-9469-b6403cd684c7"},"vehicle_type_id":"4","last_reported":1692468426,"current_range_meters":6400,"station_id":"ce4bht12rcd13ifvqi60","pricing_plan_id":"free"},{"bike_id":"b9cb9031-f8df-4858-ae10-ad43ec485a2e","system_id":"levelo_inurba_marseille","lat":43.286039,"lon":5.370681,"is_reserved":false,"is_disabled":false,"rental_uris":{"android":"levelo://app?vid=b9cb9031-f8df-4858-ae10-ad43ec485a2e","ios":"levelo://app?vid=b9cb9031-f8df-4858-ae10-ad43ec485a2e"},"vehicle_type_id":"4","last_reported":1692468426,"current_range_meters":2800,"station_id":"ce4bht12rcd13ifvqi60","pricing_plan_id":"free"},{"bike_id":"bf7848a6-33a9-42fa-9fa8-34b0e4d533b5","system_id":"levelo_inurba_marseille","lat":43.286039,"lon":5.370679,"is_reserved":false,"is_disabled":false,"rental_uris":{"android":"levelo://app?vid=bf7848a6-33a9-42fa-9fa8-34b0e4d533b5","ios":"levelo://app?vid=bf7848a6-33a9-42fa-9fa8-34b0e4d533b5"},"vehicle_type_id":"4","last_reported":1692468426,"current_range_meters":17200,"station_id":"ce4bht12rcd13ifvqi60","pricing_plan_id":"free"},{"bike_id":"d80d5a2f-d3d5-4a30-80d2-1f02beb1b207","system_id":"levelo_inurba_marseille","lat":43.286039,"lon":5.370679,"is_reserved":false,"is_disabled":false,"rental_uris":{"android":"levelo://app?vid=d80d5a2f-d3d5-4a30-80d2-1f02beb1b207","ios":"levelo://app?vid=d80d5a2f-d3d5-4a30-80d2-1f02beb1b207"},"vehicle_type_id":"4","last_reported":1692468426,"current_range_meters":27600,"station_id":"ce4bht12rcd13ifvqi60","pricing_plan_id":"free"},{"bike_id":"7da9e437-1e79-4b5f-9ab0-65254ac17dd7","system_id":"levelo_inurba_marseille","lat":43.31644,"lon":5.40436,"is_reserved":false,"is_disabled":false,"rental_uris":{"android":"levelo://app?vid=7da9e437-1e79-4b5f-9ab0-65254ac17dd7","ios":"levelo://app?vid=7da9e437-1e79-4b5f-9ab0-65254ac17dd7"},"vehicle_type_id":"4","last_reported":1692468426,"current_range_meters":25200,"station_id":"ce4bh012rcd13ifvqd00","pricing_plan_id":"free"},{"bike_id":"b6554d2e-f938-4523-b10e-bd8fbb9f217a","system_id":"levelo_inurba_marseille","lat":43.316493,"lon":5.404369,"is_reserved":false,"is_disabled":false,"rental_uris":{"android":"levelo://app?vid=b6554d2e-f938-4523-b10e-bd8fbb9f217a","ios":"levelo://app?vid=b6554d2e-f938-4523-b10e-bd8fbb9f217a"},"vehicle_type_id":"4","last_reported":1692468426,"current_range_meters":8400,"station_id":"ce4bh012rcd13ifvqd00","pricing_plan_id":"free"},{"bike_id":"b92f07c1-0fef-4767-90d8-c39a04c89c4a","system_id":"levelo_inurba_marseille","lat":43.284538,"lon":5.358657,"is_reserved":false,"is_disabled":false,"rental_uris":{"android":"levelo://app?vid=b92f07c1-0fef-4767-90d8-c39a04c89c4a","ios":"levelo://app?vid=b92f07c1-0fef-4767-90d8-c39a04c89c4a"},"vehicle_type_id":"4","last_reported":1692468426,"current_range_meters":11200,"station_id":"ce4bhah2rcd13ifvqei0","pricing_plan_id":"free"},{"bike_id":"a4f2b763-3978-43fd-8916-39ddd06f4aaa","system_id":"levelo_inurba_marseille","lat":43.284534,"lon":5.358662,"is_reserved":false,"is_disabled":false,"rental_uris":{"android":"levelo://app?vid=a4f2b763-3978-43fd-8916-39ddd06f4aaa","ios":"levelo://app?vid=a4f2b763-3978-43fd-8916-39ddd06f4aaa"},"vehicle_type_id":"4","last_reported":1692468426,"current_range_meters":13200,"station_id":"ce4bhah2rcd13ifvqei0","pricing_plan_id":"free"},{"bike_id":"691e4a3d-6eb3-4e19-842a-8ec983788f1e","system_id":"levelo_inurba_marseille","lat":43.284534,"lon":5.358662,"is_reserved":false,"is_disabled":false,"rental_uris":{"android":"levelo://app?vid=691e4a3d-6eb3-4e19-842a-8ec983788f1e","ios":"levelo://app?vid=691e4a3d-6eb3-4e19-842a-8ec983788f1e"},"vehicle_type_id":"4","last_reported":1692468426,"current_range_meters":26000,"station_id":"ce4bhah2rcd13ifvqei0","pricing_plan_id":"free"},{"bike_id":"35eec3a1-aa54-4990-8eb4-78e6c0dd24d0","system_id":"levelo_inurba_marseille","lat":43.285856,"lon":5.350771,"is_reserved":false,"is_disabled":false,"rental_uris":{"android":"levelo://app?vid=35eec3a1-aa54-4990-8eb4-78e6c0dd24d0","ios":"levelo://app?vid=35eec3a1-aa54-4990-8eb4-78e6c0dd24d0"},"vehicle_type_id":"4","last_reported":1692468426,"current_range_meters":10000,"station_id":"ce4bhch2rcd13ifvqeug","pricing_plan_id":"free"},{"bike_id":"2363d3b5-6c15-401a-a59c-ee80bd4af927","system_id":"levelo_inurba_marseille","lat":43.28415,"lon":5.37522,"is_reserved":false,"is_disabled":false,"rental_uris":{"android":"levelo://app?vid=2363d3b5-6c15-401a-a59c-ee80bd4af927","ios":"levelo://app?vid=2363d3b5-6c15-401a-a59c-ee80bd4af927"},"vehicle_type_id":"4","last_reported":1692468426,"current_range_meters":20000,"station_id":"ce4bh412rcd13ifvqds0","pricing_plan_id":"free"},{"bike_id":"09e01723-7924-49c4-970d-ae44041fa092","system_id":"levelo_inurba_marseille","lat":43.28414,"lon":5.37518,"is_reserved":false,"is_disabled":false,"rental_uris":{"android":"levelo://app?vid=09e01723-7924-49c4-970d-ae44041fa092","ios":"levelo://app?vid=09e01723-7924-49c4-970d-ae44041fa092"},"vehicle_type_id":"4","last_reported":1692468426,"current_range_meters":27200,"station_id":"ce4bh412rcd13ifvqds0","pricing_plan_id":"free"},{"bike_id":"7c2e9a79-5f28-4e1f-944c-4483dd027be6","system_id":"levelo_inurba_marseille","lat":43.2841,"lon":5.37503,"is_reserved":false,"is_disabled":false,"rental_uris":{"android":"levelo://app?vid=7c2e9a79-5f28-4e1f-944c-4483dd027be6","ios":"levelo://app?vid=7c2e9a79-5f28-4e1f-944c-4483dd027be6"},"vehicle_type_id":"4","last_reported":1692468426,"current_range_meters":12400,"station_id":"ce4bh412rcd13ifvqds0","pricing_plan_id":"free"},{"bike_id":"6a76be0d-7013-47ea-84f1-a16996a0497c","system_id":"levelo_inurba_marseille","lat":43.283998,"lon":5.375062,"is_reserved":false,"is_disabled":false,"rental_uris":{"android":"levelo://app?vid=6a76be0d-7013-47ea-84f1-a16996a0497c","ios":"levelo://app?vid=6a76be0d-7013-47ea-84f1-a16996a0497c"},"vehicle_type_id":"4","last_reported":1692468426,"current_range_meters":6000,"station_id":"ce4bh412rcd13ifvqds0","pricing_plan_id":"free"},{"bike_id":"072f21f5-8a12-42a2-9403-f1ba73ad30b5","system_id":"levelo_inurba_marseille","lat":43.295713,"lon":5.399639,"is_reserved":false,"is_disabled":false,"rental_uris":{"android":"levelo://app?vid=072f21f5-8a12-42a2-9403-f1ba73ad30b5","ios":"levelo://app?vid=072f21f5-8a12-42a2-9403-f1ba73ad30b5"},"vehicle_type_id":"4","last_reported":1692468426,"current_range_meters":2400,"station_id":"ce4bh312rcd13ifvqdj0","pricing_plan_id":"free"},{"bike_id":"0eb1d220-e96b-4bf6-a5f0-bc05d86630f0","system_id":"levelo_inurba_marseille","lat":43.295713,"lon":5.399639,"is_reserved":false,"is_disabled":false,"rental_uris":{"android":"levelo://app?vid=0eb1d220-e96b-4bf6-a5f0-bc05d86630f0","ios":"levelo://app?vid=0eb1d220-e96b-4bf6-a5f0-bc05d86630f0"},"vehicle_type_id":"4","last_reported":1692468426,"current_range_meters":24800,"station_id":"ce4bh312rcd13ifvqdj0","pricing_plan_id":"free"},{"bike_id":"42e00a38-d427-4022-8c01-5d740d081d85","system_id":"levelo_inurba_marseille","lat":43.286595,"lon":5.386795,"is_reserved":false,"is_disabled":false,"rental_uris":{"android":"levelo://app?vid=42e00a38-d427-4022-8c01-5d740d081d85","ios":"levelo://app?vid=42e00a38-d427-4022-8c01-5d740d081d85"},"vehicle_type_id":"4","last_reported":1692468426,"current_range_meters":16000,"station_id":"ce4bh492rcd13ifvqdug","pricing_plan_id":"free"},{"bike_id":"b404bba3-0594-4b09-a59c-c70f174cdfc4","system_id":"levelo_inurba_marseille","lat":43.286595,"lon":5.386795,"is_reserved":false,"is_disabled":false,"rental_uris":{"android":"levelo://app?vid=b404bba3-0594-4b09-a59c-c70f174cdfc4","ios":"levelo://app?vid=b404bba3-0594-4b09-a59c-c70f174cdfc4"},"vehicle_type_id":"4","last_reported":1692468426,"current_range_meters":24400,"station_id":"ce4bh492rcd13ifvqdug","pricing_plan_id":"free"},{"bike_id":"f337bf55-911e-44c8-8723-68dc3764538c","system_id":"levelo_inurba_marseille","lat":43.28673,"lon":5.38667,"is_reserved":false,"is_disabled":false,"rental_uris":{"android":"levelo://app?vid=f337bf55-911e-44c8-8723-68dc3764538c","ios":"levelo://app?vid=f337bf55-911e-44c8-8723-68dc3764538c"},"vehicle_type_id":"4","last_reported":1692468426,"current_range_meters":26000,"station_id":"","pricing_plan_id":"free"},{"bike_id":"368b8632-34c9-4bd4-ad9a-1ce2cbb79b27","system_id":"levelo_inurba_marseille","lat":43.295713,"lon":5.399639,"is_reserved":false,"is_disabled":false,"rental_uris":{"android":"levelo://app?vid=368b8632-34c9-4bd4-ad9a-1ce2cbb79b27","ios":"levelo://app?vid=368b8632-34c9-4bd4-ad9a-1ce2cbb79b27"},"vehicle_type_id":"4","last_reported":1692468426,"current_range_meters":20000,"station_id":"ce4bh312rcd13ifvqdj0","pricing_plan_id":"free"},{"bike_id":"e78bd4e4-c14d-4a01-b72e-65351e2b8a18","system_id":"levelo_inurba_marseille","lat":43.3031,"lon":5.40625,"is_reserved":false,"is_disabled":false,"rental_uris":{"android":"levelo://app?vid=e78bd4e4-c14d-4a01-b72e-65351e2b8a18","ios":"levelo://app?vid=e78bd4e4-c14d-4a01-b72e-65351e2b8a18"},"vehicle_type_id":"4","last_reported":1692468426,"current_range_meters":400,"station_id":"","pricing_plan_id":"free"},{"bike_id":"17105054-6fd8-493b-b0be-1ed88688055c","system_id":"levelo_inurba_marseille","lat":43.33712,"lon":5.39179,"is_reserved":false,"is_disabled":false,"rental_uris":{"android":"levelo://app?vid=17105054-6fd8-493b-b0be-1ed88688055c","ios":"levelo://app?vid=17105054-6fd8-493b-b0be-1ed88688055c"},"vehicle_type_id":"4","last_reported":1692468426,"current_range_meters":30000,"station_id":"ce4bhr92rcd13ifvqhsg","pricing_plan_id":"free"},{"bike_id":"12c0f407-4ac2-49d3-b1e8-783bd26a8644","system_id":"levelo_inurba_marseille","lat":43.33715,"lon":5.39186,"is_reserved":false,"is_disabled":false,"rental_uris":{"android":"levelo://app?vid=12c0f407-4ac2-49d3-b1e8-783bd26a8644","ios":"levelo://app?vid=12c0f407-4ac2-49d3-b1e8-783bd26a8644"},"vehicle_type_id":"4","last_reported":1692468426,"current_range_meters":29600,"station_id":"ce4bhr92rcd13ifvqhsg","pricing_plan_id":"free"},{"bike_id":"0dda2562-498f-4f90-abfb-f3c666db2d2e","system_id":"levelo_inurba_marseille","lat":43.33716,"lon":5.39185,"is_reserved":false,"is_disabled":false,"rental_uris":{"android":"levelo://app?vid=0dda2562-498f-4f90-abfb-f3c666db2d2e","ios":"levelo://app?vid=0dda2562-498f-4f90-abfb-f3c666db2d2e"},"vehicle_type_id":"4","last_reported":1692468426,"current_range_meters":24000,"station_id":"ce4bhr92rcd13ifvqhsg","pricing_plan_id":"free"},{"bike_id":"2b3f06e0-8f2d-4133-9563-f19f57fe46e5","system_id":"levelo_inurba_marseille","lat":43.33717,"lon":5.39185,"is_reserved":false,"is_disabled":false,"rental_uris":{"android":"levelo://app?vid=2b3f06e0-8f2d-4133-9563-f19f57fe46e5","ios":"levelo://app?vid=2b3f06e0-8f2d-4133-9563-f19f57fe46e5"},"vehicle_type_id":"4","last_reported":1692468426,"current_range_meters":10400,"station_id":"ce4bhr92rcd13ifvqhsg","pricing_plan_id":"free"},{"bike_id":"72fc020d-a1d4-460a-a3d1-6187a1ea65d2","system_id":"levelo_inurba_marseille","lat":43.33717,"lon":5.39187,"is_reserved":false,"is_disabled":false,"rental_uris":{"android":"levelo://app?vid=72fc020d-a1d4-460a-a3d1-6187a1ea65d2","ios":"levelo://app?vid=72fc020d-a1d4-460a-a3d1-6187a1ea65d2"},"vehicle_type_id":"4","last_reported":1692468426,"current_range_meters":27600,"station_id":"ce4bhr92rcd13ifvqhsg","pricing_plan_id":"free"},{"bike_id":"186ddf38-a5ca-44a9-9dd3-9bfe2a53544b","system_id":"levelo_inurba_marseille","lat":43.33718,"lon":5.3919,"is_reserved":false,"is_disabled":false,"rental_uris":{"android":"levelo://app?vid=186ddf38-a5ca-44a9-9dd3-9bfe2a53544b","ios":"levelo://app?vid=186ddf38-a5ca-44a9-9dd3-9bfe2a53544b"},"vehicle_type_id":"4","last_reported":1692468426,"current_range_meters":29200,"station_id":"ce4bhr92rcd13ifvqhsg","pricing_plan_id":"free"},{"bike_id":"7d2969ab-a065-4a23-b19e-667095d799c9","system_id":"levelo_inurba_marseille","lat":43.33718,"lon":5.3919,"is_reserved":false,"is_disabled":false,"rental_uris":{"android":"levelo://app?vid=7d2969ab-a065-4a23-b19e-667095d799c9","ios":"levelo://app?vid=7d2969ab-a065-4a23-b19e-667095d799c9"},"vehicle_type_id":"4","last_reported":1692468426,"current_range_meters":10800,"station_id":"ce4bhr92rcd13ifvqhsg","pricing_plan_id":"free"},{"bike_id":"02f29c2d-847e-4148-9200-bdb4c19acc46","system_id":"levelo_inurba_marseille","lat":43.33721,"lon":5.39186,"is_reserved":false,"is_disabled":false,"rental_uris":{"android":"levelo://app?vid=02f29c2d-847e-4148-9200-bdb4c19acc46","ios":"levelo://app?vid=02f29c2d-847e-4148-9200-bdb4c19acc46"},"vehicle_type_id":"4","last_reported":1692468426,"current_range_meters":29600,"station_id":"ce4bhr92rcd13ifvqhsg","pricing_plan_id":"free"},{"bike_id":"e45012d8-673a-4bd6-93d3-a427f767a00d","system_id":"levelo_inurba_marseille","lat":43.3372,"lon":5.39189,"is_reserved":false,"is_disabled":false,"rental_uris":{"android":"levelo://app?vid=e45012d8-673a-4bd6-93d3-a427f767a00d","ios":"levelo://app?vid=e45012d8-673a-4bd6-93d3-a427f767a00d"},"vehicle_type_id":"4","last_reported":1692468426,"current_range_meters":28000,"station_id":"ce4bhr92rcd13ifvqhsg","pricing_plan_id":"free"},{"bike_id":"01f563c5-7ac0-4d44-b1b3-0549f3b949f3","system_id":"levelo_inurba_marseille","lat":43.3372,"lon":5.3919,"is_reserved":false,"is_disabled":false,"rental_uris":{"android":"levelo://app?vid=01f563c5-7ac0-4d44-b1b3-0549f3b949f3","ios":"levelo://app?vid=01f563c5-7ac0-4d44-b1b3-0549f3b949f3"},"vehicle_type_id":"4","last_reported":1692468426,"current_range_meters":29600,"station_id":"ce4bhr92rcd13ifvqhsg","pricing_plan_id":"free"},{"bike_id":"c90c94e3-64fa-45e9-9fee-ad8bf120c218","system_id":"levelo_inurba_marseille","lat":43.33717,"lon":5.391857,"is_reserved":false,"is_disabled":false,"rental_uris":{"android":"levelo://app?vid=c90c94e3-64fa-45e9-9fee-ad8bf120c218","ios":"levelo://app?vid=c90c94e3-64fa-45e9-9fee-ad8bf120c218"},"vehicle_type_id":"4","last_reported":1692468426,"current_range_meters":27200,"station_id":"ce4bhr92rcd13ifvqhsg","pricing_plan_id":"free"},{"bike_id":"6ac884cc-b74d-40a5-8e3a-f019457ca89a","system_id":"levelo_inurba_marseille","lat":43.32338,"lon":5.40623,"is_reserved":false,"is_disabled":false,"rental_uris":{"android":"levelo://app?vid=6ac884cc-b74d-40a5-8e3a-f019457ca89a","ios":"levelo://app?vid=6ac884cc-b74d-40a5-8e3a-f019457ca89a"},"vehicle_type_id":"4","last_reported":1692468426,"current_range_meters":30800,"station_id":"ce4bhq92rcd13ifvqhjg","pricing_plan_id":"free"},{"bike_id":"c24cecf2-0503-470c-b3d3-fc37f377f710","system_id":"levelo_inurba_marseille","lat":43.33728,"lon":5.39186,"is_reserved":false,"is_disabled":false,"rental_uris":{"android":"levelo://app?vid=c24cecf2-0503-470c-b3d3-fc37f377f710","ios":"levelo://app?vid=c24cecf2-0503-470c-b3d3-fc37f377f710"},"vehicle_type_id":"4","last_reported":1692468426,"current_range_meters":29600,"station_id":"ce4bhr92rcd13ifvqhsg","pricing_plan_id":"free"},{"bike_id":"c3f1a799-40b8-4098-9115-0b78fcf6eb78","system_id":"levelo_inurba_marseille","lat":43.323464,"lon":5.406297,"is_reserved":false,"is_disabled":false,"rental_uris":{"android":"levelo://app?vid=c3f1a799-40b8-4098-9115-0b78fcf6eb78","ios":"levelo://app?vid=c3f1a799-40b8-4098-9115-0b78fcf6eb78"},"vehicle_type_id":"4","last_reported":1692468426,"current_range_meters":28800,"station_id":"ce4bhq92rcd13ifvqhjg","pricing_plan_id":"free"},{"bike_id":"0cbfb6a8-9b06-4430-8280-ebadac27271d","system_id":"levelo_inurba_marseille","lat":43.323464,"lon":5.406297,"is_reserved":false,"is_disabled":false,"rental_uris":{"android":"levelo://app?vid=0cbfb6a8-9b06-4430-8280-ebadac27271d","ios":"levelo://app?vid=0cbfb6a8-9b06-4430-8280-ebadac27271d"},"vehicle_type_id":"4","last_reported":1692468426,"current_range_meters":28000,"station_id":"ce4bhq92rcd13ifvqhjg","pricing_plan_id":"free"},{"bike_id":"c4778aa1-6bb3-4a19-9d15-970cdafbf7f5","system_id":"levelo_inurba_marseille","lat":43.323464,"lon":5.406297,"is_reserved":false,"is_disabled":false,"rental_uris":{"android":"levelo://app?vid=c4778aa1-6bb3-4a19-9d15-970cdafbf7f5","ios":"levelo://app?vid=c4778aa1-6bb3-4a19-9d15-970cdafbf7f5"},"vehicle_type_id":"4","last_reported":1692468426,"current_range_meters":11600,"station_id":"ce4bhq92rcd13ifvqhjg","pricing_plan_id":"free"},{"bike_id":"8bd09c71-02ae-4371-8b55-ce1e7e2bf2df","system_id":"levelo_inurba_marseille","lat":43.33729,"lon":5.39194,"is_reserved":false,"is_disabled":false,"rental_uris":{"android":"levelo://app?vid=8bd09c71-02ae-4371-8b55-ce1e7e2bf2df","ios":"levelo://app?vid=8bd09c71-02ae-4371-8b55-ce1e7e2bf2df"},"vehicle_type_id":"4","last_reported":1692468426,"current_range_meters":30000,"station_id":"ce4bhr92rcd13ifvqhsg","pricing_plan_id":"free"},{"bike_id":"6fb36002-bc24-427c-a16e-585470e55deb","system_id":"levelo_inurba_marseille","lat":43.32602,"lon":5.40481,"is_reserved":false,"is_disabled":false,"rental_uris":{"android":"levelo://app?vid=6fb36002-bc24-427c-a16e-585470e55deb","ios":"levelo://app?vid=6fb36002-bc24-427c-a16e-585470e55deb"},"vehicle_type_id":"4","last_reported":1692468426,"current_range_meters":20000,"station_id":"","pricing_plan_id":"free"},{"bike_id":"cae06757-f045-490b-a6ba-51e1e9e48bc5","system_id":"levelo_inurba_marseille","lat":43.288501,"lon":5.393087,"is_reserved":false,"is_disabled":false,"rental_uris":{"android":"levelo://app?vid=cae06757-f045-490b-a6ba-51e1e9e48bc5","ios":"levelo://app?vid=cae06757-f045-490b-a6ba-51e1e9e48bc5"},"vehicle_type_id":"4","last_reported":1692468426,"current_range_meters":10800,"station_id":"ce4bh2p2rcd13ifvqdi0","pricing_plan_id":"free"},{"bike_id":"9b74c835-0565-443f-a1a2-11bf637126f5","system_id":"levelo_inurba_marseille","lat":43.284219,"lon":5.3497,"is_reserved":false,"is_disabled":false,"rental_uris":{"android":"levelo://app?vid=9b74c835-0565-443f-a1a2-11bf637126f5","ios":"levelo://app?vid=9b74c835-0565-443f-a1a2-11bf637126f5"},"vehicle_type_id":"4","last_reported":1692468426,"current_range_meters":0,"station_id":"ce4bhbh2rcd13ifvqepg","pricing_plan_id":"free"},{"bike_id":"f50aca5f-cf5b-4020-925f-826a2e34874f","system_id":"levelo_inurba_marseille","lat":43.289363,"lon":5.396322,"is_reserved":false,"is_disabled":false,"rental_uris":{"android":"levelo://app?vid=f50aca5f-cf5b-4020-925f-826a2e34874f","ios":"levelo://app?vid=f50aca5f-cf5b-4020-925f-826a2e34874f"},"vehicle_type_id":"4","last_reported":1692468426,"current_range_meters":29200,"station_id":"ce4bh3h2rcd13ifvqdn0","pricing_plan_id":"free"},{"bike_id":"5cec26ac-344f-432b-af34-450b75305b9b","system_id":"levelo_inurba_marseille","lat":43.292724,"lon":5.401131,"is_reserved":false,"is_disabled":false,"rental_uris":{"android":"levelo://app?vid=5cec26ac-344f-432b-af34-450b75305b9b","ios":"levelo://app?vid=5cec26ac-344f-432b-af34-450b75305b9b"},"vehicle_type_id":"4","last_reported":1692468426,"current_range_meters":30000,"station_id":"ce4bh312rcd13ifvqdk0","pricing_plan_id":"free"},{"bike_id":"88940920-727e-47f8-bee6-24feedff1167","system_id":"levelo_inurba_marseille","lat":43.28276,"lon":5.35067,"is_reserved":false,"is_disabled":false,"rental_uris":{"android":"levelo://app?vid=88940920-727e-47f8-bee6-24feedff1167","ios":"levelo://app?vid=88940920-727e-47f8-bee6-24feedff1167"},"vehicle_type_id":"4","last_reported":1692468426,"current_range_meters":30000,"station_id":"ce4bhbp2rcd13ifvqerg","pricing_plan_id":"free"},{"bike_id":"49e836ce-83ac-4dc6-b9b9-eabc9bf271b4","system_id":"levelo_inurba_marseille","lat":43.282754,"lon":5.350519,"is_reserved":false,"is_disabled":false,"rental_uris":{"android":"levelo://app?vid=49e836ce-83ac-4dc6-b9b9-eabc9bf271b4","ios":"levelo://app?vid=49e836ce-83ac-4dc6-b9b9-eabc9bf271b4"},"vehicle_type_id":"4","last_reported":1692468426,"current_range_meters":18000,"station_id":"ce4bhbp2rcd13ifvqerg","pricing_plan_id":"free"},{"bike_id":"9f46cfde-4f76-4076-bade-5765c2d3d473","system_id":"levelo_inurba_marseille","lat":43.28039,"lon":5.369297,"is_reserved":false,"is_disabled":false,"rental_uris":{"android":"levelo://app?vid=9f46cfde-4f76-4076-bade-5765c2d3d473","ios":"levelo://app?vid=9f46cfde-4f76-4076-bade-5765c2d3d473"},"vehicle_type_id":"4","last_reported":1692468426,"current_range_meters":31200,"station_id":"ce4bha12rcd13ifvqef0","pricing_plan_id":"free"},{"bike_id":"452c9727-d13a-4ebd-a90a-f394fae86e3c","system_id":"levelo_inurba_marseille","lat":43.281044,"lon":5.378308,"is_reserved":false,"is_disabled":false,"rental_uris":{"android":"levelo://app?vid=452c9727-d13a-4ebd-a90a-f394fae86e3c","ios":"levelo://app?vid=452c9727-d13a-4ebd-a90a-f394fae86e3c"},"vehicle_type_id":"4","last_reported":1692468426,"current_range_meters":24800,"station_id":"ce4bha12rcd13ifvqee0","pricing_plan_id":"free"},{"bike_id":"b3a3b712-cdb3-4192-b65b-6126afbb63cc","system_id":"levelo_inurba_marseille","lat":43.28102,"lon":5.3783,"is_reserved":false,"is_disabled":false,"rental_uris":{"android":"levelo://app?vid=b3a3b712-cdb3-4192-b65b-6126afbb63cc","ios":"levelo://app?vid=b3a3b712-cdb3-4192-b65b-6126afbb63cc"},"vehicle_type_id":"4","last_reported":1692468426,"current_range_meters":20400,"station_id":"ce4bha12rcd13ifvqee0","pricing_plan_id":"free"},{"bike_id":"061803ca-097c-483e-b136-d649bb253187","system_id":"levelo_inurba_marseille","lat":43.28102,"lon":5.37833,"is_reserved":false,"is_disabled":false,"rental_uris":{"android":"levelo://app?vid=061803ca-097c-483e-b136-d649bb253187","ios":"levelo://app?vid=061803ca-097c-483e-b136-d649bb253187"},"vehicle_type_id":"4","last_reported":1692468426,"current_range_meters":7600,"station_id":"ce4bha12rcd13ifvqee0","pricing_plan_id":"free"},{"bike_id":"6e0601d6-1fe7-4a35-8a55-593fe9a9d9ab","system_id":"levelo_inurba_marseille","lat":43.284462,"lon":5.392121,"is_reserved":false,"is_disabled":false,"rental_uris":{"android":"levelo://app?vid=6e0601d6-1fe7-4a35-8a55-593fe9a9d9ab","ios":"levelo://app?vid=6e0601d6-1fe7-4a35-8a55-593fe9a9d9ab"},"vehicle_type_id":"4","last_reported":1692468426,"current_range_meters":8400,"station_id":"ce4bhoh2rcd13ifvqh5g","pricing_plan_id":"free"},{"bike_id":"f8ef4f78-badc-40d1-a4a9-077301466e56","system_id":"levelo_inurba_marseille","lat":43.32662,"lon":5.40978,"is_reserved":false,"is_disabled":false,"rental_uris":{"android":"levelo://app?vid=f8ef4f78-badc-40d1-a4a9-077301466e56","ios":"levelo://app?vid=f8ef4f78-badc-40d1-a4a9-077301466e56"},"vehicle_type_id":"4","last_reported":1692468426,"current_range_meters":12000,"station_id":"ce4bhpp2rcd13ifvqhgg","pricing_plan_id":"free"},{"bike_id":"008b3126-eb28-41f8-9fe2-022fcb95467d","system_id":"levelo_inurba_marseille","lat":43.287154,"lon":5.399979,"is_reserved":false,"is_disabled":false,"rental_uris":{"android":"levelo://app?vid=008b3126-eb28-41f8-9fe2-022fcb95467d","ios":"levelo://app?vid=008b3126-eb28-41f8-9fe2-022fcb95467d"},"vehicle_type_id":"4","last_reported":1692468426,"current_range_meters":7200,"station_id":"ce4bho92rcd13ifvqh3g","pricing_plan_id":"free"},{"bike_id":"3eb17d3c-6b3e-4d47-8b8b-711f56f764a6","system_id":"levelo_inurba_marseille","lat":43.299579,"lon":5.413255,"is_reserved":false,"is_disabled":false,"rental_uris":{"android":"levelo://app?vid=3eb17d3c-6b3e-4d47-8b8b-711f56f764a6","ios":"levelo://app?vid=3eb17d3c-6b3e-4d47-8b8b-711f56f764a6"},"vehicle_type_id":"4","last_reported":1692468426,"current_range_meters":31200,"station_id":"ce4bhp12rcd13ifvqh9g","pricing_plan_id":"free"},{"bike_id":"e50afae3-4ae7-4457-9cda-84fcc64ac2e1","system_id":"levelo_inurba_marseille","lat":43.299577,"lon":5.413277,"is_reserved":false,"is_disabled":false,"rental_uris":{"android":"levelo://app?vid=e50afae3-4ae7-4457-9cda-84fcc64ac2e1","ios":"levelo://app?vid=e50afae3-4ae7-4457-9cda-84fcc64ac2e1"},"vehicle_type_id":"4","last_reported":1692468426,"current_range_meters":31200,"station_id":"ce4bhp12rcd13ifvqh9g","pricing_plan_id":"free"},{"bike_id":"c327718a-8fe6-4791-a349-aba0f8f94e82","system_id":"levelo_inurba_marseille","lat":43.279742,"lon":5.38744,"is_reserved":false,"is_disabled":false,"rental_uris":{"android":"levelo://app?vid=c327718a-8fe6-4791-a349-aba0f8f94e82","ios":"levelo://app?vid=c327718a-8fe6-4791-a349-aba0f8f94e82"},"vehicle_type_id":"4","last_reported":1692468426,"current_range_meters":24800,"station_id":"ce4bhg12rcd13ifvqf80","pricing_plan_id":"free"},{"bike_id":"55e6db56-744c-49fd-bfd4-17d7c173c71c","system_id":"levelo_inurba_marseille","lat":43.292569,"lon":5.409107,"is_reserved":false,"is_disabled":false,"rental_uris":{"android":"levelo://app?vid=55e6db56-744c-49fd-bfd4-17d7c173c71c","ios":"levelo://app?vid=55e6db56-744c-49fd-bfd4-17d7c173c71c"},"vehicle_type_id":"4","last_reported":1692468426,"current_range_meters":27200,"station_id":"ce4bh192rcd13ifvqdc0","pricing_plan_id":"free"},{"bike_id":"2050fe4b-29b3-4613-a98c-9cb4d77115a5","system_id":"levelo_inurba_marseille","lat":43.27618,"lon":5.361009,"is_reserved":false,"is_disabled":false,"rental_uris":{"android":"levelo://app?vid=2050fe4b-29b3-4613-a98c-9cb4d77115a5","ios":"levelo://app?vid=2050fe4b-29b3-4613-a98c-9cb4d77115a5"},"vehicle_type_id":"4","last_reported":1692468426,"current_range_meters":17200,"station_id":"ce4bgj92rcd13ifvqbe0","pricing_plan_id":"free"},{"bike_id":"cd7c5f42-2004-4ab3-8787-090052d6da4f","system_id":"levelo_inurba_marseille","lat":43.27624,"lon":5.36105,"is_reserved":false,"is_disabled":false,"rental_uris":{"android":"levelo://app?vid=cd7c5f42-2004-4ab3-8787-090052d6da4f","ios":"levelo://app?vid=cd7c5f42-2004-4ab3-8787-090052d6da4f"},"vehicle_type_id":"4","last_reported":1692468426,"current_range_meters":25200,"station_id":"ce4bgj92rcd13ifvqbe0","pricing_plan_id":"free"},{"bike_id":"4fb4fac5-59f8-484a-b034-e3c33e4190cc","system_id":"levelo_inurba_marseille","lat":43.276179,"lon":5.361009,"is_reserved":false,"is_disabled":false,"rental_uris":{"android":"levelo://app?vid=4fb4fac5-59f8-484a-b034-e3c33e4190cc","ios":"levelo://app?vid=4fb4fac5-59f8-484a-b034-e3c33e4190cc"},"vehicle_type_id":"4","last_reported":1692468426,"current_range_meters":10400,"station_id":"ce4bgj92rcd13ifvqbe0","pricing_plan_id":"free"},{"bike_id":"d53fc0dd-8044-425c-a3aa-73bcc18b7626","system_id":"levelo_inurba_marseille","lat":43.27608,"lon":5.36108,"is_reserved":false,"is_disabled":false,"rental_uris":{"android":"levelo://app?vid=d53fc0dd-8044-425c-a3aa-73bcc18b7626","ios":"levelo://app?vid=d53fc0dd-8044-425c-a3aa-73bcc18b7626"},"vehicle_type_id":"4","last_reported":1692468426,"current_range_meters":15600,"station_id":"ce4bgj92rcd13ifvqbe0","pricing_plan_id":"free"},{"bike_id":"38e97ea2-1b48-4a99-a47c-81332f2cfcc1","system_id":"levelo_inurba_marseille","lat":43.280784,"lon":5.396622,"is_reserved":false,"is_disabled":false,"rental_uris":{"android":"levelo://app?vid=38e97ea2-1b48-4a99-a47c-81332f2cfcc1","ios":"levelo://app?vid=38e97ea2-1b48-4a99-a47c-81332f2cfcc1"},"vehicle_type_id":"4","last_reported":1692468426,"current_range_meters":20400,"station_id":"ce4bho12rcd13ifvqh2g","pricing_plan_id":"free"},{"bike_id":"51ef7580-ecfe-4db9-849c-49cf351934f7","system_id":"levelo_inurba_marseille","lat":43.280784,"lon":5.396622,"is_reserved":false,"is_disabled":false,"rental_uris":{"android":"levelo://app?vid=51ef7580-ecfe-4db9-849c-49cf351934f7","ios":"levelo://app?vid=51ef7580-ecfe-4db9-849c-49cf351934f7"},"vehicle_type_id":"4","last_reported":1692468426,"current_range_meters":5200,"station_id":"ce4bho12rcd13ifvqh2g","pricing_plan_id":"free"},{"bike_id":"9c828e9e-2d96-4caf-9798-ef4cd3abcbc5","system_id":"levelo_inurba_marseille","lat":43.280784,"lon":5.396622,"is_reserved":false,"is_disabled":false,"rental_uris":{"android":"levelo://app?vid=9c828e9e-2d96-4caf-9798-ef4cd3abcbc5","ios":"levelo://app?vid=9c828e9e-2d96-4caf-9798-ef4cd3abcbc5"},"vehicle_type_id":"4","last_reported":1692468426,"current_range_meters":24400,"station_id":"ce4bho12rcd13ifvqh2g","pricing_plan_id":"free"},{"bike_id":"12b1966c-4494-44d8-8ccd-4d734f091553","system_id":"levelo_inurba_marseille","lat":43.278399,"lon":5.392139,"is_reserved":false,"is_disabled":false,"rental_uris":{"android":"levelo://app?vid=12b1966c-4494-44d8-8ccd-4d734f091553","ios":"levelo://app?vid=12b1966c-4494-44d8-8ccd-4d734f091553"},"vehicle_type_id":"4","last_reported":1692468426,"current_range_meters":2800,"station_id":"ce4bhjp2rcd13ifvqga0","pricing_plan_id":"free"},{"bike_id":"a06253ba-ad04-4d62-a083-d6c4871bc757","system_id":"levelo_inurba_marseille","lat":43.27577,"lon":5.3841,"is_reserved":false,"is_disabled":false,"rental_uris":{"android":"levelo://app?vid=a06253ba-ad04-4d62-a083-d6c4871bc757","ios":"levelo://app?vid=a06253ba-ad04-4d62-a083-d6c4871bc757"},"vehicle_type_id":"4","last_reported":1692468426,"current_range_meters":5200,"station_id":"ce4bhh92rcd13ifvqfi0","pricing_plan_id":"free"},{"bike_id":"f2694e37-1f28-411f-a09a-a43708cf8ca7","system_id":"levelo_inurba_marseille","lat":43.273609,"lon":5.362708,"is_reserved":false,"is_disabled":false,"rental_uris":{"android":"levelo://app?vid=f2694e37-1f28-411f-a09a-a43708cf8ca7","ios":"levelo://app?vid=f2694e37-1f28-411f-a09a-a43708cf8ca7"},"vehicle_type_id":"4","last_reported":1692468426,"current_range_meters":17200,"station_id":"ce4bhbh2rcd13ifvqeo0","pricing_plan_id":"free"},{"bike_id":"e620057c-2e78-4a52-92aa-4e8d8788d1e4","system_id":"levelo_inurba_marseille","lat":43.2757,"lon":5.38407,"is_reserved":false,"is_disabled":false,"rental_uris":{"android":"levelo://app?vid=e620057c-2e78-4a52-92aa-4e8d8788d1e4","ios":"levelo://app?vid=e620057c-2e78-4a52-92aa-4e8d8788d1e4"},"vehicle_type_id":"4","last_reported":1692468426,"current_range_meters":14400,"station_id":"","pricing_plan_id":"free"},{"bike_id":"c2001ebd-a0a8-4d89-bb35-5eaab1ca956a","system_id":"levelo_inurba_marseille","lat":43.33612,"lon":5.410321,"is_reserved":false,"is_disabled":false,"rental_uris":{"android":"levelo://app?vid=c2001ebd-a0a8-4d89-bb35-5eaab1ca956a","ios":"levelo://app?vid=c2001ebd-a0a8-4d89-bb35-5eaab1ca956a"},"vehicle_type_id":"4","last_reported":1692468426,"current_range_meters":20800,"station_id":"ce4bhqh2rcd13ifvqhmg","pricing_plan_id":"free"},{"bike_id":"a11be1c0-229c-4ada-8453-8dde86b6b2eb","system_id":"levelo_inurba_marseille","lat":43.273613,"lon":5.362705,"is_reserved":false,"is_disabled":false,"rental_uris":{"android":"levelo://app?vid=a11be1c0-229c-4ada-8453-8dde86b6b2eb","ios":"levelo://app?vid=a11be1c0-229c-4ada-8453-8dde86b6b2eb"},"vehicle_type_id":"4","last_reported":1692468426,"current_range_meters":22400,"station_id":"ce4bhbh2rcd13ifvqeo0","pricing_plan_id":"free"},{"bike_id":"2e13917c-775c-4b46-8015-09d93dabdaa4","system_id":"levelo_inurba_marseille","lat":43.273613,"lon":5.362705,"is_reserved":false,"is_disabled":false,"rental_uris":{"android":"levelo://app?vid=2e13917c-775c-4b46-8015-09d93dabdaa4","ios":"levelo://app?vid=2e13917c-775c-4b46-8015-09d93dabdaa4"},"vehicle_type_id":"4","last_reported":1692468426,"current_range_meters":0,"station_id":"ce4bhbh2rcd13ifvqeo0","pricing_plan_id":"free"},{"bike_id":"f50f75aa-8448-477a-bd60-2dcdc331f87f","system_id":"levelo_inurba_marseille","lat":43.273613,"lon":5.362705,"is_reserved":false,"is_disabled":false,"rental_uris":{"android":"levelo://app?vid=f50f75aa-8448-477a-bd60-2dcdc331f87f","ios":"levelo://app?vid=f50f75aa-8448-477a-bd60-2dcdc331f87f"},"vehicle_type_id":"4","last_reported":1692468426,"current_range_meters":25200,"station_id":"ce4bhbh2rcd13ifvqeo0","pricing_plan_id":"free"},{"bike_id":"51c8a96b-26e2-4ff3-af5d-19cffe98cdc9","system_id":"levelo_inurba_marseille","lat":43.273613,"lon":5.362705,"is_reserved":false,"is_disabled":false,"rental_uris":{"android":"levelo://app?vid=51c8a96b-26e2-4ff3-af5d-19cffe98cdc9","ios":"levelo://app?vid=51c8a96b-26e2-4ff3-af5d-19cffe98cdc9"},"vehicle_type_id":"4","last_reported":1692468426,"current_range_meters":5600,"station_id":"ce4bhbh2rcd13ifvqeo0","pricing_plan_id":"free"},{"bike_id":"75ddc40e-04c2-4f38-a159-40f86909416b","system_id":"levelo_inurba_marseille","lat":43.273609,"lon":5.362708,"is_reserved":false,"is_disabled":false,"rental_uris":{"android":"levelo://app?vid=75ddc40e-04c2-4f38-a159-40f86909416b","ios":"levelo://app?vid=75ddc40e-04c2-4f38-a159-40f86909416b"},"vehicle_type_id":"4","last_reported":1692468426,"current_range_meters":16400,"station_id":"ce4bhbh2rcd13ifvqeo0","pricing_plan_id":"free"},{"bike_id":"4797f764-4f72-416f-8ae0-654aadf203cc","system_id":"levelo_inurba_marseille","lat":43.273609,"lon":5.362708,"is_reserved":false,"is_disabled":false,"rental_uris":{"android":"levelo://app?vid=4797f764-4f72-416f-8ae0-654aadf203cc","ios":"levelo://app?vid=4797f764-4f72-416f-8ae0-654aadf203cc"},"vehicle_type_id":"4","last_reported":1692468426,"current_range_meters":1600,"station_id":"ce4bhbh2rcd13ifvqeo0","pricing_plan_id":"free"},{"bike_id":"d6620396-0ab4-4985-b992-3de310fa29f2","system_id":"levelo_inurba_marseille","lat":43.273613,"lon":5.362705,"is_reserved":false,"is_disabled":false,"rental_uris":{"android":"levelo://app?vid=d6620396-0ab4-4985-b992-3de310fa29f2","ios":"levelo://app?vid=d6620396-0ab4-4985-b992-3de310fa29f2"},"vehicle_type_id":"4","last_reported":1692468426,"current_range_meters":25200,"station_id":"ce4bhbh2rcd13ifvqeo0","pricing_plan_id":"free"},{"bike_id":"dc46aa67-3a52-4c4a-b857-34c42c1e2ac1","system_id":"levelo_inurba_marseille","lat":43.273613,"lon":5.362705,"is_reserved":false,"is_disabled":false,"rental_uris":{"android":"levelo://app?vid=dc46aa67-3a52-4c4a-b857-34c42c1e2ac1","ios":"levelo://app?vid=dc46aa67-3a52-4c4a-b857-34c42c1e2ac1"},"vehicle_type_id":"4","last_reported":1692468426,"current_range_meters":29200,"station_id":"ce4bhbh2rcd13ifvqeo0","pricing_plan_id":"free"},{"bike_id":"c6f30ceb-8c9e-4b24-9186-bc7d13602ebc","system_id":"levelo_inurba_marseille","lat":43.273613,"lon":5.362705,"is_reserved":false,"is_disabled":false,"rental_uris":{"android":"levelo://app?vid=c6f30ceb-8c9e-4b24-9186-bc7d13602ebc","ios":"levelo://app?vid=c6f30ceb-8c9e-4b24-9186-bc7d13602ebc"},"vehicle_type_id":"4","last_reported":1692468426,"current_range_meters":2000,"station_id":"ce4bhbh2rcd13ifvqeo0","pricing_plan_id":"free"},{"bike_id":"d627b618-18a5-43e4-bee3-6920339817cd","system_id":"levelo_inurba_marseille","lat":43.273609,"lon":5.362708,"is_reserved":false,"is_disabled":false,"rental_uris":{"android":"levelo://app?vid=d627b618-18a5-43e4-bee3-6920339817cd","ios":"levelo://app?vid=d627b618-18a5-43e4-bee3-6920339817cd"},"vehicle_type_id":"4","last_reported":1692468426,"current_range_meters":15600,"station_id":"ce4bhbh2rcd13ifvqeo0","pricing_plan_id":"free"},{"bike_id":"e1ee8714-81ca-482d-8101-b3f065ce72dd","system_id":"levelo_inurba_marseille","lat":43.275625,"lon":5.384392,"is_reserved":false,"is_disabled":false,"rental_uris":{"android":"levelo://app?vid=e1ee8714-81ca-482d-8101-b3f065ce72dd","ios":"levelo://app?vid=e1ee8714-81ca-482d-8101-b3f065ce72dd"},"vehicle_type_id":"4","last_reported":1692468426,"current_range_meters":30800,"station_id":"ce4bhh92rcd13ifvqfi0","pricing_plan_id":"free"},{"bike_id":"b908ef7e-10c8-4f56-b372-f5b786688b91","system_id":"levelo_inurba_marseille","lat":43.33612,"lon":5.410321,"is_reserved":false,"is_disabled":false,"rental_uris":{"android":"levelo://app?vid=b908ef7e-10c8-4f56-b372-f5b786688b91","ios":"levelo://app?vid=b908ef7e-10c8-4f56-b372-f5b786688b91"},"vehicle_type_id":"4","last_reported":1692468426,"current_range_meters":31200,"station_id":"ce4bhqh2rcd13ifvqhmg","pricing_plan_id":"free"},{"bike_id":"04b14a8d-06f8-4481-95b4-f45eaf197344","system_id":"levelo_inurba_marseille","lat":43.273609,"lon":5.362708,"is_reserved":false,"is_disabled":false,"rental_uris":{"android":"levelo://app?vid=04b14a8d-06f8-4481-95b4-f45eaf197344","ios":"levelo://app?vid=04b14a8d-06f8-4481-95b4-f45eaf197344"},"vehicle_type_id":"4","last_reported":1692468426,"current_range_meters":8800,"station_id":"ce4bhbh2rcd13ifvqeo0","pricing_plan_id":"free"},{"bike_id":"34ba7999-da6c-4997-89f5-cb7228dab368","system_id":"levelo_inurba_marseille","lat":43.273613,"lon":5.362705,"is_reserved":false,"is_disabled":false,"rental_uris":{"android":"levelo://app?vid=34ba7999-da6c-4997-89f5-cb7228dab368","ios":"levelo://app?vid=34ba7999-da6c-4997-89f5-cb7228dab368"},"vehicle_type_id":"4","last_reported":1692468426,"current_range_meters":0,"station_id":"ce4bhbh2rcd13ifvqeo0","pricing_plan_id":"free"},{"bike_id":"0fef9fab-1a96-4961-9d16-f4cfcd87aa9c","system_id":"levelo_inurba_marseille","lat":43.33612,"lon":5.410321,"is_reserved":false,"is_disabled":false,"rental_uris":{"android":"levelo://app?vid=0fef9fab-1a96-4961-9d16-f4cfcd87aa9c","ios":"levelo://app?vid=0fef9fab-1a96-4961-9d16-f4cfcd87aa9c"},"vehicle_type_id":"4","last_reported":1692468426,"current_range_meters":26000,"station_id":"ce4bhqh2rcd13ifvqhmg","pricing_plan_id":"free"},{"bike_id":"535808f8-b44c-47a9-995d-ef84c38faa2e","system_id":"levelo_inurba_marseille","lat":43.273609,"lon":5.362708,"is_reserved":false,"is_disabled":false,"rental_uris":{"android":"levelo://app?vid=535808f8-b44c-47a9-995d-ef84c38faa2e","ios":"levelo://app?vid=535808f8-b44c-47a9-995d-ef84c38faa2e"},"vehicle_type_id":"4","last_reported":1692468426,"current_range_meters":24800,"station_id":"ce4bhbh2rcd13ifvqeo0","pricing_plan_id":"free"},{"bike_id":"193a8ac4-c4e6-4a08-a2c8-b2aa77390336","system_id":"levelo_inurba_marseille","lat":43.275625,"lon":5.384392,"is_reserved":false,"is_disabled":false,"rental_uris":{"android":"levelo://app?vid=193a8ac4-c4e6-4a08-a2c8-b2aa77390336","ios":"levelo://app?vid=193a8ac4-c4e6-4a08-a2c8-b2aa77390336"},"vehicle_type_id":"4","last_reported":1692468426,"current_range_meters":11600,"station_id":"ce4bhh92rcd13ifvqfi0","pricing_plan_id":"free"},{"bike_id":"fc13f153-b9e1-4649-b6b8-d5a48920c307","system_id":"levelo_inurba_marseille","lat":43.273609,"lon":5.362708,"is_reserved":false,"is_disabled":false,"rental_uris":{"android":"levelo://app?vid=fc13f153-b9e1-4649-b6b8-d5a48920c307","ios":"levelo://app?vid=fc13f153-b9e1-4649-b6b8-d5a48920c307"},"vehicle_type_id":"4","last_reported":1692468426,"current_range_meters":25200,"station_id":"ce4bhbh2rcd13ifvqeo0","pricing_plan_id":"free"},{"bike_id":"2e573e61-37c1-4cc3-8cce-e59d491852bc","system_id":"levelo_inurba_marseille","lat":43.33608,"lon":5.41017,"is_reserved":false,"is_disabled":false,"rental_uris":{"android":"levelo://app?vid=2e573e61-37c1-4cc3-8cce-e59d491852bc","ios":"levelo://app?vid=2e573e61-37c1-4cc3-8cce-e59d491852bc"},"vehicle_type_id":"4","last_reported":1692468426,"current_range_meters":20400,"station_id":"ce4bhqh2rcd13ifvqhmg","pricing_plan_id":"free"},{"bike_id":"33c65d5c-5c22-4390-94e0-6942dbc893e7","system_id":"levelo_inurba_marseille","lat":43.336134,"lon":5.410341,"is_reserved":false,"is_disabled":false,"rental_uris":{"android":"levelo://app?vid=33c65d5c-5c22-4390-94e0-6942dbc893e7","ios":"levelo://app?vid=33c65d5c-5c22-4390-94e0-6942dbc893e7"},"vehicle_type_id":"4","last_reported":1692468426,"current_range_meters":31200,"station_id":"ce4bhqh2rcd13ifvqhmg","pricing_plan_id":"free"},{"bike_id":"63995ae3-bdf4-4d8e-a2a2-f64fac7c3609","system_id":"levelo_inurba_marseille","lat":43.33612,"lon":5.410321,"is_reserved":false,"is_disabled":false,"rental_uris":{"android":"levelo://app?vid=63995ae3-bdf4-4d8e-a2a2-f64fac7c3609","ios":"levelo://app?vid=63995ae3-bdf4-4d8e-a2a2-f64fac7c3609"},"vehicle_type_id":"4","last_reported":1692468426,"current_range_meters":5600,"station_id":"ce4bhqh2rcd13ifvqhmg","pricing_plan_id":"free"},{"bike_id":"bd3a304b-215d-4ae7-a376-5d3ee91c4d0a","system_id":"levelo_inurba_marseille","lat":43.336134,"lon":5.410341,"is_reserved":false,"is_disabled":false,"rental_uris":{"android":"levelo://app?vid=bd3a304b-215d-4ae7-a376-5d3ee91c4d0a","ios":"levelo://app?vid=bd3a304b-215d-4ae7-a376-5d3ee91c4d0a"},"vehicle_type_id":"4","last_reported":1692468426,"current_range_meters":31200,"station_id":"ce4bhqh2rcd13ifvqhmg","pricing_plan_id":"free"},{"bike_id":"29cf6756-d313-421d-b23f-f3c44f48116e","system_id":"levelo_inurba_marseille","lat":43.33612,"lon":5.410321,"is_reserved":false,"is_disabled":false,"rental_uris":{"android":"levelo://app?vid=29cf6756-d313-421d-b23f-f3c44f48116e","ios":"levelo://app?vid=29cf6756-d313-421d-b23f-f3c44f48116e"},"vehicle_type_id":"4","last_reported":1692468426,"current_range_meters":12800,"station_id":"ce4bhqh2rcd13ifvqhmg","pricing_plan_id":"free"},{"bike_id":"ec541ad8-4721-4f6c-89cb-7d4ae3d542dc","system_id":"levelo_inurba_marseille","lat":43.33614,"lon":5.41031,"is_reserved":false,"is_disabled":false,"rental_uris":{"android":"levelo://app?vid=ec541ad8-4721-4f6c-89cb-7d4ae3d542dc","ios":"levelo://app?vid=ec541ad8-4721-4f6c-89cb-7d4ae3d542dc"},"vehicle_type_id":"4","last_reported":1692468426,"current_range_meters":20400,"station_id":"ce4bhqh2rcd13ifvqhmg","pricing_plan_id":"free"},{"bike_id":"1f72d686-bc40-4d4f-b1c1-68a1ecb59074","system_id":"levelo_inurba_marseille","lat":43.336134,"lon":5.410341,"is_reserved":false,"is_disabled":false,"rental_uris":{"android":"levelo://app?vid=1f72d686-bc40-4d4f-b1c1-68a1ecb59074","ios":"levelo://app?vid=1f72d686-bc40-4d4f-b1c1-68a1ecb59074"},"vehicle_type_id":"4","last_reported":1692468426,"current_range_meters":18800,"station_id":"ce4bhqh2rcd13ifvqhmg","pricing_plan_id":"free"},{"bike_id":"9e5b0a24-ee43-4475-bec8-39c2adb8d8a2","system_id":"levelo_inurba_marseille","lat":43.27675,"lon":5.38866,"is_reserved":false,"is_disabled":false,"rental_uris":{"android":"levelo://app?vid=9e5b0a24-ee43-4475-bec8-39c2adb8d8a2","ios":"levelo://app?vid=9e5b0a24-ee43-4475-bec8-39c2adb8d8a2"},"vehicle_type_id":"4","last_reported":1692468426,"current_range_meters":0,"station_id":"ce4bhi12rcd13ifvqfo0","pricing_plan_id":"free"},{"bike_id":"2c002134-e4d2-41d1-b436-28e8e2ea24ca","system_id":"levelo_inurba_marseille","lat":43.27671,"lon":5.38911,"is_reserved":false,"is_disabled":false,"rental_uris":{"android":"levelo://app?vid=2c002134-e4d2-41d1-b436-28e8e2ea24ca","ios":"levelo://app?vid=2c002134-e4d2-41d1-b436-28e8e2ea24ca"},"vehicle_type_id":"4","last_reported":1692468426,"current_range_meters":29200,"station_id":"ce4bhi12rcd13ifvqfo0","pricing_plan_id":"free"},{"bike_id":"fe40035a-c8f4-449e-b173-d4c8af7f7970","system_id":"levelo_inurba_marseille","lat":43.317121,"lon":5.423936,"is_reserved":false,"is_disabled":false,"rental_uris":{"android":"levelo://app?vid=fe40035a-c8f4-449e-b173-d4c8af7f7970","ios":"levelo://app?vid=fe40035a-c8f4-449e-b173-d4c8af7f7970"},"vehicle_type_id":"4","last_reported":1692468426,"current_range_meters":30000,"station_id":"ce4bhp92rcd13ifvqhbg","pricing_plan_id":"free"},{"bike_id":"9efa1e9b-79c9-440a-b8b9-1506ca12e70d","system_id":"levelo_inurba_marseille","lat":43.340804,"lon":5.410219,"is_reserved":false,"is_disabled":false,"rental_uris":{"android":"levelo://app?vid=9efa1e9b-79c9-440a-b8b9-1506ca12e70d","ios":"levelo://app?vid=9efa1e9b-79c9-440a-b8b9-1506ca12e70d"},"vehicle_type_id":"4","last_reported":1692468426,"current_range_meters":12400,"station_id":"ce4bhqh2rcd13ifvqhlg","pricing_plan_id":"free"},{"bike_id":"f6720607-2fb4-4392-bb17-9844e15dd71b","system_id":"levelo_inurba_marseille","lat":43.34143,"lon":5.40898,"is_reserved":false,"is_disabled":false,"rental_uris":{"android":"levelo://app?vid=f6720607-2fb4-4392-bb17-9844e15dd71b","ios":"levelo://app?vid=f6720607-2fb4-4392-bb17-9844e15dd71b"},"vehicle_type_id":"4","last_reported":1692468426,"current_range_meters":18800,"station_id":"ce4bhqh2rcd13ifvqhlg","pricing_plan_id":"free"},{"bike_id":"aac77d8c-95b8-46b0-a750-37640337b386","system_id":"levelo_inurba_marseille","lat":43.34143,"lon":5.409,"is_reserved":false,"is_disabled":false,"rental_uris":{"android":"levelo://app?vid=aac77d8c-95b8-46b0-a750-37640337b386","ios":"levelo://app?vid=aac77d8c-95b8-46b0-a750-37640337b386"},"vehicle_type_id":"4","last_reported":1692468426,"current_range_meters":30800,"station_id":"ce4bhqh2rcd13ifvqhlg","pricing_plan_id":"free"},{"bike_id":"319a3f57-15e0-4282-be77-7fd5fa21e073","system_id":"levelo_inurba_marseille","lat":43.34143,"lon":5.40902,"is_reserved":false,"is_disabled":false,"rental_uris":{"android":"levelo://app?vid=319a3f57-15e0-4282-be77-7fd5fa21e073","ios":"levelo://app?vid=319a3f57-15e0-4282-be77-7fd5fa21e073"},"vehicle_type_id":"4","last_reported":1692468426,"current_range_meters":14400,"station_id":"ce4bhqh2rcd13ifvqhlg","pricing_plan_id":"free"},{"bike_id":"4c064826-2e1c-48ad-8a97-d2b37ed5dbde","system_id":"levelo_inurba_marseille","lat":43.34143,"lon":5.40905,"is_reserved":false,"is_disabled":false,"rental_uris":{"android":"levelo://app?vid=4c064826-2e1c-48ad-8a97-d2b37ed5dbde","ios":"levelo://app?vid=4c064826-2e1c-48ad-8a97-d2b37ed5dbde"},"vehicle_type_id":"4","last_reported":1692468426,"current_range_meters":18400,"station_id":"ce4bhqh2rcd13ifvqhlg","pricing_plan_id":"free"},{"bike_id":"83d15515-e803-4385-8191-b0e90955240d","system_id":"levelo_inurba_marseille","lat":43.341443,"lon":5.409037,"is_reserved":false,"is_disabled":false,"rental_uris":{"android":"levelo://app?vid=83d15515-e803-4385-8191-b0e90955240d","ios":"levelo://app?vid=83d15515-e803-4385-8191-b0e90955240d"},"vehicle_type_id":"4","last_reported":1692468426,"current_range_meters":26400,"station_id":"ce4bhqh2rcd13ifvqhlg","pricing_plan_id":"free"},{"bike_id":"2ddd90e7-349a-4b85-8df6-298a58c64c73","system_id":"levelo_inurba_marseille","lat":43.35099,"lon":5.34136,"is_reserved":false,"is_disabled":false,"rental_uris":{"android":"levelo://app?vid=2ddd90e7-349a-4b85-8df6-298a58c64c73","ios":"levelo://app?vid=2ddd90e7-349a-4b85-8df6-298a58c64c73"},"vehicle_type_id":"4","last_reported":1692468426,"current_range_meters":4400,"station_id":"","pricing_plan_id":"free"},{"bike_id":"5f3e3bfc-85ed-4d8c-8b92-e1a6257584a3","system_id":"levelo_inurba_marseille","lat":43.35101,"lon":5.34134,"is_reserved":false,"is_disabled":false,"rental_uris":{"android":"levelo://app?vid=5f3e3bfc-85ed-4d8c-8b92-e1a6257584a3","ios":"levelo://app?vid=5f3e3bfc-85ed-4d8c-8b92-e1a6257584a3"},"vehicle_type_id":"4","last_reported":1692468426,"current_range_meters":22400,"station_id":"","pricing_plan_id":"free"},{"bike_id":"e7e281b1-8c2b-4d0d-acfd-c8f5a043fb46","system_id":"levelo_inurba_marseille","lat":43.29556,"lon":5.42284,"is_reserved":false,"is_disabled":false,"rental_uris":{"android":"levelo://app?vid=e7e281b1-8c2b-4d0d-acfd-c8f5a043fb46","ios":"levelo://app?vid=e7e281b1-8c2b-4d0d-acfd-c8f5a043fb46"},"vehicle_type_id":"4","last_reported":1692468426,"current_range_meters":27200,"station_id":"ce4bhph2rcd13ifvqhdg","pricing_plan_id":"free"},{"bike_id":"adf255f9-759d-4d67-b9ac-71c772d77347","system_id":"levelo_inurba_marseille","lat":43.295523,"lon":5.422926,"is_reserved":false,"is_disabled":false,"rental_uris":{"android":"levelo://app?vid=adf255f9-759d-4d67-b9ac-71c772d77347","ios":"levelo://app?vid=adf255f9-759d-4d67-b9ac-71c772d77347"},"vehicle_type_id":"4","last_reported":1692468426,"current_range_meters":30000,"station_id":"ce4bhph2rcd13ifvqhdg","pricing_plan_id":"free"},{"bike_id":"47aef0fe-a1c8-42c3-80e1-a688d2b8de15","system_id":"levelo_inurba_marseille","lat":43.29558,"lon":5.42294,"is_reserved":false,"is_disabled":false,"rental_uris":{"android":"levelo://app?vid=47aef0fe-a1c8-42c3-80e1-a688d2b8de15","ios":"levelo://app?vid=47aef0fe-a1c8-42c3-80e1-a688d2b8de15"},"vehicle_type_id":"4","last_reported":1692468426,"current_range_meters":14000,"station_id":"ce4bhph2rcd13ifvqhdg","pricing_plan_id":"free"},{"bike_id":"b3db2a2b-e8f4-4c38-8f86-36789dfe7f9e","system_id":"levelo_inurba_marseille","lat":43.29548,"lon":5.42289,"is_reserved":false,"is_disabled":false,"rental_uris":{"android":"levelo://app?vid=b3db2a2b-e8f4-4c38-8f86-36789dfe7f9e","ios":"levelo://app?vid=b3db2a2b-e8f4-4c38-8f86-36789dfe7f9e"},"vehicle_type_id":"4","last_reported":1692468426,"current_range_meters":17600,"station_id":"ce4bhph2rcd13ifvqhdg","pricing_plan_id":"free"},{"bike_id":"ac43af9d-cb66-489b-9d41-7c4782ae8524","system_id":"levelo_inurba_marseille","lat":43.295511,"lon":5.422926,"is_reserved":false,"is_disabled":false,"rental_uris":{"android":"levelo://app?vid=ac43af9d-cb66-489b-9d41-7c4782ae8524","ios":"levelo://app?vid=ac43af9d-cb66-489b-9d41-7c4782ae8524"},"vehicle_type_id":"4","last_reported":1692468426,"current_range_meters":19200,"station_id":"ce4bhph2rcd13ifvqhdg","pricing_plan_id":"free"},{"bike_id":"e6323ded-ca8d-48c2-8b1a-cf31b974dbd2","system_id":"levelo_inurba_marseille","lat":43.295511,"lon":5.422926,"is_reserved":false,"is_disabled":false,"rental_uris":{"android":"levelo://app?vid=e6323ded-ca8d-48c2-8b1a-cf31b974dbd2","ios":"levelo://app?vid=e6323ded-ca8d-48c2-8b1a-cf31b974dbd2"},"vehicle_type_id":"4","last_reported":1692468426,"current_range_meters":18400,"station_id":"ce4bhph2rcd13ifvqhdg","pricing_plan_id":"free"},{"bike_id":"b7279e29-8204-4bc7-8e93-c8e53aed4759","system_id":"levelo_inurba_marseille","lat":43.272124,"lon":5.391768,"is_reserved":false,"is_disabled":false,"rental_uris":{"android":"levelo://app?vid=b7279e29-8204-4bc7-8e93-c8e53aed4759","ios":"levelo://app?vid=b7279e29-8204-4bc7-8e93-c8e53aed4759"},"vehicle_type_id":"4","last_reported":1692468426,"current_range_meters":11600,"station_id":"ce4bhhp2rcd13ifvqfm0","pricing_plan_id":"free"},{"bike_id":"86bd444d-8387-4441-947b-edcbabbd7cf2","system_id":"levelo_inurba_marseille","lat":43.272124,"lon":5.391768,"is_reserved":false,"is_disabled":false,"rental_uris":{"android":"levelo://app?vid=86bd444d-8387-4441-947b-edcbabbd7cf2","ios":"levelo://app?vid=86bd444d-8387-4441-947b-edcbabbd7cf2"},"vehicle_type_id":"4","last_reported":1692468426,"current_range_meters":23200,"station_id":"ce4bhhp2rcd13ifvqfm0","pricing_plan_id":"free"},{"bike_id":"c7c0153d-65a4-4201-83fe-8c5edbe3a65f","system_id":"levelo_inurba_marseille","lat":43.272118,"lon":5.391758,"is_reserved":false,"is_disabled":false,"rental_uris":{"android":"levelo://app?vid=c7c0153d-65a4-4201-83fe-8c5edbe3a65f","ios":"levelo://app?vid=c7c0153d-65a4-4201-83fe-8c5edbe3a65f"},"vehicle_type_id":"4","last_reported":1692468426,"current_range_meters":4800,"station_id":"ce4bhhp2rcd13ifvqfm0","pricing_plan_id":"free"},{"bike_id":"31302e61-b070-440a-8001-5ba65328d42e","system_id":"levelo_inurba_marseille","lat":43.27205,"lon":5.39186,"is_reserved":false,"is_disabled":false,"rental_uris":{"android":"levelo://app?vid=31302e61-b070-440a-8001-5ba65328d42e","ios":"levelo://app?vid=31302e61-b070-440a-8001-5ba65328d42e"},"vehicle_type_id":"4","last_reported":1692468426,"current_range_meters":30400,"station_id":"ce4bhhp2rcd13ifvqfm0","pricing_plan_id":"free"},{"bike_id":"10a9b678-f738-43f5-b4d4-6437428398ff","system_id":"levelo_inurba_marseille","lat":43.272124,"lon":5.391768,"is_reserved":false,"is_disabled":false,"rental_uris":{"android":"levelo://app?vid=10a9b678-f738-43f5-b4d4-6437428398ff","ios":"levelo://app?vid=10a9b678-f738-43f5-b4d4-6437428398ff"},"vehicle_type_id":"4","last_reported":1692468426,"current_range_meters":6000,"station_id":"ce4bhhp2rcd13ifvqfm0","pricing_plan_id":"free"},{"bike_id":"2699016f-1cf5-4605-86b5-b0cf67e31cf7","system_id":"levelo_inurba_marseille","lat":43.27816,"lon":5.40723,"is_reserved":false,"is_disabled":false,"rental_uris":{"android":"levelo://app?vid=2699016f-1cf5-4605-86b5-b0cf67e31cf7","ios":"levelo://app?vid=2699016f-1cf5-4605-86b5-b0cf67e31cf7"},