{"last_updated":1777046226,"ttl":60,"version":"2.2","data":{"bikes":[{"bike_id":"97aa55f3-b395-4ffc-9a9e-35d6914463e4","system_id":"levelo_inurba_marseille","lat":43.311567,"lon":5.396131,"is_reserved":false,"is_disabled":false,"rental_uris":{"android":"levelo://app?vid=97aa55f3-b395-4ffc-9a9e-35d6914463e4","ios":"levelo://app?vid=97aa55f3-b395-4ffc-9a9e-35d6914463e4"},"vehicle_type_id":"4","last_reported":1777046227,"current_range_meters":0,"station_id":"","pricing_plan_id":"cebpf4jnsgd1na2vs0mg"},{"bike_id":"7db8e5f3-3982-4808-8fb4-746a2f23f4b1","system_id":"levelo_inurba_marseille","lat":43.29342,"lon":5.4389,"is_reserved":false,"is_disabled":false,"rental_uris":{"android":"levelo://app?vid=7db8e5f3-3982-4808-8fb4-746a2f23f4b1","ios":"levelo://app?vid=7db8e5f3-3982-4808-8fb4-746a2f23f4b1"},"vehicle_type_id":"4","last_reported":1777046227,"current_range_meters":2800,"station_id":"","pricing_plan_id":"cebpf4jnsgd1na2vs0mg"},{"bike_id":"5b2791f6-c23c-46b9-8785-0f44f65b9ead","system_id":"levelo_inurba_marseille","lat":43.25083,"lon":5.39498,"is_reserved":false,"is_disabled":false,"rental_uris":{"android":"levelo://app?vid=5b2791f6-c23c-46b9-8785-0f44f65b9ead","ios":"levelo://app?vid=5b2791f6-c23c-46b9-8785-0f44f65b9ead"},"vehicle_type_id":"4","last_reported":1777046227,"current_range_meters":2800,"station_id":"ce4bhm12rcd13ifvqgkg","pricing_plan_id":"cebpf4jnsgd1na2vs0mg"},{"bike_id":"b867ae37-2fc5-4c43-92c2-d9ee24c8ff41","system_id":"levelo_inurba_marseille","lat":43.24998,"lon":5.41753,"is_reserved":false,"is_disabled":false,"rental_uris":{"android":"levelo://app?vid=b867ae37-2fc5-4c43-92c2-d9ee24c8ff41","ios":"levelo://app?vid=b867ae37-2fc5-4c43-92c2-d9ee24c8ff41"},"vehicle_type_id":"4","last_reported":1777046227,"current_range_meters":2800,"station_id":"","pricing_plan_id":"cebpf4jnsgd1na2vs0mg"},{"bike_id":"1cf32047-2060-4229-b2c4-31df8047813e","system_id":"levelo_inurba_marseille","lat":43.27357,"lon":5.36234,"is_reserved":false,"is_disabled":false,"rental_uris":{"android":"levelo://app?vid=1cf32047-2060-4229-b2c4-31df8047813e","ios":"levelo://app?vid=1cf32047-2060-4229-b2c4-31df8047813e"},"vehicle_type_id":"4","last_reported":1777046227,"current_range_meters":2800,"station_id":"ce4bhbh2rcd13ifvqeo0","pricing_plan_id":"cebpf4jnsgd1na2vs0mg"},{"bike_id":"0923929c-d272-4fa1-a3d9-8f4c7a6f830d","system_id":"levelo_inurba_marseille","lat":43.30839,"lon":5.38192,"is_reserved":false,"is_disabled":false,"rental_uris":{"android":"levelo://app?vid=0923929c-d272-4fa1-a3d9-8f4c7a6f830d","ios":"levelo://app?vid=0923929c-d272-4fa1-a3d9-8f4c7a6f830d"},"vehicle_type_id":"4","last_reported":1777046227,"current_range_meters":2800,"station_id":"","pricing_plan_id":"cebpf4jnsgd1na2vs0mg"},{"bike_id":"9d86c1b8-41eb-469f-bd6c-76d12adc94a7","system_id":"levelo_inurba_marseille","lat":43.30147,"lon":5.38081,"is_reserved":false,"is_disabled":false,"rental_uris":{"android":"levelo://app?vid=9d86c1b8-41eb-469f-bd6c-76d12adc94a7","ios":"levelo://app?vid=9d86c1b8-41eb-469f-bd6c-76d12adc94a7"},"vehicle_type_id":"4","last_reported":1777046227,"current_range_meters":2800,"station_id":"ce4bgjp2rcd13ifvqbh0","pricing_plan_id":"cebpf4jnsgd1na2vs0mg"},{"bike_id":"db3d1b39-33e0-45e0-97aa-f76e3e37baf6","system_id":"levelo_inurba_marseille","lat":43.29295,"lon":5.37451,"is_reserved":false,"is_disabled":false,"rental_uris":{"android":"levelo://app?vid=db3d1b39-33e0-45e0-97aa-f76e3e37baf6","ios":"levelo://app?vid=db3d1b39-33e0-45e0-97aa-f76e3e37baf6"},"vehicle_type_id":"4","last_reported":1777046227,"current_range_meters":2800,"station_id":"ce4bgi12rcd13ifvqb70","pricing_plan_id":"cebpf4jnsgd1na2vs0mg"},{"bike_id":"fe37e5d3-f409-45d9-aa80-ca79326a04dc","system_id":"levelo_inurba_marseille","lat":43.26205,"lon":5.37445,"is_reserved":false,"is_disabled":false,"rental_uris":{"android":"levelo://app?vid=fe37e5d3-f409-45d9-aa80-ca79326a04dc","ios":"levelo://app?vid=fe37e5d3-f409-45d9-aa80-ca79326a04dc"},"vehicle_type_id":"4","last_reported":1777046227,"current_range_meters":2800,"station_id":"ce4bhgp2rcd13ifvqfc0","pricing_plan_id":"cebpf4jnsgd1na2vs0mg"},{"bike_id":"e3534073-42db-454d-a4a8-d93563919af2","system_id":"levelo_inurba_marseille","lat":43.25815,"lon":5.38926,"is_reserved":false,"is_disabled":false,"rental_uris":{"android":"levelo://app?vid=e3534073-42db-454d-a4a8-d93563919af2","ios":"levelo://app?vid=e3534073-42db-454d-a4a8-d93563919af2"},"vehicle_type_id":"4","last_reported":1777046227,"current_range_meters":2800,"station_id":"","pricing_plan_id":"cebpf4jnsgd1na2vs0mg"},{"bike_id":"52440925-4dc9-4541-b921-537a371e7532","system_id":"levelo_inurba_marseille","lat":43.29802,"lon":5.38087,"is_reserved":false,"is_disabled":false,"rental_uris":{"android":"levelo://app?vid=52440925-4dc9-4541-b921-537a371e7532","ios":"levelo://app?vid=52440925-4dc9-4541-b921-537a371e7532"},"vehicle_type_id":"4","last_reported":1777046227,"current_range_meters":2800,"station_id":"ce4bgip2rcd13ifvqbb0","pricing_plan_id":"cebpf4jnsgd1na2vs0mg"},{"bike_id":"44f1911c-3b3a-4385-877c-0ce6c994907f","system_id":"levelo_inurba_marseille","lat":43.25578,"lon":5.38226,"is_reserved":false,"is_disabled":false,"rental_uris":{"android":"levelo://app?vid=44f1911c-3b3a-4385-877c-0ce6c994907f","ios":"levelo://app?vid=44f1911c-3b3a-4385-877c-0ce6c994907f"},"vehicle_type_id":"4","last_reported":1777046227,"current_range_meters":2800,"station_id":"ce4bhih2rcd13ifvqfs0","pricing_plan_id":"cebpf4jnsgd1na2vs0mg"},{"bike_id":"e43061ee-55a4-42c2-8e31-cd57b67f7f41","system_id":"levelo_inurba_marseille","lat":43.30569,"lon":5.39344,"is_reserved":false,"is_disabled":false,"rental_uris":{"android":"levelo://app?vid=e43061ee-55a4-42c2-8e31-cd57b67f7f41","ios":"levelo://app?vid=e43061ee-55a4-42c2-8e31-cd57b67f7f41"},"vehicle_type_id":"4","last_reported":1777046227,"current_range_meters":2800,"station_id":"ce4bh0p2rcd13ifvqd80","pricing_plan_id":"cebpf4jnsgd1na2vs0mg"},{"bike_id":"c366be47-591a-4881-84b3-6ecaca0c6af3","system_id":"levelo_inurba_marseille","lat":43.330238,"lon":5.390502,"is_reserved":false,"is_disabled":false,"rental_uris":{"android":"levelo://app?vid=c366be47-591a-4881-84b3-6ecaca0c6af3","ios":"levelo://app?vid=c366be47-591a-4881-84b3-6ecaca0c6af3"},"vehicle_type_id":"4","last_reported":1777046227,"current_range_meters":2800,"station_id":"","pricing_plan_id":"cebpf4jnsgd1na2vs0mg"},{"bike_id":"b26f2ffb-cc91-4d94-9a33-1b3fba4985cc","system_id":"levelo_inurba_marseille","lat":43.26566,"lon":5.40328,"is_reserved":false,"is_disabled":false,"rental_uris":{"android":"levelo://app?vid=b26f2ffb-cc91-4d94-9a33-1b3fba4985cc","ios":"levelo://app?vid=b26f2ffb-cc91-4d94-9a33-1b3fba4985cc"},"vehicle_type_id":"4","last_reported":1777046227,"current_range_meters":2800,"station_id":"ce4bhmp2rcd13ifvqgng","pricing_plan_id":"cebpf4jnsgd1na2vs0mg"},{"bike_id":"7e726f3f-feee-40f4-90de-d0a0aef3a526","system_id":"levelo_inurba_marseille","lat":43.27085,"lon":5.42328,"is_reserved":false,"is_disabled":false,"rental_uris":{"android":"levelo://app?vid=7e726f3f-feee-40f4-90de-d0a0aef3a526","ios":"levelo://app?vid=7e726f3f-feee-40f4-90de-d0a0aef3a526"},"vehicle_type_id":"4","last_reported":1777046227,"current_range_meters":3200,"station_id":"ce4bhk92rcd13ifvqgb0","pricing_plan_id":"cebpf4jnsgd1na2vs0mg"},{"bike_id":"44986ee7-8f5b-4aa8-b165-d9c4187cfb80","system_id":"levelo_inurba_marseille","lat":43.3054,"lon":5.36551,"is_reserved":false,"is_disabled":false,"rental_uris":{"android":"levelo://app?vid=44986ee7-8f5b-4aa8-b165-d9c4187cfb80","ios":"levelo://app?vid=44986ee7-8f5b-4aa8-b165-d9c4187cfb80"},"vehicle_type_id":"4","last_reported":1777046227,"current_range_meters":3200,"station_id":"ce4bgs12rcd13ifvqcag","pricing_plan_id":"cebpf4jnsgd1na2vs0mg"},{"bike_id":"dc3d93ea-ae84-4a55-9dbf-fa49417dc298","system_id":"levelo_inurba_marseille","lat":43.25734,"lon":5.38647,"is_reserved":false,"is_disabled":false,"rental_uris":{"android":"levelo://app?vid=dc3d93ea-ae84-4a55-9dbf-fa49417dc298","ios":"levelo://app?vid=dc3d93ea-ae84-4a55-9dbf-fa49417dc298"},"vehicle_type_id":"4","last_reported":1777046227,"current_range_meters":3200,"station_id":"","pricing_plan_id":"cebpf4jnsgd1na2vs0mg"},{"bike_id":"37f070e6-d097-4a42-b456-b85a8857f9d4","system_id":"levelo_inurba_marseille","lat":43.26206,"lon":5.37446,"is_reserved":false,"is_disabled":false,"rental_uris":{"android":"levelo://app?vid=37f070e6-d097-4a42-b456-b85a8857f9d4","ios":"levelo://app?vid=37f070e6-d097-4a42-b456-b85a8857f9d4"},"vehicle_type_id":"4","last_reported":1777046227,"current_range_meters":3200,"station_id":"ce4bhgp2rcd13ifvqfc0","pricing_plan_id":"cebpf4jnsgd1na2vs0mg"},{"bike_id":"5b4c1bfa-a4bb-4dae-b02e-c6365b8a2a96","system_id":"levelo_inurba_marseille","lat":43.28677,"lon":5.46677,"is_reserved":false,"is_disabled":false,"rental_uris":{"android":"levelo://app?vid=5b4c1bfa-a4bb-4dae-b02e-c6365b8a2a96","ios":"levelo://app?vid=5b4c1bfa-a4bb-4dae-b02e-c6365b8a2a96"},"vehicle_type_id":"4","last_reported":1777046227,"current_range_meters":3200,"station_id":"st_d6tc3vkotcvc738tfjhg","pricing_plan_id":"cebpf4jnsgd1na2vs0mg"},{"bike_id":"9c3677d0-627f-49f8-bd9c-64ba96ef4fce","system_id":"levelo_inurba_marseille","lat":43.28475,"lon":5.4841,"is_reserved":false,"is_disabled":false,"rental_uris":{"android":"levelo://app?vid=9c3677d0-627f-49f8-bd9c-64ba96ef4fce","ios":"levelo://app?vid=9c3677d0-627f-49f8-bd9c-64ba96ef4fce"},"vehicle_type_id":"4","last_reported":1777046227,"current_range_meters":3200,"station_id":"","pricing_plan_id":"cebpf4jnsgd1na2vs0mg"},{"bike_id":"a43eb040-a8ff-4879-aa81-9a75b854ba61","system_id":"levelo_inurba_marseille","lat":43.30576,"lon":5.39349,"is_reserved":false,"is_disabled":false,"rental_uris":{"android":"levelo://app?vid=a43eb040-a8ff-4879-aa81-9a75b854ba61","ios":"levelo://app?vid=a43eb040-a8ff-4879-aa81-9a75b854ba61"},"vehicle_type_id":"4","last_reported":1777046227,"current_range_meters":3200,"station_id":"ce4bh0p2rcd13ifvqd80","pricing_plan_id":"cebpf4jnsgd1na2vs0mg"},{"bike_id":"49189dff-1bcb-4112-9e98-b66336019bf5","system_id":"levelo_inurba_marseille","lat":43.29574,"lon":5.37518,"is_reserved":false,"is_disabled":false,"rental_uris":{"android":"levelo://app?vid=49189dff-1bcb-4112-9e98-b66336019bf5","ios":"levelo://app?vid=49189dff-1bcb-4112-9e98-b66336019bf5"},"vehicle_type_id":"4","last_reported":1777046227,"current_range_meters":3200,"station_id":"ce4bgh92rcd13ifvqb50","pricing_plan_id":"cebpf4jnsgd1na2vs0mg"},{"bike_id":"8f975cf4-69f4-4fd4-8c34-d7df8df21514","system_id":"levelo_inurba_marseille","lat":43.33772,"lon":5.37466,"is_reserved":false,"is_disabled":false,"rental_uris":{"android":"levelo://app?vid=8f975cf4-69f4-4fd4-8c34-d7df8df21514","ios":"levelo://app?vid=8f975cf4-69f4-4fd4-8c34-d7df8df21514"},"vehicle_type_id":"4","last_reported":1777046227,"current_range_meters":3600,"station_id":"st_d46cu089ee8s73dldbu0","pricing_plan_id":"cebpf4jnsgd1na2vs0mg"},{"bike_id":"fab422c3-3e71-460a-9231-398cabf4cd0f","system_id":"levelo_inurba_marseille","lat":43.2319,"lon":5.35575,"is_reserved":false,"is_disabled":true,"rental_uris":{"android":"levelo://app?vid=fab422c3-3e71-460a-9231-398cabf4cd0f","ios":"levelo://app?vid=fab422c3-3e71-460a-9231-398cabf4cd0f"},"vehicle_type_id":"4","last_reported":1777046227,"current_range_meters":3600,"station_id":"ce4bhu92rcd13ifvqi70","pricing_plan_id":"cebpf4jnsgd1na2vs0mg"},{"bike_id":"a767dc6e-2f51-4d71-9e29-f318a1beff69","system_id":"levelo_inurba_marseille","lat":43.29996,"lon":5.36526,"is_reserved":false,"is_disabled":false,"rental_uris":{"android":"levelo://app?vid=a767dc6e-2f51-4d71-9e29-f318a1beff69","ios":"levelo://app?vid=a767dc6e-2f51-4d71-9e29-f318a1beff69"},"vehicle_type_id":"4","last_reported":1777046227,"current_range_meters":3600,"station_id":"","pricing_plan_id":"cebpf4jnsgd1na2vs0mg"},{"bike_id":"8358a014-6c4c-41de-a142-33a652c432e1","system_id":"levelo_inurba_marseille","lat":43.312,"lon":5.38715,"is_reserved":false,"is_disabled":false,"rental_uris":{"android":"levelo://app?vid=8358a014-6c4c-41de-a142-33a652c432e1","ios":"levelo://app?vid=8358a014-6c4c-41de-a142-33a652c432e1"},"vehicle_type_id":"4","last_reported":1777046227,"current_range_meters":3600,"station_id":"ce4bgv12rcd13ifvqcp0","pricing_plan_id":"cebpf4jnsgd1na2vs0mg"},{"bike_id":"b22c54a8-6f52-4d30-b0aa-2adf92bf81cb","system_id":"levelo_inurba_marseille","lat":43.24181,"lon":5.39721,"is_reserved":false,"is_disabled":false,"rental_uris":{"android":"levelo://app?vid=b22c54a8-6f52-4d30-b0aa-2adf92bf81cb","ios":"levelo://app?vid=b22c54a8-6f52-4d30-b0aa-2adf92bf81cb"},"vehicle_type_id":"4","last_reported":1777046227,"current_range_meters":3600,"station_id":"ce4bhn12rcd13ifvqgpg","pricing_plan_id":"cebpf4jnsgd1na2vs0mg"},{"bike_id":"a9122612-d863-41f6-bd93-569ee6671569","system_id":"levelo_inurba_marseille","lat":43.21208,"lon":5.35056,"is_reserved":false,"is_disabled":false,"rental_uris":{"android":"levelo://app?vid=a9122612-d863-41f6-bd93-569ee6671569","ios":"levelo://app?vid=a9122612-d863-41f6-bd93-569ee6671569"},"vehicle_type_id":"4","last_reported":1777046227,"current_range_meters":3600,"station_id":"st_cvj6sg6p6f1abm77japg","pricing_plan_id":"cebpf4jnsgd1na2vs0mg"},{"bike_id":"19e32c0e-e8bf-4b0f-9e6e-6e2e3ecd5a8b","system_id":"levelo_inurba_marseille","lat":43.29527,"lon":5.39039,"is_reserved":false,"is_disabled":false,"rental_uris":{"android":"levelo://app?vid=19e32c0e-e8bf-4b0f-9e6e-6e2e3ecd5a8b","ios":"levelo://app?vid=19e32c0e-e8bf-4b0f-9e6e-6e2e3ecd5a8b"},"vehicle_type_id":"4","last_reported":1777046227,"current_range_meters":3600,"station_id":"ce4bh3p2rcd13ifvqdp0","pricing_plan_id":"cebpf4jnsgd1na2vs0mg"},{"bike_id":"77bae04d-b155-4a06-9049-fda6a4b9e974","system_id":"levelo_inurba_marseille","lat":43.29147,"lon":5.42616,"is_reserved":false,"is_disabled":false,"rental_uris":{"android":"levelo://app?vid=77bae04d-b155-4a06-9049-fda6a4b9e974","ios":"levelo://app?vid=77bae04d-b155-4a06-9049-fda6a4b9e974"},"vehicle_type_id":"4","last_reported":1777046227,"current_range_meters":4000,"station_id":"","pricing_plan_id":"cebpf4jnsgd1na2vs0mg"},{"bike_id":"b09d603f-3c57-4eb3-a940-1af478a16ac6","system_id":"levelo_inurba_marseille","lat":43.24666,"lon":5.38171,"is_reserved":false,"is_disabled":false,"rental_uris":{"android":"levelo://app?vid=b09d603f-3c57-4eb3-a940-1af478a16ac6","ios":"levelo://app?vid=b09d603f-3c57-4eb3-a940-1af478a16ac6"},"vehicle_type_id":"4","last_reported":1777046227,"current_range_meters":4000,"station_id":"ce4bhih2rcd13ifvqfr0","pricing_plan_id":"cebpf4jnsgd1na2vs0mg"},{"bike_id":"aabfddd0-845f-4bd9-923f-a387c8ae0c90","system_id":"levelo_inurba_marseille","lat":43.28206,"lon":5.39058,"is_reserved":false,"is_disabled":false,"rental_uris":{"android":"levelo://app?vid=aabfddd0-845f-4bd9-923f-a387c8ae0c90","ios":"levelo://app?vid=aabfddd0-845f-4bd9-923f-a387c8ae0c90"},"vehicle_type_id":"4","last_reported":1777046227,"current_range_meters":4000,"station_id":"ce4bhn92rcd13ifvqgsg","pricing_plan_id":"cebpf4jnsgd1na2vs0mg"},{"bike_id":"ce727fd2-b946-4cf2-a57b-1cb72f2fdca5","system_id":"levelo_inurba_marseille","lat":43.29985,"lon":5.41346,"is_reserved":false,"is_disabled":false,"rental_uris":{"android":"levelo://app?vid=ce727fd2-b946-4cf2-a57b-1cb72f2fdca5","ios":"levelo://app?vid=ce727fd2-b946-4cf2-a57b-1cb72f2fdca5"},"vehicle_type_id":"4","last_reported":1777046227,"current_range_meters":4000,"station_id":"ce4bhp12rcd13ifvqh9g","pricing_plan_id":"cebpf4jnsgd1na2vs0mg"},{"bike_id":"4bdba7f8-5bc3-4053-ac17-038e734767dd","system_id":"levelo_inurba_marseille","lat":43.323583,"lon":5.36734,"is_reserved":false,"is_disabled":false,"rental_uris":{"android":"levelo://app?vid=4bdba7f8-5bc3-4053-ac17-038e734767dd","ios":"levelo://app?vid=4bdba7f8-5bc3-4053-ac17-038e734767dd"},"vehicle_type_id":"4","last_reported":1777046227,"current_range_meters":4000,"station_id":"ce4bhsh2rcd13ifvqi2g","pricing_plan_id":"cebpf4jnsgd1na2vs0mg"},{"bike_id":"36f8212c-34c3-4ad4-9d69-b2628b26e73b","system_id":"levelo_inurba_marseille","lat":43.3088,"lon":5.38913,"is_reserved":false,"is_disabled":false,"rental_uris":{"android":"levelo://app?vid=36f8212c-34c3-4ad4-9d69-b2628b26e73b","ios":"levelo://app?vid=36f8212c-34c3-4ad4-9d69-b2628b26e73b"},"vehicle_type_id":"4","last_reported":1777046227,"current_range_meters":4000,"station_id":"ce4bgup2rcd13ifvqco0","pricing_plan_id":"cebpf4jnsgd1na2vs0mg"},{"bike_id":"7f7fc20c-7dd9-4544-8240-f27a3d75f927","system_id":"levelo_inurba_marseille","lat":43.276195,"lon":5.361041,"is_reserved":false,"is_disabled":false,"rental_uris":{"android":"levelo://app?vid=7f7fc20c-7dd9-4544-8240-f27a3d75f927","ios":"levelo://app?vid=7f7fc20c-7dd9-4544-8240-f27a3d75f927"},"vehicle_type_id":"4","last_reported":1777046227,"current_range_meters":4000,"station_id":"ce4bgj92rcd13ifvqbe0","pricing_plan_id":"cebpf4jnsgd1na2vs0mg"},{"bike_id":"0ccb9bd9-5564-41ae-8c3a-1edde6e9d529","system_id":"levelo_inurba_marseille","lat":43.26199,"lon":5.37482,"is_reserved":false,"is_disabled":false,"rental_uris":{"android":"levelo://app?vid=0ccb9bd9-5564-41ae-8c3a-1edde6e9d529","ios":"levelo://app?vid=0ccb9bd9-5564-41ae-8c3a-1edde6e9d529"},"vehicle_type_id":"4","last_reported":1777046227,"current_range_meters":4400,"station_id":"ce4bhgp2rcd13ifvqfc0","pricing_plan_id":"cebpf4jnsgd1na2vs0mg"},{"bike_id":"ea4c253a-545e-43f5-897b-709c5c07436d","system_id":"levelo_inurba_marseille","lat":43.25496,"lon":5.37651,"is_reserved":false,"is_disabled":false,"rental_uris":{"android":"levelo://app?vid=ea4c253a-545e-43f5-897b-709c5c07436d","ios":"levelo://app?vid=ea4c253a-545e-43f5-897b-709c5c07436d"},"vehicle_type_id":"4","last_reported":1777046227,"current_range_meters":4400,"station_id":"ce4bhh12rcd13ifvqff0","pricing_plan_id":"cebpf4jnsgd1na2vs0mg"},{"bike_id":"e955befa-7f03-4ca8-983b-12a59736b946","system_id":"levelo_inurba_marseille","lat":43.30966,"lon":5.39061,"is_reserved":false,"is_disabled":false,"rental_uris":{"android":"levelo://app?vid=e955befa-7f03-4ca8-983b-12a59736b946","ios":"levelo://app?vid=e955befa-7f03-4ca8-983b-12a59736b946"},"vehicle_type_id":"4","last_reported":1777046227,"current_range_meters":4800,"station_id":"ce4bgup2rcd13ifvqco0","pricing_plan_id":"cebpf4jnsgd1na2vs0mg"},{"bike_id":"b93e34ae-d836-4d69-8cc7-02ea41d8b0f5","system_id":"levelo_inurba_marseille","lat":43.23951,"lon":5.36639,"is_reserved":false,"is_disabled":false,"rental_uris":{"android":"levelo://app?vid=b93e34ae-d836-4d69-8cc7-02ea41d8b0f5","ios":"levelo://app?vid=b93e34ae-d836-4d69-8cc7-02ea41d8b0f5"},"vehicle_type_id":"4","last_reported":1777046227,"current_range_meters":4800,"station_id":"ce4bhi12rcd13ifvqfp0","pricing_plan_id":"cebpf4jnsgd1na2vs0mg"},{"bike_id":"6180becc-b7c0-4d8a-a9da-46c1cf2430b3","system_id":"levelo_inurba_marseille","lat":43.29241,"lon":5.36067,"is_reserved":false,"is_disabled":false,"rental_uris":{"android":"levelo://app?vid=6180becc-b7c0-4d8a-a9da-46c1cf2430b3","ios":"levelo://app?vid=6180becc-b7c0-4d8a-a9da-46c1cf2430b3"},"vehicle_type_id":"4","last_reported":1777046227,"current_range_meters":4800,"station_id":"ce4bhbh2rcd13ifvqeqg","pricing_plan_id":"cebpf4jnsgd1na2vs0mg"},{"bike_id":"1ce56adc-b9c1-4d4d-8dd5-259fcb9eb7d9","system_id":"levelo_inurba_marseille","lat":43.21747,"lon":5.34599,"is_reserved":false,"is_disabled":false,"rental_uris":{"android":"levelo://app?vid=1ce56adc-b9c1-4d4d-8dd5-259fcb9eb7d9","ios":"levelo://app?vid=1ce56adc-b9c1-4d4d-8dd5-259fcb9eb7d9"},"vehicle_type_id":"4","last_reported":1777046227,"current_range_meters":4800,"station_id":"st_cvj6r9ubvosntc0bgbag","pricing_plan_id":"cebpf4jnsgd1na2vs0mg"},{"bike_id":"1c92a70d-ec6e-44ba-9e7b-0de8ac3f1caa","system_id":"levelo_inurba_marseille","lat":43.29786,"lon":5.39345,"is_reserved":false,"is_disabled":false,"rental_uris":{"android":"levelo://app?vid=1c92a70d-ec6e-44ba-9e7b-0de8ac3f1caa","ios":"levelo://app?vid=1c92a70d-ec6e-44ba-9e7b-0de8ac3f1caa"},"vehicle_type_id":"4","last_reported":1777046227,"current_range_meters":4800,"station_id":"chh1huq6cuj3fo74tm60","pricing_plan_id":"cebpf4jnsgd1na2vs0mg"},{"bike_id":"ce0ed6b8-5de7-4236-afe5-ed2c62129036","system_id":"levelo_inurba_marseille","lat":43.30958,"lon":5.39049,"is_reserved":false,"is_disabled":false,"rental_uris":{"android":"levelo://app?vid=ce0ed6b8-5de7-4236-afe5-ed2c62129036","ios":"levelo://app?vid=ce0ed6b8-5de7-4236-afe5-ed2c62129036"},"vehicle_type_id":"4","last_reported":1777046227,"current_range_meters":4800,"station_id":"ce4bgup2rcd13ifvqco0","pricing_plan_id":"cebpf4jnsgd1na2vs0mg"},{"bike_id":"a8ae9667-a55c-4554-8067-e9e9b6297bd9","system_id":"levelo_inurba_marseille","lat":43.29606,"lon":5.38111,"is_reserved":false,"is_disabled":false,"rental_uris":{"android":"levelo://app?vid=a8ae9667-a55c-4554-8067-e9e9b6297bd9","ios":"levelo://app?vid=a8ae9667-a55c-4554-8067-e9e9b6297bd9"},"vehicle_type_id":"4","last_reported":1777046227,"current_range_meters":4800,"station_id":"ce4bgl12rcd13ifvqbo0","pricing_plan_id":"cebpf4jnsgd1na2vs0mg"},{"bike_id":"6a85b9e9-0ab5-418a-b800-028cfa175f8b","system_id":"levelo_inurba_marseille","lat":43.26795,"lon":5.39418,"is_reserved":false,"is_disabled":false,"rental_uris":{"android":"levelo://app?vid=6a85b9e9-0ab5-418a-b800-028cfa175f8b","ios":"levelo://app?vid=6a85b9e9-0ab5-418a-b800-028cfa175f8b"},"vehicle_type_id":"4","last_reported":1777046227,"current_range_meters":4800,"station_id":"ce4bhh12rcd13ifvqfg0","pricing_plan_id":"cebpf4jnsgd1na2vs0mg"},{"bike_id":"9446b899-260d-4af0-9598-dea679dd5e66","system_id":"levelo_inurba_marseille","lat":43.30191,"lon":5.36615,"is_reserved":false,"is_disabled":false,"rental_uris":{"android":"levelo://app?vid=9446b899-260d-4af0-9598-dea679dd5e66","ios":"levelo://app?vid=9446b899-260d-4af0-9598-dea679dd5e66"},"vehicle_type_id":"4","last_reported":1777046227,"current_range_meters":4800,"station_id":"ce4bgrh2rcd13ifvqc8g","pricing_plan_id":"cebpf4jnsgd1na2vs0mg"},{"bike_id":"317213aa-694d-4877-9dcc-586bcc282c8c","system_id":"levelo_inurba_marseille","lat":43.28685,"lon":5.46664,"is_reserved":false,"is_disabled":false,"rental_uris":{"android":"levelo://app?vid=317213aa-694d-4877-9dcc-586bcc282c8c","ios":"levelo://app?vid=317213aa-694d-4877-9dcc-586bcc282c8c"},"vehicle_type_id":"4","last_reported":1777046227,"current_range_meters":4800,"station_id":"st_d6tc3vkotcvc738tfjhg","pricing_plan_id":"cebpf4jnsgd1na2vs0mg"},{"bike_id":"0df8499b-d3be-4b72-80a5-914d90a1426e","system_id":"levelo_inurba_marseille","lat":43.31203,"lon":5.36891,"is_reserved":false,"is_disabled":false,"rental_uris":{"android":"levelo://app?vid=0df8499b-d3be-4b72-80a5-914d90a1426e","ios":"levelo://app?vid=0df8499b-d3be-4b72-80a5-914d90a1426e"},"vehicle_type_id":"4","last_reported":1777046227,"current_range_meters":4800,"station_id":"ce4bgl92rcd13ifvqbq0","pricing_plan_id":"cebpf4jnsgd1na2vs0mg"},{"bike_id":"ecdd1e60-1fc1-490d-889b-d83c1e7933b8","system_id":"levelo_inurba_marseille","lat":43.23987,"lon":5.36635,"is_reserved":false,"is_disabled":false,"rental_uris":{"android":"levelo://app?vid=ecdd1e60-1fc1-490d-889b-d83c1e7933b8","ios":"levelo://app?vid=ecdd1e60-1fc1-490d-889b-d83c1e7933b8"},"vehicle_type_id":"4","last_reported":1777046227,"current_range_meters":5600,"station_id":"ce4bhi12rcd13ifvqfp0","pricing_plan_id":"cebpf4jnsgd1na2vs0mg"},{"bike_id":"ea3c1786-161a-49ba-9999-4db433e959c3","system_id":"levelo_inurba_marseille","lat":43.24448,"lon":5.40927,"is_reserved":false,"is_disabled":false,"rental_uris":{"android":"levelo://app?vid=ea3c1786-161a-49ba-9999-4db433e959c3","ios":"levelo://app?vid=ea3c1786-161a-49ba-9999-4db433e959c3"},"vehicle_type_id":"4","last_reported":1777046227,"current_range_meters":5600,"station_id":"","pricing_plan_id":"cebpf4jnsgd1na2vs0mg"},{"bike_id":"fbebdfda-6ba0-4b4e-98ae-2b5ea9d02b6d","system_id":"levelo_inurba_marseille","lat":43.2694,"lon":5.38632,"is_reserved":false,"is_disabled":false,"rental_uris":{"android":"levelo://app?vid=fbebdfda-6ba0-4b4e-98ae-2b5ea9d02b6d","ios":"levelo://app?vid=fbebdfda-6ba0-4b4e-98ae-2b5ea9d02b6d"},"vehicle_type_id":"4","last_reported":1777046227,"current_range_meters":5600,"station_id":"ce4bhh92rcd13ifvqfh0","pricing_plan_id":"cebpf4jnsgd1na2vs0mg"},{"bike_id":"99b0cb6f-f302-4c84-8f6d-ad16d0bd7039","system_id":"levelo_inurba_marseille","lat":43.29863,"lon":5.39727,"is_reserved":false,"is_disabled":false,"rental_uris":{"android":"levelo://app?vid=99b0cb6f-f302-4c84-8f6d-ad16d0bd7039","ios":"levelo://app?vid=99b0cb6f-f302-4c84-8f6d-ad16d0bd7039"},"vehicle_type_id":"4","last_reported":1777046227,"current_range_meters":5600,"station_id":"ce4bh0h2rcd13ifvqd50","pricing_plan_id":"cebpf4jnsgd1na2vs0mg"},{"bike_id":"c05d70c7-b112-48d9-9143-4ff03e3673ef","system_id":"levelo_inurba_marseille","lat":43.26208,"lon":5.37405,"is_reserved":false,"is_disabled":false,"rental_uris":{"android":"levelo://app?vid=c05d70c7-b112-48d9-9143-4ff03e3673ef","ios":"levelo://app?vid=c05d70c7-b112-48d9-9143-4ff03e3673ef"},"vehicle_type_id":"4","last_reported":1777046227,"current_range_meters":5600,"station_id":"","pricing_plan_id":"cebpf4jnsgd1na2vs0mg"},{"bike_id":"584cdce0-810e-4b55-bd3b-08e2bfb93074","system_id":"levelo_inurba_marseille","lat":43.22569,"lon":5.41632,"is_reserved":false,"is_disabled":false,"rental_uris":{"android":"levelo://app?vid=584cdce0-810e-4b55-bd3b-08e2bfb93074","ios":"levelo://app?vid=584cdce0-810e-4b55-bd3b-08e2bfb93074"},"vehicle_type_id":"4","last_reported":1777046227,"current_range_meters":5600,"station_id":"st_d2o4gvlbi1j2169b742g","pricing_plan_id":"cebpf4jnsgd1na2vs0mg"},{"bike_id":"d4696f6f-3fe9-4259-b518-0ee598ec391a","system_id":"levelo_inurba_marseille","lat":43.28356,"lon":5.38613,"is_reserved":false,"is_disabled":true,"rental_uris":{"android":"levelo://app?vid=d4696f6f-3fe9-4259-b518-0ee598ec391a","ios":"levelo://app?vid=d4696f6f-3fe9-4259-b518-0ee598ec391a"},"vehicle_type_id":"4","last_reported":1777046227,"current_range_meters":5600,"station_id":"ce4bh492rcd13ifvqdvg","pricing_plan_id":"cebpf4jnsgd1na2vs0mg"},{"bike_id":"f6b939ac-a8c3-4feb-88c1-2f378ff6050b","system_id":"levelo_inurba_marseille","lat":43.29349,"lon":5.37518,"is_reserved":false,"is_disabled":false,"rental_uris":{"android":"levelo://app?vid=f6b939ac-a8c3-4feb-88c1-2f378ff6050b","ios":"levelo://app?vid=f6b939ac-a8c3-4feb-88c1-2f378ff6050b"},"vehicle_type_id":"4","last_reported":1777046227,"current_range_meters":5600,"station_id":"ce4bgi12rcd13ifvqb70","pricing_plan_id":"cebpf4jnsgd1na2vs0mg"},{"bike_id":"21ba7509-4d91-4af5-b2e1-066ffb0d3544","system_id":"levelo_inurba_marseille","lat":43.30729,"lon":5.4244,"is_reserved":false,"is_disabled":false,"rental_uris":{"android":"levelo://app?vid=21ba7509-4d91-4af5-b2e1-066ffb0d3544","ios":"levelo://app?vid=21ba7509-4d91-4af5-b2e1-066ffb0d3544"},"vehicle_type_id":"4","last_reported":1777046227,"current_range_meters":5600,"station_id":"st_cvj6ca6bvosntc0bfgr0","pricing_plan_id":"cebpf4jnsgd1na2vs0mg"},{"bike_id":"87d155eb-12c3-49e9-a117-b4ed683d4be3","system_id":"levelo_inurba_marseille","lat":43.24177,"lon":5.39711,"is_reserved":false,"is_disabled":false,"rental_uris":{"android":"levelo://app?vid=87d155eb-12c3-49e9-a117-b4ed683d4be3","ios":"levelo://app?vid=87d155eb-12c3-49e9-a117-b4ed683d4be3"},"vehicle_type_id":"4","last_reported":1777046227,"current_range_meters":5600,"station_id":"ce4bhn12rcd13ifvqgpg","pricing_plan_id":"cebpf4jnsgd1na2vs0mg"},{"bike_id":"53d0b464-9d84-4ebb-a788-233487c8451c","system_id":"levelo_inurba_marseille","lat":43.33261,"lon":5.37783,"is_reserved":false,"is_disabled":false,"rental_uris":{"android":"levelo://app?vid=53d0b464-9d84-4ebb-a788-233487c8451c","ios":"levelo://app?vid=53d0b464-9d84-4ebb-a788-233487c8451c"},"vehicle_type_id":"4","last_reported":1777046227,"current_range_meters":6000,"station_id":"","pricing_plan_id":"cebpf4jnsgd1na2vs0mg"},{"bike_id":"0c22485a-a711-4725-8592-dab240ed7b73","system_id":"levelo_inurba_marseille","lat":43.23986,"lon":5.36684,"is_reserved":false,"is_disabled":false,"rental_uris":{"android":"levelo://app?vid=0c22485a-a711-4725-8592-dab240ed7b73","ios":"levelo://app?vid=0c22485a-a711-4725-8592-dab240ed7b73"},"vehicle_type_id":"4","last_reported":1777046227,"current_range_meters":6000,"station_id":"","pricing_plan_id":"cebpf4jnsgd1na2vs0mg"},{"bike_id":"fb678fdb-60a8-4e42-9aba-582e0f9a480b","system_id":"levelo_inurba_marseille","lat":43.29573,"lon":5.37512,"is_reserved":false,"is_disabled":false,"rental_uris":{"android":"levelo://app?vid=fb678fdb-60a8-4e42-9aba-582e0f9a480b","ios":"levelo://app?vid=fb678fdb-60a8-4e42-9aba-582e0f9a480b"},"vehicle_type_id":"4","last_reported":1777046227,"current_range_meters":6000,"station_id":"ce4bgh92rcd13ifvqb50","pricing_plan_id":"cebpf4jnsgd1na2vs0mg"},{"bike_id":"89cb976b-df3a-46fc-a9ef-0025de561630","system_id":"levelo_inurba_marseille","lat":43.29434,"lon":5.43397,"is_reserved":false,"is_disabled":false,"rental_uris":{"android":"levelo://app?vid=89cb976b-df3a-46fc-a9ef-0025de561630","ios":"levelo://app?vid=89cb976b-df3a-46fc-a9ef-0025de561630"},"vehicle_type_id":"4","last_reported":1777046227,"current_range_meters":6000,"station_id":"","pricing_plan_id":"cebpf4jnsgd1na2vs0mg"},{"bike_id":"2cde2a96-5847-4425-b178-e21f8b9fa8ee","system_id":"levelo_inurba_marseille","lat":43.28933,"lon":5.36369,"is_reserved":false,"is_disabled":false,"rental_uris":{"android":"levelo://app?vid=2cde2a96-5847-4425-b178-e21f8b9fa8ee","ios":"levelo://app?vid=2cde2a96-5847-4425-b178-e21f8b9fa8ee"},"vehicle_type_id":"4","last_reported":1777046227,"current_range_meters":6000,"station_id":"ce4bhc92rcd13ifvqetg","pricing_plan_id":"cebpf4jnsgd1na2vs0mg"},{"bike_id":"f1730d44-b2ba-4160-93f7-212af8fcf49a","system_id":"levelo_inurba_marseille","lat":43.26207,"lon":5.37438,"is_reserved":false,"is_disabled":false,"rental_uris":{"android":"levelo://app?vid=f1730d44-b2ba-4160-93f7-212af8fcf49a","ios":"levelo://app?vid=f1730d44-b2ba-4160-93f7-212af8fcf49a"},"vehicle_type_id":"4","last_reported":1777046227,"current_range_meters":6000,"station_id":"ce4bhgp2rcd13ifvqfc0","pricing_plan_id":"cebpf4jnsgd1na2vs0mg"},{"bike_id":"2661d3cb-cae1-4913-a0cd-e20a38415c08","system_id":"levelo_inurba_marseille","lat":43.2997,"lon":5.38488,"is_reserved":false,"is_disabled":false,"rental_uris":{"android":"levelo://app?vid=2661d3cb-cae1-4913-a0cd-e20a38415c08","ios":"levelo://app?vid=2661d3cb-cae1-4913-a0cd-e20a38415c08"},"vehicle_type_id":"4","last_reported":1777046227,"current_range_meters":6000,"station_id":"ce4bgj92rcd13ifvqbd0","pricing_plan_id":"cebpf4jnsgd1na2vs0mg"},{"bike_id":"a9834bb9-8134-44a7-b21b-a290a21660cc","system_id":"levelo_inurba_marseille","lat":43.3045,"lon":5.3889,"is_reserved":false,"is_disabled":false,"rental_uris":{"android":"levelo://app?vid=a9834bb9-8134-44a7-b21b-a290a21660cc","ios":"levelo://app?vid=a9834bb9-8134-44a7-b21b-a290a21660cc"},"vehicle_type_id":"4","last_reported":1777046227,"current_range_meters":6400,"station_id":"ce4bgk12rcd13ifvqbi0","pricing_plan_id":"cebpf4jnsgd1na2vs0mg"},{"bike_id":"03d50329-e768-413f-8f2a-24897a3a945b","system_id":"levelo_inurba_marseille","lat":43.24808,"lon":5.37467,"is_reserved":false,"is_disabled":false,"rental_uris":{"android":"levelo://app?vid=03d50329-e768-413f-8f2a-24897a3a945b","ios":"levelo://app?vid=03d50329-e768-413f-8f2a-24897a3a945b"},"vehicle_type_id":"4","last_reported":1777046227,"current_range_meters":6400,"station_id":"ce4bhgh2rcd13ifvqfb0","pricing_plan_id":"cebpf4jnsgd1na2vs0mg"},{"bike_id":"47603cfd-5ae4-455b-831a-07a8cc617455","system_id":"levelo_inurba_marseille","lat":43.29623,"lon":5.38105,"is_reserved":false,"is_disabled":false,"rental_uris":{"android":"levelo://app?vid=47603cfd-5ae4-455b-831a-07a8cc617455","ios":"levelo://app?vid=47603cfd-5ae4-455b-831a-07a8cc617455"},"vehicle_type_id":"4","last_reported":1777046227,"current_range_meters":6400,"station_id":"ce4bgl12rcd13ifvqbo0","pricing_plan_id":"cebpf4jnsgd1na2vs0mg"},{"bike_id":"146def8f-c25a-4a36-bb78-c0e04f65294e","system_id":"levelo_inurba_marseille","lat":43.28878,"lon":5.43038,"is_reserved":false,"is_disabled":false,"rental_uris":{"android":"levelo://app?vid=146def8f-c25a-4a36-bb78-c0e04f65294e","ios":"levelo://app?vid=146def8f-c25a-4a36-bb78-c0e04f65294e"},"vehicle_type_id":"4","last_reported":1777046227,"current_range_meters":6400,"station_id":"","pricing_plan_id":"cebpf4jnsgd1na2vs0mg"},{"bike_id":"1271dd10-76a9-492a-8c22-c3d053d6c607","system_id":"levelo_inurba_marseille","lat":43.29719,"lon":5.37686,"is_reserved":false,"is_disabled":false,"rental_uris":{"android":"levelo://app?vid=1271dd10-76a9-492a-8c22-c3d053d6c607","ios":"levelo://app?vid=1271dd10-76a9-492a-8c22-c3d053d6c607"},"vehicle_type_id":"4","last_reported":1777046227,"current_range_meters":6400,"station_id":"ce4bgkh2rcd13ifvqbl0","pricing_plan_id":"cebpf4jnsgd1na2vs0mg"},{"bike_id":"00540f6c-b5bb-496b-bb52-f1ff4808075d","system_id":"levelo_inurba_marseille","lat":43.28288,"lon":5.40606,"is_reserved":false,"is_disabled":false,"rental_uris":{"android":"levelo://app?vid=00540f6c-b5bb-496b-bb52-f1ff4808075d","ios":"levelo://app?vid=00540f6c-b5bb-496b-bb52-f1ff4808075d"},"vehicle_type_id":"4","last_reported":1777046227,"current_range_meters":6400,"station_id":"","pricing_plan_id":"cebpf4jnsgd1na2vs0mg"},{"bike_id":"60522a06-e8dc-45c4-ba98-ea000ba9f208","system_id":"levelo_inurba_marseille","lat":43.26197,"lon":5.37493,"is_reserved":false,"is_disabled":false,"rental_uris":{"android":"levelo://app?vid=60522a06-e8dc-45c4-ba98-ea000ba9f208","ios":"levelo://app?vid=60522a06-e8dc-45c4-ba98-ea000ba9f208"},"vehicle_type_id":"4","last_reported":1777046227,"current_range_meters":6400,"station_id":"ce4bhgp2rcd13ifvqfc0","pricing_plan_id":"cebpf4jnsgd1na2vs0mg"},{"bike_id":"6efae23b-4853-4978-a046-e2118aa389db","system_id":"levelo_inurba_marseille","lat":43.29476,"lon":5.38187,"is_reserved":false,"is_disabled":false,"rental_uris":{"android":"levelo://app?vid=6efae23b-4853-4978-a046-e2118aa389db","ios":"levelo://app?vid=6efae23b-4853-4978-a046-e2118aa389db"},"vehicle_type_id":"4","last_reported":1777046227,"current_range_meters":6400,"station_id":"","pricing_plan_id":"cebpf4jnsgd1na2vs0mg"},{"bike_id":"d89d23f0-2280-4c64-a128-5160651563ce","system_id":"levelo_inurba_marseille","lat":43.29954,"lon":5.38464,"is_reserved":false,"is_disabled":false,"rental_uris":{"android":"levelo://app?vid=d89d23f0-2280-4c64-a128-5160651563ce","ios":"levelo://app?vid=d89d23f0-2280-4c64-a128-5160651563ce"},"vehicle_type_id":"4","last_reported":1777046227,"current_range_meters":6400,"station_id":"ce4bgj92rcd13ifvqbd0","pricing_plan_id":"cebpf4jnsgd1na2vs0mg"},{"bike_id":"250b15a8-ae72-4a04-beeb-15324439784f","system_id":"levelo_inurba_marseille","lat":43.31426,"lon":5.37546,"is_reserved":false,"is_disabled":false,"rental_uris":{"android":"levelo://app?vid=250b15a8-ae72-4a04-beeb-15324439784f","ios":"levelo://app?vid=250b15a8-ae72-4a04-beeb-15324439784f"},"vehicle_type_id":"4","last_reported":1777046227,"current_range_meters":6400,"station_id":"ce4bgt12rcd13ifvqcd0","pricing_plan_id":"cebpf4jnsgd1na2vs0mg"},{"bike_id":"33594d2c-0831-4d65-a1ac-f0d609204e81","system_id":"levelo_inurba_marseille","lat":43.30889,"lon":5.3966,"is_reserved":false,"is_disabled":false,"rental_uris":{"android":"levelo://app?vid=33594d2c-0831-4d65-a1ac-f0d609204e81","ios":"levelo://app?vid=33594d2c-0831-4d65-a1ac-f0d609204e81"},"vehicle_type_id":"4","last_reported":1777046227,"current_range_meters":6400,"station_id":"ce4bh012rcd13ifvqcv0","pricing_plan_id":"cebpf4jnsgd1na2vs0mg"},{"bike_id":"2d62833d-bd87-48d7-bb95-2d094b5e6746","system_id":"levelo_inurba_marseille","lat":43.260122,"lon":5.375308,"is_reserved":false,"is_disabled":false,"rental_uris":{"android":"levelo://app?vid=2d62833d-bd87-48d7-bb95-2d094b5e6746","ios":"levelo://app?vid=2d62833d-bd87-48d7-bb95-2d094b5e6746"},"vehicle_type_id":"4","last_reported":1777046227,"current_range_meters":6400,"station_id":"ce4bhgh2rcd13ifvqfa0","pricing_plan_id":"cebpf4jnsgd1na2vs0mg"},{"bike_id":"27cd71a7-0940-4415-a67f-21597fbf1cd9","system_id":"levelo_inurba_marseille","lat":43.33019,"lon":5.39042,"is_reserved":false,"is_disabled":false,"rental_uris":{"android":"levelo://app?vid=27cd71a7-0940-4415-a67f-21597fbf1cd9","ios":"levelo://app?vid=27cd71a7-0940-4415-a67f-21597fbf1cd9"},"vehicle_type_id":"4","last_reported":1777046227,"current_range_meters":6800,"station_id":"ce4bhr92rcd13ifvqhrg","pricing_plan_id":"cebpf4jnsgd1na2vs0mg"},{"bike_id":"aa897415-67a0-4b07-b64e-cbc8da7d4792","system_id":"levelo_inurba_marseille","lat":43.24165,"lon":5.36417,"is_reserved":false,"is_disabled":false,"rental_uris":{"android":"levelo://app?vid=aa897415-67a0-4b07-b64e-cbc8da7d4792","ios":"levelo://app?vid=aa897415-67a0-4b07-b64e-cbc8da7d4792"},"vehicle_type_id":"4","last_reported":1777046227,"current_range_meters":6800,"station_id":"cpo36qri1sfpv3e86is0","pricing_plan_id":"cebpf4jnsgd1na2vs0mg"},{"bike_id":"f85abdf6-bd6d-4d0c-9c88-ff3a31e96dc2","system_id":"levelo_inurba_marseille","lat":43.29683,"lon":5.36613,"is_reserved":false,"is_disabled":false,"rental_uris":{"android":"levelo://app?vid=f85abdf6-bd6d-4d0c-9c88-ff3a31e96dc2","ios":"levelo://app?vid=f85abdf6-bd6d-4d0c-9c88-ff3a31e96dc2"},"vehicle_type_id":"4","last_reported":1777046227,"current_range_meters":6800,"station_id":"ce4bgn12rcd13ifvqbt0","pricing_plan_id":"cebpf4jnsgd1na2vs0mg"},{"bike_id":"1d2078df-f6fa-4b9b-9fcb-0b565c4fe63c","system_id":"levelo_inurba_marseille","lat":43.28618,"lon":5.35104,"is_reserved":false,"is_disabled":false,"rental_uris":{"android":"levelo://app?vid=1d2078df-f6fa-4b9b-9fcb-0b565c4fe63c","ios":"levelo://app?vid=1d2078df-f6fa-4b9b-9fcb-0b565c4fe63c"},"vehicle_type_id":"4","last_reported":1777046227,"current_range_meters":6800,"station_id":"ce4bhch2rcd13ifvqeug","pricing_plan_id":"cebpf4jnsgd1na2vs0mg"},{"bike_id":"50b3537d-0369-460e-8281-426df86e0856","system_id":"levelo_inurba_marseille","lat":43.30071,"lon":5.36431,"is_reserved":false,"is_disabled":false,"rental_uris":{"android":"levelo://app?vid=50b3537d-0369-460e-8281-426df86e0856","ios":"levelo://app?vid=50b3537d-0369-460e-8281-426df86e0856"},"vehicle_type_id":"4","last_reported":1777046227,"current_range_meters":6800,"station_id":"","pricing_plan_id":"cebpf4jnsgd1na2vs0mg"},{"bike_id":"2ef1605e-c22f-40e5-aaf9-bef4ca989ccc","system_id":"levelo_inurba_marseille","lat":43.2705,"lon":5.40255,"is_reserved":false,"is_disabled":false,"rental_uris":{"android":"levelo://app?vid=2ef1605e-c22f-40e5-aaf9-bef4ca989ccc","ios":"levelo://app?vid=2ef1605e-c22f-40e5-aaf9-bef4ca989ccc"},"vehicle_type_id":"4","last_reported":1777046227,"current_range_meters":6800,"station_id":"ce4bhk92rcd13ifvqgc0","pricing_plan_id":"cebpf4jnsgd1na2vs0mg"},{"bike_id":"c025fe4d-f167-4f80-bde7-0dfb9be7b37b","system_id":"levelo_inurba_marseille","lat":43.2848,"lon":5.48391,"is_reserved":false,"is_disabled":false,"rental_uris":{"android":"levelo://app?vid=c025fe4d-f167-4f80-bde7-0dfb9be7b37b","ios":"levelo://app?vid=c025fe4d-f167-4f80-bde7-0dfb9be7b37b"},"vehicle_type_id":"4","last_reported":1777046227,"current_range_meters":6800,"station_id":"","pricing_plan_id":"cebpf4jnsgd1na2vs0mg"},{"bike_id":"6a979988-2dd0-41f2-9c5f-0c6cc10fba5f","system_id":"levelo_inurba_marseille","lat":43.24179,"lon":5.36442,"is_reserved":false,"is_disabled":false,"rental_uris":{"android":"levelo://app?vid=6a979988-2dd0-41f2-9c5f-0c6cc10fba5f","ios":"levelo://app?vid=6a979988-2dd0-41f2-9c5f-0c6cc10fba5f"},"vehicle_type_id":"4","last_reported":1777046227,"current_range_meters":6800,"station_id":"cpo36qri1sfpv3e86is0","pricing_plan_id":"cebpf4jnsgd1na2vs0mg"},{"bike_id":"83afce47-6aa7-4153-bc10-f19a49d5b7b7","system_id":"levelo_inurba_marseille","lat":43.31538,"lon":5.38027,"is_reserved":false,"is_disabled":false,"rental_uris":{"android":"levelo://app?vid=83afce47-6aa7-4153-bc10-f19a49d5b7b7","ios":"levelo://app?vid=83afce47-6aa7-4153-bc10-f19a49d5b7b7"},"vehicle_type_id":"4","last_reported":1777046227,"current_range_meters":6800,"station_id":"ce4bhsp2rcd13ifvqi50","pricing_plan_id":"cebpf4jnsgd1na2vs0mg"},{"bike_id":"216db791-4831-487e-8339-ea1985ce93a3","system_id":"levelo_inurba_marseille","lat":43.31168,"lon":5.3871,"is_reserved":false,"is_disabled":false,"rental_uris":{"android":"levelo://app?vid=216db791-4831-487e-8339-ea1985ce93a3","ios":"levelo://app?vid=216db791-4831-487e-8339-ea1985ce93a3"},"vehicle_type_id":"4","last_reported":1777046227,"current_range_meters":6800,"station_id":"ce4bgv12rcd13ifvqcp0","pricing_plan_id":"cebpf4jnsgd1na2vs0mg"},{"bike_id":"95a9a5b5-a006-4a3d-b08b-6ad4f00a6401","system_id":"levelo_inurba_marseille","lat":43.32039,"lon":5.41542,"is_reserved":false,"is_disabled":false,"rental_uris":{"android":"levelo://app?vid=95a9a5b5-a006-4a3d-b08b-6ad4f00a6401","ios":"levelo://app?vid=95a9a5b5-a006-4a3d-b08b-6ad4f00a6401"},"vehicle_type_id":"4","last_reported":1777046227,"current_range_meters":6800,"station_id":"ce4bhq92rcd13ifvqhkg","pricing_plan_id":"cebpf4jnsgd1na2vs0mg"},{"bike_id":"141f059f-6d5f-4301-9c09-4ad988e4bde5","system_id":"levelo_inurba_marseille","lat":43.23774,"lon":5.36629,"is_reserved":false,"is_disabled":false,"rental_uris":{"android":"levelo://app?vid=141f059f-6d5f-4301-9c09-4ad988e4bde5","ios":"levelo://app?vid=141f059f-6d5f-4301-9c09-4ad988e4bde5"},"vehicle_type_id":"4","last_reported":1777046227,"current_range_meters":6800,"station_id":"st_d3nk18o9ro0c73en2l3g","pricing_plan_id":"cebpf4jnsgd1na2vs0mg"},{"bike_id":"9fc5319c-5b29-47c8-be7d-d73100e0a21f","system_id":"levelo_inurba_marseille","lat":43.28356,"lon":5.38625,"is_reserved":false,"is_disabled":false,"rental_uris":{"android":"levelo://app?vid=9fc5319c-5b29-47c8-be7d-d73100e0a21f","ios":"levelo://app?vid=9fc5319c-5b29-47c8-be7d-d73100e0a21f"},"vehicle_type_id":"4","last_reported":1777046227,"current_range_meters":6800,"station_id":"ce4bh492rcd13ifvqdvg","pricing_plan_id":"cebpf4jnsgd1na2vs0mg"},{"bike_id":"6bff4639-a94f-446c-83ac-6c6df722713d","system_id":"levelo_inurba_marseille","lat":43.28427,"lon":5.39202,"is_reserved":false,"is_disabled":false,"rental_uris":{"android":"levelo://app?vid=6bff4639-a94f-446c-83ac-6c6df722713d","ios":"levelo://app?vid=6bff4639-a94f-446c-83ac-6c6df722713d"},"vehicle_type_id":"4","last_reported":1777046227,"current_range_meters":6800,"station_id":"ce4bhoh2rcd13ifvqh5g","pricing_plan_id":"cebpf4jnsgd1na2vs0mg"},{"bike_id":"5b4ec147-2fe5-44f9-865d-3f33ff86ac03","system_id":"levelo_inurba_marseille","lat":43.29523,"lon":5.3903,"is_reserved":false,"is_disabled":false,"rental_uris":{"android":"levelo://app?vid=5b4ec147-2fe5-44f9-865d-3f33ff86ac03","ios":"levelo://app?vid=5b4ec147-2fe5-44f9-865d-3f33ff86ac03"},"vehicle_type_id":"4","last_reported":1777046227,"current_range_meters":6800,"station_id":"ce4bh3p2rcd13ifvqdp0","pricing_plan_id":"cebpf4jnsgd1na2vs0mg"},{"bike_id":"15c20aa1-12c7-4631-b488-9041f577cfd2","system_id":"levelo_inurba_marseille","lat":43.29564,"lon":5.3855,"is_reserved":false,"is_disabled":false,"rental_uris":{"android":"levelo://app?vid=15c20aa1-12c7-4631-b488-9041f577cfd2","ios":"levelo://app?vid=15c20aa1-12c7-4631-b488-9041f577cfd2"},"vehicle_type_id":"4","last_reported":1777046227,"current_range_meters":7200,"station_id":"ce4bgih2rcd13ifvqba0","pricing_plan_id":"cebpf4jnsgd1na2vs0mg"},{"bike_id":"1878a9b0-0aef-4e22-815c-eaa72a48bf6e","system_id":"levelo_inurba_marseille","lat":43.29902,"lon":5.3813,"is_reserved":false,"is_disabled":false,"rental_uris":{"android":"levelo://app?vid=1878a9b0-0aef-4e22-815c-eaa72a48bf6e","ios":"levelo://app?vid=1878a9b0-0aef-4e22-815c-eaa72a48bf6e"},"vehicle_type_id":"4","last_reported":1777046227,"current_range_meters":7200,"station_id":"ce4bgj12rcd13ifvqbc0","pricing_plan_id":"cebpf4jnsgd1na2vs0mg"},{"bike_id":"be3a84c7-c8c8-41bd-9d1f-d02d58a229bd","system_id":"levelo_inurba_marseille","lat":43.29712,"lon":5.36264,"is_reserved":false,"is_disabled":false,"rental_uris":{"android":"levelo://app?vid=be3a84c7-c8c8-41bd-9d1f-d02d58a229bd","ios":"levelo://app?vid=be3a84c7-c8c8-41bd-9d1f-d02d58a229bd"},"vehicle_type_id":"4","last_reported":1777046227,"current_range_meters":7200,"station_id":"","pricing_plan_id":"cebpf4jnsgd1na2vs0mg"},{"bike_id":"31807bc1-1629-4461-b62e-dc21ba26ef45","system_id":"levelo_inurba_marseille","lat":43.21738,"lon":5.34606,"is_reserved":false,"is_disabled":false,"rental_uris":{"android":"levelo://app?vid=31807bc1-1629-4461-b62e-dc21ba26ef45","ios":"levelo://app?vid=31807bc1-1629-4461-b62e-dc21ba26ef45"},"vehicle_type_id":"4","last_reported":1777046227,"current_range_meters":7200,"station_id":"st_cvj6r9ubvosntc0bgbag","pricing_plan_id":"cebpf4jnsgd1na2vs0mg"},{"bike_id":"fbad382b-d0e0-4b4d-b7e9-7eaeef0c00e6","system_id":"levelo_inurba_marseille","lat":43.25657,"lon":5.39007,"is_reserved":false,"is_disabled":false,"rental_uris":{"android":"levelo://app?vid=fbad382b-d0e0-4b4d-b7e9-7eaeef0c00e6","ios":"levelo://app?vid=fbad382b-d0e0-4b4d-b7e9-7eaeef0c00e6"},"vehicle_type_id":"4","last_reported":1777046227,"current_range_meters":7200,"station_id":"","pricing_plan_id":"cebpf4jnsgd1na2vs0mg"},{"bike_id":"c4a6cf3f-a5b9-43d7-91d0-4da564433a66","system_id":"levelo_inurba_marseille","lat":43.30298,"lon":5.3755,"is_reserved":false,"is_disabled":false,"rental_uris":{"android":"levelo://app?vid=c4a6cf3f-a5b9-43d7-91d0-4da564433a66","ios":"levelo://app?vid=c4a6cf3f-a5b9-43d7-91d0-4da564433a66"},"vehicle_type_id":"4","last_reported":1777046227,"current_range_meters":7200,"station_id":"","pricing_plan_id":"cebpf4jnsgd1na2vs0mg"},{"bike_id":"3762a15a-49a2-4fc6-b2e6-a79b5f91a12f","system_id":"levelo_inurba_marseille","lat":43.28476,"lon":5.48403,"is_reserved":false,"is_disabled":false,"rental_uris":{"android":"levelo://app?vid=3762a15a-49a2-4fc6-b2e6-a79b5f91a12f","ios":"levelo://app?vid=3762a15a-49a2-4fc6-b2e6-a79b5f91a12f"},"vehicle_type_id":"4","last_reported":1777046227,"current_range_meters":7200,"station_id":"","pricing_plan_id":"cebpf4jnsgd1na2vs0mg"},{"bike_id":"8a4d316b-7dfb-42df-8aea-4c7d58210d7a","system_id":"levelo_inurba_marseille","lat":43.31261,"lon":5.43074,"is_reserved":false,"is_disabled":false,"rental_uris":{"android":"levelo://app?vid=8a4d316b-7dfb-42df-8aea-4c7d58210d7a","ios":"levelo://app?vid=8a4d316b-7dfb-42df-8aea-4c7d58210d7a"},"vehicle_type_id":"4","last_reported":1777046227,"current_range_meters":7200,"station_id":"","pricing_plan_id":"cebpf4jnsgd1na2vs0mg"},{"bike_id":"b38d89b8-c3c9-4fae-b6f2-09980d89f2e9","system_id":"levelo_inurba_marseille","lat":43.28468,"lon":5.48386,"is_reserved":false,"is_disabled":false,"rental_uris":{"android":"levelo://app?vid=b38d89b8-c3c9-4fae-b6f2-09980d89f2e9","ios":"levelo://app?vid=b38d89b8-c3c9-4fae-b6f2-09980d89f2e9"},"vehicle_type_id":"4","last_reported":1777046227,"current_range_meters":7200,"station_id":"","pricing_plan_id":"cebpf4jnsgd1na2vs0mg"},{"bike_id":"92691c13-c847-4c13-9bbd-54f3b23b602d","system_id":"levelo_inurba_marseille","lat":43.26547,"lon":5.37287,"is_reserved":false,"is_disabled":false,"rental_uris":{"android":"levelo://app?vid=92691c13-c847-4c13-9bbd-54f3b23b602d","ios":"levelo://app?vid=92691c13-c847-4c13-9bbd-54f3b23b602d"},"vehicle_type_id":"4","last_reported":1777046227,"current_range_meters":7200,"station_id":"ce4bhg12rcd13ifvqf70","pricing_plan_id":"cebpf4jnsgd1na2vs0mg"},{"bike_id":"e8d6ce3d-1aa9-47ef-9b48-93862ee5f7fd","system_id":"levelo_inurba_marseille","lat":43.21277,"lon":5.35378,"is_reserved":false,"is_disabled":false,"rental_uris":{"android":"levelo://app?vid=e8d6ce3d-1aa9-47ef-9b48-93862ee5f7fd","ios":"levelo://app?vid=e8d6ce3d-1aa9-47ef-9b48-93862ee5f7fd"},"vehicle_type_id":"4","last_reported":1777046227,"current_range_meters":7200,"station_id":"","pricing_plan_id":"cebpf4jnsgd1na2vs0mg"},{"bike_id":"5607da76-763a-4c03-abaa-325e4b0bd44e","system_id":"levelo_inurba_marseille","lat":43.30766,"lon":5.37635,"is_reserved":false,"is_disabled":false,"rental_uris":{"android":"levelo://app?vid=5607da76-763a-4c03-abaa-325e4b0bd44e","ios":"levelo://app?vid=5607da76-763a-4c03-abaa-325e4b0bd44e"},"vehicle_type_id":"4","last_reported":1777046227,"current_range_meters":7200,"station_id":"ce4bgv92rcd13ifvqcq0","pricing_plan_id":"cebpf4jnsgd1na2vs0mg"},{"bike_id":"cb035ff8-d2a1-4635-925d-e2af061ab0ff","system_id":"levelo_inurba_marseille","lat":43.26584,"lon":5.37238,"is_reserved":false,"is_disabled":false,"rental_uris":{"android":"levelo://app?vid=cb035ff8-d2a1-4635-925d-e2af061ab0ff","ios":"levelo://app?vid=cb035ff8-d2a1-4635-925d-e2af061ab0ff"},"vehicle_type_id":"4","last_reported":1777046227,"current_range_meters":7200,"station_id":"ce4bhg12rcd13ifvqf70","pricing_plan_id":"cebpf4jnsgd1na2vs0mg"},{"bike_id":"13bb0519-4971-436c-be75-a3a4d826465d","system_id":"levelo_inurba_marseille","lat":43.31695,"lon":5.40478,"is_reserved":false,"is_disabled":false,"rental_uris":{"android":"levelo://app?vid=13bb0519-4971-436c-be75-a3a4d826465d","ios":"levelo://app?vid=13bb0519-4971-436c-be75-a3a4d826465d"},"vehicle_type_id":"4","last_reported":1777046227,"current_range_meters":7200,"station_id":"ce4bh012rcd13ifvqd00","pricing_plan_id":"cebpf4jnsgd1na2vs0mg"},{"bike_id":"5d140c3f-5c06-4c07-8c59-367c01e979f2","system_id":"levelo_inurba_marseille","lat":43.29809,"lon":5.38085,"is_reserved":false,"is_disabled":false,"rental_uris":{"android":"levelo://app?vid=5d140c3f-5c06-4c07-8c59-367c01e979f2","ios":"levelo://app?vid=5d140c3f-5c06-4c07-8c59-367c01e979f2"},"vehicle_type_id":"4","last_reported":1777046227,"current_range_meters":7200,"station_id":"ce4bgip2rcd13ifvqbb0","pricing_plan_id":"cebpf4jnsgd1na2vs0mg"},{"bike_id":"74896428-82a2-472d-86b3-5e80e40c2595","system_id":"levelo_inurba_marseille","lat":43.31757,"lon":5.39011,"is_reserved":false,"is_disabled":false,"rental_uris":{"android":"levelo://app?vid=74896428-82a2-472d-86b3-5e80e40c2595","ios":"levelo://app?vid=74896428-82a2-472d-86b3-5e80e40c2595"},"vehicle_type_id":"4","last_reported":1777046227,"current_range_meters":7200,"station_id":"ce4bhqp2rcd13ifvqhng","pricing_plan_id":"cebpf4jnsgd1na2vs0mg"},{"bike_id":"ac31b117-7536-48f3-ae40-12af2a19d1cb","system_id":"levelo_inurba_marseille","lat":43.27992,"lon":5.41661,"is_reserved":false,"is_disabled":false,"rental_uris":{"android":"levelo://app?vid=ac31b117-7536-48f3-ae40-12af2a19d1cb","ios":"levelo://app?vid=ac31b117-7536-48f3-ae40-12af2a19d1cb"},"vehicle_type_id":"4","last_reported":1777046227,"current_range_meters":7200,"station_id":"ce4bho12rcd13ifvqh1g","pricing_plan_id":"cebpf4jnsgd1na2vs0mg"},{"bike_id":"90fac789-06e9-4c33-94b9-e82543e03c21","system_id":"levelo_inurba_marseille","lat":43.27379,"lon":5.36256,"is_reserved":false,"is_disabled":true,"rental_uris":{"android":"levelo://app?vid=90fac789-06e9-4c33-94b9-e82543e03c21","ios":"levelo://app?vid=90fac789-06e9-4c33-94b9-e82543e03c21"},"vehicle_type_id":"4","last_reported":1777046227,"current_range_meters":7200,"station_id":"ce4bhbh2rcd13ifvqeo0","pricing_plan_id":"cebpf4jnsgd1na2vs0mg"},{"bike_id":"1f3906dd-948e-4d18-9bb2-b2fc350fa481","system_id":"levelo_inurba_marseille","lat":43.27438,"lon":5.39413,"is_reserved":false,"is_disabled":true,"rental_uris":{"android":"levelo://app?vid=1f3906dd-948e-4d18-9bb2-b2fc350fa481","ios":"levelo://app?vid=1f3906dd-948e-4d18-9bb2-b2fc350fa481"},"vehicle_type_id":"4","last_reported":1777046227,"current_range_meters":7200,"station_id":"ce4bhdp2rcd13ifvqf20","pricing_plan_id":"cebpf4jnsgd1na2vs0mg"},{"bike_id":"0dd5f12a-b88a-4b21-affc-ed00566e06c8","system_id":"levelo_inurba_marseille","lat":43.28412,"lon":5.34974,"is_reserved":false,"is_disabled":false,"rental_uris":{"android":"levelo://app?vid=0dd5f12a-b88a-4b21-affc-ed00566e06c8","ios":"levelo://app?vid=0dd5f12a-b88a-4b21-affc-ed00566e06c8"},"vehicle_type_id":"4","last_reported":1777046227,"current_range_meters":7200,"station_id":"ce4bhbh2rcd13ifvqepg","pricing_plan_id":"cebpf4jnsgd1na2vs0mg"},{"bike_id":"aceca698-157b-4df0-b522-ebbe68fb2014","system_id":"levelo_inurba_marseille","lat":43.28677,"lon":5.35139,"is_reserved":false,"is_disabled":false,"rental_uris":{"android":"levelo://app?vid=aceca698-157b-4df0-b522-ebbe68fb2014","ios":"levelo://app?vid=aceca698-157b-4df0-b522-ebbe68fb2014"},"vehicle_type_id":"4","last_reported":1777046227,"current_range_meters":7200,"station_id":"","pricing_plan_id":"cebpf4jnsgd1na2vs0mg"},{"bike_id":"24ad9334-9bd8-4e7c-82c7-96c8da7943b5","system_id":"levelo_inurba_marseille","lat":43.28619,"lon":5.35103,"is_reserved":false,"is_disabled":false,"rental_uris":{"android":"levelo://app?vid=24ad9334-9bd8-4e7c-82c7-96c8da7943b5","ios":"levelo://app?vid=24ad9334-9bd8-4e7c-82c7-96c8da7943b5"},"vehicle_type_id":"4","last_reported":1777046227,"current_range_meters":7200,"station_id":"ce4bhch2rcd13ifvqeug","pricing_plan_id":"cebpf4jnsgd1na2vs0mg"},{"bike_id":"5a55d324-bc87-4cc7-94a5-10022c640927","system_id":"levelo_inurba_marseille","lat":43.29581,"lon":5.37498,"is_reserved":false,"is_disabled":false,"rental_uris":{"android":"levelo://app?vid=5a55d324-bc87-4cc7-94a5-10022c640927","ios":"levelo://app?vid=5a55d324-bc87-4cc7-94a5-10022c640927"},"vehicle_type_id":"4","last_reported":1777046227,"current_range_meters":8000,"station_id":"ce4bgh92rcd13ifvqb50","pricing_plan_id":"cebpf4jnsgd1na2vs0mg"},{"bike_id":"27c42ac1-b3ae-44d2-a7ac-ec95314cb289","system_id":"levelo_inurba_marseille","lat":43.28405,"lon":5.34996,"is_reserved":false,"is_disabled":false,"rental_uris":{"android":"levelo://app?vid=27c42ac1-b3ae-44d2-a7ac-ec95314cb289","ios":"levelo://app?vid=27c42ac1-b3ae-44d2-a7ac-ec95314cb289"},"vehicle_type_id":"4","last_reported":1777046227,"current_range_meters":8000,"station_id":"ce4bhbh2rcd13ifvqepg","pricing_plan_id":"cebpf4jnsgd1na2vs0mg"},{"bike_id":"e857004b-2bd0-424f-a388-5718a5c55f54","system_id":"levelo_inurba_marseille","lat":43.30536,"lon":5.36729,"is_reserved":false,"is_disabled":false,"rental_uris":{"android":"levelo://app?vid=e857004b-2bd0-424f-a388-5718a5c55f54","ios":"levelo://app?vid=e857004b-2bd0-424f-a388-5718a5c55f54"},"vehicle_type_id":"4","last_reported":1777046227,"current_range_meters":8000,"station_id":"ce4bgrp2rcd13ifvqc9g","pricing_plan_id":"cebpf4jnsgd1na2vs0mg"},{"bike_id":"ca5a4c50-07fb-4bf6-afa2-b0bf8e359ed9","system_id":"levelo_inurba_marseille","lat":43.26212,"lon":5.37446,"is_reserved":false,"is_disabled":false,"rental_uris":{"android":"levelo://app?vid=ca5a4c50-07fb-4bf6-afa2-b0bf8e359ed9","ios":"levelo://app?vid=ca5a4c50-07fb-4bf6-afa2-b0bf8e359ed9"},"vehicle_type_id":"4","last_reported":1777046227,"current_range_meters":8000,"station_id":"ce4bhgp2rcd13ifvqfc0","pricing_plan_id":"cebpf4jnsgd1na2vs0mg"},{"bike_id":"cd21f6c1-a1f8-4978-8025-1d254a6bf514","system_id":"levelo_inurba_marseille","lat":43.28476,"lon":5.48392,"is_reserved":false,"is_disabled":false,"rental_uris":{"android":"levelo://app?vid=cd21f6c1-a1f8-4978-8025-1d254a6bf514","ios":"levelo://app?vid=cd21f6c1-a1f8-4978-8025-1d254a6bf514"},"vehicle_type_id":"4","last_reported":1777046227,"current_range_meters":8000,"station_id":"st_d3svhcjqgbts73a3dn0g","pricing_plan_id":"cebpf4jnsgd1na2vs0mg"},{"bike_id":"b51ac87f-04a3-4bf1-9075-041179aa6f28","system_id":"levelo_inurba_marseille","lat":43.22565,"lon":5.41637,"is_reserved":false,"is_disabled":false,"rental_uris":{"android":"levelo://app?vid=b51ac87f-04a3-4bf1-9075-041179aa6f28","ios":"levelo://app?vid=b51ac87f-04a3-4bf1-9075-041179aa6f28"},"vehicle_type_id":"4","last_reported":1777046227,"current_range_meters":8000,"station_id":"st_d2o4gvlbi1j2169b742g","pricing_plan_id":"cebpf4jnsgd1na2vs0mg"},{"bike_id":"e8d002b1-199e-4516-8ed6-821a0c98040c","system_id":"levelo_inurba_marseille","lat":43.33751,"lon":5.3753,"is_reserved":false,"is_disabled":false,"rental_uris":{"android":"levelo://app?vid=e8d002b1-199e-4516-8ed6-821a0c98040c","ios":"levelo://app?vid=e8d002b1-199e-4516-8ed6-821a0c98040c"},"vehicle_type_id":"4","last_reported":1777046227,"current_range_meters":8000,"station_id":"st_d46cu089ee8s73dldbu0","pricing_plan_id":"cebpf4jnsgd1na2vs0mg"},{"bike_id":"557f2543-04fd-4ffd-bb67-b3fad21057da","system_id":"levelo_inurba_marseille","lat":43.28411,"lon":5.34972,"is_reserved":false,"is_disabled":false,"rental_uris":{"android":"levelo://app?vid=557f2543-04fd-4ffd-bb67-b3fad21057da","ios":"levelo://app?vid=557f2543-04fd-4ffd-bb67-b3fad21057da"},"vehicle_type_id":"4","last_reported":1777046227,"current_range_meters":8000,"station_id":"ce4bhbh2rcd13ifvqepg","pricing_plan_id":"cebpf4jnsgd1na2vs0mg"},{"bike_id":"ec19aaad-2410-439f-9123-e83fa1c535f8","system_id":"levelo_inurba_marseille","lat":43.2829,"lon":5.37899,"is_reserved":false,"is_disabled":false,"rental_uris":{"android":"levelo://app?vid=ec19aaad-2410-439f-9123-e83fa1c535f8","ios":"levelo://app?vid=ec19aaad-2410-439f-9123-e83fa1c535f8"},"vehicle_type_id":"4","last_reported":1777046227,"current_range_meters":8000,"station_id":"","pricing_plan_id":"cebpf4jnsgd1na2vs0mg"},{"bike_id":"7a3d8e61-5279-461e-b458-ce188f1e68a4","system_id":"levelo_inurba_marseille","lat":43.30644,"lon":5.40099,"is_reserved":false,"is_disabled":false,"rental_uris":{"android":"levelo://app?vid=7a3d8e61-5279-461e-b458-ce188f1e68a4","ios":"levelo://app?vid=7a3d8e61-5279-461e-b458-ce188f1e68a4"},"vehicle_type_id":"4","last_reported":1777046227,"current_range_meters":8000,"station_id":"ce4bh112rcd13ifvqda0","pricing_plan_id":"cebpf4jnsgd1na2vs0mg"},{"bike_id":"973940ce-e545-4d71-9396-486542a3f8e7","system_id":"levelo_inurba_marseille","lat":43.2861,"lon":5.35105,"is_reserved":false,"is_disabled":false,"rental_uris":{"android":"levelo://app?vid=973940ce-e545-4d71-9396-486542a3f8e7","ios":"levelo://app?vid=973940ce-e545-4d71-9396-486542a3f8e7"},"vehicle_type_id":"4","last_reported":1777046227,"current_range_meters":8000,"station_id":"ce4bhch2rcd13ifvqeug","pricing_plan_id":"cebpf4jnsgd1na2vs0mg"},{"bike_id":"0a1e66c8-0efd-43d8-9eee-4f2ad67fc5de","system_id":"levelo_inurba_marseille","lat":43.24493,"lon":5.39685,"is_reserved":false,"is_disabled":false,"rental_uris":{"android":"levelo://app?vid=0a1e66c8-0efd-43d8-9eee-4f2ad67fc5de","ios":"levelo://app?vid=0a1e66c8-0efd-43d8-9eee-4f2ad67fc5de"},"vehicle_type_id":"4","last_reported":1777046227,"current_range_meters":8000,"station_id":"","pricing_plan_id":"cebpf4jnsgd1na2vs0mg"},{"bike_id":"107ddcf9-30e7-41d5-9c2b-1d6adaee7408","system_id":"levelo_inurba_marseille","lat":43.29555,"lon":5.37514,"is_reserved":false,"is_disabled":false,"rental_uris":{"android":"levelo://app?vid=107ddcf9-30e7-41d5-9c2b-1d6adaee7408","ios":"levelo://app?vid=107ddcf9-30e7-41d5-9c2b-1d6adaee7408"},"vehicle_type_id":"4","last_reported":1777046227,"current_range_meters":8000,"station_id":"ce4bgh92rcd13ifvqb50","pricing_plan_id":"cebpf4jnsgd1na2vs0mg"},{"bike_id":"5f94d5c0-543c-4fe7-a034-081c158716f0","system_id":"levelo_inurba_marseille","lat":43.29027,"lon":5.38633,"is_reserved":false,"is_disabled":false,"rental_uris":{"android":"levelo://app?vid=5f94d5c0-543c-4fe7-a034-081c158716f0","ios":"levelo://app?vid=5f94d5c0-543c-4fe7-a034-081c158716f0"},"vehicle_type_id":"4","last_reported":1777046227,"current_range_meters":8000,"station_id":"ce4bh4p2rcd13ifvqe0g","pricing_plan_id":"cebpf4jnsgd1na2vs0mg"},{"bike_id":"fefb58cb-a447-4beb-bc01-c814e089e0ee","system_id":"levelo_inurba_marseille","lat":43.28404,"lon":5.34971,"is_reserved":false,"is_disabled":false,"rental_uris":{"android":"levelo://app?vid=fefb58cb-a447-4beb-bc01-c814e089e0ee","ios":"levelo://app?vid=fefb58cb-a447-4beb-bc01-c814e089e0ee"},"vehicle_type_id":"4","last_reported":1777046227,"current_range_meters":8000,"station_id":"ce4bhbh2rcd13ifvqepg","pricing_plan_id":"cebpf4jnsgd1na2vs0mg"},{"bike_id":"feb32492-c682-40ce-a486-b3128ef279f4","system_id":"levelo_inurba_marseille","lat":43.299675,"lon":5.384783,"is_reserved":false,"is_disabled":true,"rental_uris":{"android":"levelo://app?vid=feb32492-c682-40ce-a486-b3128ef279f4","ios":"levelo://app?vid=feb32492-c682-40ce-a486-b3128ef279f4"},"vehicle_type_id":"4","last_reported":1777046227,"current_range_meters":8400,"station_id":"ce4bho92rcd13ifvqh3g","pricing_plan_id":"cebpf4jnsgd1na2vs0mg"},{"bike_id":"e2727d59-61bb-4d5b-a861-f70cac028b58","system_id":"levelo_inurba_marseille","lat":43.29027,"lon":5.38633,"is_reserved":false,"is_disabled":false,"rental_uris":{"android":"levelo://app?vid=e2727d59-61bb-4d5b-a861-f70cac028b58","ios":"levelo://app?vid=e2727d59-61bb-4d5b-a861-f70cac028b58"},"vehicle_type_id":"4","last_reported":1777046227,"current_range_meters":8400,"station_id":"ce4bh4p2rcd13ifvqe0g","pricing_plan_id":"cebpf4jnsgd1na2vs0mg"},{"bike_id":"64a4b08b-a104-498b-b710-8a456a1d974f","system_id":"levelo_inurba_marseille","lat":43.2842,"lon":5.34978,"is_reserved":false,"is_disabled":false,"rental_uris":{"android":"levelo://app?vid=64a4b08b-a104-498b-b710-8a456a1d974f","ios":"levelo://app?vid=64a4b08b-a104-498b-b710-8a456a1d974f"},"vehicle_type_id":"4","last_reported":1777046227,"current_range_meters":8400,"station_id":"ce4bhbh2rcd13ifvqepg","pricing_plan_id":"cebpf4jnsgd1na2vs0mg"},{"bike_id":"e6be81da-81b8-4383-a276-cd00117d75af","system_id":"levelo_inurba_marseille","lat":43.24397,"lon":5.37062,"is_reserved":false,"is_disabled":false,"rental_uris":{"android":"levelo://app?vid=e6be81da-81b8-4383-a276-cd00117d75af","ios":"levelo://app?vid=e6be81da-81b8-4383-a276-cd00117d75af"},"vehicle_type_id":"4","last_reported":1777046227,"current_range_meters":8400,"station_id":"ce4bhhh2rcd13ifvqfk0","pricing_plan_id":"cebpf4jnsgd1na2vs0mg"},{"bike_id":"7a2f3cdf-8047-459f-a910-224a3bbb2f42","system_id":"levelo_inurba_marseille","lat":43.25811,"lon":5.39449,"is_reserved":false,"is_disabled":false,"rental_uris":{"android":"levelo://app?vid=7a2f3cdf-8047-459f-a910-224a3bbb2f42","ios":"levelo://app?vid=7a2f3cdf-8047-459f-a910-224a3bbb2f42"},"vehicle_type_id":"4","last_reported":1777046227,"current_range_meters":8400,"station_id":"ce4bhip2rcd13ifvqft0","pricing_plan_id":"cebpf4jnsgd1na2vs0mg"},{"bike_id":"3537cfd1-1ee3-4718-99d1-b079cff1b3a9","system_id":"levelo_inurba_marseille","lat":43.3174,"lon":5.39033,"is_reserved":false,"is_disabled":false,"rental_uris":{"android":"levelo://app?vid=3537cfd1-1ee3-4718-99d1-b079cff1b3a9","ios":"levelo://app?vid=3537cfd1-1ee3-4718-99d1-b079cff1b3a9"},"vehicle_type_id":"4","last_reported":1777046227,"current_range_meters":8400,"station_id":"ce4bhqp2rcd13ifvqhng","pricing_plan_id":"cebpf4jnsgd1na2vs0mg"},{"bike_id":"f2c80407-8b21-495f-97fd-d3ab2cfa4114","system_id":"levelo_inurba_marseille","lat":43.29825,"lon":5.38132,"is_reserved":false,"is_disabled":false,"rental_uris":{"android":"levelo://app?vid=f2c80407-8b21-495f-97fd-d3ab2cfa4114","ios":"levelo://app?vid=f2c80407-8b21-495f-97fd-d3ab2cfa4114"},"vehicle_type_id":"4","last_reported":1777046227,"current_range_meters":8400,"station_id":"ce4bgip2rcd13ifvqbb0","pricing_plan_id":"cebpf4jnsgd1na2vs0mg"},{"bike_id":"951e88d3-77e8-46e9-b3e9-72966187bedd","system_id":"levelo_inurba_marseille","lat":43.29202,"lon":5.39323,"is_reserved":false,"is_disabled":false,"rental_uris":{"android":"levelo://app?vid=951e88d3-77e8-46e9-b3e9-72966187bedd","ios":"levelo://app?vid=951e88d3-77e8-46e9-b3e9-72966187bedd"},"vehicle_type_id":"4","last_reported":1777046227,"current_range_meters":8400,"station_id":"ce4bh192rcd13ifvqdd0","pricing_plan_id":"cebpf4jnsgd1na2vs0mg"},{"bike_id":"6683f1c1-5438-4145-9f5d-8b7a78196c6b","system_id":"levelo_inurba_marseille","lat":43.28239,"lon":5.35068,"is_reserved":false,"is_disabled":false,"rental_uris":{"android":"levelo://app?vid=6683f1c1-5438-4145-9f5d-8b7a78196c6b","ios":"levelo://app?vid=6683f1c1-5438-4145-9f5d-8b7a78196c6b"},"vehicle_type_id":"4","last_reported":1777046227,"current_range_meters":8400,"station_id":"ce4bhbp2rcd13ifvqerg","pricing_plan_id":"cebpf4jnsgd1na2vs0mg"},{"bike_id":"80342a75-5d42-4353-ab98-a43adf7e0d83","system_id":"levelo_inurba_marseille","lat":43.29976,"lon":5.38506,"is_reserved":false,"is_disabled":false,"rental_uris":{"android":"levelo://app?vid=80342a75-5d42-4353-ab98-a43adf7e0d83","ios":"levelo://app?vid=80342a75-5d42-4353-ab98-a43adf7e0d83"},"vehicle_type_id":"4","last_reported":1777046227,"current_range_meters":8400,"station_id":"ce4bgj92rcd13ifvqbd0","pricing_plan_id":"cebpf4jnsgd1na2vs0mg"},{"bike_id":"8b8b5db3-e95a-497f-b84a-b89a12682ca4","system_id":"levelo_inurba_marseille","lat":43.29806,"lon":5.44074,"is_reserved":false,"is_disabled":false,"rental_uris":{"android":"levelo://app?vid=8b8b5db3-e95a-497f-b84a-b89a12682ca4","ios":"levelo://app?vid=8b8b5db3-e95a-497f-b84a-b89a12682ca4"},"vehicle_type_id":"4","last_reported":1777046227,"current_range_meters":8400,"station_id":"st_d3jp68qikq2c7381ktn0","pricing_plan_id":"cebpf4jnsgd1na2vs0mg"},{"bike_id":"c7ac0306-6afc-4781-8692-f962ddfe1a23","system_id":"levelo_inurba_marseille","lat":43.32345,"lon":5.36734,"is_reserved":false,"is_disabled":false,"rental_uris":{"android":"levelo://app?vid=c7ac0306-6afc-4781-8692-f962ddfe1a23","ios":"levelo://app?vid=c7ac0306-6afc-4781-8692-f962ddfe1a23"},"vehicle_type_id":"4","last_reported":1777046227,"current_range_meters":8400,"station_id":"ce4bhsh2rcd13ifvqi2g","pricing_plan_id":"cebpf4jnsgd1na2vs0mg"},{"bike_id":"31846502-7c22-4f7c-9cc0-12a00e0f31f0","system_id":"levelo_inurba_marseille","lat":43.29693,"lon":5.37666,"is_reserved":false,"is_disabled":false,"rental_uris":{"android":"levelo://app?vid=31846502-7c22-4f7c-9cc0-12a00e0f31f0","ios":"levelo://app?vid=31846502-7c22-4f7c-9cc0-12a00e0f31f0"},"vehicle_type_id":"4","last_reported":1777046227,"current_range_meters":8400,"station_id":"ce4bgkh2rcd13ifvqbl0","pricing_plan_id":"cebpf4jnsgd1na2vs0mg"},{"bike_id":"de6e57eb-ac14-4b77-8509-a1faf81dcaec","system_id":"levelo_inurba_marseille","lat":43.2841,"lon":5.34971,"is_reserved":false,"is_disabled":false,"rental_uris":{"android":"levelo://app?vid=de6e57eb-ac14-4b77-8509-a1faf81dcaec","ios":"levelo://app?vid=de6e57eb-ac14-4b77-8509-a1faf81dcaec"},"vehicle_type_id":"4","last_reported":1777046227,"current_range_meters":8400,"station_id":"ce4bhbh2rcd13ifvqepg","pricing_plan_id":"cebpf4jnsgd1na2vs0mg"},{"bike_id":"e6db2721-c137-4c31-809a-09662d171f64","system_id":"levelo_inurba_marseille","lat":43.30591,"lon":5.39362,"is_reserved":false,"is_disabled":false,"rental_uris":{"android":"levelo://app?vid=e6db2721-c137-4c31-809a-09662d171f64","ios":"levelo://app?vid=e6db2721-c137-4c31-809a-09662d171f64"},"vehicle_type_id":"4","last_reported":1777046227,"current_range_meters":8800,"station_id":"ce4bh0p2rcd13ifvqd80","pricing_plan_id":"cebpf4jnsgd1na2vs0mg"},{"bike_id":"ccd83742-1e69-4c4f-a4cb-85bdade33dc0","system_id":"levelo_inurba_marseille","lat":43.29817,"lon":5.40388,"is_reserved":false,"is_disabled":false,"rental_uris":{"android":"levelo://app?vid=ccd83742-1e69-4c4f-a4cb-85bdade33dc0","ios":"levelo://app?vid=ccd83742-1e69-4c4f-a4cb-85bdade33dc0"},"vehicle_type_id":"4","last_reported":1777046227,"current_range_meters":8800,"station_id":"ce4bh112rcd13ifvqd90","pricing_plan_id":"cebpf4jnsgd1na2vs0mg"},{"bike_id":"ef1780af-1aea-4e08-82c2-da4d0be385bf","system_id":"levelo_inurba_marseille","lat":43.29018,"lon":5.36086,"is_reserved":false,"is_disabled":false,"rental_uris":{"android":"levelo://app?vid=ef1780af-1aea-4e08-82c2-da4d0be385bf","ios":"levelo://app?vid=ef1780af-1aea-4e08-82c2-da4d0be385bf"},"vehicle_type_id":"4","last_reported":1777046227,"current_range_meters":8800,"station_id":"","pricing_plan_id":"cebpf4jnsgd1na2vs0mg"},{"bike_id":"65f1fe44-bc41-45e8-960a-3f4f8b76b057","system_id":"levelo_inurba_marseille","lat":43.28952,"lon":5.38429,"is_reserved":false,"is_disabled":false,"rental_uris":{"android":"levelo://app?vid=65f1fe44-bc41-45e8-960a-3f4f8b76b057","ios":"levelo://app?vid=65f1fe44-bc41-45e8-960a-3f4f8b76b057"},"vehicle_type_id":"4","last_reported":1777046227,"current_range_meters":8800,"station_id":"ce4bh612rcd13ifvqe6g","pricing_plan_id":"cebpf4jnsgd1na2vs0mg"},{"bike_id":"4af5f932-71ad-4954-ac3b-fecb2a352994","system_id":"levelo_inurba_marseille","lat":43.32331,"lon":5.36775,"is_reserved":false,"is_disabled":false,"rental_uris":{"android":"levelo://app?vid=4af5f932-71ad-4954-ac3b-fecb2a352994","ios":"levelo://app?vid=4af5f932-71ad-4954-ac3b-fecb2a352994"},"vehicle_type_id":"4","last_reported":1777046227,"current_range_meters":8800,"station_id":"ce4bhsh2rcd13ifvqi2g","pricing_plan_id":"cebpf4jnsgd1na2vs0mg"},{"bike_id":"ad1189e4-d5b6-4f94-9b4d-62bbcbac5f29","system_id":"levelo_inurba_marseille","lat":43.28196,"lon":5.4266,"is_reserved":false,"is_disabled":false,"rental_uris":{"android":"levelo://app?vid=ad1189e4-d5b6-4f94-9b4d-62bbcbac5f29","ios":"levelo://app?vid=ad1189e4-d5b6-4f94-9b4d-62bbcbac5f29"},"vehicle_type_id":"4","last_reported":1777046227,"current_range_meters":8800,"station_id":"ce4bhnh2rcd13ifvqgug","pricing_plan_id":"cebpf4jnsgd1na2vs0mg"},{"bike_id":"6418f81e-7646-462d-b805-a1f57d46b3b3","system_id":"levelo_inurba_marseille","lat":43.31326,"lon":5.3969,"is_reserved":false,"is_disabled":false,"rental_uris":{"android":"levelo://app?vid=6418f81e-7646-462d-b805-a1f57d46b3b3","ios":"levelo://app?vid=6418f81e-7646-462d-b805-a1f57d46b3b3"},"vehicle_type_id":"4","last_reported":1777046227,"current_range_meters":8800,"station_id":"ce4bgvp2rcd13ifvqcu0","pricing_plan_id":"cebpf4jnsgd1na2vs0mg"},{"bike_id":"c0d6ca2a-5146-4487-9e83-e9b153ee8cf7","system_id":"levelo_inurba_marseille","lat":43.31731,"lon":5.42404,"is_reserved":false,"is_disabled":false,"rental_uris":{"android":"levelo://app?vid=c0d6ca2a-5146-4487-9e83-e9b153ee8cf7","ios":"levelo://app?vid=c0d6ca2a-5146-4487-9e83-e9b153ee8cf7"},"vehicle_type_id":"4","last_reported":1777046227,"current_range_meters":8800,"station_id":"ce4bhp92rcd13ifvqhbg","pricing_plan_id":"cebpf4jnsgd1na2vs0mg"},{"bike_id":"261b4d20-3fce-4a9a-b1df-f7d9447249df","system_id":"levelo_inurba_marseille","lat":43.28497,"lon":5.48402,"is_reserved":false,"is_disabled":false,"rental_uris":{"android":"levelo://app?vid=261b4d20-3fce-4a9a-b1df-f7d9447249df","ios":"levelo://app?vid=261b4d20-3fce-4a9a-b1df-f7d9447249df"},"vehicle_type_id":"4","last_reported":1777046227,"current_range_meters":8800,"station_id":"st_d3svhcjqgbts73a3dn0g","pricing_plan_id":"cebpf4jnsgd1na2vs0mg"},{"bike_id":"312ceb2b-f28e-46fb-b88a-f5b53355107d","system_id":"levelo_inurba_marseille","lat":43.26477,"lon":5.37324,"is_reserved":false,"is_disabled":false,"rental_uris":{"android":"levelo://app?vid=312ceb2b-f28e-46fb-b88a-f5b53355107d","ios":"levelo://app?vid=312ceb2b-f28e-46fb-b88a-f5b53355107d"},"vehicle_type_id":"4","last_reported":1777046227,"current_range_meters":8800,"station_id":"ce4bhg12rcd13ifvqf70","pricing_plan_id":"cebpf4jnsgd1na2vs0mg"},{"bike_id":"2273e8b6-9592-4bbe-8072-82c8f93de92b","system_id":"levelo_inurba_marseille","lat":43.29955,"lon":5.3651,"is_reserved":false,"is_disabled":false,"rental_uris":{"android":"levelo://app?vid=2273e8b6-9592-4bbe-8072-82c8f93de92b","ios":"levelo://app?vid=2273e8b6-9592-4bbe-8072-82c8f93de92b"},"vehicle_type_id":"4","last_reported":1777046227,"current_range_meters":8800,"station_id":"","pricing_plan_id":"cebpf4jnsgd1na2vs0mg"},{"bike_id":"4ce71f71-1a28-4592-bd5c-1940ff667306","system_id":"levelo_inurba_marseille","lat":43.30908,"lon":5.3684,"is_reserved":false,"is_disabled":false,"rental_uris":{"android":"levelo://app?vid=4ce71f71-1a28-4592-bd5c-1940ff667306","ios":"levelo://app?vid=4ce71f71-1a28-4592-bd5c-1940ff667306"},"vehicle_type_id":"4","last_reported":1777046227,"current_range_meters":9200,"station_id":"ce4bgn92rcd13ifvqbvg","pricing_plan_id":"cebpf4jnsgd1na2vs0mg"},{"bike_id":"d4228963-b3dc-41d2-8d8a-98ee7f6180ab","system_id":"levelo_inurba_marseille","lat":43.29982,"lon":5.38478,"is_reserved":false,"is_disabled":false,"rental_uris":{"android":"levelo://app?vid=d4228963-b3dc-41d2-8d8a-98ee7f6180ab","ios":"levelo://app?vid=d4228963-b3dc-41d2-8d8a-98ee7f6180ab"},"vehicle_type_id":"4","last_reported":1777046227,"current_range_meters":9200,"station_id":"ce4bgj92rcd13ifvqbd0","pricing_plan_id":"cebpf4jnsgd1na2vs0mg"},{"bike_id":"6a382a26-93df-4b4f-99b6-0161544321ed","system_id":"levelo_inurba_marseille","lat":43.28284,"lon":5.35,"is_reserved":false,"is_disabled":true,"rental_uris":{"android":"levelo://app?vid=6a382a26-93df-4b4f-99b6-0161544321ed","ios":"levelo://app?vid=6a382a26-93df-4b4f-99b6-0161544321ed"},"vehicle_type_id":"4","last_reported":1777046227,"current_range_meters":9200,"station_id":"ce4bhbp2rcd13ifvqerg","pricing_plan_id":"cebpf4jnsgd1na2vs0mg"},{"bike_id":"f5179ffb-9afb-4f8f-9c69-3227b42c9dec","system_id":"levelo_inurba_marseille","lat":43.30891,"lon":5.39661,"is_reserved":false,"is_disabled":false,"rental_uris":{"android":"levelo://app?vid=f5179ffb-9afb-4f8f-9c69-3227b42c9dec","ios":"levelo://app?vid=f5179ffb-9afb-4f8f-9c69-3227b42c9dec"},"vehicle_type_id":"4","last_reported":1777046227,"current_range_meters":9200,"station_id":"ce4bh012rcd13ifvqcv0","pricing_plan_id":"cebpf4jnsgd1na2vs0mg"},{"bike_id":"4e7f60dc-2079-4f51-9d09-01d31cdd2f9b","system_id":"levelo_inurba_marseille","lat":43.24669,"lon":5.43154,"is_reserved":false,"is_disabled":false,"rental_uris":{"android":"levelo://app?vid=4e7f60dc-2079-4f51-9d09-01d31cdd2f9b","ios":"levelo://app?vid=4e7f60dc-2079-4f51-9d09-01d31cdd2f9b"},"vehicle_type_id":"4","last_reported":1777046227,"current_range_meters":9200,"station_id":"st_d2m6c4gdas8pm72e190g","pricing_plan_id":"cebpf4jnsgd1na2vs0mg"},{"bike_id":"bac171f4-6300-47c3-8c92-fad3cfcf176f","system_id":"levelo_inurba_marseille","lat":43.31691,"lon":5.40477,"is_reserved":false,"is_disabled":false,"rental_uris":{"android":"levelo://app?vid=bac171f4-6300-47c3-8c92-fad3cfcf176f","ios":"levelo://app?vid=bac171f4-6300-47c3-8c92-fad3cfcf176f"},"vehicle_type_id":"4","last_reported":1777046227,"current_range_meters":9200,"station_id":"ce4bh012rcd13ifvqd00","pricing_plan_id":"cebpf4jnsgd1na2vs0mg"},{"bike_id":"ff6ffc0d-27e4-420a-b7a3-7f78ebd19bc2","system_id":"levelo_inurba_marseille","lat":43.30903,"lon":5.37197,"is_reserved":false,"is_disabled":false,"rental_uris":{"android":"levelo://app?vid=ff6ffc0d-27e4-420a-b7a3-7f78ebd19bc2","ios":"levelo://app?vid=ff6ffc0d-27e4-420a-b7a3-7f78ebd19bc2"},"vehicle_type_id":"4","last_reported":1777046227,"current_range_meters":9200,"station_id":"ce4bguh2rcd13ifvqckg","pricing_plan_id":"cebpf4jnsgd1na2vs0mg"},{"bike_id":"1370c3f0-6074-43de-a93b-f7f87c829b3b","system_id":"levelo_inurba_marseille","lat":43.2912,"lon":5.39985,"is_reserved":false,"is_disabled":false,"rental_uris":{"android":"levelo://app?vid=1370c3f0-6074-43de-a93b-f7f87c829b3b","ios":"levelo://app?vid=1370c3f0-6074-43de-a93b-f7f87c829b3b"},"vehicle_type_id":"4","last_reported":1777046227,"current_range_meters":9200,"station_id":"","pricing_plan_id":"cebpf4jnsgd1na2vs0mg"},{"bike_id":"01892094-0fb8-45d9-a64d-b66fd8276b83","system_id":"levelo_inurba_marseille","lat":43.303,"lon":5.37717,"is_reserved":false,"is_disabled":false,"rental_uris":{"android":"levelo://app?vid=01892094-0fb8-45d9-a64d-b66fd8276b83","ios":"levelo://app?vid=01892094-0fb8-45d9-a64d-b66fd8276b83"},"vehicle_type_id":"4","last_reported":1777046227,"current_range_meters":9200,"station_id":"ce4bguh2rcd13ifvqcj0","pricing_plan_id":"cebpf4jnsgd1na2vs0mg"},{"bike_id":"28361405-e0ba-4dbe-86b3-9d0e5aedba81","system_id":"levelo_inurba_marseille","lat":43.23783,"lon":5.36633,"is_reserved":false,"is_disabled":false,"rental_uris":{"android":"levelo://app?vid=28361405-e0ba-4dbe-86b3-9d0e5aedba81","ios":"levelo://app?vid=28361405-e0ba-4dbe-86b3-9d0e5aedba81"},"vehicle_type_id":"4","last_reported":1777046227,"current_range_meters":9200,"station_id":"st_d3nk18o9ro0c73en2l3g","pricing_plan_id":"cebpf4jnsgd1na2vs0mg"},{"bike_id":"d1ec6f18-8858-4e37-aa2a-1711509c038f","system_id":"levelo_inurba_marseille","lat":43.29689,"lon":5.3661,"is_reserved":false,"is_disabled":false,"rental_uris":{"android":"levelo://app?vid=d1ec6f18-8858-4e37-aa2a-1711509c038f","ios":"levelo://app?vid=d1ec6f18-8858-4e37-aa2a-1711509c038f"},"vehicle_type_id":"4","last_reported":1777046227,"current_range_meters":9200,"station_id":"ce4bgn12rcd13ifvqbt0","pricing_plan_id":"cebpf4jnsgd1na2vs0mg"},{"bike_id":"2d828892-00dd-4226-a99b-62a569e9cc19","system_id":"levelo_inurba_marseille","lat":43.28854,"lon":5.35874,"is_reserved":false,"is_disabled":false,"rental_uris":{"android":"levelo://app?vid=2d828892-00dd-4226-a99b-62a569e9cc19","ios":"levelo://app?vid=2d828892-00dd-4226-a99b-62a569e9cc19"},"vehicle_type_id":"4","last_reported":1777046227,"current_range_meters":9200,"station_id":"ce4bhb12rcd13ifvqem0","pricing_plan_id":"cebpf4jnsgd1na2vs0mg"},{"bike_id":"6d07b77d-0a73-4737-8a87-a0c618191315","system_id":"levelo_inurba_marseille","lat":43.30462,"lon":5.37901,"is_reserved":false,"is_disabled":false,"rental_uris":{"android":"levelo://app?vid=6d07b77d-0a73-4737-8a87-a0c618191315","ios":"levelo://app?vid=6d07b77d-0a73-4737-8a87-a0c618191315"},"vehicle_type_id":"4","last_reported":1777046227,"current_range_meters":9200,"station_id":"ce4bgup2rcd13ifvqcn0","pricing_plan_id":"cebpf4jnsgd1na2vs0mg"},{"bike_id":"5943059b-232d-4deb-8b3a-c65352f04f61","system_id":"levelo_inurba_marseille","lat":43.27373,"lon":5.36248,"is_reserved":false,"is_disabled":false,"rental_uris":{"android":"levelo://app?vid=5943059b-232d-4deb-8b3a-c65352f04f61","ios":"levelo://app?vid=5943059b-232d-4deb-8b3a-c65352f04f61"},"vehicle_type_id":"4","last_reported":1777046227,"current_range_meters":9200,"station_id":"ce4bhbh2rcd13ifvqeo0","pricing_plan_id":"cebpf4jnsgd1na2vs0mg"},{"bike_id":"ed7d443d-3e16-44df-9b7e-a1f87fd35ba5","system_id":"levelo_inurba_marseille","lat":43.292607,"lon":5.409016,"is_reserved":false,"is_disabled":false,"rental_uris":{"android":"levelo://app?vid=ed7d443d-3e16-44df-9b7e-a1f87fd35ba5","ios":"levelo://app?vid=ed7d443d-3e16-44df-9b7e-a1f87fd35ba5"},"vehicle_type_id":"4","last_reported":1777046227,"current_range_meters":9200,"station_id":"ce4bh192rcd13ifvqdc0","pricing_plan_id":"cebpf4jnsgd1na2vs0mg"},{"bike_id":"59233170-772d-444c-8e76-16e5cd90f10b","system_id":"levelo_inurba_marseille","lat":43.2604,"lon":5.39403,"is_reserved":false,"is_disabled":false,"rental_uris":{"android":"levelo://app?vid=59233170-772d-444c-8e76-16e5cd90f10b","ios":"levelo://app?vid=59233170-772d-444c-8e76-16e5cd90f10b"},"vehicle_type_id":"4","last_reported":1777046227,"current_range_meters":9200,"station_id":"ce4bhh92rcd13ifvqfj0","pricing_plan_id":"cebpf4jnsgd1na2vs0mg"},{"bike_id":"4d5b4915-5fc0-4782-a3a4-e445cc2cf470","system_id":"levelo_inurba_marseille","lat":43.29871,"lon":5.42101,"is_reserved":false,"is_disabled":false,"rental_uris":{"android":"levelo://app?vid=4d5b4915-5fc0-4782-a3a4-e445cc2cf470","ios":"levelo://app?vid=4d5b4915-5fc0-4782-a3a4-e445cc2cf470"},"vehicle_type_id":"4","last_reported":1777046227,"current_range_meters":9200,"station_id":"st_d6tc004otcvc738tfe70","pricing_plan_id":"cebpf4jnsgd1na2vs0mg"},{"bike_id":"49b7c574-cc22-4468-b233-d66d360fda6f","system_id":"levelo_inurba_marseille","lat":43.25833,"lon":5.39851,"is_reserved":false,"is_disabled":false,"rental_uris":{"android":"levelo://app?vid=49b7c574-cc22-4468-b233-d66d360fda6f","ios":"levelo://app?vid=49b7c574-cc22-4468-b233-d66d360fda6f"},"vehicle_type_id":"4","last_reported":1777046227,"current_range_meters":9200,"station_id":"","pricing_plan_id":"cebpf4jnsgd1na2vs0mg"},{"bike_id":"aa3e87f2-e4af-4c49-b26c-1fc0652e5833","system_id":"levelo_inurba_marseille","lat":43.3108,"lon":5.4243,"is_reserved":false,"is_disabled":false,"rental_uris":{"android":"levelo://app?vid=aa3e87f2-e4af-4c49-b26c-1fc0652e5833","ios":"levelo://app?vid=aa3e87f2-e4af-4c49-b26c-1fc0652e5833"},"vehicle_type_id":"4","last_reported":1777046227,"current_range_meters":9200,"station_id":"ce4bhp92rcd13ifvqhag","pricing_plan_id":"cebpf4jnsgd1na2vs0mg"},{"bike_id":"fea74096-b48c-418b-a53e-23723892d4ec","system_id":"levelo_inurba_marseille","lat":43.29505,"lon":5.43278,"is_reserved":false,"is_disabled":false,"rental_uris":{"android":"levelo://app?vid=fea74096-b48c-418b-a53e-23723892d4ec","ios":"levelo://app?vid=fea74096-b48c-418b-a53e-23723892d4ec"},"vehicle_type_id":"4","last_reported":1777046227,"current_range_meters":9200,"station_id":"st_d3j5ugp08ojc73fj9d10","pricing_plan_id":"cebpf4jnsgd1na2vs0mg"},{"bike_id":"ac31a30a-468c-4ed6-a9e2-ad29f194e3a5","system_id":"levelo_inurba_marseille","lat":43.23911,"lon":5.37479,"is_reserved":false,"is_disabled":false,"rental_uris":{"android":"levelo://app?vid=ac31a30a-468c-4ed6-a9e2-ad29f194e3a5","ios":"levelo://app?vid=ac31a30a-468c-4ed6-a9e2-ad29f194e3a5"},"vehicle_type_id":"4","last_reported":1777046227,"current_range_meters":9200,"station_id":"st_d6sm7csbq4hs73f8fpjg","pricing_plan_id":"cebpf4jnsgd1na2vs0mg"},{"bike_id":"ebf4bd81-18d0-4300-ba98-4ecb924642b0","system_id":"levelo_inurba_marseille","lat":43.2679,"lon":5.38429,"is_reserved":false,"is_disabled":false,"rental_uris":{"android":"levelo://app?vid=ebf4bd81-18d0-4300-ba98-4ecb924642b0","ios":"levelo://app?vid=ebf4bd81-18d0-4300-ba98-4ecb924642b0"},"vehicle_type_id":"4","last_reported":1777046227,"current_range_meters":9200,"station_id":"","pricing_plan_id":"cebpf4jnsgd1na2vs0mg"},{"bike_id":"1fca75f8-441b-4688-b894-ff3c362d408b","system_id":"levelo_inurba_marseille","lat":43.2587,"lon":5.399,"is_reserved":false,"is_disabled":false,"rental_uris":{"android":"levelo://app?vid=1fca75f8-441b-4688-b894-ff3c362d408b","ios":"levelo://app?vid=1fca75f8-441b-4688-b894-ff3c362d408b"},"vehicle_type_id":"4","last_reported":1777046227,"current_range_meters":9200,"station_id":"ce4bhl92rcd13ifvqghg","pricing_plan_id":"cebpf4jnsgd1na2vs0mg"},{"bike_id":"788c1ed0-a924-470f-af26-e086f7044989","system_id":"levelo_inurba_marseille","lat":43.28619,"lon":5.35099,"is_reserved":false,"is_disabled":false,"rental_uris":{"android":"levelo://app?vid=788c1ed0-a924-470f-af26-e086f7044989","ios":"levelo://app?vid=788c1ed0-a924-470f-af26-e086f7044989"},"vehicle_type_id":"4","last_reported":1777046227,"current_range_meters":9200,"station_id":"ce4bhch2rcd13ifvqeug","pricing_plan_id":"cebpf4jnsgd1na2vs0mg"},{"bike_id":"ffa0ba9f-688d-44ec-be0f-601f40b23a16","system_id":"levelo_inurba_marseille","lat":43.28923,"lon":5.36636,"is_reserved":false,"is_disabled":false,"rental_uris":{"android":"levelo://app?vid=ffa0ba9f-688d-44ec-be0f-601f40b23a16","ios":"levelo://app?vid=ffa0ba9f-688d-44ec-be0f-601f40b23a16"},"vehicle_type_id":"4","last_reported":1777046227,"current_range_meters":9200,"station_id":"ce4bhap2rcd13ifvqek0","pricing_plan_id":"cebpf4jnsgd1na2vs0mg"},{"bike_id":"d0639146-ebfb-455a-9e48-184bd4e83fb2","system_id":"levelo_inurba_marseille","lat":43.27205,"lon":5.3918,"is_reserved":false,"is_disabled":false,"rental_uris":{"android":"levelo://app?vid=d0639146-ebfb-455a-9e48-184bd4e83fb2","ios":"levelo://app?vid=d0639146-ebfb-455a-9e48-184bd4e83fb2"},"vehicle_type_id":"4","last_reported":1777046227,"current_range_meters":9600,"station_id":"ce4bhhp2rcd13ifvqfm0","pricing_plan_id":"cebpf4jnsgd1na2vs0mg"},{"bike_id":"0ce641a1-ca62-4f05-b894-4a72f77b98f2","system_id":"levelo_inurba_marseille","lat":43.32272,"lon":5.36668,"is_reserved":false,"is_disabled":false,"rental_uris":{"android":"levelo://app?vid=0ce641a1-ca62-4f05-b894-4a72f77b98f2","ios":"levelo://app?vid=0ce641a1-ca62-4f05-b894-4a72f77b98f2"},"vehicle_type_id":"4","last_reported":1777046227,"current_range_meters":9600,"station_id":"","pricing_plan_id":"cebpf4jnsgd1na2vs0mg"},{"bike_id":"9e42963c-f00c-4ee2-aa99-f9961a5a96e2","system_id":"levelo_inurba_marseille","lat":43.29785,"lon":5.37103,"is_reserved":false,"is_disabled":false,"rental_uris":{"android":"levelo://app?vid=9e42963c-f00c-4ee2-aa99-f9961a5a96e2","ios":"levelo://app?vid=9e42963c-f00c-4ee2-aa99-f9961a5a96e2"},"vehicle_type_id":"4","last_reported":1777046227,"current_range_meters":9600,"station_id":"ce4bgop2rcd13ifvqc1g","pricing_plan_id":"cebpf4jnsgd1na2vs0mg"},{"bike_id":"86cf98f1-79b2-455f-be1a-53ecde8650e6","system_id":"levelo_inurba_marseille","lat":43.25077,"lon":5.3947,"is_reserved":false,"is_disabled":false,"rental_uris":{"android":"levelo://app?vid=86cf98f1-79b2-455f-be1a-53ecde8650e6","ios":"levelo://app?vid=86cf98f1-79b2-455f-be1a-53ecde8650e6"},"vehicle_type_id":"4","last_reported":1777046227,"current_range_meters":9600,"station_id":"ce4bhm12rcd13ifvqgkg","pricing_plan_id":"cebpf4jnsgd1na2vs0mg"},{"bike_id":"e823ebc2-0ba4-4a28-8e44-b1a52b2626ca","system_id":"levelo_inurba_marseille","lat":43.28848,"lon":5.37678,"is_reserved":false,"is_disabled":false,"rental_uris":{"android":"levelo://app?vid=e823ebc2-0ba4-4a28-8e44-b1a52b2626ca","ios":"levelo://app?vid=e823ebc2-0ba4-4a28-8e44-b1a52b2626ca"},"vehicle_type_id":"4","last_reported":1777046227,"current_range_meters":9600,"station_id":"","pricing_plan_id":"cebpf4jnsgd1na2vs0mg"},{"bike_id":"438ef943-6365-44b4-889f-44915622d8c6","system_id":"levelo_inurba_marseille","lat":43.31147,"lon":5.37771,"is_reserved":false,"is_disabled":false,"rental_uris":{"android":"levelo://app?vid=438ef943-6365-44b4-889f-44915622d8c6","ios":"levelo://app?vid=438ef943-6365-44b4-889f-44915622d8c6"},"vehicle_type_id":"4","last_reported":1777046227,"current_range_meters":9600,"station_id":"ce4bgt92rcd13ifvqcg0","pricing_plan_id":"cebpf4jnsgd1na2vs0mg"},{"bike_id":"517b465b-1cbe-47c0-8062-1f1f68f9139f","system_id":"levelo_inurba_marseille","lat":43.2319,"lon":5.35542,"is_reserved":false,"is_disabled":false,"rental_uris":{"android":"levelo://app?vid=517b465b-1cbe-47c0-8062-1f1f68f9139f","ios":"levelo://app?vid=517b465b-1cbe-47c0-8062-1f1f68f9139f"},"vehicle_type_id":"4","last_reported":1777046227,"current_range_meters":9600,"station_id":"ce4bhu92rcd13ifvqi70","pricing_plan_id":"cebpf4jnsgd1na2vs0mg"},{"bike_id":"1d368fe1-0c8f-4a40-864c-b54082c58fa1","system_id":"levelo_inurba_marseille","lat":43.33541,"lon":5.37399,"is_reserved":false,"is_disabled":false,"rental_uris":{"android":"levelo://app?vid=1d368fe1-0c8f-4a40-864c-b54082c58fa1","ios":"levelo://app?vid=1d368fe1-0c8f-4a40-864c-b54082c58fa1"},"vehicle_type_id":"4","last_reported":1777046227,"current_range_meters":9600,"station_id":"","pricing_plan_id":"cebpf4jnsgd1na2vs0mg"},{"bike_id":"40661d47-e2c9-43ee-a8db-e367028a0f23","system_id":"levelo_inurba_marseille","lat":43.27432,"lon":5.39455,"is_reserved":false,"is_disabled":false,"rental_uris":{"android":"levelo://app?vid=40661d47-e2c9-43ee-a8db-e367028a0f23","ios":"levelo://app?vid=40661d47-e2c9-43ee-a8db-e367028a0f23"},"vehicle_type_id":"4","last_reported":1777046227,"current_range_meters":9600,"station_id":"ce4bhdp2rcd13ifvqf20","pricing_plan_id":"cebpf4jnsgd1na2vs0mg"},{"bike_id":"ce1c7b72-7d8f-4e3a-9653-f2440a839a82","system_id":"levelo_inurba_marseille","lat":43.26565,"lon":5.39028,"is_reserved":false,"is_disabled":false,"rental_uris":{"android":"levelo://app?vid=ce1c7b72-7d8f-4e3a-9653-f2440a839a82","ios":"levelo://app?vid=ce1c7b72-7d8f-4e3a-9653-f2440a839a82"},"vehicle_type_id":"4","last_reported":1777046227,"current_range_meters":9600,"station_id":"ce4bhe12rcd13ifvqf30","pricing_plan_id":"cebpf4jnsgd1na2vs0mg"},{"bike_id":"886828e3-ae32-47a4-a9ad-d146960797b6","system_id":"levelo_inurba_marseille","lat":43.27628,"lon":5.36112,"is_reserved":false,"is_disabled":false,"rental_uris":{"android":"levelo://app?vid=886828e3-ae32-47a4-a9ad-d146960797b6","ios":"levelo://app?vid=886828e3-ae32-47a4-a9ad-d146960797b6"},"vehicle_type_id":"4","last_reported":1777046227,"current_range_meters":9600,"station_id":"ce4bgj92rcd13ifvqbe0","pricing_plan_id":"cebpf4jnsgd1na2vs0mg"},{"bike_id":"0c964401-ae5f-4611-baef-5fd53b38f4e2","system_id":"levelo_inurba_marseille","lat":43.24668,"lon":5.38167,"is_reserved":false,"is_disabled":false,"rental_uris":{"android":"levelo://app?vid=0c964401-ae5f-4611-baef-5fd53b38f4e2","ios":"levelo://app?vid=0c964401-ae5f-4611-baef-5fd53b38f4e2"},"vehicle_type_id":"4","last_reported":1777046227,"current_range_meters":9600,"station_id":"ce4bhih2rcd13ifvqfr0","pricing_plan_id":"cebpf4jnsgd1na2vs0mg"},{"bike_id":"da7e4629-4059-4617-bcd1-f00f08c55fc0","system_id":"levelo_inurba_marseille","lat":43.24408,"lon":5.37033,"is_reserved":false,"is_disabled":false,"rental_uris":{"android":"levelo://app?vid=da7e4629-4059-4617-bcd1-f00f08c55fc0","ios":"levelo://app?vid=da7e4629-4059-4617-bcd1-f00f08c55fc0"},"vehicle_type_id":"4","last_reported":1777046227,"current_range_meters":9600,"station_id":"ce4bhhh2rcd13ifvqfk0","pricing_plan_id":"cebpf4jnsgd1na2vs0mg"},{"bike_id":"8abebcd0-d20e-46c1-a951-0f2cd38e2c84","system_id":"levelo_inurba_marseille","lat":43.26191,"lon":5.37442,"is_reserved":false,"is_disabled":false,"rental_uris":{"android":"levelo://app?vid=8abebcd0-d20e-46c1-a951-0f2cd38e2c84","ios":"levelo://app?vid=8abebcd0-d20e-46c1-a951-0f2cd38e2c84"},"vehicle_type_id":"4","last_reported":1777046227,"current_range_meters":9600,"station_id":"ce4bhgp2rcd13ifvqfc0","pricing_plan_id":"cebpf4jnsgd1na2vs0mg"},{"bike_id":"2150e900-bc36-4714-8063-0320eae925a9","system_id":"levelo_inurba_marseille","lat":43.23974,"lon":5.36664,"is_reserved":false,"is_disabled":false,"rental_uris":{"android":"levelo://app?vid=2150e900-bc36-4714-8063-0320eae925a9","ios":"levelo://app?vid=2150e900-bc36-4714-8063-0320eae925a9"},"vehicle_type_id":"4","last_reported":1777046227,"current_range_meters":9600,"station_id":"ce4bhi12rcd13ifvqfp0","pricing_plan_id":"cebpf4jnsgd1na2vs0mg"},{"bike_id":"f9fc9bbb-9a0c-4ccd-999f-88ac996e3654","system_id":"levelo_inurba_marseille","lat":43.27989,"lon":5.39037,"is_reserved":false,"is_disabled":false,"rental_uris":{"android":"levelo://app?vid=f9fc9bbb-9a0c-4ccd-999f-88ac996e3654","ios":"levelo://app?vid=f9fc9bbb-9a0c-4ccd-999f-88ac996e3654"},"vehicle_type_id":"4","last_reported":1777046227,"current_range_meters":9600,"station_id":"","pricing_plan_id":"cebpf4jnsgd1na2vs0mg"},{"bike_id":"541dbded-315f-4ca8-ac49-47fcb4294bb7","system_id":"levelo_inurba_marseille","lat":43.33547,"lon":5.37473,"is_reserved":false,"is_disabled":false,"rental_uris":{"android":"levelo://app?vid=541dbded-315f-4ca8-ac49-47fcb4294bb7","ios":"levelo://app?vid=541dbded-315f-4ca8-ac49-47fcb4294bb7"},"vehicle_type_id":"4","last_reported":1777046227,"current_range_meters":9600,"station_id":"st_d46tts09ee8s73dlu43g","pricing_plan_id":"cebpf4jnsgd1na2vs0mg"},{"bike_id":"6a64e07a-4d3c-4dc0-b03d-8d752bae0877","system_id":"levelo_inurba_marseille","lat":43.29242,"lon":5.36067,"is_reserved":false,"is_disabled":false,"rental_uris":{"android":"levelo://app?vid=6a64e07a-4d3c-4dc0-b03d-8d752bae0877","ios":"levelo://app?vid=6a64e07a-4d3c-4dc0-b03d-8d752bae0877"},"vehicle_type_id":"4","last_reported":1777046227,"current_range_meters":9600,"station_id":"ce4bhbh2rcd13ifvqeqg","pricing_plan_id":"cebpf4jnsgd1na2vs0mg"},{"bike_id":"9d01c92f-f20f-471a-8ef0-c9f8effe19dd","system_id":"levelo_inurba_marseille","lat":43.26197,"lon":5.37937,"is_reserved":false,"is_disabled":false,"rental_uris":{"android":"levelo://app?vid=9d01c92f-f20f-471a-8ef0-c9f8effe19dd","ios":"levelo://app?vid=9d01c92f-f20f-471a-8ef0-c9f8effe19dd"},"vehicle_type_id":"4","last_reported":1777046227,"current_range_meters":9600,"station_id":"ce4bhjp2rcd13ifvqg90","pricing_plan_id":"cebpf4jnsgd1na2vs0mg"},{"bike_id":"f9c20f80-af9b-4a43-9704-f9047f6b00ea","system_id":"levelo_inurba_marseille","lat":43.27372,"lon":5.36249,"is_reserved":false,"is_disabled":false,"rental_uris":{"android":"levelo://app?vid=f9c20f80-af9b-4a43-9704-f9047f6b00ea","ios":"levelo://app?vid=f9c20f80-af9b-4a43-9704-f9047f6b00ea"},"vehicle_type_id":"4","last_reported":1777046227,"current_range_meters":10000,"station_id":"ce4bhbh2rcd13ifvqeo0","pricing_plan_id":"cebpf4jnsgd1na2vs0mg"},{"bike_id":"df0df01a-1ce8-488f-a0b7-73cc7a834898","system_id":"levelo_inurba_marseille","lat":43.26954,"lon":5.38654,"is_reserved":false,"is_disabled":false,"rental_uris":{"android":"levelo://app?vid=df0df01a-1ce8-488f-a0b7-73cc7a834898","ios":"levelo://app?vid=df0df01a-1ce8-488f-a0b7-73cc7a834898"},"vehicle_type_id":"4","last_reported":1777046227,"current_range_meters":10000,"station_id":"ce4bhh92rcd13ifvqfh0","pricing_plan_id":"cebpf4jnsgd1na2vs0mg"},{"bike_id":"335d7250-451d-4620-bf87-cc5a457d5216","system_id":"levelo_inurba_marseille","lat":43.28595,"lon":5.38367,"is_reserved":false,"is_disabled":false,"rental_uris":{"android":"levelo://app?vid=335d7250-451d-4620-bf87-cc5a457d5216","ios":"levelo://app?vid=335d7250-451d-4620-bf87-cc5a457d5216"},"vehicle_type_id":"4","last_reported":1777046227,"current_range_meters":10000,"station_id":"","pricing_plan_id":"cebpf4jnsgd1na2vs0mg"},{"bike_id":"fdd6922c-b28a-4dc4-b4b6-3f16b5f24e89","system_id":"levelo_inurba_marseille","lat":43.27373,"lon":5.36262,"is_reserved":false,"is_disabled":false,"rental_uris":{"android":"levelo://app?vid=fdd6922c-b28a-4dc4-b4b6-3f16b5f24e89","ios":"levelo://app?vid=fdd6922c-b28a-4dc4-b4b6-3f16b5f24e89"},"vehicle_type_id":"4","last_reported":1777046227,"current_range_meters":10000,"station_id":"ce4bhbh2rcd13ifvqeo0","pricing_plan_id":"cebpf4jnsgd1na2vs0mg"},{"bike_id":"f01b33b4-d615-44f3-8c41-5a4c243a6920","system_id":"levelo_inurba_marseille","lat":43.35186,"lon":5.43938,"is_reserved":false,"is_disabled":false,"rental_uris":{"android":"levelo://app?vid=f01b33b4-d615-44f3-8c41-5a4c243a6920","ios":"levelo://app?vid=f01b33b4-d615-44f3-8c41-5a4c243a6920"},"vehicle_type_id":"4","last_reported":1777046227,"current_range_meters":10000,"station_id":"","pricing_plan_id":"cebpf4jnsgd1na2vs0mg"},{"bike_id":"799c0271-2cfa-40f9-852a-3fab903caae0","system_id":"levelo_inurba_marseille","lat":43.29705,"lon":5.37301,"is_reserved":false,"is_disabled":false,"rental_uris":{"android":"levelo://app?vid=799c0271-2cfa-40f9-852a-3fab903caae0","ios":"levelo://app?vid=799c0271-2cfa-40f9-852a-3fab903caae0"},"vehicle_type_id":"4","last_reported":1777046227,"current_range_meters":10000,"station_id":"ce4bgk12rcd13ifvqbj0","pricing_plan_id":"cebpf4jnsgd1na2vs0mg"},{"bike_id":"f645e30b-5616-45b3-a17d-faf4a49d971d","system_id":"levelo_inurba_marseille","lat":43.31,"lon":5.37533,"is_reserved":false,"is_disabled":false,"rental_uris":{"android":"levelo://app?vid=f645e30b-5616-45b3-a17d-faf4a49d971d","ios":"levelo://app?vid=f645e30b-5616-45b3-a17d-faf4a49d971d"},"vehicle_type_id":"4","last_reported":1777046227,"current_range_meters":10000,"station_id":"","pricing_plan_id":"cebpf4jnsgd1na2vs0mg"},{"bike_id":"5e567c6f-c3bb-42a2-a98c-8bccbcf3a22d","system_id":"levelo_inurba_marseille","lat":43.29373,"lon":5.37234,"is_reserved":false,"is_disabled":false,"rental_uris":{"android":"levelo://app?vid=5e567c6f-c3bb-42a2-a98c-8bccbcf3a22d","ios":"levelo://app?vid=5e567c6f-c3bb-42a2-a98c-8bccbcf3a22d"},"vehicle_type_id":"4","last_reported":1777046227,"current_range_meters":10000,"station_id":"","pricing_plan_id":"cebpf4jnsgd1na2vs0mg"},{"bike_id":"ed502902-e25c-48d3-b689-784811b4f9a4","system_id":"levelo_inurba_marseille","lat":43.23198,"lon":5.35538,"is_reserved":false,"is_disabled":false,"rental_uris":{"android":"levelo://app?vid=ed502902-e25c-48d3-b689-784811b4f9a4","ios":"levelo://app?vid=ed502902-e25c-48d3-b689-784811b4f9a4"},"vehicle_type_id":"4","last_reported":1777046227,"current_range_meters":10000,"station_id":"ce4bhu92rcd13ifvqi70","pricing_plan_id":"cebpf4jnsgd1na2vs0mg"},{"bike_id":"4ac511bb-d0cc-4313-9968-2406ec98d68b","system_id":"levelo_inurba_marseille","lat":43.25828,"lon":5.39421,"is_reserved":false,"is_disabled":false,"rental_uris":{"android":"levelo://app?vid=4ac511bb-d0cc-4313-9968-2406ec98d68b","ios":"levelo://app?vid=4ac511bb-d0cc-4313-9968-2406ec98d68b"},"vehicle_type_id":"4","last_reported":1777046227,"current_range_meters":10000,"station_id":"ce4bhip2rcd13ifvqft0","pricing_plan_id":"cebpf4jnsgd1na2vs0mg"},{"bike_id":"7db19ab0-d131-4220-9e0c-66af8538d679","system_id":"levelo_inurba_marseille","lat":43.30354,"lon":5.41886,"is_reserved":false,"is_disabled":false,"rental_uris":{"android":"levelo://app?vid=7db19ab0-d131-4220-9e0c-66af8538d679","ios":"levelo://app?vid=7db19ab0-d131-4220-9e0c-66af8538d679"},"vehicle_type_id":"4","last_reported":1777046227,"current_range_meters":10000,"station_id":"ce4bhop2rcd13ifvqh7g","pricing_plan_id":"cebpf4jnsgd1na2vs0mg"},{"bike_id":"f9b98806-d74c-46ef-8642-07dd46c19f4b","system_id":"levelo_inurba_marseille","lat":43.28705,"lon":5.46701,"is_reserved":false,"is_disabled":false,"rental_uris":{"android":"levelo://app?vid=f9b98806-d74c-46ef-8642-07dd46c19f4b","ios":"levelo://app?vid=f9b98806-d74c-46ef-8642-07dd46c19f4b"},"vehicle_type_id":"4","last_reported":1777046227,"current_range_meters":10000,"station_id":"st_d6tc3vkotcvc738tfjhg","pricing_plan_id":"cebpf4jnsgd1na2vs0mg"},{"bike_id":"807d0aa0-59fe-4042-90ee-31105aa720fd","system_id":"levelo_inurba_marseille","lat":43.28417,"lon":5.34974,"is_reserved":false,"is_disabled":false,"rental_uris":{"android":"levelo://app?vid=807d0aa0-59fe-4042-90ee-31105aa720fd","ios":"levelo://app?vid=807d0aa0-59fe-4042-90ee-31105aa720fd"},"vehicle_type_id":"4","last_reported":1777046227,"current_range_meters":10000,"station_id":"ce4bhbh2rcd13ifvqepg","pricing_plan_id":"cebpf4jnsgd1na2vs0mg"},{"bike_id":"e9034cc9-cbfd-4cb3-9c2e-0d27e7d3c472","system_id":"levelo_inurba_marseille","lat":43.28411,"lon":5.34954,"is_reserved":false,"is_disabled":false,"rental_uris":{"android":"levelo://app?vid=e9034cc9-cbfd-4cb3-9c2e-0d27e7d3c472","ios":"levelo://app?vid=e9034cc9-cbfd-4cb3-9c2e-0d27e7d3c472"},"vehicle_type_id":"4","last_reported":1777046227,"current_range_meters":10000,"station_id":"ce4bhbh2rcd13ifvqepg","pricing_plan_id":"cebpf4jnsgd1na2vs0mg"},{"bike_id":"89b4dec0-82be-4d44-8bf9-961143360cc0","system_id":"levelo_inurba_marseille","lat":43.21773,"lon":5.34577,"is_reserved":false,"is_disabled":false,"rental_uris":{"android":"levelo://app?vid=89b4dec0-82be-4d44-8bf9-961143360cc0","ios":"levelo://app?vid=89b4dec0-82be-4d44-8bf9-961143360cc0"},"vehicle_type_id":"4","last_reported":1777046227,"current_range_meters":10000,"station_id":"st_cvj6r9ubvosntc0bgbag","pricing_plan_id":"cebpf4jnsgd1na2vs0mg"},{"bike_id":"4eafd099-0418-4497-a078-42a8dfe93e1a","system_id":"levelo_inurba_marseille","lat":43.28395,"lon":5.34946,"is_reserved":false,"is_disabled":false,"rental_uris":{"android":"levelo://app?vid=4eafd099-0418-4497-a078-42a8dfe93e1a","ios":"levelo://app?vid=4eafd099-0418-4497-a078-42a8dfe93e1a"},"vehicle_type_id":"4","last_reported":1777046227,"current_range_meters":10000,"station_id":"ce4bhbh2rcd13ifvqepg","pricing_plan_id":"cebpf4jnsgd1na2vs0mg"},{"bike_id":"a2d409b6-cad7-4243-83eb-05c9cad8a64e","system_id":"levelo_inurba_marseille","lat":43.25835,"lon":5.39441,"is_reserved":false,"is_disabled":false,"rental_uris":{"android":"levelo://app?vid=a2d409b6-cad7-4243-83eb-05c9cad8a64e","ios":"levelo://app?vid=a2d409b6-cad7-4243-83eb-05c9cad8a64e"},"vehicle_type_id":"4","last_reported":1777046227,"current_range_meters":10000,"station_id":"ce4bhip2rcd13ifvqft0","pricing_plan_id":"cebpf4jnsgd1na2vs0mg"},{"bike_id":"42944870-ed45-4736-a7b0-d036bba6d4f2","system_id":"levelo_inurba_marseille","lat":43.26498,"lon":5.39543,"is_reserved":false,"is_disabled":false,"rental_uris":{"android":"levelo://app?vid=42944870-ed45-4736-a7b0-d036bba6d4f2","ios":"levelo://app?vid=42944870-ed45-4736-a7b0-d036bba6d4f2"},"vehicle_type_id":"4","last_reported":1777046227,"current_range_meters":10000,"station_id":"ce4bhi12rcd13ifvqfq0","pricing_plan_id":"cebpf4jnsgd1na2vs0mg"},{"bike_id":"e7b79691-47af-4b8b-b862-5040c9b32538","system_id":"levelo_inurba_marseille","lat":43.248,"lon":5.37455,"is_reserved":false,"is_disabled":false,"rental_uris":{"android":"levelo://app?vid=e7b79691-47af-4b8b-b862-5040c9b32538","ios":"levelo://app?vid=e7b79691-47af-4b8b-b862-5040c9b32538"},"vehicle_type_id":"4","last_reported":1777046227,"current_range_meters":10000,"station_id":"ce4bhgh2rcd13ifvqfb0","pricing_plan_id":"cebpf4jnsgd1na2vs0mg"},{"bike_id":"26ba4fc0-7a9c-4ea4-b183-2e48ae6bc52f","system_id":"levelo_inurba_marseille","lat":43.28916,"lon":5.38395,"is_reserved":false,"is_disabled":false,"rental_uris":{"android":"levelo://app?vid=26ba4fc0-7a9c-4ea4-b183-2e48ae6bc52f","ios":"levelo://app?vid=26ba4fc0-7a9c-4ea4-b183-2e48ae6bc52f"},"vehicle_type_id":"4","last_reported":1777046227,"current_range_meters":10000,"station_id":"ce4bh612rcd13ifvqe6g","pricing_plan_id":"cebpf4jnsgd1na2vs0mg"},{"bike_id":"e46324a6-1995-4835-9e88-da1d0bf8731b","system_id":"levelo_inurba_marseille","lat":43.3265,"lon":5.40948,"is_reserved":false,"is_disabled":false,"rental_uris":{"android":"levelo://app?vid=e46324a6-1995-4835-9e88-da1d0bf8731b","ios":"levelo://app?vid=e46324a6-1995-4835-9e88-da1d0bf8731b"},