{"last_updated":1690567699,"ttl":30,"version":"2.2","data":{"bikes":[{"bike_id":"e526d4e2-849c-44ae-a0d7-5572a62df909","system_id":"levelo_inurba_marseille","lat":43.31226,"lon":5.36847,"is_reserved":false,"is_disabled":false,"rental_uris":{"android":"levelo://app?vid=e526d4e2-849c-44ae-a0d7-5572a62df909","ios":"levelo://app?vid=e526d4e2-849c-44ae-a0d7-5572a62df909"},"vehicle_type_id":"4","last_reported":1690567700,"current_range_meters":31200,"station_id":"ce4bgl92rcd13ifvqbq0","pricing_plan_id":"free"},{"bike_id":"de346ded-65b9-417d-acac-a2bb24857c89","system_id":"levelo_inurba_marseille","lat":43.309076,"lon":5.368465,"is_reserved":false,"is_disabled":false,"rental_uris":{"android":"levelo://app?vid=de346ded-65b9-417d-acac-a2bb24857c89","ios":"levelo://app?vid=de346ded-65b9-417d-acac-a2bb24857c89"},"vehicle_type_id":"4","last_reported":1690567700,"current_range_meters":5600,"station_id":"ce4bgn92rcd13ifvqbvg","pricing_plan_id":"free"},{"bike_id":"033f070a-3128-4335-8af8-d79bc8a59e7a","system_id":"levelo_inurba_marseille","lat":43.309076,"lon":5.368465,"is_reserved":false,"is_disabled":false,"rental_uris":{"android":"levelo://app?vid=033f070a-3128-4335-8af8-d79bc8a59e7a","ios":"levelo://app?vid=033f070a-3128-4335-8af8-d79bc8a59e7a"},"vehicle_type_id":"4","last_reported":1690567700,"current_range_meters":26400,"station_id":"ce4bgn92rcd13ifvqbvg","pricing_plan_id":"free"},{"bike_id":"af420689-26c1-4311-b1e1-dd73403965e0","system_id":"levelo_inurba_marseille","lat":43.309076,"lon":5.368465,"is_reserved":false,"is_disabled":false,"rental_uris":{"android":"levelo://app?vid=af420689-26c1-4311-b1e1-dd73403965e0","ios":"levelo://app?vid=af420689-26c1-4311-b1e1-dd73403965e0"},"vehicle_type_id":"4","last_reported":1690567700,"current_range_meters":24000,"station_id":"ce4bgn92rcd13ifvqbvg","pricing_plan_id":"free"},{"bike_id":"2a3ff820-b6f0-462a-ba14-f1373d1a09a5","system_id":"levelo_inurba_marseille","lat":43.31486,"lon":5.373,"is_reserved":false,"is_disabled":false,"rental_uris":{"android":"levelo://app?vid=2a3ff820-b6f0-462a-ba14-f1373d1a09a5","ios":"levelo://app?vid=2a3ff820-b6f0-462a-ba14-f1373d1a09a5"},"vehicle_type_id":"4","last_reported":1690567700,"current_range_meters":28000,"station_id":"ce4bgt12rcd13ifvqcd0","pricing_plan_id":"free"},{"bike_id":"f688cb07-6a23-4877-8004-8ed1ccb71172","system_id":"levelo_inurba_marseille","lat":43.31489,"lon":5.37307,"is_reserved":false,"is_disabled":false,"rental_uris":{"android":"levelo://app?vid=f688cb07-6a23-4877-8004-8ed1ccb71172","ios":"levelo://app?vid=f688cb07-6a23-4877-8004-8ed1ccb71172"},"vehicle_type_id":"4","last_reported":1690567700,"current_range_meters":31200,"station_id":"ce4bgt12rcd13ifvqcd0","pricing_plan_id":"free"},{"bike_id":"5e6ee159-7509-4f34-9c28-9f9bd1ef9336","system_id":"levelo_inurba_marseille","lat":43.314811,"lon":5.373104,"is_reserved":false,"is_disabled":false,"rental_uris":{"android":"levelo://app?vid=5e6ee159-7509-4f34-9c28-9f9bd1ef9336","ios":"levelo://app?vid=5e6ee159-7509-4f34-9c28-9f9bd1ef9336"},"vehicle_type_id":"4","last_reported":1690567700,"current_range_meters":28800,"station_id":"ce4bgt12rcd13ifvqcd0","pricing_plan_id":"free"},{"bike_id":"2861324c-77ec-49a2-a5fb-7b5ecbfa3b53","system_id":"levelo_inurba_marseille","lat":43.309039,"lon":5.371797,"is_reserved":false,"is_disabled":false,"rental_uris":{"android":"levelo://app?vid=2861324c-77ec-49a2-a5fb-7b5ecbfa3b53","ios":"levelo://app?vid=2861324c-77ec-49a2-a5fb-7b5ecbfa3b53"},"vehicle_type_id":"4","last_reported":1690567700,"current_range_meters":9600,"station_id":"ce4bguh2rcd13ifvqckg","pricing_plan_id":"free"},{"bike_id":"f20ea888-8740-440b-bfeb-8eb2a7c1f652","system_id":"levelo_inurba_marseille","lat":43.305989,"lon":5.37225,"is_reserved":false,"is_disabled":false,"rental_uris":{"android":"levelo://app?vid=f20ea888-8740-440b-bfeb-8eb2a7c1f652","ios":"levelo://app?vid=f20ea888-8740-440b-bfeb-8eb2a7c1f652"},"vehicle_type_id":"4","last_reported":1690567700,"current_range_meters":31200,"station_id":"ce4bgqh2rcd13ifvqc4g","pricing_plan_id":"free"},{"bike_id":"e99631de-3de9-46a6-8056-34408558bb94","system_id":"levelo_inurba_marseille","lat":43.30586,"lon":5.37209,"is_reserved":false,"is_disabled":false,"rental_uris":{"android":"levelo://app?vid=e99631de-3de9-46a6-8056-34408558bb94","ios":"levelo://app?vid=e99631de-3de9-46a6-8056-34408558bb94"},"vehicle_type_id":"4","last_reported":1690567700,"current_range_meters":28000,"station_id":"ce4bgqh2rcd13ifvqc4g","pricing_plan_id":"free"},{"bike_id":"3b3bacac-95b6-4af5-abff-cb120f29b21f","system_id":"levelo_inurba_marseille","lat":43.311131,"lon":5.377651,"is_reserved":false,"is_disabled":false,"rental_uris":{"android":"levelo://app?vid=3b3bacac-95b6-4af5-abff-cb120f29b21f","ios":"levelo://app?vid=3b3bacac-95b6-4af5-abff-cb120f29b21f"},"vehicle_type_id":"4","last_reported":1690567700,"current_range_meters":30000,"station_id":"ce4bgt92rcd13ifvqcg0","pricing_plan_id":"free"},{"bike_id":"9dcf1ae2-99eb-41c8-a9d6-ccef7a60dd1e","system_id":"levelo_inurba_marseille","lat":43.31374,"lon":5.37978,"is_reserved":false,"is_disabled":false,"rental_uris":{"android":"levelo://app?vid=9dcf1ae2-99eb-41c8-a9d6-ccef7a60dd1e","ios":"levelo://app?vid=9dcf1ae2-99eb-41c8-a9d6-ccef7a60dd1e"},"vehicle_type_id":"4","last_reported":1690567700,"current_range_meters":5200,"station_id":"","pricing_plan_id":"free"},{"bike_id":"c564b821-fb7f-4fe9-9796-703c2b824191","system_id":"levelo_inurba_marseille","lat":43.317075,"lon":5.377367,"is_reserved":false,"is_disabled":false,"rental_uris":{"android":"levelo://app?vid=c564b821-fb7f-4fe9-9796-703c2b824191","ios":"levelo://app?vid=c564b821-fb7f-4fe9-9796-703c2b824191"},"vehicle_type_id":"4","last_reported":1690567700,"current_range_meters":29600,"station_id":"ce4bgth2rcd13ifvqch0","pricing_plan_id":"free"},{"bike_id":"be54d705-edc8-4409-970b-942e3e8d8039","system_id":"levelo_inurba_marseille","lat":43.30193,"lon":5.36609,"is_reserved":false,"is_disabled":false,"rental_uris":{"android":"levelo://app?vid=be54d705-edc8-4409-970b-942e3e8d8039","ios":"levelo://app?vid=be54d705-edc8-4409-970b-942e3e8d8039"},"vehicle_type_id":"4","last_reported":1690567700,"current_range_meters":0,"station_id":"ce4bgrh2rcd13ifvqc8g","pricing_plan_id":"free"},{"bike_id":"4f08be1d-93b7-43a7-a2d4-e813d8951e8e","system_id":"levelo_inurba_marseille","lat":43.304606,"lon":5.379026,"is_reserved":false,"is_disabled":false,"rental_uris":{"android":"levelo://app?vid=4f08be1d-93b7-43a7-a2d4-e813d8951e8e","ios":"levelo://app?vid=4f08be1d-93b7-43a7-a2d4-e813d8951e8e"},"vehicle_type_id":"4","last_reported":1690567700,"current_range_meters":6800,"station_id":"ce4bgup2rcd13ifvqcn0","pricing_plan_id":"free"},{"bike_id":"c519fcb5-0ffb-4d53-88c6-02eeac8a621e","system_id":"levelo_inurba_marseille","lat":43.30141,"lon":5.37428,"is_reserved":false,"is_disabled":false,"rental_uris":{"android":"levelo://app?vid=c519fcb5-0ffb-4d53-88c6-02eeac8a621e","ios":"levelo://app?vid=c519fcb5-0ffb-4d53-88c6-02eeac8a621e"},"vehicle_type_id":"4","last_reported":1690567700,"current_range_meters":22400,"station_id":"ce4bgs92rcd13ifvqcc0","pricing_plan_id":"free"},{"bike_id":"79cafeb9-3c6d-4b6a-88a8-23eee1aa4e0b","system_id":"levelo_inurba_marseille","lat":43.31992,"lon":5.38143,"is_reserved":false,"is_disabled":false,"rental_uris":{"android":"levelo://app?vid=79cafeb9-3c6d-4b6a-88a8-23eee1aa4e0b","ios":"levelo://app?vid=79cafeb9-3c6d-4b6a-88a8-23eee1aa4e0b"},"vehicle_type_id":"4","last_reported":1690567700,"current_range_meters":4800,"station_id":"ce4bhr12rcd13ifvqhpg","pricing_plan_id":"free"},{"bike_id":"474bd9a8-5181-4cea-8ca2-d53ad77c6495","system_id":"levelo_inurba_marseille","lat":43.299876,"lon":5.371822,"is_reserved":false,"is_disabled":false,"rental_uris":{"android":"levelo://app?vid=474bd9a8-5181-4cea-8ca2-d53ad77c6495","ios":"levelo://app?vid=474bd9a8-5181-4cea-8ca2-d53ad77c6495"},"vehicle_type_id":"4","last_reported":1690567700,"current_range_meters":15600,"station_id":"ce4bgr92rcd13ifvqc7g","pricing_plan_id":"free"},{"bike_id":"11c7d409-3192-46d9-8699-f9614ccf741a","system_id":"levelo_inurba_marseille","lat":43.30545,"lon":5.38413,"is_reserved":false,"is_disabled":false,"rental_uris":{"android":"levelo://app?vid=11c7d409-3192-46d9-8699-f9614ccf741a","ios":"levelo://app?vid=11c7d409-3192-46d9-8699-f9614ccf741a"},"vehicle_type_id":"4","last_reported":1690567700,"current_range_meters":18800,"station_id":"ce4bgg92rcd13ifvqb30","pricing_plan_id":"free"},{"bike_id":"908e353b-87ba-413e-8bcf-56dfd783097d","system_id":"levelo_inurba_marseille","lat":43.305364,"lon":5.384119,"is_reserved":false,"is_disabled":false,"rental_uris":{"android":"levelo://app?vid=908e353b-87ba-413e-8bcf-56dfd783097d","ios":"levelo://app?vid=908e353b-87ba-413e-8bcf-56dfd783097d"},"vehicle_type_id":"4","last_reported":1690567700,"current_range_meters":19600,"station_id":"ce4bgg92rcd13ifvqb30","pricing_plan_id":"free"},{"bike_id":"514acba6-ead6-4e91-85ff-4f8dd7437caa","system_id":"levelo_inurba_marseille","lat":43.305364,"lon":5.384119,"is_reserved":false,"is_disabled":false,"rental_uris":{"android":"levelo://app?vid=514acba6-ead6-4e91-85ff-4f8dd7437caa","ios":"levelo://app?vid=514acba6-ead6-4e91-85ff-4f8dd7437caa"},"vehicle_type_id":"4","last_reported":1690567700,"current_range_meters":14800,"station_id":"ce4bgg92rcd13ifvqb30","pricing_plan_id":"free"},{"bike_id":"d8568226-d560-434b-abc4-1910078314a7","system_id":"levelo_inurba_marseille","lat":43.305364,"lon":5.384119,"is_reserved":false,"is_disabled":false,"rental_uris":{"android":"levelo://app?vid=d8568226-d560-434b-abc4-1910078314a7","ios":"levelo://app?vid=d8568226-d560-434b-abc4-1910078314a7"},"vehicle_type_id":"4","last_reported":1690567700,"current_range_meters":14800,"station_id":"ce4bgg92rcd13ifvqb30","pricing_plan_id":"free"},{"bike_id":"4a7cc8ff-536c-42d6-9b02-adbe4b287e39","system_id":"levelo_inurba_marseille","lat":43.305364,"lon":5.384119,"is_reserved":false,"is_disabled":false,"rental_uris":{"android":"levelo://app?vid=4a7cc8ff-536c-42d6-9b02-adbe4b287e39","ios":"levelo://app?vid=4a7cc8ff-536c-42d6-9b02-adbe4b287e39"},"vehicle_type_id":"4","last_reported":1690567700,"current_range_meters":13600,"station_id":"ce4bgg92rcd13ifvqb30","pricing_plan_id":"free"},{"bike_id":"946fae43-4f83-4b19-a643-bc6868249326","system_id":"levelo_inurba_marseille","lat":43.305438,"lon":5.384274,"is_reserved":false,"is_disabled":false,"rental_uris":{"android":"levelo://app?vid=946fae43-4f83-4b19-a643-bc6868249326","ios":"levelo://app?vid=946fae43-4f83-4b19-a643-bc6868249326"},"vehicle_type_id":"4","last_reported":1690567700,"current_range_meters":31200,"station_id":"ce4bgg92rcd13ifvqb30","pricing_plan_id":"free"},{"bike_id":"56435545-dec0-4b03-a0aa-74825673f873","system_id":"levelo_inurba_marseille","lat":43.30539,"lon":5.38426,"is_reserved":false,"is_disabled":false,"rental_uris":{"android":"levelo://app?vid=56435545-dec0-4b03-a0aa-74825673f873","ios":"levelo://app?vid=56435545-dec0-4b03-a0aa-74825673f873"},"vehicle_type_id":"4","last_reported":1690567700,"current_range_meters":22000,"station_id":"ce4bgg92rcd13ifvqb30","pricing_plan_id":"free"},{"bike_id":"e9039e1c-0a16-4517-8cfd-bb32640ca55f","system_id":"levelo_inurba_marseille","lat":43.311722,"lon":5.387247,"is_reserved":false,"is_disabled":false,"rental_uris":{"android":"levelo://app?vid=e9039e1c-0a16-4517-8cfd-bb32640ca55f","ios":"levelo://app?vid=e9039e1c-0a16-4517-8cfd-bb32640ca55f"},"vehicle_type_id":"4","last_reported":1690567700,"current_range_meters":11600,"station_id":"ce4bgv12rcd13ifvqcp0","pricing_plan_id":"free"},{"bike_id":"30537d43-af02-4a10-b928-7b9b8cf633d2","system_id":"levelo_inurba_marseille","lat":43.305364,"lon":5.384119,"is_reserved":false,"is_disabled":false,"rental_uris":{"android":"levelo://app?vid=30537d43-af02-4a10-b928-7b9b8cf633d2","ios":"levelo://app?vid=30537d43-af02-4a10-b928-7b9b8cf633d2"},"vehicle_type_id":"4","last_reported":1690567700,"current_range_meters":30000,"station_id":"ce4bgg92rcd13ifvqb30","pricing_plan_id":"free"},{"bike_id":"5a28c527-7364-484b-8495-e694aa922d67","system_id":"levelo_inurba_marseille","lat":43.311722,"lon":5.387247,"is_reserved":false,"is_disabled":false,"rental_uris":{"android":"levelo://app?vid=5a28c527-7364-484b-8495-e694aa922d67","ios":"levelo://app?vid=5a28c527-7364-484b-8495-e694aa922d67"},"vehicle_type_id":"4","last_reported":1690567700,"current_range_meters":7600,"station_id":"ce4bgv12rcd13ifvqcp0","pricing_plan_id":"free"},{"bike_id":"3ca0a757-7bc6-4495-9cad-b65b48445c32","system_id":"levelo_inurba_marseille","lat":43.311722,"lon":5.387247,"is_reserved":false,"is_disabled":false,"rental_uris":{"android":"levelo://app?vid=3ca0a757-7bc6-4495-9cad-b65b48445c32","ios":"levelo://app?vid=3ca0a757-7bc6-4495-9cad-b65b48445c32"},"vehicle_type_id":"4","last_reported":1690567700,"current_range_meters":31600,"station_id":"ce4bgv12rcd13ifvqcp0","pricing_plan_id":"free"},{"bike_id":"f176a775-8173-4308-b754-fa003b2b3fdd","system_id":"levelo_inurba_marseille","lat":43.311722,"lon":5.387247,"is_reserved":false,"is_disabled":false,"rental_uris":{"android":"levelo://app?vid=f176a775-8173-4308-b754-fa003b2b3fdd","ios":"levelo://app?vid=f176a775-8173-4308-b754-fa003b2b3fdd"},"vehicle_type_id":"4","last_reported":1690567700,"current_range_meters":31600,"station_id":"ce4bgv12rcd13ifvqcp0","pricing_plan_id":"free"},{"bike_id":"fead3f1e-e9e6-4830-9da4-e98cba309113","system_id":"levelo_inurba_marseille","lat":43.32294,"lon":5.3825,"is_reserved":false,"is_disabled":false,"rental_uris":{"android":"levelo://app?vid=fead3f1e-e9e6-4830-9da4-e98cba309113","ios":"levelo://app?vid=fead3f1e-e9e6-4830-9da4-e98cba309113"},"vehicle_type_id":"4","last_reported":1690567700,"current_range_meters":20400,"station_id":"ce4bhr12rcd13ifvqhqg","pricing_plan_id":"free"},{"bike_id":"79bf6da4-5f08-488b-96b1-6e23f74ec5ec","system_id":"levelo_inurba_marseille","lat":43.3229,"lon":5.38264,"is_reserved":false,"is_disabled":false,"rental_uris":{"android":"levelo://app?vid=79bf6da4-5f08-488b-96b1-6e23f74ec5ec","ios":"levelo://app?vid=79bf6da4-5f08-488b-96b1-6e23f74ec5ec"},"vehicle_type_id":"4","last_reported":1690567700,"current_range_meters":19600,"station_id":"ce4bhr12rcd13ifvqhqg","pricing_plan_id":"free"},{"bike_id":"d6a0fed4-cb78-4fef-8536-2b5612ab4427","system_id":"levelo_inurba_marseille","lat":43.32349,"lon":5.38189,"is_reserved":false,"is_disabled":false,"rental_uris":{"android":"levelo://app?vid=d6a0fed4-cb78-4fef-8536-2b5612ab4427","ios":"levelo://app?vid=d6a0fed4-cb78-4fef-8536-2b5612ab4427"},"vehicle_type_id":"4","last_reported":1690567700,"current_range_meters":11200,"station_id":"","pricing_plan_id":"free"},{"bike_id":"a196dbb0-0ca2-44b0-8b03-b7d3a734d20c","system_id":"levelo_inurba_marseille","lat":43.32302,"lon":5.38255,"is_reserved":false,"is_disabled":false,"rental_uris":{"android":"levelo://app?vid=a196dbb0-0ca2-44b0-8b03-b7d3a734d20c","ios":"levelo://app?vid=a196dbb0-0ca2-44b0-8b03-b7d3a734d20c"},"vehicle_type_id":"4","last_reported":1690567700,"current_range_meters":31600,"station_id":"ce4bhr12rcd13ifvqhqg","pricing_plan_id":"free"},{"bike_id":"3641a761-0636-4e0b-b047-72e86565129d","system_id":"levelo_inurba_marseille","lat":43.32289,"lon":5.38271,"is_reserved":false,"is_disabled":false,"rental_uris":{"android":"levelo://app?vid=3641a761-0636-4e0b-b047-72e86565129d","ios":"levelo://app?vid=3641a761-0636-4e0b-b047-72e86565129d"},"vehicle_type_id":"4","last_reported":1690567700,"current_range_meters":31200,"station_id":"ce4bhr12rcd13ifvqhqg","pricing_plan_id":"free"},{"bike_id":"82f1e03d-e4c3-4aac-b6f0-c9fc3950fe62","system_id":"levelo_inurba_marseille","lat":43.322929,"lon":5.382715,"is_reserved":false,"is_disabled":false,"rental_uris":{"android":"levelo://app?vid=82f1e03d-e4c3-4aac-b6f0-c9fc3950fe62","ios":"levelo://app?vid=82f1e03d-e4c3-4aac-b6f0-c9fc3950fe62"},"vehicle_type_id":"4","last_reported":1690567700,"current_range_meters":28400,"station_id":"","pricing_plan_id":"free"},{"bike_id":"dd789220-e7b5-42c1-b9dc-dc4243148021","system_id":"levelo_inurba_marseille","lat":43.297163,"lon":5.365866,"is_reserved":false,"is_disabled":false,"rental_uris":{"android":"levelo://app?vid=dd789220-e7b5-42c1-b9dc-dc4243148021","ios":"levelo://app?vid=dd789220-e7b5-42c1-b9dc-dc4243148021"},"vehicle_type_id":"4","last_reported":1690567700,"current_range_meters":31200,"station_id":"ce4bgn12rcd13ifvqbt0","pricing_plan_id":"free"},{"bike_id":"32f66c53-0cb2-4d96-a82e-9638ecc2e604","system_id":"levelo_inurba_marseille","lat":43.297163,"lon":5.365866,"is_reserved":false,"is_disabled":false,"rental_uris":{"android":"levelo://app?vid=32f66c53-0cb2-4d96-a82e-9638ecc2e604","ios":"levelo://app?vid=32f66c53-0cb2-4d96-a82e-9638ecc2e604"},"vehicle_type_id":"4","last_reported":1690567700,"current_range_meters":12400,"station_id":"ce4bgn12rcd13ifvqbt0","pricing_plan_id":"free"},{"bike_id":"0dcbc7d2-8ae3-416d-9d6c-decdc224ac5a","system_id":"levelo_inurba_marseille","lat":43.29573,"lon":5.367355,"is_reserved":false,"is_disabled":false,"rental_uris":{"android":"levelo://app?vid=0dcbc7d2-8ae3-416d-9d6c-decdc224ac5a","ios":"levelo://app?vid=0dcbc7d2-8ae3-416d-9d6c-decdc224ac5a"},"vehicle_type_id":"4","last_reported":1690567700,"current_range_meters":29600,"station_id":"ce4bgph2rcd13ifvqc2g","pricing_plan_id":"free"},{"bike_id":"284119b6-006d-40b2-84ef-c903dbf67dc5","system_id":"levelo_inurba_marseille","lat":43.296131,"lon":5.370791,"is_reserved":false,"is_disabled":false,"rental_uris":{"android":"levelo://app?vid=284119b6-006d-40b2-84ef-c903dbf67dc5","ios":"levelo://app?vid=284119b6-006d-40b2-84ef-c903dbf67dc5"},"vehicle_type_id":"4","last_reported":1690567700,"current_range_meters":25600,"station_id":"ce4bgnh2rcd13ifvqc0g","pricing_plan_id":"free"},{"bike_id":"abe71498-b082-49f8-a689-eb86300cbd7d","system_id":"levelo_inurba_marseille","lat":43.296131,"lon":5.370791,"is_reserved":false,"is_disabled":false,"rental_uris":{"android":"levelo://app?vid=abe71498-b082-49f8-a689-eb86300cbd7d","ios":"levelo://app?vid=abe71498-b082-49f8-a689-eb86300cbd7d"},"vehicle_type_id":"4","last_reported":1690567700,"current_range_meters":15600,"station_id":"ce4bgnh2rcd13ifvqc0g","pricing_plan_id":"free"},{"bike_id":"4f8a82d4-6a83-41eb-a4dd-9274e7e8a9a5","system_id":"levelo_inurba_marseille","lat":43.29573,"lon":5.367355,"is_reserved":false,"is_disabled":false,"rental_uris":{"android":"levelo://app?vid=4f8a82d4-6a83-41eb-a4dd-9274e7e8a9a5","ios":"levelo://app?vid=4f8a82d4-6a83-41eb-a4dd-9274e7e8a9a5"},"vehicle_type_id":"4","last_reported":1690567700,"current_range_meters":20000,"station_id":"ce4bgph2rcd13ifvqc2g","pricing_plan_id":"free"},{"bike_id":"fa91e19b-f4c1-4a96-b392-96e0e4ffed08","system_id":"levelo_inurba_marseille","lat":43.29583,"lon":5.36742,"is_reserved":false,"is_disabled":false,"rental_uris":{"android":"levelo://app?vid=fa91e19b-f4c1-4a96-b392-96e0e4ffed08","ios":"levelo://app?vid=fa91e19b-f4c1-4a96-b392-96e0e4ffed08"},"vehicle_type_id":"4","last_reported":1690567700,"current_range_meters":15200,"station_id":"ce4bgph2rcd13ifvqc2g","pricing_plan_id":"free"},{"bike_id":"34e1376f-de5b-4e91-8e39-c974376fcc7b","system_id":"levelo_inurba_marseille","lat":43.29581,"lon":5.36746,"is_reserved":false,"is_disabled":false,"rental_uris":{"android":"levelo://app?vid=34e1376f-de5b-4e91-8e39-c974376fcc7b","ios":"levelo://app?vid=34e1376f-de5b-4e91-8e39-c974376fcc7b"},"vehicle_type_id":"4","last_reported":1690567700,"current_range_meters":17600,"station_id":"ce4bgph2rcd13ifvqc2g","pricing_plan_id":"free"},{"bike_id":"29c9b62f-ae47-4554-8389-59e92da490df","system_id":"levelo_inurba_marseille","lat":43.30958,"lon":5.39032,"is_reserved":false,"is_disabled":false,"rental_uris":{"android":"levelo://app?vid=29c9b62f-ae47-4554-8389-59e92da490df","ios":"levelo://app?vid=29c9b62f-ae47-4554-8389-59e92da490df"},"vehicle_type_id":"4","last_reported":1690567700,"current_range_meters":5200,"station_id":"ce4bgup2rcd13ifvqco0","pricing_plan_id":"free"},{"bike_id":"fb43af76-efd8-404f-9b9a-f52d7544ee31","system_id":"levelo_inurba_marseille","lat":43.309589,"lon":5.390258,"is_reserved":false,"is_disabled":false,"rental_uris":{"android":"levelo://app?vid=fb43af76-efd8-404f-9b9a-f52d7544ee31","ios":"levelo://app?vid=fb43af76-efd8-404f-9b9a-f52d7544ee31"},"vehicle_type_id":"4","last_reported":1690567700,"current_range_meters":18800,"station_id":"ce4bgup2rcd13ifvqco0","pricing_plan_id":"free"},{"bike_id":"13abfa81-873d-4367-977b-a9aa7f07e1a7","system_id":"levelo_inurba_marseille","lat":43.30957,"lon":5.39036,"is_reserved":false,"is_disabled":false,"rental_uris":{"android":"levelo://app?vid=13abfa81-873d-4367-977b-a9aa7f07e1a7","ios":"levelo://app?vid=13abfa81-873d-4367-977b-a9aa7f07e1a7"},"vehicle_type_id":"4","last_reported":1690567700,"current_range_meters":27600,"station_id":"ce4bgup2rcd13ifvqco0","pricing_plan_id":"free"},{"bike_id":"1c907aa7-4844-40b4-a4fb-754a3083cb4f","system_id":"levelo_inurba_marseille","lat":43.30951,"lon":5.39035,"is_reserved":false,"is_disabled":false,"rental_uris":{"android":"levelo://app?vid=1c907aa7-4844-40b4-a4fb-754a3083cb4f","ios":"levelo://app?vid=1c907aa7-4844-40b4-a4fb-754a3083cb4f"},"vehicle_type_id":"4","last_reported":1690567700,"current_range_meters":14400,"station_id":"ce4bgup2rcd13ifvqco0","pricing_plan_id":"free"},{"bike_id":"80996baf-8597-4552-b66a-a0139bedf903","system_id":"levelo_inurba_marseille","lat":43.309502,"lon":5.390365,"is_reserved":false,"is_disabled":false,"rental_uris":{"android":"levelo://app?vid=80996baf-8597-4552-b66a-a0139bedf903","ios":"levelo://app?vid=80996baf-8597-4552-b66a-a0139bedf903"},"vehicle_type_id":"4","last_reported":1690567700,"current_range_meters":5600,"station_id":"","pricing_plan_id":"free"},{"bike_id":"a34957d9-ad44-4ddc-aece-d42797266a89","system_id":"levelo_inurba_marseille","lat":43.30959,"lon":5.39039,"is_reserved":false,"is_disabled":false,"rental_uris":{"android":"levelo://app?vid=a34957d9-ad44-4ddc-aece-d42797266a89","ios":"levelo://app?vid=a34957d9-ad44-4ddc-aece-d42797266a89"},"vehicle_type_id":"4","last_reported":1690567700,"current_range_meters":22800,"station_id":"ce4bgup2rcd13ifvqco0","pricing_plan_id":"free"},{"bike_id":"b7bea71e-7fa3-4baa-bdfa-3aa3443a04c9","system_id":"levelo_inurba_marseille","lat":43.309589,"lon":5.390258,"is_reserved":false,"is_disabled":false,"rental_uris":{"android":"levelo://app?vid=b7bea71e-7fa3-4baa-bdfa-3aa3443a04c9","ios":"levelo://app?vid=b7bea71e-7fa3-4baa-bdfa-3aa3443a04c9"},"vehicle_type_id":"4","last_reported":1690567700,"current_range_meters":4800,"station_id":"ce4bgup2rcd13ifvqco0","pricing_plan_id":"free"},{"bike_id":"f0b1921d-8fc5-42f6-8214-26455e772ce5","system_id":"levelo_inurba_marseille","lat":43.309589,"lon":5.390258,"is_reserved":false,"is_disabled":false,"rental_uris":{"android":"levelo://app?vid=f0b1921d-8fc5-42f6-8214-26455e772ce5","ios":"levelo://app?vid=f0b1921d-8fc5-42f6-8214-26455e772ce5"},"vehicle_type_id":"4","last_reported":1690567700,"current_range_meters":28400,"station_id":"ce4bgup2rcd13ifvqco0","pricing_plan_id":"free"},{"bike_id":"3497df14-288b-4bcc-b687-082ceeed6873","system_id":"levelo_inurba_marseille","lat":43.30956,"lon":5.39042,"is_reserved":false,"is_disabled":false,"rental_uris":{"android":"levelo://app?vid=3497df14-288b-4bcc-b687-082ceeed6873","ios":"levelo://app?vid=3497df14-288b-4bcc-b687-082ceeed6873"},"vehicle_type_id":"4","last_reported":1690567700,"current_range_meters":11600,"station_id":"ce4bgup2rcd13ifvqco0","pricing_plan_id":"free"},{"bike_id":"2871f18f-4994-4111-a9ac-b84b181cbd81","system_id":"levelo_inurba_marseille","lat":43.309589,"lon":5.390258,"is_reserved":false,"is_disabled":false,"rental_uris":{"android":"levelo://app?vid=2871f18f-4994-4111-a9ac-b84b181cbd81","ios":"levelo://app?vid=2871f18f-4994-4111-a9ac-b84b181cbd81"},"vehicle_type_id":"4","last_reported":1690567700,"current_range_meters":23600,"station_id":"ce4bgup2rcd13ifvqco0","pricing_plan_id":"free"},{"bike_id":"453dbf93-abaa-4efd-a4be-75df4485a012","system_id":"levelo_inurba_marseille","lat":43.309589,"lon":5.390258,"is_reserved":false,"is_disabled":false,"rental_uris":{"android":"levelo://app?vid=453dbf93-abaa-4efd-a4be-75df4485a012","ios":"levelo://app?vid=453dbf93-abaa-4efd-a4be-75df4485a012"},"vehicle_type_id":"4","last_reported":1690567700,"current_range_meters":24000,"station_id":"ce4bgup2rcd13ifvqco0","pricing_plan_id":"free"},{"bike_id":"dd3ca477-5f9a-49ee-87d5-4e6b8703e878","system_id":"levelo_inurba_marseille","lat":43.317557,"lon":5.390173,"is_reserved":false,"is_disabled":false,"rental_uris":{"android":"levelo://app?vid=dd3ca477-5f9a-49ee-87d5-4e6b8703e878","ios":"levelo://app?vid=dd3ca477-5f9a-49ee-87d5-4e6b8703e878"},"vehicle_type_id":"4","last_reported":1690567700,"current_range_meters":31600,"station_id":"ce4bhqp2rcd13ifvqhng","pricing_plan_id":"free"},{"bike_id":"24a85520-21a6-483d-a552-90e295a7672a","system_id":"levelo_inurba_marseille","lat":43.317557,"lon":5.390173,"is_reserved":false,"is_disabled":false,"rental_uris":{"android":"levelo://app?vid=24a85520-21a6-483d-a552-90e295a7672a","ios":"levelo://app?vid=24a85520-21a6-483d-a552-90e295a7672a"},"vehicle_type_id":"4","last_reported":1690567700,"current_range_meters":25600,"station_id":"ce4bhqp2rcd13ifvqhng","pricing_plan_id":"free"},{"bike_id":"164e9107-0f1b-4b34-b74a-3df32a675cc7","system_id":"levelo_inurba_marseille","lat":43.298037,"lon":5.381066,"is_reserved":false,"is_disabled":false,"rental_uris":{"android":"levelo://app?vid=164e9107-0f1b-4b34-b74a-3df32a675cc7","ios":"levelo://app?vid=164e9107-0f1b-4b34-b74a-3df32a675cc7"},"vehicle_type_id":"4","last_reported":1690567700,"current_range_meters":27600,"station_id":"ce4bgip2rcd13ifvqbb0","pricing_plan_id":"free"},{"bike_id":"72157df5-214e-4a97-9eac-aa9798533f8b","system_id":"levelo_inurba_marseille","lat":43.29507,"lon":5.36322,"is_reserved":false,"is_disabled":false,"rental_uris":{"android":"levelo://app?vid=72157df5-214e-4a97-9eac-aa9798533f8b","ios":"levelo://app?vid=72157df5-214e-4a97-9eac-aa9798533f8b"},"vehicle_type_id":"4","last_reported":1690567700,"current_range_meters":27600,"station_id":"","pricing_plan_id":"free"},{"bike_id":"820b0ba0-7963-4b0d-aab3-853c95fb5f47","system_id":"levelo_inurba_marseille","lat":43.298037,"lon":5.381066,"is_reserved":false,"is_disabled":false,"rental_uris":{"android":"levelo://app?vid=820b0ba0-7963-4b0d-aab3-853c95fb5f47","ios":"levelo://app?vid=820b0ba0-7963-4b0d-aab3-853c95fb5f47"},"vehicle_type_id":"4","last_reported":1690567700,"current_range_meters":24400,"station_id":"ce4bgip2rcd13ifvqbb0","pricing_plan_id":"free"},{"bike_id":"e27d170f-e59d-4490-bd03-f79b1b7ec7fb","system_id":"levelo_inurba_marseille","lat":43.298037,"lon":5.381066,"is_reserved":false,"is_disabled":false,"rental_uris":{"android":"levelo://app?vid=e27d170f-e59d-4490-bd03-f79b1b7ec7fb","ios":"levelo://app?vid=e27d170f-e59d-4490-bd03-f79b1b7ec7fb"},"vehicle_type_id":"4","last_reported":1690567700,"current_range_meters":20800,"station_id":"ce4bgip2rcd13ifvqbb0","pricing_plan_id":"free"},{"bike_id":"acf66608-c9f5-421e-9f68-77dee580da8e","system_id":"levelo_inurba_marseille","lat":43.29635,"lon":5.37701,"is_reserved":false,"is_disabled":false,"rental_uris":{"android":"levelo://app?vid=acf66608-c9f5-421e-9f68-77dee580da8e","ios":"levelo://app?vid=acf66608-c9f5-421e-9f68-77dee580da8e"},"vehicle_type_id":"4","last_reported":1690567700,"current_range_meters":5600,"station_id":"ce4bgi92rcd13ifvqb90","pricing_plan_id":"free"},{"bike_id":"c9dd77d3-67b8-4427-b736-98973bd061bb","system_id":"levelo_inurba_marseille","lat":43.298037,"lon":5.381066,"is_reserved":false,"is_disabled":false,"rental_uris":{"android":"levelo://app?vid=c9dd77d3-67b8-4427-b736-98973bd061bb","ios":"levelo://app?vid=c9dd77d3-67b8-4427-b736-98973bd061bb"},"vehicle_type_id":"4","last_reported":1690567700,"current_range_meters":26800,"station_id":"ce4bgip2rcd13ifvqbb0","pricing_plan_id":"free"},{"bike_id":"164b4a54-7f24-4c1f-aa63-c76c7f24496e","system_id":"levelo_inurba_marseille","lat":43.298037,"lon":5.381066,"is_reserved":false,"is_disabled":false,"rental_uris":{"android":"levelo://app?vid=164b4a54-7f24-4c1f-aa63-c76c7f24496e","ios":"levelo://app?vid=164b4a54-7f24-4c1f-aa63-c76c7f24496e"},"vehicle_type_id":"4","last_reported":1690567700,"current_range_meters":21200,"station_id":"ce4bgip2rcd13ifvqbb0","pricing_plan_id":"free"},{"bike_id":"bf302618-f19c-49ea-9f53-1ed25ca5bb62","system_id":"levelo_inurba_marseille","lat":43.29574,"lon":5.37497,"is_reserved":false,"is_disabled":false,"rental_uris":{"android":"levelo://app?vid=bf302618-f19c-49ea-9f53-1ed25ca5bb62","ios":"levelo://app?vid=bf302618-f19c-49ea-9f53-1ed25ca5bb62"},"vehicle_type_id":"4","last_reported":1690567700,"current_range_meters":0,"station_id":"ce4bgh92rcd13ifvqb50","pricing_plan_id":"free"},{"bike_id":"51e7a26d-f3f4-404b-876f-129256b719b6","system_id":"levelo_inurba_marseille","lat":43.295748,"lon":5.37522,"is_reserved":false,"is_disabled":false,"rental_uris":{"android":"levelo://app?vid=51e7a26d-f3f4-404b-876f-129256b719b6","ios":"levelo://app?vid=51e7a26d-f3f4-404b-876f-129256b719b6"},"vehicle_type_id":"4","last_reported":1690567700,"current_range_meters":10400,"station_id":"ce4bgh92rcd13ifvqb50","pricing_plan_id":"free"},{"bike_id":"901a7340-9d73-4c05-b4bb-e4cfcf839684","system_id":"levelo_inurba_marseille","lat":43.295748,"lon":5.37522,"is_reserved":false,"is_disabled":false,"rental_uris":{"android":"levelo://app?vid=901a7340-9d73-4c05-b4bb-e4cfcf839684","ios":"levelo://app?vid=901a7340-9d73-4c05-b4bb-e4cfcf839684"},"vehicle_type_id":"4","last_reported":1690567700,"current_range_meters":14000,"station_id":"ce4bgh92rcd13ifvqb50","pricing_plan_id":"free"},{"bike_id":"f78077fa-c1c2-41dd-8313-a0bc0d5bc35d","system_id":"levelo_inurba_marseille","lat":43.30438,"lon":5.38904,"is_reserved":false,"is_disabled":false,"rental_uris":{"android":"levelo://app?vid=f78077fa-c1c2-41dd-8313-a0bc0d5bc35d","ios":"levelo://app?vid=f78077fa-c1c2-41dd-8313-a0bc0d5bc35d"},"vehicle_type_id":"4","last_reported":1690567700,"current_range_meters":2400,"station_id":"ce4bgk12rcd13ifvqbi0","pricing_plan_id":"free"},{"bike_id":"a1ba3bca-9ad7-4679-ba91-bcc6b26c3241","system_id":"levelo_inurba_marseille","lat":43.2962,"lon":5.37727,"is_reserved":false,"is_disabled":false,"rental_uris":{"android":"levelo://app?vid=a1ba3bca-9ad7-4679-ba91-bcc6b26c3241","ios":"levelo://app?vid=a1ba3bca-9ad7-4679-ba91-bcc6b26c3241"},"vehicle_type_id":"4","last_reported":1690567700,"current_range_meters":9200,"station_id":"ce4bgi92rcd13ifvqb90","pricing_plan_id":"free"},{"bike_id":"4f977d32-88d8-4eee-99c8-085ec5dd5b80","system_id":"levelo_inurba_marseille","lat":43.296263,"lon":5.377094,"is_reserved":false,"is_disabled":false,"rental_uris":{"android":"levelo://app?vid=4f977d32-88d8-4eee-99c8-085ec5dd5b80","ios":"levelo://app?vid=4f977d32-88d8-4eee-99c8-085ec5dd5b80"},"vehicle_type_id":"4","last_reported":1690567700,"current_range_meters":18800,"station_id":"ce4bgi92rcd13ifvqb90","pricing_plan_id":"free"},{"bike_id":"5ab1092d-30e5-41cd-8caf-f2bd257924aa","system_id":"levelo_inurba_marseille","lat":43.29613,"lon":5.37729,"is_reserved":false,"is_disabled":false,"rental_uris":{"android":"levelo://app?vid=5ab1092d-30e5-41cd-8caf-f2bd257924aa","ios":"levelo://app?vid=5ab1092d-30e5-41cd-8caf-f2bd257924aa"},"vehicle_type_id":"4","last_reported":1690567700,"current_range_meters":22400,"station_id":"ce4bgi92rcd13ifvqb90","pricing_plan_id":"free"},{"bike_id":"7ff2a172-92fb-44ee-b4a5-ef4ed9cf2bd6","system_id":"levelo_inurba_marseille","lat":43.295279,"lon":5.375048,"is_reserved":false,"is_disabled":false,"rental_uris":{"android":"levelo://app?vid=7ff2a172-92fb-44ee-b4a5-ef4ed9cf2bd6","ios":"levelo://app?vid=7ff2a172-92fb-44ee-b4a5-ef4ed9cf2bd6"},"vehicle_type_id":"4","last_reported":1690567700,"current_range_meters":30400,"station_id":"ce4bgkp2rcd13ifvqbmg","pricing_plan_id":"free"},{"bike_id":"38073007-89d5-46df-bd00-f55c42078943","system_id":"levelo_inurba_marseille","lat":43.29605,"lon":5.37721,"is_reserved":false,"is_disabled":false,"rental_uris":{"android":"levelo://app?vid=38073007-89d5-46df-bd00-f55c42078943","ios":"levelo://app?vid=38073007-89d5-46df-bd00-f55c42078943"},"vehicle_type_id":"4","last_reported":1690567700,"current_range_meters":10000,"station_id":"ce4bgi92rcd13ifvqb90","pricing_plan_id":"free"},{"bike_id":"e81b868b-904a-4e47-bb7b-696981a33fd4","system_id":"levelo_inurba_marseille","lat":43.299717,"lon":5.384845,"is_reserved":false,"is_disabled":false,"rental_uris":{"android":"levelo://app?vid=e81b868b-904a-4e47-bb7b-696981a33fd4","ios":"levelo://app?vid=e81b868b-904a-4e47-bb7b-696981a33fd4"},"vehicle_type_id":"4","last_reported":1690567700,"current_range_meters":4800,"station_id":"ce4bgj92rcd13ifvqbd0","pricing_plan_id":"free"},{"bike_id":"8d05b0d3-19ae-4450-9f72-46c9ea30fcd8","system_id":"levelo_inurba_marseille","lat":43.29969,"lon":5.38493,"is_reserved":false,"is_disabled":false,"rental_uris":{"android":"levelo://app?vid=8d05b0d3-19ae-4450-9f72-46c9ea30fcd8","ios":"levelo://app?vid=8d05b0d3-19ae-4450-9f72-46c9ea30fcd8"},"vehicle_type_id":"4","last_reported":1690567700,"current_range_meters":18400,"station_id":"ce4bgj92rcd13ifvqbd0","pricing_plan_id":"free"},{"bike_id":"bce8cc20-9a54-4a98-8d8c-0c7426d05836","system_id":"levelo_inurba_marseille","lat":43.299717,"lon":5.384845,"is_reserved":false,"is_disabled":false,"rental_uris":{"android":"levelo://app?vid=bce8cc20-9a54-4a98-8d8c-0c7426d05836","ios":"levelo://app?vid=bce8cc20-9a54-4a98-8d8c-0c7426d05836"},"vehicle_type_id":"4","last_reported":1690567700,"current_range_meters":9200,"station_id":"ce4bgj92rcd13ifvqbd0","pricing_plan_id":"free"},{"bike_id":"146e020b-0d82-45da-ab89-181a9bfa699a","system_id":"levelo_inurba_marseille","lat":43.299724,"lon":5.384848,"is_reserved":false,"is_disabled":false,"rental_uris":{"android":"levelo://app?vid=146e020b-0d82-45da-ab89-181a9bfa699a","ios":"levelo://app?vid=146e020b-0d82-45da-ab89-181a9bfa699a"},"vehicle_type_id":"4","last_reported":1690567700,"current_range_meters":11200,"station_id":"ce4bgj92rcd13ifvqbd0","pricing_plan_id":"free"},{"bike_id":"2a246522-4a15-4b3a-8c25-b01de51775a9","system_id":"levelo_inurba_marseille","lat":43.295279,"lon":5.375048,"is_reserved":false,"is_disabled":false,"rental_uris":{"android":"levelo://app?vid=2a246522-4a15-4b3a-8c25-b01de51775a9","ios":"levelo://app?vid=2a246522-4a15-4b3a-8c25-b01de51775a9"},"vehicle_type_id":"4","last_reported":1690567700,"current_range_meters":14400,"station_id":"ce4bgkp2rcd13ifvqbmg","pricing_plan_id":"free"},{"bike_id":"793e1c53-17fa-4111-991e-6d0437f01f79","system_id":"levelo_inurba_marseille","lat":43.299717,"lon":5.384845,"is_reserved":false,"is_disabled":false,"rental_uris":{"android":"levelo://app?vid=793e1c53-17fa-4111-991e-6d0437f01f79","ios":"levelo://app?vid=793e1c53-17fa-4111-991e-6d0437f01f79"},"vehicle_type_id":"4","last_reported":1690567700,"current_range_meters":1200,"station_id":"ce4bgj92rcd13ifvqbd0","pricing_plan_id":"free"},{"bike_id":"4634e743-7833-4f32-bd96-87789af5d4e9","system_id":"levelo_inurba_marseille","lat":43.32367,"lon":5.388836,"is_reserved":false,"is_disabled":false,"rental_uris":{"android":"levelo://app?vid=4634e743-7833-4f32-bd96-87789af5d4e9","ios":"levelo://app?vid=4634e743-7833-4f32-bd96-87789af5d4e9"},"vehicle_type_id":"4","last_reported":1690567700,"current_range_meters":18800,"station_id":"ce4bhqp2rcd13ifvqhog","pricing_plan_id":"free"},{"bike_id":"5aae1108-445f-4f3d-bc86-48738b8f8c90","system_id":"levelo_inurba_marseille","lat":43.292749,"lon":5.368398,"is_reserved":false,"is_disabled":false,"rental_uris":{"android":"levelo://app?vid=5aae1108-445f-4f3d-bc86-48738b8f8c90","ios":"levelo://app?vid=5aae1108-445f-4f3d-bc86-48738b8f8c90"},"vehicle_type_id":"4","last_reported":1690567700,"current_range_meters":14400,"station_id":"ce4bhbp2rcd13ifvqesg","pricing_plan_id":"free"},{"bike_id":"1042bff7-7417-49d1-8c34-ab40d4bad313","system_id":"levelo_inurba_marseille","lat":43.29309,"lon":5.37176,"is_reserved":false,"is_disabled":false,"rental_uris":{"android":"levelo://app?vid=1042bff7-7417-49d1-8c34-ab40d4bad313","ios":"levelo://app?vid=1042bff7-7417-49d1-8c34-ab40d4bad313"},"vehicle_type_id":"4","last_reported":1690567700,"current_range_meters":17200,"station_id":"ce4bgh92rcd13ifvqb40","pricing_plan_id":"free"},{"bike_id":"e5122ef3-1138-46b4-96bb-cf4cf4126bd9","system_id":"levelo_inurba_marseille","lat":43.29307,"lon":5.37166,"is_reserved":false,"is_disabled":false,"rental_uris":{"android":"levelo://app?vid=e5122ef3-1138-46b4-96bb-cf4cf4126bd9","ios":"levelo://app?vid=e5122ef3-1138-46b4-96bb-cf4cf4126bd9"},"vehicle_type_id":"4","last_reported":1690567700,"current_range_meters":0,"station_id":"ce4bgh92rcd13ifvqb40","pricing_plan_id":"free"},{"bike_id":"1ca9d97b-d166-4d3c-87e1-ceefe401e319","system_id":"levelo_inurba_marseille","lat":43.29307,"lon":5.37174,"is_reserved":false,"is_disabled":false,"rental_uris":{"android":"levelo://app?vid=1ca9d97b-d166-4d3c-87e1-ceefe401e319","ios":"levelo://app?vid=1ca9d97b-d166-4d3c-87e1-ceefe401e319"},"vehicle_type_id":"4","last_reported":1690567700,"current_range_meters":21200,"station_id":"ce4bgh92rcd13ifvqb40","pricing_plan_id":"free"},{"bike_id":"c5f2d383-4fc6-47c2-b477-2d509aa32770","system_id":"levelo_inurba_marseille","lat":43.293041,"lon":5.371802,"is_reserved":false,"is_disabled":false,"rental_uris":{"android":"levelo://app?vid=c5f2d383-4fc6-47c2-b477-2d509aa32770","ios":"levelo://app?vid=c5f2d383-4fc6-47c2-b477-2d509aa32770"},"vehicle_type_id":"4","last_reported":1690567700,"current_range_meters":7600,"station_id":"ce4bgh92rcd13ifvqb40","pricing_plan_id":"free"},{"bike_id":"74af98d9-71a6-4d18-bf59-fe83c159e09a","system_id":"levelo_inurba_marseille","lat":43.29302,"lon":5.37183,"is_reserved":false,"is_disabled":false,"rental_uris":{"android":"levelo://app?vid=74af98d9-71a6-4d18-bf59-fe83c159e09a","ios":"levelo://app?vid=74af98d9-71a6-4d18-bf59-fe83c159e09a"},"vehicle_type_id":"4","last_reported":1690567700,"current_range_meters":5200,"station_id":"ce4bgh92rcd13ifvqb40","pricing_plan_id":"free"},{"bike_id":"62afb939-e30c-4cf9-9dae-35ae357e8c7c","system_id":"levelo_inurba_marseille","lat":43.305994,"lon":5.393687,"is_reserved":false,"is_disabled":false,"rental_uris":{"android":"levelo://app?vid=62afb939-e30c-4cf9-9dae-35ae357e8c7c","ios":"levelo://app?vid=62afb939-e30c-4cf9-9dae-35ae357e8c7c"},"vehicle_type_id":"4","last_reported":1690567700,"current_range_meters":16000,"station_id":"ce4bh0p2rcd13ifvqd80","pricing_plan_id":"free"},{"bike_id":"41e165cf-1da7-4b1a-aa4d-3d8a2a8d74d6","system_id":"levelo_inurba_marseille","lat":43.305994,"lon":5.393687,"is_reserved":false,"is_disabled":false,"rental_uris":{"android":"levelo://app?vid=41e165cf-1da7-4b1a-aa4d-3d8a2a8d74d6","ios":"levelo://app?vid=41e165cf-1da7-4b1a-aa4d-3d8a2a8d74d6"},"vehicle_type_id":"4","last_reported":1690567700,"current_range_meters":14800,"station_id":"ce4bh0p2rcd13ifvqd80","pricing_plan_id":"free"},{"bike_id":"ee5636bb-6157-4d52-b93a-d020f101ca5a","system_id":"levelo_inurba_marseille","lat":43.3031,"lon":5.39189,"is_reserved":false,"is_disabled":false,"rental_uris":{"android":"levelo://app?vid=ee5636bb-6157-4d52-b93a-d020f101ca5a","ios":"levelo://app?vid=ee5636bb-6157-4d52-b93a-d020f101ca5a"},"vehicle_type_id":"4","last_reported":1690567700,"current_range_meters":24400,"station_id":"ce4bgkh2rcd13ifvqbk0","pricing_plan_id":"free"},{"bike_id":"001b760c-175e-4039-b683-316f30710742","system_id":"levelo_inurba_marseille","lat":43.30301,"lon":5.3919,"is_reserved":false,"is_disabled":false,"rental_uris":{"android":"levelo://app?vid=001b760c-175e-4039-b683-316f30710742","ios":"levelo://app?vid=001b760c-175e-4039-b683-316f30710742"},"vehicle_type_id":"4","last_reported":1690567700,"current_range_meters":2000,"station_id":"ce4bgkh2rcd13ifvqbk0","pricing_plan_id":"free"},{"bike_id":"b875e679-eb92-4784-82bc-109a9461d3e9","system_id":"levelo_inurba_marseille","lat":43.298681,"lon":5.397225,"is_reserved":false,"is_disabled":false,"rental_uris":{"android":"levelo://app?vid=b875e679-eb92-4784-82bc-109a9461d3e9","ios":"levelo://app?vid=b875e679-eb92-4784-82bc-109a9461d3e9"},"vehicle_type_id":"4","last_reported":1690567700,"current_range_meters":12400,"station_id":"ce4bh0h2rcd13ifvqd50","pricing_plan_id":"free"},{"bike_id":"4e3c8841-16ee-42c4-ae1f-9b8dc19573e5","system_id":"levelo_inurba_marseille","lat":43.30304,"lon":5.39204,"is_reserved":false,"is_disabled":false,"rental_uris":{"android":"levelo://app?vid=4e3c8841-16ee-42c4-ae1f-9b8dc19573e5","ios":"levelo://app?vid=4e3c8841-16ee-42c4-ae1f-9b8dc19573e5"},"vehicle_type_id":"4","last_reported":1690567700,"current_range_meters":20400,"station_id":"ce4bgkh2rcd13ifvqbk0","pricing_plan_id":"free"},{"bike_id":"5201f0e8-1b0c-4ca5-a5c0-62d0834ad637","system_id":"levelo_inurba_marseille","lat":43.30288,"lon":5.392,"is_reserved":false,"is_disabled":false,"rental_uris":{"android":"levelo://app?vid=5201f0e8-1b0c-4ca5-a5c0-62d0834ad637","ios":"levelo://app?vid=5201f0e8-1b0c-4ca5-a5c0-62d0834ad637"},"vehicle_type_id":"4","last_reported":1690567700,"current_range_meters":24000,"station_id":"ce4bgkh2rcd13ifvqbk0","pricing_plan_id":"free"},{"bike_id":"b8c479d3-110a-408b-a963-564472a9cce7","system_id":"levelo_inurba_marseille","lat":43.30307,"lon":5.39218,"is_reserved":false,"is_disabled":false,"rental_uris":{"android":"levelo://app?vid=b8c479d3-110a-408b-a963-564472a9cce7","ios":"levelo://app?vid=b8c479d3-110a-408b-a963-564472a9cce7"},"vehicle_type_id":"4","last_reported":1690567700,"current_range_meters":20000,"station_id":"ce4bgkh2rcd13ifvqbk0","pricing_plan_id":"free"},{"bike_id":"fb0029f5-2ed6-4a72-9f83-59297a149065","system_id":"levelo_inurba_marseille","lat":43.303,"lon":5.39213,"is_reserved":false,"is_disabled":false,"rental_uris":{"android":"levelo://app?vid=fb0029f5-2ed6-4a72-9f83-59297a149065","ios":"levelo://app?vid=fb0029f5-2ed6-4a72-9f83-59297a149065"},"vehicle_type_id":"4","last_reported":1690567700,"current_range_meters":13200,"station_id":"ce4bgkh2rcd13ifvqbk0","pricing_plan_id":"free"},{"bike_id":"46d3a899-1262-4226-9400-7e177d6b6d8f","system_id":"levelo_inurba_marseille","lat":43.29263,"lon":5.35968,"is_reserved":false,"is_disabled":false,"rental_uris":{"android":"levelo://app?vid=46d3a899-1262-4226-9400-7e177d6b6d8f","ios":"levelo://app?vid=46d3a899-1262-4226-9400-7e177d6b6d8f"},"vehicle_type_id":"4","last_reported":1690567700,"current_range_meters":30400,"station_id":"","pricing_plan_id":"free"},{"bike_id":"1e37e08f-a0c1-4ac2-a943-60a0d009916a","system_id":"levelo_inurba_marseille","lat":43.30293,"lon":5.39214,"is_reserved":false,"is_disabled":false,"rental_uris":{"android":"levelo://app?vid=1e37e08f-a0c1-4ac2-a943-60a0d009916a","ios":"levelo://app?vid=1e37e08f-a0c1-4ac2-a943-60a0d009916a"},"vehicle_type_id":"4","last_reported":1690567700,"current_range_meters":19600,"station_id":"ce4bgkh2rcd13ifvqbk0","pricing_plan_id":"free"},{"bike_id":"89a21e67-1716-4b03-870f-c32ff08d0fdd","system_id":"levelo_inurba_marseille","lat":43.293722,"lon":5.378615,"is_reserved":false,"is_disabled":false,"rental_uris":{"android":"levelo://app?vid=89a21e67-1716-4b03-870f-c32ff08d0fdd","ios":"levelo://app?vid=89a21e67-1716-4b03-870f-c32ff08d0fdd"},"vehicle_type_id":"4","last_reported":1690567700,"current_range_meters":24000,"station_id":"ce4bgjh2rcd13ifvqbf0","pricing_plan_id":"free"},{"bike_id":"160d30b4-fd1a-4079-b5ea-b0527be41aab","system_id":"levelo_inurba_marseille","lat":43.2936,"lon":5.37835,"is_reserved":false,"is_disabled":false,"rental_uris":{"android":"levelo://app?vid=160d30b4-fd1a-4079-b5ea-b0527be41aab","ios":"levelo://app?vid=160d30b4-fd1a-4079-b5ea-b0527be41aab"},"vehicle_type_id":"4","last_reported":1690567700,"current_range_meters":4000,"station_id":"ce4bgjh2rcd13ifvqbf0","pricing_plan_id":"free"},{"bike_id":"718b87f6-ad7e-4ac5-ba72-fdca0fdc734d","system_id":"levelo_inurba_marseille","lat":43.292337,"lon":5.360584,"is_reserved":false,"is_disabled":false,"rental_uris":{"android":"levelo://app?vid=718b87f6-ad7e-4ac5-ba72-fdca0fdc734d","ios":"levelo://app?vid=718b87f6-ad7e-4ac5-ba72-fdca0fdc734d"},"vehicle_type_id":"4","last_reported":1690567700,"current_range_meters":0,"station_id":"","pricing_plan_id":"free"},{"bike_id":"1a572529-e73f-438a-b501-ee85d2bfef41","system_id":"levelo_inurba_marseille","lat":43.300852,"lon":5.390859,"is_reserved":false,"is_disabled":false,"rental_uris":{"android":"levelo://app?vid=1a572529-e73f-438a-b501-ee85d2bfef41","ios":"levelo://app?vid=1a572529-e73f-438a-b501-ee85d2bfef41"},"vehicle_type_id":"4","last_reported":1690567700,"current_range_meters":31200,"station_id":"ce4bh192rcd13ifvqdb0","pricing_plan_id":"free"},{"bike_id":"4799022f-af70-40f9-a406-4568aaf4e3d8","system_id":"levelo_inurba_marseille","lat":43.292311,"lon":5.360731,"is_reserved":false,"is_disabled":false,"rental_uris":{"android":"levelo://app?vid=4799022f-af70-40f9-a406-4568aaf4e3d8","ios":"levelo://app?vid=4799022f-af70-40f9-a406-4568aaf4e3d8"},"vehicle_type_id":"4","last_reported":1690567700,"current_range_meters":7200,"station_id":"ce4bhbh2rcd13ifvqeqg","pricing_plan_id":"free"},{"bike_id":"8c1d0b48-f344-414d-b9ec-54c30d6a7cde","system_id":"levelo_inurba_marseille","lat":43.30085,"lon":5.390856,"is_reserved":false,"is_disabled":false,"rental_uris":{"android":"levelo://app?vid=8c1d0b48-f344-414d-b9ec-54c30d6a7cde","ios":"levelo://app?vid=8c1d0b48-f344-414d-b9ec-54c30d6a7cde"},"vehicle_type_id":"4","last_reported":1690567700,"current_range_meters":26800,"station_id":"ce4bh192rcd13ifvqdb0","pricing_plan_id":"free"},{"bike_id":"80aafe49-808c-45b6-adb3-7618ac33b986","system_id":"levelo_inurba_marseille","lat":43.30088,"lon":5.39081,"is_reserved":false,"is_disabled":false,"rental_uris":{"android":"levelo://app?vid=80aafe49-808c-45b6-adb3-7618ac33b986","ios":"levelo://app?vid=80aafe49-808c-45b6-adb3-7618ac33b986"},"vehicle_type_id":"4","last_reported":1690567700,"current_range_meters":31600,"station_id":"","pricing_plan_id":"free"},{"bike_id":"3512e984-19da-4dc8-9a0e-faf5d8e92333","system_id":"levelo_inurba_marseille","lat":43.30085,"lon":5.390856,"is_reserved":false,"is_disabled":false,"rental_uris":{"android":"levelo://app?vid=3512e984-19da-4dc8-9a0e-faf5d8e92333","ios":"levelo://app?vid=3512e984-19da-4dc8-9a0e-faf5d8e92333"},"vehicle_type_id":"4","last_reported":1690567700,"current_range_meters":2800,"station_id":"ce4bh192rcd13ifvqdb0","pricing_plan_id":"free"},{"bike_id":"75775dd5-2967-4172-b310-35379f0dfd28","system_id":"levelo_inurba_marseille","lat":43.292663,"lon":5.376389,"is_reserved":false,"is_disabled":false,"rental_uris":{"android":"levelo://app?vid=75775dd5-2967-4172-b310-35379f0dfd28","ios":"levelo://app?vid=75775dd5-2967-4172-b310-35379f0dfd28"},"vehicle_type_id":"4","last_reported":1690567700,"current_range_meters":13200,"station_id":"ce4bgi12rcd13ifvqb80","pricing_plan_id":"free"},{"bike_id":"fb5a3483-66aa-4b40-afa4-7a56ac8cab50","system_id":"levelo_inurba_marseille","lat":43.292663,"lon":5.376394,"is_reserved":false,"is_disabled":false,"rental_uris":{"android":"levelo://app?vid=fb5a3483-66aa-4b40-afa4-7a56ac8cab50","ios":"levelo://app?vid=fb5a3483-66aa-4b40-afa4-7a56ac8cab50"},"vehicle_type_id":"4","last_reported":1690567700,"current_range_meters":23600,"station_id":"ce4bgi12rcd13ifvqb80","pricing_plan_id":"free"},{"bike_id":"b8c695b6-67d6-49ce-8d65-4185bd7192d5","system_id":"levelo_inurba_marseille","lat":43.298764,"lon":5.388973,"is_reserved":false,"is_disabled":false,"rental_uris":{"android":"levelo://app?vid=b8c695b6-67d6-49ce-8d65-4185bd7192d5","ios":"levelo://app?vid=b8c695b6-67d6-49ce-8d65-4185bd7192d5"},"vehicle_type_id":"4","last_reported":1690567700,"current_range_meters":23200,"station_id":"ce4bh392rcd13ifvqdl0","pricing_plan_id":"free"},{"bike_id":"ff32cde7-5eab-43c8-84a5-4de83f7db0c6","system_id":"levelo_inurba_marseille","lat":43.298764,"lon":5.388973,"is_reserved":false,"is_disabled":false,"rental_uris":{"android":"levelo://app?vid=ff32cde7-5eab-43c8-84a5-4de83f7db0c6","ios":"levelo://app?vid=ff32cde7-5eab-43c8-84a5-4de83f7db0c6"},"vehicle_type_id":"4","last_reported":1690567700,"current_range_meters":13600,"station_id":"ce4bh392rcd13ifvqdl0","pricing_plan_id":"free"},{"bike_id":"0ddcaad6-9866-4af6-9cdd-7d7ce7ed82b2","system_id":"levelo_inurba_marseille","lat":43.292663,"lon":5.376394,"is_reserved":false,"is_disabled":false,"rental_uris":{"android":"levelo://app?vid=0ddcaad6-9866-4af6-9cdd-7d7ce7ed82b2","ios":"levelo://app?vid=0ddcaad6-9866-4af6-9cdd-7d7ce7ed82b2"},"vehicle_type_id":"4","last_reported":1690567700,"current_range_meters":20000,"station_id":"ce4bgi12rcd13ifvqb80","pricing_plan_id":"free"},{"bike_id":"726044d3-ad5c-4026-b78e-b70d1489a8e2","system_id":"levelo_inurba_marseille","lat":43.298764,"lon":5.388973,"is_reserved":false,"is_disabled":false,"rental_uris":{"android":"levelo://app?vid=726044d3-ad5c-4026-b78e-b70d1489a8e2","ios":"levelo://app?vid=726044d3-ad5c-4026-b78e-b70d1489a8e2"},"vehicle_type_id":"4","last_reported":1690567700,"current_range_meters":16000,"station_id":"ce4bh392rcd13ifvqdl0","pricing_plan_id":"free"},{"bike_id":"6d9fadb4-ae52-43fb-8494-001ca309ac6b","system_id":"levelo_inurba_marseille","lat":43.29197,"lon":5.35798,"is_reserved":false,"is_disabled":false,"rental_uris":{"android":"levelo://app?vid=6d9fadb4-ae52-43fb-8494-001ca309ac6b","ios":"levelo://app?vid=6d9fadb4-ae52-43fb-8494-001ca309ac6b"},"vehicle_type_id":"4","last_reported":1690567700,"current_range_meters":3600,"station_id":"ce4bhb12rcd13ifvqel0","pricing_plan_id":"free"},{"bike_id":"4451c5ac-c5b5-4113-be17-43fa274ebf18","system_id":"levelo_inurba_marseille","lat":43.291994,"lon":5.357886,"is_reserved":false,"is_disabled":false,"rental_uris":{"android":"levelo://app?vid=4451c5ac-c5b5-4113-be17-43fa274ebf18","ios":"levelo://app?vid=4451c5ac-c5b5-4113-be17-43fa274ebf18"},"vehicle_type_id":"4","last_reported":1690567700,"current_range_meters":19600,"station_id":"ce4bhb12rcd13ifvqel0","pricing_plan_id":"free"},{"bike_id":"f1bf4665-7ac2-4c69-9418-af76438cecd3","system_id":"levelo_inurba_marseille","lat":43.3132,"lon":5.39691,"is_reserved":false,"is_disabled":false,"rental_uris":{"android":"levelo://app?vid=f1bf4665-7ac2-4c69-9418-af76438cecd3","ios":"levelo://app?vid=f1bf4665-7ac2-4c69-9418-af76438cecd3"},"vehicle_type_id":"4","last_reported":1690567700,"current_range_meters":26400,"station_id":"ce4bgvp2rcd13ifvqcu0","pricing_plan_id":"free"},{"bike_id":"e810061f-daa4-437a-8eb8-8ffdcd32f682","system_id":"levelo_inurba_marseille","lat":43.313291,"lon":5.396838,"is_reserved":false,"is_disabled":false,"rental_uris":{"android":"levelo://app?vid=e810061f-daa4-437a-8eb8-8ffdcd32f682","ios":"levelo://app?vid=e810061f-daa4-437a-8eb8-8ffdcd32f682"},"vehicle_type_id":"4","last_reported":1690567700,"current_range_meters":2400,"station_id":"ce4bgvp2rcd13ifvqcu0","pricing_plan_id":"free"},{"bike_id":"7305f0ae-51cf-4ef4-882d-4aa18b9c8dd4","system_id":"levelo_inurba_marseille","lat":43.313291,"lon":5.396838,"is_reserved":false,"is_disabled":false,"rental_uris":{"android":"levelo://app?vid=7305f0ae-51cf-4ef4-882d-4aa18b9c8dd4","ios":"levelo://app?vid=7305f0ae-51cf-4ef4-882d-4aa18b9c8dd4"},"vehicle_type_id":"4","last_reported":1690567700,"current_range_meters":20800,"station_id":"ce4bgvp2rcd13ifvqcu0","pricing_plan_id":"free"},{"bike_id":"aee6316e-53ed-42bc-9908-9de762ac05bb","system_id":"levelo_inurba_marseille","lat":43.30891,"lon":5.39662,"is_reserved":false,"is_disabled":false,"rental_uris":{"android":"levelo://app?vid=aee6316e-53ed-42bc-9908-9de762ac05bb","ios":"levelo://app?vid=aee6316e-53ed-42bc-9908-9de762ac05bb"},"vehicle_type_id":"4","last_reported":1690567700,"current_range_meters":4400,"station_id":"ce4bh012rcd13ifvqcv0","pricing_plan_id":"free"},{"bike_id":"e7f9fa23-eda3-4d25-9e58-ac2fe8f3437e","system_id":"levelo_inurba_marseille","lat":43.29529,"lon":5.385581,"is_reserved":false,"is_disabled":false,"rental_uris":{"android":"levelo://app?vid=e7f9fa23-eda3-4d25-9e58-ac2fe8f3437e","ios":"levelo://app?vid=e7f9fa23-eda3-4d25-9e58-ac2fe8f3437e"},"vehicle_type_id":"4","last_reported":1690567700,"current_range_meters":800,"station_id":"ce4bgih2rcd13ifvqba0","pricing_plan_id":"free"},{"bike_id":"c1283aae-a5b2-4b88-b6f5-7d7481de71e2","system_id":"levelo_inurba_marseille","lat":43.29416,"lon":5.38316,"is_reserved":false,"is_disabled":false,"rental_uris":{"android":"levelo://app?vid=c1283aae-a5b2-4b88-b6f5-7d7481de71e2","ios":"levelo://app?vid=c1283aae-a5b2-4b88-b6f5-7d7481de71e2"},"vehicle_type_id":"4","last_reported":1690567700,"current_range_meters":12800,"station_id":"","pricing_plan_id":"free"},{"bike_id":"a103c4e6-e5ce-4f46-b703-5300a6154229","system_id":"levelo_inurba_marseille","lat":43.29529,"lon":5.385581,"is_reserved":false,"is_disabled":false,"rental_uris":{"android":"levelo://app?vid=a103c4e6-e5ce-4f46-b703-5300a6154229","ios":"levelo://app?vid=a103c4e6-e5ce-4f46-b703-5300a6154229"},"vehicle_type_id":"4","last_reported":1690567700,"current_range_meters":6800,"station_id":"ce4bgih2rcd13ifvqba0","pricing_plan_id":"free"},{"bike_id":"a3141e0b-b76e-46d8-aef9-76f1e353c4f3","system_id":"levelo_inurba_marseille","lat":43.29529,"lon":5.385581,"is_reserved":false,"is_disabled":false,"rental_uris":{"android":"levelo://app?vid=a3141e0b-b76e-46d8-aef9-76f1e353c4f3","ios":"levelo://app?vid=a3141e0b-b76e-46d8-aef9-76f1e353c4f3"},"vehicle_type_id":"4","last_reported":1690567700,"current_range_meters":30400,"station_id":"ce4bgih2rcd13ifvqba0","pricing_plan_id":"free"},{"bike_id":"0ac7c8a8-44c1-46bf-9b93-a2f3937dae5c","system_id":"levelo_inurba_marseille","lat":43.29529,"lon":5.385581,"is_reserved":false,"is_disabled":false,"rental_uris":{"android":"levelo://app?vid=0ac7c8a8-44c1-46bf-9b93-a2f3937dae5c","ios":"levelo://app?vid=0ac7c8a8-44c1-46bf-9b93-a2f3937dae5c"},"vehicle_type_id":"4","last_reported":1690567700,"current_range_meters":0,"station_id":"ce4bgih2rcd13ifvqba0","pricing_plan_id":"free"},{"bike_id":"7d3d61d1-61f4-4fd6-a77d-1c07683dc8db","system_id":"levelo_inurba_marseille","lat":43.29071,"lon":5.37165,"is_reserved":false,"is_disabled":false,"rental_uris":{"android":"levelo://app?vid=7d3d61d1-61f4-4fd6-a77d-1c07683dc8db","ios":"levelo://app?vid=7d3d61d1-61f4-4fd6-a77d-1c07683dc8db"},"vehicle_type_id":"4","last_reported":1690567700,"current_range_meters":21200,"station_id":"ce4bh5p2rcd13ifvqe4g","pricing_plan_id":"free"},{"bike_id":"688a0cd1-148c-4b72-b4bd-5cc79927b274","system_id":"levelo_inurba_marseille","lat":43.283998,"lon":5.375062,"is_reserved":false,"is_disabled":false,"rental_uris":{"android":"levelo://app?vid=688a0cd1-148c-4b72-b4bd-5cc79927b274","ios":"levelo://app?vid=688a0cd1-148c-4b72-b4bd-5cc79927b274"},"vehicle_type_id":"4","last_reported":1690567700,"current_range_meters":23200,"station_id":"ce4bh412rcd13ifvqds0","pricing_plan_id":"free"},{"bike_id":"255aded6-1ad1-42ed-a3e1-5ddd7e973afd","system_id":"levelo_inurba_marseille","lat":43.302008,"lon":5.394694,"is_reserved":false,"is_disabled":false,"rental_uris":{"android":"levelo://app?vid=255aded6-1ad1-42ed-a3e1-5ddd7e973afd","ios":"levelo://app?vid=255aded6-1ad1-42ed-a3e1-5ddd7e973afd"},"vehicle_type_id":"4","last_reported":1690567700,"current_range_meters":20800,"station_id":"ce4bh0p2rcd13ifvqd70","pricing_plan_id":"free"},{"bike_id":"1c9807f7-072c-4c1c-9016-f205fde1baf1","system_id":"levelo_inurba_marseille","lat":43.290327,"lon":5.375711,"is_reserved":false,"is_disabled":false,"rental_uris":{"android":"levelo://app?vid=1c9807f7-072c-4c1c-9016-f205fde1baf1","ios":"levelo://app?vid=1c9807f7-072c-4c1c-9016-f205fde1baf1"},"vehicle_type_id":"4","last_reported":1690567700,"current_range_meters":23200,"station_id":"ce4bh692rcd13ifvqe90","pricing_plan_id":"free"},{"bike_id":"4a52df8a-0e0d-462f-84ce-543dcd3f6da9","system_id":"levelo_inurba_marseille","lat":43.294153,"lon":5.386305,"is_reserved":false,"is_disabled":false,"rental_uris":{"android":"levelo://app?vid=4a52df8a-0e0d-462f-84ce-543dcd3f6da9","ios":"levelo://app?vid=4a52df8a-0e0d-462f-84ce-543dcd3f6da9"},"vehicle_type_id":"4","last_reported":1690567700,"current_range_meters":22800,"station_id":"ce4bh2h2rcd13ifvqdh0","pricing_plan_id":"free"},{"bike_id":"85a4910c-0a6d-4483-b737-27f25f024128","system_id":"levelo_inurba_marseille","lat":43.294153,"lon":5.386305,"is_reserved":false,"is_disabled":false,"rental_uris":{"android":"levelo://app?vid=85a4910c-0a6d-4483-b737-27f25f024128","ios":"levelo://app?vid=85a4910c-0a6d-4483-b737-27f25f024128"},"vehicle_type_id":"4","last_reported":1690567700,"current_range_meters":21200,"station_id":"ce4bh2h2rcd13ifvqdh0","pricing_plan_id":"free"},{"bike_id":"0876d749-bd46-426c-86de-4e06b32520e3","system_id":"levelo_inurba_marseille","lat":43.290327,"lon":5.375711,"is_reserved":false,"is_disabled":false,"rental_uris":{"android":"levelo://app?vid=0876d749-bd46-426c-86de-4e06b32520e3","ios":"levelo://app?vid=0876d749-bd46-426c-86de-4e06b32520e3"},"vehicle_type_id":"4","last_reported":1690567700,"current_range_meters":22400,"station_id":"ce4bh692rcd13ifvqe90","pricing_plan_id":"free"},{"bike_id":"643e5f4a-91e3-4486-9456-a7e87e70a4d7","system_id":"levelo_inurba_marseille","lat":43.294162,"lon":5.386292,"is_reserved":false,"is_disabled":false,"rental_uris":{"android":"levelo://app?vid=643e5f4a-91e3-4486-9456-a7e87e70a4d7","ios":"levelo://app?vid=643e5f4a-91e3-4486-9456-a7e87e70a4d7"},"vehicle_type_id":"4","last_reported":1690567700,"current_range_meters":16000,"station_id":"ce4bh2h2rcd13ifvqdh0","pricing_plan_id":"free"},{"bike_id":"412119d4-d582-4168-a851-ab6cd1a5ce1f","system_id":"levelo_inurba_marseille","lat":43.294153,"lon":5.386305,"is_reserved":false,"is_disabled":false,"rental_uris":{"android":"levelo://app?vid=412119d4-d582-4168-a851-ab6cd1a5ce1f","ios":"levelo://app?vid=412119d4-d582-4168-a851-ab6cd1a5ce1f"},"vehicle_type_id":"4","last_reported":1690567700,"current_range_meters":3600,"station_id":"ce4bh2h2rcd13ifvqdh0","pricing_plan_id":"free"},{"bike_id":"42b3ab20-e90b-4fbd-87e1-8042d70a6141","system_id":"levelo_inurba_marseille","lat":43.294162,"lon":5.386292,"is_reserved":false,"is_disabled":false,"rental_uris":{"android":"levelo://app?vid=42b3ab20-e90b-4fbd-87e1-8042d70a6141","ios":"levelo://app?vid=42b3ab20-e90b-4fbd-87e1-8042d70a6141"},"vehicle_type_id":"4","last_reported":1690567700,"current_range_meters":13200,"station_id":"ce4bh2h2rcd13ifvqdh0","pricing_plan_id":"free"},{"bike_id":"babf4f7c-96a4-436d-9116-c8c4c5240904","system_id":"levelo_inurba_marseille","lat":43.294162,"lon":5.386292,"is_reserved":false,"is_disabled":false,"rental_uris":{"android":"levelo://app?vid=babf4f7c-96a4-436d-9116-c8c4c5240904","ios":"levelo://app?vid=babf4f7c-96a4-436d-9116-c8c4c5240904"},"vehicle_type_id":"4","last_reported":1690567700,"current_range_meters":23600,"station_id":"ce4bh2h2rcd13ifvqdh0","pricing_plan_id":"free"},{"bike_id":"701e1ad9-e2bc-4398-bfde-5e8db9fe637b","system_id":"levelo_inurba_marseille","lat":43.294162,"lon":5.386292,"is_reserved":false,"is_disabled":false,"rental_uris":{"android":"levelo://app?vid=701e1ad9-e2bc-4398-bfde-5e8db9fe637b","ios":"levelo://app?vid=701e1ad9-e2bc-4398-bfde-5e8db9fe637b"},"vehicle_type_id":"4","last_reported":1690567700,"current_range_meters":1600,"station_id":"ce4bh2h2rcd13ifvqdh0","pricing_plan_id":"free"},{"bike_id":"aa3a92bc-901d-4d97-abcb-f1fbdf031639","system_id":"levelo_inurba_marseille","lat":43.289468,"lon":5.363719,"is_reserved":false,"is_disabled":false,"rental_uris":{"android":"levelo://app?vid=aa3a92bc-901d-4d97-abcb-f1fbdf031639","ios":"levelo://app?vid=aa3a92bc-901d-4d97-abcb-f1fbdf031639"},"vehicle_type_id":"4","last_reported":1690567700,"current_range_meters":10800,"station_id":"ce4bhc92rcd13ifvqetg","pricing_plan_id":"free"},{"bike_id":"6b0fc4d8-95fb-4604-8dad-0ed2b093f129","system_id":"levelo_inurba_marseille","lat":43.28939,"lon":5.36382,"is_reserved":false,"is_disabled":false,"rental_uris":{"android":"levelo://app?vid=6b0fc4d8-95fb-4604-8dad-0ed2b093f129","ios":"levelo://app?vid=6b0fc4d8-95fb-4604-8dad-0ed2b093f129"},"vehicle_type_id":"4","last_reported":1690567700,"current_range_meters":27600,"station_id":"","pricing_plan_id":"free"},{"bike_id":"1a3ef5dc-bcc4-42c2-a6d2-11616381fbae","system_id":"levelo_inurba_marseille","lat":43.290631,"lon":5.359244,"is_reserved":false,"is_disabled":false,"rental_uris":{"android":"levelo://app?vid=1a3ef5dc-bcc4-42c2-a6d2-11616381fbae","ios":"levelo://app?vid=1a3ef5dc-bcc4-42c2-a6d2-11616381fbae"},"vehicle_type_id":"4","last_reported":1690567700,"current_range_meters":8800,"station_id":"ce4bha92rcd13ifvqeg0","pricing_plan_id":"free"},{"bike_id":"e87c3b09-31e3-457f-a6d2-76d039a1d840","system_id":"levelo_inurba_marseille","lat":43.292642,"lon":5.384254,"is_reserved":false,"is_disabled":false,"rental_uris":{"android":"levelo://app?vid=e87c3b09-31e3-457f-a6d2-76d039a1d840","ios":"levelo://app?vid=e87c3b09-31e3-457f-a6d2-76d039a1d840"},"vehicle_type_id":"4","last_reported":1690567700,"current_range_meters":20000,"station_id":"ce4bh692rcd13ifvqea0","pricing_plan_id":"free"},{"bike_id":"d29cf246-f764-4186-b4b4-7b5c81661a4a","system_id":"levelo_inurba_marseille","lat":43.292644,"lon":5.384257,"is_reserved":false,"is_disabled":false,"rental_uris":{"android":"levelo://app?vid=d29cf246-f764-4186-b4b4-7b5c81661a4a","ios":"levelo://app?vid=d29cf246-f764-4186-b4b4-7b5c81661a4a"},"vehicle_type_id":"4","last_reported":1690567700,"current_range_meters":5600,"station_id":"ce4bh692rcd13ifvqea0","pricing_plan_id":"free"},{"bike_id":"8475b491-afe7-4c9f-924a-51d9e0baf780","system_id":"levelo_inurba_marseille","lat":43.292642,"lon":5.384254,"is_reserved":false,"is_disabled":false,"rental_uris":{"android":"levelo://app?vid=8475b491-afe7-4c9f-924a-51d9e0baf780","ios":"levelo://app?vid=8475b491-afe7-4c9f-924a-51d9e0baf780"},"vehicle_type_id":"4","last_reported":1690567700,"current_range_meters":18000,"station_id":"ce4bh692rcd13ifvqea0","pricing_plan_id":"free"},{"bike_id":"b8ddd0ba-e69e-46d9-97cc-0469930226ca","system_id":"levelo_inurba_marseille","lat":43.292644,"lon":5.384257,"is_reserved":false,"is_disabled":false,"rental_uris":{"android":"levelo://app?vid=b8ddd0ba-e69e-46d9-97cc-0469930226ca","ios":"levelo://app?vid=b8ddd0ba-e69e-46d9-97cc-0469930226ca"},"vehicle_type_id":"4","last_reported":1690567700,"current_range_meters":3200,"station_id":"ce4bh692rcd13ifvqea0","pricing_plan_id":"free"},{"bike_id":"3ae35f98-e668-4d7d-8f86-05523f3f04d9","system_id":"levelo_inurba_marseille","lat":43.292642,"lon":5.384254,"is_reserved":false,"is_disabled":false,"rental_uris":{"android":"levelo://app?vid=3ae35f98-e668-4d7d-8f86-05523f3f04d9","ios":"levelo://app?vid=3ae35f98-e668-4d7d-8f86-05523f3f04d9"},"vehicle_type_id":"4","last_reported":1690567700,"current_range_meters":3600,"station_id":"ce4bh692rcd13ifvqea0","pricing_plan_id":"free"},{"bike_id":"a767563a-dd07-4706-83fe-4107ebbac331","system_id":"levelo_inurba_marseille","lat":43.292644,"lon":5.384257,"is_reserved":false,"is_disabled":false,"rental_uris":{"android":"levelo://app?vid=a767563a-dd07-4706-83fe-4107ebbac331","ios":"levelo://app?vid=a767563a-dd07-4706-83fe-4107ebbac331"},"vehicle_type_id":"4","last_reported":1690567700,"current_range_meters":23600,"station_id":"ce4bh692rcd13ifvqea0","pricing_plan_id":"free"},{"bike_id":"b0be2808-86a5-455d-947e-385e006c350e","system_id":"levelo_inurba_marseille","lat":43.292644,"lon":5.384257,"is_reserved":false,"is_disabled":false,"rental_uris":{"android":"levelo://app?vid=b0be2808-86a5-455d-947e-385e006c350e","ios":"levelo://app?vid=b0be2808-86a5-455d-947e-385e006c350e"},"vehicle_type_id":"4","last_reported":1690567700,"current_range_meters":30400,"station_id":"ce4bh692rcd13ifvqea0","pricing_plan_id":"free"},{"bike_id":"100a46fd-2e86-4716-955c-81059df410b1","system_id":"levelo_inurba_marseille","lat":43.292642,"lon":5.384254,"is_reserved":false,"is_disabled":false,"rental_uris":{"android":"levelo://app?vid=100a46fd-2e86-4716-955c-81059df410b1","ios":"levelo://app?vid=100a46fd-2e86-4716-955c-81059df410b1"},"vehicle_type_id":"4","last_reported":1690567700,"current_range_meters":13600,"station_id":"ce4bh692rcd13ifvqea0","pricing_plan_id":"free"},{"bike_id":"f5ba2464-2934-4cd2-bdfb-864c7245cf3e","system_id":"levelo_inurba_marseille","lat":43.2926,"lon":5.38443,"is_reserved":false,"is_disabled":false,"rental_uris":{"android":"levelo://app?vid=f5ba2464-2934-4cd2-bdfb-864c7245cf3e","ios":"levelo://app?vid=f5ba2464-2934-4cd2-bdfb-864c7245cf3e"},"vehicle_type_id":"4","last_reported":1690567700,"current_range_meters":19600,"station_id":"ce4bh692rcd13ifvqea0","pricing_plan_id":"free"},{"bike_id":"58f04bc4-ae8c-4b2e-b97a-a058f8431800","system_id":"levelo_inurba_marseille","lat":43.292644,"lon":5.384257,"is_reserved":false,"is_disabled":false,"rental_uris":{"android":"levelo://app?vid=58f04bc4-ae8c-4b2e-b97a-a058f8431800","ios":"levelo://app?vid=58f04bc4-ae8c-4b2e-b97a-a058f8431800"},"vehicle_type_id":"4","last_reported":1690567700,"current_range_meters":4000,"station_id":"ce4bh692rcd13ifvqea0","pricing_plan_id":"free"},{"bike_id":"ad8844e2-9259-47f7-8f40-fa484d6c5a98","system_id":"levelo_inurba_marseille","lat":43.292642,"lon":5.384254,"is_reserved":false,"is_disabled":false,"rental_uris":{"android":"levelo://app?vid=ad8844e2-9259-47f7-8f40-fa484d6c5a98","ios":"levelo://app?vid=ad8844e2-9259-47f7-8f40-fa484d6c5a98"},"vehicle_type_id":"4","last_reported":1690567700,"current_range_meters":12000,"station_id":"ce4bh692rcd13ifvqea0","pricing_plan_id":"free"},{"bike_id":"b232e831-da3c-41cd-86bf-0298618bd123","system_id":"levelo_inurba_marseille","lat":43.29261,"lon":5.38451,"is_reserved":false,"is_disabled":false,"rental_uris":{"android":"levelo://app?vid=b232e831-da3c-41cd-86bf-0298618bd123","ios":"levelo://app?vid=b232e831-da3c-41cd-86bf-0298618bd123"},"vehicle_type_id":"4","last_reported":1690567700,"current_range_meters":0,"station_id":"ce4bh692rcd13ifvqea0","pricing_plan_id":"free"},{"bike_id":"e1abaf2d-c31c-4c12-b4ec-5dd51f9510e3","system_id":"levelo_inurba_marseille","lat":43.292644,"lon":5.384257,"is_reserved":false,"is_disabled":false,"rental_uris":{"android":"levelo://app?vid=e1abaf2d-c31c-4c12-b4ec-5dd51f9510e3","ios":"levelo://app?vid=e1abaf2d-c31c-4c12-b4ec-5dd51f9510e3"},"vehicle_type_id":"4","last_reported":1690567700,"current_range_meters":2000,"station_id":"ce4bh692rcd13ifvqea0","pricing_plan_id":"free"},{"bike_id":"11b91e90-c8d5-4d47-8dcf-c9e2d5d08ca7","system_id":"levelo_inurba_marseille","lat":43.290104,"lon":5.356111,"is_reserved":false,"is_disabled":false,"rental_uris":{"android":"levelo://app?vid=11b91e90-c8d5-4d47-8dcf-c9e2d5d08ca7","ios":"levelo://app?vid=11b91e90-c8d5-4d47-8dcf-c9e2d5d08ca7"},"vehicle_type_id":"4","last_reported":1690567700,"current_range_meters":14800,"station_id":"ce4bhb92rcd13ifvqen0","pricing_plan_id":"free"},{"bike_id":"b370901f-9914-4f0c-9bc0-1d71f90dbdc1","system_id":"levelo_inurba_marseille","lat":43.33044,"lon":5.38913,"is_reserved":false,"is_disabled":false,"rental_uris":{"android":"levelo://app?vid=b370901f-9914-4f0c-9bc0-1d71f90dbdc1","ios":"levelo://app?vid=b370901f-9914-4f0c-9bc0-1d71f90dbdc1"},"vehicle_type_id":"4","last_reported":1690567700,"current_range_meters":2800,"station_id":"ce4bhr92rcd13ifvqhrg","pricing_plan_id":"free"},{"bike_id":"8a01f22d-e24d-45e1-965b-93a1cb9e4304","system_id":"levelo_inurba_marseille","lat":43.290104,"lon":5.356111,"is_reserved":false,"is_disabled":false,"rental_uris":{"android":"levelo://app?vid=8a01f22d-e24d-45e1-965b-93a1cb9e4304","ios":"levelo://app?vid=8a01f22d-e24d-45e1-965b-93a1cb9e4304"},"vehicle_type_id":"4","last_reported":1690567700,"current_range_meters":0,"station_id":"ce4bhb92rcd13ifvqen0","pricing_plan_id":"free"},{"bike_id":"3ad392a5-8356-4057-aa0f-a21c95d4dadd","system_id":"levelo_inurba_marseille","lat":43.33043,"lon":5.38919,"is_reserved":false,"is_disabled":false,"rental_uris":{"android":"levelo://app?vid=3ad392a5-8356-4057-aa0f-a21c95d4dadd","ios":"levelo://app?vid=3ad392a5-8356-4057-aa0f-a21c95d4dadd"},"vehicle_type_id":"4","last_reported":1690567700,"current_range_meters":29200,"station_id":"ce4bhr92rcd13ifvqhrg","pricing_plan_id":"free"},{"bike_id":"f56db9a8-b4b7-4400-bf17-8a65adc21520","system_id":"levelo_inurba_marseille","lat":43.33045,"lon":5.38916,"is_reserved":false,"is_disabled":false,"rental_uris":{"android":"levelo://app?vid=f56db9a8-b4b7-4400-bf17-8a65adc21520","ios":"levelo://app?vid=f56db9a8-b4b7-4400-bf17-8a65adc21520"},"vehicle_type_id":"4","last_reported":1690567700,"current_range_meters":26400,"station_id":"ce4bhr92rcd13ifvqhrg","pricing_plan_id":"free"},{"bike_id":"7f8cd082-ca36-456b-b42d-1dc31c9f8f4f","system_id":"levelo_inurba_marseille","lat":43.290103,"lon":5.356114,"is_reserved":false,"is_disabled":false,"rental_uris":{"android":"levelo://app?vid=7f8cd082-ca36-456b-b42d-1dc31c9f8f4f","ios":"levelo://app?vid=7f8cd082-ca36-456b-b42d-1dc31c9f8f4f"},"vehicle_type_id":"4","last_reported":1690567700,"current_range_meters":800,"station_id":"ce4bhb92rcd13ifvqen0","pricing_plan_id":"free"},{"bike_id":"8736f758-9f23-4d70-85e8-b623c4fe70e5","system_id":"levelo_inurba_marseille","lat":43.29008,"lon":5.35612,"is_reserved":false,"is_disabled":false,"rental_uris":{"android":"levelo://app?vid=8736f758-9f23-4d70-85e8-b623c4fe70e5","ios":"levelo://app?vid=8736f758-9f23-4d70-85e8-b623c4fe70e5"},"vehicle_type_id":"4","last_reported":1690567700,"current_range_meters":13600,"station_id":"ce4bhb92rcd13ifvqen0","pricing_plan_id":"free"},{"bike_id":"baaec814-8d8b-4159-bc78-ca28966986fa","system_id":"levelo_inurba_marseille","lat":43.290103,"lon":5.356114,"is_reserved":false,"is_disabled":false,"rental_uris":{"android":"levelo://app?vid=baaec814-8d8b-4159-bc78-ca28966986fa","ios":"levelo://app?vid=baaec814-8d8b-4159-bc78-ca28966986fa"},"vehicle_type_id":"4","last_reported":1690567700,"current_range_meters":13600,"station_id":"ce4bhb92rcd13ifvqen0","pricing_plan_id":"free"},{"bike_id":"8da93449-f4a4-4ce7-879b-49c7c5cb2e16","system_id":"levelo_inurba_marseille","lat":43.330487,"lon":5.389147,"is_reserved":false,"is_disabled":false,"rental_uris":{"android":"levelo://app?vid=8da93449-f4a4-4ce7-879b-49c7c5cb2e16","ios":"levelo://app?vid=8da93449-f4a4-4ce7-879b-49c7c5cb2e16"},"vehicle_type_id":"4","last_reported":1690567700,"current_range_meters":31200,"station_id":"ce4bhr92rcd13ifvqhrg","pricing_plan_id":"free"},{"bike_id":"4ec61e18-4449-432a-b20d-23e915f5b79f","system_id":"levelo_inurba_marseille","lat":43.290104,"lon":5.356111,"is_reserved":false,"is_disabled":false,"rental_uris":{"android":"levelo://app?vid=4ec61e18-4449-432a-b20d-23e915f5b79f","ios":"levelo://app?vid=4ec61e18-4449-432a-b20d-23e915f5b79f"},"vehicle_type_id":"4","last_reported":1690567700,"current_range_meters":25600,"station_id":"ce4bhb92rcd13ifvqen0","pricing_plan_id":"free"},{"bike_id":"8e3fb51d-2552-4d48-91c6-936834c71b8b","system_id":"levelo_inurba_marseille","lat":43.29005,"lon":5.35613,"is_reserved":false,"is_disabled":false,"rental_uris":{"android":"levelo://app?vid=8e3fb51d-2552-4d48-91c6-936834c71b8b","ios":"levelo://app?vid=8e3fb51d-2552-4d48-91c6-936834c71b8b"},"vehicle_type_id":"4","last_reported":1690567700,"current_range_meters":28800,"station_id":"ce4bhb92rcd13ifvqen0","pricing_plan_id":"free"},{"bike_id":"4e30847a-b055-4d00-b9b4-c9e042901b7e","system_id":"levelo_inurba_marseille","lat":43.330461,"lon":5.389227,"is_reserved":false,"is_disabled":false,"rental_uris":{"android":"levelo://app?vid=4e30847a-b055-4d00-b9b4-c9e042901b7e","ios":"levelo://app?vid=4e30847a-b055-4d00-b9b4-c9e042901b7e"},"vehicle_type_id":"4","last_reported":1690567700,"current_range_meters":18800,"station_id":"ce4bhr92rcd13ifvqhrg","pricing_plan_id":"free"},{"bike_id":"729ddadd-39c7-47d2-bb27-376da82108cb","system_id":"levelo_inurba_marseille","lat":43.290995,"lon":5.381361,"is_reserved":false,"is_disabled":false,"rental_uris":{"android":"levelo://app?vid=729ddadd-39c7-47d2-bb27-376da82108cb","ios":"levelo://app?vid=729ddadd-39c7-47d2-bb27-376da82108cb"},"vehicle_type_id":"4","last_reported":1690567700,"current_range_meters":23600,"station_id":"ce4bh512rcd13ifvqe2g","pricing_plan_id":"free"},{"bike_id":"91fec792-a5a5-4820-af7d-3c6be3109af2","system_id":"levelo_inurba_marseille","lat":43.29,"lon":5.35614,"is_reserved":false,"is_disabled":false,"rental_uris":{"android":"levelo://app?vid=91fec792-a5a5-4820-af7d-3c6be3109af2","ios":"levelo://app?vid=91fec792-a5a5-4820-af7d-3c6be3109af2"},"vehicle_type_id":"4","last_reported":1690567700,"current_range_meters":29600,"station_id":"ce4bhb92rcd13ifvqen0","pricing_plan_id":"free"},{"bike_id":"ffeaedcd-6cc3-4433-af3f-20d01d44631d","system_id":"levelo_inurba_marseille","lat":43.29788,"lon":5.39336,"is_reserved":false,"is_disabled":false,"rental_uris":{"android":"levelo://app?vid=ffeaedcd-6cc3-4433-af3f-20d01d44631d","ios":"levelo://app?vid=ffeaedcd-6cc3-4433-af3f-20d01d44631d"},"vehicle_type_id":"4","last_reported":1690567700,"current_range_meters":17200,"station_id":"chh1huq6cuj3fo74tm60","pricing_plan_id":"free"},{"bike_id":"072b9293-a820-41a4-89ea-bf3b0828f443","system_id":"levelo_inurba_marseille","lat":43.297815,"lon":5.393548,"is_reserved":false,"is_disabled":false,"rental_uris":{"android":"levelo://app?vid=072b9293-a820-41a4-89ea-bf3b0828f443","ios":"levelo://app?vid=072b9293-a820-41a4-89ea-bf3b0828f443"},"vehicle_type_id":"4","last_reported":1690567700,"current_range_meters":13200,"station_id":"chh1huq6cuj3fo74tm60","pricing_plan_id":"free"},{"bike_id":"bd8c65f9-b8b7-423f-ab2f-2a1cec9b7549","system_id":"levelo_inurba_marseille","lat":43.295169,"lon":5.390426,"is_reserved":false,"is_disabled":false,"rental_uris":{"android":"levelo://app?vid=bd8c65f9-b8b7-423f-ab2f-2a1cec9b7549","ios":"levelo://app?vid=bd8c65f9-b8b7-423f-ab2f-2a1cec9b7549"},"vehicle_type_id":"4","last_reported":1690567700,"current_range_meters":18400,"station_id":"ce4bh3p2rcd13ifvqdp0","pricing_plan_id":"free"},{"bike_id":"cde0ed29-faa2-428b-9908-c0e7de7d2023","system_id":"levelo_inurba_marseille","lat":43.289782,"lon":5.378364,"is_reserved":false,"is_disabled":false,"rental_uris":{"android":"levelo://app?vid=cde0ed29-faa2-428b-9908-c0e7de7d2023","ios":"levelo://app?vid=cde0ed29-faa2-428b-9908-c0e7de7d2023"},"vehicle_type_id":"4","last_reported":1690567700,"current_range_meters":9200,"station_id":"ce4bh9p2rcd13ifvqed0","pricing_plan_id":"free"},{"bike_id":"97d6629b-de88-4082-b9e0-f5da124cc116","system_id":"levelo_inurba_marseille","lat":43.295169,"lon":5.390426,"is_reserved":false,"is_disabled":false,"rental_uris":{"android":"levelo://app?vid=97d6629b-de88-4082-b9e0-f5da124cc116","ios":"levelo://app?vid=97d6629b-de88-4082-b9e0-f5da124cc116"},"vehicle_type_id":"4","last_reported":1690567700,"current_range_meters":13600,"station_id":"ce4bh3p2rcd13ifvqdp0","pricing_plan_id":"free"},{"bike_id":"3dfc2714-64bc-4d83-b08e-a40f8bf1d606","system_id":"levelo_inurba_marseille","lat":43.2901,"lon":5.381269,"is_reserved":false,"is_disabled":false,"rental_uris":{"android":"levelo://app?vid=3dfc2714-64bc-4d83-b08e-a40f8bf1d606","ios":"levelo://app?vid=3dfc2714-64bc-4d83-b08e-a40f8bf1d606"},"vehicle_type_id":"4","last_reported":1690567700,"current_range_meters":3600,"station_id":"ce4bh4p2rcd13ifvqe1g","pricing_plan_id":"free"},{"bike_id":"a22ee129-e2f6-49df-92f9-720d1700a515","system_id":"levelo_inurba_marseille","lat":43.29033,"lon":5.38137,"is_reserved":false,"is_disabled":false,"rental_uris":{"android":"levelo://app?vid=a22ee129-e2f6-49df-92f9-720d1700a515","ios":"levelo://app?vid=a22ee129-e2f6-49df-92f9-720d1700a515"},"vehicle_type_id":"4","last_reported":1690567700,"current_range_meters":3200,"station_id":"ce4bh4p2rcd13ifvqe1g","pricing_plan_id":"free"},{"bike_id":"067ae578-208a-4aec-ad3c-e8153f902591","system_id":"levelo_inurba_marseille","lat":43.29026,"lon":5.38125,"is_reserved":false,"is_disabled":false,"rental_uris":{"android":"levelo://app?vid=067ae578-208a-4aec-ad3c-e8153f902591","ios":"levelo://app?vid=067ae578-208a-4aec-ad3c-e8153f902591"},"vehicle_type_id":"4","last_reported":1690567700,"current_range_meters":12800,"station_id":"ce4bh4p2rcd13ifvqe1g","pricing_plan_id":"free"},{"bike_id":"d9b13afe-8e02-4804-bcc1-63bb3998db23","system_id":"levelo_inurba_marseille","lat":43.28856,"lon":5.358371,"is_reserved":false,"is_disabled":false,"rental_uris":{"android":"levelo://app?vid=d9b13afe-8e02-4804-bcc1-63bb3998db23","ios":"levelo://app?vid=d9b13afe-8e02-4804-bcc1-63bb3998db23"},"vehicle_type_id":"4","last_reported":1690567700,"current_range_meters":1200,"station_id":"ce4bhb12rcd13ifvqem0","pricing_plan_id":"free"},{"bike_id":"b79ff9c9-6e14-4267-932b-0b34f2e30c2e","system_id":"levelo_inurba_marseille","lat":43.28856,"lon":5.358371,"is_reserved":false,"is_disabled":false,"rental_uris":{"android":"levelo://app?vid=b79ff9c9-6e14-4267-932b-0b34f2e30c2e","ios":"levelo://app?vid=b79ff9c9-6e14-4267-932b-0b34f2e30c2e"},"vehicle_type_id":"4","last_reported":1690567700,"current_range_meters":13600,"station_id":"ce4bhb12rcd13ifvqem0","pricing_plan_id":"free"},{"bike_id":"b0e02498-09cb-43a9-957e-45f4ad80126d","system_id":"levelo_inurba_marseille","lat":43.31276,"lon":5.40156,"is_reserved":false,"is_disabled":false,"rental_uris":{"android":"levelo://app?vid=b0e02498-09cb-43a9-957e-45f4ad80126d","ios":"levelo://app?vid=b0e02498-09cb-43a9-957e-45f4ad80126d"},"vehicle_type_id":"4","last_reported":1690567700,"current_range_meters":14800,"station_id":"ce4bh092rcd13ifvqd30","pricing_plan_id":"free"},{"bike_id":"44ce7ae3-ce0c-4639-98ff-edfa252071ef","system_id":"levelo_inurba_marseille","lat":43.312609,"lon":5.401662,"is_reserved":false,"is_disabled":false,"rental_uris":{"android":"levelo://app?vid=44ce7ae3-ce0c-4639-98ff-edfa252071ef","ios":"levelo://app?vid=44ce7ae3-ce0c-4639-98ff-edfa252071ef"},"vehicle_type_id":"4","last_reported":1690567700,"current_range_meters":22800,"station_id":"ce4bh092rcd13ifvqd30","pricing_plan_id":"free"},{"bike_id":"e702046f-51fd-46ae-a85b-22eb26b4607d","system_id":"levelo_inurba_marseille","lat":43.31277,"lon":5.40163,"is_reserved":false,"is_disabled":false,"rental_uris":{"android":"levelo://app?vid=e702046f-51fd-46ae-a85b-22eb26b4607d","ios":"levelo://app?vid=e702046f-51fd-46ae-a85b-22eb26b4607d"},"vehicle_type_id":"4","last_reported":1690567700,"current_range_meters":24800,"station_id":"ce4bh092rcd13ifvqd30","pricing_plan_id":"free"},{"bike_id":"cc381cae-48e1-43d1-a3ca-9c32b4726a9d","system_id":"levelo_inurba_marseille","lat":43.31275,"lon":5.40164,"is_reserved":false,"is_disabled":false,"rental_uris":{"android":"levelo://app?vid=cc381cae-48e1-43d1-a3ca-9c32b4726a9d","ios":"levelo://app?vid=cc381cae-48e1-43d1-a3ca-9c32b4726a9d"},"vehicle_type_id":"4","last_reported":1690567700,"current_range_meters":1200,"station_id":"ce4bh092rcd13ifvqd30","pricing_plan_id":"free"},{"bike_id":"03d3a26e-e6bc-4ca7-a39c-af46aabc529f","system_id":"levelo_inurba_marseille","lat":43.31269,"lon":5.40166,"is_reserved":false,"is_disabled":false,"rental_uris":{"android":"levelo://app?vid=03d3a26e-e6bc-4ca7-a39c-af46aabc529f","ios":"levelo://app?vid=03d3a26e-e6bc-4ca7-a39c-af46aabc529f"},"vehicle_type_id":"4","last_reported":1690567700,"current_range_meters":18800,"station_id":"ce4bh092rcd13ifvqd30","pricing_plan_id":"free"},{"bike_id":"35c364a8-f732-428a-835c-12fb56d46a58","system_id":"levelo_inurba_marseille","lat":43.3093,"lon":5.40136,"is_reserved":false,"is_disabled":false,"rental_uris":{"android":"levelo://app?vid=35c364a8-f732-428a-835c-12fb56d46a58","ios":"levelo://app?vid=35c364a8-f732-428a-835c-12fb56d46a58"},"vehicle_type_id":"4","last_reported":1690567700,"current_range_meters":19600,"station_id":"ce4bgvp2rcd13ifvqct0","pricing_plan_id":"free"},{"bike_id":"e3afe929-0bf8-4f43-838e-ce427d0f5351","system_id":"levelo_inurba_marseille","lat":43.30935,"lon":5.40138,"is_reserved":false,"is_disabled":false,"rental_uris":{"android":"levelo://app?vid=e3afe929-0bf8-4f43-838e-ce427d0f5351","ios":"levelo://app?vid=e3afe929-0bf8-4f43-838e-ce427d0f5351"},"vehicle_type_id":"4","last_reported":1690567700,"current_range_meters":3600,"station_id":"ce4bgvp2rcd13ifvqct0","pricing_plan_id":"free"},{"bike_id":"775646ad-43e0-4a4e-88d3-7209fe565e86","system_id":"levelo_inurba_marseille","lat":43.30937,"lon":5.40139,"is_reserved":false,"is_disabled":false,"rental_uris":{"android":"levelo://app?vid=775646ad-43e0-4a4e-88d3-7209fe565e86","ios":"levelo://app?vid=775646ad-43e0-4a4e-88d3-7209fe565e86"},"vehicle_type_id":"4","last_reported":1690567700,"current_range_meters":0,"station_id":"ce4bgvp2rcd13ifvqct0","pricing_plan_id":"free"},{"bike_id":"6cd86d9c-c94f-4864-a7d7-19dafe61385d","system_id":"levelo_inurba_marseille","lat":43.30927,"lon":5.40138,"is_reserved":false,"is_disabled":false,"rental_uris":{"android":"levelo://app?vid=6cd86d9c-c94f-4864-a7d7-19dafe61385d","ios":"levelo://app?vid=6cd86d9c-c94f-4864-a7d7-19dafe61385d"},"vehicle_type_id":"4","last_reported":1690567700,"current_range_meters":4400,"station_id":"ce4bgvp2rcd13ifvqct0","pricing_plan_id":"free"},{"bike_id":"711da986-a7ec-4df6-a472-052f98efb55c","system_id":"levelo_inurba_marseille","lat":43.30935,"lon":5.40142,"is_reserved":false,"is_disabled":false,"rental_uris":{"android":"levelo://app?vid=711da986-a7ec-4df6-a472-052f98efb55c","ios":"levelo://app?vid=711da986-a7ec-4df6-a472-052f98efb55c"},"vehicle_type_id":"4","last_reported":1690567700,"current_range_meters":24000,"station_id":"ce4bgvp2rcd13ifvqct0","pricing_plan_id":"free"},{"bike_id":"12597217-f156-46c3-af1c-6a1b5b85382f","system_id":"levelo_inurba_marseille","lat":43.30644,"lon":5.40064,"is_reserved":false,"is_disabled":false,"rental_uris":{"android":"levelo://app?vid=12597217-f156-46c3-af1c-6a1b5b85382f","ios":"levelo://app?vid=12597217-f156-46c3-af1c-6a1b5b85382f"},"vehicle_type_id":"4","last_reported":1690567700,"current_range_meters":19200,"station_id":"ce4bh112rcd13ifvqda0","pricing_plan_id":"free"},{"bike_id":"32c687ba-04ef-47f2-a2cc-0b071cf60c04","system_id":"levelo_inurba_marseille","lat":43.30923,"lon":5.40141,"is_reserved":false,"is_disabled":false,"rental_uris":{"android":"levelo://app?vid=32c687ba-04ef-47f2-a2cc-0b071cf60c04","ios":"levelo://app?vid=32c687ba-04ef-47f2-a2cc-0b071cf60c04"},"vehicle_type_id":"4","last_reported":1690567700,"current_range_meters":17200,"station_id":"ce4bgvp2rcd13ifvqct0","pricing_plan_id":"free"},{"bike_id":"5990b9b6-3cc1-48fc-ac9f-6b8217fe5040","system_id":"levelo_inurba_marseille","lat":43.30928,"lon":5.40142,"is_reserved":false,"is_disabled":false,"rental_uris":{"android":"levelo://app?vid=5990b9b6-3cc1-48fc-ac9f-6b8217fe5040","ios":"levelo://app?vid=5990b9b6-3cc1-48fc-ac9f-6b8217fe5040"},"vehicle_type_id":"4","last_reported":1690567700,"current_range_meters":4400,"station_id":"ce4bgvp2rcd13ifvqct0","pricing_plan_id":"free"},{"bike_id":"b2d2b287-7b3f-4477-b36d-8313e8877366","system_id":"levelo_inurba_marseille","lat":43.30934,"lon":5.40144,"is_reserved":false,"is_disabled":false,"rental_uris":{"android":"levelo://app?vid=b2d2b287-7b3f-4477-b36d-8313e8877366","ios":"levelo://app?vid=b2d2b287-7b3f-4477-b36d-8313e8877366"},"vehicle_type_id":"4","last_reported":1690567700,"current_range_meters":6000,"station_id":"ce4bgvp2rcd13ifvqct0","pricing_plan_id":"free"},{"bike_id":"3197f34f-3e73-4230-9935-9d4d2a0d2440","system_id":"levelo_inurba_marseille","lat":43.309371,"lon":5.401449,"is_reserved":false,"is_disabled":false,"rental_uris":{"android":"levelo://app?vid=3197f34f-3e73-4230-9935-9d4d2a0d2440","ios":"levelo://app?vid=3197f34f-3e73-4230-9935-9d4d2a0d2440"},"vehicle_type_id":"4","last_reported":1690567700,"current_range_meters":13600,"station_id":"ce4bgvp2rcd13ifvqct0","pricing_plan_id":"free"},{"bike_id":"5f9893a1-891f-4f75-aa42-9b0817057ea8","system_id":"levelo_inurba_marseille","lat":43.30646,"lon":5.4007,"is_reserved":false,"is_disabled":false,"rental_uris":{"android":"levelo://app?vid=5f9893a1-891f-4f75-aa42-9b0817057ea8","ios":"levelo://app?vid=5f9893a1-891f-4f75-aa42-9b0817057ea8"},"vehicle_type_id":"4","last_reported":1690567700,"current_range_meters":16400,"station_id":"ce4bh112rcd13ifvqda0","pricing_plan_id":"free"},{"bike_id":"5339795f-3a20-48f5-aa16-92a6c75a1831","system_id":"levelo_inurba_marseille","lat":43.33754,"lon":5.37434,"is_reserved":false,"is_disabled":false,"rental_uris":{"android":"levelo://app?vid=5339795f-3a20-48f5-aa16-92a6c75a1831","ios":"levelo://app?vid=5339795f-3a20-48f5-aa16-92a6c75a1831"},"vehicle_type_id":"4","last_reported":1690567700,"current_range_meters":23200,"station_id":"","pricing_plan_id":"free"},{"bike_id":"bff25710-484b-432e-8788-39893de0839d","system_id":"levelo_inurba_marseille","lat":43.30642,"lon":5.401031,"is_reserved":false,"is_disabled":false,"rental_uris":{"android":"levelo://app?vid=bff25710-484b-432e-8788-39893de0839d","ios":"levelo://app?vid=bff25710-484b-432e-8788-39893de0839d"},"vehicle_type_id":"4","last_reported":1690567700,"current_range_meters":4800,"station_id":"ce4bh112rcd13ifvqda0","pricing_plan_id":"free"},{"bike_id":"3870339a-c9e5-4c5b-82bf-2b0b64a27f22","system_id":"levelo_inurba_marseille","lat":43.30642,"lon":5.401031,"is_reserved":false,"is_disabled":false,"rental_uris":{"android":"levelo://app?vid=3870339a-c9e5-4c5b-82bf-2b0b64a27f22","ios":"levelo://app?vid=3870339a-c9e5-4c5b-82bf-2b0b64a27f22"},"vehicle_type_id":"4","last_reported":1690567700,"current_range_meters":24800,"station_id":"ce4bh112rcd13ifvqda0","pricing_plan_id":"free"},{"bike_id":"e140594d-9c4a-4b3a-ad56-b720c2902d45","system_id":"levelo_inurba_marseille","lat":43.30131,"lon":5.39864,"is_reserved":false,"is_disabled":false,"rental_uris":{"android":"levelo://app?vid=e140594d-9c4a-4b3a-ad56-b720c2902d45","ios":"levelo://app?vid=e140594d-9c4a-4b3a-ad56-b720c2902d45"},"vehicle_type_id":"4","last_reported":1690567700,"current_range_meters":29600,"station_id":"ce4bh0h2rcd13ifvqd40","pricing_plan_id":"free"},{"bike_id":"1b686c31-19d3-4e1b-9d12-a092c64cc5b4","system_id":"levelo_inurba_marseille","lat":43.301117,"lon":5.398795,"is_reserved":false,"is_disabled":false,"rental_uris":{"android":"levelo://app?vid=1b686c31-19d3-4e1b-9d12-a092c64cc5b4","ios":"levelo://app?vid=1b686c31-19d3-4e1b-9d12-a092c64cc5b4"},"vehicle_type_id":"4","last_reported":1690567700,"current_range_meters":28800,"station_id":"ce4bh0h2rcd13ifvqd40","pricing_plan_id":"free"},{"bike_id":"bd62c048-9f10-4f00-8d5e-54e2b3e64e57","system_id":"levelo_inurba_marseille","lat":43.301117,"lon":5.398795,"is_reserved":false,"is_disabled":false,"rental_uris":{"android":"levelo://app?vid=bd62c048-9f10-4f00-8d5e-54e2b3e64e57","ios":"levelo://app?vid=bd62c048-9f10-4f00-8d5e-54e2b3e64e57"},"vehicle_type_id":"4","last_reported":1690567700,"current_range_meters":24800,"station_id":"ce4bh0h2rcd13ifvqd40","pricing_plan_id":"free"},{"bike_id":"45745153-1715-4526-a0d3-5ff090f4a975","system_id":"levelo_inurba_marseille","lat":43.298681,"lon":5.397225,"is_reserved":false,"is_disabled":false,"rental_uris":{"android":"levelo://app?vid=45745153-1715-4526-a0d3-5ff090f4a975","ios":"levelo://app?vid=45745153-1715-4526-a0d3-5ff090f4a975"},"vehicle_type_id":"4","last_reported":1690567700,"current_range_meters":6800,"station_id":"ce4bh0h2rcd13ifvqd50","pricing_plan_id":"free"},{"bike_id":"45476955-8975-4e13-bff0-eb50ae451855","system_id":"levelo_inurba_marseille","lat":43.286593,"lon":5.363346,"is_reserved":false,"is_disabled":false,"rental_uris":{"android":"levelo://app?vid=45476955-8975-4e13-bff0-eb50ae451855","ios":"levelo://app?vid=45476955-8975-4e13-bff0-eb50ae451855"},"vehicle_type_id":"4","last_reported":1690567700,"current_range_meters":2400,"station_id":"ce4bhah2rcd13ifvqej0","pricing_plan_id":"free"},{"bike_id":"4b0e1c83-5348-4729-87eb-05359ae5cadd","system_id":"levelo_inurba_marseille","lat":43.298681,"lon":5.397225,"is_reserved":false,"is_disabled":false,"rental_uris":{"android":"levelo://app?vid=4b0e1c83-5348-4729-87eb-05359ae5cadd","ios":"levelo://app?vid=4b0e1c83-5348-4729-87eb-05359ae5cadd"},"vehicle_type_id":"4","last_reported":1690567700,"current_range_meters":14800,"station_id":"ce4bh0h2rcd13ifvqd50","pricing_plan_id":"free"},{"bike_id":"2ad7cd06-8f4e-4c40-8197-2eb8027653cb","system_id":"levelo_inurba_marseille","lat":43.286961,"lon":5.373785,"is_reserved":false,"is_disabled":false,"rental_uris":{"android":"levelo://app?vid=2ad7cd06-8f4e-4c40-8197-2eb8027653cb","ios":"levelo://app?vid=2ad7cd06-8f4e-4c40-8197-2eb8027653cb"},"vehicle_type_id":"4","last_reported":1690567700,"current_range_meters":5200,"station_id":"ce4bh3p2rcd13ifvqdq0","pricing_plan_id":"free"},{"bike_id":"f5bc5fb6-bddf-47d6-a212-31e06d10e441","system_id":"levelo_inurba_marseille","lat":43.286961,"lon":5.373785,"is_reserved":false,"is_disabled":false,"rental_uris":{"android":"levelo://app?vid=f5bc5fb6-bddf-47d6-a212-31e06d10e441","ios":"levelo://app?vid=f5bc5fb6-bddf-47d6-a212-31e06d10e441"},"vehicle_type_id":"4","last_reported":1690567700,"current_range_meters":3200,"station_id":"ce4bh3p2rcd13ifvqdq0","pricing_plan_id":"free"},{"bike_id":"acd07d18-f17d-430a-8bc0-9f6d77f1dfad","system_id":"levelo_inurba_marseille","lat":43.298681,"lon":5.397225,"is_reserved":false,"is_disabled":false,"rental_uris":{"android":"levelo://app?vid=acd07d18-f17d-430a-8bc0-9f6d77f1dfad","ios":"levelo://app?vid=acd07d18-f17d-430a-8bc0-9f6d77f1dfad"},"vehicle_type_id":"4","last_reported":1690567700,"current_range_meters":16800,"station_id":"ce4bh0h2rcd13ifvqd50","pricing_plan_id":"free"},{"bike_id":"75199276-b705-4ad7-b6a9-49aeaa84628a","system_id":"levelo_inurba_marseille","lat":43.286591,"lon":5.363346,"is_reserved":false,"is_disabled":false,"rental_uris":{"android":"levelo://app?vid=75199276-b705-4ad7-b6a9-49aeaa84628a","ios":"levelo://app?vid=75199276-b705-4ad7-b6a9-49aeaa84628a"},"vehicle_type_id":"4","last_reported":1690567700,"current_range_meters":31200,"station_id":"ce4bhah2rcd13ifvqej0","pricing_plan_id":"free"},{"bike_id":"a035e579-dadd-46bd-b134-ba11d3ea566f","system_id":"levelo_inurba_marseille","lat":43.298681,"lon":5.397225,"is_reserved":false,"is_disabled":false,"rental_uris":{"android":"levelo://app?vid=a035e579-dadd-46bd-b134-ba11d3ea566f","ios":"levelo://app?vid=a035e579-dadd-46bd-b134-ba11d3ea566f"},"vehicle_type_id":"4","last_reported":1690567700,"current_range_meters":11600,"station_id":"ce4bh0h2rcd13ifvqd50","pricing_plan_id":"free"},{"bike_id":"12382eb2-0096-4821-b2fa-ec118c5a491f","system_id":"levelo_inurba_marseille","lat":43.298681,"lon":5.397225,"is_reserved":false,"is_disabled":false,"rental_uris":{"android":"levelo://app?vid=12382eb2-0096-4821-b2fa-ec118c5a491f","ios":"levelo://app?vid=12382eb2-0096-4821-b2fa-ec118c5a491f"},"vehicle_type_id":"4","last_reported":1690567700,"current_range_meters":13600,"station_id":"ce4bh0h2rcd13ifvqd50","pricing_plan_id":"free"},{"bike_id":"8888bd25-fdbf-4ea2-82e9-57c4be88621c","system_id":"levelo_inurba_marseille","lat":43.286593,"lon":5.363346,"is_reserved":false,"is_disabled":false,"rental_uris":{"android":"levelo://app?vid=8888bd25-fdbf-4ea2-82e9-57c4be88621c","ios":"levelo://app?vid=8888bd25-fdbf-4ea2-82e9-57c4be88621c"},"vehicle_type_id":"4","last_reported":1690567700,"current_range_meters":15200,"station_id":"ce4bhah2rcd13ifvqej0","pricing_plan_id":"free"},{"bike_id":"90c897d9-98cb-4f75-ad45-f56da4f20552","system_id":"levelo_inurba_marseille","lat":43.286961,"lon":5.373785,"is_reserved":false,"is_disabled":false,"rental_uris":{"android":"levelo://app?vid=90c897d9-98cb-4f75-ad45-f56da4f20552","ios":"levelo://app?vid=90c897d9-98cb-4f75-ad45-f56da4f20552"},"vehicle_type_id":"4","last_reported":1690567700,"current_range_meters":22800,"station_id":"ce4bh3p2rcd13ifvqdq0","pricing_plan_id":"free"},{"bike_id":"81602a2c-5626-48bd-adb4-a353909ffca8","system_id":"levelo_inurba_marseille","lat":43.286591,"lon":5.363346,"is_reserved":false,"is_disabled":false,"rental_uris":{"android":"levelo://app?vid=81602a2c-5626-48bd-adb4-a353909ffca8","ios":"levelo://app?vid=81602a2c-5626-48bd-adb4-a353909ffca8"},"vehicle_type_id":"4","last_reported":1690567700,"current_range_meters":16800,"station_id":"ce4bhah2rcd13ifvqej0","pricing_plan_id":"free"},{"bike_id":"6f4597e4-8fc7-4a1d-9b25-f23f5f6f7880","system_id":"levelo_inurba_marseille","lat":43.286591,"lon":5.363346,"is_reserved":false,"is_disabled":false,"rental_uris":{"android":"levelo://app?vid=6f4597e4-8fc7-4a1d-9b25-f23f5f6f7880","ios":"levelo://app?vid=6f4597e4-8fc7-4a1d-9b25-f23f5f6f7880"},"vehicle_type_id":"4","last_reported":1690567700,"current_range_meters":18000,"station_id":"ce4bhah2rcd13ifvqej0","pricing_plan_id":"free"},{"bike_id":"99f3325c-a004-436b-9b48-8cd5cc5ef637","system_id":"levelo_inurba_marseille","lat":43.286591,"lon":5.363346,"is_reserved":false,"is_disabled":false,"rental_uris":{"android":"levelo://app?vid=99f3325c-a004-436b-9b48-8cd5cc5ef637","ios":"levelo://app?vid=99f3325c-a004-436b-9b48-8cd5cc5ef637"},"vehicle_type_id":"4","last_reported":1690567700,"current_range_meters":30400,"station_id":"ce4bhah2rcd13ifvqej0","pricing_plan_id":"free"},{"bike_id":"f19a2d0a-5c67-463f-b7dd-4dd0ae858755","system_id":"levelo_inurba_marseille","lat":43.286591,"lon":5.363346,"is_reserved":false,"is_disabled":false,"rental_uris":{"android":"levelo://app?vid=f19a2d0a-5c67-463f-b7dd-4dd0ae858755","ios":"levelo://app?vid=f19a2d0a-5c67-463f-b7dd-4dd0ae858755"},"vehicle_type_id":"4","last_reported":1690567700,"current_range_meters":16000,"station_id":"ce4bhah2rcd13ifvqej0","pricing_plan_id":"free"},{"bike_id":"28799f6d-37bc-4e14-91be-69860eda1c29","system_id":"levelo_inurba_marseille","lat":43.298681,"lon":5.397225,"is_reserved":false,"is_disabled":false,"rental_uris":{"android":"levelo://app?vid=28799f6d-37bc-4e14-91be-69860eda1c29","ios":"levelo://app?vid=28799f6d-37bc-4e14-91be-69860eda1c29"},"vehicle_type_id":"4","last_reported":1690567700,"current_range_meters":22400,"station_id":"ce4bh0h2rcd13ifvqd50","pricing_plan_id":"free"},{"bike_id":"708a2271-bd6e-4b1d-ac3d-2b546124a62a","system_id":"levelo_inurba_marseille","lat":43.295196,"lon":5.39397,"is_reserved":false,"is_disabled":false,"rental_uris":{"android":"levelo://app?vid=708a2271-bd6e-4b1d-ac3d-2b546124a62a","ios":"levelo://app?vid=708a2271-bd6e-4b1d-ac3d-2b546124a62a"},"vehicle_type_id":"4","last_reported":1690567700,"current_range_meters":7200,"station_id":"ce4bh292rcd13ifvqdf0","pricing_plan_id":"free"},{"bike_id":"2bb0f7b8-a026-412f-ab7d-c75ab06d6c50","system_id":"levelo_inurba_marseille","lat":43.286593,"lon":5.363346,"is_reserved":false,"is_disabled":false,"rental_uris":{"android":"levelo://app?vid=2bb0f7b8-a026-412f-ab7d-c75ab06d6c50","ios":"levelo://app?vid=2bb0f7b8-a026-412f-ab7d-c75ab06d6c50"},"vehicle_type_id":"4","last_reported":1690567700,"current_range_meters":30000,"station_id":"ce4bhah2rcd13ifvqej0","pricing_plan_id":"free"},{"bike_id":"3cd6089d-4f4b-402e-b598-efed5ff5bba2","system_id":"levelo_inurba_marseille","lat":43.298681,"lon":5.397225,"is_reserved":false,"is_disabled":false,"rental_uris":{"android":"levelo://app?vid=3cd6089d-4f4b-402e-b598-efed5ff5bba2","ios":"levelo://app?vid=3cd6089d-4f4b-402e-b598-efed5ff5bba2"},"vehicle_type_id":"4","last_reported":1690567700,"current_range_meters":31600,"station_id":"ce4bh0h2rcd13ifvqd50","pricing_plan_id":"free"},{"bike_id":"2f47464f-5f88-44e4-b5ba-755de60792e6","system_id":"levelo_inurba_marseille","lat":43.290345,"lon":5.38646,"is_reserved":false,"is_disabled":false,"rental_uris":{"android":"levelo://app?vid=2f47464f-5f88-44e4-b5ba-755de60792e6","ios":"levelo://app?vid=2f47464f-5f88-44e4-b5ba-755de60792e6"},"vehicle_type_id":"4","last_reported":1690567700,"current_range_meters":5600,"station_id":"ce4bh4p2rcd13ifvqe0g","pricing_plan_id":"free"},{"bike_id":"2da3af7c-497a-4226-8746-075d66215b72","system_id":"levelo_inurba_marseille","lat":43.290345,"lon":5.38646,"is_reserved":false,"is_disabled":false,"rental_uris":{"android":"levelo://app?vid=2da3af7c-497a-4226-8746-075d66215b72","ios":"levelo://app?vid=2da3af7c-497a-4226-8746-075d66215b72"},"vehicle_type_id":"4","last_reported":1690567700,"current_range_meters":18400,"station_id":"ce4bh4p2rcd13ifvqe0g","pricing_plan_id":"free"},{"bike_id":"80bc8123-5a65-400d-a2fd-1f74fcb40020","system_id":"levelo_inurba_marseille","lat":43.290345,"lon":5.38646,"is_reserved":false,"is_disabled":false,"rental_uris":{"android":"levelo://app?vid=80bc8123-5a65-400d-a2fd-1f74fcb40020","ios":"levelo://app?vid=80bc8123-5a65-400d-a2fd-1f74fcb40020"},"vehicle_type_id":"4","last_reported":1690567700,"current_range_meters":8000,"station_id":"ce4bh4p2rcd13ifvqe0g","pricing_plan_id":"free"},{"bike_id":"3f2a0b82-0fb5-4ef5-8b70-1d33c6b7021a","system_id":"levelo_inurba_marseille","lat":43.290345,"lon":5.38646,"is_reserved":false,"is_disabled":false,"rental_uris":{"android":"levelo://app?vid=3f2a0b82-0fb5-4ef5-8b70-1d33c6b7021a","ios":"levelo://app?vid=3f2a0b82-0fb5-4ef5-8b70-1d33c6b7021a"},"vehicle_type_id":"4","last_reported":1690567700,"current_range_meters":22800,"station_id":"ce4bh4p2rcd13ifvqe0g","pricing_plan_id":"free"},{"bike_id":"3483164c-6f9b-400d-a597-34f44476bb16","system_id":"levelo_inurba_marseille","lat":43.290336,"lon":5.386425,"is_reserved":false,"is_disabled":false,"rental_uris":{"android":"levelo://app?vid=3483164c-6f9b-400d-a597-34f44476bb16","ios":"levelo://app?vid=3483164c-6f9b-400d-a597-34f44476bb16"},"vehicle_type_id":"4","last_reported":1690567700,"current_range_meters":12400,"station_id":"ce4bh4p2rcd13ifvqe0g","pricing_plan_id":"free"},{"bike_id":"9b177656-0f80-4d92-a101-d0406d0a4566","system_id":"levelo_inurba_marseille","lat":43.29026,"lon":5.38635,"is_reserved":false,"is_disabled":false,"rental_uris":{"android":"levelo://app?vid=9b177656-0f80-4d92-a101-d0406d0a4566","ios":"levelo://app?vid=9b177656-0f80-4d92-a101-d0406d0a4566"},"vehicle_type_id":"4","last_reported":1690567700,"current_range_meters":23200,"station_id":"ce4bh4p2rcd13ifvqe0g","pricing_plan_id":"free"},{"bike_id":"d83f9eb2-f301-42e5-b879-3d6cd842fa3a","system_id":"levelo_inurba_marseille","lat":43.290336,"lon":5.386425,"is_reserved":false,"is_disabled":false,"rental_uris":{"android":"levelo://app?vid=d83f9eb2-f301-42e5-b879-3d6cd842fa3a","ios":"levelo://app?vid=d83f9eb2-f301-42e5-b879-3d6cd842fa3a"},"vehicle_type_id":"4","last_reported":1690567700,"current_range_meters":28800,"station_id":"ce4bh4p2rcd13ifvqe0g","pricing_plan_id":"free"},{"bike_id":"f20fedcd-8c55-4d8b-9707-fb234a25a8b4","system_id":"levelo_inurba_marseille","lat":43.290336,"lon":5.386425,"is_reserved":false,"is_disabled":false,"rental_uris":{"android":"levelo://app?vid=f20fedcd-8c55-4d8b-9707-fb234a25a8b4","ios":"levelo://app?vid=f20fedcd-8c55-4d8b-9707-fb234a25a8b4"},"vehicle_type_id":"4","last_reported":1690567700,"current_range_meters":0,"station_id":"ce4bh4p2rcd13ifvqe0g","pricing_plan_id":"free"},{"bike_id":"ccfd939a-e3f0-4a05-985b-9b9555ac94d7","system_id":"levelo_inurba_marseille","lat":43.302759,"lon":5.400793,"is_reserved":false,"is_disabled":false,"rental_uris":{"android":"levelo://app?vid=ccfd939a-e3f0-4a05-985b-9b9555ac94d7","ios":"levelo://app?vid=ccfd939a-e3f0-4a05-985b-9b9555ac94d7"},"vehicle_type_id":"4","last_reported":1690567700,"current_range_meters":10400,"station_id":"ce4bgvh2rcd13ifvqcs0","pricing_plan_id":"free"},{"bike_id":"0fc57687-0caa-49f3-bcb4-ea4cb50aa08c","system_id":"levelo_inurba_marseille","lat":43.30253,"lon":5.40069,"is_reserved":false,"is_disabled":false,"rental_uris":{"android":"levelo://app?vid=0fc57687-0caa-49f3-bcb4-ea4cb50aa08c","ios":"levelo://app?vid=0fc57687-0caa-49f3-bcb4-ea4cb50aa08c"},"vehicle_type_id":"4","last_reported":1690567700,"current_range_meters":30000,"station_id":"ce4bgvh2rcd13ifvqcs0","pricing_plan_id":"free"},{"bike_id":"2718478e-98b6-4d01-889e-3babf125ec2e","system_id":"levelo_inurba_marseille","lat":43.302759,"lon":5.400793,"is_reserved":false,"is_disabled":false,"rental_uris":{"android":"levelo://app?vid=2718478e-98b6-4d01-889e-3babf125ec2e","ios":"levelo://app?vid=2718478e-98b6-4d01-889e-3babf125ec2e"},"vehicle_type_id":"4","last_reported":1690567700,"current_range_meters":21200,"station_id":"ce4bgvh2rcd13ifvqcs0","pricing_plan_id":"free"},{"bike_id":"d3a45b88-c125-4894-8028-d373cb24deb3","system_id":"levelo_inurba_marseille","lat":43.286039,"lon":5.370679,"is_reserved":false,"is_disabled":false,"rental_uris":{"android":"levelo://app?vid=d3a45b88-c125-4894-8028-d373cb24deb3","ios":"levelo://app?vid=d3a45b88-c125-4894-8028-d373cb24deb3"},