{"last_updated":1728115867,"ttl":60,"version":"2.2","data":{"bikes":[{"bike_id":"7b5918c9-286b-4a5d-8c11-f495ad5c7f7a","system_id":"levelo_inurba_marseille","lat":43.30796,"lon":5.43517,"is_reserved":false,"is_disabled":false,"rental_uris":{"android":"levelo://app?vid=7b5918c9-286b-4a5d-8c11-f495ad5c7f7a","ios":"levelo://app?vid=7b5918c9-286b-4a5d-8c11-f495ad5c7f7a"},"vehicle_type_id":"4","last_reported":1728115867,"current_range_meters":8800,"station_id":"ce4bhph2rcd13ifvqheg","pricing_plan_id":"cebpf4jnsgd1na2vs0mg"},{"bike_id":"e4b84675-a2ef-4a08-972b-c8ccf50cd9f9","system_id":"levelo_inurba_marseille","lat":43.23189,"lon":5.39999,"is_reserved":false,"is_disabled":false,"rental_uris":{"android":"levelo://app?vid=e4b84675-a2ef-4a08-972b-c8ccf50cd9f9","ios":"levelo://app?vid=e4b84675-a2ef-4a08-972b-c8ccf50cd9f9"},"vehicle_type_id":"4","last_reported":1728115867,"current_range_meters":24000,"station_id":"ce4bhn12rcd13ifvqgqg","pricing_plan_id":"cebpf4jnsgd1na2vs0mg"},{"bike_id":"f08c1645-fa60-4c74-b75e-991b77bc2f70","system_id":"levelo_inurba_marseille","lat":43.29299,"lon":5.37463,"is_reserved":false,"is_disabled":false,"rental_uris":{"android":"levelo://app?vid=f08c1645-fa60-4c74-b75e-991b77bc2f70","ios":"levelo://app?vid=f08c1645-fa60-4c74-b75e-991b77bc2f70"},"vehicle_type_id":"4","last_reported":1728115867,"current_range_meters":16400,"station_id":"ce4bgi12rcd13ifvqb70","pricing_plan_id":"cebpf4jnsgd1na2vs0mg"},{"bike_id":"f4595530-d232-414f-97eb-1f8005c70977","system_id":"levelo_inurba_marseille","lat":43.32355,"lon":5.38894,"is_reserved":false,"is_disabled":false,"rental_uris":{"android":"levelo://app?vid=f4595530-d232-414f-97eb-1f8005c70977","ios":"levelo://app?vid=f4595530-d232-414f-97eb-1f8005c70977"},"vehicle_type_id":"4","last_reported":1728115867,"current_range_meters":38400,"station_id":"ce4bhqp2rcd13ifvqhog","pricing_plan_id":"cebpf4jnsgd1na2vs0mg"},{"bike_id":"526fef74-1129-4650-92d6-8537b2b448f3","system_id":"levelo_inurba_marseille","lat":43.31101,"lon":5.37763,"is_reserved":false,"is_disabled":false,"rental_uris":{"android":"levelo://app?vid=526fef74-1129-4650-92d6-8537b2b448f3","ios":"levelo://app?vid=526fef74-1129-4650-92d6-8537b2b448f3"},"vehicle_type_id":"4","last_reported":1728115867,"current_range_meters":25600,"station_id":"ce4bgt92rcd13ifvqcg0","pricing_plan_id":"cebpf4jnsgd1na2vs0mg"},{"bike_id":"7426de65-18a0-4547-8b5a-c90de4a519b4","system_id":"levelo_inurba_marseille","lat":43.25086,"lon":5.39524,"is_reserved":false,"is_disabled":false,"rental_uris":{"android":"levelo://app?vid=7426de65-18a0-4547-8b5a-c90de4a519b4","ios":"levelo://app?vid=7426de65-18a0-4547-8b5a-c90de4a519b4"},"vehicle_type_id":"4","last_reported":1728115867,"current_range_meters":3600,"station_id":"ce4bhm12rcd13ifvqgkg","pricing_plan_id":"cebpf4jnsgd1na2vs0mg"},{"bike_id":"4286a9ee-5432-43ae-b74b-d2672a11fe7f","system_id":"levelo_inurba_marseille","lat":43.25858,"lon":5.39913,"is_reserved":false,"is_disabled":false,"rental_uris":{"android":"levelo://app?vid=4286a9ee-5432-43ae-b74b-d2672a11fe7f","ios":"levelo://app?vid=4286a9ee-5432-43ae-b74b-d2672a11fe7f"},"vehicle_type_id":"4","last_reported":1728115867,"current_range_meters":27200,"station_id":"ce4bhl92rcd13ifvqghg","pricing_plan_id":"cebpf4jnsgd1na2vs0mg"},{"bike_id":"a56c66a8-2c2c-450d-99ae-17d6eaa42433","system_id":"levelo_inurba_marseille","lat":43.24388,"lon":5.37053,"is_reserved":false,"is_disabled":false,"rental_uris":{"android":"levelo://app?vid=a56c66a8-2c2c-450d-99ae-17d6eaa42433","ios":"levelo://app?vid=a56c66a8-2c2c-450d-99ae-17d6eaa42433"},"vehicle_type_id":"4","last_reported":1728115867,"current_range_meters":38000,"station_id":"ce4bhhh2rcd13ifvqfk0","pricing_plan_id":"cebpf4jnsgd1na2vs0mg"},{"bike_id":"0ab31a2b-100e-46ba-8518-e3de7fc7122e","system_id":"levelo_inurba_marseille","lat":43.33747,"lon":5.37443,"is_reserved":false,"is_disabled":false,"rental_uris":{"android":"levelo://app?vid=0ab31a2b-100e-46ba-8518-e3de7fc7122e","ios":"levelo://app?vid=0ab31a2b-100e-46ba-8518-e3de7fc7122e"},"vehicle_type_id":"4","last_reported":1728115867,"current_range_meters":33200,"station_id":"","pricing_plan_id":"cebpf4jnsgd1na2vs0mg"},{"bike_id":"74c7d066-3397-4384-9159-7995f69e0cb0","system_id":"levelo_inurba_marseille","lat":43.258704,"lon":5.39906,"is_reserved":false,"is_disabled":false,"rental_uris":{"android":"levelo://app?vid=74c7d066-3397-4384-9159-7995f69e0cb0","ios":"levelo://app?vid=74c7d066-3397-4384-9159-7995f69e0cb0"},"vehicle_type_id":"4","last_reported":1728115867,"current_range_meters":7200,"station_id":"ce4bhl92rcd13ifvqghg","pricing_plan_id":"cebpf4jnsgd1na2vs0mg"},{"bike_id":"756088e4-bd38-4606-aa6f-cbbf1461af00","system_id":"levelo_inurba_marseille","lat":43.22936,"lon":5.35379,"is_reserved":false,"is_disabled":false,"rental_uris":{"android":"levelo://app?vid=756088e4-bd38-4606-aa6f-cbbf1461af00","ios":"levelo://app?vid=756088e4-bd38-4606-aa6f-cbbf1461af00"},"vehicle_type_id":"4","last_reported":1728115867,"current_range_meters":8400,"station_id":"cpo3532slgdg3j2ikp40","pricing_plan_id":"cebpf4jnsgd1na2vs0mg"},{"bike_id":"e8ff1e2e-3e58-4d59-b29f-02a5ddfaf931","system_id":"levelo_inurba_marseille","lat":43.304443,"lon":5.392361,"is_reserved":false,"is_disabled":false,"rental_uris":{"android":"levelo://app?vid=e8ff1e2e-3e58-4d59-b29f-02a5ddfaf931","ios":"levelo://app?vid=e8ff1e2e-3e58-4d59-b29f-02a5ddfaf931"},"vehicle_type_id":"4","last_reported":1728115867,"current_range_meters":20000,"station_id":"ce4bgk12rcd13ifvqbi0","pricing_plan_id":"cebpf4jnsgd1na2vs0mg"},{"bike_id":"469e4615-69fd-4f50-ab75-3a5649cbabf7","system_id":"levelo_inurba_marseille","lat":43.308,"lon":5.43524,"is_reserved":false,"is_disabled":false,"rental_uris":{"android":"levelo://app?vid=469e4615-69fd-4f50-ab75-3a5649cbabf7","ios":"levelo://app?vid=469e4615-69fd-4f50-ab75-3a5649cbabf7"},"vehicle_type_id":"4","last_reported":1728115867,"current_range_meters":12800,"station_id":"ce4bhph2rcd13ifvqheg","pricing_plan_id":"cebpf4jnsgd1na2vs0mg"},{"bike_id":"b8fd588e-62e7-45fd-a6b3-489e40bd5ea0","system_id":"levelo_inurba_marseille","lat":43.29046,"lon":5.35912,"is_reserved":false,"is_disabled":false,"rental_uris":{"android":"levelo://app?vid=b8fd588e-62e7-45fd-a6b3-489e40bd5ea0","ios":"levelo://app?vid=b8fd588e-62e7-45fd-a6b3-489e40bd5ea0"},"vehicle_type_id":"4","last_reported":1728115867,"current_range_meters":33200,"station_id":"ce4bha92rcd13ifvqeg0","pricing_plan_id":"cebpf4jnsgd1na2vs0mg"},{"bike_id":"b533c485-8de5-4435-9b8a-7bede3d5f21f","system_id":"levelo_inurba_marseille","lat":43.311201,"lon":5.377651,"is_reserved":false,"is_disabled":false,"rental_uris":{"android":"levelo://app?vid=b533c485-8de5-4435-9b8a-7bede3d5f21f","ios":"levelo://app?vid=b533c485-8de5-4435-9b8a-7bede3d5f21f"},"vehicle_type_id":"4","last_reported":1728115867,"current_range_meters":38000,"station_id":"ce4bgt92rcd13ifvqcg0","pricing_plan_id":"cebpf4jnsgd1na2vs0mg"},{"bike_id":"b781b559-2d2c-4659-9984-837493ba32e5","system_id":"levelo_inurba_marseille","lat":43.30173,"lon":5.38053,"is_reserved":false,"is_disabled":false,"rental_uris":{"android":"levelo://app?vid=b781b559-2d2c-4659-9984-837493ba32e5","ios":"levelo://app?vid=b781b559-2d2c-4659-9984-837493ba32e5"},"vehicle_type_id":"4","last_reported":1728115867,"current_range_meters":32000,"station_id":"ce4bgjp2rcd13ifvqbh0","pricing_plan_id":"cebpf4jnsgd1na2vs0mg"},{"bike_id":"b0d97aa1-e55a-4e57-88a6-c275a37985b3","system_id":"levelo_inurba_marseille","lat":43.26555,"lon":5.37283,"is_reserved":false,"is_disabled":false,"rental_uris":{"android":"levelo://app?vid=b0d97aa1-e55a-4e57-88a6-c275a37985b3","ios":"levelo://app?vid=b0d97aa1-e55a-4e57-88a6-c275a37985b3"},"vehicle_type_id":"4","last_reported":1728115867,"current_range_meters":30000,"station_id":"ce4bhg12rcd13ifvqf70","pricing_plan_id":"cebpf4jnsgd1na2vs0mg"},{"bike_id":"1ae114a6-eca6-494d-bdd3-7c41c6e78c5b","system_id":"levelo_inurba_marseille","lat":43.311541,"lon":5.367621,"is_reserved":false,"is_disabled":false,"rental_uris":{"android":"levelo://app?vid=1ae114a6-eca6-494d-bdd3-7c41c6e78c5b","ios":"levelo://app?vid=1ae114a6-eca6-494d-bdd3-7c41c6e78c5b"},"vehicle_type_id":"4","last_reported":1728115867,"current_range_meters":37600,"station_id":"ce4bgn92rcd13ifvqbvg","pricing_plan_id":"cebpf4jnsgd1na2vs0mg"},{"bike_id":"37042c1b-99f0-4379-a7d0-0b6867cdb669","system_id":"levelo_inurba_marseille","lat":43.23187,"lon":5.39974,"is_reserved":false,"is_disabled":false,"rental_uris":{"android":"levelo://app?vid=37042c1b-99f0-4379-a7d0-0b6867cdb669","ios":"levelo://app?vid=37042c1b-99f0-4379-a7d0-0b6867cdb669"},"vehicle_type_id":"4","last_reported":1728115867,"current_range_meters":38000,"station_id":"ce4bhn12rcd13ifvqgqg","pricing_plan_id":"cebpf4jnsgd1na2vs0mg"},{"bike_id":"83fdffe5-fb75-468f-a30f-63177c855805","system_id":"levelo_inurba_marseille","lat":43.26571,"lon":5.39024,"is_reserved":false,"is_disabled":false,"rental_uris":{"android":"levelo://app?vid=83fdffe5-fb75-468f-a30f-63177c855805","ios":"levelo://app?vid=83fdffe5-fb75-468f-a30f-63177c855805"},"vehicle_type_id":"4","last_reported":1728115867,"current_range_meters":28400,"station_id":"ce4bhe12rcd13ifvqf30","pricing_plan_id":"cebpf4jnsgd1na2vs0mg"},{"bike_id":"e685ab7a-aafa-4f82-93be-68d23f9bc392","system_id":"levelo_inurba_marseille","lat":43.29605,"lon":5.37738,"is_reserved":false,"is_disabled":false,"rental_uris":{"android":"levelo://app?vid=e685ab7a-aafa-4f82-93be-68d23f9bc392","ios":"levelo://app?vid=e685ab7a-aafa-4f82-93be-68d23f9bc392"},"vehicle_type_id":"4","last_reported":1728115867,"current_range_meters":10800,"station_id":"ce4bgi92rcd13ifvqb90","pricing_plan_id":"cebpf4jnsgd1na2vs0mg"},{"bike_id":"8479e1b7-1d1c-41d1-8461-69800dbe4c9e","system_id":"levelo_inurba_marseille","lat":43.29029,"lon":5.38155,"is_reserved":false,"is_disabled":false,"rental_uris":{"android":"levelo://app?vid=8479e1b7-1d1c-41d1-8461-69800dbe4c9e","ios":"levelo://app?vid=8479e1b7-1d1c-41d1-8461-69800dbe4c9e"},"vehicle_type_id":"4","last_reported":1728115867,"current_range_meters":19200,"station_id":"ce4bh4p2rcd13ifvqe1g","pricing_plan_id":"cebpf4jnsgd1na2vs0mg"},{"bike_id":"0dc8198c-8784-429a-9654-bc3e6d0ff90b","system_id":"levelo_inurba_marseille","lat":43.23958,"lon":5.36636,"is_reserved":false,"is_disabled":false,"rental_uris":{"android":"levelo://app?vid=0dc8198c-8784-429a-9654-bc3e6d0ff90b","ios":"levelo://app?vid=0dc8198c-8784-429a-9654-bc3e6d0ff90b"},"vehicle_type_id":"4","last_reported":1728115867,"current_range_meters":17200,"station_id":"ce4bhi12rcd13ifvqfp0","pricing_plan_id":"cebpf4jnsgd1na2vs0mg"},{"bike_id":"63c8fa7d-6106-4fec-a19a-c06be543e12d","system_id":"levelo_inurba_marseille","lat":43.29051,"lon":5.35908,"is_reserved":false,"is_disabled":false,"rental_uris":{"android":"levelo://app?vid=63c8fa7d-6106-4fec-a19a-c06be543e12d","ios":"levelo://app?vid=63c8fa7d-6106-4fec-a19a-c06be543e12d"},"vehicle_type_id":"4","last_reported":1728115867,"current_range_meters":13600,"station_id":"ce4bha92rcd13ifvqeg0","pricing_plan_id":"cebpf4jnsgd1na2vs0mg"},{"bike_id":"c68cc33a-4a9b-4083-b265-cd063174559a","system_id":"levelo_inurba_marseille","lat":43.284667,"lon":5.358897,"is_reserved":false,"is_disabled":false,"rental_uris":{"android":"levelo://app?vid=c68cc33a-4a9b-4083-b265-cd063174559a","ios":"levelo://app?vid=c68cc33a-4a9b-4083-b265-cd063174559a"},"vehicle_type_id":"4","last_reported":1728115867,"current_range_meters":38800,"station_id":"ce4bhah2rcd13ifvqei0","pricing_plan_id":"cebpf4jnsgd1na2vs0mg"},{"bike_id":"69b2ab72-6eb7-403d-85c7-be72aa2ab82b","system_id":"levelo_inurba_marseille","lat":43.30159,"lon":5.4003,"is_reserved":false,"is_disabled":false,"rental_uris":{"android":"levelo://app?vid=69b2ab72-6eb7-403d-85c7-be72aa2ab82b","ios":"levelo://app?vid=69b2ab72-6eb7-403d-85c7-be72aa2ab82b"},"vehicle_type_id":"4","last_reported":1728115867,"current_range_meters":18800,"station_id":"","pricing_plan_id":"cebpf4jnsgd1na2vs0mg"},{"bike_id":"f5f37440-7c58-4b9a-9465-b57ed1b30587","system_id":"levelo_inurba_marseille","lat":43.258357,"lon":5.394339,"is_reserved":false,"is_disabled":false,"rental_uris":{"android":"levelo://app?vid=f5f37440-7c58-4b9a-9465-b57ed1b30587","ios":"levelo://app?vid=f5f37440-7c58-4b9a-9465-b57ed1b30587"},"vehicle_type_id":"4","last_reported":1728115867,"current_range_meters":37600,"station_id":"ce4bhip2rcd13ifvqft0","pricing_plan_id":"cebpf4jnsgd1na2vs0mg"},{"bike_id":"73a24e0e-e6db-43a8-bdc3-253983d48aa8","system_id":"levelo_inurba_marseille","lat":43.25574,"lon":5.38244,"is_reserved":false,"is_disabled":false,"rental_uris":{"android":"levelo://app?vid=73a24e0e-e6db-43a8-bdc3-253983d48aa8","ios":"levelo://app?vid=73a24e0e-e6db-43a8-bdc3-253983d48aa8"},"vehicle_type_id":"4","last_reported":1728115867,"current_range_meters":38800,"station_id":"ce4bhih2rcd13ifvqfs0","pricing_plan_id":"cebpf4jnsgd1na2vs0mg"},{"bike_id":"2ee470a2-f6fc-41c4-9ed0-be15e787887a","system_id":"levelo_inurba_marseille","lat":43.23968,"lon":5.36637,"is_reserved":false,"is_disabled":false,"rental_uris":{"android":"levelo://app?vid=2ee470a2-f6fc-41c4-9ed0-be15e787887a","ios":"levelo://app?vid=2ee470a2-f6fc-41c4-9ed0-be15e787887a"},"vehicle_type_id":"4","last_reported":1728115867,"current_range_meters":38800,"station_id":"ce4bhi12rcd13ifvqfp0","pricing_plan_id":"cebpf4jnsgd1na2vs0mg"},{"bike_id":"e6b2df58-b4a0-4aec-933d-a62e42f34d34","system_id":"levelo_inurba_marseille","lat":43.3372,"lon":5.39189,"is_reserved":false,"is_disabled":false,"rental_uris":{"android":"levelo://app?vid=e6b2df58-b4a0-4aec-933d-a62e42f34d34","ios":"levelo://app?vid=e6b2df58-b4a0-4aec-933d-a62e42f34d34"},"vehicle_type_id":"4","last_reported":1728115867,"current_range_meters":14400,"station_id":"ce4bhr92rcd13ifvqhsg","pricing_plan_id":"cebpf4jnsgd1na2vs0mg"},{"bike_id":"1622c62b-20ed-43b2-a8d0-b02098367a11","system_id":"levelo_inurba_marseille","lat":43.262003,"lon":5.379363,"is_reserved":false,"is_disabled":false,"rental_uris":{"android":"levelo://app?vid=1622c62b-20ed-43b2-a8d0-b02098367a11","ios":"levelo://app?vid=1622c62b-20ed-43b2-a8d0-b02098367a11"},"vehicle_type_id":"4","last_reported":1728115867,"current_range_meters":38800,"station_id":"ce4bhjp2rcd13ifvqg90","pricing_plan_id":"cebpf4jnsgd1na2vs0mg"},{"bike_id":"d77938b7-ff1e-465c-a8b9-4b07085a5cc9","system_id":"levelo_inurba_marseille","lat":43.23062,"lon":5.35488,"is_reserved":false,"is_disabled":false,"rental_uris":{"android":"levelo://app?vid=d77938b7-ff1e-465c-a8b9-4b07085a5cc9","ios":"levelo://app?vid=d77938b7-ff1e-465c-a8b9-4b07085a5cc9"},"vehicle_type_id":"4","last_reported":1728115867,"current_range_meters":13600,"station_id":"cpo3342slgdg3j2ifvpg","pricing_plan_id":"cebpf4jnsgd1na2vs0mg"},{"bike_id":"852457a1-813f-46b8-bb13-232384e208e9","system_id":"levelo_inurba_marseille","lat":43.3376,"lon":5.37446,"is_reserved":false,"is_disabled":false,"rental_uris":{"android":"levelo://app?vid=852457a1-813f-46b8-bb13-232384e208e9","ios":"levelo://app?vid=852457a1-813f-46b8-bb13-232384e208e9"},"vehicle_type_id":"4","last_reported":1728115867,"current_range_meters":35200,"station_id":"","pricing_plan_id":"cebpf4jnsgd1na2vs0mg"},{"bike_id":"0d79ef91-e03a-4511-b960-a6f350f28d65","system_id":"levelo_inurba_marseille","lat":43.23062,"lon":5.35491,"is_reserved":false,"is_disabled":false,"rental_uris":{"android":"levelo://app?vid=0d79ef91-e03a-4511-b960-a6f350f28d65","ios":"levelo://app?vid=0d79ef91-e03a-4511-b960-a6f350f28d65"},"vehicle_type_id":"4","last_reported":1728115867,"current_range_meters":20400,"station_id":"cpo3342slgdg3j2ifvpg","pricing_plan_id":"cebpf4jnsgd1na2vs0mg"},{"bike_id":"1cb4a8d6-c871-4d09-bd39-77cd7e09191c","system_id":"levelo_inurba_marseille","lat":43.323352,"lon":5.406285,"is_reserved":false,"is_disabled":false,"rental_uris":{"android":"levelo://app?vid=1cb4a8d6-c871-4d09-bd39-77cd7e09191c","ios":"levelo://app?vid=1cb4a8d6-c871-4d09-bd39-77cd7e09191c"},"vehicle_type_id":"4","last_reported":1728115867,"current_range_meters":4800,"station_id":"ce4bhq92rcd13ifvqhjg","pricing_plan_id":"cebpf4jnsgd1na2vs0mg"},{"bike_id":"9b18cf93-c198-45f5-b6a7-cf89d02d2117","system_id":"levelo_inurba_marseille","lat":43.28264,"lon":5.35073,"is_reserved":false,"is_disabled":false,"rental_uris":{"android":"levelo://app?vid=9b18cf93-c198-45f5-b6a7-cf89d02d2117","ios":"levelo://app?vid=9b18cf93-c198-45f5-b6a7-cf89d02d2117"},"vehicle_type_id":"4","last_reported":1728115867,"current_range_meters":16000,"station_id":"ce4bhbp2rcd13ifvqerg","pricing_plan_id":"cebpf4jnsgd1na2vs0mg"},{"bike_id":"2872d4cc-9922-4c18-8d4d-312fe4d7c35b","system_id":"levelo_inurba_marseille","lat":43.315283,"lon":5.380324,"is_reserved":false,"is_disabled":false,"rental_uris":{"android":"levelo://app?vid=2872d4cc-9922-4c18-8d4d-312fe4d7c35b","ios":"levelo://app?vid=2872d4cc-9922-4c18-8d4d-312fe4d7c35b"},"vehicle_type_id":"4","last_reported":1728115867,"current_range_meters":36800,"station_id":"ce4bhsp2rcd13ifvqi50","pricing_plan_id":"cebpf4jnsgd1na2vs0mg"},{"bike_id":"e5eec57e-9b0f-4559-b4c4-8a0dc3855cc7","system_id":"levelo_inurba_marseille","lat":43.27376,"lon":5.3626,"is_reserved":false,"is_disabled":false,"rental_uris":{"android":"levelo://app?vid=e5eec57e-9b0f-4559-b4c4-8a0dc3855cc7","ios":"levelo://app?vid=e5eec57e-9b0f-4559-b4c4-8a0dc3855cc7"},"vehicle_type_id":"4","last_reported":1728115867,"current_range_meters":38000,"station_id":"ce4bhbh2rcd13ifvqeo0","pricing_plan_id":"cebpf4jnsgd1na2vs0mg"},{"bike_id":"54d09a39-e79d-434c-8a05-a8f2660c6a94","system_id":"levelo_inurba_marseille","lat":43.29902,"lon":5.43673,"is_reserved":false,"is_disabled":false,"rental_uris":{"android":"levelo://app?vid=54d09a39-e79d-434c-8a05-a8f2660c6a94","ios":"levelo://app?vid=54d09a39-e79d-434c-8a05-a8f2660c6a94"},"vehicle_type_id":"4","last_reported":1728115867,"current_range_meters":12000,"station_id":"ce4bhpp2rcd13ifvqhfg","pricing_plan_id":"cebpf4jnsgd1na2vs0mg"},{"bike_id":"e88589c2-9daf-4f7c-9d5a-36ecf8f63f21","system_id":"levelo_inurba_marseille","lat":43.3266,"lon":5.40983,"is_reserved":false,"is_disabled":false,"rental_uris":{"android":"levelo://app?vid=e88589c2-9daf-4f7c-9d5a-36ecf8f63f21","ios":"levelo://app?vid=e88589c2-9daf-4f7c-9d5a-36ecf8f63f21"},"vehicle_type_id":"4","last_reported":1728115867,"current_range_meters":38000,"station_id":"ce4bhpp2rcd13ifvqhgg","pricing_plan_id":"cebpf4jnsgd1na2vs0mg"},{"bike_id":"36bb2c6f-7f12-4e31-98ee-a17e5ebb44aa","system_id":"levelo_inurba_marseille","lat":43.29587,"lon":5.36733,"is_reserved":false,"is_disabled":false,"rental_uris":{"android":"levelo://app?vid=36bb2c6f-7f12-4e31-98ee-a17e5ebb44aa","ios":"levelo://app?vid=36bb2c6f-7f12-4e31-98ee-a17e5ebb44aa"},"vehicle_type_id":"4","last_reported":1728115867,"current_range_meters":30000,"station_id":"ce4bgph2rcd13ifvqc2g","pricing_plan_id":"cebpf4jnsgd1na2vs0mg"},{"bike_id":"f2d97acb-1d32-4e87-8374-8721d7c706d1","system_id":"levelo_inurba_marseille","lat":43.337444,"lon":5.374475,"is_reserved":false,"is_disabled":false,"rental_uris":{"android":"levelo://app?vid=f2d97acb-1d32-4e87-8374-8721d7c706d1","ios":"levelo://app?vid=f2d97acb-1d32-4e87-8374-8721d7c706d1"},"vehicle_type_id":"4","last_reported":1728115867,"current_range_meters":30400,"station_id":"","pricing_plan_id":"cebpf4jnsgd1na2vs0mg"},{"bike_id":"e58cd69b-6df5-4dfd-9113-9904cf6e07c3","system_id":"levelo_inurba_marseille","lat":43.24388,"lon":5.37059,"is_reserved":false,"is_disabled":false,"rental_uris":{"android":"levelo://app?vid=e58cd69b-6df5-4dfd-9113-9904cf6e07c3","ios":"levelo://app?vid=e58cd69b-6df5-4dfd-9113-9904cf6e07c3"},"vehicle_type_id":"4","last_reported":1728115867,"current_range_meters":31200,"station_id":"ce4bhhh2rcd13ifvqfk0","pricing_plan_id":"cebpf4jnsgd1na2vs0mg"},{"bike_id":"c6a4d201-b40f-4e73-bde2-eef6682d2234","system_id":"levelo_inurba_marseille","lat":43.30147,"lon":5.38079,"is_reserved":false,"is_disabled":false,"rental_uris":{"android":"levelo://app?vid=c6a4d201-b40f-4e73-bde2-eef6682d2234","ios":"levelo://app?vid=c6a4d201-b40f-4e73-bde2-eef6682d2234"},"vehicle_type_id":"4","last_reported":1728115867,"current_range_meters":36000,"station_id":"ce4bgjp2rcd13ifvqbh0","pricing_plan_id":"cebpf4jnsgd1na2vs0mg"},{"bike_id":"d0b21ca0-fde9-4072-99fe-bb2122b60c67","system_id":"levelo_inurba_marseille","lat":43.28998,"lon":5.35617,"is_reserved":false,"is_disabled":false,"rental_uris":{"android":"levelo://app?vid=d0b21ca0-fde9-4072-99fe-bb2122b60c67","ios":"levelo://app?vid=d0b21ca0-fde9-4072-99fe-bb2122b60c67"},"vehicle_type_id":"4","last_reported":1728115867,"current_range_meters":32400,"station_id":"ce4bhb92rcd13ifvqen0","pricing_plan_id":"cebpf4jnsgd1na2vs0mg"},{"bike_id":"a2757abc-4224-428a-a673-690954ea5d2d","system_id":"levelo_inurba_marseille","lat":43.25003,"lon":5.38183,"is_reserved":false,"is_disabled":false,"rental_uris":{"android":"levelo://app?vid=a2757abc-4224-428a-a673-690954ea5d2d","ios":"levelo://app?vid=a2757abc-4224-428a-a673-690954ea5d2d"},"vehicle_type_id":"4","last_reported":1728115867,"current_range_meters":22800,"station_id":"","pricing_plan_id":"cebpf4jnsgd1na2vs0mg"},{"bike_id":"308ae973-a71c-45c1-9a03-b73643f01e25","system_id":"levelo_inurba_marseille","lat":43.3171,"lon":5.43706,"is_reserved":false,"is_disabled":false,"rental_uris":{"android":"levelo://app?vid=308ae973-a71c-45c1-9a03-b73643f01e25","ios":"levelo://app?vid=308ae973-a71c-45c1-9a03-b73643f01e25"},"vehicle_type_id":"4","last_reported":1728115867,"current_range_meters":24400,"station_id":"ce4bhp92rcd13ifvqhcg","pricing_plan_id":"cebpf4jnsgd1na2vs0mg"},{"bike_id":"7f9615d8-3abe-410d-a5b7-ed566d4cff7a","system_id":"levelo_inurba_marseille","lat":43.26564,"lon":5.39012,"is_reserved":false,"is_disabled":false,"rental_uris":{"android":"levelo://app?vid=7f9615d8-3abe-410d-a5b7-ed566d4cff7a","ios":"levelo://app?vid=7f9615d8-3abe-410d-a5b7-ed566d4cff7a"},"vehicle_type_id":"4","last_reported":1728115867,"current_range_meters":23200,"station_id":"ce4bhe12rcd13ifvqf30","pricing_plan_id":"cebpf4jnsgd1na2vs0mg"},{"bike_id":"0ba4bc15-e352-4dab-af47-0c05f9f898df","system_id":"levelo_inurba_marseille","lat":43.2815,"lon":5.42657,"is_reserved":false,"is_disabled":false,"rental_uris":{"android":"levelo://app?vid=0ba4bc15-e352-4dab-af47-0c05f9f898df","ios":"levelo://app?vid=0ba4bc15-e352-4dab-af47-0c05f9f898df"},"vehicle_type_id":"4","last_reported":1728115867,"current_range_meters":38800,"station_id":"ce4bhnh2rcd13ifvqgug","pricing_plan_id":"cebpf4jnsgd1na2vs0mg"},{"bike_id":"4153633f-9fd5-44a3-b27a-471eddc945aa","system_id":"levelo_inurba_marseille","lat":43.30091,"lon":5.39077,"is_reserved":false,"is_disabled":false,"rental_uris":{"android":"levelo://app?vid=4153633f-9fd5-44a3-b27a-471eddc945aa","ios":"levelo://app?vid=4153633f-9fd5-44a3-b27a-471eddc945aa"},"vehicle_type_id":"4","last_reported":1728115867,"current_range_meters":6800,"station_id":"ce4bh192rcd13ifvqdb0","pricing_plan_id":"cebpf4jnsgd1na2vs0mg"},{"bike_id":"38769fd6-7491-4e8d-ac4f-e352f06e8fc1","system_id":"levelo_inurba_marseille","lat":43.31167,"lon":5.38719,"is_reserved":false,"is_disabled":false,"rental_uris":{"android":"levelo://app?vid=38769fd6-7491-4e8d-ac4f-e352f06e8fc1","ios":"levelo://app?vid=38769fd6-7491-4e8d-ac4f-e352f06e8fc1"},"vehicle_type_id":"4","last_reported":1728115867,"current_range_meters":34000,"station_id":"ce4bgv12rcd13ifvqcp0","pricing_plan_id":"cebpf4jnsgd1na2vs0mg"},{"bike_id":"560cbcfd-dddb-4948-9f2b-ea57c785178f","system_id":"levelo_inurba_marseille","lat":43.25576,"lon":5.38241,"is_reserved":false,"is_disabled":false,"rental_uris":{"android":"levelo://app?vid=560cbcfd-dddb-4948-9f2b-ea57c785178f","ios":"levelo://app?vid=560cbcfd-dddb-4948-9f2b-ea57c785178f"},"vehicle_type_id":"4","last_reported":1728115867,"current_range_meters":23200,"station_id":"ce4bhih2rcd13ifvqfs0","pricing_plan_id":"cebpf4jnsgd1na2vs0mg"},{"bike_id":"5af8543b-bca9-4a62-8b3e-e9ca4f6ddc6f","system_id":"levelo_inurba_marseille","lat":43.27206,"lon":5.39195,"is_reserved":false,"is_disabled":false,"rental_uris":{"android":"levelo://app?vid=5af8543b-bca9-4a62-8b3e-e9ca4f6ddc6f","ios":"levelo://app?vid=5af8543b-bca9-4a62-8b3e-e9ca4f6ddc6f"},"vehicle_type_id":"4","last_reported":1728115867,"current_range_meters":37600,"station_id":"ce4bhhp2rcd13ifvqfm0","pricing_plan_id":"cebpf4jnsgd1na2vs0mg"},{"bike_id":"bf214ee5-bcc3-48ed-b2c5-a945b0468078","system_id":"levelo_inurba_marseille","lat":43.24642,"lon":5.38898,"is_reserved":false,"is_disabled":false,"rental_uris":{"android":"levelo://app?vid=bf214ee5-bcc3-48ed-b2c5-a945b0468078","ios":"levelo://app?vid=bf214ee5-bcc3-48ed-b2c5-a945b0468078"},"vehicle_type_id":"4","last_reported":1728115867,"current_range_meters":18800,"station_id":"ce4bhg12rcd13ifvqf60","pricing_plan_id":"cebpf4jnsgd1na2vs0mg"},{"bike_id":"c7510e81-47c3-4c9d-81e1-ee448bfffe60","system_id":"levelo_inurba_marseille","lat":43.26059,"lon":5.39396,"is_reserved":false,"is_disabled":false,"rental_uris":{"android":"levelo://app?vid=c7510e81-47c3-4c9d-81e1-ee448bfffe60","ios":"levelo://app?vid=c7510e81-47c3-4c9d-81e1-ee448bfffe60"},"vehicle_type_id":"4","last_reported":1728115867,"current_range_meters":35600,"station_id":"ce4bhh92rcd13ifvqfj0","pricing_plan_id":"cebpf4jnsgd1na2vs0mg"},{"bike_id":"6102bacc-0bb3-4c79-854a-2d4ec81b21c1","system_id":"levelo_inurba_marseille","lat":43.31714,"lon":5.42398,"is_reserved":false,"is_disabled":false,"rental_uris":{"android":"levelo://app?vid=6102bacc-0bb3-4c79-854a-2d4ec81b21c1","ios":"levelo://app?vid=6102bacc-0bb3-4c79-854a-2d4ec81b21c1"},"vehicle_type_id":"4","last_reported":1728115867,"current_range_meters":38800,"station_id":"ce4bhp92rcd13ifvqhbg","pricing_plan_id":"cebpf4jnsgd1na2vs0mg"},{"bike_id":"3b7da802-3755-48af-a961-032b7d7ffa1b","system_id":"levelo_inurba_marseille","lat":43.25818,"lon":5.39429,"is_reserved":false,"is_disabled":false,"rental_uris":{"android":"levelo://app?vid=3b7da802-3755-48af-a961-032b7d7ffa1b","ios":"levelo://app?vid=3b7da802-3755-48af-a961-032b7d7ffa1b"},"vehicle_type_id":"4","last_reported":1728115867,"current_range_meters":26000,"station_id":"ce4bhip2rcd13ifvqft0","pricing_plan_id":"cebpf4jnsgd1na2vs0mg"},{"bike_id":"64135920-5938-4a79-9c58-1ca30316df2c","system_id":"levelo_inurba_marseille","lat":43.31355,"lon":5.38501,"is_reserved":false,"is_disabled":false,"rental_uris":{"android":"levelo://app?vid=64135920-5938-4a79-9c58-1ca30316df2c","ios":"levelo://app?vid=64135920-5938-4a79-9c58-1ca30316df2c"},"vehicle_type_id":"4","last_reported":1728115867,"current_range_meters":38000,"station_id":"ce4bgt92rcd13ifvqcf0","pricing_plan_id":"cebpf4jnsgd1na2vs0mg"},{"bike_id":"13a35d1a-1c21-4cdd-9282-17040c700716","system_id":"levelo_inurba_marseille","lat":43.32535,"lon":5.41444,"is_reserved":false,"is_disabled":false,"rental_uris":{"android":"levelo://app?vid=13a35d1a-1c21-4cdd-9282-17040c700716","ios":"levelo://app?vid=13a35d1a-1c21-4cdd-9282-17040c700716"},"vehicle_type_id":"4","last_reported":1728115867,"current_range_meters":38800,"station_id":"ce4bhq12rcd13ifvqhhg","pricing_plan_id":"cebpf4jnsgd1na2vs0mg"},{"bike_id":"5991f84f-21f0-4a7e-908b-cd019d1c55c9","system_id":"levelo_inurba_marseille","lat":43.291939,"lon":5.357999,"is_reserved":false,"is_disabled":false,"rental_uris":{"android":"levelo://app?vid=5991f84f-21f0-4a7e-908b-cd019d1c55c9","ios":"levelo://app?vid=5991f84f-21f0-4a7e-908b-cd019d1c55c9"},"vehicle_type_id":"4","last_reported":1728115867,"current_range_meters":38000,"station_id":"ce4bhb12rcd13ifvqel0","pricing_plan_id":"cebpf4jnsgd1na2vs0mg"},{"bike_id":"1f95d555-d8b5-4f53-9f24-45752b03136f","system_id":"levelo_inurba_marseille","lat":43.27314,"lon":5.39102,"is_reserved":false,"is_disabled":false,"rental_uris":{"android":"levelo://app?vid=1f95d555-d8b5-4f53-9f24-45752b03136f","ios":"levelo://app?vid=1f95d555-d8b5-4f53-9f24-45752b03136f"},"vehicle_type_id":"4","last_reported":1728115867,"current_range_meters":2800,"station_id":"ce4bhgp2rcd13ifvqfe0","pricing_plan_id":"cebpf4jnsgd1na2vs0mg"},{"bike_id":"696644f5-1423-4196-8c71-bccdf5f2a225","system_id":"levelo_inurba_marseille","lat":43.2841,"lon":5.34989,"is_reserved":false,"is_disabled":false,"rental_uris":{"android":"levelo://app?vid=696644f5-1423-4196-8c71-bccdf5f2a225","ios":"levelo://app?vid=696644f5-1423-4196-8c71-bccdf5f2a225"},"vehicle_type_id":"4","last_reported":1728115867,"current_range_meters":38800,"station_id":"ce4bhbh2rcd13ifvqepg","pricing_plan_id":"cebpf4jnsgd1na2vs0mg"},{"bike_id":"8000e0cd-5842-4511-b6c7-4ed1e4e4ccd9","system_id":"levelo_inurba_marseille","lat":43.26946,"lon":5.3863,"is_reserved":false,"is_disabled":false,"rental_uris":{"android":"levelo://app?vid=8000e0cd-5842-4511-b6c7-4ed1e4e4ccd9","ios":"levelo://app?vid=8000e0cd-5842-4511-b6c7-4ed1e4e4ccd9"},"vehicle_type_id":"4","last_reported":1728115867,"current_range_meters":38000,"station_id":"ce4bhh92rcd13ifvqfh0","pricing_plan_id":"cebpf4jnsgd1na2vs0mg"},{"bike_id":"1677b5fa-03d6-4b3a-8db2-15450297f672","system_id":"levelo_inurba_marseille","lat":43.28722,"lon":5.36089,"is_reserved":false,"is_disabled":false,"rental_uris":{"android":"levelo://app?vid=1677b5fa-03d6-4b3a-8db2-15450297f672","ios":"levelo://app?vid=1677b5fa-03d6-4b3a-8db2-15450297f672"},"vehicle_type_id":"4","last_reported":1728115867,"current_range_meters":31200,"station_id":"cki0cbj6b192h4jlfktg","pricing_plan_id":"cebpf4jnsgd1na2vs0mg"},{"bike_id":"3b331ddc-b6e0-4524-a213-681816e88962","system_id":"levelo_inurba_marseille","lat":43.32358,"lon":5.38884,"is_reserved":false,"is_disabled":false,"rental_uris":{"android":"levelo://app?vid=3b331ddc-b6e0-4524-a213-681816e88962","ios":"levelo://app?vid=3b331ddc-b6e0-4524-a213-681816e88962"},"vehicle_type_id":"4","last_reported":1728115867,"current_range_meters":24000,"station_id":"ce4bhqp2rcd13ifvqhog","pricing_plan_id":"cebpf4jnsgd1na2vs0mg"},{"bike_id":"0bc4da86-c871-4c42-9afa-cbea77a620ca","system_id":"levelo_inurba_marseille","lat":43.28025,"lon":5.36942,"is_reserved":false,"is_disabled":false,"rental_uris":{"android":"levelo://app?vid=0bc4da86-c871-4c42-9afa-cbea77a620ca","ios":"levelo://app?vid=0bc4da86-c871-4c42-9afa-cbea77a620ca"},"vehicle_type_id":"4","last_reported":1728115867,"current_range_meters":38800,"station_id":"ce4bha12rcd13ifvqef0","pricing_plan_id":"cebpf4jnsgd1na2vs0mg"},{"bike_id":"e08c062f-61a2-493a-875d-6e296e2965d6","system_id":"levelo_inurba_marseille","lat":43.33754,"lon":5.37443,"is_reserved":false,"is_disabled":false,"rental_uris":{"android":"levelo://app?vid=e08c062f-61a2-493a-875d-6e296e2965d6","ios":"levelo://app?vid=e08c062f-61a2-493a-875d-6e296e2965d6"},"vehicle_type_id":"4","last_reported":1728115867,"current_range_meters":27600,"station_id":"","pricing_plan_id":"cebpf4jnsgd1na2vs0mg"},{"bike_id":"767b5572-7a96-45fd-9ea6-1b05056115f2","system_id":"levelo_inurba_marseille","lat":43.33021,"lon":5.39042,"is_reserved":false,"is_disabled":false,"rental_uris":{"android":"levelo://app?vid=767b5572-7a96-45fd-9ea6-1b05056115f2","ios":"levelo://app?vid=767b5572-7a96-45fd-9ea6-1b05056115f2"},"vehicle_type_id":"4","last_reported":1728115867,"current_range_meters":32800,"station_id":"ce4bhr92rcd13ifvqhrg","pricing_plan_id":"cebpf4jnsgd1na2vs0mg"},{"bike_id":"f617eaec-9b92-45f6-85bf-a5afb7f07d24","system_id":"levelo_inurba_marseille","lat":43.31324,"lon":5.39702,"is_reserved":false,"is_disabled":false,"rental_uris":{"android":"levelo://app?vid=f617eaec-9b92-45f6-85bf-a5afb7f07d24","ios":"levelo://app?vid=f617eaec-9b92-45f6-85bf-a5afb7f07d24"},"vehicle_type_id":"4","last_reported":1728115867,"current_range_meters":37600,"station_id":"ce4bgvp2rcd13ifvqcu0","pricing_plan_id":"cebpf4jnsgd1na2vs0mg"},{"bike_id":"946ee151-1a90-49d8-9d6e-4b9225057eaf","system_id":"levelo_inurba_marseille","lat":43.299693,"lon":5.38489,"is_reserved":false,"is_disabled":false,"rental_uris":{"android":"levelo://app?vid=946ee151-1a90-49d8-9d6e-4b9225057eaf","ios":"levelo://app?vid=946ee151-1a90-49d8-9d6e-4b9225057eaf"},"vehicle_type_id":"4","last_reported":1728115867,"current_range_meters":17600,"station_id":"ce4bhc92rcd13ifvqetg","pricing_plan_id":"cebpf4jnsgd1na2vs0mg"},{"bike_id":"cd264d65-5c31-4df9-b852-a6b5e2d9e84b","system_id":"levelo_inurba_marseille","lat":43.27107,"lon":5.38905,"is_reserved":false,"is_disabled":false,"rental_uris":{"android":"levelo://app?vid=cd264d65-5c31-4df9-b852-a6b5e2d9e84b","ios":"levelo://app?vid=cd264d65-5c31-4df9-b852-a6b5e2d9e84b"},"vehicle_type_id":"4","last_reported":1728115867,"current_range_meters":35600,"station_id":"ce4bhjp2rcd13ifvqg90","pricing_plan_id":"cebpf4jnsgd1na2vs0mg"},{"bike_id":"d788d0fc-8460-4682-9c46-ce6203605d75","system_id":"levelo_inurba_marseille","lat":43.2986,"lon":5.39743,"is_reserved":false,"is_disabled":false,"rental_uris":{"android":"levelo://app?vid=d788d0fc-8460-4682-9c46-ce6203605d75","ios":"levelo://app?vid=d788d0fc-8460-4682-9c46-ce6203605d75"},"vehicle_type_id":"4","last_reported":1728115867,"current_range_meters":22800,"station_id":"ce4bh0h2rcd13ifvqd50","pricing_plan_id":"cebpf4jnsgd1na2vs0mg"},{"bike_id":"c7f0adda-97ce-4098-ad1b-3d764f19c5aa","system_id":"levelo_inurba_marseille","lat":43.25502,"lon":5.37646,"is_reserved":false,"is_disabled":false,"rental_uris":{"android":"levelo://app?vid=c7f0adda-97ce-4098-ad1b-3d764f19c5aa","ios":"levelo://app?vid=c7f0adda-97ce-4098-ad1b-3d764f19c5aa"},"vehicle_type_id":"4","last_reported":1728115867,"current_range_meters":22400,"station_id":"ce4bhh12rcd13ifvqff0","pricing_plan_id":"cebpf4jnsgd1na2vs0mg"},{"bike_id":"4fb3e50b-e8a2-4f4d-ac04-bfe37d711d3a","system_id":"levelo_inurba_marseille","lat":43.23952,"lon":5.36642,"is_reserved":false,"is_disabled":false,"rental_uris":{"android":"levelo://app?vid=4fb3e50b-e8a2-4f4d-ac04-bfe37d711d3a","ios":"levelo://app?vid=4fb3e50b-e8a2-4f4d-ac04-bfe37d711d3a"},"vehicle_type_id":"4","last_reported":1728115867,"current_range_meters":24800,"station_id":"ce4bhi12rcd13ifvqfp0","pricing_plan_id":"cebpf4jnsgd1na2vs0mg"},{"bike_id":"fcfb42de-cde1-4ec3-8e89-f197fdfcc1a8","system_id":"levelo_inurba_marseille","lat":43.23961,"lon":5.3664,"is_reserved":false,"is_disabled":false,"rental_uris":{"android":"levelo://app?vid=fcfb42de-cde1-4ec3-8e89-f197fdfcc1a8","ios":"levelo://app?vid=fcfb42de-cde1-4ec3-8e89-f197fdfcc1a8"},"vehicle_type_id":"4","last_reported":1728115867,"current_range_meters":38800,"station_id":"ce4bhi12rcd13ifvqfp0","pricing_plan_id":"cebpf4jnsgd1na2vs0mg"},{"bike_id":"7101b9db-d328-47cf-a085-f83e3e2a7f92","system_id":"levelo_inurba_marseille","lat":43.26806,"lon":5.40252,"is_reserved":false,"is_disabled":false,"rental_uris":{"android":"levelo://app?vid=7101b9db-d328-47cf-a085-f83e3e2a7f92","ios":"levelo://app?vid=7101b9db-d328-47cf-a085-f83e3e2a7f92"},"vehicle_type_id":"4","last_reported":1728115867,"current_range_meters":8800,"station_id":"ce501612rcd8frsf0b60","pricing_plan_id":"cebpf4jnsgd1na2vs0mg"},{"bike_id":"633d2344-d99e-4174-b6fb-920c3267e701","system_id":"levelo_inurba_marseille","lat":43.33717,"lon":5.39176,"is_reserved":false,"is_disabled":false,"rental_uris":{"android":"levelo://app?vid=633d2344-d99e-4174-b6fb-920c3267e701","ios":"levelo://app?vid=633d2344-d99e-4174-b6fb-920c3267e701"},"vehicle_type_id":"4","last_reported":1728115867,"current_range_meters":25200,"station_id":"ce4bhr92rcd13ifvqhsg","pricing_plan_id":"cebpf4jnsgd1na2vs0mg"},{"bike_id":"5bb9570c-3c0f-4333-a6a5-c18ec6187253","system_id":"levelo_inurba_marseille","lat":43.2464,"lon":5.38886,"is_reserved":false,"is_disabled":false,"rental_uris":{"android":"levelo://app?vid=5bb9570c-3c0f-4333-a6a5-c18ec6187253","ios":"levelo://app?vid=5bb9570c-3c0f-4333-a6a5-c18ec6187253"},"vehicle_type_id":"4","last_reported":1728115867,"current_range_meters":22400,"station_id":"ce4bhg12rcd13ifvqf60","pricing_plan_id":"cebpf4jnsgd1na2vs0mg"},{"bike_id":"887bb6e2-b51e-436c-ae35-2d7e69843b6a","system_id":"levelo_inurba_marseille","lat":43.2958,"lon":5.36747,"is_reserved":false,"is_disabled":false,"rental_uris":{"android":"levelo://app?vid=887bb6e2-b51e-436c-ae35-2d7e69843b6a","ios":"levelo://app?vid=887bb6e2-b51e-436c-ae35-2d7e69843b6a"},"vehicle_type_id":"4","last_reported":1728115867,"current_range_meters":9600,"station_id":"ce4bgph2rcd13ifvqc2g","pricing_plan_id":"cebpf4jnsgd1na2vs0mg"},{"bike_id":"9c4ecbe1-c9d2-490e-9c81-3dfd774a6aa4","system_id":"levelo_inurba_marseille","lat":43.29591,"lon":5.3772,"is_reserved":false,"is_disabled":false,"rental_uris":{"android":"levelo://app?vid=9c4ecbe1-c9d2-490e-9c81-3dfd774a6aa4","ios":"levelo://app?vid=9c4ecbe1-c9d2-490e-9c81-3dfd774a6aa4"},"vehicle_type_id":"4","last_reported":1728115867,"current_range_meters":30800,"station_id":"ce4bgi92rcd13ifvqb90","pricing_plan_id":"cebpf4jnsgd1na2vs0mg"},{"bike_id":"79b9780c-0672-46ff-af34-19be6dec4043","system_id":"levelo_inurba_marseille","lat":43.3171,"lon":5.43705,"is_reserved":false,"is_disabled":false,"rental_uris":{"android":"levelo://app?vid=79b9780c-0672-46ff-af34-19be6dec4043","ios":"levelo://app?vid=79b9780c-0672-46ff-af34-19be6dec4043"},"vehicle_type_id":"4","last_reported":1728115867,"current_range_meters":24800,"station_id":"ce4bhp92rcd13ifvqhcg","pricing_plan_id":"cebpf4jnsgd1na2vs0mg"},{"bike_id":"62aeb3d7-7c89-45a0-82de-f773809f45fc","system_id":"levelo_inurba_marseille","lat":43.30604,"lon":5.37236,"is_reserved":false,"is_disabled":false,"rental_uris":{"android":"levelo://app?vid=62aeb3d7-7c89-45a0-82de-f773809f45fc","ios":"levelo://app?vid=62aeb3d7-7c89-45a0-82de-f773809f45fc"},"vehicle_type_id":"4","last_reported":1728115867,"current_range_meters":26800,"station_id":"ce4bgqh2rcd13ifvqc4g","pricing_plan_id":"cebpf4jnsgd1na2vs0mg"},{"bike_id":"88d763e9-254b-4f45-a733-903d4efd49e1","system_id":"levelo_inurba_marseille","lat":43.31071,"lon":5.38349,"is_reserved":false,"is_disabled":false,"rental_uris":{"android":"levelo://app?vid=88d763e9-254b-4f45-a733-903d4efd49e1","ios":"levelo://app?vid=88d763e9-254b-4f45-a733-903d4efd49e1"},"vehicle_type_id":"4","last_reported":1728115867,"current_range_meters":35600,"station_id":"ce4bgv92rcd13ifvqcr0","pricing_plan_id":"cebpf4jnsgd1na2vs0mg"},{"bike_id":"fd872ba7-9877-4e67-9269-d8995abba644","system_id":"levelo_inurba_marseille","lat":43.22936,"lon":5.35379,"is_reserved":false,"is_disabled":false,"rental_uris":{"android":"levelo://app?vid=fd872ba7-9877-4e67-9269-d8995abba644","ios":"levelo://app?vid=fd872ba7-9877-4e67-9269-d8995abba644"},"vehicle_type_id":"4","last_reported":1728115867,"current_range_meters":16000,"station_id":"cpo3532slgdg3j2ikp40","pricing_plan_id":"cebpf4jnsgd1na2vs0mg"},{"bike_id":"fe069c0c-ab7e-4066-b369-24f70f595c37","system_id":"levelo_inurba_marseille","lat":43.32479,"lon":5.36556,"is_reserved":false,"is_disabled":false,"rental_uris":{"android":"levelo://app?vid=fe069c0c-ab7e-4066-b369-24f70f595c37","ios":"levelo://app?vid=fe069c0c-ab7e-4066-b369-24f70f595c37"},"vehicle_type_id":"4","last_reported":1728115867,"current_range_meters":39200,"station_id":"ce4bhs12rcd13ifvqhvg","pricing_plan_id":"cebpf4jnsgd1na2vs0mg"},{"bike_id":"d65d21e5-77a3-42c8-bb7f-67f3fd5c5213","system_id":"levelo_inurba_marseille","lat":43.30548,"lon":5.36528,"is_reserved":false,"is_disabled":false,"rental_uris":{"android":"levelo://app?vid=d65d21e5-77a3-42c8-bb7f-67f3fd5c5213","ios":"levelo://app?vid=d65d21e5-77a3-42c8-bb7f-67f3fd5c5213"},"vehicle_type_id":"4","last_reported":1728115867,"current_range_meters":38800,"station_id":"ce4bgs12rcd13ifvqcag","pricing_plan_id":"cebpf4jnsgd1na2vs0mg"},{"bike_id":"580b6d21-7455-4fcf-8ba1-85eee12e7e82","system_id":"levelo_inurba_marseille","lat":43.292256,"lon":5.362283,"is_reserved":false,"is_disabled":false,"rental_uris":{"android":"levelo://app?vid=580b6d21-7455-4fcf-8ba1-85eee12e7e82","ios":"levelo://app?vid=580b6d21-7455-4fcf-8ba1-85eee12e7e82"},"vehicle_type_id":"4","last_reported":1728115867,"current_range_meters":29600,"station_id":"","pricing_plan_id":"cebpf4jnsgd1na2vs0mg"},{"bike_id":"e1ec301a-7688-41c9-9533-8458796dfbba","system_id":"levelo_inurba_marseille","lat":43.28717,"lon":5.37938,"is_reserved":false,"is_disabled":false,"rental_uris":{"android":"levelo://app?vid=e1ec301a-7688-41c9-9533-8458796dfbba","ios":"levelo://app?vid=e1ec301a-7688-41c9-9533-8458796dfbba"},"vehicle_type_id":"4","last_reported":1728115867,"current_range_meters":38800,"station_id":"ce4bh9p2rcd13ifvqec0","pricing_plan_id":"cebpf4jnsgd1na2vs0mg"},{"bike_id":"737fed70-0157-42cd-b1d0-c99f6a548a82","system_id":"levelo_inurba_marseille","lat":43.27993,"lon":5.4166,"is_reserved":false,"is_disabled":false,"rental_uris":{"android":"levelo://app?vid=737fed70-0157-42cd-b1d0-c99f6a548a82","ios":"levelo://app?vid=737fed70-0157-42cd-b1d0-c99f6a548a82"},"vehicle_type_id":"4","last_reported":1728115867,"current_range_meters":24400,"station_id":"ce4bho12rcd13ifvqh1g","pricing_plan_id":"cebpf4jnsgd1na2vs0mg"},{"bike_id":"f0043234-0e52-4e57-b874-f56582004648","system_id":"levelo_inurba_marseille","lat":43.29952,"lon":5.41324,"is_reserved":false,"is_disabled":false,"rental_uris":{"android":"levelo://app?vid=f0043234-0e52-4e57-b874-f56582004648","ios":"levelo://app?vid=f0043234-0e52-4e57-b874-f56582004648"},"vehicle_type_id":"4","last_reported":1728115867,"current_range_meters":3600,"station_id":"ce4bhp12rcd13ifvqh9g","pricing_plan_id":"cebpf4jnsgd1na2vs0mg"},{"bike_id":"ffd2ef54-459a-425a-bbbd-15122bf2e93e","system_id":"levelo_inurba_marseille","lat":43.29556,"lon":5.42285,"is_reserved":false,"is_disabled":false,"rental_uris":{"android":"levelo://app?vid=ffd2ef54-459a-425a-bbbd-15122bf2e93e","ios":"levelo://app?vid=ffd2ef54-459a-425a-bbbd-15122bf2e93e"},"vehicle_type_id":"4","last_reported":1728115867,"current_range_meters":19200,"station_id":"ce4bhph2rcd13ifvqhdg","pricing_plan_id":"cebpf4jnsgd1na2vs0mg"},{"bike_id":"d34ce1dd-3ca2-420a-91ff-5fd42a7b6421","system_id":"levelo_inurba_marseille","lat":43.30948,"lon":5.39045,"is_reserved":false,"is_disabled":false,"rental_uris":{"android":"levelo://app?vid=d34ce1dd-3ca2-420a-91ff-5fd42a7b6421","ios":"levelo://app?vid=d34ce1dd-3ca2-420a-91ff-5fd42a7b6421"},"vehicle_type_id":"4","last_reported":1728115867,"current_range_meters":38800,"station_id":"ce4bgup2rcd13ifvqco0","pricing_plan_id":"cebpf4jnsgd1na2vs0mg"},{"bike_id":"02287b3e-a2e5-4db9-badc-4f46622493bb","system_id":"levelo_inurba_marseille","lat":43.27066,"lon":5.42275,"is_reserved":false,"is_disabled":false,"rental_uris":{"android":"levelo://app?vid=02287b3e-a2e5-4db9-badc-4f46622493bb","ios":"levelo://app?vid=02287b3e-a2e5-4db9-badc-4f46622493bb"},"vehicle_type_id":"4","last_reported":1728115867,"current_range_meters":38800,"station_id":"ce4bhk92rcd13ifvqgb0","pricing_plan_id":"cebpf4jnsgd1na2vs0mg"},{"bike_id":"2dfa250e-fa81-43be-b763-8f49843284b7","system_id":"levelo_inurba_marseille","lat":43.23185,"lon":5.39984,"is_reserved":false,"is_disabled":false,"rental_uris":{"android":"levelo://app?vid=2dfa250e-fa81-43be-b763-8f49843284b7","ios":"levelo://app?vid=2dfa250e-fa81-43be-b763-8f49843284b7"},"vehicle_type_id":"4","last_reported":1728115867,"current_range_meters":38000,"station_id":"ce4bhn12rcd13ifvqgqg","pricing_plan_id":"cebpf4jnsgd1na2vs0mg"},{"bike_id":"be96d391-7cef-4492-971e-6c4498198655","system_id":"levelo_inurba_marseille","lat":43.27975,"lon":5.41849,"is_reserved":false,"is_disabled":false,"rental_uris":{"android":"levelo://app?vid=be96d391-7cef-4492-971e-6c4498198655","ios":"levelo://app?vid=be96d391-7cef-4492-971e-6c4498198655"},"vehicle_type_id":"4","last_reported":1728115867,"current_range_meters":28000,"station_id":"","pricing_plan_id":"cebpf4jnsgd1na2vs0mg"},{"bike_id":"56e290b8-baea-47bd-8cbe-7fd9ea0f5e8d","system_id":"levelo_inurba_marseille","lat":43.25863,"lon":5.39901,"is_reserved":false,"is_disabled":false,"rental_uris":{"android":"levelo://app?vid=56e290b8-baea-47bd-8cbe-7fd9ea0f5e8d","ios":"levelo://app?vid=56e290b8-baea-47bd-8cbe-7fd9ea0f5e8d"},"vehicle_type_id":"4","last_reported":1728115867,"current_range_meters":36800,"station_id":"ce4bhl92rcd13ifvqghg","pricing_plan_id":"cebpf4jnsgd1na2vs0mg"},{"bike_id":"a78fda36-cada-4a47-9104-4198396bc09e","system_id":"levelo_inurba_marseille","lat":43.30889,"lon":5.39652,"is_reserved":false,"is_disabled":false,"rental_uris":{"android":"levelo://app?vid=a78fda36-cada-4a47-9104-4198396bc09e","ios":"levelo://app?vid=a78fda36-cada-4a47-9104-4198396bc09e"},"vehicle_type_id":"4","last_reported":1728115867,"current_range_meters":38800,"station_id":"ce4bh012rcd13ifvqcv0","pricing_plan_id":"cebpf4jnsgd1na2vs0mg"},{"bike_id":"2127827a-03bd-4f9a-a0c5-31598fd2cadd","system_id":"levelo_inurba_marseille","lat":43.32652,"lon":5.4099,"is_reserved":false,"is_disabled":false,"rental_uris":{"android":"levelo://app?vid=2127827a-03bd-4f9a-a0c5-31598fd2cadd","ios":"levelo://app?vid=2127827a-03bd-4f9a-a0c5-31598fd2cadd"},"vehicle_type_id":"4","last_reported":1728115867,"current_range_meters":5600,"station_id":"ce4bhpp2rcd13ifvqhgg","pricing_plan_id":"cebpf4jnsgd1na2vs0mg"},{"bike_id":"8d649653-d550-4c65-b604-56d61f5daa25","system_id":"levelo_inurba_marseille","lat":43.28266,"lon":5.35071,"is_reserved":false,"is_disabled":false,"rental_uris":{"android":"levelo://app?vid=8d649653-d550-4c65-b604-56d61f5daa25","ios":"levelo://app?vid=8d649653-d550-4c65-b604-56d61f5daa25"},"vehicle_type_id":"4","last_reported":1728115867,"current_range_meters":38000,"station_id":"ce4bhbp2rcd13ifvqerg","pricing_plan_id":"cebpf4jnsgd1na2vs0mg"},{"bike_id":"82fb1d9b-f78d-4572-93cd-c097376a885d","system_id":"levelo_inurba_marseille","lat":43.23135,"lon":5.43706,"is_reserved":false,"is_disabled":false,"rental_uris":{"android":"levelo://app?vid=82fb1d9b-f78d-4572-93cd-c097376a885d","ios":"levelo://app?vid=82fb1d9b-f78d-4572-93cd-c097376a885d"},"vehicle_type_id":"4","last_reported":1728115867,"current_range_meters":3200,"station_id":"ce4bhmp2rcd13ifvqgog","pricing_plan_id":"cebpf4jnsgd1na2vs0mg"},{"bike_id":"e04e5431-207d-4263-8b72-762e4c4878e5","system_id":"levelo_inurba_marseille","lat":43.23063,"lon":5.35494,"is_reserved":false,"is_disabled":false,"rental_uris":{"android":"levelo://app?vid=e04e5431-207d-4263-8b72-762e4c4878e5","ios":"levelo://app?vid=e04e5431-207d-4263-8b72-762e4c4878e5"},"vehicle_type_id":"4","last_reported":1728115867,"current_range_meters":16800,"station_id":"cpo3342slgdg3j2ifvpg","pricing_plan_id":"cebpf4jnsgd1na2vs0mg"},{"bike_id":"1a5410ba-9fbb-4266-a0fe-2364c4d5e366","system_id":"levelo_inurba_marseille","lat":43.31349,"lon":5.36714,"is_reserved":false,"is_disabled":false,"rental_uris":{"android":"levelo://app?vid=1a5410ba-9fbb-4266-a0fe-2364c4d5e366","ios":"levelo://app?vid=1a5410ba-9fbb-4266-a0fe-2364c4d5e366"},"vehicle_type_id":"4","last_reported":1728115867,"current_range_meters":38800,"station_id":"ce4bgr92rcd13ifvqc6g","pricing_plan_id":"cebpf4jnsgd1na2vs0mg"},{"bike_id":"50e6aeb8-7e25-4c09-9781-24c9f5d23dff","system_id":"levelo_inurba_marseille","lat":43.33746,"lon":5.37438,"is_reserved":false,"is_disabled":false,"rental_uris":{"android":"levelo://app?vid=50e6aeb8-7e25-4c09-9781-24c9f5d23dff","ios":"levelo://app?vid=50e6aeb8-7e25-4c09-9781-24c9f5d23dff"},"vehicle_type_id":"4","last_reported":1728115867,"current_range_meters":28000,"station_id":"","pricing_plan_id":"cebpf4jnsgd1na2vs0mg"},{"bike_id":"03ab3da6-0cf8-4367-b90e-0c5c5e8e2cae","system_id":"levelo_inurba_marseille","lat":43.29892,"lon":5.43656,"is_reserved":false,"is_disabled":false,"rental_uris":{"android":"levelo://app?vid=03ab3da6-0cf8-4367-b90e-0c5c5e8e2cae","ios":"levelo://app?vid=03ab3da6-0cf8-4367-b90e-0c5c5e8e2cae"},"vehicle_type_id":"4","last_reported":1728115867,"current_range_meters":37600,"station_id":"ce4bhpp2rcd13ifvqhfg","pricing_plan_id":"cebpf4jnsgd1na2vs0mg"},{"bike_id":"349b6c0d-2888-4967-b745-40a4e4021c99","system_id":"levelo_inurba_marseille","lat":43.30905,"lon":5.36843,"is_reserved":false,"is_disabled":false,"rental_uris":{"android":"levelo://app?vid=349b6c0d-2888-4967-b745-40a4e4021c99","ios":"levelo://app?vid=349b6c0d-2888-4967-b745-40a4e4021c99"},"vehicle_type_id":"4","last_reported":1728115867,"current_range_meters":38000,"station_id":"ce4bgn92rcd13ifvqbvg","pricing_plan_id":"cebpf4jnsgd1na2vs0mg"},{"bike_id":"7e5a4ffa-6310-4511-a1dc-2dedfd26f1bc","system_id":"levelo_inurba_marseille","lat":43.29553,"lon":5.42279,"is_reserved":false,"is_disabled":false,"rental_uris":{"android":"levelo://app?vid=7e5a4ffa-6310-4511-a1dc-2dedfd26f1bc","ios":"levelo://app?vid=7e5a4ffa-6310-4511-a1dc-2dedfd26f1bc"},"vehicle_type_id":"4","last_reported":1728115867,"current_range_meters":3600,"station_id":"ce4bhph2rcd13ifvqhdg","pricing_plan_id":"cebpf4jnsgd1na2vs0mg"},{"bike_id":"9e226fae-960b-4695-927b-c16464bc93ed","system_id":"levelo_inurba_marseille","lat":43.33815,"lon":5.37483,"is_reserved":false,"is_disabled":false,"rental_uris":{"android":"levelo://app?vid=9e226fae-960b-4695-927b-c16464bc93ed","ios":"levelo://app?vid=9e226fae-960b-4695-927b-c16464bc93ed"},"vehicle_type_id":"4","last_reported":1728115867,"current_range_meters":36800,"station_id":"","pricing_plan_id":"cebpf4jnsgd1na2vs0mg"},{"bike_id":"a1a6f09e-dab4-4c51-b227-5080754aa9c2","system_id":"levelo_inurba_marseille","lat":43.29374,"lon":5.37836,"is_reserved":false,"is_disabled":false,"rental_uris":{"android":"levelo://app?vid=a1a6f09e-dab4-4c51-b227-5080754aa9c2","ios":"levelo://app?vid=a1a6f09e-dab4-4c51-b227-5080754aa9c2"},"vehicle_type_id":"4","last_reported":1728115867,"current_range_meters":23200,"station_id":"ce4bgjh2rcd13ifvqbf0","pricing_plan_id":"cebpf4jnsgd1na2vs0mg"},{"bike_id":"094b268c-4cc2-43fc-862b-773d8ae92352","system_id":"levelo_inurba_marseille","lat":43.3112,"lon":5.37769,"is_reserved":false,"is_disabled":false,"rental_uris":{"android":"levelo://app?vid=094b268c-4cc2-43fc-862b-773d8ae92352","ios":"levelo://app?vid=094b268c-4cc2-43fc-862b-773d8ae92352"},"vehicle_type_id":"4","last_reported":1728115867,"current_range_meters":36800,"station_id":"ce4bgt92rcd13ifvqcg0","pricing_plan_id":"cebpf4jnsgd1na2vs0mg"},{"bike_id":"40a4fb65-d0cf-444d-9093-ab66d4825dd3","system_id":"levelo_inurba_marseille","lat":43.31361,"lon":5.38492,"is_reserved":false,"is_disabled":false,"rental_uris":{"android":"levelo://app?vid=40a4fb65-d0cf-444d-9093-ab66d4825dd3","ios":"levelo://app?vid=40a4fb65-d0cf-444d-9093-ab66d4825dd3"},"vehicle_type_id":"4","last_reported":1728115867,"current_range_meters":17600,"station_id":"ce4bgt92rcd13ifvqcf0","pricing_plan_id":"cebpf4jnsgd1na2vs0mg"},{"bike_id":"23916c89-585f-48bf-be27-3f0989556740","system_id":"levelo_inurba_marseille","lat":43.30154,"lon":5.38075,"is_reserved":false,"is_disabled":false,"rental_uris":{"android":"levelo://app?vid=23916c89-585f-48bf-be27-3f0989556740","ios":"levelo://app?vid=23916c89-585f-48bf-be27-3f0989556740"},"vehicle_type_id":"4","last_reported":1728115867,"current_range_meters":32000,"station_id":"ce4bgjp2rcd13ifvqbh0","pricing_plan_id":"cebpf4jnsgd1na2vs0mg"},{"bike_id":"8afb9829-5b79-4b79-899f-8b231e8accfe","system_id":"levelo_inurba_marseille","lat":43.29299,"lon":5.37452,"is_reserved":false,"is_disabled":false,"rental_uris":{"android":"levelo://app?vid=8afb9829-5b79-4b79-899f-8b231e8accfe","ios":"levelo://app?vid=8afb9829-5b79-4b79-899f-8b231e8accfe"},"vehicle_type_id":"4","last_reported":1728115867,"current_range_meters":24400,"station_id":"ce4bgi12rcd13ifvqb70","pricing_plan_id":"cebpf4jnsgd1na2vs0mg"},{"bike_id":"be855d3f-aa37-4c69-9485-bcd30590fee9","system_id":"levelo_inurba_marseille","lat":43.31067,"lon":5.38353,"is_reserved":false,"is_disabled":false,"rental_uris":{"android":"levelo://app?vid=be855d3f-aa37-4c69-9485-bcd30590fee9","ios":"levelo://app?vid=be855d3f-aa37-4c69-9485-bcd30590fee9"},"vehicle_type_id":"4","last_reported":1728115867,"current_range_meters":37600,"station_id":"ce4bgv92rcd13ifvqcr0","pricing_plan_id":"cebpf4jnsgd1na2vs0mg"},{"bike_id":"98fe9666-1214-4d75-b1e8-91292b88bd3c","system_id":"levelo_inurba_marseille","lat":43.28838,"lon":5.3585,"is_reserved":false,"is_disabled":false,"rental_uris":{"android":"levelo://app?vid=98fe9666-1214-4d75-b1e8-91292b88bd3c","ios":"levelo://app?vid=98fe9666-1214-4d75-b1e8-91292b88bd3c"},"vehicle_type_id":"4","last_reported":1728115867,"current_range_meters":20800,"station_id":"ce4bhb12rcd13ifvqem0","pricing_plan_id":"cebpf4jnsgd1na2vs0mg"},{"bike_id":"058dfd6f-1596-4e58-be3e-e52faf3a5db8","system_id":"levelo_inurba_marseille","lat":43.27826,"lon":5.39204,"is_reserved":false,"is_disabled":false,"rental_uris":{"android":"levelo://app?vid=058dfd6f-1596-4e58-be3e-e52faf3a5db8","ios":"levelo://app?vid=058dfd6f-1596-4e58-be3e-e52faf3a5db8"},"vehicle_type_id":"4","last_reported":1728115867,"current_range_meters":36000,"station_id":"ce4bhjp2rcd13ifvqga0","pricing_plan_id":"cebpf4jnsgd1na2vs0mg"},{"bike_id":"3cc4d07d-3eee-4b93-9fc0-d4f2d12e1e80","system_id":"levelo_inurba_marseille","lat":43.30324,"lon":5.40459,"is_reserved":false,"is_disabled":false,"rental_uris":{"android":"levelo://app?vid=3cc4d07d-3eee-4b93-9fc0-d4f2d12e1e80","ios":"levelo://app?vid=3cc4d07d-3eee-4b93-9fc0-d4f2d12e1e80"},"vehicle_type_id":"4","last_reported":1728115867,"current_range_meters":4400,"station_id":"ce4bh012rcd13ifvqd10","pricing_plan_id":"cebpf4jnsgd1na2vs0mg"},{"bike_id":"ad4e8f5a-894a-4c94-9f6d-c0d7dda88988","system_id":"levelo_inurba_marseille","lat":43.23959,"lon":5.36627,"is_reserved":false,"is_disabled":false,"rental_uris":{"android":"levelo://app?vid=ad4e8f5a-894a-4c94-9f6d-c0d7dda88988","ios":"levelo://app?vid=ad4e8f5a-894a-4c94-9f6d-c0d7dda88988"},"vehicle_type_id":"4","last_reported":1728115867,"current_range_meters":20800,"station_id":"ce4bhi12rcd13ifvqfp0","pricing_plan_id":"cebpf4jnsgd1na2vs0mg"},{"bike_id":"3cde7a93-a095-4ec5-85c4-cb48cde11f81","system_id":"levelo_inurba_marseille","lat":43.33774,"lon":5.37459,"is_reserved":false,"is_disabled":false,"rental_uris":{"android":"levelo://app?vid=3cde7a93-a095-4ec5-85c4-cb48cde11f81","ios":"levelo://app?vid=3cde7a93-a095-4ec5-85c4-cb48cde11f81"},"vehicle_type_id":"4","last_reported":1728115867,"current_range_meters":38000,"station_id":"","pricing_plan_id":"cebpf4jnsgd1na2vs0mg"},{"bike_id":"e2455afb-c7f2-4814-be90-e1617bd9805f","system_id":"levelo_inurba_marseille","lat":43.24991,"lon":5.38937,"is_reserved":false,"is_disabled":false,"rental_uris":{"android":"levelo://app?vid=e2455afb-c7f2-4814-be90-e1617bd9805f","ios":"levelo://app?vid=e2455afb-c7f2-4814-be90-e1617bd9805f"},"vehicle_type_id":"4","last_reported":1728115867,"current_range_meters":6400,"station_id":"ce4bhgp2rcd13ifvqfd0","pricing_plan_id":"cebpf4jnsgd1na2vs0mg"},{"bike_id":"9232b280-f2c9-46e5-a1bd-a0aaa03c2e44","system_id":"levelo_inurba_marseille","lat":43.30644,"lon":5.40098,"is_reserved":false,"is_disabled":false,"rental_uris":{"android":"levelo://app?vid=9232b280-f2c9-46e5-a1bd-a0aaa03c2e44","ios":"levelo://app?vid=9232b280-f2c9-46e5-a1bd-a0aaa03c2e44"},"vehicle_type_id":"4","last_reported":1728115867,"current_range_meters":30800,"station_id":"ce4bh112rcd13ifvqda0","pricing_plan_id":"cebpf4jnsgd1na2vs0mg"},{"bike_id":"f804678f-f648-4841-9a62-5e8ad493f990","system_id":"levelo_inurba_marseille","lat":43.30941,"lon":5.39042,"is_reserved":false,"is_disabled":false,"rental_uris":{"android":"levelo://app?vid=f804678f-f648-4841-9a62-5e8ad493f990","ios":"levelo://app?vid=f804678f-f648-4841-9a62-5e8ad493f990"},"vehicle_type_id":"4","last_reported":1728115867,"current_range_meters":39200,"station_id":"ce4bgup2rcd13ifvqco0","pricing_plan_id":"cebpf4jnsgd1na2vs0mg"},{"bike_id":"57d5d1f8-5acf-49ec-a460-f52cbdbdbef8","system_id":"levelo_inurba_marseille","lat":43.28409,"lon":5.3499,"is_reserved":false,"is_disabled":false,"rental_uris":{"android":"levelo://app?vid=57d5d1f8-5acf-49ec-a460-f52cbdbdbef8","ios":"levelo://app?vid=57d5d1f8-5acf-49ec-a460-f52cbdbdbef8"},"vehicle_type_id":"4","last_reported":1728115867,"current_range_meters":38000,"station_id":"ce4bhbh2rcd13ifvqepg","pricing_plan_id":"cebpf4jnsgd1na2vs0mg"},{"bike_id":"b539cef5-a0ee-4eb9-af10-1c3a300ff81c","system_id":"levelo_inurba_marseille","lat":43.32102,"lon":5.36771,"is_reserved":false,"is_disabled":false,"rental_uris":{"android":"levelo://app?vid=b539cef5-a0ee-4eb9-af10-1c3a300ff81c","ios":"levelo://app?vid=b539cef5-a0ee-4eb9-af10-1c3a300ff81c"},"vehicle_type_id":"4","last_reported":1728115867,"current_range_meters":34000,"station_id":"ce4bhrh2rcd13ifvqhug","pricing_plan_id":"cebpf4jnsgd1na2vs0mg"},{"bike_id":"095c8e4a-aa8e-42c3-8041-ee0b2f20cf9c","system_id":"levelo_inurba_marseille","lat":43.30467,"lon":5.37911,"is_reserved":false,"is_disabled":false,"rental_uris":{"android":"levelo://app?vid=095c8e4a-aa8e-42c3-8041-ee0b2f20cf9c","ios":"levelo://app?vid=095c8e4a-aa8e-42c3-8041-ee0b2f20cf9c"},"vehicle_type_id":"4","last_reported":1728115867,"current_range_meters":33600,"station_id":"ce4bgup2rcd13ifvqcn0","pricing_plan_id":"cebpf4jnsgd1na2vs0mg"},{"bike_id":"fd712ad3-a94e-4a78-a4f3-7bf5d23869e7","system_id":"levelo_inurba_marseille","lat":43.30947,"lon":5.39033,"is_reserved":false,"is_disabled":false,"rental_uris":{"android":"levelo://app?vid=fd712ad3-a94e-4a78-a4f3-7bf5d23869e7","ios":"levelo://app?vid=fd712ad3-a94e-4a78-a4f3-7bf5d23869e7"},"vehicle_type_id":"4","last_reported":1728115867,"current_range_meters":28400,"station_id":"ce4bgup2rcd13ifvqco0","pricing_plan_id":"cebpf4jnsgd1na2vs0mg"},{"bike_id":"500956c9-eeb0-4c1a-8001-8490f6e76b14","system_id":"levelo_inurba_marseille","lat":43.23184,"lon":5.39979,"is_reserved":false,"is_disabled":false,"rental_uris":{"android":"levelo://app?vid=500956c9-eeb0-4c1a-8001-8490f6e76b14","ios":"levelo://app?vid=500956c9-eeb0-4c1a-8001-8490f6e76b14"},"vehicle_type_id":"4","last_reported":1728115867,"current_range_meters":16400,"station_id":"ce4bhn12rcd13ifvqgqg","pricing_plan_id":"cebpf4jnsgd1na2vs0mg"},{"bike_id":"a57357ff-3195-4b18-9583-de0233767d8a","system_id":"levelo_inurba_marseille","lat":43.306639,"lon":5.400869,"is_reserved":false,"is_disabled":false,"rental_uris":{"android":"levelo://app?vid=a57357ff-3195-4b18-9583-de0233767d8a","ios":"levelo://app?vid=a57357ff-3195-4b18-9583-de0233767d8a"},"vehicle_type_id":"4","last_reported":1728115867,"current_range_meters":28800,"station_id":"ce4bh112rcd13ifvqda0","pricing_plan_id":"cebpf4jnsgd1na2vs0mg"},{"bike_id":"206bf6bf-09ad-4763-85da-6f36c3ad29a0","system_id":"levelo_inurba_marseille","lat":43.27994,"lon":5.41662,"is_reserved":false,"is_disabled":false,"rental_uris":{"android":"levelo://app?vid=206bf6bf-09ad-4763-85da-6f36c3ad29a0","ios":"levelo://app?vid=206bf6bf-09ad-4763-85da-6f36c3ad29a0"},"vehicle_type_id":"4","last_reported":1728115867,"current_range_meters":22800,"station_id":"ce4bho12rcd13ifvqh1g","pricing_plan_id":"cebpf4jnsgd1na2vs0mg"},{"bike_id":"b4089f69-0d77-4154-855c-2ecfd61312de","system_id":"levelo_inurba_marseille","lat":43.267029,"lon":5.383127,"is_reserved":false,"is_disabled":false,"rental_uris":{"android":"levelo://app?vid=b4089f69-0d77-4154-855c-2ecfd61312de","ios":"levelo://app?vid=b4089f69-0d77-4154-855c-2ecfd61312de"},"vehicle_type_id":"4","last_reported":1728115867,"current_range_meters":11600,"station_id":"ce4bhg92rcd13ifvqf90","pricing_plan_id":"cebpf4jnsgd1na2vs0mg"},{"bike_id":"bb5f5452-4b9b-417d-b148-b396a874f3d9","system_id":"levelo_inurba_marseille","lat":43.33756,"lon":5.37446,"is_reserved":false,"is_disabled":false,"rental_uris":{"android":"levelo://app?vid=bb5f5452-4b9b-417d-b148-b396a874f3d9","ios":"levelo://app?vid=bb5f5452-4b9b-417d-b148-b396a874f3d9"},"vehicle_type_id":"4","last_reported":1728115867,"current_range_meters":32800,"station_id":"","pricing_plan_id":"cebpf4jnsgd1na2vs0mg"},{"bike_id":"6a9ec245-3df4-43be-99c8-dd9c71fb3e12","system_id":"levelo_inurba_marseille","lat":43.26486,"lon":5.39545,"is_reserved":false,"is_disabled":false,"rental_uris":{"android":"levelo://app?vid=6a9ec245-3df4-43be-99c8-dd9c71fb3e12","ios":"levelo://app?vid=6a9ec245-3df4-43be-99c8-dd9c71fb3e12"},"vehicle_type_id":"4","last_reported":1728115867,"current_range_meters":37600,"station_id":"ce4bhi12rcd13ifvqfq0","pricing_plan_id":"cebpf4jnsgd1na2vs0mg"},{"bike_id":"82d2602c-a9f5-451e-8f2e-69c892008fa9","system_id":"levelo_inurba_marseille","lat":43.28933,"lon":5.36404,"is_reserved":false,"is_disabled":false,"rental_uris":{"android":"levelo://app?vid=82d2602c-a9f5-451e-8f2e-69c892008fa9","ios":"levelo://app?vid=82d2602c-a9f5-451e-8f2e-69c892008fa9"},"vehicle_type_id":"4","last_reported":1728115867,"current_range_meters":31200,"station_id":"ce4bhc92rcd13ifvqetg","pricing_plan_id":"cebpf4jnsgd1na2vs0mg"},{"bike_id":"745ed244-76cd-4c23-a987-6d60e3a4cb1b","system_id":"levelo_inurba_marseille","lat":43.29181,"lon":5.35796,"is_reserved":false,"is_disabled":false,"rental_uris":{"android":"levelo://app?vid=745ed244-76cd-4c23-a987-6d60e3a4cb1b","ios":"levelo://app?vid=745ed244-76cd-4c23-a987-6d60e3a4cb1b"},"vehicle_type_id":"4","last_reported":1728115867,"current_range_meters":38800,"station_id":"ce4bhb12rcd13ifvqel0","pricing_plan_id":"cebpf4jnsgd1na2vs0mg"},{"bike_id":"5522a723-7146-4651-b0b7-bab1f29c8534","system_id":"levelo_inurba_marseille","lat":43.28607,"lon":5.37063,"is_reserved":false,"is_disabled":false,"rental_uris":{"android":"levelo://app?vid=5522a723-7146-4651-b0b7-bab1f29c8534","ios":"levelo://app?vid=5522a723-7146-4651-b0b7-bab1f29c8534"},"vehicle_type_id":"4","last_reported":1728115867,"current_range_meters":37600,"station_id":"ce4bht12rcd13ifvqi60","pricing_plan_id":"cebpf4jnsgd1na2vs0mg"},{"bike_id":"d7a0298f-5c2b-438d-ab05-5d6a7ac83160","system_id":"levelo_inurba_marseille","lat":43.30799,"lon":5.43521,"is_reserved":false,"is_disabled":false,"rental_uris":{"android":"levelo://app?vid=d7a0298f-5c2b-438d-ab05-5d6a7ac83160","ios":"levelo://app?vid=d7a0298f-5c2b-438d-ab05-5d6a7ac83160"},"vehicle_type_id":"4","last_reported":1728115867,"current_range_meters":37600,"station_id":"ce4bhph2rcd13ifvqheg","pricing_plan_id":"cebpf4jnsgd1na2vs0mg"},{"bike_id":"621d9c86-2034-44eb-ab16-1d18fab24db9","system_id":"levelo_inurba_marseille","lat":43.31702,"lon":5.37743,"is_reserved":false,"is_disabled":false,"rental_uris":{"android":"levelo://app?vid=621d9c86-2034-44eb-ab16-1d18fab24db9","ios":"levelo://app?vid=621d9c86-2034-44eb-ab16-1d18fab24db9"},"vehicle_type_id":"4","last_reported":1728115867,"current_range_meters":38800,"station_id":"ce4bgth2rcd13ifvqch0","pricing_plan_id":"cebpf4jnsgd1na2vs0mg"},{"bike_id":"b8fcc49f-9739-4ac8-ab70-8e7941e0b2e7","system_id":"levelo_inurba_marseille","lat":43.31361,"lon":5.38499,"is_reserved":false,"is_disabled":false,"rental_uris":{"android":"levelo://app?vid=b8fcc49f-9739-4ac8-ab70-8e7941e0b2e7","ios":"levelo://app?vid=b8fcc49f-9739-4ac8-ab70-8e7941e0b2e7"},"vehicle_type_id":"4","last_reported":1728115867,"current_range_meters":38800,"station_id":"ce4bgt92rcd13ifvqcf0","pricing_plan_id":"cebpf4jnsgd1na2vs0mg"},{"bike_id":"5efa7fc7-fcac-4385-ab16-16409c55305a","system_id":"levelo_inurba_marseille","lat":43.29187,"lon":5.35797,"is_reserved":false,"is_disabled":false,"rental_uris":{"android":"levelo://app?vid=5efa7fc7-fcac-4385-ab16-16409c55305a","ios":"levelo://app?vid=5efa7fc7-fcac-4385-ab16-16409c55305a"},"vehicle_type_id":"4","last_reported":1728115867,"current_range_meters":24800,"station_id":"ce4bhb12rcd13ifvqel0","pricing_plan_id":"cebpf4jnsgd1na2vs0mg"},{"bike_id":"751288db-5c2d-4384-8dc9-cff7844f7c61","system_id":"levelo_inurba_marseille","lat":43.29266,"lon":5.3685,"is_reserved":false,"is_disabled":false,"rental_uris":{"android":"levelo://app?vid=751288db-5c2d-4384-8dc9-cff7844f7c61","ios":"levelo://app?vid=751288db-5c2d-4384-8dc9-cff7844f7c61"},"vehicle_type_id":"4","last_reported":1728115867,"current_range_meters":38000,"station_id":"ce4bhbp2rcd13ifvqesg","pricing_plan_id":"cebpf4jnsgd1na2vs0mg"},{"bike_id":"a33c05d8-1097-47e4-9760-66b666788866","system_id":"levelo_inurba_marseille","lat":43.2558,"lon":5.38232,"is_reserved":false,"is_disabled":false,"rental_uris":{"android":"levelo://app?vid=a33c05d8-1097-47e4-9760-66b666788866","ios":"levelo://app?vid=a33c05d8-1097-47e4-9760-66b666788866"},"vehicle_type_id":"4","last_reported":1728115867,"current_range_meters":21600,"station_id":"ce4bhih2rcd13ifvqfs0","pricing_plan_id":"cebpf4jnsgd1na2vs0mg"},{"bike_id":"b0dc2897-cb6b-44e2-947a-9e1de3e6a940","system_id":"levelo_inurba_marseille","lat":43.28153,"lon":5.42642,"is_reserved":false,"is_disabled":false,"rental_uris":{"android":"levelo://app?vid=b0dc2897-cb6b-44e2-947a-9e1de3e6a940","ios":"levelo://app?vid=b0dc2897-cb6b-44e2-947a-9e1de3e6a940"},"vehicle_type_id":"4","last_reported":1728115867,"current_range_meters":6000,"station_id":"ce4bhnh2rcd13ifvqgug","pricing_plan_id":"cebpf4jnsgd1na2vs0mg"},{"bike_id":"69d22968-5985-4dc4-b82a-a054e66a9462","system_id":"levelo_inurba_marseille","lat":43.336098,"lon":5.410299,"is_reserved":false,"is_disabled":false,"rental_uris":{"android":"levelo://app?vid=69d22968-5985-4dc4-b82a-a054e66a9462","ios":"levelo://app?vid=69d22968-5985-4dc4-b82a-a054e66a9462"},"vehicle_type_id":"4","last_reported":1728115867,"current_range_meters":30800,"station_id":"ce4bhqh2rcd13ifvqhmg","pricing_plan_id":"cebpf4jnsgd1na2vs0mg"},{"bike_id":"43fc5487-6973-4fc7-a12f-6a97ffe8a3ce","system_id":"levelo_inurba_marseille","lat":43.25106,"lon":5.40329,"is_reserved":false,"is_disabled":false,"rental_uris":{"android":"levelo://app?vid=43fc5487-6973-4fc7-a12f-6a97ffe8a3ce","ios":"levelo://app?vid=43fc5487-6973-4fc7-a12f-6a97ffe8a3ce"},"vehicle_type_id":"4","last_reported":1728115867,"current_range_meters":11200,"station_id":"ce4bhlh2rcd13ifvqgig","pricing_plan_id":"cebpf4jnsgd1na2vs0mg"},{"bike_id":"2eaa0040-6ce1-4a14-a1ce-ca4c4f1a6624","system_id":"levelo_inurba_marseille","lat":43.29053,"lon":5.35897,"is_reserved":false,"is_disabled":false,"rental_uris":{"android":"levelo://app?vid=2eaa0040-6ce1-4a14-a1ce-ca4c4f1a6624","ios":"levelo://app?vid=2eaa0040-6ce1-4a14-a1ce-ca4c4f1a6624"},"vehicle_type_id":"4","last_reported":1728115867,"current_range_meters":38800,"station_id":"ce4bha92rcd13ifvqeg0","pricing_plan_id":"cebpf4jnsgd1na2vs0mg"},{"bike_id":"219df1b6-9d69-46f8-bdd5-caa50ce674cf","system_id":"levelo_inurba_marseille","lat":43.255493,"lon":5.37674,"is_reserved":false,"is_disabled":false,"rental_uris":{"android":"levelo://app?vid=219df1b6-9d69-46f8-bdd5-caa50ce674cf","ios":"levelo://app?vid=219df1b6-9d69-46f8-bdd5-caa50ce674cf"},"vehicle_type_id":"4","last_reported":1728115867,"current_range_meters":10800,"station_id":"","pricing_plan_id":"cebpf4jnsgd1na2vs0mg"},{"bike_id":"51e048ff-bb58-4d01-acae-464d9ff2ced1","system_id":"levelo_inurba_marseille","lat":43.2957,"lon":5.37525,"is_reserved":false,"is_disabled":false,"rental_uris":{"android":"levelo://app?vid=51e048ff-bb58-4d01-acae-464d9ff2ced1","ios":"levelo://app?vid=51e048ff-bb58-4d01-acae-464d9ff2ced1"},"vehicle_type_id":"4","last_reported":1728115867,"current_range_meters":35600,"station_id":"ce4bgh92rcd13ifvqb50","pricing_plan_id":"cebpf4jnsgd1na2vs0mg"},{"bike_id":"ec712d60-8a85-4221-b9f0-598475c5f635","system_id":"levelo_inurba_marseille","lat":43.25498,"lon":5.37653,"is_reserved":false,"is_disabled":false,"rental_uris":{"android":"levelo://app?vid=ec712d60-8a85-4221-b9f0-598475c5f635","ios":"levelo://app?vid=ec712d60-8a85-4221-b9f0-598475c5f635"},"vehicle_type_id":"4","last_reported":1728115867,"current_range_meters":37600,"station_id":"ce4bhh12rcd13ifvqff0","pricing_plan_id":"cebpf4jnsgd1na2vs0mg"},{"bike_id":"3c0954fb-d57d-4e82-85cf-189c5f13ff8d","system_id":"levelo_inurba_marseille","lat":43.25861,"lon":5.39903,"is_reserved":false,"is_disabled":false,"rental_uris":{"android":"levelo://app?vid=3c0954fb-d57d-4e82-85cf-189c5f13ff8d","ios":"levelo://app?vid=3c0954fb-d57d-4e82-85cf-189c5f13ff8d"},"vehicle_type_id":"4","last_reported":1728115867,"current_range_meters":22800,"station_id":"ce4bhl92rcd13ifvqghg","pricing_plan_id":"cebpf4jnsgd1na2vs0mg"},{"bike_id":"57d7b7bf-9a1e-4c35-8388-96cc980f8410","system_id":"levelo_inurba_marseille","lat":43.22924,"lon":5.35376,"is_reserved":false,"is_disabled":false,"rental_uris":{"android":"levelo://app?vid=57d7b7bf-9a1e-4c35-8388-96cc980f8410","ios":"levelo://app?vid=57d7b7bf-9a1e-4c35-8388-96cc980f8410"},"vehicle_type_id":"4","last_reported":1728115867,"current_range_meters":16000,"station_id":"cpo3532slgdg3j2ikp40","pricing_plan_id":"cebpf4jnsgd1na2vs0mg"},{"bike_id":"6ea48325-7f88-4dda-b986-b645879f8b8c","system_id":"levelo_inurba_marseille","lat":43.29893,"lon":5.363304,"is_reserved":false,"is_disabled":false,"rental_uris":{"android":"levelo://app?vid=6ea48325-7f88-4dda-b986-b645879f8b8c","ios":"levelo://app?vid=6ea48325-7f88-4dda-b986-b645879f8b8c"},"vehicle_type_id":"4","last_reported":1728115867,"current_range_meters":30000,"station_id":"ce4bgpp2rcd13ifvqc3g","pricing_plan_id":"cebpf4jnsgd1na2vs0mg"},{"bike_id":"82f49e4e-fcac-4087-aece-6f5af1299050","system_id":"levelo_inurba_marseille","lat":43.28409,"lon":5.34991,"is_reserved":false,"is_disabled":false,"rental_uris":{"android":"levelo://app?vid=82f49e4e-fcac-4087-aece-6f5af1299050","ios":"levelo://app?vid=82f49e4e-fcac-4087-aece-6f5af1299050"},"vehicle_type_id":"4","last_reported":1728115867,"current_range_meters":34000,"station_id":"ce4bhbh2rcd13ifvqepg","pricing_plan_id":"cebpf4jnsgd1na2vs0mg"},{"bike_id":"e194d986-0055-453c-88f9-259ba45226bc","system_id":"levelo_inurba_marseille","lat":43.30533,"lon":5.36701,"is_reserved":false,"is_disabled":false,"rental_uris":{"android":"levelo://app?vid=e194d986-0055-453c-88f9-259ba45226bc","ios":"levelo://app?vid=e194d986-0055-453c-88f9-259ba45226bc"},"vehicle_type_id":"4","last_reported":1728115867,"current_range_meters":38000,"station_id":"ce4bgrp2rcd13ifvqc9g","pricing_plan_id":"cebpf4jnsgd1na2vs0mg"},{"bike_id":"e9fbfdc1-4b72-407f-8534-de81b6153f9f","system_id":"levelo_inurba_marseille","lat":43.2511,"lon":5.40315,"is_reserved":false,"is_disabled":false,"rental_uris":{"android":"levelo://app?vid=e9fbfdc1-4b72-407f-8534-de81b6153f9f","ios":"levelo://app?vid=e9fbfdc1-4b72-407f-8534-de81b6153f9f"},"vehicle_type_id":"4","last_reported":1728115867,"current_range_meters":26000,"station_id":"ce4bhlh2rcd13ifvqgig","pricing_plan_id":"cebpf4jnsgd1na2vs0mg"},{"bike_id":"ea0f2492-2138-468f-bd77-ebaca7a464f3","system_id":"levelo_inurba_marseille","lat":43.28417,"lon":5.34991,"is_reserved":false,"is_disabled":false,"rental_uris":{"android":"levelo://app?vid=ea0f2492-2138-468f-bd77-ebaca7a464f3","ios":"levelo://app?vid=ea0f2492-2138-468f-bd77-ebaca7a464f3"},"vehicle_type_id":"4","last_reported":1728115867,"current_range_meters":38800,"station_id":"ce4bhbh2rcd13ifvqepg","pricing_plan_id":"cebpf4jnsgd1na2vs0mg"},{"bike_id":"77c59eab-5250-44c4-be86-099c0defe9c4","system_id":"levelo_inurba_marseille","lat":43.33742,"lon":5.37457,"is_reserved":false,"is_disabled":false,"rental_uris":{"android":"levelo://app?vid=77c59eab-5250-44c4-be86-099c0defe9c4","ios":"levelo://app?vid=77c59eab-5250-44c4-be86-099c0defe9c4"},"vehicle_type_id":"4","last_reported":1728115867,"current_range_meters":26000,"station_id":"","pricing_plan_id":"cebpf4jnsgd1na2vs0mg"},{"bike_id":"449d415f-05ac-4b50-969e-a471643013e9","system_id":"levelo_inurba_marseille","lat":43.31359,"lon":5.385,"is_reserved":false,"is_disabled":false,"rental_uris":{"android":"levelo://app?vid=449d415f-05ac-4b50-969e-a471643013e9","ios":"levelo://app?vid=449d415f-05ac-4b50-969e-a471643013e9"},"vehicle_type_id":"4","last_reported":1728115867,"current_range_meters":36000,"station_id":"ce4bgt92rcd13ifvqcf0","pricing_plan_id":"cebpf4jnsgd1na2vs0mg"},{"bike_id":"c9b68f56-64ee-42b4-8db0-f7451aef9767","system_id":"levelo_inurba_marseille","lat":43.25087,"lon":5.39515,"is_reserved":false,"is_disabled":false,"rental_uris":{"android":"levelo://app?vid=c9b68f56-64ee-42b4-8db0-f7451aef9767","ios":"levelo://app?vid=c9b68f56-64ee-42b4-8db0-f7451aef9767"},"vehicle_type_id":"4","last_reported":1728115867,"current_range_meters":12800,"station_id":"ce4bhm12rcd13ifvqgkg","pricing_plan_id":"cebpf4jnsgd1na2vs0mg"},{"bike_id":"18d20e52-1246-44c1-b3fa-f369eec94da5","system_id":"levelo_inurba_marseille","lat":43.23958,"lon":5.36625,"is_reserved":false,"is_disabled":false,"rental_uris":{"android":"levelo://app?vid=18d20e52-1246-44c1-b3fa-f369eec94da5","ios":"levelo://app?vid=18d20e52-1246-44c1-b3fa-f369eec94da5"},"vehicle_type_id":"4","last_reported":1728115867,"current_range_meters":38000,"station_id":"ce4bhi12rcd13ifvqfp0","pricing_plan_id":"cebpf4jnsgd1na2vs0mg"},{"bike_id":"84b07b81-8a90-4e9c-96ec-461a75726f5b","system_id":"levelo_inurba_marseille","lat":43.32003,"lon":5.38143,"is_reserved":false,"is_disabled":false,"rental_uris":{"android":"levelo://app?vid=84b07b81-8a90-4e9c-96ec-461a75726f5b","ios":"levelo://app?vid=84b07b81-8a90-4e9c-96ec-461a75726f5b"},"vehicle_type_id":"4","last_reported":1728115867,"current_range_meters":8000,"station_id":"ce4bhr12rcd13ifvqhpg","pricing_plan_id":"cebpf4jnsgd1na2vs0mg"},{"bike_id":"d3831008-2e40-49ed-9feb-19f1d9f96d9c","system_id":"levelo_inurba_marseille","lat":43.31172,"lon":5.38707,"is_reserved":false,"is_disabled":false,"rental_uris":{"android":"levelo://app?vid=d3831008-2e40-49ed-9feb-19f1d9f96d9c","ios":"levelo://app?vid=d3831008-2e40-49ed-9feb-19f1d9f96d9c"},"vehicle_type_id":"4","last_reported":1728115867,"current_range_meters":18800,"station_id":"ce4bgv12rcd13ifvqcp0","pricing_plan_id":"cebpf4jnsgd1na2vs0mg"},{"bike_id":"81433335-13a7-46b2-94af-023df4a89017","system_id":"levelo_inurba_marseille","lat":43.30799,"lon":5.38153,"is_reserved":false,"is_disabled":false,"rental_uris":{"android":"levelo://app?vid=81433335-13a7-46b2-94af-023df4a89017","ios":"levelo://app?vid=81433335-13a7-46b2-94af-023df4a89017"},"vehicle_type_id":"4","last_reported":1728115867,"current_range_meters":38800,"station_id":"ce4bgt12rcd13ifvqce0","pricing_plan_id":"cebpf4jnsgd1na2vs0mg"},{"bike_id":"200a3a83-e53b-4679-bf4d-ebd446099089","system_id":"levelo_inurba_marseille","lat":43.28266,"lon":5.35063,"is_reserved":false,"is_disabled":false,"rental_uris":{"android":"levelo://app?vid=200a3a83-e53b-4679-bf4d-ebd446099089","ios":"levelo://app?vid=200a3a83-e53b-4679-bf4d-ebd446099089"},"vehicle_type_id":"4","last_reported":1728115867,"current_range_meters":28400,"station_id":"ce4bhbp2rcd13ifvqerg","pricing_plan_id":"cebpf4jnsgd1na2vs0mg"},{"bike_id":"32ceac28-dacd-4d4c-9c55-d75f7e6d1aa1","system_id":"levelo_inurba_marseille","lat":43.30798,"lon":5.43528,"is_reserved":false,"is_disabled":false,"rental_uris":{"android":"levelo://app?vid=32ceac28-dacd-4d4c-9c55-d75f7e6d1aa1","ios":"levelo://app?vid=32ceac28-dacd-4d4c-9c55-d75f7e6d1aa1"},"vehicle_type_id":"4","last_reported":1728115867,"current_range_meters":10000,"station_id":"ce4bhph2rcd13ifvqheg","pricing_plan_id":"cebpf4jnsgd1na2vs0mg"},{"bike_id":"ca47570b-2efc-4631-b07a-832edc9b204f","system_id":"levelo_inurba_marseille","lat":43.23178,"lon":5.39986,"is_reserved":false,"is_disabled":false,"rental_uris":{"android":"levelo://app?vid=ca47570b-2efc-4631-b07a-832edc9b204f","ios":"levelo://app?vid=ca47570b-2efc-4631-b07a-832edc9b204f"},"vehicle_type_id":"4","last_reported":1728115867,"current_range_meters":30000,"station_id":"ce4bhn12rcd13ifvqgqg","pricing_plan_id":"cebpf4jnsgd1na2vs0mg"},{"bike_id":"0965a543-53b5-4e53-9bbf-e83a3a5eabb1","system_id":"levelo_inurba_marseille","lat":43.3095,"lon":5.39032,"is_reserved":false,"is_disabled":false,"rental_uris":{"android":"levelo://app?vid=0965a543-53b5-4e53-9bbf-e83a3a5eabb1","ios":"levelo://app?vid=0965a543-53b5-4e53-9bbf-e83a3a5eabb1"},"vehicle_type_id":"4","last_reported":1728115867,"current_range_meters":25600,"station_id":"ce4bgup2rcd13ifvqco0","pricing_plan_id":"cebpf4jnsgd1na2vs0mg"},{"bike_id":"7e2b549d-a359-4676-800f-9dd725a28f54","system_id":"levelo_inurba_marseille","lat":43.30299,"lon":5.39214,"is_reserved":false,"is_disabled":false,"rental_uris":{"android":"levelo://app?vid=7e2b549d-a359-4676-800f-9dd725a28f54","ios":"levelo://app?vid=7e2b549d-a359-4676-800f-9dd725a28f54"},"vehicle_type_id":"4","last_reported":1728115867,"current_range_meters":21600,"station_id":"ce4bgkh2rcd13ifvqbk0","pricing_plan_id":"cebpf4jnsgd1na2vs0mg"},{"bike_id":"3e0ada6c-630f-49c5-bd04-c47d3b9da6d5","system_id":"levelo_inurba_marseille","lat":43.27068,"lon":5.4228,"is_reserved":false,"is_disabled":false,"rental_uris":{"android":"levelo://app?vid=3e0ada6c-630f-49c5-bd04-c47d3b9da6d5","ios":"levelo://app?vid=3e0ada6c-630f-49c5-bd04-c47d3b9da6d5"},"vehicle_type_id":"4","last_reported":1728115867,"current_range_meters":29600,"station_id":"ce4bhk92rcd13ifvqgb0","pricing_plan_id":"cebpf4jnsgd1na2vs0mg"},{"bike_id":"1e6a44e2-821a-4ca1-8b03-7291f86f1d6f","system_id":"levelo_inurba_marseille","lat":43.29267,"lon":5.36856,"is_reserved":false,"is_disabled":false,"rental_uris":{"android":"levelo://app?vid=1e6a44e2-821a-4ca1-8b03-7291f86f1d6f","ios":"levelo://app?vid=1e6a44e2-821a-4ca1-8b03-7291f86f1d6f"},"vehicle_type_id":"4","last_reported":1728115867,"current_range_meters":3200,"station_id":"ce4bhbp2rcd13ifvqesg","pricing_plan_id":"cebpf4jnsgd1na2vs0mg"},{"bike_id":"b417a8d0-1fac-4a2b-9294-35cea48e57c1","system_id":"levelo_inurba_marseille","lat":43.33024,"lon":5.39044,"is_reserved":false,"is_disabled":false,"rental_uris":{"android":"levelo://app?vid=b417a8d0-1fac-4a2b-9294-35cea48e57c1","ios":"levelo://app?vid=b417a8d0-1fac-4a2b-9294-35cea48e57c1"},"vehicle_type_id":"4","last_reported":1728115867,"current_range_meters":28000,"station_id":"ce4bhr92rcd13ifvqhrg","pricing_plan_id":"cebpf4jnsgd1na2vs0mg"},{"bike_id":"d54b1158-ec6f-4dc3-a7e1-2d0b5958261d","system_id":"levelo_inurba_marseille","lat":43.29561,"lon":5.42278,"is_reserved":false,"is_disabled":false,"rental_uris":{"android":"levelo://app?vid=d54b1158-ec6f-4dc3-a7e1-2d0b5958261d","ios":"levelo://app?vid=d54b1158-ec6f-4dc3-a7e1-2d0b5958261d"},"vehicle_type_id":"4","last_reported":1728115867,"current_range_meters":38800,"station_id":"ce4bhph2rcd13ifvqhdg","pricing_plan_id":"cebpf4jnsgd1na2vs0mg"},{"bike_id":"d5c43e4f-ec76-4579-b5d4-6acbbae67566","system_id":"levelo_inurba_marseille","lat":43.22928,"lon":5.3538,"is_reserved":false,"is_disabled":false,"rental_uris":{"android":"levelo://app?vid=d5c43e4f-ec76-4579-b5d4-6acbbae67566","ios":"levelo://app?vid=d5c43e4f-ec76-4579-b5d4-6acbbae67566"},"vehicle_type_id":"4","last_reported":1728115867,"current_range_meters":22000,"station_id":"cpo3532slgdg3j2ikp40","pricing_plan_id":"cebpf4jnsgd1na2vs0mg"},{"bike_id":"f9e559a2-35ab-4cea-90d1-ad6e65c19c9b","system_id":"levelo_inurba_marseille","lat":43.28614,"lon":5.351,"is_reserved":false,"is_disabled":false,"rental_uris":{"android":"levelo://app?vid=f9e559a2-35ab-4cea-90d1-ad6e65c19c9b","ios":"levelo://app?vid=f9e559a2-35ab-4cea-90d1-ad6e65c19c9b"},"vehicle_type_id":"4","last_reported":1728115867,"current_range_meters":11600,"station_id":"ce4bhch2rcd13ifvqeug","pricing_plan_id":"cebpf4jnsgd1na2vs0mg"},{"bike_id":"d3404d93-b1d4-4785-a824-c0b9e1db9cc1","system_id":"levelo_inurba_marseille","lat":43.28726,"lon":5.36094,"is_reserved":false,"is_disabled":false,"rental_uris":{"android":"levelo://app?vid=d3404d93-b1d4-4785-a824-c0b9e1db9cc1","ios":"levelo://app?vid=d3404d93-b1d4-4785-a824-c0b9e1db9cc1"},"vehicle_type_id":"4","last_reported":1728115867,"current_range_meters":38000,"station_id":"cki0cbj6b192h4jlfktg","pricing_plan_id":"cebpf4jnsgd1na2vs0mg"},{"bike_id":"a8597e2b-11a4-41b1-af04-3d091354a1e4","system_id":"levelo_inurba_marseille","lat":43.33604,"lon":5.41032,"is_reserved":false,"is_disabled":false,"rental_uris":{"android":"levelo://app?vid=a8597e2b-11a4-41b1-af04-3d091354a1e4","ios":"levelo://app?vid=a8597e2b-11a4-41b1-af04-3d091354a1e4"},"vehicle_type_id":"4","last_reported":1728115867,"current_range_meters":28000,"station_id":"ce4bhq92rcd13ifvqhkg","pricing_plan_id":"cebpf4jnsgd1na2vs0mg"},{"bike_id":"2652d87d-e51f-4777-97ca-7914dd0fe606","system_id":"levelo_inurba_marseille","lat":43.30459,"lon":5.37898,"is_reserved":false,"is_disabled":false,"rental_uris":{"android":"levelo://app?vid=2652d87d-e51f-4777-97ca-7914dd0fe606","ios":"levelo://app?vid=2652d87d-e51f-4777-97ca-7914dd0fe606"},"vehicle_type_id":"4","last_reported":1728115867,"current_range_meters":38800,"station_id":"ce4bgup2rcd13ifvqcn0","pricing_plan_id":"cebpf4jnsgd1na2vs0mg"},{"bike_id":"53c8aa76-156c-4159-a0a5-1f52837b96d6","system_id":"levelo_inurba_marseille","lat":43.296301,"lon":5.376777,"is_reserved":false,"is_disabled":false,"rental_uris":{"android":"levelo://app?vid=53c8aa76-156c-4159-a0a5-1f52837b96d6","ios":"levelo://app?vid=53c8aa76-156c-4159-a0a5-1f52837b96d6"},"vehicle_type_id":"4","last_reported":1728115867,"current_range_meters":32000,"station_id":"ce4bgi92rcd13ifvqb90","pricing_plan_id":"cebpf4jnsgd1na2vs0mg"},{"bike_id":"51515bf9-ebe8-4601-a5e8-e9867876ee12","system_id":"levelo_inurba_marseille","lat":43.30941,"lon":5.39038,"is_reserved":false,"is_disabled":false,"rental_uris":{"android":"levelo://app?vid=51515bf9-ebe8-4601-a5e8-e9867876ee12","ios":"levelo://app?vid=51515bf9-ebe8-4601-a5e8-e9867876ee12"},"vehicle_type_id":"4","last_reported":1728115867,"current_range_meters":28800,"station_id":"ce4bgup2rcd13ifvqco0","pricing_plan_id":"cebpf4jnsgd1na2vs0mg"},{"bike_id":"305287cc-28a9-45ab-a4dd-c4c6e179f781","system_id":"levelo_inurba_marseille","lat":43.30461,"lon":5.37902,"is_reserved":false,"is_disabled":false,"rental_uris":{"android":"levelo://app?vid=305287cc-28a9-45ab-a4dd-c4c6e179f781","ios":"levelo://app?vid=305287cc-28a9-45ab-a4dd-c4c6e179f781"},"vehicle_type_id":"4","last_reported":1728115867,"current_range_meters":32800,"station_id":"ce4bgup2rcd13ifvqcn0","pricing_plan_id":"cebpf4jnsgd1na2vs0mg"},{"bike_id":"97c3ddce-4e7d-43dc-9cb9-dad625978cd8","system_id":"levelo_inurba_marseille","lat":43.31749,"lon":5.39013,"is_reserved":false,"is_disabled":false,"rental_uris":{"android":"levelo://app?vid=97c3ddce-4e7d-43dc-9cb9-dad625978cd8","ios":"levelo://app?vid=97c3ddce-4e7d-43dc-9cb9-dad625978cd8"},"vehicle_type_id":"4","last_reported":1728115867,"current_range_meters":38400,"station_id":"ce4bhqp2rcd13ifvqhng","pricing_plan_id":"cebpf4jnsgd1na2vs0mg"},{"bike_id":"f7993679-59ec-4684-8474-f23f1c970528","system_id":"levelo_inurba_marseille","lat":43.30153,"lon":5.38075,"is_reserved":false,"is_disabled":false,"rental_uris":{"android":"levelo://app?vid=f7993679-59ec-4684-8474-f23f1c970528","ios":"levelo://app?vid=f7993679-59ec-4684-8474-f23f1c970528"},"vehicle_type_id":"4","last_reported":1728115867,"current_range_meters":28000,"station_id":"ce4bgjp2rcd13ifvqbh0","pricing_plan_id":"cebpf4jnsgd1na2vs0mg"},{"bike_id":"1bf291cc-8499-4db9-92c1-894795a742ef","system_id":"levelo_inurba_marseille","lat":43.29932,"lon":5.3655,"is_reserved":false,"is_disabled":false,"rental_uris":{"android":"levelo://app?vid=1bf291cc-8499-4db9-92c1-894795a742ef","ios":"levelo://app?vid=1bf291cc-8499-4db9-92c1-894795a742ef"},"vehicle_type_id":"4","last_reported":1728115867,"current_range_meters":36000,"station_id":"ce4bgm92rcd13ifvqbr0","pricing_plan_id":"cebpf4jnsgd1na2vs0mg"},{"bike_id":"21af6422-8f85-4c18-9237-da3ba75c0021","system_id":"levelo_inurba_marseille","lat":43.31166,"lon":5.38707,"is_reserved":false,"is_disabled":false,"rental_uris":{"android":"levelo://app?vid=21af6422-8f85-4c18-9237-da3ba75c0021","ios":"levelo://app?vid=21af6422-8f85-4c18-9237-da3ba75c0021"},"vehicle_type_id":"4","last_reported":1728115867,"current_range_meters":27200,"station_id":"ce4bgv12rcd13ifvqcp0","pricing_plan_id":"cebpf4jnsgd1na2vs0mg"},{"bike_id":"d2801287-9a07-410c-8860-548ca5010bd3","system_id":"levelo_inurba_marseille","lat":43.29225,"lon":5.36049,"is_reserved":false,"is_disabled":false,"rental_uris":{"android":"levelo://app?vid=d2801287-9a07-410c-8860-548ca5010bd3","ios":"levelo://app?vid=d2801287-9a07-410c-8860-548ca5010bd3"},"vehicle_type_id":"4","last_reported":1728115867,"current_range_meters":37600,"station_id":"ce4bhbh2rcd13ifvqeqg","pricing_plan_id":"cebpf4jnsgd1na2vs0mg"},{"bike_id":"d9513a24-3235-43a7-b9a5-1c5cfe37603f","system_id":"levelo_inurba_marseille","lat":43.23052,"lon":5.35486,"is_reserved":false,"is_disabled":false,"rental_uris":{"android":"levelo://app?vid=d9513a24-3235-43a7-b9a5-1c5cfe37603f","ios":"levelo://app?vid=d9513a24-3235-43a7-b9a5-1c5cfe37603f"},"vehicle_type_id":"4","last_reported":1728115867,"current_range_meters":20400,"station_id":"cpo3342slgdg3j2ifvpg","pricing_plan_id":"cebpf4jnsgd1na2vs0mg"},{"bike_id":"61b8e147-1e03-48bd-b16d-2fe479ee3990","system_id":"levelo_inurba_marseille","lat":43.32067,"lon":5.41541,"is_reserved":false,"is_disabled":false,"rental_uris":{"android":"levelo://app?vid=61b8e147-1e03-48bd-b16d-2fe479ee3990","ios":"levelo://app?vid=61b8e147-1e03-48bd-b16d-2fe479ee3990"},"vehicle_type_id":"4","last_reported":1728115867,"current_range_meters":7200,"station_id":"ce4bhq92rcd13ifvqhkg","pricing_plan_id":"cebpf4jnsgd1na2vs0mg"},{"bike_id":"009d6d0e-c1a8-4ddc-b330-ebf04e9c45b9","system_id":"levelo_inurba_marseille","lat":43.29898,"lon":5.436807,"is_reserved":false,"is_disabled":false,"rental_uris":{"android":"levelo://app?vid=009d6d0e-c1a8-4ddc-b330-ebf04e9c45b9","ios":"levelo://app?vid=009d6d0e-c1a8-4ddc-b330-ebf04e9c45b9"},"vehicle_type_id":"4","last_reported":1728115867,"current_range_meters":22400,"station_id":"ce4bhpp2rcd13ifvqhfg","pricing_plan_id":"cebpf4jnsgd1na2vs0mg"},{"bike_id":"5d911539-a47d-48c5-8a34-970ce317e29a","system_id":"levelo_inurba_marseille","lat":43.30144,"lon":5.38072,"is_reserved":false,"is_disabled":false,"rental_uris":{"android":"levelo://app?vid=5d911539-a47d-48c5-8a34-970ce317e29a","ios":"levelo://app?vid=5d911539-a47d-48c5-8a34-970ce317e29a"},"vehicle_type_id":"4","last_reported":1728115867,"current_range_meters":21600,"station_id":"ce4bgjp2rcd13ifvqbh0","pricing_plan_id":"cebpf4jnsgd1na2vs0mg"},{"bike_id":"ffcb00f3-15af-4ad3-8fc9-e8853e92a8ec","system_id":"levelo_inurba_marseille","lat":43.27374,"lon":5.36257,"is_reserved":false,"is_disabled":false,"rental_uris":{"android":"levelo://app?vid=ffcb00f3-15af-4ad3-8fc9-e8853e92a8ec","ios":"levelo://app?vid=ffcb00f3-15af-4ad3-8fc9-e8853e92a8ec"},"vehicle_type_id":"4","last_reported":1728115867,"current_range_meters":33600,"station_id":"ce4bhbh2rcd13ifvqeo0","pricing_plan_id":"cebpf4jnsgd1na2vs0mg"},{"bike_id":"938a416d-0170-4740-a491-bcd2fd6a44f2","system_id":"levelo_inurba_marseille","lat":43.30884,"lon":5.37195,"is_reserved":false,"is_disabled":false,"rental_uris":{"android":"levelo://app?vid=938a416d-0170-4740-a491-bcd2fd6a44f2","ios":"levelo://app?vid=938a416d-0170-4740-a491-bcd2fd6a44f2"},"vehicle_type_id":"4","last_reported":1728115867,"current_range_meters":37600,"station_id":"ce4bguh2rcd13ifvqckg","pricing_plan_id":"cebpf4jnsgd1na2vs0mg"},{"bike_id":"e801b355-6ede-41f3-aa7c-a02edf287c12","system_id":"levelo_inurba_marseille","lat":43.23188,"lon":5.35549,"is_reserved":false,"is_disabled":false,"rental_uris":{"android":"levelo://app?vid=e801b355-6ede-41f3-aa7c-a02edf287c12","ios":"levelo://app?vid=e801b355-6ede-41f3-aa7c-a02edf287c12"},"vehicle_type_id":"4","last_reported":1728115867,"current_range_meters":18800,"station_id":"ce4bhu92rcd13ifvqi70","pricing_plan_id":"cebpf4jnsgd1na2vs0mg"},{"bike_id":"d0898481-3578-40b2-9add-8b714658de6d","system_id":"levelo_inurba_marseille","lat":43.28152,"lon":5.42639,"is_reserved":false,"is_disabled":false,"rental_uris":{"android":"levelo://app?vid=d0898481-3578-40b2-9add-8b714658de6d","ios":"levelo://app?vid=d0898481-3578-40b2-9add-8b714658de6d"},"vehicle_type_id":"4","last_reported":1728115867,"current_range_meters":25200,"station_id":"ce4bhnh2rcd13ifvqgug","pricing_plan_id":"cebpf4jnsgd1na2vs0mg"},{"bike_id":"318aba83-e897-4ae6-8e2c-6b9eb70ae3cb","system_id":"levelo_inurba_marseille","lat":43.28403,"lon":5.37522,"is_reserved":false,"is_disabled":false,"rental_uris":{"android":"levelo://app?vid=318aba83-e897-4ae6-8e2c-6b9eb70ae3cb","ios":"levelo://app?vid=318aba83-e897-4ae6-8e2c-6b9eb70ae3cb"},"vehicle_type_id":"4","last_reported":1728115867,"current_range_meters":32800,"station_id":"ce4bh412rcd13ifvqds0","pricing_plan_id":"cebpf4jnsgd1na2vs0mg"},{"bike_id":"4e0c83a2-b0c3-4894-8559-e509681998d3","system_id":"levelo_inurba_marseille","lat":43.31123,"lon":5.38332,"is_reserved":false,"is_disabled":false,"rental_uris":{"android":"levelo://app?vid=4e0c83a2-b0c3-4894-8559-e509681998d3","ios":"levelo://app?vid=4e0c83a2-b0c3-4894-8559-e509681998d3"},"vehicle_type_id":"4","last_reported":1728115867,"current_range_meters":17600,"station_id":"","pricing_plan_id":"cebpf4jnsgd1na2vs0mg"},{"bike_id":"c2f21302-0bda-4485-a5df-98d1ef9f2991","system_id":"levelo_inurba_marseille","lat":43.23947,"lon":5.38284,"is_reserved":false,"is_disabled":false,"rental_uris":{"android":"levelo://app?vid=c2f21302-0bda-4485-a5df-98d1ef9f2991","ios":"levelo://app?vid=c2f21302-0bda-4485-a5df-98d1ef9f2991"},"vehicle_type_id":"4","last_reported":1728115867,"current_range_meters":8400,"station_id":"","pricing_plan_id":"cebpf4jnsgd1na2vs0mg"},{"bike_id":"1d6013e4-413c-4c40-98d1-96d8a3000d8f","system_id":"levelo_inurba_marseille","lat":43.30795,"lon":5.43526,"is_reserved":false,"is_disabled":false,"rental_uris":{"android":"levelo://app?vid=1d6013e4-413c-4c40-98d1-96d8a3000d8f","ios":"levelo://app?vid=1d6013e4-413c-4c40-98d1-96d8a3000d8f"},"vehicle_type_id":"4","last_reported":1728115867,"current_range_meters":26800,"station_id":"ce4bhph2rcd13ifvqheg","pricing_plan_id":"cebpf4jnsgd1na2vs0mg"},{"bike_id":"6bd517d0-ea18-4be5-87e4-8d096a738ceb","system_id":"levelo_inurba_marseille","lat":43.26211,"lon":5.37439,"is_reserved":false,"is_disabled":false,"rental_uris":{"android":"levelo://app?vid=6bd517d0-ea18-4be5-87e4-8d096a738ceb","ios":"levelo://app?vid=6bd517d0-ea18-4be5-87e4-8d096a738ceb"},"vehicle_type_id":"4","last_reported":1728115867,"current_range_meters":33600,"station_id":"ce4bhgp2rcd13ifvqfc0","pricing_plan_id":"cebpf4jnsgd1na2vs0mg"},{"bike_id":"dcfa5e76-fc24-4843-a557-005994836fd9","system_id":"levelo_inurba_marseille","lat":43.26198,"lon":5.37932,"is_reserved":false,"is_disabled":false,"rental_uris":{"android":"levelo://app?vid=dcfa5e76-fc24-4843-a557-005994836fd9","ios":"levelo://app?vid=dcfa5e76-fc24-4843-a557-005994836fd9"},"vehicle_type_id":"4","last_reported":1728115867,"current_range_meters":6400,"station_id":"ce4bhjp2rcd13ifvqg90","pricing_plan_id":"cebpf4jnsgd1na2vs0mg"},{"bike_id":"745956e2-85a4-4e28-8a9f-f9dc9abb062e","system_id":"levelo_inurba_marseille","lat":43.28789,"lon":5.37363,"is_reserved":false,"is_disabled":false,"rental_uris":{"android":"levelo://app?vid=745956e2-85a4-4e28-8a9f-f9dc9abb062e","ios":"levelo://app?vid=745956e2-85a4-4e28-8a9f-f9dc9abb062e"},"vehicle_type_id":"4","last_reported":1728115867,"current_range_meters":33600,"station_id":"","pricing_plan_id":"cebpf4jnsgd1na2vs0mg"},{"bike_id":"d21030f2-a95e-4f76-8f77-1925196d2dbd","system_id":"levelo_inurba_marseille","lat":43.30531,"lon":5.36549,"is_reserved":false,"is_disabled":false,"rental_uris":{"android":"levelo://app?vid=d21030f2-a95e-4f76-8f77-1925196d2dbd","ios":"levelo://app?vid=d21030f2-a95e-4f76-8f77-1925196d2dbd"},"vehicle_type_id":"4","last_reported":1728115867,"current_range_meters":38800,"station_id":"ce4bgs12rcd13ifvqcag","pricing_plan_id":"cebpf4jnsgd1na2vs0mg"},{"bike_id":"aa6ea80f-d3cc-43e6-a69f-38faa11735ba","system_id":"levelo_inurba_marseille","lat":43.239643,"lon":5.366295,"is_reserved":false,"is_disabled":false,"rental_uris":{"android":"levelo://app?vid=aa6ea80f-d3cc-43e6-a69f-38faa11735ba","ios":"levelo://app?vid=aa6ea80f-d3cc-43e6-a69f-38faa11735ba"},"vehicle_type_id":"4","last_reported":1728115867,"current_range_meters":39200,"station_id":"ce4bhi12rcd13ifvqfp0","pricing_plan_id":"cebpf4jnsgd1na2vs0mg"},{"bike_id":"899c4652-15ec-473d-9bcd-ed25406d54af","system_id":"levelo_inurba_marseille","lat":43.311676,"lon":5.387172,"is_reserved":false,"is_disabled":false,"rental_uris":{"android":"levelo://app?vid=899c4652-15ec-473d-9bcd-ed25406d54af","ios":"levelo://app?vid=899c4652-15ec-473d-9bcd-ed25406d54af"},"vehicle_type_id":"4","last_reported":1728115867,"current_range_meters":25200,"station_id":"ce4bgv12rcd13ifvqcp0","pricing_plan_id":"cebpf4jnsgd1na2vs0mg"},{"bike_id":"2b656128-745d-4ab3-a53b-f9b69c649d8b","system_id":"levelo_inurba_marseille","lat":43.24548,"lon":5.39522,"is_reserved":false,"is_disabled":false,"rental_uris":{"android":"levelo://app?vid=2b656128-745d-4ab3-a53b-f9b69c649d8b","ios":"levelo://app?vid=2b656128-745d-4ab3-a53b-f9b69c649d8b"},"vehicle_type_id":"4","last_reported":1728115867,"current_range_meters":27600,"station_id":"ce4bhlp2rcd13ifvqgjg","pricing_plan_id":"cebpf4jnsgd1na2vs0mg"},{"bike_id":"19b731d8-bc9d-4c33-b05c-f40e7e66c7c3","system_id":"levelo_inurba_marseille","lat":43.30537,"lon":5.36578,"is_reserved":false,"is_disabled":false,"rental_uris":{"android":"levelo://app?vid=19b731d8-bc9d-4c33-b05c-f40e7e66c7c3","ios":"levelo://app?vid=19b731d8-bc9d-4c33-b05c-f40e7e66c7c3"},"vehicle_type_id":"4","last_reported":1728115867,"current_range_meters":31200,"station_id":"ce4bgs12rcd13ifvqcag","pricing_plan_id":"cebpf4jnsgd1na2vs0mg"},{"bike_id":"d054fab0-6a9a-4a13-8a72-8f548595cf1c","system_id":"levelo_inurba_marseille","lat":43.31529,"lon":5.3803,"is_reserved":false,"is_disabled":false,"rental_uris":{"android":"levelo://app?vid=d054fab0-6a9a-4a13-8a72-8f548595cf1c","ios":"levelo://app?vid=d054fab0-6a9a-4a13-8a72-8f548595cf1c"},"vehicle_type_id":"4","last_reported":1728115867,"current_range_meters":35600,"station_id":"ce4bhsp2rcd13ifvqi50","pricing_plan_id":"cebpf4jnsgd1na2vs0mg"},{"bike_id":"10bf43ce-7e3a-4fca-bf40-b7eb5fa4925c","system_id":"levelo_inurba_marseille","lat":43.33605,"lon":5.41024,"is_reserved":false,"is_disabled":false,"rental_uris":{"android":"levelo://app?vid=10bf43ce-7e3a-4fca-bf40-b7eb5fa4925c","ios":"levelo://app?vid=10bf43ce-7e3a-4fca-bf40-b7eb5fa4925c"},"vehicle_type_id":"4","last_reported":1728115867,"current_range_meters":38800,"station_id":"ce4bhqh2rcd13ifvqhmg","pricing_plan_id":"cebpf4jnsgd1na2vs0mg"},{"bike_id":"098d0aad-4a4f-4e55-9479-3a327c558183","system_id":"levelo_inurba_marseille","lat":43.28712,"lon":5.36078,"is_reserved":false,"is_disabled":false,"rental_uris":{"android":"levelo://app?vid=098d0aad-4a4f-4e55-9479-3a327c558183","ios":"levelo://app?vid=098d0aad-4a4f-4e55-9479-3a327c558183"},"vehicle_type_id":"4","last_reported":1728115867,"current_range_meters":8000,"station_id":"cki0cbj6b192h4jlfktg","pricing_plan_id":"cebpf4jnsgd1na2vs0mg"},{"bike_id":"8573e229-9d39-4cc7-a450-029e1afa4549","system_id":"levelo_inurba_marseille","lat":43.27991,"lon":5.41657,"is_reserved":false,"is_disabled":false,"rental_uris":{"android":"levelo://app?vid=8573e229-9d39-4cc7-a450-029e1afa4549","ios":"levelo://app?vid=8573e229-9d39-4cc7-a450-029e1afa4549"},"vehicle_type_id":"4","last_reported":1728115867,"current_range_meters":20400,"station_id":"ce4bho12rcd13ifvqh1g","pricing_plan_id":"cebpf4jnsgd1na2vs0mg"},{"bike_id":"5014b9c2-7b70-4583-80e6-dec9b68097e4","system_id":"levelo_inurba_marseille","lat":43.29512,"lon":5.37522,"is_reserved":false,"is_disabled":false,"rental_uris":{"android":"levelo://app?vid=5014b9c2-7b70-4583-80e6-dec9b68097e4","ios":"levelo://app?vid=5014b9c2-7b70-4583-80e6-dec9b68097e4"},"vehicle_type_id":"4","last_reported":1728115867,"current_range_meters":38000,"station_id":"ce4bgkp2rcd13ifvqbmg","pricing_plan_id":"cebpf4jnsgd1na2vs0mg"},{"bike_id":"cceeb04a-1145-485a-baa5-ba0b1daa02f8","system_id":"levelo_inurba_marseille","lat":43.29221,"lon":5.36067,"is_reserved":false,"is_disabled":false,"rental_uris":{"android":"levelo://app?vid=cceeb04a-1145-485a-baa5-ba0b1daa02f8","ios":"levelo://app?vid=cceeb04a-1145-485a-baa5-ba0b1daa02f8"},"vehicle_type_id":"4","last_reported":1728115867,"current_range_meters":38400,"station_id":"ce4bhbh2rcd13ifvqeqg","pricing_plan_id":"cebpf4jnsgd1na2vs0mg"},{"bike_id":"bdefae95-7cc5-4880-bfcb-b1af39586be0","system_id":"levelo_inurba_marseille","lat":43.32657,"lon":5.40993,"is_reserved":false,"is_disabled":false,"rental_uris":{"android":"levelo://app?vid=bdefae95-7cc5-4880-bfcb-b1af39586be0","ios":"levelo://app?vid=bdefae95-7cc5-4880-bfcb-b1af39586be0"},"vehicle_type_id":"4","last_reported":1728115867,"current_range_meters":38800,"station_id":"ce4bhpp2rcd13ifvqhgg","pricing_plan_id":"cebpf4jnsgd1na2vs0mg"},{"bike_id":"be195b95-6370-4856-a52e-29065e126bc6","system_id":"levelo_inurba_marseille","lat":43.28263,"lon":5.35068,"is_reserved":false,"is_disabled":false,"rental_uris":{"android":"levelo://app?vid=be195b95-6370-4856-a52e-29065e126bc6","ios":"levelo://app?vid=be195b95-6370-4856-a52e-29065e126bc6"},"vehicle_type_id":"4","last_reported":1728115867,"current_range_meters":27600,"station_id":"ce4bhbp2rcd13ifvqerg","pricing_plan_id":"cebpf4jnsgd1na2vs0mg"},{"bike_id":"ca451f3d-a4bf-4728-bfe3-1a817973b58d","system_id":"levelo_inurba_marseille","lat":43.30423,"lon":5.39757,"is_reserved":false,"is_disabled":false,"rental_uris":{"android":"levelo://app?vid=ca451f3d-a4bf-4728-bfe3-1a817973b58d","ios":"levelo://app?vid=ca451f3d-a4bf-4728-bfe3-1a817973b58d"},"vehicle_type_id":"4","last_reported":1728115867,"current_range_meters":38000,"station_id":"ce4bh092rcd13ifvqd20","pricing_plan_id":"cebpf4jnsgd1na2vs0mg"},{"bike_id":"30c79724-9ac0-4172-b4e0-be2c483f2f84","system_id":"levelo_inurba_marseille","lat":43.31691,"lon":5.4045,"is_reserved":false,"is_disabled":false,"rental_uris":{"android":"levelo://app?vid=30c79724-9ac0-4172-b4e0-be2c483f2f84","ios":"levelo://app?vid=30c79724-9ac0-4172-b4e0-be2c483f2f84"},"vehicle_type_id":"4","last_reported":1728115867,"current_range_meters":38800,"station_id":"ce4bh012rcd13ifvqd00","pricing_plan_id":"cebpf4jnsgd1na2vs0mg"},{"bike_id":"7a90b2f2-d00e-4c33-b981-befe4f1139d2","system_id":"levelo_inurba_marseille","lat":43.231887,"lon":5.399769,"is_reserved":false,"is_disabled":false,"rental_uris":{"android":"levelo://app?vid=7a90b2f2-d00e-4c33-b981-befe4f1139d2","ios":"levelo://app?vid=7a90b2f2-d00e-4c33-b981-befe4f1139d2"},"vehicle_type_id":"4","last_reported":1728115867,"current_range_meters":26800,"station_id":"ce4bhn12rcd13ifvqgqg","pricing_plan_id":"cebpf4jnsgd1na2vs0mg"},{"bike_id":"af92d777-761b-4c49-a2e0-a54aa5ba23c9","system_id":"levelo_inurba_marseille","lat":43.25857,"lon":5.39904,"is_reserved":false,"is_disabled":false,"rental_uris":{"android":"levelo://app?vid=af92d777-761b-4c49-a2e0-a54aa5ba23c9","ios":"levelo://app?vid=af92d777-761b-4c49-a2e0-a54aa5ba23c9"},"vehicle_type_id":"4","last_reported":1728115867,"current_range_meters":36000,"station_id":"ce4bhl92rcd13ifvqghg","pricing_plan_id":"cebpf4jnsgd1na2vs0mg"},{"bike_id":"1e9e701f-fb8e-430e-be7f-54907f1b9076","system_id":"levelo_inurba_marseille","lat":43.33017,"lon":5.39036,"is_reserved":false,"is_disabled":false,"rental_uris":{"android":"levelo://app?vid=1e9e701f-fb8e-430e-be7f-54907f1b9076","ios":"levelo://app?vid=1e9e701f-fb8e-430e-be7f-54907f1b9076"},"vehicle_type_id":"4","last_reported":1728115867,"current_range_meters":19200,"station_id":"ce4bhr92rcd13ifvqhrg","pricing_plan_id":"cebpf4jnsgd1na2vs0mg"},{"bike_id":"26f290bb-1447-4f43-ab6d-1590e2a06a4b","system_id":"levelo_inurba_marseille","lat":43.31456,"lon":5.37378,"is_reserved":false,"is_disabled":false,"rental_uris":{"android":"levelo://app?vid=26f290bb-1447-4f43-ab6d-1590e2a06a4b","ios":"levelo://app?vid=26f290bb-1447-4f43-ab6d-1590e2a06a4b"},"vehicle_type_id":"4","last_reported":1728115867,"current_range_meters":34800,"station_id":"ce4bgt12rcd13ifvqcd0","pricing_plan_id":"cebpf4jnsgd1na2vs0mg"},{"bike_id":"849ccab1-17bb-4827-97ef-565c9b4344fb","system_id":"levelo_inurba_marseille","lat":43.34141,"lon":5.40896,"is_reserved":false,"is_disabled":false,"rental_uris":{"android":"levelo://app?vid=849ccab1-17bb-4827-97ef-565c9b4344fb","ios":"levelo://app?vid=849ccab1-17bb-4827-97ef-565c9b4344fb"},"vehicle_type_id":"4","last_reported":1728115867,"current_range_meters":38000,"station_id":"ce4bhqh2rcd13ifvqhlg","pricing_plan_id":"cebpf4jnsgd1na2vs0mg"},{"bike_id":"e0a07a08-8ace-4a01-b000-9c812c1d132e","system_id":"levelo_inurba_marseille","lat":43.31537,"lon":5.380314,"is_reserved":false,"is_disabled":false,"rental_uris":{"android":"levelo://app?vid=e0a07a08-8ace-4a01-b000-9c812c1d132e","ios":"levelo://app?vid=e0a07a08-8ace-4a01-b000-9c812c1d132e"},"vehicle_type_id":"4","last_reported":1728115867,"current_range_meters":4800,"station_id":"ce4bhsp2rcd13ifvqi50","pricing_plan_id":"cebpf4jnsgd1na2vs0mg"},