{"last_updated":1758996737,"ttl":60,"version":"2.2","data":{"bikes":[{"bike_id":"003515e8-8117-44bb-979d-5f47e8d50fda","system_id":"levelo_inurba_marseille","lat":43.3062,"lon":5.37572,"is_reserved":false,"is_disabled":false,"rental_uris":{"android":"levelo://app?vid=003515e8-8117-44bb-979d-5f47e8d50fda","ios":"levelo://app?vid=003515e8-8117-44bb-979d-5f47e8d50fda"},"vehicle_type_id":"4","last_reported":1758996738,"current_range_meters":2800,"station_id":"","pricing_plan_id":"cebpf4jnsgd1na2vs0mg"},{"bike_id":"11b478d1-d4f5-4d47-853e-a6fa986d337e","system_id":"levelo_inurba_marseille","lat":43.295769,"lon":5.375096,"is_reserved":false,"is_disabled":false,"rental_uris":{"android":"levelo://app?vid=11b478d1-d4f5-4d47-853e-a6fa986d337e","ios":"levelo://app?vid=11b478d1-d4f5-4d47-853e-a6fa986d337e"},"vehicle_type_id":"4","last_reported":1758996738,"current_range_meters":2800,"station_id":"ce4bgh92rcd13ifvqb50","pricing_plan_id":"cebpf4jnsgd1na2vs0mg"},{"bike_id":"ba9c1604-0eb4-4dd2-9871-b32d4f618301","system_id":"levelo_inurba_marseille","lat":43.29794,"lon":5.38111,"is_reserved":false,"is_disabled":false,"rental_uris":{"android":"levelo://app?vid=ba9c1604-0eb4-4dd2-9871-b32d4f618301","ios":"levelo://app?vid=ba9c1604-0eb4-4dd2-9871-b32d4f618301"},"vehicle_type_id":"4","last_reported":1758996738,"current_range_meters":2800,"station_id":"ce4bgip2rcd13ifvqbb0","pricing_plan_id":"cebpf4jnsgd1na2vs0mg"},{"bike_id":"575503f8-03e1-4a70-ab48-16033d25627d","system_id":"levelo_inurba_marseille","lat":43.29263,"lon":5.38428,"is_reserved":false,"is_disabled":false,"rental_uris":{"android":"levelo://app?vid=575503f8-03e1-4a70-ab48-16033d25627d","ios":"levelo://app?vid=575503f8-03e1-4a70-ab48-16033d25627d"},"vehicle_type_id":"4","last_reported":1758996738,"current_range_meters":2800,"station_id":"ce4bh692rcd13ifvqea0","pricing_plan_id":"cebpf4jnsgd1na2vs0mg"},{"bike_id":"9bba2970-4c7d-4862-8b95-7fd9349febba","system_id":"levelo_inurba_marseille","lat":43.29912,"lon":5.43635,"is_reserved":false,"is_disabled":false,"rental_uris":{"android":"levelo://app?vid=9bba2970-4c7d-4862-8b95-7fd9349febba","ios":"levelo://app?vid=9bba2970-4c7d-4862-8b95-7fd9349febba"},"vehicle_type_id":"4","last_reported":1758996738,"current_range_meters":2800,"station_id":"ce4bhpp2rcd13ifvqhfg","pricing_plan_id":"cebpf4jnsgd1na2vs0mg"},{"bike_id":"5e9f57e7-4b24-4133-a91f-2a95134765c6","system_id":"levelo_inurba_marseille","lat":43.2656,"lon":5.37286,"is_reserved":false,"is_disabled":true,"rental_uris":{"android":"levelo://app?vid=5e9f57e7-4b24-4133-a91f-2a95134765c6","ios":"levelo://app?vid=5e9f57e7-4b24-4133-a91f-2a95134765c6"},"vehicle_type_id":"4","last_reported":1758996738,"current_range_meters":2800,"station_id":"ce4bhg12rcd13ifvqf70","pricing_plan_id":"cebpf4jnsgd1na2vs0mg"},{"bike_id":"bcd9b5f9-88af-4d5d-a6e1-830221505eff","system_id":"levelo_inurba_marseille","lat":43.29036,"lon":5.399683,"is_reserved":false,"is_disabled":false,"rental_uris":{"android":"levelo://app?vid=bcd9b5f9-88af-4d5d-a6e1-830221505eff","ios":"levelo://app?vid=bcd9b5f9-88af-4d5d-a6e1-830221505eff"},"vehicle_type_id":"4","last_reported":1758996738,"current_range_meters":2800,"station_id":"ce4bh392rcd13ifvqdm0","pricing_plan_id":"cebpf4jnsgd1na2vs0mg"},{"bike_id":"34635201-b1fc-4ac1-a79d-1fcd1ff042a5","system_id":"levelo_inurba_marseille","lat":43.30239,"lon":5.40072,"is_reserved":false,"is_disabled":false,"rental_uris":{"android":"levelo://app?vid=34635201-b1fc-4ac1-a79d-1fcd1ff042a5","ios":"levelo://app?vid=34635201-b1fc-4ac1-a79d-1fcd1ff042a5"},"vehicle_type_id":"4","last_reported":1758996738,"current_range_meters":2800,"station_id":"ce4bgvh2rcd13ifvqcs0","pricing_plan_id":"cebpf4jnsgd1na2vs0mg"},{"bike_id":"112bac73-deb4-4cb2-a337-4be74b428f51","system_id":"levelo_inurba_marseille","lat":43.28703,"lon":5.37391,"is_reserved":false,"is_disabled":false,"rental_uris":{"android":"levelo://app?vid=112bac73-deb4-4cb2-a337-4be74b428f51","ios":"levelo://app?vid=112bac73-deb4-4cb2-a337-4be74b428f51"},"vehicle_type_id":"4","last_reported":1758996738,"current_range_meters":3200,"station_id":"ce4bh3p2rcd13ifvqdq0","pricing_plan_id":"cebpf4jnsgd1na2vs0mg"},{"bike_id":"7a5b3afe-a2f0-4ae1-ad42-b83c4b3f9e09","system_id":"levelo_inurba_marseille","lat":43.29305,"lon":5.37454,"is_reserved":false,"is_disabled":false,"rental_uris":{"android":"levelo://app?vid=7a5b3afe-a2f0-4ae1-ad42-b83c4b3f9e09","ios":"levelo://app?vid=7a5b3afe-a2f0-4ae1-ad42-b83c4b3f9e09"},"vehicle_type_id":"4","last_reported":1758996738,"current_range_meters":3200,"station_id":"ce4bgi12rcd13ifvqb70","pricing_plan_id":"cebpf4jnsgd1na2vs0mg"},{"bike_id":"a3536d3f-af27-4043-b52f-4e9c13e94413","system_id":"levelo_inurba_marseille","lat":43.290345,"lon":5.386452,"is_reserved":false,"is_disabled":false,"rental_uris":{"android":"levelo://app?vid=a3536d3f-af27-4043-b52f-4e9c13e94413","ios":"levelo://app?vid=a3536d3f-af27-4043-b52f-4e9c13e94413"},"vehicle_type_id":"4","last_reported":1758996738,"current_range_meters":3200,"station_id":"ce4bh4p2rcd13ifvqe0g","pricing_plan_id":"cebpf4jnsgd1na2vs0mg"},{"bike_id":"2c76a910-ddc9-4367-b142-68ad40ddbf52","system_id":"levelo_inurba_marseille","lat":43.24811,"lon":5.3746,"is_reserved":false,"is_disabled":false,"rental_uris":{"android":"levelo://app?vid=2c76a910-ddc9-4367-b142-68ad40ddbf52","ios":"levelo://app?vid=2c76a910-ddc9-4367-b142-68ad40ddbf52"},"vehicle_type_id":"4","last_reported":1758996738,"current_range_meters":3200,"station_id":"ce4bhgh2rcd13ifvqfb0","pricing_plan_id":"cebpf4jnsgd1na2vs0mg"},{"bike_id":"29cbd19b-2b77-4c9e-b34e-fe1411d6afea","system_id":"levelo_inurba_marseille","lat":43.28936,"lon":5.38394,"is_reserved":false,"is_disabled":false,"rental_uris":{"android":"levelo://app?vid=29cbd19b-2b77-4c9e-b34e-fe1411d6afea","ios":"levelo://app?vid=29cbd19b-2b77-4c9e-b34e-fe1411d6afea"},"vehicle_type_id":"4","last_reported":1758996738,"current_range_meters":2800,"station_id":"ce4bh612rcd13ifvqe6g","pricing_plan_id":"cebpf4jnsgd1na2vs0mg"},{"bike_id":"d51dad0f-99ce-4c12-a50d-cc36f70f200b","system_id":"levelo_inurba_marseille","lat":43.31489,"lon":5.37309,"is_reserved":false,"is_disabled":false,"rental_uris":{"android":"levelo://app?vid=d51dad0f-99ce-4c12-a50d-cc36f70f200b","ios":"levelo://app?vid=d51dad0f-99ce-4c12-a50d-cc36f70f200b"},"vehicle_type_id":"4","last_reported":1758996738,"current_range_meters":3200,"station_id":"ce4bgt12rcd13ifvqcd0","pricing_plan_id":"cebpf4jnsgd1na2vs0mg"},{"bike_id":"685b86d7-8436-425f-90f1-f8e4c65c32a7","system_id":"levelo_inurba_marseille","lat":43.28452,"lon":5.35894,"is_reserved":false,"is_disabled":false,"rental_uris":{"android":"levelo://app?vid=685b86d7-8436-425f-90f1-f8e4c65c32a7","ios":"levelo://app?vid=685b86d7-8436-425f-90f1-f8e4c65c32a7"},"vehicle_type_id":"4","last_reported":1758996738,"current_range_meters":4000,"station_id":"ce4bhah2rcd13ifvqei0","pricing_plan_id":"cebpf4jnsgd1na2vs0mg"},{"bike_id":"2d1cb569-e643-4b6b-8020-31a1a8df5602","system_id":"levelo_inurba_marseille","lat":43.29316,"lon":5.37174,"is_reserved":false,"is_disabled":false,"rental_uris":{"android":"levelo://app?vid=2d1cb569-e643-4b6b-8020-31a1a8df5602","ios":"levelo://app?vid=2d1cb569-e643-4b6b-8020-31a1a8df5602"},"vehicle_type_id":"4","last_reported":1758996738,"current_range_meters":3200,"station_id":"ce4bgh92rcd13ifvqb40","pricing_plan_id":"cebpf4jnsgd1na2vs0mg"},{"bike_id":"4ba50a3a-fc6a-4f64-8eda-b56fd4dfebe4","system_id":"levelo_inurba_marseille","lat":43.29533,"lon":5.37507,"is_reserved":false,"is_disabled":false,"rental_uris":{"android":"levelo://app?vid=4ba50a3a-fc6a-4f64-8eda-b56fd4dfebe4","ios":"levelo://app?vid=4ba50a3a-fc6a-4f64-8eda-b56fd4dfebe4"},"vehicle_type_id":"4","last_reported":1758996738,"current_range_meters":3200,"station_id":"ce4bgkp2rcd13ifvqbmg","pricing_plan_id":"cebpf4jnsgd1na2vs0mg"},{"bike_id":"f897d300-643c-4c7a-951b-f56d70ef23ca","system_id":"levelo_inurba_marseille","lat":43.30315,"lon":5.3911,"is_reserved":false,"is_disabled":false,"rental_uris":{"android":"levelo://app?vid=f897d300-643c-4c7a-951b-f56d70ef23ca","ios":"levelo://app?vid=f897d300-643c-4c7a-951b-f56d70ef23ca"},"vehicle_type_id":"4","last_reported":1758996738,"current_range_meters":3600,"station_id":"","pricing_plan_id":"cebpf4jnsgd1na2vs0mg"},{"bike_id":"531b94db-068c-462d-9f47-dbec4c3c6be3","system_id":"levelo_inurba_marseille","lat":43.28416,"lon":5.37517,"is_reserved":false,"is_disabled":false,"rental_uris":{"android":"levelo://app?vid=531b94db-068c-462d-9f47-dbec4c3c6be3","ios":"levelo://app?vid=531b94db-068c-462d-9f47-dbec4c3c6be3"},"vehicle_type_id":"4","last_reported":1758996738,"current_range_meters":3600,"station_id":"ce4bh412rcd13ifvqds0","pricing_plan_id":"cebpf4jnsgd1na2vs0mg"},{"bike_id":"153b2109-ac0c-4a72-b855-66f27c126818","system_id":"levelo_inurba_marseille","lat":43.248015,"lon":5.374565,"is_reserved":false,"is_disabled":false,"rental_uris":{"android":"levelo://app?vid=153b2109-ac0c-4a72-b855-66f27c126818","ios":"levelo://app?vid=153b2109-ac0c-4a72-b855-66f27c126818"},"vehicle_type_id":"4","last_reported":1758996738,"current_range_meters":3600,"station_id":"ce4bhgh2rcd13ifvqfb0","pricing_plan_id":"cebpf4jnsgd1na2vs0mg"},{"bike_id":"a0b45e31-054c-4b27-819d-dd6ddf99569b","system_id":"levelo_inurba_marseille","lat":43.31338,"lon":5.397,"is_reserved":false,"is_disabled":false,"rental_uris":{"android":"levelo://app?vid=a0b45e31-054c-4b27-819d-dd6ddf99569b","ios":"levelo://app?vid=a0b45e31-054c-4b27-819d-dd6ddf99569b"},"vehicle_type_id":"4","last_reported":1758996738,"current_range_meters":4000,"station_id":"ce4bgvp2rcd13ifvqcu0","pricing_plan_id":"cebpf4jnsgd1na2vs0mg"},{"bike_id":"53f1f5c2-baf6-4f74-9c4c-3f4e8feff464","system_id":"levelo_inurba_marseille","lat":43.27369,"lon":5.36263,"is_reserved":false,"is_disabled":false,"rental_uris":{"android":"levelo://app?vid=53f1f5c2-baf6-4f74-9c4c-3f4e8feff464","ios":"levelo://app?vid=53f1f5c2-baf6-4f74-9c4c-3f4e8feff464"},"vehicle_type_id":"4","last_reported":1758996738,"current_range_meters":4000,"station_id":"ce4bhbh2rcd13ifvqeo0","pricing_plan_id":"cebpf4jnsgd1na2vs0mg"},{"bike_id":"70576f55-1fd1-4836-a37c-36cce9f4423d","system_id":"levelo_inurba_marseille","lat":43.29527,"lon":5.38552,"is_reserved":false,"is_disabled":false,"rental_uris":{"android":"levelo://app?vid=70576f55-1fd1-4836-a37c-36cce9f4423d","ios":"levelo://app?vid=70576f55-1fd1-4836-a37c-36cce9f4423d"},"vehicle_type_id":"4","last_reported":1758996738,"current_range_meters":4000,"station_id":"ce4bgih2rcd13ifvqba0","pricing_plan_id":"cebpf4jnsgd1na2vs0mg"},{"bike_id":"79e8f9e9-90b0-4ee6-9159-71fcf94aa398","system_id":"levelo_inurba_marseille","lat":43.26813,"lon":5.40275,"is_reserved":false,"is_disabled":false,"rental_uris":{"android":"levelo://app?vid=79e8f9e9-90b0-4ee6-9159-71fcf94aa398","ios":"levelo://app?vid=79e8f9e9-90b0-4ee6-9159-71fcf94aa398"},"vehicle_type_id":"4","last_reported":1758996738,"current_range_meters":4000,"station_id":"ce501612rcd8frsf0b60","pricing_plan_id":"cebpf4jnsgd1na2vs0mg"},{"bike_id":"9a819dc8-447d-4df7-8b5f-0b18332a26a7","system_id":"levelo_inurba_marseille","lat":43.32972,"lon":5.37482,"is_reserved":false,"is_disabled":false,"rental_uris":{"android":"levelo://app?vid=9a819dc8-447d-4df7-8b5f-0b18332a26a7","ios":"levelo://app?vid=9a819dc8-447d-4df7-8b5f-0b18332a26a7"},"vehicle_type_id":"4","last_reported":1758996738,"current_range_meters":4000,"station_id":"","pricing_plan_id":"cebpf4jnsgd1na2vs0mg"},{"bike_id":"29e4780e-66dd-4124-a3b1-21d046fc1bf4","system_id":"levelo_inurba_marseille","lat":43.292688,"lon":5.384371,"is_reserved":false,"is_disabled":false,"rental_uris":{"android":"levelo://app?vid=29e4780e-66dd-4124-a3b1-21d046fc1bf4","ios":"levelo://app?vid=29e4780e-66dd-4124-a3b1-21d046fc1bf4"},"vehicle_type_id":"4","last_reported":1758996738,"current_range_meters":4400,"station_id":"ce4bh692rcd13ifvqea0","pricing_plan_id":"cebpf4jnsgd1na2vs0mg"},{"bike_id":"775bced1-14bd-4178-b133-a2a6f3a8ca7f","system_id":"levelo_inurba_marseille","lat":43.28483,"lon":5.38553,"is_reserved":false,"is_disabled":false,"rental_uris":{"android":"levelo://app?vid=775bced1-14bd-4178-b133-a2a6f3a8ca7f","ios":"levelo://app?vid=775bced1-14bd-4178-b133-a2a6f3a8ca7f"},"vehicle_type_id":"4","last_reported":1758996738,"current_range_meters":4400,"station_id":"ce4bh8p2rcd13ifvqeb0","pricing_plan_id":"cebpf4jnsgd1na2vs0mg"},{"bike_id":"6eaf2628-8519-42f6-bad4-742d81647dab","system_id":"levelo_inurba_marseille","lat":43.30545,"lon":5.39348,"is_reserved":false,"is_disabled":false,"rental_uris":{"android":"levelo://app?vid=6eaf2628-8519-42f6-bad4-742d81647dab","ios":"levelo://app?vid=6eaf2628-8519-42f6-bad4-742d81647dab"},"vehicle_type_id":"4","last_reported":1758996738,"current_range_meters":4400,"station_id":"ce4bh0p2rcd13ifvqd80","pricing_plan_id":"cebpf4jnsgd1na2vs0mg"},{"bike_id":"c7f6a08b-c655-4213-b2ba-7d02e7f382fe","system_id":"levelo_inurba_marseille","lat":43.27988,"lon":5.39483,"is_reserved":false,"is_disabled":false,"rental_uris":{"android":"levelo://app?vid=c7f6a08b-c655-4213-b2ba-7d02e7f382fe","ios":"levelo://app?vid=c7f6a08b-c655-4213-b2ba-7d02e7f382fe"},"vehicle_type_id":"4","last_reported":1758996738,"current_range_meters":4400,"station_id":"","pricing_plan_id":"cebpf4jnsgd1na2vs0mg"},{"bike_id":"5ee1ec79-b704-4b49-a3b4-0228871b0c9a","system_id":"levelo_inurba_marseille","lat":43.28458,"lon":5.35892,"is_reserved":false,"is_disabled":false,"rental_uris":{"android":"levelo://app?vid=5ee1ec79-b704-4b49-a3b4-0228871b0c9a","ios":"levelo://app?vid=5ee1ec79-b704-4b49-a3b4-0228871b0c9a"},"vehicle_type_id":"4","last_reported":1758996738,"current_range_meters":4400,"station_id":"ce4bhah2rcd13ifvqei0","pricing_plan_id":"cebpf4jnsgd1na2vs0mg"},{"bike_id":"0d4641b0-0626-43a7-b2ed-e4dfa05cc6bf","system_id":"levelo_inurba_marseille","lat":43.29813,"lon":5.38099,"is_reserved":false,"is_disabled":false,"rental_uris":{"android":"levelo://app?vid=0d4641b0-0626-43a7-b2ed-e4dfa05cc6bf","ios":"levelo://app?vid=0d4641b0-0626-43a7-b2ed-e4dfa05cc6bf"},"vehicle_type_id":"4","last_reported":1758996738,"current_range_meters":4800,"station_id":"ce4bgip2rcd13ifvqbb0","pricing_plan_id":"cebpf4jnsgd1na2vs0mg"},{"bike_id":"182e51aa-6d09-47c4-b8cf-fd77957630fd","system_id":"levelo_inurba_marseille","lat":43.26557,"lon":5.37285,"is_reserved":false,"is_disabled":false,"rental_uris":{"android":"levelo://app?vid=182e51aa-6d09-47c4-b8cf-fd77957630fd","ios":"levelo://app?vid=182e51aa-6d09-47c4-b8cf-fd77957630fd"},"vehicle_type_id":"4","last_reported":1758996738,"current_range_meters":4800,"station_id":"ce4bhg12rcd13ifvqf70","pricing_plan_id":"cebpf4jnsgd1na2vs0mg"},{"bike_id":"e863eb13-a40f-409e-ae03-80c63350785a","system_id":"levelo_inurba_marseille","lat":43.26502,"lon":5.39537,"is_reserved":false,"is_disabled":false,"rental_uris":{"android":"levelo://app?vid=e863eb13-a40f-409e-ae03-80c63350785a","ios":"levelo://app?vid=e863eb13-a40f-409e-ae03-80c63350785a"},"vehicle_type_id":"4","last_reported":1758996738,"current_range_meters":4800,"station_id":"ce4bhi12rcd13ifvqfq0","pricing_plan_id":"cebpf4jnsgd1na2vs0mg"},{"bike_id":"a1fde04e-63cf-43ae-80e2-17f5a0010ef0","system_id":"levelo_inurba_marseille","lat":43.31164,"lon":5.38721,"is_reserved":false,"is_disabled":false,"rental_uris":{"android":"levelo://app?vid=a1fde04e-63cf-43ae-80e2-17f5a0010ef0","ios":"levelo://app?vid=a1fde04e-63cf-43ae-80e2-17f5a0010ef0"},"vehicle_type_id":"4","last_reported":1758996738,"current_range_meters":4800,"station_id":"ce4bgv12rcd13ifvqcp0","pricing_plan_id":"cebpf4jnsgd1na2vs0mg"},{"bike_id":"497e1b1d-57fd-41af-8eea-234ce96aa30d","system_id":"levelo_inurba_marseille","lat":43.299186,"lon":5.365411,"is_reserved":false,"is_disabled":false,"rental_uris":{"android":"levelo://app?vid=497e1b1d-57fd-41af-8eea-234ce96aa30d","ios":"levelo://app?vid=497e1b1d-57fd-41af-8eea-234ce96aa30d"},"vehicle_type_id":"4","last_reported":1758996738,"current_range_meters":4800,"station_id":"ce4bgm92rcd13ifvqbr0","pricing_plan_id":"cebpf4jnsgd1na2vs0mg"},{"bike_id":"28d8918b-837f-4618-8a2f-756c2b2b4c2b","system_id":"levelo_inurba_marseille","lat":43.29694,"lon":5.36597,"is_reserved":false,"is_disabled":false,"rental_uris":{"android":"levelo://app?vid=28d8918b-837f-4618-8a2f-756c2b2b4c2b","ios":"levelo://app?vid=28d8918b-837f-4618-8a2f-756c2b2b4c2b"},"vehicle_type_id":"4","last_reported":1758996738,"current_range_meters":4800,"station_id":"ce4bgn12rcd13ifvqbt0","pricing_plan_id":"cebpf4jnsgd1na2vs0mg"},{"bike_id":"f96c2cc4-0b1f-4923-bfa9-c4e202a5fcad","system_id":"levelo_inurba_marseille","lat":43.32543,"lon":5.36274,"is_reserved":false,"is_disabled":false,"rental_uris":{"android":"levelo://app?vid=f96c2cc4-0b1f-4923-bfa9-c4e202a5fcad","ios":"levelo://app?vid=f96c2cc4-0b1f-4923-bfa9-c4e202a5fcad"},"vehicle_type_id":"4","last_reported":1758996738,"current_range_meters":5600,"station_id":"","pricing_plan_id":"cebpf4jnsgd1na2vs0mg"},{"bike_id":"2d6f0cc0-92de-4e0c-92d7-d89174f17031","system_id":"levelo_inurba_marseille","lat":43.26031,"lon":5.37548,"is_reserved":false,"is_disabled":false,"rental_uris":{"android":"levelo://app?vid=2d6f0cc0-92de-4e0c-92d7-d89174f17031","ios":"levelo://app?vid=2d6f0cc0-92de-4e0c-92d7-d89174f17031"},"vehicle_type_id":"4","last_reported":1758996738,"current_range_meters":5600,"station_id":"ce4bhgh2rcd13ifvqfa0","pricing_plan_id":"cebpf4jnsgd1na2vs0mg"},{"bike_id":"25e7beb3-5483-403a-b42f-7df59a8dda3a","system_id":"levelo_inurba_marseille","lat":43.27437,"lon":5.39386,"is_reserved":false,"is_disabled":false,"rental_uris":{"android":"levelo://app?vid=25e7beb3-5483-403a-b42f-7df59a8dda3a","ios":"levelo://app?vid=25e7beb3-5483-403a-b42f-7df59a8dda3a"},"vehicle_type_id":"4","last_reported":1758996738,"current_range_meters":5600,"station_id":"ce4bhdp2rcd13ifvqf20","pricing_plan_id":"cebpf4jnsgd1na2vs0mg"},{"bike_id":"3ff019b4-f200-434f-bdbd-2de527b20d7e","system_id":"levelo_inurba_marseille","lat":43.21195,"lon":5.35079,"is_reserved":false,"is_disabled":false,"rental_uris":{"android":"levelo://app?vid=3ff019b4-f200-434f-bdbd-2de527b20d7e","ios":"levelo://app?vid=3ff019b4-f200-434f-bdbd-2de527b20d7e"},"vehicle_type_id":"4","last_reported":1758996738,"current_range_meters":5600,"station_id":"st_cvj6sg6p6f1abm77japg","pricing_plan_id":"cebpf4jnsgd1na2vs0mg"},{"bike_id":"041cd397-24ab-4e04-af23-07b961e161f4","system_id":"levelo_inurba_marseille","lat":43.337444,"lon":5.374475,"is_reserved":false,"is_disabled":false,"rental_uris":{"android":"levelo://app?vid=041cd397-24ab-4e04-af23-07b961e161f4","ios":"levelo://app?vid=041cd397-24ab-4e04-af23-07b961e161f4"},"vehicle_type_id":"4","last_reported":1758996738,"current_range_meters":5600,"station_id":"","pricing_plan_id":"cebpf4jnsgd1na2vs0mg"},{"bike_id":"a462cce2-9104-46a9-a432-ba7c3c35eb6a","system_id":"levelo_inurba_marseille","lat":43.27063,"lon":5.40299,"is_reserved":false,"is_disabled":true,"rental_uris":{"android":"levelo://app?vid=a462cce2-9104-46a9-a432-ba7c3c35eb6a","ios":"levelo://app?vid=a462cce2-9104-46a9-a432-ba7c3c35eb6a"},"vehicle_type_id":"4","last_reported":1758996738,"current_range_meters":5600,"station_id":"ce4bhk92rcd13ifvqgc0","pricing_plan_id":"cebpf4jnsgd1na2vs0mg"},{"bike_id":"85a96c70-9fc6-4698-bb7a-8aae96de7260","system_id":"levelo_inurba_marseille","lat":43.31273,"lon":5.38702,"is_reserved":false,"is_disabled":false,"rental_uris":{"android":"levelo://app?vid=85a96c70-9fc6-4698-bb7a-8aae96de7260","ios":"levelo://app?vid=85a96c70-9fc6-4698-bb7a-8aae96de7260"},"vehicle_type_id":"4","last_reported":1758996738,"current_range_meters":6000,"station_id":"","pricing_plan_id":"cebpf4jnsgd1na2vs0mg"},{"bike_id":"9b2a4166-4bf6-4740-b018-82f7f5312a3d","system_id":"levelo_inurba_marseille","lat":43.26935,"lon":5.40272,"is_reserved":false,"is_disabled":true,"rental_uris":{"android":"levelo://app?vid=9b2a4166-4bf6-4740-b018-82f7f5312a3d","ios":"levelo://app?vid=9b2a4166-4bf6-4740-b018-82f7f5312a3d"},"vehicle_type_id":"4","last_reported":1758996738,"current_range_meters":6000,"station_id":"cjm6bp8fraef2m0cb0m0","pricing_plan_id":"cebpf4jnsgd1na2vs0mg"},{"bike_id":"6da3b581-015a-4cfb-9997-032be796abac","system_id":"levelo_inurba_marseille","lat":43.3266,"lon":5.40993,"is_reserved":false,"is_disabled":false,"rental_uris":{"android":"levelo://app?vid=6da3b581-015a-4cfb-9997-032be796abac","ios":"levelo://app?vid=6da3b581-015a-4cfb-9997-032be796abac"},"vehicle_type_id":"4","last_reported":1758996738,"current_range_meters":6000,"station_id":"ce4bhpp2rcd13ifvqhgg","pricing_plan_id":"cebpf4jnsgd1na2vs0mg"},{"bike_id":"b294f2c5-3941-4cb9-b1b9-10067d9e2b2d","system_id":"levelo_inurba_marseille","lat":43.30781,"lon":5.37669,"is_reserved":false,"is_disabled":false,"rental_uris":{"android":"levelo://app?vid=b294f2c5-3941-4cb9-b1b9-10067d9e2b2d","ios":"levelo://app?vid=b294f2c5-3941-4cb9-b1b9-10067d9e2b2d"},"vehicle_type_id":"4","last_reported":1758996738,"current_range_meters":5600,"station_id":"ce4bgv92rcd13ifvqcq0","pricing_plan_id":"cebpf4jnsgd1na2vs0mg"},{"bike_id":"69a56246-2281-4457-91e8-8fe23a573bf1","system_id":"levelo_inurba_marseille","lat":43.21754,"lon":5.34603,"is_reserved":false,"is_disabled":true,"rental_uris":{"android":"levelo://app?vid=69a56246-2281-4457-91e8-8fe23a573bf1","ios":"levelo://app?vid=69a56246-2281-4457-91e8-8fe23a573bf1"},"vehicle_type_id":"4","last_reported":1758996738,"current_range_meters":6000,"station_id":"","pricing_plan_id":"cebpf4jnsgd1na2vs0mg"},{"bike_id":"7d1e0ba0-9d8a-4add-acd7-6031173d9874","system_id":"levelo_inurba_marseille","lat":43.28216,"lon":5.39042,"is_reserved":false,"is_disabled":false,"rental_uris":{"android":"levelo://app?vid=7d1e0ba0-9d8a-4add-acd7-6031173d9874","ios":"levelo://app?vid=7d1e0ba0-9d8a-4add-acd7-6031173d9874"},"vehicle_type_id":"4","last_reported":1758996738,"current_range_meters":6000,"station_id":"ce4bhn92rcd13ifvqgsg","pricing_plan_id":"cebpf4jnsgd1na2vs0mg"},{"bike_id":"0dd5a024-3d7f-4504-a788-92379893c3c1","system_id":"levelo_inurba_marseille","lat":43.29089,"lon":5.38151,"is_reserved":false,"is_disabled":false,"rental_uris":{"android":"levelo://app?vid=0dd5a024-3d7f-4504-a788-92379893c3c1","ios":"levelo://app?vid=0dd5a024-3d7f-4504-a788-92379893c3c1"},"vehicle_type_id":"4","last_reported":1758996738,"current_range_meters":5600,"station_id":"ce4bh512rcd13ifvqe2g","pricing_plan_id":"cebpf4jnsgd1na2vs0mg"},{"bike_id":"2ae8a1ee-babb-4949-b819-c0cb8db54aa5","system_id":"levelo_inurba_marseille","lat":43.311557,"lon":5.387333,"is_reserved":false,"is_disabled":false,"rental_uris":{"android":"levelo://app?vid=2ae8a1ee-babb-4949-b819-c0cb8db54aa5","ios":"levelo://app?vid=2ae8a1ee-babb-4949-b819-c0cb8db54aa5"},"vehicle_type_id":"4","last_reported":1758996738,"current_range_meters":6000,"station_id":"ce4bgv12rcd13ifvqcp0","pricing_plan_id":"cebpf4jnsgd1na2vs0mg"},{"bike_id":"103e280f-3894-431f-9898-9b8dff9afd92","system_id":"levelo_inurba_marseille","lat":43.31718,"lon":5.43708,"is_reserved":false,"is_disabled":false,"rental_uris":{"android":"levelo://app?vid=103e280f-3894-431f-9898-9b8dff9afd92","ios":"levelo://app?vid=103e280f-3894-431f-9898-9b8dff9afd92"},"vehicle_type_id":"4","last_reported":1758996738,"current_range_meters":6000,"station_id":"ce4bhp92rcd13ifvqhcg","pricing_plan_id":"cebpf4jnsgd1na2vs0mg"},{"bike_id":"174dfb4f-f618-4c2f-be1c-ae0d6b405e94","system_id":"levelo_inurba_marseille","lat":43.29707,"lon":5.38242,"is_reserved":false,"is_disabled":false,"rental_uris":{"android":"levelo://app?vid=174dfb4f-f618-4c2f-be1c-ae0d6b405e94","ios":"levelo://app?vid=174dfb4f-f618-4c2f-be1c-ae0d6b405e94"},"vehicle_type_id":"4","last_reported":1758996738,"current_range_meters":6400,"station_id":"","pricing_plan_id":"cebpf4jnsgd1na2vs0mg"},{"bike_id":"4ea066be-d5c0-4685-b39a-612a810bdfbb","system_id":"levelo_inurba_marseille","lat":43.3377,"lon":5.37473,"is_reserved":false,"is_disabled":true,"rental_uris":{"android":"levelo://app?vid=4ea066be-d5c0-4685-b39a-612a810bdfbb","ios":"levelo://app?vid=4ea066be-d5c0-4685-b39a-612a810bdfbb"},"vehicle_type_id":"4","last_reported":1758996738,"current_range_meters":6400,"station_id":"","pricing_plan_id":"cebpf4jnsgd1na2vs0mg"},{"bike_id":"460c8e11-18a1-4f7a-a94b-ada61e99b686","system_id":"levelo_inurba_marseille","lat":43.2795,"lon":5.41051,"is_reserved":false,"is_disabled":false,"rental_uris":{"android":"levelo://app?vid=460c8e11-18a1-4f7a-a94b-ada61e99b686","ios":"levelo://app?vid=460c8e11-18a1-4f7a-a94b-ada61e99b686"},"vehicle_type_id":"4","last_reported":1758996738,"current_range_meters":6400,"station_id":"ce4bhnp2rcd13ifvqh0g","pricing_plan_id":"cebpf4jnsgd1na2vs0mg"},{"bike_id":"208b031d-5740-4b9f-8360-cc61fc9fe149","system_id":"levelo_inurba_marseille","lat":43.27374,"lon":5.3626,"is_reserved":false,"is_disabled":false,"rental_uris":{"android":"levelo://app?vid=208b031d-5740-4b9f-8360-cc61fc9fe149","ios":"levelo://app?vid=208b031d-5740-4b9f-8360-cc61fc9fe149"},"vehicle_type_id":"4","last_reported":1758996738,"current_range_meters":6400,"station_id":"ce4bhbh2rcd13ifvqeo0","pricing_plan_id":"cebpf4jnsgd1na2vs0mg"},{"bike_id":"1e635f0f-1082-4e6f-a8bd-d1ebf3cff5ac","system_id":"levelo_inurba_marseille","lat":43.26829,"lon":5.40214,"is_reserved":false,"is_disabled":false,"rental_uris":{"android":"levelo://app?vid=1e635f0f-1082-4e6f-a8bd-d1ebf3cff5ac","ios":"levelo://app?vid=1e635f0f-1082-4e6f-a8bd-d1ebf3cff5ac"},"vehicle_type_id":"4","last_reported":1758996738,"current_range_meters":6400,"station_id":"","pricing_plan_id":"cebpf4jnsgd1na2vs0mg"},{"bike_id":"5d44fa6c-f803-452a-a893-9efc0b28cd38","system_id":"levelo_inurba_marseille","lat":43.2993,"lon":5.36558,"is_reserved":false,"is_disabled":false,"rental_uris":{"android":"levelo://app?vid=5d44fa6c-f803-452a-a893-9efc0b28cd38","ios":"levelo://app?vid=5d44fa6c-f803-452a-a893-9efc0b28cd38"},"vehicle_type_id":"4","last_reported":1758996738,"current_range_meters":6400,"station_id":"ce4bgm92rcd13ifvqbr0","pricing_plan_id":"cebpf4jnsgd1na2vs0mg"},{"bike_id":"0842e86d-c05f-411a-8631-813294884f4c","system_id":"levelo_inurba_marseille","lat":43.301353,"lon":5.38773,"is_reserved":false,"is_disabled":false,"rental_uris":{"android":"levelo://app?vid=0842e86d-c05f-411a-8631-813294884f4c","ios":"levelo://app?vid=0842e86d-c05f-411a-8631-813294884f4c"},"vehicle_type_id":"4","last_reported":1758996738,"current_range_meters":6800,"station_id":"ce4bghh2rcd13ifvqb60","pricing_plan_id":"cebpf4jnsgd1na2vs0mg"},{"bike_id":"9500f504-80e3-4bf1-9b36-81bfd43abf02","system_id":"levelo_inurba_marseille","lat":43.31349,"lon":5.38499,"is_reserved":false,"is_disabled":false,"rental_uris":{"android":"levelo://app?vid=9500f504-80e3-4bf1-9b36-81bfd43abf02","ios":"levelo://app?vid=9500f504-80e3-4bf1-9b36-81bfd43abf02"},"vehicle_type_id":"4","last_reported":1758996738,"current_range_meters":6800,"station_id":"ce4bgt92rcd13ifvqcf0","pricing_plan_id":"cebpf4jnsgd1na2vs0mg"},{"bike_id":"c2207658-b923-4a8f-a2fa-281c17511191","system_id":"levelo_inurba_marseille","lat":43.32366,"lon":5.36599,"is_reserved":false,"is_disabled":false,"rental_uris":{"android":"levelo://app?vid=c2207658-b923-4a8f-a2fa-281c17511191","ios":"levelo://app?vid=c2207658-b923-4a8f-a2fa-281c17511191"},"vehicle_type_id":"4","last_reported":1758996738,"current_range_meters":6800,"station_id":"","pricing_plan_id":"cebpf4jnsgd1na2vs0mg"},{"bike_id":"af5b7fdf-6b71-4411-b11f-406ea44ecb80","system_id":"levelo_inurba_marseille","lat":43.21756,"lon":5.34617,"is_reserved":false,"is_disabled":true,"rental_uris":{"android":"levelo://app?vid=af5b7fdf-6b71-4411-b11f-406ea44ecb80","ios":"levelo://app?vid=af5b7fdf-6b71-4411-b11f-406ea44ecb80"},"vehicle_type_id":"4","last_reported":1758996738,"current_range_meters":6800,"station_id":"st_cvj6r9ubvosntc0bgbag","pricing_plan_id":"cebpf4jnsgd1na2vs0mg"},{"bike_id":"52ad2dc1-393f-4951-a5e5-d2e78bb57aff","system_id":"levelo_inurba_marseille","lat":43.2998,"lon":5.37177,"is_reserved":false,"is_disabled":false,"rental_uris":{"android":"levelo://app?vid=52ad2dc1-393f-4951-a5e5-d2e78bb57aff","ios":"levelo://app?vid=52ad2dc1-393f-4951-a5e5-d2e78bb57aff"},"vehicle_type_id":"4","last_reported":1758996738,"current_range_meters":6800,"station_id":"ce4bgr92rcd13ifvqc7g","pricing_plan_id":"cebpf4jnsgd1na2vs0mg"},{"bike_id":"5365e873-98ea-45e2-9689-7e119051f22e","system_id":"levelo_inurba_marseille","lat":43.33014,"lon":5.3902,"is_reserved":false,"is_disabled":false,"rental_uris":{"android":"levelo://app?vid=5365e873-98ea-45e2-9689-7e119051f22e","ios":"levelo://app?vid=5365e873-98ea-45e2-9689-7e119051f22e"},"vehicle_type_id":"4","last_reported":1758996738,"current_range_meters":7200,"station_id":"ce4bhr92rcd13ifvqhrg","pricing_plan_id":"cebpf4jnsgd1na2vs0mg"},{"bike_id":"d2b4ac83-91e6-46fb-9929-4b55b0b2c4f5","system_id":"levelo_inurba_marseille","lat":43.25732,"lon":5.41129,"is_reserved":false,"is_disabled":false,"rental_uris":{"android":"levelo://app?vid=d2b4ac83-91e6-46fb-9929-4b55b0b2c4f5","ios":"levelo://app?vid=d2b4ac83-91e6-46fb-9929-4b55b0b2c4f5"},"vehicle_type_id":"4","last_reported":1758996738,"current_range_meters":7200,"station_id":"ce4bhkp2rcd13ifvqgd0","pricing_plan_id":"cebpf4jnsgd1na2vs0mg"},{"bike_id":"cd5332c8-b7a4-42d8-bbee-d21346d785c0","system_id":"levelo_inurba_marseille","lat":43.32431,"lon":5.36555,"is_reserved":false,"is_disabled":false,"rental_uris":{"android":"levelo://app?vid=cd5332c8-b7a4-42d8-bbee-d21346d785c0","ios":"levelo://app?vid=cd5332c8-b7a4-42d8-bbee-d21346d785c0"},"vehicle_type_id":"4","last_reported":1758996738,"current_range_meters":8000,"station_id":"","pricing_plan_id":"cebpf4jnsgd1na2vs0mg"},{"bike_id":"dc68e827-766c-4ce6-8c7a-8b24959843ac","system_id":"levelo_inurba_marseille","lat":43.28463,"lon":5.35885,"is_reserved":false,"is_disabled":false,"rental_uris":{"android":"levelo://app?vid=dc68e827-766c-4ce6-8c7a-8b24959843ac","ios":"levelo://app?vid=dc68e827-766c-4ce6-8c7a-8b24959843ac"},"vehicle_type_id":"4","last_reported":1758996738,"current_range_meters":8000,"station_id":"ce4bhah2rcd13ifvqei0","pricing_plan_id":"cebpf4jnsgd1na2vs0mg"},{"bike_id":"a639c491-c436-478a-8d5d-bd2c30b918ff","system_id":"levelo_inurba_marseille","lat":43.29619,"lon":5.37166,"is_reserved":false,"is_disabled":false,"rental_uris":{"android":"levelo://app?vid=a639c491-c436-478a-8d5d-bd2c30b918ff","ios":"levelo://app?vid=a639c491-c436-478a-8d5d-bd2c30b918ff"},"vehicle_type_id":"4","last_reported":1758996738,"current_range_meters":8000,"station_id":"","pricing_plan_id":"cebpf4jnsgd1na2vs0mg"},{"bike_id":"233b5cb3-90df-4fae-950b-a5ab639c87bd","system_id":"levelo_inurba_marseille","lat":43.313353,"lon":5.396917,"is_reserved":false,"is_disabled":false,"rental_uris":{"android":"levelo://app?vid=233b5cb3-90df-4fae-950b-a5ab639c87bd","ios":"levelo://app?vid=233b5cb3-90df-4fae-950b-a5ab639c87bd"},"vehicle_type_id":"4","last_reported":1758996738,"current_range_meters":8400,"station_id":"ce4bgvp2rcd13ifvqcu0","pricing_plan_id":"cebpf4jnsgd1na2vs0mg"},{"bike_id":"e8d7a538-138e-45dc-91f9-0f4717e317ea","system_id":"levelo_inurba_marseille","lat":43.25824,"lon":5.39439,"is_reserved":false,"is_disabled":false,"rental_uris":{"android":"levelo://app?vid=e8d7a538-138e-45dc-91f9-0f4717e317ea","ios":"levelo://app?vid=e8d7a538-138e-45dc-91f9-0f4717e317ea"},"vehicle_type_id":"4","last_reported":1758996738,"current_range_meters":8000,"station_id":"ce4bhip2rcd13ifvqft0","pricing_plan_id":"cebpf4jnsgd1na2vs0mg"},{"bike_id":"d93b0e9b-7d61-42a6-8472-39d87b2b319f","system_id":"levelo_inurba_marseille","lat":43.25342,"lon":5.42168,"is_reserved":false,"is_disabled":false,"rental_uris":{"android":"levelo://app?vid=d93b0e9b-7d61-42a6-8472-39d87b2b319f","ios":"levelo://app?vid=d93b0e9b-7d61-42a6-8472-39d87b2b319f"},"vehicle_type_id":"4","last_reported":1758996738,"current_range_meters":8400,"station_id":"st_d2m65c5bi1j21697t3ng","pricing_plan_id":"cebpf4jnsgd1na2vs0mg"},{"bike_id":"c5d46608-098f-40f5-b332-6e31ea5ec6fc","system_id":"levelo_inurba_marseille","lat":43.2997,"lon":5.38492,"is_reserved":false,"is_disabled":false,"rental_uris":{"android":"levelo://app?vid=c5d46608-098f-40f5-b332-6e31ea5ec6fc","ios":"levelo://app?vid=c5d46608-098f-40f5-b332-6e31ea5ec6fc"},"vehicle_type_id":"4","last_reported":1758996738,"current_range_meters":8400,"station_id":"ce4bgj92rcd13ifvqbd0","pricing_plan_id":"cebpf4jnsgd1na2vs0mg"},{"bike_id":"ea5f812c-2e1c-48d1-970e-7d818324fae9","system_id":"levelo_inurba_marseille","lat":43.29933,"lon":5.36562,"is_reserved":false,"is_disabled":false,"rental_uris":{"android":"levelo://app?vid=ea5f812c-2e1c-48d1-970e-7d818324fae9","ios":"levelo://app?vid=ea5f812c-2e1c-48d1-970e-7d818324fae9"},"vehicle_type_id":"4","last_reported":1758996738,"current_range_meters":8400,"station_id":"ce4bgm92rcd13ifvqbr0","pricing_plan_id":"cebpf4jnsgd1na2vs0mg"},{"bike_id":"2907de3a-cdb7-4c49-945b-9d4546080cdd","system_id":"levelo_inurba_marseille","lat":43.29463,"lon":5.36239,"is_reserved":false,"is_disabled":false,"rental_uris":{"android":"levelo://app?vid=2907de3a-cdb7-4c49-945b-9d4546080cdd","ios":"levelo://app?vid=2907de3a-cdb7-4c49-945b-9d4546080cdd"},"vehicle_type_id":"4","last_reported":1758996738,"current_range_meters":8400,"station_id":"","pricing_plan_id":"cebpf4jnsgd1na2vs0mg"},{"bike_id":"08fe2b08-b3fa-43f8-ae73-04061f76318d","system_id":"levelo_inurba_marseille","lat":43.305552,"lon":5.365395,"is_reserved":false,"is_disabled":false,"rental_uris":{"android":"levelo://app?vid=08fe2b08-b3fa-43f8-ae73-04061f76318d","ios":"levelo://app?vid=08fe2b08-b3fa-43f8-ae73-04061f76318d"},"vehicle_type_id":"4","last_reported":1758996738,"current_range_meters":8400,"station_id":"","pricing_plan_id":"cebpf4jnsgd1na2vs0mg"},{"bike_id":"f8100ca8-7913-4ae1-9445-226771cc6957","system_id":"levelo_inurba_marseille","lat":43.30433,"lon":5.39756,"is_reserved":false,"is_disabled":false,"rental_uris":{"android":"levelo://app?vid=f8100ca8-7913-4ae1-9445-226771cc6957","ios":"levelo://app?vid=f8100ca8-7913-4ae1-9445-226771cc6957"},"vehicle_type_id":"4","last_reported":1758996738,"current_range_meters":12800,"station_id":"ce4bh092rcd13ifvqd20","pricing_plan_id":"cebpf4jnsgd1na2vs0mg"},{"bike_id":"1dc4cbf0-9b85-441f-9ac2-6f3b9dbe0ba5","system_id":"levelo_inurba_marseille","lat":43.29289,"lon":5.37458,"is_reserved":false,"is_disabled":false,"rental_uris":{"android":"levelo://app?vid=1dc4cbf0-9b85-441f-9ac2-6f3b9dbe0ba5","ios":"levelo://app?vid=1dc4cbf0-9b85-441f-9ac2-6f3b9dbe0ba5"},"vehicle_type_id":"4","last_reported":1758996738,"current_range_meters":8400,"station_id":"ce4bgi12rcd13ifvqb70","pricing_plan_id":"cebpf4jnsgd1na2vs0mg"},{"bike_id":"b6ec9acd-1619-4378-a9f4-622a89d9b5ff","system_id":"levelo_inurba_marseille","lat":43.31274,"lon":5.40179,"is_reserved":false,"is_disabled":false,"rental_uris":{"android":"levelo://app?vid=b6ec9acd-1619-4378-a9f4-622a89d9b5ff","ios":"levelo://app?vid=b6ec9acd-1619-4378-a9f4-622a89d9b5ff"},"vehicle_type_id":"4","last_reported":1758996738,"current_range_meters":8000,"station_id":"ce4bh092rcd13ifvqd30","pricing_plan_id":"cebpf4jnsgd1na2vs0mg"},{"bike_id":"907ed216-30a4-406f-ae2e-0197aba3ed23","system_id":"levelo_inurba_marseille","lat":43.21193,"lon":5.35074,"is_reserved":false,"is_disabled":false,"rental_uris":{"android":"levelo://app?vid=907ed216-30a4-406f-ae2e-0197aba3ed23","ios":"levelo://app?vid=907ed216-30a4-406f-ae2e-0197aba3ed23"},"vehicle_type_id":"4","last_reported":1758996738,"current_range_meters":8400,"station_id":"st_cvj6sg6p6f1abm77japg","pricing_plan_id":"cebpf4jnsgd1na2vs0mg"},{"bike_id":"964bedd1-406d-495d-bdb5-37f29101b699","system_id":"levelo_inurba_marseille","lat":43.31326,"lon":5.39707,"is_reserved":false,"is_disabled":false,"rental_uris":{"android":"levelo://app?vid=964bedd1-406d-495d-bdb5-37f29101b699","ios":"levelo://app?vid=964bedd1-406d-495d-bdb5-37f29101b699"},"vehicle_type_id":"4","last_reported":1758996738,"current_range_meters":8400,"station_id":"ce4bgvp2rcd13ifvqcu0","pricing_plan_id":"cebpf4jnsgd1na2vs0mg"},{"bike_id":"f67dc007-705a-4ccb-a8a4-7cd6e24ee524","system_id":"levelo_inurba_marseille","lat":43.31482,"lon":5.37311,"is_reserved":false,"is_disabled":false,"rental_uris":{"android":"levelo://app?vid=f67dc007-705a-4ccb-a8a4-7cd6e24ee524","ios":"levelo://app?vid=f67dc007-705a-4ccb-a8a4-7cd6e24ee524"},"vehicle_type_id":"4","last_reported":1758996738,"current_range_meters":8400,"station_id":"ce4bgt12rcd13ifvqcd0","pricing_plan_id":"cebpf4jnsgd1na2vs0mg"},{"bike_id":"24813b13-052d-44b7-9ae5-768a8a1937d6","system_id":"levelo_inurba_marseille","lat":43.31086,"lon":5.4243,"is_reserved":false,"is_disabled":false,"rental_uris":{"android":"levelo://app?vid=24813b13-052d-44b7-9ae5-768a8a1937d6","ios":"levelo://app?vid=24813b13-052d-44b7-9ae5-768a8a1937d6"},"vehicle_type_id":"4","last_reported":1758996738,"current_range_meters":8400,"station_id":"ce4bhp92rcd13ifvqhag","pricing_plan_id":"cebpf4jnsgd1na2vs0mg"},{"bike_id":"443f7dc3-4c35-4975-a8f4-b6a0ee79874b","system_id":"levelo_inurba_marseille","lat":43.292425,"lon":5.372148,"is_reserved":false,"is_disabled":false,"rental_uris":{"android":"levelo://app?vid=443f7dc3-4c35-4975-a8f4-b6a0ee79874b","ios":"levelo://app?vid=443f7dc3-4c35-4975-a8f4-b6a0ee79874b"},"vehicle_type_id":"4","last_reported":1758996738,"current_range_meters":8800,"station_id":"","pricing_plan_id":"cebpf4jnsgd1na2vs0mg"},{"bike_id":"8e385f69-4a89-4bf0-86a4-c68fbcf7e1cb","system_id":"levelo_inurba_marseille","lat":43.225324,"lon":5.348325,"is_reserved":false,"is_disabled":false,"rental_uris":{"android":"levelo://app?vid=8e385f69-4a89-4bf0-86a4-c68fbcf7e1cb","ios":"levelo://app?vid=8e385f69-4a89-4bf0-86a4-c68fbcf7e1cb"},"vehicle_type_id":"4","last_reported":1758996738,"current_range_meters":8800,"station_id":"","pricing_plan_id":"cebpf4jnsgd1na2vs0mg"},{"bike_id":"712dddc4-ae95-4aaf-b4c6-16c01a2ce26f","system_id":"levelo_inurba_marseille","lat":43.30032,"lon":5.3808,"is_reserved":false,"is_disabled":false,"rental_uris":{"android":"levelo://app?vid=712dddc4-ae95-4aaf-b4c6-16c01a2ce26f","ios":"levelo://app?vid=712dddc4-ae95-4aaf-b4c6-16c01a2ce26f"},"vehicle_type_id":"4","last_reported":1758996738,"current_range_meters":8800,"station_id":"","pricing_plan_id":"cebpf4jnsgd1na2vs0mg"},{"bike_id":"b76a561b-ce9d-4b7e-a569-b6ac85c0a286","system_id":"levelo_inurba_marseille","lat":43.30145,"lon":5.37419,"is_reserved":false,"is_disabled":false,"rental_uris":{"android":"levelo://app?vid=b76a561b-ce9d-4b7e-a569-b6ac85c0a286","ios":"levelo://app?vid=b76a561b-ce9d-4b7e-a569-b6ac85c0a286"},"vehicle_type_id":"4","last_reported":1758996738,"current_range_meters":8400,"station_id":"ce4bgs92rcd13ifvqcc0","pricing_plan_id":"cebpf4jnsgd1na2vs0mg"},{"bike_id":"c3fe7d43-61d7-483c-9ade-516d24794cef","system_id":"levelo_inurba_marseille","lat":43.29879,"lon":5.39767,"is_reserved":false,"is_disabled":false,"rental_uris":{"android":"levelo://app?vid=c3fe7d43-61d7-483c-9ade-516d24794cef","ios":"levelo://app?vid=c3fe7d43-61d7-483c-9ade-516d24794cef"},"vehicle_type_id":"4","last_reported":1758996738,"current_range_meters":9200,"station_id":"ce4bh0h2rcd13ifvqd50","pricing_plan_id":"cebpf4jnsgd1na2vs0mg"},{"bike_id":"10a5a69b-3a57-4a2a-98fc-04855dfc9131","system_id":"levelo_inurba_marseille","lat":43.31356,"lon":5.38495,"is_reserved":false,"is_disabled":false,"rental_uris":{"android":"levelo://app?vid=10a5a69b-3a57-4a2a-98fc-04855dfc9131","ios":"levelo://app?vid=10a5a69b-3a57-4a2a-98fc-04855dfc9131"},"vehicle_type_id":"4","last_reported":1758996738,"current_range_meters":9200,"station_id":"ce4bgt92rcd13ifvqcf0","pricing_plan_id":"cebpf4jnsgd1na2vs0mg"},{"bike_id":"d271ab45-d4ba-4722-b5ad-4cfb4a029ff5","system_id":"levelo_inurba_marseille","lat":43.28844,"lon":5.35813,"is_reserved":false,"is_disabled":false,"rental_uris":{"android":"levelo://app?vid=d271ab45-d4ba-4722-b5ad-4cfb4a029ff5","ios":"levelo://app?vid=d271ab45-d4ba-4722-b5ad-4cfb4a029ff5"},"vehicle_type_id":"4","last_reported":1758996738,"current_range_meters":9200,"station_id":"ce4bhb12rcd13ifvqem0","pricing_plan_id":"cebpf4jnsgd1na2vs0mg"},{"bike_id":"c82df9ff-20fd-4ad3-baeb-eab15da631ea","system_id":"levelo_inurba_marseille","lat":43.24426,"lon":5.38383,"is_reserved":false,"is_disabled":false,"rental_uris":{"android":"levelo://app?vid=c82df9ff-20fd-4ad3-baeb-eab15da631ea","ios":"levelo://app?vid=c82df9ff-20fd-4ad3-baeb-eab15da631ea"},"vehicle_type_id":"4","last_reported":1758996738,"current_range_meters":9200,"station_id":"","pricing_plan_id":"cebpf4jnsgd1na2vs0mg"},{"bike_id":"3d59c215-bad3-4ee9-9018-c6d78d34b2b9","system_id":"levelo_inurba_marseille","lat":43.299683,"lon":5.384957,"is_reserved":false,"is_disabled":false,"rental_uris":{"android":"levelo://app?vid=3d59c215-bad3-4ee9-9018-c6d78d34b2b9","ios":"levelo://app?vid=3d59c215-bad3-4ee9-9018-c6d78d34b2b9"},"vehicle_type_id":"4","last_reported":1758996738,"current_range_meters":9200,"station_id":"ce4bgj92rcd13ifvqbd0","pricing_plan_id":"cebpf4jnsgd1na2vs0mg"},{"bike_id":"ee96a502-9b76-492e-840a-498b02aefe72","system_id":"levelo_inurba_marseille","lat":43.32361,"lon":5.39199,"is_reserved":false,"is_disabled":false,"rental_uris":{"android":"levelo://app?vid=ee96a502-9b76-492e-840a-498b02aefe72","ios":"levelo://app?vid=ee96a502-9b76-492e-840a-498b02aefe72"},"vehicle_type_id":"4","last_reported":1758996738,"current_range_meters":9200,"station_id":"","pricing_plan_id":"cebpf4jnsgd1na2vs0mg"},{"bike_id":"0d84f38d-4f5a-4047-8f8c-53ad4d495fa4","system_id":"levelo_inurba_marseille","lat":43.30335,"lon":5.40434,"is_reserved":false,"is_disabled":false,"rental_uris":{"android":"levelo://app?vid=0d84f38d-4f5a-4047-8f8c-53ad4d495fa4","ios":"levelo://app?vid=0d84f38d-4f5a-4047-8f8c-53ad4d495fa4"},"vehicle_type_id":"4","last_reported":1758996738,"current_range_meters":9200,"station_id":"ce4bh012rcd13ifvqd10","pricing_plan_id":"cebpf4jnsgd1na2vs0mg"},{"bike_id":"fee74e98-eb52-4f66-a612-109c75f34aa6","system_id":"levelo_inurba_marseille","lat":43.296216,"lon":5.379492,"is_reserved":false,"is_disabled":false,"rental_uris":{"android":"levelo://app?vid=fee74e98-eb52-4f66-a612-109c75f34aa6","ios":"levelo://app?vid=fee74e98-eb52-4f66-a612-109c75f34aa6"},"vehicle_type_id":"4","last_reported":1758996738,"current_range_meters":9200,"station_id":"","pricing_plan_id":"cebpf4jnsgd1na2vs0mg"},{"bike_id":"5d7ce420-c532-43ac-8d88-83de29d88254","system_id":"levelo_inurba_marseille","lat":43.243802,"lon":5.370657,"is_reserved":false,"is_disabled":false,"rental_uris":{"android":"levelo://app?vid=5d7ce420-c532-43ac-8d88-83de29d88254","ios":"levelo://app?vid=5d7ce420-c532-43ac-8d88-83de29d88254"},"vehicle_type_id":"4","last_reported":1758996738,"current_range_meters":9200,"station_id":"ce4bhhh2rcd13ifvqfk0","pricing_plan_id":"cebpf4jnsgd1na2vs0mg"},{"bike_id":"7b65e264-2dd9-4f1a-9195-0dbc1cf0a026","system_id":"levelo_inurba_marseille","lat":43.27999,"lon":5.4001,"is_reserved":false,"is_disabled":false,"rental_uris":{"android":"levelo://app?vid=7b65e264-2dd9-4f1a-9195-0dbc1cf0a026","ios":"levelo://app?vid=7b65e264-2dd9-4f1a-9195-0dbc1cf0a026"},"vehicle_type_id":"4","last_reported":1758996738,"current_range_meters":9200,"station_id":"ce4bho92rcd13ifvqh4g","pricing_plan_id":"cebpf4jnsgd1na2vs0mg"},{"bike_id":"d69b36a5-6a7a-4a8c-9203-c08c8fad5f64","system_id":"levelo_inurba_marseille","lat":43.28998,"lon":5.35618,"is_reserved":false,"is_disabled":false,"rental_uris":{"android":"levelo://app?vid=d69b36a5-6a7a-4a8c-9203-c08c8fad5f64","ios":"levelo://app?vid=d69b36a5-6a7a-4a8c-9203-c08c8fad5f64"},"vehicle_type_id":"4","last_reported":1758996738,"current_range_meters":9600,"station_id":"ce4bhb92rcd13ifvqen0","pricing_plan_id":"cebpf4jnsgd1na2vs0mg"},{"bike_id":"b5e3d95c-d6ab-47a1-a565-d021b45ce728","system_id":"levelo_inurba_marseille","lat":43.21747,"lon":5.34607,"is_reserved":false,"is_disabled":true,"rental_uris":{"android":"levelo://app?vid=b5e3d95c-d6ab-47a1-a565-d021b45ce728","ios":"levelo://app?vid=b5e3d95c-d6ab-47a1-a565-d021b45ce728"},"vehicle_type_id":"4","last_reported":1758996738,"current_range_meters":9600,"station_id":"st_cvj6r9ubvosntc0bgbag","pricing_plan_id":"cebpf4jnsgd1na2vs0mg"},{"bike_id":"6c00a6a0-3cf0-48a9-b218-0693fab11be9","system_id":"levelo_inurba_marseille","lat":43.30298,"lon":5.43528,"is_reserved":false,"is_disabled":false,"rental_uris":{"android":"levelo://app?vid=6c00a6a0-3cf0-48a9-b218-0693fab11be9","ios":"levelo://app?vid=6c00a6a0-3cf0-48a9-b218-0693fab11be9"},"vehicle_type_id":"4","last_reported":1758996738,"current_range_meters":9600,"station_id":"","pricing_plan_id":"cebpf4jnsgd1na2vs0mg"},{"bike_id":"fd4b5ad5-2581-44dd-90b2-f4a8fbdc2423","system_id":"levelo_inurba_marseille","lat":43.299011,"lon":5.364989,"is_reserved":false,"is_disabled":false,"rental_uris":{"android":"levelo://app?vid=fd4b5ad5-2581-44dd-90b2-f4a8fbdc2423","ios":"levelo://app?vid=fd4b5ad5-2581-44dd-90b2-f4a8fbdc2423"},"vehicle_type_id":"4","last_reported":1758996738,"current_range_meters":9600,"station_id":"","pricing_plan_id":"cebpf4jnsgd1na2vs0mg"},{"bike_id":"9743fd3d-b83a-49fe-b055-16ed840cdbf1","system_id":"levelo_inurba_marseille","lat":43.299411,"lon":5.385201,"is_reserved":false,"is_disabled":true,"rental_uris":{"android":"levelo://app?vid=9743fd3d-b83a-49fe-b055-16ed840cdbf1","ios":"levelo://app?vid=9743fd3d-b83a-49fe-b055-16ed840cdbf1"},"vehicle_type_id":"4","last_reported":1758996738,"current_range_meters":9600,"station_id":"","pricing_plan_id":"cebpf4jnsgd1na2vs0mg"},{"bike_id":"a04d6cc1-b549-4e71-89b8-f81d07472f58","system_id":"levelo_inurba_marseille","lat":43.26059,"lon":5.39399,"is_reserved":false,"is_disabled":false,"rental_uris":{"android":"levelo://app?vid=a04d6cc1-b549-4e71-89b8-f81d07472f58","ios":"levelo://app?vid=a04d6cc1-b549-4e71-89b8-f81d07472f58"},"vehicle_type_id":"4","last_reported":1758996738,"current_range_meters":12800,"station_id":"ce4bhh92rcd13ifvqfj0","pricing_plan_id":"cebpf4jnsgd1na2vs0mg"},{"bike_id":"a78302dc-aa43-437f-9030-51e4e7e137f4","system_id":"levelo_inurba_marseille","lat":43.21193,"lon":5.35076,"is_reserved":false,"is_disabled":false,"rental_uris":{"android":"levelo://app?vid=a78302dc-aa43-437f-9030-51e4e7e137f4","ios":"levelo://app?vid=a78302dc-aa43-437f-9030-51e4e7e137f4"},"vehicle_type_id":"4","last_reported":1758996738,"current_range_meters":10000,"station_id":"st_cvj6sg6p6f1abm77japg","pricing_plan_id":"cebpf4jnsgd1na2vs0mg"},{"bike_id":"d62e53cf-445e-4600-b52d-c766d02fc770","system_id":"levelo_inurba_marseille","lat":43.31322,"lon":5.39692,"is_reserved":false,"is_disabled":false,"rental_uris":{"android":"levelo://app?vid=d62e53cf-445e-4600-b52d-c766d02fc770","ios":"levelo://app?vid=d62e53cf-445e-4600-b52d-c766d02fc770"},"vehicle_type_id":"4","last_reported":1758996738,"current_range_meters":10000,"station_id":"ce4bgvp2rcd13ifvqcu0","pricing_plan_id":"cebpf4jnsgd1na2vs0mg"},{"bike_id":"eac1e9b5-6983-4487-93dc-184bea1a5dd4","system_id":"levelo_inurba_marseille","lat":43.301403,"lon":5.387752,"is_reserved":false,"is_disabled":false,"rental_uris":{"android":"levelo://app?vid=eac1e9b5-6983-4487-93dc-184bea1a5dd4","ios":"levelo://app?vid=eac1e9b5-6983-4487-93dc-184bea1a5dd4"},"vehicle_type_id":"4","last_reported":1758996738,"current_range_meters":10000,"station_id":"ce4bghh2rcd13ifvqb60","pricing_plan_id":"cebpf4jnsgd1na2vs0mg"},{"bike_id":"8360fe96-8a6b-4a67-9ba4-0ef948b002e1","system_id":"levelo_inurba_marseille","lat":43.25011,"lon":5.389307,"is_reserved":false,"is_disabled":true,"rental_uris":{"android":"levelo://app?vid=8360fe96-8a6b-4a67-9ba4-0ef948b002e1","ios":"levelo://app?vid=8360fe96-8a6b-4a67-9ba4-0ef948b002e1"},"vehicle_type_id":"4","last_reported":1758996738,"current_range_meters":10000,"station_id":"ce4bhgp2rcd13ifvqfd0","pricing_plan_id":"cebpf4jnsgd1na2vs0mg"},{"bike_id":"9bb4db31-0bf9-4171-bca1-76cb045f53a3","system_id":"levelo_inurba_marseille","lat":43.26924,"lon":5.389081,"is_reserved":false,"is_disabled":true,"rental_uris":{"android":"levelo://app?vid=9bb4db31-0bf9-4171-bca1-76cb045f53a3","ios":"levelo://app?vid=9bb4db31-0bf9-4171-bca1-76cb045f53a3"},"vehicle_type_id":"4","last_reported":1758996738,"current_range_meters":10000,"station_id":"ce4bhhh2rcd13ifvqfl0","pricing_plan_id":"cebpf4jnsgd1na2vs0mg"},{"bike_id":"a06078ea-56c1-4873-9016-4dd3adda4671","system_id":"levelo_inurba_marseille","lat":43.299061,"lon":5.381374,"is_reserved":false,"is_disabled":false,"rental_uris":{"android":"levelo://app?vid=a06078ea-56c1-4873-9016-4dd3adda4671","ios":"levelo://app?vid=a06078ea-56c1-4873-9016-4dd3adda4671"},"vehicle_type_id":"4","last_reported":1758996738,"current_range_meters":10000,"station_id":"ce4bgj12rcd13ifvqbc0","pricing_plan_id":"cebpf4jnsgd1na2vs0mg"},{"bike_id":"fa4a4cd1-e06f-4859-b153-b46b9bf68b0f","system_id":"levelo_inurba_marseille","lat":43.24814,"lon":5.37468,"is_reserved":false,"is_disabled":false,"rental_uris":{"android":"levelo://app?vid=fa4a4cd1-e06f-4859-b153-b46b9bf68b0f","ios":"levelo://app?vid=fa4a4cd1-e06f-4859-b153-b46b9bf68b0f"},"vehicle_type_id":"4","last_reported":1758996738,"current_range_meters":10000,"station_id":"ce4bhgh2rcd13ifvqfb0","pricing_plan_id":"cebpf4jnsgd1na2vs0mg"},{"bike_id":"dceac72c-77da-4726-8308-898d064a5176","system_id":"levelo_inurba_marseille","lat":43.31335,"lon":5.39707,"is_reserved":false,"is_disabled":false,"rental_uris":{"android":"levelo://app?vid=dceac72c-77da-4726-8308-898d064a5176","ios":"levelo://app?vid=dceac72c-77da-4726-8308-898d064a5176"},"vehicle_type_id":"4","last_reported":1758996738,"current_range_meters":10000,"station_id":"ce4bgvp2rcd13ifvqcu0","pricing_plan_id":"cebpf4jnsgd1na2vs0mg"},{"bike_id":"11ecce55-5e6c-46cc-aa92-38e3e67d9d67","system_id":"levelo_inurba_marseille","lat":43.32379,"lon":5.38887,"is_reserved":false,"is_disabled":false,"rental_uris":{"android":"levelo://app?vid=11ecce55-5e6c-46cc-aa92-38e3e67d9d67","ios":"levelo://app?vid=11ecce55-5e6c-46cc-aa92-38e3e67d9d67"},"vehicle_type_id":"4","last_reported":1758996738,"current_range_meters":10000,"station_id":"ce4bhqp2rcd13ifvqhog","pricing_plan_id":"cebpf4jnsgd1na2vs0mg"},{"bike_id":"ccea33ad-6ab7-4a34-96c5-31f7cdf54269","system_id":"levelo_inurba_marseille","lat":43.315325,"lon":5.367735,"is_reserved":false,"is_disabled":false,"rental_uris":{"android":"levelo://app?vid=ccea33ad-6ab7-4a34-96c5-31f7cdf54269","ios":"levelo://app?vid=ccea33ad-6ab7-4a34-96c5-31f7cdf54269"},"vehicle_type_id":"4","last_reported":1758996738,"current_range_meters":10000,"station_id":"ce4bhsh2rcd13ifvqi2g","pricing_plan_id":"cebpf4jnsgd1na2vs0mg"},{"bike_id":"362be2ac-586a-487d-b47c-ea83708ecbfe","system_id":"levelo_inurba_marseille","lat":43.30302,"lon":5.39216,"is_reserved":false,"is_disabled":false,"rental_uris":{"android":"levelo://app?vid=362be2ac-586a-487d-b47c-ea83708ecbfe","ios":"levelo://app?vid=362be2ac-586a-487d-b47c-ea83708ecbfe"},"vehicle_type_id":"4","last_reported":1758996738,"current_range_meters":10800,"station_id":"ce4bgkh2rcd13ifvqbk0","pricing_plan_id":"cebpf4jnsgd1na2vs0mg"},{"bike_id":"2413cd0f-6e21-4a59-acdf-464e8aebaede","system_id":"levelo_inurba_marseille","lat":43.28483,"lon":5.38557,"is_reserved":false,"is_disabled":false,"rental_uris":{"android":"levelo://app?vid=2413cd0f-6e21-4a59-acdf-464e8aebaede","ios":"levelo://app?vid=2413cd0f-6e21-4a59-acdf-464e8aebaede"},"vehicle_type_id":"4","last_reported":1758996738,"current_range_meters":10800,"station_id":"ce4bh8p2rcd13ifvqeb0","pricing_plan_id":"cebpf4jnsgd1na2vs0mg"},{"bike_id":"073f78a1-3b8d-430f-99c7-0721ef8a0770","system_id":"levelo_inurba_marseille","lat":43.28982,"lon":5.36592,"is_reserved":false,"is_disabled":false,"rental_uris":{"android":"levelo://app?vid=073f78a1-3b8d-430f-99c7-0721ef8a0770","ios":"levelo://app?vid=073f78a1-3b8d-430f-99c7-0721ef8a0770"},"vehicle_type_id":"4","last_reported":1758996738,"current_range_meters":4000,"station_id":"ce4bh9p2rcd13ifvqed0","pricing_plan_id":"cebpf4jnsgd1na2vs0mg"},{"bike_id":"6dedd7a2-561f-4220-bfdb-247dc32a3532","system_id":"levelo_inurba_marseille","lat":43.28,"lon":5.40003,"is_reserved":false,"is_disabled":false,"rental_uris":{"android":"levelo://app?vid=6dedd7a2-561f-4220-bfdb-247dc32a3532","ios":"levelo://app?vid=6dedd7a2-561f-4220-bfdb-247dc32a3532"},"vehicle_type_id":"4","last_reported":1758996738,"current_range_meters":10800,"station_id":"ce4bho92rcd13ifvqh4g","pricing_plan_id":"cebpf4jnsgd1na2vs0mg"},{"bike_id":"c5b1b546-686b-4350-9eec-2fd869408be1","system_id":"levelo_inurba_marseille","lat":43.27996,"lon":5.40014,"is_reserved":false,"is_disabled":false,"rental_uris":{"android":"levelo://app?vid=c5b1b546-686b-4350-9eec-2fd869408be1","ios":"levelo://app?vid=c5b1b546-686b-4350-9eec-2fd869408be1"},"vehicle_type_id":"4","last_reported":1758996738,"current_range_meters":10800,"station_id":"ce4bho92rcd13ifvqh4g","pricing_plan_id":"cebpf4jnsgd1na2vs0mg"},{"bike_id":"0b10856b-3dad-4052-bc3a-2c17e6f16e23","system_id":"levelo_inurba_marseille","lat":43.27555,"lon":5.38441,"is_reserved":false,"is_disabled":true,"rental_uris":{"android":"levelo://app?vid=0b10856b-3dad-4052-bc3a-2c17e6f16e23","ios":"levelo://app?vid=0b10856b-3dad-4052-bc3a-2c17e6f16e23"},"vehicle_type_id":"4","last_reported":1758996738,"current_range_meters":10800,"station_id":"ce4bhh92rcd13ifvqfi0","pricing_plan_id":"cebpf4jnsgd1na2vs0mg"},{"bike_id":"e114a3ae-0a89-4dac-83a7-a52236826763","system_id":"levelo_inurba_marseille","lat":43.21197,"lon":5.35077,"is_reserved":false,"is_disabled":false,"rental_uris":{"android":"levelo://app?vid=e114a3ae-0a89-4dac-83a7-a52236826763","ios":"levelo://app?vid=e114a3ae-0a89-4dac-83a7-a52236826763"},"vehicle_type_id":"4","last_reported":1758996738,"current_range_meters":10800,"station_id":"st_cvj6sg6p6f1abm77japg","pricing_plan_id":"cebpf4jnsgd1na2vs0mg"},{"bike_id":"63d52c35-c9c9-44eb-9780-1b2f9145123b","system_id":"levelo_inurba_marseille","lat":43.29627,"lon":5.377037,"is_reserved":false,"is_disabled":false,"rental_uris":{"android":"levelo://app?vid=63d52c35-c9c9-44eb-9780-1b2f9145123b","ios":"levelo://app?vid=63d52c35-c9c9-44eb-9780-1b2f9145123b"},"vehicle_type_id":"4","last_reported":1758996738,"current_range_meters":10800,"station_id":"","pricing_plan_id":"cebpf4jnsgd1na2vs0mg"},{"bike_id":"33554119-80b3-4662-b4f0-8974039be9c9","system_id":"levelo_inurba_marseille","lat":43.29564,"lon":5.37511,"is_reserved":false,"is_disabled":false,"rental_uris":{"android":"levelo://app?vid=33554119-80b3-4662-b4f0-8974039be9c9","ios":"levelo://app?vid=33554119-80b3-4662-b4f0-8974039be9c9"},"vehicle_type_id":"4","last_reported":1758996738,"current_range_meters":10800,"station_id":"ce4bgh92rcd13ifvqb50","pricing_plan_id":"cebpf4jnsgd1na2vs0mg"},{"bike_id":"89e82a5f-9f21-4700-833c-55689f65ef9a","system_id":"levelo_inurba_marseille","lat":43.2603,"lon":5.37551,"is_reserved":false,"is_disabled":false,"rental_uris":{"android":"levelo://app?vid=89e82a5f-9f21-4700-833c-55689f65ef9a","ios":"levelo://app?vid=89e82a5f-9f21-4700-833c-55689f65ef9a"},"vehicle_type_id":"4","last_reported":1758996738,"current_range_meters":10800,"station_id":"ce4bhgh2rcd13ifvqfa0","pricing_plan_id":"cebpf4jnsgd1na2vs0mg"},{"bike_id":"01bf55f2-4ac6-46f6-8504-3267bf31e1a6","system_id":"levelo_inurba_marseille","lat":43.2973,"lon":5.381787,"is_reserved":false,"is_disabled":false,"rental_uris":{"android":"levelo://app?vid=01bf55f2-4ac6-46f6-8504-3267bf31e1a6","ios":"levelo://app?vid=01bf55f2-4ac6-46f6-8504-3267bf31e1a6"},"vehicle_type_id":"4","last_reported":1758996738,"current_range_meters":10800,"station_id":"","pricing_plan_id":"cebpf4jnsgd1na2vs0mg"},{"bike_id":"a1e556f3-3bd6-4014-af84-e1920d481fad","system_id":"levelo_inurba_marseille","lat":43.31167,"lon":5.387206,"is_reserved":false,"is_disabled":false,"rental_uris":{"android":"levelo://app?vid=a1e556f3-3bd6-4014-af84-e1920d481fad","ios":"levelo://app?vid=a1e556f3-3bd6-4014-af84-e1920d481fad"},"vehicle_type_id":"4","last_reported":1758996738,"current_range_meters":10800,"station_id":"ce4bgv12rcd13ifvqcp0","pricing_plan_id":"cebpf4jnsgd1na2vs0mg"},{"bike_id":"703a37d3-b3f2-4b40-ab4a-ff6155a4fb32","system_id":"levelo_inurba_marseille","lat":43.29258,"lon":5.3844,"is_reserved":false,"is_disabled":false,"rental_uris":{"android":"levelo://app?vid=703a37d3-b3f2-4b40-ab4a-ff6155a4fb32","ios":"levelo://app?vid=703a37d3-b3f2-4b40-ab4a-ff6155a4fb32"},"vehicle_type_id":"4","last_reported":1758996738,"current_range_meters":10800,"station_id":"ce4bh692rcd13ifvqea0","pricing_plan_id":"cebpf4jnsgd1na2vs0mg"},{"bike_id":"a503d2f6-a935-463b-aded-2f85775e963e","system_id":"levelo_inurba_marseille","lat":43.28666,"lon":5.36356,"is_reserved":false,"is_disabled":false,"rental_uris":{"android":"levelo://app?vid=a503d2f6-a935-463b-aded-2f85775e963e","ios":"levelo://app?vid=a503d2f6-a935-463b-aded-2f85775e963e"},"vehicle_type_id":"4","last_reported":1758996738,"current_range_meters":11200,"station_id":"ce4bhah2rcd13ifvqej0","pricing_plan_id":"cebpf4jnsgd1na2vs0mg"},{"bike_id":"ca33125d-1c32-4ecd-86ab-97a516aea09f","system_id":"levelo_inurba_marseille","lat":43.31862,"lon":5.39059,"is_reserved":false,"is_disabled":false,"rental_uris":{"android":"levelo://app?vid=ca33125d-1c32-4ecd-86ab-97a516aea09f","ios":"levelo://app?vid=ca33125d-1c32-4ecd-86ab-97a516aea09f"},"vehicle_type_id":"4","last_reported":1758996738,"current_range_meters":11200,"station_id":"","pricing_plan_id":"cebpf4jnsgd1na2vs0mg"},{"bike_id":"3f51e03c-3abb-4dde-8cdd-da596aa3252f","system_id":"levelo_inurba_marseille","lat":43.27666,"lon":5.38907,"is_reserved":false,"is_disabled":true,"rental_uris":{"android":"levelo://app?vid=3f51e03c-3abb-4dde-8cdd-da596aa3252f","ios":"levelo://app?vid=3f51e03c-3abb-4dde-8cdd-da596aa3252f"},"vehicle_type_id":"4","last_reported":1758996738,"current_range_meters":11200,"station_id":"ce4bhi12rcd13ifvqfo0","pricing_plan_id":"cebpf4jnsgd1na2vs0mg"},{"bike_id":"fd7db3b2-bf6f-47a6-a193-d9e54fb8924d","system_id":"levelo_inurba_marseille","lat":43.29262,"lon":5.36599,"is_reserved":false,"is_disabled":false,"rental_uris":{"android":"levelo://app?vid=fd7db3b2-bf6f-47a6-a193-d9e54fb8924d","ios":"levelo://app?vid=fd7db3b2-bf6f-47a6-a193-d9e54fb8924d"},"vehicle_type_id":"4","last_reported":1758996738,"current_range_meters":11200,"station_id":"","pricing_plan_id":"cebpf4jnsgd1na2vs0mg"},{"bike_id":"db8098eb-61f8-4094-88f1-dc02a14320f7","system_id":"levelo_inurba_marseille","lat":43.24628,"lon":5.43145,"is_reserved":false,"is_disabled":false,"rental_uris":{"android":"levelo://app?vid=db8098eb-61f8-4094-88f1-dc02a14320f7","ios":"levelo://app?vid=db8098eb-61f8-4094-88f1-dc02a14320f7"},"vehicle_type_id":"4","last_reported":1758996738,"current_range_meters":11200,"station_id":"st_d2m6c4gdas8pm72e190g","pricing_plan_id":"cebpf4jnsgd1na2vs0mg"},{"bike_id":"16db3035-b531-41b0-b5bc-8566e13f774b","system_id":"levelo_inurba_marseille","lat":43.30133,"lon":5.38777,"is_reserved":false,"is_disabled":false,"rental_uris":{"android":"levelo://app?vid=16db3035-b531-41b0-b5bc-8566e13f774b","ios":"levelo://app?vid=16db3035-b531-41b0-b5bc-8566e13f774b"},"vehicle_type_id":"4","last_reported":1758996738,"current_range_meters":11200,"station_id":"ce4bghh2rcd13ifvqb60","pricing_plan_id":"cebpf4jnsgd1na2vs0mg"},{"bike_id":"04484caa-b4cb-4322-9c4f-6a251135fc1d","system_id":"levelo_inurba_marseille","lat":43.29967,"lon":5.37177,"is_reserved":false,"is_disabled":false,"rental_uris":{"android":"levelo://app?vid=04484caa-b4cb-4322-9c4f-6a251135fc1d","ios":"levelo://app?vid=04484caa-b4cb-4322-9c4f-6a251135fc1d"},"vehicle_type_id":"4","last_reported":1758996738,"current_range_meters":11200,"station_id":"ce4bgr92rcd13ifvqc7g","pricing_plan_id":"cebpf4jnsgd1na2vs0mg"},{"bike_id":"83dc52a5-6532-472a-b207-8fb9ee58c24b","system_id":"levelo_inurba_marseille","lat":43.29583,"lon":5.37507,"is_reserved":false,"is_disabled":false,"rental_uris":{"android":"levelo://app?vid=83dc52a5-6532-472a-b207-8fb9ee58c24b","ios":"levelo://app?vid=83dc52a5-6532-472a-b207-8fb9ee58c24b"},"vehicle_type_id":"4","last_reported":1758996738,"current_range_meters":11200,"station_id":"ce4bgh92rcd13ifvqb50","pricing_plan_id":"cebpf4jnsgd1na2vs0mg"},{"bike_id":"934ea1ec-b7f6-49a1-9efa-287317d4eb22","system_id":"levelo_inurba_marseille","lat":43.29048,"lon":5.35914,"is_reserved":false,"is_disabled":false,"rental_uris":{"android":"levelo://app?vid=934ea1ec-b7f6-49a1-9efa-287317d4eb22","ios":"levelo://app?vid=934ea1ec-b7f6-49a1-9efa-287317d4eb22"},"vehicle_type_id":"4","last_reported":1758996738,"current_range_meters":11600,"station_id":"","pricing_plan_id":"cebpf4jnsgd1na2vs0mg"},{"bike_id":"6c5dcae8-d4bd-4bd4-8d57-8db43b676f42","system_id":"levelo_inurba_marseille","lat":43.29031,"lon":5.38642,"is_reserved":false,"is_disabled":false,"rental_uris":{"android":"levelo://app?vid=6c5dcae8-d4bd-4bd4-8d57-8db43b676f42","ios":"levelo://app?vid=6c5dcae8-d4bd-4bd4-8d57-8db43b676f42"},"vehicle_type_id":"4","last_reported":1758996738,"current_range_meters":11600,"station_id":"ce4bh4p2rcd13ifvqe0g","pricing_plan_id":"cebpf4jnsgd1na2vs0mg"},{"bike_id":"b3356fb8-e8da-4e2c-b1e4-5ebb3655d645","system_id":"levelo_inurba_marseille","lat":43.25014,"lon":5.38928,"is_reserved":false,"is_disabled":false,"rental_uris":{"android":"levelo://app?vid=b3356fb8-e8da-4e2c-b1e4-5ebb3655d645","ios":"levelo://app?vid=b3356fb8-e8da-4e2c-b1e4-5ebb3655d645"},"vehicle_type_id":"4","last_reported":1758996738,"current_range_meters":11600,"station_id":"ce4bhgp2rcd13ifvqfd0","pricing_plan_id":"cebpf4jnsgd1na2vs0mg"},{"bike_id":"4641ed41-30a2-4a92-aa76-c70ed63f3d1b","system_id":"levelo_inurba_marseille","lat":43.29304,"lon":5.37164,"is_reserved":false,"is_disabled":false,"rental_uris":{"android":"levelo://app?vid=4641ed41-30a2-4a92-aa76-c70ed63f3d1b","ios":"levelo://app?vid=4641ed41-30a2-4a92-aa76-c70ed63f3d1b"},"vehicle_type_id":"4","last_reported":1758996738,"current_range_meters":11600,"station_id":"ce4bgh92rcd13ifvqb40","pricing_plan_id":"cebpf4jnsgd1na2vs0mg"},{"bike_id":"80bdba63-46f3-4274-b0d9-d9711409b6a8","system_id":"levelo_inurba_marseille","lat":43.270752,"lon":5.402497,"is_reserved":false,"is_disabled":false,"rental_uris":{"android":"levelo://app?vid=80bdba63-46f3-4274-b0d9-d9711409b6a8","ios":"levelo://app?vid=80bdba63-46f3-4274-b0d9-d9711409b6a8"},"vehicle_type_id":"4","last_reported":1758996738,"current_range_meters":11600,"station_id":"","pricing_plan_id":"cebpf4jnsgd1na2vs0mg"},{"bike_id":"46ac5fb6-ac2e-43e8-84c9-c4e46889ea29","system_id":"levelo_inurba_marseille","lat":43.21191,"lon":5.35112,"is_reserved":false,"is_disabled":false,"rental_uris":{"android":"levelo://app?vid=46ac5fb6-ac2e-43e8-84c9-c4e46889ea29","ios":"levelo://app?vid=46ac5fb6-ac2e-43e8-84c9-c4e46889ea29"},"vehicle_type_id":"4","last_reported":1758996738,"current_range_meters":12000,"station_id":"st_cvj6sg6p6f1abm77japg","pricing_plan_id":"cebpf4jnsgd1na2vs0mg"},{"bike_id":"3fd7c937-a838-4d6f-932e-9e3bccbc6d3b","system_id":"levelo_inurba_marseille","lat":43.29943,"lon":5.38205,"is_reserved":false,"is_disabled":false,"rental_uris":{"android":"levelo://app?vid=3fd7c937-a838-4d6f-932e-9e3bccbc6d3b","ios":"levelo://app?vid=3fd7c937-a838-4d6f-932e-9e3bccbc6d3b"},"vehicle_type_id":"4","last_reported":1758996738,"current_range_meters":11600,"station_id":"","pricing_plan_id":"cebpf4jnsgd1na2vs0mg"},{"bike_id":"7ee12965-0fed-415c-8f08-8f986985cec6","system_id":"levelo_inurba_marseille","lat":43.21756,"lon":5.3459,"is_reserved":false,"is_disabled":true,"rental_uris":{"android":"levelo://app?vid=7ee12965-0fed-415c-8f08-8f986985cec6","ios":"levelo://app?vid=7ee12965-0fed-415c-8f08-8f986985cec6"},"vehicle_type_id":"4","last_reported":1758996738,"current_range_meters":11600,"station_id":"st_cvj6r9ubvosntc0bgbag","pricing_plan_id":"cebpf4jnsgd1na2vs0mg"},{"bike_id":"0679dd73-53da-4f27-b38d-14a3130a46e9","system_id":"levelo_inurba_marseille","lat":43.30128,"lon":5.38777,"is_reserved":false,"is_disabled":false,"rental_uris":{"android":"levelo://app?vid=0679dd73-53da-4f27-b38d-14a3130a46e9","ios":"levelo://app?vid=0679dd73-53da-4f27-b38d-14a3130a46e9"},"vehicle_type_id":"4","last_reported":1758996738,"current_range_meters":12000,"station_id":"ce4bghh2rcd13ifvqb60","pricing_plan_id":"cebpf4jnsgd1na2vs0mg"},{"bike_id":"8427b966-bedb-42cf-855a-90ef582e6c55","system_id":"levelo_inurba_marseille","lat":43.302989,"lon":5.392102,"is_reserved":false,"is_disabled":false,"rental_uris":{"android":"levelo://app?vid=8427b966-bedb-42cf-855a-90ef582e6c55","ios":"levelo://app?vid=8427b966-bedb-42cf-855a-90ef582e6c55"},"vehicle_type_id":"4","last_reported":1758996738,"current_range_meters":12000,"station_id":"ce4bgkh2rcd13ifvqbk0","pricing_plan_id":"cebpf4jnsgd1na2vs0mg"},{"bike_id":"f2fd2284-837d-45c8-8a92-163c2aa30979","system_id":"levelo_inurba_marseille","lat":43.26909,"lon":5.38937,"is_reserved":false,"is_disabled":true,"rental_uris":{"android":"levelo://app?vid=f2fd2284-837d-45c8-8a92-163c2aa30979","ios":"levelo://app?vid=f2fd2284-837d-45c8-8a92-163c2aa30979"},"vehicle_type_id":"4","last_reported":1758996738,"current_range_meters":12000,"station_id":"ce4bhhh2rcd13ifvqfl0","pricing_plan_id":"cebpf4jnsgd1na2vs0mg"},{"bike_id":"5bb42022-0e19-48bc-a5b4-218bb1d7482e","system_id":"levelo_inurba_marseille","lat":43.31213,"lon":5.37817,"is_reserved":false,"is_disabled":false,"rental_uris":{"android":"levelo://app?vid=5bb42022-0e19-48bc-a5b4-218bb1d7482e","ios":"levelo://app?vid=5bb42022-0e19-48bc-a5b4-218bb1d7482e"},"vehicle_type_id":"4","last_reported":1758996738,"current_range_meters":12000,"station_id":"","pricing_plan_id":"cebpf4jnsgd1na2vs0mg"},{"bike_id":"1608d1ff-85e4-4ad6-8374-4d0eeab13e48","system_id":"levelo_inurba_marseille","lat":43.29084,"lon":5.3814,"is_reserved":false,"is_disabled":false,"rental_uris":{"android":"levelo://app?vid=1608d1ff-85e4-4ad6-8374-4d0eeab13e48","ios":"levelo://app?vid=1608d1ff-85e4-4ad6-8374-4d0eeab13e48"},"vehicle_type_id":"4","last_reported":1758996738,"current_range_meters":11600,"station_id":"ce4bh512rcd13ifvqe2g","pricing_plan_id":"cebpf4jnsgd1na2vs0mg"},{"bike_id":"a5315f40-e5b5-4ce0-9317-6c2d47947aab","system_id":"levelo_inurba_marseille","lat":43.25023,"lon":5.38929,"is_reserved":false,"is_disabled":true,"rental_uris":{"android":"levelo://app?vid=a5315f40-e5b5-4ce0-9317-6c2d47947aab","ios":"levelo://app?vid=a5315f40-e5b5-4ce0-9317-6c2d47947aab"},"vehicle_type_id":"4","last_reported":1758996738,"current_range_meters":11600,"station_id":"ce4bhgp2rcd13ifvqfd0","pricing_plan_id":"cebpf4jnsgd1na2vs0mg"},{"bike_id":"71649b2c-48f8-4b8a-b9c0-477bd83fa14b","system_id":"levelo_inurba_marseille","lat":43.2843,"lon":5.34991,"is_reserved":false,"is_disabled":false,"rental_uris":{"android":"levelo://app?vid=71649b2c-48f8-4b8a-b9c0-477bd83fa14b","ios":"levelo://app?vid=71649b2c-48f8-4b8a-b9c0-477bd83fa14b"},"vehicle_type_id":"4","last_reported":1758996738,"current_range_meters":12400,"station_id":"ce4bhbh2rcd13ifvqepg","pricing_plan_id":"cebpf4jnsgd1na2vs0mg"},{"bike_id":"713c39f1-91aa-40d1-90fa-0062c4fe0d5b","system_id":"levelo_inurba_marseille","lat":43.29592,"lon":5.38104,"is_reserved":false,"is_disabled":false,"rental_uris":{"android":"levelo://app?vid=713c39f1-91aa-40d1-90fa-0062c4fe0d5b","ios":"levelo://app?vid=713c39f1-91aa-40d1-90fa-0062c4fe0d5b"},"vehicle_type_id":"4","last_reported":1758996738,"current_range_meters":12400,"station_id":"ce4bgl12rcd13ifvqbo0","pricing_plan_id":"cebpf4jnsgd1na2vs0mg"},{"bike_id":"1a950a0b-ee70-4520-9721-fa3b700d3ff7","system_id":"levelo_inurba_marseille","lat":43.292976,"lon":5.374639,"is_reserved":false,"is_disabled":false,"rental_uris":{"android":"levelo://app?vid=1a950a0b-ee70-4520-9721-fa3b700d3ff7","ios":"levelo://app?vid=1a950a0b-ee70-4520-9721-fa3b700d3ff7"},"vehicle_type_id":"4","last_reported":1758996738,"current_range_meters":12400,"station_id":"ce4bgi12rcd13ifvqb70","pricing_plan_id":"cebpf4jnsgd1na2vs0mg"},{"bike_id":"360c0746-c854-4629-884f-7c911de53d9d","system_id":"levelo_inurba_marseille","lat":43.31774,"lon":5.39024,"is_reserved":false,"is_disabled":false,"rental_uris":{"android":"levelo://app?vid=360c0746-c854-4629-884f-7c911de53d9d","ios":"levelo://app?vid=360c0746-c854-4629-884f-7c911de53d9d"},"vehicle_type_id":"4","last_reported":1758996738,"current_range_meters":12400,"station_id":"ce4bhqp2rcd13ifvqhng","pricing_plan_id":"cebpf4jnsgd1na2vs0mg"},{"bike_id":"0c951385-e5b8-4d41-aaf5-1f394e5de7c8","system_id":"levelo_inurba_marseille","lat":43.295227,"lon":5.385444,"is_reserved":false,"is_disabled":false,"rental_uris":{"android":"levelo://app?vid=0c951385-e5b8-4d41-aaf5-1f394e5de7c8","ios":"levelo://app?vid=0c951385-e5b8-4d41-aaf5-1f394e5de7c8"},"vehicle_type_id":"4","last_reported":1758996738,"current_range_meters":12400,"station_id":"ce4bgih2rcd13ifvqba0","pricing_plan_id":"cebpf4jnsgd1na2vs0mg"},{"bike_id":"720623f7-9148-4a0e-ade4-a205c6fa44f0","system_id":"levelo_inurba_marseille","lat":43.2898,"lon":5.42913,"is_reserved":false,"is_disabled":false,"rental_uris":{"android":"levelo://app?vid=720623f7-9148-4a0e-ade4-a205c6fa44f0","ios":"levelo://app?vid=720623f7-9148-4a0e-ade4-a205c6fa44f0"},"vehicle_type_id":"4","last_reported":1758996738,"current_range_meters":12400,"station_id":"","pricing_plan_id":"cebpf4jnsgd1na2vs0mg"},{"bike_id":"8dfd5742-c601-4c75-bbf8-d7b8861a4a63","system_id":"levelo_inurba_marseille","lat":43.31164,"lon":5.3873,"is_reserved":false,"is_disabled":false,"rental_uris":{"android":"levelo://app?vid=8dfd5742-c601-4c75-bbf8-d7b8861a4a63","ios":"levelo://app?vid=8dfd5742-c601-4c75-bbf8-d7b8861a4a63"},"vehicle_type_id":"4","last_reported":1758996738,"current_range_meters":12400,"station_id":"ce4bgv12rcd13ifvqcp0","pricing_plan_id":"cebpf4jnsgd1na2vs0mg"},{"bike_id":"2c8b5e55-5f2f-4d85-bd7d-4dd44dac704c","system_id":"levelo_inurba_marseille","lat":43.29881,"lon":5.39743,"is_reserved":false,"is_disabled":false,"rental_uris":{"android":"levelo://app?vid=2c8b5e55-5f2f-4d85-bd7d-4dd44dac704c","ios":"levelo://app?vid=2c8b5e55-5f2f-4d85-bd7d-4dd44dac704c"},"vehicle_type_id":"4","last_reported":1758996738,"current_range_meters":12400,"station_id":"ce4bh0h2rcd13ifvqd50","pricing_plan_id":"cebpf4jnsgd1na2vs0mg"},{"bike_id":"a79771f7-9547-42c9-9edd-e8630ba14d95","system_id":"levelo_inurba_marseille","lat":43.2317,"lon":5.35647,"is_reserved":false,"is_disabled":false,"rental_uris":{"android":"levelo://app?vid=a79771f7-9547-42c9-9edd-e8630ba14d95","ios":"levelo://app?vid=a79771f7-9547-42c9-9edd-e8630ba14d95"},"vehicle_type_id":"4","last_reported":1758996738,"current_range_meters":12400,"station_id":"","pricing_plan_id":"cebpf4jnsgd1na2vs0mg"},{"bike_id":"865c8599-894b-4e26-bd87-3e19aed19fdd","system_id":"levelo_inurba_marseille","lat":43.29846,"lon":5.36275,"is_reserved":false,"is_disabled":false,"rental_uris":{"android":"levelo://app?vid=865c8599-894b-4e26-bd87-3e19aed19fdd","ios":"levelo://app?vid=865c8599-894b-4e26-bd87-3e19aed19fdd"},"vehicle_type_id":"4","last_reported":1758996738,"current_range_meters":12000,"station_id":"ce4bgpp2rcd13ifvqc3g","pricing_plan_id":"cebpf4jnsgd1na2vs0mg"},{"bike_id":"695662ab-65fe-4c59-81b6-3dceb9f5066d","system_id":"levelo_inurba_marseille","lat":43.2558,"lon":5.38226,"is_reserved":false,"is_disabled":true,"rental_uris":{"android":"levelo://app?vid=695662ab-65fe-4c59-81b6-3dceb9f5066d","ios":"levelo://app?vid=695662ab-65fe-4c59-81b6-3dceb9f5066d"},"vehicle_type_id":"4","last_reported":1758996738,"current_range_meters":12400,"station_id":"ce4bhih2rcd13ifvqfs0","pricing_plan_id":"cebpf4jnsgd1na2vs0mg"},{"bike_id":"03350417-1098-4d6c-b8fe-9e64358744bf","system_id":"levelo_inurba_marseille","lat":43.31014,"lon":5.37597,"is_reserved":false,"is_disabled":false,"rental_uris":{"android":"levelo://app?vid=03350417-1098-4d6c-b8fe-9e64358744bf","ios":"levelo://app?vid=03350417-1098-4d6c-b8fe-9e64358744bf"},"vehicle_type_id":"4","last_reported":1758996738,"current_range_meters":12400,"station_id":"","pricing_plan_id":"cebpf4jnsgd1na2vs0mg"},{"bike_id":"1f9b119d-4295-4942-9b37-04b5942d6b4f","system_id":"levelo_inurba_marseille","lat":43.2846,"lon":5.35887,"is_reserved":false,"is_disabled":false,"rental_uris":{"android":"levelo://app?vid=1f9b119d-4295-4942-9b37-04b5942d6b4f","ios":"levelo://app?vid=1f9b119d-4295-4942-9b37-04b5942d6b4f"},"vehicle_type_id":"4","last_reported":1758996738,"current_range_meters":12400,"station_id":"ce4bhah2rcd13ifvqei0","pricing_plan_id":"cebpf4jnsgd1na2vs0mg"},{"bike_id":"9feae468-b8bd-422a-8fcb-2d68fc5ee82c","system_id":"levelo_inurba_marseille","lat":43.33385,"lon":5.42019,"is_reserved":false,"is_disabled":false,"rental_uris":{"android":"levelo://app?vid=9feae468-b8bd-422a-8fcb-2d68fc5ee82c","ios":"levelo://app?vid=9feae468-b8bd-422a-8fcb-2d68fc5ee82c"},"vehicle_type_id":"4","last_reported":1758996738,"current_range_meters":12800,"station_id":"","pricing_plan_id":"cebpf4jnsgd1na2vs0mg"},{"bike_id":"9c1a3867-3a0d-4841-a382-45ce168cf746","system_id":"levelo_inurba_marseille","lat":43.29892,"lon":5.38888,"is_reserved":false,"is_disabled":false,"rental_uris":{"android":"levelo://app?vid=9c1a3867-3a0d-4841-a382-45ce168cf746","ios":"levelo://app?vid=9c1a3867-3a0d-4841-a382-45ce168cf746"},"vehicle_type_id":"4","last_reported":1758996738,"current_range_meters":12400,"station_id":"ce4bh392rcd13ifvqdl0","pricing_plan_id":"cebpf4jnsgd1na2vs0mg"},{"bike_id":"2bab1777-1600-4774-ad27-21cac90cfc1f","system_id":"levelo_inurba_marseille","lat":43.29798,"lon":5.38106,"is_reserved":false,"is_disabled":false,"rental_uris":{"android":"levelo://app?vid=2bab1777-1600-4774-ad27-21cac90cfc1f","ios":"levelo://app?vid=2bab1777-1600-4774-ad27-21cac90cfc1f"},"vehicle_type_id":"4","last_reported":1758996738,"current_range_meters":12800,"station_id":"ce4bgip2rcd13ifvqbb0","pricing_plan_id":"cebpf4jnsgd1na2vs0mg"},{"bike_id":"d81f9d5f-1a2b-4c44-8997-e69dca7fa877","system_id":"levelo_inurba_marseille","lat":43.295357,"lon":5.375092,"is_reserved":false,"is_disabled":false,"rental_uris":{"android":"levelo://app?vid=d81f9d5f-1a2b-4c44-8997-e69dca7fa877","ios":"levelo://app?vid=d81f9d5f-1a2b-4c44-8997-e69dca7fa877"},"vehicle_type_id":"4","last_reported":1758996738,"current_range_meters":12800,"station_id":"ce4bgkp2rcd13ifvqbmg","pricing_plan_id":"cebpf4jnsgd1na2vs0mg"},{"bike_id":"6b9adc5e-245f-4dfe-881a-00ff9f292261","system_id":"levelo_inurba_marseille","lat":43.246207,"lon":5.38093,"is_reserved":false,"is_disabled":false,"rental_uris":{"android":"levelo://app?vid=6b9adc5e-245f-4dfe-881a-00ff9f292261","ios":"levelo://app?vid=6b9adc5e-245f-4dfe-881a-00ff9f292261"},"vehicle_type_id":"4","last_reported":1758996738,"current_range_meters":12800,"station_id":"","pricing_plan_id":"cebpf4jnsgd1na2vs0mg"},{"bike_id":"cdded1ea-b875-420e-82d7-c5e3bf4cbb9d","system_id":"levelo_inurba_marseille","lat":43.25125,"lon":5.394736,"is_reserved":false,"is_disabled":false,"rental_uris":{"android":"levelo://app?vid=cdded1ea-b875-420e-82d7-c5e3bf4cbb9d","ios":"levelo://app?vid=cdded1ea-b875-420e-82d7-c5e3bf4cbb9d"},"vehicle_type_id":"4","last_reported":1758996738,"current_range_meters":12800,"station_id":"ce4bhm12rcd13ifvqgkg","pricing_plan_id":"cebpf4jnsgd1na2vs0mg"},{"bike_id":"c60579f8-07a1-4ca2-9653-c9650aeb69d3","system_id":"levelo_inurba_marseille","lat":43.33609,"lon":5.41035,"is_reserved":false,"is_disabled":false,"rental_uris":{"android":"levelo://app?vid=c60579f8-07a1-4ca2-9653-c9650aeb69d3","ios":"levelo://app?vid=c60579f8-07a1-4ca2-9653-c9650aeb69d3"},"vehicle_type_id":"4","last_reported":1758996738,"current_range_meters":13600,"station_id":"ce4bhqh2rcd13ifvqhmg","pricing_plan_id":"cebpf4jnsgd1na2vs0mg"},{"bike_id":"349977c5-2efd-48ed-8dd8-9cfd0d464679","system_id":"levelo_inurba_marseille","lat":43.21204,"lon":5.35085,"is_reserved":false,"is_disabled":false,"rental_uris":{"android":"levelo://app?vid=349977c5-2efd-48ed-8dd8-9cfd0d464679","ios":"levelo://app?vid=349977c5-2efd-48ed-8dd8-9cfd0d464679"},"vehicle_type_id":"4","last_reported":1758996738,"current_range_meters":13600,"station_id":"st_cvj6sg6p6f1abm77japg","pricing_plan_id":"cebpf4jnsgd1na2vs0mg"},{"bike_id":"b1e2a7d8-ff6f-41fe-bae9-46bd7a01afa8","system_id":"levelo_inurba_marseille","lat":43.26499,"lon":5.39544,"is_reserved":false,"is_disabled":false,"rental_uris":{"android":"levelo://app?vid=b1e2a7d8-ff6f-41fe-bae9-46bd7a01afa8","ios":"levelo://app?vid=b1e2a7d8-ff6f-41fe-bae9-46bd7a01afa8"},"vehicle_type_id":"4","last_reported":1758996738,"current_range_meters":13600,"station_id":"ce4bhi12rcd13ifvqfq0","pricing_plan_id":"cebpf4jnsgd1na2vs0mg"},{"bike_id":"4645660a-d95f-4228-a6ce-beb703247887","system_id":"levelo_inurba_marseille","lat":43.24185,"lon":5.39724,"is_reserved":false,"is_disabled":false,"rental_uris":{"android":"levelo://app?vid=4645660a-d95f-4228-a6ce-beb703247887","ios":"levelo://app?vid=4645660a-d95f-4228-a6ce-beb703247887"},"vehicle_type_id":"4","last_reported":1758996738,"current_range_meters":14000,"station_id":"ce4bhn12rcd13ifvqgpg","pricing_plan_id":"cebpf4jnsgd1na2vs0mg"},{"bike_id":"0704c2e2-d5fc-44c1-b435-07bd08855ec0","system_id":"levelo_inurba_marseille","lat":43.290619,"lon":5.371623,"is_reserved":false,"is_disabled":false,"rental_uris":{"android":"levelo://app?vid=0704c2e2-d5fc-44c1-b435-07bd08855ec0","ios":"levelo://app?vid=0704c2e2-d5fc-44c1-b435-07bd08855ec0"},"vehicle_type_id":"4","last_reported":1758996738,"current_range_meters":13600,"station_id":"ce4bh5p2rcd13ifvqe4g","pricing_plan_id":"cebpf4jnsgd1na2vs0mg"},{"bike_id":"2ca205d7-ac55-4d7d-ae07-5f6058c9f252","system_id":"levelo_inurba_marseille","lat":43.29976,"lon":5.38506,"is_reserved":false,"is_disabled":false,"rental_uris":{"android":"levelo://app?vid=2ca205d7-ac55-4d7d-ae07-5f6058c9f252","ios":"levelo://app?vid=2ca205d7-ac55-4d7d-ae07-5f6058c9f252"},"vehicle_type_id":"4","last_reported":1758996738,"current_range_meters":14000,"station_id":"ce4bgj92rcd13ifvqbd0","pricing_plan_id":"cebpf4jnsgd1na2vs0mg"},{"bike_id":"dc4883ea-8f06-44d1-8b3d-6660e39a87ec","system_id":"levelo_inurba_marseille","lat":43.22925,"lon":5.35389,"is_reserved":false,"is_disabled":true,"rental_uris":{"android":"levelo://app?vid=dc4883ea-8f06-44d1-8b3d-6660e39a87ec","ios":"levelo://app?vid=dc4883ea-8f06-44d1-8b3d-6660e39a87ec"},"vehicle_type_id":"4","last_reported":1758996738,"current_range_meters":14000,"station_id":"cpo3532slgdg3j2ikp40","pricing_plan_id":"cebpf4jnsgd1na2vs0mg"},{"bike_id":"eedfbf61-711e-444c-88e3-b720ea74f76a","system_id":"levelo_inurba_marseille","lat":43.21195,"lon":5.35071,"is_reserved":false,"is_disabled":false,"rental_uris":{"android":"levelo://app?vid=eedfbf61-711e-444c-88e3-b720ea74f76a","ios":"levelo://app?vid=eedfbf61-711e-444c-88e3-b720ea74f76a"},"vehicle_type_id":"4","last_reported":1758996738,"current_range_meters":14000,"station_id":"st_cvj6sg6p6f1abm77japg","pricing_plan_id":"cebpf4jnsgd1na2vs0mg"},{"bike_id":"a141ba13-19f1-4f9e-9fa5-b678aae29a88","system_id":"levelo_inurba_marseille","lat":43.31118,"lon":5.37772,"is_reserved":false,"is_disabled":false,"rental_uris":{"android":"levelo://app?vid=a141ba13-19f1-4f9e-9fa5-b678aae29a88","ios":"levelo://app?vid=a141ba13-19f1-4f9e-9fa5-b678aae29a88"},"vehicle_type_id":"4","last_reported":1758996738,"current_range_meters":14400,"station_id":"ce4bgt92rcd13ifvqcg0","pricing_plan_id":"cebpf4jnsgd1na2vs0mg"},{"bike_id":"ed0d36e5-f5d3-4931-a93d-39fec726112c","system_id":"levelo_inurba_marseille","lat":43.29528,"lon":5.38541,"is_reserved":false,"is_disabled":false,"rental_uris":{"android":"levelo://app?vid=ed0d36e5-f5d3-4931-a93d-39fec726112c","ios":"levelo://app?vid=ed0d36e5-f5d3-4931-a93d-39fec726112c"},"vehicle_type_id":"4","last_reported":1758996738,"current_range_meters":14400,"station_id":"ce4bgih2rcd13ifvqba0","pricing_plan_id":"cebpf4jnsgd1na2vs0mg"},{"bike_id":"ca853126-12d0-442c-a6a6-33abcad8e742","system_id":"levelo_inurba_marseille","lat":43.31712,"lon":5.43706,"is_reserved":false,"is_disabled":false,"rental_uris":{"android":"levelo://app?vid=ca853126-12d0-442c-a6a6-33abcad8e742","ios":"levelo://app?vid=ca853126-12d0-442c-a6a6-33abcad8e742"},"vehicle_type_id":"4","last_reported":1758996738,"current_range_meters":14000,"station_id":"ce4bhp92rcd13ifvqhcg","pricing_plan_id":"cebpf4jnsgd1na2vs0mg"},{"bike_id":"162791b5-938d-4d3b-b6d8-3a0b5dd976a0","system_id":"levelo_inurba_marseille","lat":43.23187,"lon":5.3999,"is_reserved":false,"is_disabled":false,"rental_uris":{"android":"levelo://app?vid=162791b5-938d-4d3b-b6d8-3a0b5dd976a0","ios":"levelo://app?vid=162791b5-938d-4d3b-b6d8-3a0b5dd976a0"},"vehicle_type_id":"4","last_reported":1758996738,"current_range_meters":14400,"station_id":"ce4bhn12rcd13ifvqgqg","pricing_plan_id":"cebpf4jnsgd1na2vs0mg"},{"bike_id":"c3c74308-510b-4eca-8fe6-0cef0f578e16","system_id":"levelo_inurba_marseille","lat":43.29964,"lon":5.3851,"is_reserved":false,"is_disabled":false,"rental_uris":{"android":"levelo://app?vid=c3c74308-510b-4eca-8fe6-0cef0f578e16","ios":"levelo://app?vid=c3c74308-510b-4eca-8fe6-0cef0f578e16"},"vehicle_type_id":"4","last_reported":1758996738,"current_range_meters":14400,"station_id":"ce4bgj92rcd13ifvqbd0","pricing_plan_id":"cebpf4jnsgd1na2vs0mg"},{"bike_id":"c6550755-0e94-44dc-bd56-3402db625d6c","system_id":"levelo_inurba_marseille","lat":43.30892,"lon":5.39652,"is_reserved":false,"is_disabled":false,"rental_uris":{"android":"levelo://app?vid=c6550755-0e94-44dc-bd56-3402db625d6c","ios":"levelo://app?vid=c6550755-0e94-44dc-bd56-3402db625d6c"},"vehicle_type_id":"4","last_reported":1758996738,"current_range_meters":14000,"station_id":"ce4bh012rcd13ifvqcv0","pricing_plan_id":"cebpf4jnsgd1na2vs0mg"},{"bike_id":"c833070b-baa0-4f6e-84a4-dad65aacc2ad","system_id":"levelo_inurba_marseille","lat":43.23199,"lon":5.35529,"is_reserved":false,"is_disabled":false,"rental_uris":{"android":"levelo://app?vid=c833070b-baa0-4f6e-84a4-dad65aacc2ad","ios":"levelo://app?vid=c833070b-baa0-4f6e-84a4-dad65aacc2ad"},"vehicle_type_id":"4","last_reported":1758996738,"current_range_meters":14400,"station_id":"ce4bhu92rcd13ifvqi70","pricing_plan_id":"cebpf4jnsgd1na2vs0mg"},{"bike_id":"10cbb927-8149-4470-a78d-68425b5cd556","system_id":"levelo_inurba_marseille","lat":43.29159,"lon":5.37154,"is_reserved":false,"is_disabled":false,"rental_uris":{"android":"levelo://app?vid=10cbb927-8149-4470-a78d-68425b5cd556","ios":"levelo://app?vid=10cbb927-8149-4470-a78d-68425b5cd556"},"vehicle_type_id":"4","last_reported":1758996738,"current_range_meters":14400,"station_id":"ce4bha92rcd13ifvqeh0","pricing_plan_id":"cebpf4jnsgd1na2vs0mg"},{"bike_id":"aea4122c-0c45-483c-96da-b5fd48875ab6","system_id":"levelo_inurba_marseille","lat":43.26208,"lon":5.37932,"is_reserved":false,"is_disabled":false,"rental_uris":{"android":"levelo://app?vid=aea4122c-0c45-483c-96da-b5fd48875ab6","ios":"levelo://app?vid=aea4122c-0c45-483c-96da-b5fd48875ab6"},"vehicle_type_id":"4","last_reported":1758996738,"current_range_meters":14800,"station_id":"ce4bhjp2rcd13ifvqg90","pricing_plan_id":"cebpf4jnsgd1na2vs0mg"},{"bike_id":"4caa5d5b-495b-436e-afbf-b918e854c7d8","system_id":"levelo_inurba_marseille","lat":43.29963,"lon":5.38499,"is_reserved":false,"is_disabled":false,"rental_uris":{"android":"levelo://app?vid=4caa5d5b-495b-436e-afbf-b918e854c7d8","ios":"levelo://app?vid=4caa5d5b-495b-436e-afbf-b918e854c7d8"},"vehicle_type_id":"4","last_reported":1758996738,"current_range_meters":14800,"station_id":"ce4bgj92rcd13ifvqbd0","pricing_plan_id":"cebpf4jnsgd1na2vs0mg"},{"bike_id":"096c311a-e31f-4e60-ab8c-de0b76354103","system_id":"levelo_inurba_marseille","lat":43.27178,"lon":5.41009,"is_reserved":false,"is_disabled":true,"rental_uris":{"android":"levelo://app?vid=096c311a-e31f-4e60-ab8c-de0b76354103","ios":"levelo://app?vid=096c311a-e31f-4e60-ab8c-de0b76354103"},"vehicle_type_id":"4","last_reported":1758996738,"current_range_meters":14800,"station_id":"ce4bhl12rcd13ifvqgf0","pricing_plan_id":"cebpf4jnsgd1na2vs0mg"},{"bike_id":"85c7ac65-0172-4766-8977-f4ba34ed9c93","system_id":"levelo_inurba_marseille","lat":43.25323,"lon":5.42185,"is_reserved":false,"is_disabled":false,"rental_uris":{"android":"levelo://app?vid=85c7ac65-0172-4766-8977-f4ba34ed9c93","ios":"levelo://app?vid=85c7ac65-0172-4766-8977-f4ba34ed9c93"},"vehicle_type_id":"4","last_reported":1758996738,"current_range_meters":14800,"station_id":"st_d2m65c5bi1j21697t3ng","pricing_plan_id":"cebpf4jnsgd1na2vs0mg"},{"bike_id":"31d14509-f243-4db5-afcc-f77e9d3dbf05","system_id":"levelo_inurba_marseille","lat":43.31055,"lon":5.38352,"is_reserved":false,"is_disabled":true,"rental_uris":{"android":"levelo://app?vid=31d14509-f243-4db5-afcc-f77e9d3dbf05","ios":"levelo://app?vid=31d14509-f243-4db5-afcc-f77e9d3dbf05"},"vehicle_type_id":"4","last_reported":1758996738,"current_range_meters":14800,"station_id":"ce4bgv92rcd13ifvqcr0","pricing_plan_id":"cebpf4jnsgd1na2vs0mg"},{"bike_id":"5e230b97-516f-45af-a5bf-0fc75c44ad83","system_id":"levelo_inurba_marseille","lat":43.24077,"lon":5.37757,"is_reserved":false,"is_disabled":false,"rental_uris":{"android":"levelo://app?vid=5e230b97-516f-45af-a5bf-0fc75c44ad83","ios":"levelo://app?vid=5e230b97-516f-45af-a5bf-0fc75c44ad83"},"vehicle_type_id":"4","last_reported":1758996738,"current_range_meters":14400,"station_id":"ce4bhnp2rcd13ifvqgvg","pricing_plan_id":"cebpf4jnsgd1na2vs0mg"},{"bike_id":"97b56b1e-4375-473c-b7eb-138200a262e8","system_id":"levelo_inurba_marseille","lat":43.28607,"lon":5.37054,"is_reserved":false,"is_disabled":false,"rental_uris":{"android":"levelo://app?vid=97b56b1e-4375-473c-b7eb-138200a262e8","ios":"levelo://app?vid=97b56b1e-4375-473c-b7eb-138200a262e8"},"vehicle_type_id":"4","last_reported":1758996738,"current_range_meters":14800,"station_id":"ce4bht12rcd13ifvqi60","pricing_plan_id":"cebpf4jnsgd1na2vs0mg"},{"bike_id":"cb0a43cc-2f6b-482a-91bb-c383cccf5be4","system_id":"levelo_inurba_marseille","lat":43.31985,"lon":5.3805,"is_reserved":false,"is_disabled":false,"rental_uris":{"android":"levelo://app?vid=cb0a43cc-2f6b-482a-91bb-c383cccf5be4","ios":"levelo://app?vid=cb0a43cc-2f6b-482a-91bb-c383cccf5be4"},"vehicle_type_id":"4","last_reported":1758996738,"current_range_meters":14800,"station_id":"","pricing_plan_id":"cebpf4jnsgd1na2vs0mg"},{"bike_id":"4c02c545-ad59-45b1-9b9c-d3678a5922c7","system_id":"levelo_inurba_marseille","lat":43.337444,"lon":5.374475,"is_reserved":false,"is_disabled":false,"rental_uris":{"android":"levelo://app?vid=4c02c545-ad59-45b1-9b9c-d3678a5922c7","ios":"levelo://app?vid=4c02c545-ad59-45b1-9b9c-d3678a5922c7"},"vehicle_type_id":"4","last_reported":1758996738,"current_range_meters":14800,"station_id":"","pricing_plan_id":"cebpf4jnsgd1na2vs0mg"},{"bike_id":"c097f066-7651-435e-913f-a8a7838aba88","system_id":"levelo_inurba_marseille","lat":43.33722,"lon":5.37459,"is_reserved":false,"is_disabled":false,"rental_uris":{"android":"levelo://app?vid=c097f066-7651-435e-913f-a8a7838aba88","ios":"levelo://app?vid=c097f066-7651-435e-913f-a8a7838aba88"},"vehicle_type_id":"4","last_reported":1758996738,"current_range_meters":14800,"station_id":"","pricing_plan_id":"cebpf4jnsgd1na2vs0mg"},{"bike_id":"82484827-b0c8-4355-b5cd-78d2d37c23db","system_id":"levelo_inurba_marseille","lat":43.278618,"lon":5.380508,"is_reserved":false,"is_disabled":false,"rental_uris":{"android":"levelo://app?vid=82484827-b0c8-4355-b5cd-78d2d37c23db","ios":"levelo://app?vid=82484827-b0c8-4355-b5cd-78d2d37c23db"},"vehicle_type_id":"4","last_reported":1758996738,"current_range_meters":14800,"station_id":"ce4bhh92rcd13ifvqfh0","pricing_plan_id":"cebpf4jnsgd1na2vs0mg"},{"bike_id":"a1e2b7f3-f53e-4b6a-b8f1-27b0fbf9634d","system_id":"levelo_inurba_marseille","lat":43.31595,"lon":5.37595,"is_reserved":false,"is_disabled":false,"rental_uris":{"android":"levelo://app?vid=a1e2b7f3-f53e-4b6a-b8f1-27b0fbf9634d","ios":"levelo://app?vid=a1e2b7f3-f53e-4b6a-b8f1-27b0fbf9634d"},"vehicle_type_id":"4","last_reported":1758996738,"current_range_meters":15200,"station_id":"","pricing_plan_id":"cebpf4jnsgd1na2vs0mg"},{"bike_id":"976fd36e-2f5c-424c-baa8-068b37f1eb42","system_id":"levelo_inurba_marseille","lat":43.2756,"lon":5.38435,"is_reserved":false,"is_disabled":false,"rental_uris":{"android":"levelo://app?vid=976fd36e-2f5c-424c-baa8-068b37f1eb42","ios":"levelo://app?vid=976fd36e-2f5c-424c-baa8-068b37f1eb42"},"vehicle_type_id":"4","last_reported":1758996738,"current_range_meters":15200,"station_id":"ce4bhh92rcd13ifvqfi0","pricing_plan_id":"cebpf4jnsgd1na2vs0mg"},{"bike_id":"36f54a52-e73b-4c2d-9ee4-9a22af69de4c","system_id":"levelo_inurba_marseille","lat":43.28718,"lon":5.360813,"is_reserved":false,"is_disabled":false,"rental_uris":{"android":"levelo://app?vid=36f54a52-e73b-4c2d-9ee4-9a22af69de4c","ios":"levelo://app?vid=36f54a52-e73b-4c2d-9ee4-9a22af69de4c"},"vehicle_type_id":"4","last_reported":1758996738,"current_range_meters":14800,"station_id":"cki0cbj6b192h4jlfktg","pricing_plan_id":"cebpf4jnsgd1na2vs0mg"},{"bike_id":"6d98ab21-1faa-4b15-97b2-a1dd6f53a5a7","system_id":"levelo_inurba_marseille","lat":43.27459,"lon":5.39363,"is_reserved":false,"is_disabled":true,"rental_uris":{"android":"levelo://app?vid=6d98ab21-1faa-4b15-97b2-a1dd6f53a5a7","ios":"levelo://app?vid=6d98ab21-1faa-4b15-97b2-a1dd6f53a5a7"},"vehicle_type_id":"4","last_reported":1758996738,"current_range_meters":15200,"station_id":"ce4bhdp2rcd13ifvqf20","pricing_plan_id":"cebpf4jnsgd1na2vs0mg"},{"bike_id":"fd9f3d61-f02d-4c4f-9eb7-db8cc72f0c9e","system_id":"levelo_inurba_marseille","lat":43.299123,"lon":5.381594,"is_reserved":false,"is_disabled":false,"rental_uris":{"android":"levelo://app?vid=fd9f3d61-f02d-4c4f-9eb7-db8cc72f0c9e","ios":"levelo://app?vid=fd9f3d61-f02d-4c4f-9eb7-db8cc72f0c9e"},"vehicle_type_id":"4","last_reported":1758996738,"current_range_meters":15200,"station_id":"ce4bgj12rcd13ifvqbc0","pricing_plan_id":"cebpf4jnsgd1na2vs0mg"},{"bike_id":"bc39653a-6798-4f2c-8335-8432d51dd88c","system_id":"levelo_inurba_marseille","lat":43.29037,"lon":5.39973,"is_reserved":false,"is_disabled":false,"rental_uris":{"android":"levelo://app?vid=bc39653a-6798-4f2c-8335-8432d51dd88c","ios":"levelo://app?vid=bc39653a-6798-4f2c-8335-8432d51dd88c"},"vehicle_type_id":"4","last_reported":1758996738,"current_range_meters":15200,"station_id":"ce4bh392rcd13ifvqdm0","pricing_plan_id":"cebpf4jnsgd1na2vs0mg"},{"bike_id":"2c1f11b0-2546-4902-a9bd-892d6d9ab41e","system_id":"levelo_inurba_marseille","lat":43.30963,"lon":5.39051,"is_reserved":false,"is_disabled":false,"rental_uris":{"android":"levelo://app?vid=2c1f11b0-2546-4902-a9bd-892d6d9ab41e","ios":"levelo://app?vid=2c1f11b0-2546-4902-a9bd-892d6d9ab41e"},"vehicle_type_id":"4","last_reported":1758996738,"current_range_meters":14800,"station_id":"ce4bgup2rcd13ifvqco0","pricing_plan_id":"cebpf4jnsgd1na2vs0mg"},{"bike_id":"a05a375f-655c-4b3f-8b9b-75cf363b5e1f","system_id":"levelo_inurba_marseille","lat":43.29531,"lon":5.394,"is_reserved":false,"is_disabled":false,"rental_uris":{"android":"levelo://app?vid=a05a375f-655c-4b3f-8b9b-75cf363b5e1f","ios":"levelo://app?vid=a05a375f-655c-4b3f-8b9b-75cf363b5e1f"},"vehicle_type_id":"4","last_reported":1758996738,"current_range_meters":15200,"station_id":"ce4bh292rcd13ifvqdf0","pricing_plan_id":"cebpf4jnsgd1na2vs0mg"},{"bike_id":"a2a4489f-51ef-4e03-8d41-157d703fb1d4","system_id":"levelo_inurba_marseille","lat":43.2408,"lon":5.37754,"is_reserved":false,"is_disabled":false,"rental_uris":{"android":"levelo://app?vid=a2a4489f-51ef-4e03-8d41-157d703fb1d4","ios":"levelo://app?vid=a2a4489f-51ef-4e03-8d41-157d703fb1d4"},"vehicle_type_id":"4","last_reported":1758996738,"current_range_meters":15200,"station_id":"ce4bhnp2rcd13ifvqgvg","pricing_plan_id":"cebpf4jnsgd1na2vs0mg"},{"bike_id":"45de1669-7017-4f5f-82cb-98aa0c15126d","system_id":"levelo_inurba_marseille","lat":43.27993,"lon":5.41665,"is_reserved":false,"is_disabled":false,"rental_uris":{"android":"levelo://app?vid=45de1669-7017-4f5f-82cb-98aa0c15126d","ios":"levelo://app?vid=45de1669-7017-4f5f-82cb-98aa0c15126d"},"vehicle_type_id":"4","last_reported":1758996738,"current_range_meters":16000,"station_id":"ce4bho12rcd13ifvqh1g","pricing_plan_id":"cebpf4jnsgd1na2vs0mg"},{"bike_id":"e54b8c9f-4f66-4c52-b603-24745fa68456","system_id":"levelo_inurba_marseille","lat":43.25734,"lon":5.41106,"is_reserved":false,"is_disabled":false,"rental_uris":{"android":"levelo://app?vid=e54b8c9f-4f66-4c52-b603-24745fa68456","ios":"levelo://app?vid=e54b8c9f-4f66-4c52-b603-24745fa68456"},"vehicle_type_id":"4","last_reported":1758996738,"current_range_meters":16000,"station_id":"ce4bhkp2rcd13ifvqgd0","pricing_plan_id":"cebpf4jnsgd1na2vs0mg"},{"bike_id":"ddb64f3a-e438-40fe-a9f4-be83a5592b8c","system_id":"levelo_inurba_marseille","lat":43.28351,"lon":5.38106,"is_reserved":false,"is_disabled":false,"rental_uris":{"android":"levelo://app?vid=ddb64f3a-e438-40fe-a9f4-be83a5592b8c","ios":"levelo://app?vid=ddb64f3a-e438-40fe-a9f4-be83a5592b8c"},"vehicle_type_id":"4","last_reported":1758996738,"current_range_meters":16000,"station_id":"ce4bh412rcd13ifvqdr0","pricing_plan_id":"cebpf4jnsgd1na2vs0mg"},{"bike_id":"d9e6edd7-f678-4678-9509-8e8915daedd9","system_id":"levelo_inurba_marseille","lat":43.29259,"lon":5.38444,"is_reserved":false,"is_disabled":false,"rental_uris":{"android":"levelo://app?vid=d9e6edd7-f678-4678-9509-8e8915daedd9","ios":"levelo://app?vid=d9e6edd7-f678-4678-9509-8e8915daedd9"},"vehicle_type_id":"4","last_reported":1758996738,"current_range_meters":16000,"station_id":"ce4bh692rcd13ifvqea0","pricing_plan_id":"cebpf4jnsgd1na2vs0mg"},{"bike_id":"54fff988-c74f-45fc-a0eb-29489bfa1777","system_id":"levelo_inurba_marseille","lat":43.2464,"lon":5.38893,"is_reserved":false,"is_disabled":false,"rental_uris":{"android":"levelo://app?vid=54fff988-c74f-45fc-a0eb-29489bfa1777","ios":"levelo://app?vid=54fff988-c74f-45fc-a0eb-29489bfa1777"},"vehicle_type_id":"4","last_reported":1758996738,"current_range_meters":16000,"station_id":"ce4bhg12rcd13ifvqf60","pricing_plan_id":"cebpf4jnsgd1na2vs0mg"},{"bike_id":"b219c086-dfbe-4625-9649-9c9028fcc568","system_id":"levelo_inurba_marseille","lat":43.24792,"lon":5.37475,"is_reserved":false,"is_disabled":false,"rental_uris":{"android":"levelo://app?vid=b219c086-dfbe-4625-9649-9c9028fcc568","ios":"levelo://app?vid=b219c086-dfbe-4625-9649-9c9028fcc568"},"vehicle_type_id":"4","last_reported":1758996738,"current_range_meters":16000,"station_id":"ce4bhgh2rcd13ifvqfb0","pricing_plan_id":"cebpf4jnsgd1na2vs0mg"},{"bike_id":"63627732-bdd6-46c6-b1d0-874b28dac6d4","system_id":"levelo_inurba_marseille","lat":43.32482,"lon":5.36577,"is_reserved":false,"is_disabled":false,"rental_uris":{"android":"levelo://app?vid=63627732-bdd6-46c6-b1d0-874b28dac6d4","ios":"levelo://app?vid=63627732-bdd6-46c6-b1d0-874b28dac6d4"},"vehicle_type_id":"4","last_reported":1758996738,"current_range_meters":16000,"station_id":"ce4bhs12rcd13ifvqhvg","pricing_plan_id":"cebpf4jnsgd1na2vs0mg"},{"bike_id":"65a84dae-b99f-4ae1-af6a-ed5e0f6aae4d","system_id":"levelo_inurba_marseille","lat":43.24814,"lon":5.37461,"is_reserved":false,"is_disabled":false,"rental_uris":{"android":"levelo://app?vid=65a84dae-b99f-4ae1-af6a-ed5e0f6aae4d","ios":"levelo://app?vid=65a84dae-b99f-4ae1-af6a-ed5e0f6aae4d"},"vehicle_type_id":"4","last_reported":1758996738,"current_range_meters":16000,"station_id":"ce4bhgh2rcd13ifvqfb0","pricing_plan_id":"cebpf4jnsgd1na2vs0mg"},{"bike_id":"d66cd03b-dbeb-4aa4-961e-bd97aeefe4a4","system_id":"levelo_inurba_marseille","lat":43.25931,"lon":5.41407,"is_reserved":false,"is_disabled":false,"rental_uris":{"android":"levelo://app?vid=d66cd03b-dbeb-4aa4-961e-bd97aeefe4a4","ios":"levelo://app?vid=d66cd03b-dbeb-4aa4-961e-bd97aeefe4a4"},"vehicle_type_id":"4","last_reported":1758996738,"current_range_meters":16000,"station_id":"","pricing_plan_id":"cebpf4jnsgd1na2vs0mg"},{"bike_id":"73164d02-f6e0-4465-bf05-5695ce64ad22","system_id":"levelo_inurba_marseille","lat":43.30921,"lon":5.36841,"is_reserved":false,"is_disabled":false,"rental_uris":{"android":"levelo://app?vid=73164d02-f6e0-4465-bf05-5695ce64ad22","ios":"levelo://app?vid=73164d02-f6e0-4465-bf05-5695ce64ad22"},"vehicle_type_id":"4","last_reported":1758996738,"current_range_meters":15200,"station_id":"ce4bgn92rcd13ifvqbvg","pricing_plan_id":"cebpf4jnsgd1na2vs0mg"},{"bike_id":"95bafeb0-6c7b-407a-a73b-a6569ff5cb66","system_id":"levelo_inurba_marseille","lat":43.33765,"lon":5.37472,"is_reserved":false,"is_disabled":false,"rental_uris":{"android":"levelo://app?vid=95bafeb0-6c7b-407a-a73b-a6569ff5cb66","ios":"levelo://app?vid=95bafeb0-6c7b-407a-a73b-a6569ff5cb66"},"vehicle_type_id":"4","last_reported":1758996738,"current_range_meters":16400,"station_id":"","pricing_plan_id":"cebpf4jnsgd1na2vs0mg"},{"bike_id":"75a1808b-f036-45a0-9b9e-d8442cdf8f90","system_id":"levelo_inurba_marseille","lat":43.24996,"lon":5.38956,"is_reserved":false,"is_disabled":false,"rental_uris":{"android":"levelo://app?vid=75a1808b-f036-45a0-9b9e-d8442cdf8f90","ios":"levelo://app?vid=75a1808b-f036-45a0-9b9e-d8442cdf8f90"},"vehicle_type_id":"4","last_reported":1758996738,"current_range_meters":16400,"station_id":"ce4bhgp2rcd13ifvqfd0","pricing_plan_id":"cebpf4jnsgd1na2vs0mg"},{"bike_id":"2243febf-ebaf-474b-8e3e-799410e4c867","system_id":"levelo_inurba_marseille","lat":43.32601,"lon":5.36298,"is_reserved":false,"is_disabled":false,"rental_uris":{"android":"levelo://app?vid=2243febf-ebaf-474b-8e3e-799410e4c867","ios":"levelo://app?vid=2243febf-ebaf-474b-8e3e-799410e4c867"},"vehicle_type_id":"4","last_reported":1758996738,"current_range_meters":16400,"station_id":"","pricing_plan_id":"cebpf4jnsgd1na2vs0mg"},{"bike_id":"f4c53ff4-73a4-4134-bb3f-bbf464878afb","system_id":"levelo_inurba_marseille","lat":43.21756,"lon":5.34606,"is_reserved":false,"is_disabled":true,"rental_uris":{"android":"levelo://app?vid=f4c53ff4-73a4-4134-bb3f-bbf464878afb","ios":"levelo://app?vid=f4c53ff4-73a4-4134-bb3f-bbf464878afb"},"vehicle_type_id":"4","last_reported":1758996738,"current_range_meters":16400,"station_id":"st_cvj6r9ubvosntc0bgbag","pricing_plan_id":"cebpf4jnsgd1na2vs0mg"},{"bike_id":"33ac03ed-dfbb-4aa1-aee0-f01e22e067d9","system_id":"levelo_inurba_marseille","lat":43.24625,"lon":5.43159,"is_reserved":false,"is_disabled":false,"rental_uris":{"android":"levelo://app?vid=33ac03ed-dfbb-4aa1-aee0-f01e22e067d9","ios":"levelo://app?vid=33ac03ed-dfbb-4aa1-aee0-f01e22e067d9"},"vehicle_type_id":"4","last_reported":1758996738,"current_range_meters":16400,"station_id":"st_d2m6c4gdas8pm72e190g","pricing_plan_id":"cebpf4jnsgd1na2vs0mg"},{"bike_id":"848b757d-4aaf-49f0-a8be-ad8b45ab6caa","system_id":"levelo_inurba_marseille","lat":43.28461,"lon":5.35891,"is_reserved":false,"is_disabled":false,"rental_uris":{"android":"levelo://app?vid=848b757d-4aaf-49f0-a8be-ad8b45ab6caa","ios":"levelo://app?vid=848b757d-4aaf-49f0-a8be-ad8b45ab6caa"},"vehicle_type_id":"4","last_reported":1758996738,"current_range_meters":16400,"station_id":"ce4bhah2rcd13ifvqei0","pricing_plan_id":"cebpf4jnsgd1na2vs0mg"},{"bike_id":"8ba5e33b-48f1-42b5-a531-76085f7229c8","system_id":"levelo_inurba_marseille","lat":43.24636,"lon":5.43144,"is_reserved":false,"is_disabled":false,"rental_uris":{"android":"levelo://app?vid=8ba5e33b-48f1-42b5-a531-76085f7229c8","ios":"levelo://app?vid=8ba5e33b-48f1-42b5-a531-76085f7229c8"},"vehicle_type_id":"4","last_reported":1758996738,"current_range_meters":16400,"station_id":"st_d2m6c4gdas8pm72e190g","pricing_plan_id":"cebpf4jnsgd1na2vs0mg"},{"bike_id":"c081d6ac-5788-49e0-94f1-f96219519e58","system_id":"levelo_inurba_marseille","lat":43.24657,"lon":5.3888,"is_reserved":false,"is_disabled":false,"rental_uris":{"android":"levelo://app?vid=c081d6ac-5788-49e0-94f1-f96219519e58","ios":"levelo://app?vid=c081d6ac-5788-49e0-94f1-f96219519e58"},"vehicle_type_id":"4","last_reported":1758996738,"current_range_meters":16400,"station_id":"ce4bhg12rcd13ifvqf60","pricing_plan_id":"cebpf4jnsgd1na2vs0mg"},{"bike_id":"d434bd43-bbed-45a8-8065-d21972d91604","system_id":"levelo_inurba_marseille","lat":43.31367,"lon":5.38498,"is_reserved":false,"is_disabled":false,"rental_uris":{"android":"levelo://app?vid=d434bd43-bbed-45a8-8065-d21972d91604","ios":"levelo://app?vid=d434bd43-bbed-45a8-8065-d21972d91604"},"vehicle_type_id":"4","last_reported":1758996738,"current_range_meters":16400,"station_id":"ce4bgt92rcd13ifvqcf0","pricing_plan_id":"cebpf4jnsgd1na2vs0mg"},{"bike_id":"bcb15b9d-5025-4e59-b866-67f2a247a6d8","system_id":"levelo_inurba_marseille","lat":43.2959,"lon":5.38109,"is_reserved":false,"is_disabled":false,"rental_uris":{"android":"levelo://app?vid=bcb15b9d-5025-4e59-b866-67f2a247a6d8","ios":"levelo://app?vid=bcb15b9d-5025-4e59-b866-67f2a247a6d8"},