{"last_updated":1745206465,"ttl":60,"version":"2.2","data":{"bikes":[{"bike_id":"59b8a710-c124-451a-a8fb-8229b190174f","system_id":"levelo_inurba_marseille","lat":43.24165,"lon":5.36403,"is_reserved":false,"is_disabled":true,"rental_uris":{"android":"levelo://app?vid=59b8a710-c124-451a-a8fb-8229b190174f","ios":"levelo://app?vid=59b8a710-c124-451a-a8fb-8229b190174f"},"vehicle_type_id":"4","last_reported":1745206465,"current_range_meters":2800,"station_id":"cpo36qri1sfpv3e86is0","pricing_plan_id":"cebpf4jnsgd1na2vs0mg"},{"bike_id":"8a1dde72-6b8d-4113-a8d9-29ea6b05ede2","system_id":"levelo_inurba_marseille","lat":43.29268,"lon":5.38192,"is_reserved":false,"is_disabled":false,"rental_uris":{"android":"levelo://app?vid=8a1dde72-6b8d-4113-a8d9-29ea6b05ede2","ios":"levelo://app?vid=8a1dde72-6b8d-4113-a8d9-29ea6b05ede2"},"vehicle_type_id":"4","last_reported":1745206465,"current_range_meters":3200,"station_id":"","pricing_plan_id":"cebpf4jnsgd1na2vs0mg"},{"bike_id":"d2ba4413-c35f-41b1-8baf-f83e6001a359","system_id":"levelo_inurba_marseille","lat":43.290251,"lon":5.38644,"is_reserved":false,"is_disabled":true,"rental_uris":{"android":"levelo://app?vid=d2ba4413-c35f-41b1-8baf-f83e6001a359","ios":"levelo://app?vid=d2ba4413-c35f-41b1-8baf-f83e6001a359"},"vehicle_type_id":"4","last_reported":1745206465,"current_range_meters":3200,"station_id":"ce4bh4p2rcd13ifvqe0g","pricing_plan_id":"cebpf4jnsgd1na2vs0mg"},{"bike_id":"220ab7fa-a81f-4a51-805c-3d4feeb64942","system_id":"levelo_inurba_marseille","lat":43.286937,"lon":5.373964,"is_reserved":false,"is_disabled":true,"rental_uris":{"android":"levelo://app?vid=220ab7fa-a81f-4a51-805c-3d4feeb64942","ios":"levelo://app?vid=220ab7fa-a81f-4a51-805c-3d4feeb64942"},"vehicle_type_id":"4","last_reported":1745206465,"current_range_meters":3200,"station_id":"ce4bh3p2rcd13ifvqdq0","pricing_plan_id":"cebpf4jnsgd1na2vs0mg"},{"bike_id":"db0f8317-b82a-46f0-96bf-2bb2259a2f2b","system_id":"levelo_inurba_marseille","lat":43.28476,"lon":5.38582,"is_reserved":false,"is_disabled":false,"rental_uris":{"android":"levelo://app?vid=db0f8317-b82a-46f0-96bf-2bb2259a2f2b","ios":"levelo://app?vid=db0f8317-b82a-46f0-96bf-2bb2259a2f2b"},"vehicle_type_id":"4","last_reported":1745206465,"current_range_meters":3600,"station_id":"ce4bh8p2rcd13ifvqeb0","pricing_plan_id":"cebpf4jnsgd1na2vs0mg"},{"bike_id":"186380b9-3dab-457b-b648-71d123fa0368","system_id":"levelo_inurba_marseille","lat":43.25094,"lon":5.40352,"is_reserved":false,"is_disabled":true,"rental_uris":{"android":"levelo://app?vid=186380b9-3dab-457b-b648-71d123fa0368","ios":"levelo://app?vid=186380b9-3dab-457b-b648-71d123fa0368"},"vehicle_type_id":"4","last_reported":1745206465,"current_range_meters":3600,"station_id":"ce4bhlh2rcd13ifvqgig","pricing_plan_id":"cebpf4jnsgd1na2vs0mg"},{"bike_id":"a389d44e-88d6-4373-942c-6121d426ebb1","system_id":"levelo_inurba_marseille","lat":43.312355,"lon":5.402375,"is_reserved":false,"is_disabled":false,"rental_uris":{"android":"levelo://app?vid=a389d44e-88d6-4373-942c-6121d426ebb1","ios":"levelo://app?vid=a389d44e-88d6-4373-942c-6121d426ebb1"},"vehicle_type_id":"4","last_reported":1745206465,"current_range_meters":3600,"station_id":"","pricing_plan_id":"cebpf4jnsgd1na2vs0mg"},{"bike_id":"564fb40e-5fad-4e99-b12d-f5030eebc05e","system_id":"levelo_inurba_marseille","lat":43.265472,"lon":5.372858,"is_reserved":false,"is_disabled":true,"rental_uris":{"android":"levelo://app?vid=564fb40e-5fad-4e99-b12d-f5030eebc05e","ios":"levelo://app?vid=564fb40e-5fad-4e99-b12d-f5030eebc05e"},"vehicle_type_id":"4","last_reported":1745206465,"current_range_meters":3600,"station_id":"ce4bhap2rcd13ifvqek0","pricing_plan_id":"cebpf4jnsgd1na2vs0mg"},{"bike_id":"0d21f9f9-922e-4003-8dc4-8224af9ef712","system_id":"levelo_inurba_marseille","lat":43.3258,"lon":5.35875,"is_reserved":false,"is_disabled":true,"rental_uris":{"android":"levelo://app?vid=0d21f9f9-922e-4003-8dc4-8224af9ef712","ios":"levelo://app?vid=0d21f9f9-922e-4003-8dc4-8224af9ef712"},"vehicle_type_id":"4","last_reported":1745206465,"current_range_meters":4000,"station_id":"","pricing_plan_id":"cebpf4jnsgd1na2vs0mg"},{"bike_id":"a4f53f83-a203-4112-88cd-432220291605","system_id":"levelo_inurba_marseille","lat":43.28434,"lon":5.35,"is_reserved":false,"is_disabled":true,"rental_uris":{"android":"levelo://app?vid=a4f53f83-a203-4112-88cd-432220291605","ios":"levelo://app?vid=a4f53f83-a203-4112-88cd-432220291605"},"vehicle_type_id":"4","last_reported":1745206465,"current_range_meters":4000,"station_id":"ce4bhbh2rcd13ifvqepg","pricing_plan_id":"cebpf4jnsgd1na2vs0mg"},{"bike_id":"46823f52-b3ef-4ae1-acb9-1fbb1a724f7e","system_id":"levelo_inurba_marseille","lat":43.255033,"lon":5.376455,"is_reserved":false,"is_disabled":true,"rental_uris":{"android":"levelo://app?vid=46823f52-b3ef-4ae1-acb9-1fbb1a724f7e","ios":"levelo://app?vid=46823f52-b3ef-4ae1-acb9-1fbb1a724f7e"},"vehicle_type_id":"4","last_reported":1745206465,"current_range_meters":4400,"station_id":"ce4bhh12rcd13ifvqff0","pricing_plan_id":"cebpf4jnsgd1na2vs0mg"},{"bike_id":"1b4a8f9d-2faa-464e-b7a7-813f9c13d848","system_id":"levelo_inurba_marseille","lat":43.24167,"lon":5.36405,"is_reserved":false,"is_disabled":false,"rental_uris":{"android":"levelo://app?vid=1b4a8f9d-2faa-464e-b7a7-813f9c13d848","ios":"levelo://app?vid=1b4a8f9d-2faa-464e-b7a7-813f9c13d848"},"vehicle_type_id":"4","last_reported":1745206465,"current_range_meters":4400,"station_id":"cpo36qri1sfpv3e86is0","pricing_plan_id":"cebpf4jnsgd1na2vs0mg"},{"bike_id":"4e2d7459-c30f-4125-8783-49ae2904310d","system_id":"levelo_inurba_marseille","lat":43.29197,"lon":5.39347,"is_reserved":false,"is_disabled":false,"rental_uris":{"android":"levelo://app?vid=4e2d7459-c30f-4125-8783-49ae2904310d","ios":"levelo://app?vid=4e2d7459-c30f-4125-8783-49ae2904310d"},"vehicle_type_id":"4","last_reported":1745206465,"current_range_meters":4800,"station_id":"ce4bh192rcd13ifvqdd0","pricing_plan_id":"cebpf4jnsgd1na2vs0mg"},{"bike_id":"cab2913d-112b-4af9-b813-75822817a414","system_id":"levelo_inurba_marseille","lat":43.27971,"lon":5.38753,"is_reserved":false,"is_disabled":false,"rental_uris":{"android":"levelo://app?vid=cab2913d-112b-4af9-b813-75822817a414","ios":"levelo://app?vid=cab2913d-112b-4af9-b813-75822817a414"},"vehicle_type_id":"4","last_reported":1745206465,"current_range_meters":4800,"station_id":"ce4bhg12rcd13ifvqf80","pricing_plan_id":"cebpf4jnsgd1na2vs0mg"},{"bike_id":"1965f819-3778-4654-96e5-aaaf9c36cc08","system_id":"levelo_inurba_marseille","lat":43.303726,"lon":5.424813,"is_reserved":false,"is_disabled":true,"rental_uris":{"android":"levelo://app?vid=1965f819-3778-4654-96e5-aaaf9c36cc08","ios":"levelo://app?vid=1965f819-3778-4654-96e5-aaaf9c36cc08"},"vehicle_type_id":"4","last_reported":1745206465,"current_range_meters":4800,"station_id":"ce4bhoh2rcd13ifvqh6g","pricing_plan_id":"cebpf4jnsgd1na2vs0mg"},{"bike_id":"0dd13644-e942-427d-9540-f17eaef6dd89","system_id":"levelo_inurba_marseille","lat":43.270124,"lon":5.387935,"is_reserved":false,"is_disabled":true,"rental_uris":{"android":"levelo://app?vid=0dd13644-e942-427d-9540-f17eaef6dd89","ios":"levelo://app?vid=0dd13644-e942-427d-9540-f17eaef6dd89"},"vehicle_type_id":"4","last_reported":1745206465,"current_range_meters":6000,"station_id":"","pricing_plan_id":"cebpf4jnsgd1na2vs0mg"},{"bike_id":"8dcdbddf-c32e-4b31-8e8c-b20dbb5dcd33","system_id":"levelo_inurba_marseille","lat":43.27942,"lon":5.41063,"is_reserved":false,"is_disabled":false,"rental_uris":{"android":"levelo://app?vid=8dcdbddf-c32e-4b31-8e8c-b20dbb5dcd33","ios":"levelo://app?vid=8dcdbddf-c32e-4b31-8e8c-b20dbb5dcd33"},"vehicle_type_id":"4","last_reported":1745206465,"current_range_meters":6000,"station_id":"ce4bhnp2rcd13ifvqh0g","pricing_plan_id":"cebpf4jnsgd1na2vs0mg"},{"bike_id":"2d46f81e-bf83-4416-bba9-7e11b13652fc","system_id":"levelo_inurba_marseille","lat":43.301378,"lon":5.374094,"is_reserved":false,"is_disabled":true,"rental_uris":{"android":"levelo://app?vid=2d46f81e-bf83-4416-bba9-7e11b13652fc","ios":"levelo://app?vid=2d46f81e-bf83-4416-bba9-7e11b13652fc"},"vehicle_type_id":"4","last_reported":1745206465,"current_range_meters":6000,"station_id":"ce4bgs92rcd13ifvqcc0","pricing_plan_id":"cebpf4jnsgd1na2vs0mg"},{"bike_id":"c7bcb425-6a3e-46d0-9451-728e5831e9b4","system_id":"levelo_inurba_marseille","lat":43.26684,"lon":5.382706,"is_reserved":false,"is_disabled":false,"rental_uris":{"android":"levelo://app?vid=c7bcb425-6a3e-46d0-9451-728e5831e9b4","ios":"levelo://app?vid=c7bcb425-6a3e-46d0-9451-728e5831e9b4"},"vehicle_type_id":"4","last_reported":1745206465,"current_range_meters":6400,"station_id":"ce4bhg92rcd13ifvqf90","pricing_plan_id":"cebpf4jnsgd1na2vs0mg"},{"bike_id":"24213b37-b766-4d9c-a174-f6bf34920497","system_id":"levelo_inurba_marseille","lat":43.28469,"lon":5.384178,"is_reserved":false,"is_disabled":false,"rental_uris":{"android":"levelo://app?vid=24213b37-b766-4d9c-a174-f6bf34920497","ios":"levelo://app?vid=24213b37-b766-4d9c-a174-f6bf34920497"},"vehicle_type_id":"4","last_reported":1745206465,"current_range_meters":6400,"station_id":"ce4bh512rcd13ifvqe3g","pricing_plan_id":"cebpf4jnsgd1na2vs0mg"},{"bike_id":"94652236-4ef1-43be-ab0a-0a1df88e0ac9","system_id":"levelo_inurba_marseille","lat":43.30928,"lon":5.40149,"is_reserved":false,"is_disabled":false,"rental_uris":{"android":"levelo://app?vid=94652236-4ef1-43be-ab0a-0a1df88e0ac9","ios":"levelo://app?vid=94652236-4ef1-43be-ab0a-0a1df88e0ac9"},"vehicle_type_id":"4","last_reported":1745206465,"current_range_meters":6400,"station_id":"","pricing_plan_id":"cebpf4jnsgd1na2vs0mg"},{"bike_id":"6565ca44-2e63-4f42-a847-09fa2bdb37f3","system_id":"levelo_inurba_marseille","lat":43.319895,"lon":5.381488,"is_reserved":false,"is_disabled":true,"rental_uris":{"android":"levelo://app?vid=6565ca44-2e63-4f42-a847-09fa2bdb37f3","ios":"levelo://app?vid=6565ca44-2e63-4f42-a847-09fa2bdb37f3"},"vehicle_type_id":"4","last_reported":1745206465,"current_range_meters":6400,"station_id":"ce4bhr12rcd13ifvqhpg","pricing_plan_id":"cebpf4jnsgd1na2vs0mg"},{"bike_id":"2ba8c5c4-f0af-4f23-add7-feee032d7669","system_id":"levelo_inurba_marseille","lat":43.28266,"lon":5.3508,"is_reserved":false,"is_disabled":false,"rental_uris":{"android":"levelo://app?vid=2ba8c5c4-f0af-4f23-add7-feee032d7669","ios":"levelo://app?vid=2ba8c5c4-f0af-4f23-add7-feee032d7669"},"vehicle_type_id":"4","last_reported":1745206465,"current_range_meters":6400,"station_id":"ce4bhbp2rcd13ifvqerg","pricing_plan_id":"cebpf4jnsgd1na2vs0mg"},{"bike_id":"138d6608-886e-4863-a664-7df6e5cc9a47","system_id":"levelo_inurba_marseille","lat":43.326444,"lon":5.421952,"is_reserved":false,"is_disabled":false,"rental_uris":{"android":"levelo://app?vid=138d6608-886e-4863-a664-7df6e5cc9a47","ios":"levelo://app?vid=138d6608-886e-4863-a664-7df6e5cc9a47"},"vehicle_type_id":"4","last_reported":1745206465,"current_range_meters":6400,"station_id":"","pricing_plan_id":"cebpf4jnsgd1na2vs0mg"},{"bike_id":"c1cf7e7e-3484-4493-be00-fedbf732cf36","system_id":"levelo_inurba_marseille","lat":43.31496,"lon":5.37313,"is_reserved":false,"is_disabled":false,"rental_uris":{"android":"levelo://app?vid=c1cf7e7e-3484-4493-be00-fedbf732cf36","ios":"levelo://app?vid=c1cf7e7e-3484-4493-be00-fedbf732cf36"},"vehicle_type_id":"4","last_reported":1745206465,"current_range_meters":6800,"station_id":"ce4bgt12rcd13ifvqcd0","pricing_plan_id":"cebpf4jnsgd1na2vs0mg"},{"bike_id":"cb1906e0-eddc-4a43-b28c-29be8c0aa51a","system_id":"levelo_inurba_marseille","lat":43.27492,"lon":5.42459,"is_reserved":false,"is_disabled":true,"rental_uris":{"android":"levelo://app?vid=cb1906e0-eddc-4a43-b28c-29be8c0aa51a","ios":"levelo://app?vid=cb1906e0-eddc-4a43-b28c-29be8c0aa51a"},"vehicle_type_id":"4","last_reported":1745206465,"current_range_meters":6800,"station_id":"ce4bhn92rcd13ifvqgrg","pricing_plan_id":"cebpf4jnsgd1na2vs0mg"},{"bike_id":"ab9be9a2-b412-4e12-b774-0ac14e1c75f2","system_id":"levelo_inurba_marseille","lat":43.231976,"lon":5.355504,"is_reserved":false,"is_disabled":false,"rental_uris":{"android":"levelo://app?vid=ab9be9a2-b412-4e12-b774-0ac14e1c75f2","ios":"levelo://app?vid=ab9be9a2-b412-4e12-b774-0ac14e1c75f2"},"vehicle_type_id":"4","last_reported":1745206465,"current_range_meters":6800,"station_id":"ce4bhu92rcd13ifvqi70","pricing_plan_id":"cebpf4jnsgd1na2vs0mg"},{"bike_id":"bc29e8db-1593-4f92-b3c6-80fbe7dce44f","system_id":"levelo_inurba_marseille","lat":43.30329,"lon":5.40441,"is_reserved":false,"is_disabled":false,"rental_uris":{"android":"levelo://app?vid=bc29e8db-1593-4f92-b3c6-80fbe7dce44f","ios":"levelo://app?vid=bc29e8db-1593-4f92-b3c6-80fbe7dce44f"},"vehicle_type_id":"4","last_reported":1745206465,"current_range_meters":6800,"station_id":"ce4bh012rcd13ifvqd10","pricing_plan_id":"cebpf4jnsgd1na2vs0mg"},{"bike_id":"4be6b500-ad98-466b-9e90-b4db29b8f640","system_id":"levelo_inurba_marseille","lat":43.286178,"lon":5.351038,"is_reserved":false,"is_disabled":false,"rental_uris":{"android":"levelo://app?vid=4be6b500-ad98-466b-9e90-b4db29b8f640","ios":"levelo://app?vid=4be6b500-ad98-466b-9e90-b4db29b8f640"},"vehicle_type_id":"4","last_reported":1745206465,"current_range_meters":6800,"station_id":"ce4bhch2rcd13ifvqeug","pricing_plan_id":"cebpf4jnsgd1na2vs0mg"},{"bike_id":"f8059ee8-c2fd-402d-9ca9-74b6142b491f","system_id":"levelo_inurba_marseille","lat":43.30544,"lon":5.38451,"is_reserved":false,"is_disabled":false,"rental_uris":{"android":"levelo://app?vid=f8059ee8-c2fd-402d-9ca9-74b6142b491f","ios":"levelo://app?vid=f8059ee8-c2fd-402d-9ca9-74b6142b491f"},"vehicle_type_id":"4","last_reported":1745206465,"current_range_meters":6800,"station_id":"ce4bgg92rcd13ifvqb30","pricing_plan_id":"cebpf4jnsgd1na2vs0mg"},{"bike_id":"f0b6af0d-1cbf-47a3-af07-dab09fabbbf0","system_id":"levelo_inurba_marseille","lat":43.231925,"lon":5.35553,"is_reserved":false,"is_disabled":false,"rental_uris":{"android":"levelo://app?vid=f0b6af0d-1cbf-47a3-af07-dab09fabbbf0","ios":"levelo://app?vid=f0b6af0d-1cbf-47a3-af07-dab09fabbbf0"},"vehicle_type_id":"4","last_reported":1745206465,"current_range_meters":6800,"station_id":"ce4bhu92rcd13ifvqi70","pricing_plan_id":"cebpf4jnsgd1na2vs0mg"},{"bike_id":"868b379d-e27f-4516-8288-d0bec557660c","system_id":"levelo_inurba_marseille","lat":43.30625,"lon":5.38117,"is_reserved":false,"is_disabled":false,"rental_uris":{"android":"levelo://app?vid=868b379d-e27f-4516-8288-d0bec557660c","ios":"levelo://app?vid=868b379d-e27f-4516-8288-d0bec557660c"},"vehicle_type_id":"4","last_reported":1745206465,"current_range_meters":6800,"station_id":"","pricing_plan_id":"cebpf4jnsgd1na2vs0mg"},{"bike_id":"7afeef51-2056-4d06-b296-c2c124d55600","system_id":"levelo_inurba_marseille","lat":43.31724,"lon":5.42378,"is_reserved":false,"is_disabled":false,"rental_uris":{"android":"levelo://app?vid=7afeef51-2056-4d06-b296-c2c124d55600","ios":"levelo://app?vid=7afeef51-2056-4d06-b296-c2c124d55600"},"vehicle_type_id":"4","last_reported":1745206465,"current_range_meters":6800,"station_id":"ce4bhp92rcd13ifvqhbg","pricing_plan_id":"cebpf4jnsgd1na2vs0mg"},{"bike_id":"97e50bb0-9a70-481b-b370-e509345e710a","system_id":"levelo_inurba_marseille","lat":43.280395,"lon":5.369339,"is_reserved":false,"is_disabled":true,"rental_uris":{"android":"levelo://app?vid=97e50bb0-9a70-481b-b370-e509345e710a","ios":"levelo://app?vid=97e50bb0-9a70-481b-b370-e509345e710a"},"vehicle_type_id":"4","last_reported":1745206465,"current_range_meters":7200,"station_id":"ce4bha12rcd13ifvqef0","pricing_plan_id":"cebpf4jnsgd1na2vs0mg"},{"bike_id":"9810eab0-14d5-401c-ae8f-b57e44462930","system_id":"levelo_inurba_marseille","lat":43.231842,"lon":5.399895,"is_reserved":false,"is_disabled":false,"rental_uris":{"android":"levelo://app?vid=9810eab0-14d5-401c-ae8f-b57e44462930","ios":"levelo://app?vid=9810eab0-14d5-401c-ae8f-b57e44462930"},"vehicle_type_id":"4","last_reported":1745206465,"current_range_meters":7200,"station_id":"ce4bhn12rcd13ifvqgqg","pricing_plan_id":"cebpf4jnsgd1na2vs0mg"},{"bike_id":"dc901913-7038-4881-86f2-f816646eb17a","system_id":"levelo_inurba_marseille","lat":43.2455,"lon":5.39537,"is_reserved":false,"is_disabled":false,"rental_uris":{"android":"levelo://app?vid=dc901913-7038-4881-86f2-f816646eb17a","ios":"levelo://app?vid=dc901913-7038-4881-86f2-f816646eb17a"},"vehicle_type_id":"4","last_reported":1745206465,"current_range_meters":7200,"station_id":"ce4bhlp2rcd13ifvqgjg","pricing_plan_id":"cebpf4jnsgd1na2vs0mg"},{"bike_id":"6d09687a-d0da-4565-9b89-d3373ada8a47","system_id":"levelo_inurba_marseille","lat":43.30793,"lon":5.3766,"is_reserved":false,"is_disabled":false,"rental_uris":{"android":"levelo://app?vid=6d09687a-d0da-4565-9b89-d3373ada8a47","ios":"levelo://app?vid=6d09687a-d0da-4565-9b89-d3373ada8a47"},"vehicle_type_id":"4","last_reported":1745206465,"current_range_meters":7200,"station_id":"ce4bgv92rcd13ifvqcq0","pricing_plan_id":"cebpf4jnsgd1na2vs0mg"},{"bike_id":"1b64a06c-8c3f-4044-b435-0c5447524fd5","system_id":"levelo_inurba_marseille","lat":43.28697,"lon":5.373931,"is_reserved":false,"is_disabled":true,"rental_uris":{"android":"levelo://app?vid=1b64a06c-8c3f-4044-b435-0c5447524fd5","ios":"levelo://app?vid=1b64a06c-8c3f-4044-b435-0c5447524fd5"},"vehicle_type_id":"4","last_reported":1745206465,"current_range_meters":7200,"station_id":"ce4bh3p2rcd13ifvqdq0","pricing_plan_id":"cebpf4jnsgd1na2vs0mg"},{"bike_id":"b157dc81-51c5-45f3-a677-9e9c3cf6283b","system_id":"levelo_inurba_marseille","lat":43.30831,"lon":5.371118,"is_reserved":false,"is_disabled":false,"rental_uris":{"android":"levelo://app?vid=b157dc81-51c5-45f3-a677-9e9c3cf6283b","ios":"levelo://app?vid=b157dc81-51c5-45f3-a677-9e9c3cf6283b"},"vehicle_type_id":"4","last_reported":1745206465,"current_range_meters":7200,"station_id":"","pricing_plan_id":"cebpf4jnsgd1na2vs0mg"},{"bike_id":"a969d1ed-77d3-4189-b5a7-0bf8cf90d349","system_id":"levelo_inurba_marseille","lat":43.231927,"lon":5.35551,"is_reserved":false,"is_disabled":false,"rental_uris":{"android":"levelo://app?vid=a969d1ed-77d3-4189-b5a7-0bf8cf90d349","ios":"levelo://app?vid=a969d1ed-77d3-4189-b5a7-0bf8cf90d349"},"vehicle_type_id":"4","last_reported":1745206465,"current_range_meters":7200,"station_id":"ce4bhu92rcd13ifvqi70","pricing_plan_id":"cebpf4jnsgd1na2vs0mg"},{"bike_id":"d0395819-ea40-46d3-acfe-3a01d6c396c0","system_id":"levelo_inurba_marseille","lat":43.231945,"lon":5.399945,"is_reserved":false,"is_disabled":true,"rental_uris":{"android":"levelo://app?vid=d0395819-ea40-46d3-acfe-3a01d6c396c0","ios":"levelo://app?vid=d0395819-ea40-46d3-acfe-3a01d6c396c0"},"vehicle_type_id":"4","last_reported":1745206465,"current_range_meters":7200,"station_id":"ce4bhn12rcd13ifvqgqg","pricing_plan_id":"cebpf4jnsgd1na2vs0mg"},{"bike_id":"4e6892ef-dbe3-43e4-bc69-b2da5d802c90","system_id":"levelo_inurba_marseille","lat":43.27378,"lon":5.36252,"is_reserved":false,"is_disabled":true,"rental_uris":{"android":"levelo://app?vid=4e6892ef-dbe3-43e4-bc69-b2da5d802c90","ios":"levelo://app?vid=4e6892ef-dbe3-43e4-bc69-b2da5d802c90"},"vehicle_type_id":"4","last_reported":1745206465,"current_range_meters":8000,"station_id":"ce4bhbh2rcd13ifvqeo0","pricing_plan_id":"cebpf4jnsgd1na2vs0mg"},{"bike_id":"527fac75-0783-4b2c-bd4e-07f2f2fee902","system_id":"levelo_inurba_marseille","lat":43.31124,"lon":5.37815,"is_reserved":false,"is_disabled":true,"rental_uris":{"android":"levelo://app?vid=527fac75-0783-4b2c-bd4e-07f2f2fee902","ios":"levelo://app?vid=527fac75-0783-4b2c-bd4e-07f2f2fee902"},"vehicle_type_id":"4","last_reported":1745206465,"current_range_meters":8000,"station_id":"ce4bgt92rcd13ifvqcg0","pricing_plan_id":"cebpf4jnsgd1na2vs0mg"},{"bike_id":"cb9127a5-76f8-4cfa-9e72-3f333449e26a","system_id":"levelo_inurba_marseille","lat":43.27941,"lon":5.41039,"is_reserved":false,"is_disabled":false,"rental_uris":{"android":"levelo://app?vid=cb9127a5-76f8-4cfa-9e72-3f333449e26a","ios":"levelo://app?vid=cb9127a5-76f8-4cfa-9e72-3f333449e26a"},"vehicle_type_id":"4","last_reported":1745206465,"current_range_meters":8400,"station_id":"ce4bhnp2rcd13ifvqh0g","pricing_plan_id":"cebpf4jnsgd1na2vs0mg"},{"bike_id":"dbcb3890-93e8-4d00-ad8f-8f065bfebff0","system_id":"levelo_inurba_marseille","lat":43.295958,"lon":5.381169,"is_reserved":false,"is_disabled":true,"rental_uris":{"android":"levelo://app?vid=dbcb3890-93e8-4d00-ad8f-8f065bfebff0","ios":"levelo://app?vid=dbcb3890-93e8-4d00-ad8f-8f065bfebff0"},"vehicle_type_id":"4","last_reported":1745206465,"current_range_meters":8400,"station_id":"ce4bgl12rcd13ifvqbo0","pricing_plan_id":"cebpf4jnsgd1na2vs0mg"},{"bike_id":"a360f0f1-2725-4615-9b2f-399546db3eef","system_id":"levelo_inurba_marseille","lat":43.26484,"lon":5.39573,"is_reserved":false,"is_disabled":false,"rental_uris":{"android":"levelo://app?vid=a360f0f1-2725-4615-9b2f-399546db3eef","ios":"levelo://app?vid=a360f0f1-2725-4615-9b2f-399546db3eef"},"vehicle_type_id":"4","last_reported":1745206465,"current_range_meters":8400,"station_id":"ce4bhi12rcd13ifvqfq0","pricing_plan_id":"cebpf4jnsgd1na2vs0mg"},{"bike_id":"1886fb80-2895-40f7-844d-7933f5d904dc","system_id":"levelo_inurba_marseille","lat":43.27889,"lon":5.39318,"is_reserved":false,"is_disabled":false,"rental_uris":{"android":"levelo://app?vid=1886fb80-2895-40f7-844d-7933f5d904dc","ios":"levelo://app?vid=1886fb80-2895-40f7-844d-7933f5d904dc"},"vehicle_type_id":"4","last_reported":1745206465,"current_range_meters":8400,"station_id":"","pricing_plan_id":"cebpf4jnsgd1na2vs0mg"},{"bike_id":"3962bca2-84e6-4d12-9870-621608bdc278","system_id":"levelo_inurba_marseille","lat":43.23186,"lon":5.40003,"is_reserved":false,"is_disabled":false,"rental_uris":{"android":"levelo://app?vid=3962bca2-84e6-4d12-9870-621608bdc278","ios":"levelo://app?vid=3962bca2-84e6-4d12-9870-621608bdc278"},"vehicle_type_id":"4","last_reported":1745206465,"current_range_meters":8400,"station_id":"ce4bhn12rcd13ifvqgqg","pricing_plan_id":"cebpf4jnsgd1na2vs0mg"},{"bike_id":"fa22f285-c123-45a4-984d-fec5c2b43250","system_id":"levelo_inurba_marseille","lat":43.25113,"lon":5.40321,"is_reserved":false,"is_disabled":false,"rental_uris":{"android":"levelo://app?vid=fa22f285-c123-45a4-984d-fec5c2b43250","ios":"levelo://app?vid=fa22f285-c123-45a4-984d-fec5c2b43250"},"vehicle_type_id":"4","last_reported":1745206465,"current_range_meters":8400,"station_id":"ce4bhlh2rcd13ifvqgig","pricing_plan_id":"cebpf4jnsgd1na2vs0mg"},{"bike_id":"7cf53429-4a2c-4481-8452-358eaf8e4193","system_id":"levelo_inurba_marseille","lat":43.30905,"lon":5.39609,"is_reserved":false,"is_disabled":false,"rental_uris":{"android":"levelo://app?vid=7cf53429-4a2c-4481-8452-358eaf8e4193","ios":"levelo://app?vid=7cf53429-4a2c-4481-8452-358eaf8e4193"},"vehicle_type_id":"4","last_reported":1745206465,"current_range_meters":8800,"station_id":"ce4bh012rcd13ifvqcv0","pricing_plan_id":"cebpf4jnsgd1na2vs0mg"},{"bike_id":"6276c712-dc71-4137-9a44-e63299fa20b2","system_id":"levelo_inurba_marseille","lat":43.327149,"lon":5.359094,"is_reserved":false,"is_disabled":false,"rental_uris":{"android":"levelo://app?vid=6276c712-dc71-4137-9a44-e63299fa20b2","ios":"levelo://app?vid=6276c712-dc71-4137-9a44-e63299fa20b2"},"vehicle_type_id":"4","last_reported":1745206465,"current_range_meters":8800,"station_id":"","pricing_plan_id":"cebpf4jnsgd1na2vs0mg"},{"bike_id":"d8754dce-3ce6-4f68-ba47-f64cfc8b26ab","system_id":"levelo_inurba_marseille","lat":43.23191,"lon":5.35577,"is_reserved":false,"is_disabled":false,"rental_uris":{"android":"levelo://app?vid=d8754dce-3ce6-4f68-ba47-f64cfc8b26ab","ios":"levelo://app?vid=d8754dce-3ce6-4f68-ba47-f64cfc8b26ab"},"vehicle_type_id":"4","last_reported":1745206465,"current_range_meters":8800,"station_id":"ce4bhu92rcd13ifvqi70","pricing_plan_id":"cebpf4jnsgd1na2vs0mg"},{"bike_id":"ddf08875-1592-475b-ae64-af5865607585","system_id":"levelo_inurba_marseille","lat":43.304138,"lon":5.412885,"is_reserved":false,"is_disabled":false,"rental_uris":{"android":"levelo://app?vid=ddf08875-1592-475b-ae64-af5865607585","ios":"levelo://app?vid=ddf08875-1592-475b-ae64-af5865607585"},"vehicle_type_id":"4","last_reported":1745206465,"current_range_meters":8800,"station_id":"ce4bhop2rcd13ifvqh8g","pricing_plan_id":"cebpf4jnsgd1na2vs0mg"},{"bike_id":"575ecb3d-9a37-407e-bd15-e9b0ede0cfdd","system_id":"levelo_inurba_marseille","lat":43.29276,"lon":5.40168,"is_reserved":false,"is_disabled":false,"rental_uris":{"android":"levelo://app?vid=575ecb3d-9a37-407e-bd15-e9b0ede0cfdd","ios":"levelo://app?vid=575ecb3d-9a37-407e-bd15-e9b0ede0cfdd"},"vehicle_type_id":"4","last_reported":1745206465,"current_range_meters":8800,"station_id":"ce4bh312rcd13ifvqdk0","pricing_plan_id":"cebpf4jnsgd1na2vs0mg"},{"bike_id":"ebd74a14-798c-47e0-90bb-1b11f085832c","system_id":"levelo_inurba_marseille","lat":43.29191,"lon":5.39319,"is_reserved":false,"is_disabled":false,"rental_uris":{"android":"levelo://app?vid=ebd74a14-798c-47e0-90bb-1b11f085832c","ios":"levelo://app?vid=ebd74a14-798c-47e0-90bb-1b11f085832c"},"vehicle_type_id":"4","last_reported":1745206465,"current_range_meters":8800,"station_id":"ce4bh192rcd13ifvqdd0","pricing_plan_id":"cebpf4jnsgd1na2vs0mg"},{"bike_id":"4e0feb4b-9af5-4c5c-a215-eabded87c4f9","system_id":"levelo_inurba_marseille","lat":43.231949,"lon":5.355484,"is_reserved":false,"is_disabled":false,"rental_uris":{"android":"levelo://app?vid=4e0feb4b-9af5-4c5c-a215-eabded87c4f9","ios":"levelo://app?vid=4e0feb4b-9af5-4c5c-a215-eabded87c4f9"},"vehicle_type_id":"4","last_reported":1745206465,"current_range_meters":8800,"station_id":"ce4bhu92rcd13ifvqi70","pricing_plan_id":"cebpf4jnsgd1na2vs0mg"},{"bike_id":"3838833b-4bc6-4cd3-aec4-b4c8b8738953","system_id":"levelo_inurba_marseille","lat":43.31315,"lon":5.38662,"is_reserved":false,"is_disabled":false,"rental_uris":{"android":"levelo://app?vid=3838833b-4bc6-4cd3-aec4-b4c8b8738953","ios":"levelo://app?vid=3838833b-4bc6-4cd3-aec4-b4c8b8738953"},"vehicle_type_id":"4","last_reported":1745206465,"current_range_meters":8800,"station_id":"","pricing_plan_id":"cebpf4jnsgd1na2vs0mg"},{"bike_id":"d5ef647d-00ca-43ce-8de2-a9826ded3f15","system_id":"levelo_inurba_marseille","lat":43.21196,"lon":5.35106,"is_reserved":false,"is_disabled":false,"rental_uris":{"android":"levelo://app?vid=d5ef647d-00ca-43ce-8de2-a9826ded3f15","ios":"levelo://app?vid=d5ef647d-00ca-43ce-8de2-a9826ded3f15"},"vehicle_type_id":"4","last_reported":1745206465,"current_range_meters":8800,"station_id":"st_cvj6sg6p6f1abm77japg","pricing_plan_id":"cebpf4jnsgd1na2vs0mg"},{"bike_id":"d177bdcb-ba4d-4c2e-8899-f6b0f9af395c","system_id":"levelo_inurba_marseille","lat":43.25944,"lon":5.40898,"is_reserved":false,"is_disabled":false,"rental_uris":{"android":"levelo://app?vid=d177bdcb-ba4d-4c2e-8899-f6b0f9af395c","ios":"levelo://app?vid=d177bdcb-ba4d-4c2e-8899-f6b0f9af395c"},"vehicle_type_id":"4","last_reported":1745206465,"current_range_meters":9200,"station_id":"ce4bhm92rcd13ifvqglg","pricing_plan_id":"cebpf4jnsgd1na2vs0mg"},{"bike_id":"33399c5a-7b71-4ae2-a964-55b2f2e618d0","system_id":"levelo_inurba_marseille","lat":43.30207,"lon":5.36577,"is_reserved":false,"is_disabled":true,"rental_uris":{"android":"levelo://app?vid=33399c5a-7b71-4ae2-a964-55b2f2e618d0","ios":"levelo://app?vid=33399c5a-7b71-4ae2-a964-55b2f2e618d0"},"vehicle_type_id":"4","last_reported":1745206465,"current_range_meters":9200,"station_id":"ce4bgrh2rcd13ifvqc8g","pricing_plan_id":"cebpf4jnsgd1na2vs0mg"},{"bike_id":"37388e1a-253d-422c-ba73-4a19c8b5c62e","system_id":"levelo_inurba_marseille","lat":43.28742,"lon":5.36099,"is_reserved":false,"is_disabled":false,"rental_uris":{"android":"levelo://app?vid=37388e1a-253d-422c-ba73-4a19c8b5c62e","ios":"levelo://app?vid=37388e1a-253d-422c-ba73-4a19c8b5c62e"},"vehicle_type_id":"4","last_reported":1745206465,"current_range_meters":9200,"station_id":"cki0cbj6b192h4jlfktg","pricing_plan_id":"cebpf4jnsgd1na2vs0mg"},{"bike_id":"e6bafddd-a5d9-44f3-8c65-30a0518f53d4","system_id":"levelo_inurba_marseille","lat":43.254885,"lon":5.37659,"is_reserved":false,"is_disabled":true,"rental_uris":{"android":"levelo://app?vid=e6bafddd-a5d9-44f3-8c65-30a0518f53d4","ios":"levelo://app?vid=e6bafddd-a5d9-44f3-8c65-30a0518f53d4"},"vehicle_type_id":"4","last_reported":1745206465,"current_range_meters":9200,"station_id":"ce4bhh12rcd13ifvqff0","pricing_plan_id":"cebpf4jnsgd1na2vs0mg"},{"bike_id":"ff62b9d0-0cdf-448d-ada3-96d9918ce15c","system_id":"levelo_inurba_marseille","lat":43.31111,"lon":5.36916,"is_reserved":false,"is_disabled":false,"rental_uris":{"android":"levelo://app?vid=ff62b9d0-0cdf-448d-ada3-96d9918ce15c","ios":"levelo://app?vid=ff62b9d0-0cdf-448d-ada3-96d9918ce15c"},"vehicle_type_id":"4","last_reported":1745206465,"current_range_meters":9600,"station_id":"","pricing_plan_id":"cebpf4jnsgd1na2vs0mg"},{"bike_id":"3c68d4af-f244-4d5b-a673-170645748e37","system_id":"levelo_inurba_marseille","lat":43.27682,"lon":5.398003,"is_reserved":false,"is_disabled":false,"rental_uris":{"android":"levelo://app?vid=3c68d4af-f244-4d5b-a673-170645748e37","ios":"levelo://app?vid=3c68d4af-f244-4d5b-a673-170645748e37"},"vehicle_type_id":"4","last_reported":1745206465,"current_range_meters":9600,"station_id":"","pricing_plan_id":"cebpf4jnsgd1na2vs0mg"},{"bike_id":"64904af7-8595-4150-91ff-57ff6ea5c1cc","system_id":"levelo_inurba_marseille","lat":43.31518,"lon":5.37296,"is_reserved":false,"is_disabled":false,"rental_uris":{"android":"levelo://app?vid=64904af7-8595-4150-91ff-57ff6ea5c1cc","ios":"levelo://app?vid=64904af7-8595-4150-91ff-57ff6ea5c1cc"},"vehicle_type_id":"4","last_reported":1745206465,"current_range_meters":9600,"station_id":"ce4bgt12rcd13ifvqcd0","pricing_plan_id":"cebpf4jnsgd1na2vs0mg"},{"bike_id":"3f9b351e-24c7-4831-949f-a89b33917557","system_id":"levelo_inurba_marseille","lat":43.240439,"lon":5.377497,"is_reserved":false,"is_disabled":false,"rental_uris":{"android":"levelo://app?vid=3f9b351e-24c7-4831-949f-a89b33917557","ios":"levelo://app?vid=3f9b351e-24c7-4831-949f-a89b33917557"},"vehicle_type_id":"4","last_reported":1745206465,"current_range_meters":9600,"station_id":"ce4bhnp2rcd13ifvqgvg","pricing_plan_id":"cebpf4jnsgd1na2vs0mg"},{"bike_id":"59216526-d01c-4d77-b6e3-a6c766976571","system_id":"levelo_inurba_marseille","lat":43.22505,"lon":5.34768,"is_reserved":false,"is_disabled":false,"rental_uris":{"android":"levelo://app?vid=59216526-d01c-4d77-b6e3-a6c766976571","ios":"levelo://app?vid=59216526-d01c-4d77-b6e3-a6c766976571"},"vehicle_type_id":"4","last_reported":1745206465,"current_range_meters":9600,"station_id":"st_cvj5dfep6f1abm77gieg","pricing_plan_id":"cebpf4jnsgd1na2vs0mg"},{"bike_id":"89edf026-e9af-4504-874f-adbe61cd4424","system_id":"levelo_inurba_marseille","lat":43.303028,"lon":5.392094,"is_reserved":false,"is_disabled":false,"rental_uris":{"android":"levelo://app?vid=89edf026-e9af-4504-874f-adbe61cd4424","ios":"levelo://app?vid=89edf026-e9af-4504-874f-adbe61cd4424"},"vehicle_type_id":"4","last_reported":1745206465,"current_range_meters":9600,"station_id":"ce4bgkh2rcd13ifvqbk0","pricing_plan_id":"cebpf4jnsgd1na2vs0mg"},{"bike_id":"48ee4afb-be2c-4e87-b1a7-fc05ce1c9497","system_id":"levelo_inurba_marseille","lat":43.3094,"lon":5.40137,"is_reserved":false,"is_disabled":false,"rental_uris":{"android":"levelo://app?vid=48ee4afb-be2c-4e87-b1a7-fc05ce1c9497","ios":"levelo://app?vid=48ee4afb-be2c-4e87-b1a7-fc05ce1c9497"},"vehicle_type_id":"4","last_reported":1745206465,"current_range_meters":9600,"station_id":"ce4bgvp2rcd13ifvqct0","pricing_plan_id":"cebpf4jnsgd1na2vs0mg"},{"bike_id":"f01fc261-033f-49c7-b09e-b9967362bd76","system_id":"levelo_inurba_marseille","lat":43.288646,"lon":5.358327,"is_reserved":false,"is_disabled":true,"rental_uris":{"android":"levelo://app?vid=f01fc261-033f-49c7-b09e-b9967362bd76","ios":"levelo://app?vid=f01fc261-033f-49c7-b09e-b9967362bd76"},"vehicle_type_id":"4","last_reported":1745206465,"current_range_meters":9600,"station_id":"ce4bhb12rcd13ifvqem0","pricing_plan_id":"cebpf4jnsgd1na2vs0mg"},{"bike_id":"478adf2f-07e1-4396-965c-e1a74e1fa681","system_id":"levelo_inurba_marseille","lat":43.278954,"lon":5.380043,"is_reserved":false,"is_disabled":false,"rental_uris":{"android":"levelo://app?vid=478adf2f-07e1-4396-965c-e1a74e1fa681","ios":"levelo://app?vid=478adf2f-07e1-4396-965c-e1a74e1fa681"},"vehicle_type_id":"4","last_reported":1745206465,"current_range_meters":9600,"station_id":"ce4bhf92rcd13ifvqf50","pricing_plan_id":"cebpf4jnsgd1na2vs0mg"},{"bike_id":"72335dcd-8b2d-4e7b-bae6-1179c991ff40","system_id":"levelo_inurba_marseille","lat":43.25475,"lon":5.37681,"is_reserved":false,"is_disabled":false,"rental_uris":{"android":"levelo://app?vid=72335dcd-8b2d-4e7b-bae6-1179c991ff40","ios":"levelo://app?vid=72335dcd-8b2d-4e7b-bae6-1179c991ff40"},"vehicle_type_id":"4","last_reported":1745206465,"current_range_meters":10000,"station_id":"ce4bhh12rcd13ifvqff0","pricing_plan_id":"cebpf4jnsgd1na2vs0mg"},{"bike_id":"cab64969-2640-47ee-abb9-f11afb1f3a59","system_id":"levelo_inurba_marseille","lat":43.28614,"lon":5.35115,"is_reserved":false,"is_disabled":true,"rental_uris":{"android":"levelo://app?vid=cab64969-2640-47ee-abb9-f11afb1f3a59","ios":"levelo://app?vid=cab64969-2640-47ee-abb9-f11afb1f3a59"},"vehicle_type_id":"4","last_reported":1745206465,"current_range_meters":10000,"station_id":"ce4bhch2rcd13ifvqeug","pricing_plan_id":"cebpf4jnsgd1na2vs0mg"},{"bike_id":"1ace1b61-e2c8-4a41-a3cf-5c94b36f34ae","system_id":"levelo_inurba_marseille","lat":43.211941,"lon":5.350735,"is_reserved":false,"is_disabled":false,"rental_uris":{"android":"levelo://app?vid=1ace1b61-e2c8-4a41-a3cf-5c94b36f34ae","ios":"levelo://app?vid=1ace1b61-e2c8-4a41-a3cf-5c94b36f34ae"},"vehicle_type_id":"4","last_reported":1745206465,"current_range_meters":10000,"station_id":"st_cvj6sg6p6f1abm77japg","pricing_plan_id":"cebpf4jnsgd1na2vs0mg"},{"bike_id":"044b6cdf-529a-462e-b435-6c399001a1a6","system_id":"levelo_inurba_marseille","lat":43.309342,"lon":5.40144,"is_reserved":false,"is_disabled":false,"rental_uris":{"android":"levelo://app?vid=044b6cdf-529a-462e-b435-6c399001a1a6","ios":"levelo://app?vid=044b6cdf-529a-462e-b435-6c399001a1a6"},"vehicle_type_id":"4","last_reported":1745206465,"current_range_meters":10000,"station_id":"ce4bgvp2rcd13ifvqct0","pricing_plan_id":"cebpf4jnsgd1na2vs0mg"},{"bike_id":"e553e7b9-c5be-4177-878b-d92283c2b80b","system_id":"levelo_inurba_marseille","lat":43.285653,"lon":5.39507,"is_reserved":false,"is_disabled":false,"rental_uris":{"android":"levelo://app?vid=e553e7b9-c5be-4177-878b-d92283c2b80b","ios":"levelo://app?vid=e553e7b9-c5be-4177-878b-d92283c2b80b"},"vehicle_type_id":"4","last_reported":1745206465,"current_range_meters":10000,"station_id":"ce4bh292rcd13ifvqdg0","pricing_plan_id":"cebpf4jnsgd1na2vs0mg"},{"bike_id":"9ec00016-bdd1-44d1-be62-4b7d926dd044","system_id":"levelo_inurba_marseille","lat":43.30932,"lon":5.37319,"is_reserved":false,"is_disabled":false,"rental_uris":{"android":"levelo://app?vid=9ec00016-bdd1-44d1-be62-4b7d926dd044","ios":"levelo://app?vid=9ec00016-bdd1-44d1-be62-4b7d926dd044"},"vehicle_type_id":"4","last_reported":1745206465,"current_range_meters":10000,"station_id":"","pricing_plan_id":"cebpf4jnsgd1na2vs0mg"},{"bike_id":"f15e6d6c-4e91-4850-86dd-4c3b99eca958","system_id":"levelo_inurba_marseille","lat":43.280731,"lon":5.396428,"is_reserved":false,"is_disabled":false,"rental_uris":{"android":"levelo://app?vid=f15e6d6c-4e91-4850-86dd-4c3b99eca958","ios":"levelo://app?vid=f15e6d6c-4e91-4850-86dd-4c3b99eca958"},"vehicle_type_id":"4","last_reported":1745206465,"current_range_meters":10000,"station_id":"ce4bho12rcd13ifvqh2g","pricing_plan_id":"cebpf4jnsgd1na2vs0mg"},{"bike_id":"a3dd9a0b-1e95-49bd-9b52-a761b312f104","system_id":"levelo_inurba_marseille","lat":43.25573,"lon":5.38259,"is_reserved":false,"is_disabled":false,"rental_uris":{"android":"levelo://app?vid=a3dd9a0b-1e95-49bd-9b52-a761b312f104","ios":"levelo://app?vid=a3dd9a0b-1e95-49bd-9b52-a761b312f104"},"vehicle_type_id":"4","last_reported":1745206465,"current_range_meters":10800,"station_id":"ce4bhih2rcd13ifvqfs0","pricing_plan_id":"cebpf4jnsgd1na2vs0mg"},{"bike_id":"31daaaea-e3d1-46f6-8391-a46d550b149c","system_id":"levelo_inurba_marseille","lat":43.279413,"lon":5.410413,"is_reserved":false,"is_disabled":false,"rental_uris":{"android":"levelo://app?vid=31daaaea-e3d1-46f6-8391-a46d550b149c","ios":"levelo://app?vid=31daaaea-e3d1-46f6-8391-a46d550b149c"},"vehicle_type_id":"4","last_reported":1745206465,"current_range_meters":10800,"station_id":"ce4bhnp2rcd13ifvqh0g","pricing_plan_id":"cebpf4jnsgd1na2vs0mg"},{"bike_id":"aa4956c6-6845-4783-8776-ee4b88f920ec","system_id":"levelo_inurba_marseille","lat":43.28638,"lon":5.370794,"is_reserved":false,"is_disabled":true,"rental_uris":{"android":"levelo://app?vid=aa4956c6-6845-4783-8776-ee4b88f920ec","ios":"levelo://app?vid=aa4956c6-6845-4783-8776-ee4b88f920ec"},"vehicle_type_id":"4","last_reported":1745206465,"current_range_meters":10800,"station_id":"ce4bht12rcd13ifvqi60","pricing_plan_id":"cebpf4jnsgd1na2vs0mg"},{"bike_id":"20358d47-fe57-4b4c-8c22-ee1219ba0dbb","system_id":"levelo_inurba_marseille","lat":43.28453,"lon":5.359,"is_reserved":false,"is_disabled":false,"rental_uris":{"android":"levelo://app?vid=20358d47-fe57-4b4c-8c22-ee1219ba0dbb","ios":"levelo://app?vid=20358d47-fe57-4b4c-8c22-ee1219ba0dbb"},"vehicle_type_id":"4","last_reported":1745206465,"current_range_meters":10800,"station_id":"ce4bhah2rcd13ifvqei0","pricing_plan_id":"cebpf4jnsgd1na2vs0mg"},{"bike_id":"50720bbe-5512-41d7-86e0-3df313b565c6","system_id":"levelo_inurba_marseille","lat":43.32365,"lon":5.38886,"is_reserved":false,"is_disabled":true,"rental_uris":{"android":"levelo://app?vid=50720bbe-5512-41d7-86e0-3df313b565c6","ios":"levelo://app?vid=50720bbe-5512-41d7-86e0-3df313b565c6"},"vehicle_type_id":"4","last_reported":1745206465,"current_range_meters":10800,"station_id":"ce4bhqp2rcd13ifvqhog","pricing_plan_id":"cebpf4jnsgd1na2vs0mg"},{"bike_id":"f1e1bc98-6c86-455e-bb78-02898a313f74","system_id":"levelo_inurba_marseille","lat":43.31072,"lon":5.38353,"is_reserved":false,"is_disabled":false,"rental_uris":{"android":"levelo://app?vid=f1e1bc98-6c86-455e-bb78-02898a313f74","ios":"levelo://app?vid=f1e1bc98-6c86-455e-bb78-02898a313f74"},"vehicle_type_id":"4","last_reported":1745206465,"current_range_meters":10800,"station_id":"ce4bgv92rcd13ifvqcr0","pricing_plan_id":"cebpf4jnsgd1na2vs0mg"},{"bike_id":"1184e7cb-97e6-48bd-84cd-8e59c100c07b","system_id":"levelo_inurba_marseille","lat":43.292745,"lon":5.368411,"is_reserved":false,"is_disabled":true,"rental_uris":{"android":"levelo://app?vid=1184e7cb-97e6-48bd-84cd-8e59c100c07b","ios":"levelo://app?vid=1184e7cb-97e6-48bd-84cd-8e59c100c07b"},"vehicle_type_id":"4","last_reported":1745206465,"current_range_meters":11200,"station_id":"ce4bhbp2rcd13ifvqesg","pricing_plan_id":"cebpf4jnsgd1na2vs0mg"},{"bike_id":"d53e964c-f934-484c-a259-3e8f23cdd819","system_id":"levelo_inurba_marseille","lat":43.33734,"lon":5.392,"is_reserved":false,"is_disabled":false,"rental_uris":{"android":"levelo://app?vid=d53e964c-f934-484c-a259-3e8f23cdd819","ios":"levelo://app?vid=d53e964c-f934-484c-a259-3e8f23cdd819"},"vehicle_type_id":"4","last_reported":1745206465,"current_range_meters":11200,"station_id":"ce4bhr92rcd13ifvqhsg","pricing_plan_id":"cebpf4jnsgd1na2vs0mg"},{"bike_id":"1737dea4-541f-4bc8-9731-1ab03c2deae6","system_id":"levelo_inurba_marseille","lat":43.239681,"lon":5.366164,"is_reserved":false,"is_disabled":true,"rental_uris":{"android":"levelo://app?vid=1737dea4-541f-4bc8-9731-1ab03c2deae6","ios":"levelo://app?vid=1737dea4-541f-4bc8-9731-1ab03c2deae6"},"vehicle_type_id":"4","last_reported":1745206465,"current_range_meters":11200,"station_id":"ce4bhi12rcd13ifvqfp0","pricing_plan_id":"cebpf4jnsgd1na2vs0mg"},{"bike_id":"54333f71-3852-4e7b-b374-b14e492e4962","system_id":"levelo_inurba_marseille","lat":43.30414,"lon":5.41294,"is_reserved":false,"is_disabled":true,"rental_uris":{"android":"levelo://app?vid=54333f71-3852-4e7b-b374-b14e492e4962","ios":"levelo://app?vid=54333f71-3852-4e7b-b374-b14e492e4962"},"vehicle_type_id":"4","last_reported":1745206465,"current_range_meters":11600,"station_id":"ce4bhop2rcd13ifvqh8g","pricing_plan_id":"cebpf4jnsgd1na2vs0mg"},{"bike_id":"f189c969-32b5-44ac-9d90-7e5f9f22e08d","system_id":"levelo_inurba_marseille","lat":43.31105,"lon":5.37794,"is_reserved":false,"is_disabled":false,"rental_uris":{"android":"levelo://app?vid=f189c969-32b5-44ac-9d90-7e5f9f22e08d","ios":"levelo://app?vid=f189c969-32b5-44ac-9d90-7e5f9f22e08d"},"vehicle_type_id":"4","last_reported":1745206465,"current_range_meters":11600,"station_id":"ce4bgt92rcd13ifvqcg0","pricing_plan_id":"cebpf4jnsgd1na2vs0mg"},{"bike_id":"7c874957-fd8c-4332-809c-6583befbbac0","system_id":"levelo_inurba_marseille","lat":43.25874,"lon":5.39907,"is_reserved":false,"is_disabled":false,"rental_uris":{"android":"levelo://app?vid=7c874957-fd8c-4332-809c-6583befbbac0","ios":"levelo://app?vid=7c874957-fd8c-4332-809c-6583befbbac0"},"vehicle_type_id":"4","last_reported":1745206465,"current_range_meters":11600,"station_id":"ce4bhl92rcd13ifvqghg","pricing_plan_id":"cebpf4jnsgd1na2vs0mg"},{"bike_id":"879c4764-ec34-4053-99a8-4501c6e0ccc4","system_id":"levelo_inurba_marseille","lat":43.25724,"lon":5.41128,"is_reserved":false,"is_disabled":false,"rental_uris":{"android":"levelo://app?vid=879c4764-ec34-4053-99a8-4501c6e0ccc4","ios":"levelo://app?vid=879c4764-ec34-4053-99a8-4501c6e0ccc4"},"vehicle_type_id":"4","last_reported":1745206465,"current_range_meters":12000,"station_id":"ce4bhkp2rcd13ifvqgd0","pricing_plan_id":"cebpf4jnsgd1na2vs0mg"},{"bike_id":"b25b6470-ff43-4d6b-b299-0f21ec070f27","system_id":"levelo_inurba_marseille","lat":43.29911,"lon":5.38144,"is_reserved":false,"is_disabled":true,"rental_uris":{"android":"levelo://app?vid=b25b6470-ff43-4d6b-b299-0f21ec070f27","ios":"levelo://app?vid=b25b6470-ff43-4d6b-b299-0f21ec070f27"},"vehicle_type_id":"4","last_reported":1745206465,"current_range_meters":12000,"station_id":"ce4bgj12rcd13ifvqbc0","pricing_plan_id":"cebpf4jnsgd1na2vs0mg"},{"bike_id":"d66f2fbf-84c1-4006-a003-d92ef3aa9479","system_id":"levelo_inurba_marseille","lat":43.231945,"lon":5.355428,"is_reserved":false,"is_disabled":false,"rental_uris":{"android":"levelo://app?vid=d66f2fbf-84c1-4006-a003-d92ef3aa9479","ios":"levelo://app?vid=d66f2fbf-84c1-4006-a003-d92ef3aa9479"},"vehicle_type_id":"4","last_reported":1745206465,"current_range_meters":12000,"station_id":"ce4bhu92rcd13ifvqi70","pricing_plan_id":"cebpf4jnsgd1na2vs0mg"},{"bike_id":"4a7b1a03-2df0-4e20-8c86-9af3afa1180c","system_id":"levelo_inurba_marseille","lat":43.30891,"lon":5.39618,"is_reserved":false,"is_disabled":false,"rental_uris":{"android":"levelo://app?vid=4a7b1a03-2df0-4e20-8c86-9af3afa1180c","ios":"levelo://app?vid=4a7b1a03-2df0-4e20-8c86-9af3afa1180c"},"vehicle_type_id":"4","last_reported":1745206465,"current_range_meters":12400,"station_id":"ce4bh012rcd13ifvqcv0","pricing_plan_id":"cebpf4jnsgd1na2vs0mg"},{"bike_id":"710a06f4-2058-4096-a014-efe82286ec08","system_id":"levelo_inurba_marseille","lat":43.31485,"lon":5.37287,"is_reserved":false,"is_disabled":false,"rental_uris":{"android":"levelo://app?vid=710a06f4-2058-4096-a014-efe82286ec08","ios":"levelo://app?vid=710a06f4-2058-4096-a014-efe82286ec08"},"vehicle_type_id":"4","last_reported":1745206465,"current_range_meters":12400,"station_id":"ce4bgt12rcd13ifvqcd0","pricing_plan_id":"cebpf4jnsgd1na2vs0mg"},{"bike_id":"cb04d036-524e-497d-b1e8-d53251979b05","system_id":"levelo_inurba_marseille","lat":43.29892,"lon":5.39736,"is_reserved":false,"is_disabled":true,"rental_uris":{"android":"levelo://app?vid=cb04d036-524e-497d-b1e8-d53251979b05","ios":"levelo://app?vid=cb04d036-524e-497d-b1e8-d53251979b05"},"vehicle_type_id":"4","last_reported":1745206465,"current_range_meters":12400,"station_id":"ce4bh0h2rcd13ifvqd50","pricing_plan_id":"cebpf4jnsgd1na2vs0mg"},{"bike_id":"849f0310-868b-4cca-afe6-3b2537f7c3e0","system_id":"levelo_inurba_marseille","lat":43.2963,"lon":5.40607,"is_reserved":false,"is_disabled":false,"rental_uris":{"android":"levelo://app?vid=849f0310-868b-4cca-afe6-3b2537f7c3e0","ios":"levelo://app?vid=849f0310-868b-4cca-afe6-3b2537f7c3e0"},"vehicle_type_id":"4","last_reported":1745206465,"current_range_meters":12000,"station_id":"ce4bh0h2rcd13ifvqd60","pricing_plan_id":"cebpf4jnsgd1na2vs0mg"},{"bike_id":"4d8ee2c5-8346-4b66-ae86-f443b6bdd2d9","system_id":"levelo_inurba_marseille","lat":43.24539,"lon":5.41302,"is_reserved":false,"is_disabled":false,"rental_uris":{"android":"levelo://app?vid=4d8ee2c5-8346-4b66-ae86-f443b6bdd2d9","ios":"levelo://app?vid=4d8ee2c5-8346-4b66-ae86-f443b6bdd2d9"},"vehicle_type_id":"4","last_reported":1745206465,"current_range_meters":12400,"station_id":"","pricing_plan_id":"cebpf4jnsgd1na2vs0mg"},{"bike_id":"c9992ae2-060e-483b-bf4f-875f74b57b5b","system_id":"levelo_inurba_marseille","lat":43.26551,"lon":5.37287,"is_reserved":false,"is_disabled":false,"rental_uris":{"android":"levelo://app?vid=c9992ae2-060e-483b-bf4f-875f74b57b5b","ios":"levelo://app?vid=c9992ae2-060e-483b-bf4f-875f74b57b5b"},"vehicle_type_id":"4","last_reported":1745206465,"current_range_meters":12400,"station_id":"ce4bhg12rcd13ifvqf70","pricing_plan_id":"cebpf4jnsgd1na2vs0mg"},{"bike_id":"cf5d5d71-b8c4-450d-8a7a-cec7df0e00d3","system_id":"levelo_inurba_marseille","lat":43.30425,"lon":5.39736,"is_reserved":false,"is_disabled":false,"rental_uris":{"android":"levelo://app?vid=cf5d5d71-b8c4-450d-8a7a-cec7df0e00d3","ios":"levelo://app?vid=cf5d5d71-b8c4-450d-8a7a-cec7df0e00d3"},"vehicle_type_id":"4","last_reported":1745206465,"current_range_meters":12400,"station_id":"ce4bh092rcd13ifvqd20","pricing_plan_id":"cebpf4jnsgd1na2vs0mg"},{"bike_id":"2d2e4840-713e-4771-ae07-2155d13a6672","system_id":"levelo_inurba_marseille","lat":43.29942,"lon":5.36553,"is_reserved":false,"is_disabled":true,"rental_uris":{"android":"levelo://app?vid=2d2e4840-713e-4771-ae07-2155d13a6672","ios":"levelo://app?vid=2d2e4840-713e-4771-ae07-2155d13a6672"},"vehicle_type_id":"4","last_reported":1745206465,"current_range_meters":12800,"station_id":"ce4bgm92rcd13ifvqbr0","pricing_plan_id":"cebpf4jnsgd1na2vs0mg"},{"bike_id":"3ba5764d-df7d-4755-a5d9-93307a192d0e","system_id":"levelo_inurba_marseille","lat":43.30093,"lon":5.39089,"is_reserved":false,"is_disabled":false,"rental_uris":{"android":"levelo://app?vid=3ba5764d-df7d-4755-a5d9-93307a192d0e","ios":"levelo://app?vid=3ba5764d-df7d-4755-a5d9-93307a192d0e"},"vehicle_type_id":"4","last_reported":1745206465,"current_range_meters":12800,"station_id":"ce4bh192rcd13ifvqdb0","pricing_plan_id":"cebpf4jnsgd1na2vs0mg"},{"bike_id":"9cd66f20-0974-44a3-a00c-3af08e74ebf2","system_id":"levelo_inurba_marseille","lat":43.26028,"lon":5.41739,"is_reserved":false,"is_disabled":false,"rental_uris":{"android":"levelo://app?vid=9cd66f20-0974-44a3-a00c-3af08e74ebf2","ios":"levelo://app?vid=9cd66f20-0974-44a3-a00c-3af08e74ebf2"},"vehicle_type_id":"4","last_reported":1745206465,"current_range_meters":12800,"station_id":"","pricing_plan_id":"cebpf4jnsgd1na2vs0mg"},{"bike_id":"46600b5c-7330-43b7-8392-789f98f83f0b","system_id":"levelo_inurba_marseille","lat":43.309291,"lon":5.401456,"is_reserved":false,"is_disabled":false,"rental_uris":{"android":"levelo://app?vid=46600b5c-7330-43b7-8392-789f98f83f0b","ios":"levelo://app?vid=46600b5c-7330-43b7-8392-789f98f83f0b"},"vehicle_type_id":"4","last_reported":1745206465,"current_range_meters":12800,"station_id":"ce4bgvp2rcd13ifvqct0","pricing_plan_id":"cebpf4jnsgd1na2vs0mg"},{"bike_id":"f95b6ba3-4ffd-4dee-8387-c1e0a51dcdd2","system_id":"levelo_inurba_marseille","lat":43.2793,"lon":5.41126,"is_reserved":false,"is_disabled":false,"rental_uris":{"android":"levelo://app?vid=f95b6ba3-4ffd-4dee-8387-c1e0a51dcdd2","ios":"levelo://app?vid=f95b6ba3-4ffd-4dee-8387-c1e0a51dcdd2"},"vehicle_type_id":"4","last_reported":1745206465,"current_range_meters":12800,"station_id":"","pricing_plan_id":"cebpf4jnsgd1na2vs0mg"},{"bike_id":"1e56c845-c052-465c-aa20-9f674f4c5764","system_id":"levelo_inurba_marseille","lat":43.3046,"lon":5.38902,"is_reserved":false,"is_disabled":false,"rental_uris":{"android":"levelo://app?vid=1e56c845-c052-465c-aa20-9f674f4c5764","ios":"levelo://app?vid=1e56c845-c052-465c-aa20-9f674f4c5764"},"vehicle_type_id":"4","last_reported":1745206465,"current_range_meters":13600,"station_id":"ce4bgk12rcd13ifvqbi0","pricing_plan_id":"cebpf4jnsgd1na2vs0mg"},{"bike_id":"f4f7624b-eec9-47f5-9227-aa44836a7a81","system_id":"levelo_inurba_marseille","lat":43.23192,"lon":5.3557,"is_reserved":false,"is_disabled":false,"rental_uris":{"android":"levelo://app?vid=f4f7624b-eec9-47f5-9227-aa44836a7a81","ios":"levelo://app?vid=f4f7624b-eec9-47f5-9227-aa44836a7a81"},"vehicle_type_id":"4","last_reported":1745206465,"current_range_meters":13600,"station_id":"ce4bhu92rcd13ifvqi70","pricing_plan_id":"cebpf4jnsgd1na2vs0mg"},{"bike_id":"53b3b9c9-bf4c-40f9-ba2e-ec3f8e3f866c","system_id":"levelo_inurba_marseille","lat":43.229351,"lon":5.353698,"is_reserved":false,"is_disabled":false,"rental_uris":{"android":"levelo://app?vid=53b3b9c9-bf4c-40f9-ba2e-ec3f8e3f866c","ios":"levelo://app?vid=53b3b9c9-bf4c-40f9-ba2e-ec3f8e3f866c"},"vehicle_type_id":"4","last_reported":1745206465,"current_range_meters":14000,"station_id":"cpo3532slgdg3j2ikp40","pricing_plan_id":"cebpf4jnsgd1na2vs0mg"},{"bike_id":"a049c569-0294-4594-b06b-589d19df1531","system_id":"levelo_inurba_marseille","lat":43.24853,"lon":5.38208,"is_reserved":false,"is_disabled":false,"rental_uris":{"android":"levelo://app?vid=a049c569-0294-4594-b06b-589d19df1531","ios":"levelo://app?vid=a049c569-0294-4594-b06b-589d19df1531"},"vehicle_type_id":"4","last_reported":1745206465,"current_range_meters":14000,"station_id":"","pricing_plan_id":"cebpf4jnsgd1na2vs0mg"},{"bike_id":"5060df55-1a6f-40ec-8e54-5aaa6badef85","system_id":"levelo_inurba_marseille","lat":43.3106,"lon":5.3835,"is_reserved":false,"is_disabled":false,"rental_uris":{"android":"levelo://app?vid=5060df55-1a6f-40ec-8e54-5aaa6badef85","ios":"levelo://app?vid=5060df55-1a6f-40ec-8e54-5aaa6badef85"},"vehicle_type_id":"4","last_reported":1745206465,"current_range_meters":14000,"station_id":"ce4bgv92rcd13ifvqcr0","pricing_plan_id":"cebpf4jnsgd1na2vs0mg"},{"bike_id":"a5984312-2869-4820-8cb6-c49aefed6914","system_id":"levelo_inurba_marseille","lat":43.28041,"lon":5.36944,"is_reserved":false,"is_disabled":false,"rental_uris":{"android":"levelo://app?vid=a5984312-2869-4820-8cb6-c49aefed6914","ios":"levelo://app?vid=a5984312-2869-4820-8cb6-c49aefed6914"},"vehicle_type_id":"4","last_reported":1745206465,"current_range_meters":14000,"station_id":"ce4bha12rcd13ifvqef0","pricing_plan_id":"cebpf4jnsgd1na2vs0mg"},{"bike_id":"1dfc51e9-ff8f-486f-ac10-69f34ffe2a20","system_id":"levelo_inurba_marseille","lat":43.302216,"lon":5.437738,"is_reserved":false,"is_disabled":false,"rental_uris":{"android":"levelo://app?vid=1dfc51e9-ff8f-486f-ac10-69f34ffe2a20","ios":"levelo://app?vid=1dfc51e9-ff8f-486f-ac10-69f34ffe2a20"},"vehicle_type_id":"4","last_reported":1745206465,"current_range_meters":14000,"station_id":"","pricing_plan_id":"cebpf4jnsgd1na2vs0mg"},{"bike_id":"c4fc050b-7c58-4380-8033-ffe242748317","system_id":"levelo_inurba_marseille","lat":43.2952,"lon":5.39417,"is_reserved":false,"is_disabled":true,"rental_uris":{"android":"levelo://app?vid=c4fc050b-7c58-4380-8033-ffe242748317","ios":"levelo://app?vid=c4fc050b-7c58-4380-8033-ffe242748317"},"vehicle_type_id":"4","last_reported":1745206465,"current_range_meters":14400,"station_id":"ce4bh292rcd13ifvqdf0","pricing_plan_id":"cebpf4jnsgd1na2vs0mg"},{"bike_id":"b1a92491-f6da-45e2-a9a5-178685f0efe8","system_id":"levelo_inurba_marseille","lat":43.30931,"lon":5.4015,"is_reserved":false,"is_disabled":false,"rental_uris":{"android":"levelo://app?vid=b1a92491-f6da-45e2-a9a5-178685f0efe8","ios":"levelo://app?vid=b1a92491-f6da-45e2-a9a5-178685f0efe8"},"vehicle_type_id":"4","last_reported":1745206465,"current_range_meters":14400,"station_id":"ce4bgvp2rcd13ifvqct0","pricing_plan_id":"cebpf4jnsgd1na2vs0mg"},{"bike_id":"64ff8926-d764-44c7-a44c-0924c13282f0","system_id":"levelo_inurba_marseille","lat":43.29295,"lon":5.40187,"is_reserved":false,"is_disabled":false,"rental_uris":{"android":"levelo://app?vid=64ff8926-d764-44c7-a44c-0924c13282f0","ios":"levelo://app?vid=64ff8926-d764-44c7-a44c-0924c13282f0"},"vehicle_type_id":"4","last_reported":1745206465,"current_range_meters":14400,"station_id":"ce4bh312rcd13ifvqdk0","pricing_plan_id":"cebpf4jnsgd1na2vs0mg"},{"bike_id":"64c1e03b-2971-4be3-b430-369489f10b8e","system_id":"levelo_inurba_marseille","lat":43.29348,"lon":5.38521,"is_reserved":false,"is_disabled":true,"rental_uris":{"android":"levelo://app?vid=64c1e03b-2971-4be3-b430-369489f10b8e","ios":"levelo://app?vid=64c1e03b-2971-4be3-b430-369489f10b8e"},"vehicle_type_id":"4","last_reported":1745206465,"current_range_meters":15200,"station_id":"","pricing_plan_id":"cebpf4jnsgd1na2vs0mg"},{"bike_id":"b63b7a5e-a38c-41b2-b8ca-03dcb2ce1a70","system_id":"levelo_inurba_marseille","lat":43.25077,"lon":5.39529,"is_reserved":false,"is_disabled":true,"rental_uris":{"android":"levelo://app?vid=b63b7a5e-a38c-41b2-b8ca-03dcb2ce1a70","ios":"levelo://app?vid=b63b7a5e-a38c-41b2-b8ca-03dcb2ce1a70"},"vehicle_type_id":"4","last_reported":1745206465,"current_range_meters":14800,"station_id":"ce4bhm12rcd13ifvqgkg","pricing_plan_id":"cebpf4jnsgd1na2vs0mg"},{"bike_id":"04494bc7-45b7-4bae-8033-eab647359250","system_id":"levelo_inurba_marseille","lat":43.2916,"lon":5.39333,"is_reserved":false,"is_disabled":false,"rental_uris":{"android":"levelo://app?vid=04494bc7-45b7-4bae-8033-eab647359250","ios":"levelo://app?vid=04494bc7-45b7-4bae-8033-eab647359250"},"vehicle_type_id":"4","last_reported":1745206465,"current_range_meters":15200,"station_id":"","pricing_plan_id":"cebpf4jnsgd1na2vs0mg"},{"bike_id":"acb337f8-9a02-4c16-ad32-3a6e67af21e4","system_id":"levelo_inurba_marseille","lat":43.28445,"lon":5.35909,"is_reserved":false,"is_disabled":true,"rental_uris":{"android":"levelo://app?vid=acb337f8-9a02-4c16-ad32-3a6e67af21e4","ios":"levelo://app?vid=acb337f8-9a02-4c16-ad32-3a6e67af21e4"},"vehicle_type_id":"4","last_reported":1745206465,"current_range_meters":15200,"station_id":"ce4bhah2rcd13ifvqei0","pricing_plan_id":"cebpf4jnsgd1na2vs0mg"},{"bike_id":"c1502975-37e3-4e72-9fe3-fb33585be3fd","system_id":"levelo_inurba_marseille","lat":43.22928,"lon":5.35386,"is_reserved":false,"is_disabled":false,"rental_uris":{"android":"levelo://app?vid=c1502975-37e3-4e72-9fe3-fb33585be3fd","ios":"levelo://app?vid=c1502975-37e3-4e72-9fe3-fb33585be3fd"},"vehicle_type_id":"4","last_reported":1745206465,"current_range_meters":15200,"station_id":"cpo3532slgdg3j2ikp40","pricing_plan_id":"cebpf4jnsgd1na2vs0mg"},{"bike_id":"54f0d2d4-b0f8-4db8-a984-f8751855f3a9","system_id":"levelo_inurba_marseille","lat":43.254882,"lon":5.376498,"is_reserved":false,"is_disabled":true,"rental_uris":{"android":"levelo://app?vid=54f0d2d4-b0f8-4db8-a984-f8751855f3a9","ios":"levelo://app?vid=54f0d2d4-b0f8-4db8-a984-f8751855f3a9"},"vehicle_type_id":"4","last_reported":1745206465,"current_range_meters":15200,"station_id":"ce4bhh12rcd13ifvqff0","pricing_plan_id":"cebpf4jnsgd1na2vs0mg"},{"bike_id":"a5ac99e7-3bfe-4bdf-b59d-68957b05ee92","system_id":"levelo_inurba_marseille","lat":43.313218,"lon":5.386711,"is_reserved":false,"is_disabled":false,"rental_uris":{"android":"levelo://app?vid=a5ac99e7-3bfe-4bdf-b59d-68957b05ee92","ios":"levelo://app?vid=a5ac99e7-3bfe-4bdf-b59d-68957b05ee92"},"vehicle_type_id":"4","last_reported":1745206465,"current_range_meters":16000,"station_id":"","pricing_plan_id":"cebpf4jnsgd1na2vs0mg"},{"bike_id":"7974a0b9-d888-4717-8913-9d7bc8fa8019","system_id":"levelo_inurba_marseille","lat":43.30035,"lon":5.3656,"is_reserved":false,"is_disabled":false,"rental_uris":{"android":"levelo://app?vid=7974a0b9-d888-4717-8913-9d7bc8fa8019","ios":"levelo://app?vid=7974a0b9-d888-4717-8913-9d7bc8fa8019"},"vehicle_type_id":"4","last_reported":1745206465,"current_range_meters":16000,"station_id":"","pricing_plan_id":"cebpf4jnsgd1na2vs0mg"},{"bike_id":"4cec43c2-5f50-4b41-80bd-a9aa2383ae93","system_id":"levelo_inurba_marseille","lat":43.323326,"lon":5.406223,"is_reserved":false,"is_disabled":false,"rental_uris":{"android":"levelo://app?vid=4cec43c2-5f50-4b41-80bd-a9aa2383ae93","ios":"levelo://app?vid=4cec43c2-5f50-4b41-80bd-a9aa2383ae93"},"vehicle_type_id":"4","last_reported":1745206465,"current_range_meters":16000,"station_id":"ce4bhq92rcd13ifvqhjg","pricing_plan_id":"cebpf4jnsgd1na2vs0mg"},{"bike_id":"4d0c211d-cc3b-4460-a3c4-121acaf031ae","system_id":"levelo_inurba_marseille","lat":43.33735,"lon":5.39209,"is_reserved":false,"is_disabled":false,"rental_uris":{"android":"levelo://app?vid=4d0c211d-cc3b-4460-a3c4-121acaf031ae","ios":"levelo://app?vid=4d0c211d-cc3b-4460-a3c4-121acaf031ae"},"vehicle_type_id":"4","last_reported":1745206465,"current_range_meters":16000,"station_id":"ce4bhr92rcd13ifvqhsg","pricing_plan_id":"cebpf4jnsgd1na2vs0mg"},{"bike_id":"820f62be-9c86-4ba0-b470-a6efb3442528","system_id":"levelo_inurba_marseille","lat":43.24076,"lon":5.37709,"is_reserved":false,"is_disabled":true,"rental_uris":{"android":"levelo://app?vid=820f62be-9c86-4ba0-b470-a6efb3442528","ios":"levelo://app?vid=820f62be-9c86-4ba0-b470-a6efb3442528"},"vehicle_type_id":"4","last_reported":1745206465,"current_range_meters":16000,"station_id":"ce4bhnp2rcd13ifvqgvg","pricing_plan_id":"cebpf4jnsgd1na2vs0mg"},{"bike_id":"5421f91f-c5b9-4312-b8b1-ba44221bb5c0","system_id":"levelo_inurba_marseille","lat":43.26192,"lon":5.37921,"is_reserved":false,"is_disabled":true,"rental_uris":{"android":"levelo://app?vid=5421f91f-c5b9-4312-b8b1-ba44221bb5c0","ios":"levelo://app?vid=5421f91f-c5b9-4312-b8b1-ba44221bb5c0"},"vehicle_type_id":"4","last_reported":1745206465,"current_range_meters":16000,"station_id":"ce4bhjp2rcd13ifvqg90","pricing_plan_id":"cebpf4jnsgd1na2vs0mg"},{"bike_id":"878b7bad-6baa-4a9a-97e3-cb147f9aea9b","system_id":"levelo_inurba_marseille","lat":43.23963,"lon":5.36641,"is_reserved":false,"is_disabled":false,"rental_uris":{"android":"levelo://app?vid=878b7bad-6baa-4a9a-97e3-cb147f9aea9b","ios":"levelo://app?vid=878b7bad-6baa-4a9a-97e3-cb147f9aea9b"},"vehicle_type_id":"4","last_reported":1745206465,"current_range_meters":16000,"station_id":"ce4bhi12rcd13ifvqfp0","pricing_plan_id":"cebpf4jnsgd1na2vs0mg"},{"bike_id":"a7f91fb8-2846-493f-a68f-69867197cfa1","system_id":"levelo_inurba_marseille","lat":43.336706,"lon":5.397675,"is_reserved":false,"is_disabled":false,"rental_uris":{"android":"levelo://app?vid=a7f91fb8-2846-493f-a68f-69867197cfa1","ios":"levelo://app?vid=a7f91fb8-2846-493f-a68f-69867197cfa1"},"vehicle_type_id":"4","last_reported":1745206465,"current_range_meters":16400,"station_id":"","pricing_plan_id":"cebpf4jnsgd1na2vs0mg"},{"bike_id":"1496c68b-9915-4e58-a409-5e573a0a3a5b","system_id":"levelo_inurba_marseille","lat":43.3112,"lon":5.37766,"is_reserved":false,"is_disabled":false,"rental_uris":{"android":"levelo://app?vid=1496c68b-9915-4e58-a409-5e573a0a3a5b","ios":"levelo://app?vid=1496c68b-9915-4e58-a409-5e573a0a3a5b"},"vehicle_type_id":"4","last_reported":1745206465,"current_range_meters":16400,"station_id":"ce4bgt92rcd13ifvqcg0","pricing_plan_id":"cebpf4jnsgd1na2vs0mg"},{"bike_id":"7f85cb0c-933e-490b-a0c3-bfacab605268","system_id":"levelo_inurba_marseille","lat":43.28856,"lon":5.35992,"is_reserved":false,"is_disabled":true,"rental_uris":{"android":"levelo://app?vid=7f85cb0c-933e-490b-a0c3-bfacab605268","ios":"levelo://app?vid=7f85cb0c-933e-490b-a0c3-bfacab605268"},"vehicle_type_id":"4","last_reported":1745206465,"current_range_meters":16400,"station_id":"","pricing_plan_id":"cebpf4jnsgd1na2vs0mg"},{"bike_id":"49e44546-d950-48d4-81ad-6ad303d08980","system_id":"levelo_inurba_marseille","lat":43.21744,"lon":5.34602,"is_reserved":false,"is_disabled":true,"rental_uris":{"android":"levelo://app?vid=49e44546-d950-48d4-81ad-6ad303d08980","ios":"levelo://app?vid=49e44546-d950-48d4-81ad-6ad303d08980"},"vehicle_type_id":"4","last_reported":1745206465,"current_range_meters":16400,"station_id":"","pricing_plan_id":"cebpf4jnsgd1na2vs0mg"},{"bike_id":"54547122-c9e3-44aa-92d3-ee29b2aa8445","system_id":"levelo_inurba_marseille","lat":43.28411,"lon":5.35,"is_reserved":false,"is_disabled":true,"rental_uris":{"android":"levelo://app?vid=54547122-c9e3-44aa-92d3-ee29b2aa8445","ios":"levelo://app?vid=54547122-c9e3-44aa-92d3-ee29b2aa8445"},"vehicle_type_id":"4","last_reported":1745206465,"current_range_meters":16400,"station_id":"ce4bhbh2rcd13ifvqepg","pricing_plan_id":"cebpf4jnsgd1na2vs0mg"},{"bike_id":"0df66e0a-9fc8-4b65-8ac4-cdbc9cef329a","system_id":"levelo_inurba_marseille","lat":43.31066,"lon":5.38353,"is_reserved":false,"is_disabled":true,"rental_uris":{"android":"levelo://app?vid=0df66e0a-9fc8-4b65-8ac4-cdbc9cef329a","ios":"levelo://app?vid=0df66e0a-9fc8-4b65-8ac4-cdbc9cef329a"},"vehicle_type_id":"4","last_reported":1745206465,"current_range_meters":16400,"station_id":"ce4bgv92rcd13ifvqcr0","pricing_plan_id":"cebpf4jnsgd1na2vs0mg"},{"bike_id":"37c2bca0-8d17-4681-b908-adafbea4e0d8","system_id":"levelo_inurba_marseille","lat":43.292588,"lon":5.37617,"is_reserved":false,"is_disabled":false,"rental_uris":{"android":"levelo://app?vid=37c2bca0-8d17-4681-b908-adafbea4e0d8","ios":"levelo://app?vid=37c2bca0-8d17-4681-b908-adafbea4e0d8"},"vehicle_type_id":"4","last_reported":1745206465,"current_range_meters":16400,"station_id":"ce4bgi12rcd13ifvqb80","pricing_plan_id":"cebpf4jnsgd1na2vs0mg"},{"bike_id":"1ac1b160-80aa-4c3d-8047-868b15af45f6","system_id":"levelo_inurba_marseille","lat":43.27899,"lon":5.39624,"is_reserved":false,"is_disabled":false,"rental_uris":{"android":"levelo://app?vid=1ac1b160-80aa-4c3d-8047-868b15af45f6","ios":"levelo://app?vid=1ac1b160-80aa-4c3d-8047-868b15af45f6"},"vehicle_type_id":"4","last_reported":1745206465,"current_range_meters":16400,"station_id":"ce4bhf92rcd13ifvqf40","pricing_plan_id":"cebpf4jnsgd1na2vs0mg"},{"bike_id":"608afa2a-e3df-4335-ae2c-e8de6a01e0fb","system_id":"levelo_inurba_marseille","lat":43.25013,"lon":5.38933,"is_reserved":false,"is_disabled":false,"rental_uris":{"android":"levelo://app?vid=608afa2a-e3df-4335-ae2c-e8de6a01e0fb","ios":"levelo://app?vid=608afa2a-e3df-4335-ae2c-e8de6a01e0fb"},"vehicle_type_id":"4","last_reported":1745206465,"current_range_meters":16400,"station_id":"ce4bhgp2rcd13ifvqfd0","pricing_plan_id":"cebpf4jnsgd1na2vs0mg"},{"bike_id":"b8cd5422-1e24-48d1-bc5d-5f973732c00b","system_id":"levelo_inurba_marseille","lat":43.23183,"lon":5.35565,"is_reserved":false,"is_disabled":false,"rental_uris":{"android":"levelo://app?vid=b8cd5422-1e24-48d1-bc5d-5f973732c00b","ios":"levelo://app?vid=b8cd5422-1e24-48d1-bc5d-5f973732c00b"},"vehicle_type_id":"4","last_reported":1745206465,"current_range_meters":16400,"station_id":"ce4bhu92rcd13ifvqi70","pricing_plan_id":"cebpf4jnsgd1na2vs0mg"},{"bike_id":"2b9dc3a3-9ca1-4379-9bb7-4b8dbd4e17cf","system_id":"levelo_inurba_marseille","lat":43.239564,"lon":5.366222,"is_reserved":false,"is_disabled":true,"rental_uris":{"android":"levelo://app?vid=2b9dc3a3-9ca1-4379-9bb7-4b8dbd4e17cf","ios":"levelo://app?vid=2b9dc3a3-9ca1-4379-9bb7-4b8dbd4e17cf"},"vehicle_type_id":"4","last_reported":1745206465,"current_range_meters":16800,"station_id":"ce4bhi12rcd13ifvqfp0","pricing_plan_id":"cebpf4jnsgd1na2vs0mg"},{"bike_id":"af5ba08c-0730-4dda-a43c-3e08ff505b3c","system_id":"levelo_inurba_marseille","lat":43.231969,"lon":5.355562,"is_reserved":false,"is_disabled":false,"rental_uris":{"android":"levelo://app?vid=af5ba08c-0730-4dda-a43c-3e08ff505b3c","ios":"levelo://app?vid=af5ba08c-0730-4dda-a43c-3e08ff505b3c"},"vehicle_type_id":"4","last_reported":1745206465,"current_range_meters":16800,"station_id":"ce4bhu92rcd13ifvqi70","pricing_plan_id":"cebpf4jnsgd1na2vs0mg"},{"bike_id":"68501225-8cea-4f95-ae47-484785f78e68","system_id":"levelo_inurba_marseille","lat":43.32372,"lon":5.38948,"is_reserved":false,"is_disabled":true,"rental_uris":{"android":"levelo://app?vid=68501225-8cea-4f95-ae47-484785f78e68","ios":"levelo://app?vid=68501225-8cea-4f95-ae47-484785f78e68"},"vehicle_type_id":"4","last_reported":1745206465,"current_range_meters":16800,"station_id":"ce4bhqp2rcd13ifvqhog","pricing_plan_id":"cebpf4jnsgd1na2vs0mg"},{"bike_id":"f5082407-ad9f-416d-b3f3-a40cd04bfde3","system_id":"levelo_inurba_marseille","lat":43.230164,"lon":5.35478,"is_reserved":false,"is_disabled":false,"rental_uris":{"android":"levelo://app?vid=f5082407-ad9f-416d-b3f3-a40cd04bfde3","ios":"levelo://app?vid=f5082407-ad9f-416d-b3f3-a40cd04bfde3"},"vehicle_type_id":"4","last_reported":1745206465,"current_range_meters":16800,"station_id":"cpo3342slgdg3j2ifvpg","pricing_plan_id":"cebpf4jnsgd1na2vs0mg"},{"bike_id":"fd397a93-8f0f-4684-90df-7f1a6a5c6249","system_id":"levelo_inurba_marseille","lat":43.33047,"lon":5.40678,"is_reserved":false,"is_disabled":false,"rental_uris":{"android":"levelo://app?vid=fd397a93-8f0f-4684-90df-7f1a6a5c6249","ios":"levelo://app?vid=fd397a93-8f0f-4684-90df-7f1a6a5c6249"},"vehicle_type_id":"4","last_reported":1745206465,"current_range_meters":16800,"station_id":"","pricing_plan_id":"cebpf4jnsgd1na2vs0mg"},{"bike_id":"708a791d-3040-4b21-8706-33329d812143","system_id":"levelo_inurba_marseille","lat":43.30695,"lon":5.39243,"is_reserved":false,"is_disabled":true,"rental_uris":{"android":"levelo://app?vid=708a791d-3040-4b21-8706-33329d812143","ios":"levelo://app?vid=708a791d-3040-4b21-8706-33329d812143"},"vehicle_type_id":"4","last_reported":1745206465,"current_range_meters":16800,"station_id":"","pricing_plan_id":"cebpf4jnsgd1na2vs0mg"},{"bike_id":"b27a9d1c-abb4-43c8-8463-09cd46049d42","system_id":"levelo_inurba_marseille","lat":43.26183,"lon":5.37453,"is_reserved":false,"is_disabled":true,"rental_uris":{"android":"levelo://app?vid=b27a9d1c-abb4-43c8-8463-09cd46049d42","ios":"levelo://app?vid=b27a9d1c-abb4-43c8-8463-09cd46049d42"},"vehicle_type_id":"4","last_reported":1745206465,"current_range_meters":16800,"station_id":"ce4bhgp2rcd13ifvqfc0","pricing_plan_id":"cebpf4jnsgd1na2vs0mg"},{"bike_id":"4049e89d-08c9-4176-9c1f-54da6bad12a8","system_id":"levelo_inurba_marseille","lat":43.30635,"lon":5.39324,"is_reserved":false,"is_disabled":false,"rental_uris":{"android":"levelo://app?vid=4049e89d-08c9-4176-9c1f-54da6bad12a8","ios":"levelo://app?vid=4049e89d-08c9-4176-9c1f-54da6bad12a8"},"vehicle_type_id":"4","last_reported":1745206465,"current_range_meters":16800,"station_id":"ce4bh0p2rcd13ifvqd80","pricing_plan_id":"cebpf4jnsgd1na2vs0mg"},{"bike_id":"b0451e6c-f4a4-4a39-9203-bd69182de2dd","system_id":"levelo_inurba_marseille","lat":43.31362,"lon":5.38505,"is_reserved":false,"is_disabled":false,"rental_uris":{"android":"levelo://app?vid=b0451e6c-f4a4-4a39-9203-bd69182de2dd","ios":"levelo://app?vid=b0451e6c-f4a4-4a39-9203-bd69182de2dd"},"vehicle_type_id":"4","last_reported":1745206465,"current_range_meters":17200,"station_id":"ce4bgt92rcd13ifvqcf0","pricing_plan_id":"cebpf4jnsgd1na2vs0mg"},{"bike_id":"2ee94e4f-b89a-442c-97ab-8c42d37ff872","system_id":"levelo_inurba_marseille","lat":43.27835,"lon":5.3921,"is_reserved":false,"is_disabled":false,"rental_uris":{"android":"levelo://app?vid=2ee94e4f-b89a-442c-97ab-8c42d37ff872","ios":"levelo://app?vid=2ee94e4f-b89a-442c-97ab-8c42d37ff872"},"vehicle_type_id":"4","last_reported":1745206465,"current_range_meters":17200,"station_id":"ce4bhjp2rcd13ifvqga0","pricing_plan_id":"cebpf4jnsgd1na2vs0mg"},{"bike_id":"76453cd1-7d95-428f-9fac-4fd01a322ba9","system_id":"levelo_inurba_marseille","lat":43.290066,"lon":5.356055,"is_reserved":false,"is_disabled":true,"rental_uris":{"android":"levelo://app?vid=76453cd1-7d95-428f-9fac-4fd01a322ba9","ios":"levelo://app?vid=76453cd1-7d95-428f-9fac-4fd01a322ba9"},"vehicle_type_id":"4","last_reported":1745206465,"current_range_meters":17200,"station_id":"ce4bhb92rcd13ifvqen0","pricing_plan_id":"cebpf4jnsgd1na2vs0mg"},{"bike_id":"8e09c260-562e-47ac-9cbf-89490298ff42","system_id":"levelo_inurba_marseille","lat":43.30654,"lon":5.4075,"is_reserved":false,"is_disabled":false,"rental_uris":{"android":"levelo://app?vid=8e09c260-562e-47ac-9cbf-89490298ff42","ios":"levelo://app?vid=8e09c260-562e-47ac-9cbf-89490298ff42"},"vehicle_type_id":"4","last_reported":1745206465,"current_range_meters":17200,"station_id":"","pricing_plan_id":"cebpf4jnsgd1na2vs0mg"},{"bike_id":"948d5a35-9c81-459d-880f-1bf6fdb9262c","system_id":"levelo_inurba_marseille","lat":43.33779,"lon":5.37481,"is_reserved":false,"is_disabled":false,"rental_uris":{"android":"levelo://app?vid=948d5a35-9c81-459d-880f-1bf6fdb9262c","ios":"levelo://app?vid=948d5a35-9c81-459d-880f-1bf6fdb9262c"},"vehicle_type_id":"4","last_reported":1745206465,"current_range_meters":17200,"station_id":"","pricing_plan_id":"cebpf4jnsgd1na2vs0mg"},{"bike_id":"1bee1f6b-dcb8-46b9-a0b3-876cad04fee4","system_id":"levelo_inurba_marseille","lat":43.24691,"lon":5.38162,"is_reserved":false,"is_disabled":false,"rental_uris":{"android":"levelo://app?vid=1bee1f6b-dcb8-46b9-a0b3-876cad04fee4","ios":"levelo://app?vid=1bee1f6b-dcb8-46b9-a0b3-876cad04fee4"},"vehicle_type_id":"4","last_reported":1745206465,"current_range_meters":17200,"station_id":"ce4bhih2rcd13ifvqfr0","pricing_plan_id":"cebpf4jnsgd1na2vs0mg"},{"bike_id":"b3eec801-e14b-4c1a-ac15-531a25c956e2","system_id":"levelo_inurba_marseille","lat":43.29236,"lon":5.40924,"is_reserved":false,"is_disabled":false,"rental_uris":{"android":"levelo://app?vid=b3eec801-e14b-4c1a-ac15-531a25c956e2","ios":"levelo://app?vid=b3eec801-e14b-4c1a-ac15-531a25c956e2"},"vehicle_type_id":"4","last_reported":1745206465,"current_range_meters":17200,"station_id":"ce4bh192rcd13ifvqdc0","pricing_plan_id":"cebpf4jnsgd1na2vs0mg"},{"bike_id":"af454791-f9b3-4152-989c-1ca4d88b23d5","system_id":"levelo_inurba_marseille","lat":43.251123,"lon":5.403089,"is_reserved":false,"is_disabled":false,"rental_uris":{"android":"levelo://app?vid=af454791-f9b3-4152-989c-1ca4d88b23d5","ios":"levelo://app?vid=af454791-f9b3-4152-989c-1ca4d88b23d5"},"vehicle_type_id":"4","last_reported":1745206465,"current_range_meters":17200,"station_id":"ce4bhlh2rcd13ifvqgig","pricing_plan_id":"cebpf4jnsgd1na2vs0mg"},{"bike_id":"3cd6e764-35d0-4055-a8a2-3896bb09f920","system_id":"levelo_inurba_marseille","lat":43.336476,"lon":5.397411,"is_reserved":false,"is_disabled":false,"rental_uris":{"android":"levelo://app?vid=3cd6e764-35d0-4055-a8a2-3896bb09f920","ios":"levelo://app?vid=3cd6e764-35d0-4055-a8a2-3896bb09f920"},"vehicle_type_id":"4","last_reported":1745206465,"current_range_meters":17600,"station_id":"","pricing_plan_id":"cebpf4jnsgd1na2vs0mg"},{"bike_id":"90ce21df-5f7c-4551-a99a-0900c11e065d","system_id":"levelo_inurba_marseille","lat":43.28361,"lon":5.41859,"is_reserved":false,"is_disabled":false,"rental_uris":{"android":"levelo://app?vid=90ce21df-5f7c-4551-a99a-0900c11e065d","ios":"levelo://app?vid=90ce21df-5f7c-4551-a99a-0900c11e065d"},"vehicle_type_id":"4","last_reported":1745206465,"current_range_meters":17600,"station_id":"","pricing_plan_id":"cebpf4jnsgd1na2vs0mg"},{"bike_id":"495096e8-215c-4369-b42a-f8123bca3e0d","system_id":"levelo_inurba_marseille","lat":43.26201,"lon":5.40426,"is_reserved":false,"is_disabled":false,"rental_uris":{"android":"levelo://app?vid=495096e8-215c-4369-b42a-f8123bca3e0d","ios":"levelo://app?vid=495096e8-215c-4369-b42a-f8123bca3e0d"},"vehicle_type_id":"4","last_reported":1745206465,"current_range_meters":17600,"station_id":"ce4bhmh2rcd13ifvqgmg","pricing_plan_id":"cebpf4jnsgd1na2vs0mg"},{"bike_id":"e024b5f0-c8a8-4c59-83b8-9fea0a0da8d5","system_id":"levelo_inurba_marseille","lat":43.31066,"lon":5.38355,"is_reserved":false,"is_disabled":false,"rental_uris":{"android":"levelo://app?vid=e024b5f0-c8a8-4c59-83b8-9fea0a0da8d5","ios":"levelo://app?vid=e024b5f0-c8a8-4c59-83b8-9fea0a0da8d5"},"vehicle_type_id":"4","last_reported":1745206465,"current_range_meters":17600,"station_id":"ce4bgv92rcd13ifvqcr0","pricing_plan_id":"cebpf4jnsgd1na2vs0mg"},{"bike_id":"2b22eb8e-177c-4ead-8259-66e572a51a0a","system_id":"levelo_inurba_marseille","lat":43.30925,"lon":5.40156,"is_reserved":false,"is_disabled":false,"rental_uris":{"android":"levelo://app?vid=2b22eb8e-177c-4ead-8259-66e572a51a0a","ios":"levelo://app?vid=2b22eb8e-177c-4ead-8259-66e572a51a0a"},"vehicle_type_id":"4","last_reported":1745206465,"current_range_meters":17600,"station_id":"ce4bgvp2rcd13ifvqct0","pricing_plan_id":"cebpf4jnsgd1na2vs0mg"},{"bike_id":"d2afc502-7c0e-4c30-953a-05089d63cf8f","system_id":"levelo_inurba_marseille","lat":43.304157,"lon":5.412861,"is_reserved":false,"is_disabled":false,"rental_uris":{"android":"levelo://app?vid=d2afc502-7c0e-4c30-953a-05089d63cf8f","ios":"levelo://app?vid=d2afc502-7c0e-4c30-953a-05089d63cf8f"},"vehicle_type_id":"4","last_reported":1745206465,"current_range_meters":17600,"station_id":"ce4bhop2rcd13ifvqh8g","pricing_plan_id":"cebpf4jnsgd1na2vs0mg"},{"bike_id":"4548ac9e-e96e-45c1-a769-0832297babba","system_id":"levelo_inurba_marseille","lat":43.32083,"lon":5.36777,"is_reserved":false,"is_disabled":false,"rental_uris":{"android":"levelo://app?vid=4548ac9e-e96e-45c1-a769-0832297babba","ios":"levelo://app?vid=4548ac9e-e96e-45c1-a769-0832297babba"},"vehicle_type_id":"4","last_reported":1745206465,"current_range_meters":18000,"station_id":"ce4bhrh2rcd13ifvqhug","pricing_plan_id":"cebpf4jnsgd1na2vs0mg"},{"bike_id":"88d413c7-d41d-4858-9903-ae5aa953eaa9","system_id":"levelo_inurba_marseille","lat":43.250865,"lon":5.395065,"is_reserved":false,"is_disabled":false,"rental_uris":{"android":"levelo://app?vid=88d413c7-d41d-4858-9903-ae5aa953eaa9","ios":"levelo://app?vid=88d413c7-d41d-4858-9903-ae5aa953eaa9"},"vehicle_type_id":"4","last_reported":1745206465,"current_range_meters":18000,"station_id":"ce4bhm12rcd13ifvqgkg","pricing_plan_id":"cebpf4jnsgd1na2vs0mg"},{"bike_id":"57fa8f5b-772c-43d0-a9df-35a917243059","system_id":"levelo_inurba_marseille","lat":43.2885,"lon":5.35869,"is_reserved":false,"is_disabled":false,"rental_uris":{"android":"levelo://app?vid=57fa8f5b-772c-43d0-a9df-35a917243059","ios":"levelo://app?vid=57fa8f5b-772c-43d0-a9df-35a917243059"},"vehicle_type_id":"4","last_reported":1745206465,"current_range_meters":18000,"station_id":"ce4bhb12rcd13ifvqem0","pricing_plan_id":"cebpf4jnsgd1na2vs0mg"},{"bike_id":"c5e3d54c-a3b9-49be-b43b-87868e82f29e","system_id":"levelo_inurba_marseille","lat":43.26226,"lon":5.40485,"is_reserved":false,"is_disabled":false,"rental_uris":{"android":"levelo://app?vid=c5e3d54c-a3b9-49be-b43b-87868e82f29e","ios":"levelo://app?vid=c5e3d54c-a3b9-49be-b43b-87868e82f29e"},"vehicle_type_id":"4","last_reported":1745206465,"current_range_meters":18000,"station_id":"ce4bhmh2rcd13ifvqgmg","pricing_plan_id":"cebpf4jnsgd1na2vs0mg"},{"bike_id":"4b3442fa-d1e8-424a-899f-db8765397285","system_id":"levelo_inurba_marseille","lat":43.25112,"lon":5.40322,"is_reserved":false,"is_disabled":false,"rental_uris":{"android":"levelo://app?vid=4b3442fa-d1e8-424a-899f-db8765397285","ios":"levelo://app?vid=4b3442fa-d1e8-424a-899f-db8765397285"},"vehicle_type_id":"4","last_reported":1745206465,"current_range_meters":18000,"station_id":"ce4bhnh2rcd13ifvqgug","pricing_plan_id":"cebpf4jnsgd1na2vs0mg"},{"bike_id":"9235e989-b644-4df1-b668-556e4921b40e","system_id":"levelo_inurba_marseille","lat":43.241787,"lon":5.397046,"is_reserved":false,"is_disabled":true,"rental_uris":{"android":"levelo://app?vid=9235e989-b644-4df1-b668-556e4921b40e","ios":"levelo://app?vid=9235e989-b644-4df1-b668-556e4921b40e"},"vehicle_type_id":"4","last_reported":1745206465,"current_range_meters":18800,"station_id":"ce4bhn12rcd13ifvqgpg","pricing_plan_id":"cebpf4jnsgd1na2vs0mg"},{"bike_id":"9ebb9e31-b181-4120-a985-5579f166c1c4","system_id":"levelo_inurba_marseille","lat":43.279908,"lon":5.400185,"is_reserved":false,"is_disabled":true,"rental_uris":{"android":"levelo://app?vid=9ebb9e31-b181-4120-a985-5579f166c1c4","ios":"levelo://app?vid=9ebb9e31-b181-4120-a985-5579f166c1c4"},"vehicle_type_id":"4","last_reported":1745206465,"current_range_meters":18800,"station_id":"ce4bho92rcd13ifvqh4g","pricing_plan_id":"cebpf4jnsgd1na2vs0mg"},{"bike_id":"00ffbdc2-2962-4e85-97f2-b2875d1e2753","system_id":"levelo_inurba_marseille","lat":43.282727,"lon":5.350661,"is_reserved":false,"is_disabled":true,"rental_uris":{"android":"levelo://app?vid=00ffbdc2-2962-4e85-97f2-b2875d1e2753","ios":"levelo://app?vid=00ffbdc2-2962-4e85-97f2-b2875d1e2753"},"vehicle_type_id":"4","last_reported":1745206465,"current_range_meters":18800,"station_id":"ce4bhbp2rcd13ifvqerg","pricing_plan_id":"cebpf4jnsgd1na2vs0mg"},{"bike_id":"c00307c4-823d-42b8-8b02-e60db8763c55","system_id":"levelo_inurba_marseille","lat":43.304132,"lon":5.412798,"is_reserved":false,"is_disabled":false,"rental_uris":{"android":"levelo://app?vid=c00307c4-823d-42b8-8b02-e60db8763c55","ios":"levelo://app?vid=c00307c4-823d-42b8-8b02-e60db8763c55"},"vehicle_type_id":"4","last_reported":1745206465,"current_range_meters":18800,"station_id":"ce4bhop2rcd13ifvqh8g","pricing_plan_id":"cebpf4jnsgd1na2vs0mg"},{"bike_id":"7fbfc9a0-3123-40fa-bbce-c6ce9edda5ed","system_id":"levelo_inurba_marseille","lat":43.270726,"lon":5.422636,"is_reserved":false,"is_disabled":true,"rental_uris":{"android":"levelo://app?vid=7fbfc9a0-3123-40fa-bbce-c6ce9edda5ed","ios":"levelo://app?vid=7fbfc9a0-3123-40fa-bbce-c6ce9edda5ed"},"vehicle_type_id":"4","last_reported":1745206465,"current_range_meters":18800,"station_id":"ce4bhk92rcd13ifvqgb0","pricing_plan_id":"cebpf4jnsgd1na2vs0mg"},{"bike_id":"3242031d-70ee-42c4-80dd-fc750a7fa2d1","system_id":"levelo_inurba_marseille","lat":43.33717,"lon":5.35618,"is_reserved":false,"is_disabled":false,"rental_uris":{"android":"levelo://app?vid=3242031d-70ee-42c4-80dd-fc750a7fa2d1","ios":"levelo://app?vid=3242031d-70ee-42c4-80dd-fc750a7fa2d1"},"vehicle_type_id":"4","last_reported":1745206465,"current_range_meters":19200,"station_id":"","pricing_plan_id":"cebpf4jnsgd1na2vs0mg"},{"bike_id":"da12a936-18fd-4cef-bde1-14ba30917661","system_id":"levelo_inurba_marseille","lat":43.323424,"lon":5.406194,"is_reserved":false,"is_disabled":false,"rental_uris":{"android":"levelo://app?vid=da12a936-18fd-4cef-bde1-14ba30917661","ios":"levelo://app?vid=da12a936-18fd-4cef-bde1-14ba30917661"},"vehicle_type_id":"4","last_reported":1745206465,"current_range_meters":19200,"station_id":"ce4bhq92rcd13ifvqhjg","pricing_plan_id":"cebpf4jnsgd1na2vs0mg"},{"bike_id":"f2578bcc-cf04-45b7-b6c9-54723449f9b1","system_id":"levelo_inurba_marseille","lat":43.28809,"lon":5.35871,"is_reserved":false,"is_disabled":false,"rental_uris":{"android":"levelo://app?vid=f2578bcc-cf04-45b7-b6c9-54723449f9b1","ios":"levelo://app?vid=f2578bcc-cf04-45b7-b6c9-54723449f9b1"},"vehicle_type_id":"4","last_reported":1745206465,"current_range_meters":19200,"station_id":"ce4bhb12rcd13ifvqem0","pricing_plan_id":"cebpf4jnsgd1na2vs0mg"},{"bike_id":"453d02bd-d198-453b-ab19-003bc2d80e12","system_id":"levelo_inurba_marseille","lat":43.27565,"lon":5.38427,"is_reserved":false,"is_disabled":false,"rental_uris":{"android":"levelo://app?vid=453d02bd-d198-453b-ab19-003bc2d80e12","ios":"levelo://app?vid=453d02bd-d198-453b-ab19-003bc2d80e12"},"vehicle_type_id":"4","last_reported":1745206465,"current_range_meters":19600,"station_id":"ce4bhh92rcd13ifvqfi0","pricing_plan_id":"cebpf4jnsgd1na2vs0mg"},{"bike_id":"edb5d909-a522-40a7-afb8-0b251bbbb305","system_id":"levelo_inurba_marseille","lat":43.26936,"lon":5.38643,"is_reserved":false,"is_disabled":true,"rental_uris":{"android":"levelo://app?vid=edb5d909-a522-40a7-afb8-0b251bbbb305","ios":"levelo://app?vid=edb5d909-a522-40a7-afb8-0b251bbbb305"},"vehicle_type_id":"4","last_reported":1745206465,"current_range_meters":19600,"station_id":"ce4bhh92rcd13ifvqfh0","pricing_plan_id":"cebpf4jnsgd1na2vs0mg"},{"bike_id":"7677c4ef-d832-47d2-8cdb-18c973bf10e9","system_id":"levelo_inurba_marseille","lat":43.30926,"lon":5.39489,"is_reserved":false,"is_disabled":false,"rental_uris":{"android":"levelo://app?vid=7677c4ef-d832-47d2-8cdb-18c973bf10e9","ios":"levelo://app?vid=7677c4ef-d832-47d2-8cdb-18c973bf10e9"},"vehicle_type_id":"4","last_reported":1745206465,"current_range_meters":19600,"station_id":"","pricing_plan_id":"cebpf4jnsgd1na2vs0mg"},{"bike_id":"11523877-2f6c-49d8-9233-0bd89a3be448","system_id":"levelo_inurba_marseille","lat":43.33719,"lon":5.39192,"is_reserved":false,"is_disabled":false,"rental_uris":{"android":"levelo://app?vid=11523877-2f6c-49d8-9233-0bd89a3be448","ios":"levelo://app?vid=11523877-2f6c-49d8-9233-0bd89a3be448"},"vehicle_type_id":"4","last_reported":1745206465,"current_range_meters":19600,"station_id":"ce4bhr92rcd13ifvqhsg","pricing_plan_id":"cebpf4jnsgd1na2vs0mg"},{"bike_id":"ad9bd8bc-5e72-4bf5-b4ea-736f010faef4","system_id":"levelo_inurba_marseille","lat":43.30412,"lon":5.41284,"is_reserved":false,"is_disabled":false,"rental_uris":{"android":"levelo://app?vid=ad9bd8bc-5e72-4bf5-b4ea-736f010faef4","ios":"levelo://app?vid=ad9bd8bc-5e72-4bf5-b4ea-736f010faef4"},"vehicle_type_id":"4","last_reported":1745206465,"current_range_meters":19600,"station_id":"ce4bhop2rcd13ifvqh8g","pricing_plan_id":"cebpf4jnsgd1na2vs0mg"},{"bike_id":"b8f1b8ef-455a-4891-ac6b-7ffde9116060","system_id":"levelo_inurba_marseille","lat":43.30886,"lon":5.39621,"is_reserved":false,"is_disabled":false,"rental_uris":{"android":"levelo://app?vid=b8f1b8ef-455a-4891-ac6b-7ffde9116060","ios":"levelo://app?vid=b8f1b8ef-455a-4891-ac6b-7ffde9116060"},"vehicle_type_id":"4","last_reported":1745206465,"current_range_meters":19600,"station_id":"ce4bh012rcd13ifvqcv0","pricing_plan_id":"cebpf4jnsgd1na2vs0mg"},{"bike_id":"2cf5be3a-dd83-40ce-8a9d-0967a2587429","system_id":"levelo_inurba_marseille","lat":43.316445,"lon":5.373064,"is_reserved":false,"is_disabled":false,"rental_uris":{"android":"levelo://app?vid=2cf5be3a-dd83-40ce-8a9d-0967a2587429","ios":"levelo://app?vid=2cf5be3a-dd83-40ce-8a9d-0967a2587429"},"vehicle_type_id":"4","last_reported":1745206465,"current_range_meters":19600,"station_id":"","pricing_plan_id":"cebpf4jnsgd1na2vs0mg"},{"bike_id":"bee65c0e-3969-4a3e-9a94-ddda99c1298d","system_id":"levelo_inurba_marseille","lat":43.30394,"lon":5.41312,"is_reserved":false,"is_disabled":false,"rental_uris":{"android":"levelo://app?vid=bee65c0e-3969-4a3e-9a94-ddda99c1298d","ios":"levelo://app?vid=bee65c0e-3969-4a3e-9a94-ddda99c1298d"},"vehicle_type_id":"4","last_reported":1745206465,"current_range_meters":19600,"station_id":"ce4bhop2rcd13ifvqh8g","pricing_plan_id":"cebpf4jnsgd1na2vs0mg"},{"bike_id":"815228c1-b05e-49cf-9e82-cf6be4d5757f","system_id":"levelo_inurba_marseille","lat":43.30372,"lon":5.4249,"is_reserved":false,"is_disabled":false,"rental_uris":{"android":"levelo://app?vid=815228c1-b05e-49cf-9e82-cf6be4d5757f","ios":"levelo://app?vid=815228c1-b05e-49cf-9e82-cf6be4d5757f"},"vehicle_type_id":"4","last_reported":1745206465,"current_range_meters":20000,"station_id":"ce4bhoh2rcd13ifvqh6g","pricing_plan_id":"cebpf4jnsgd1na2vs0mg"},{"bike_id":"5a46db62-513a-4883-9f49-f4d5b01aab0e","system_id":"levelo_inurba_marseille","lat":43.31523,"lon":5.38037,"is_reserved":false,"is_disabled":false,"rental_uris":{"android":"levelo://app?vid=5a46db62-513a-4883-9f49-f4d5b01aab0e","ios":"levelo://app?vid=5a46db62-513a-4883-9f49-f4d5b01aab0e"},"vehicle_type_id":"4","last_reported":1745206465,"current_range_meters":20000,"station_id":"ce4bhsp2rcd13ifvqi50","pricing_plan_id":"cebpf4jnsgd1na2vs0mg"},{"bike_id":"c0ac41c5-c845-40e1-a3b6-89315ac1fad7","system_id":"levelo_inurba_marseille","lat":43.299247,"lon":5.408399,"is_reserved":false,"is_disabled":false,"rental_uris":{"android":"levelo://app?vid=c0ac41c5-c845-40e1-a3b6-89315ac1fad7","ios":"levelo://app?vid=c0ac41c5-c845-40e1-a3b6-89315ac1fad7"},"vehicle_type_id":"4","last_reported":1745206465,"current_range_meters":20000,"station_id":"","pricing_plan_id":"cebpf4jnsgd1na2vs0mg"},{"bike_id":"fc29c697-c8dc-4b48-8f04-ef505590e058","system_id":"levelo_inurba_marseille","lat":43.265892,"lon":5.389944,"is_reserved":false,"is_disabled":false,"rental_uris":{"android":"levelo://app?vid=fc29c697-c8dc-4b48-8f04-ef505590e058","ios":"levelo://app?vid=fc29c697-c8dc-4b48-8f04-ef505590e058"},"vehicle_type_id":"4","last_reported":1745206465,"current_range_meters":20000,"station_id":"","pricing_plan_id":"cebpf4jnsgd1na2vs0mg"},{"bike_id":"0af98c77-e735-4f11-8f26-a525403634d8","system_id":"levelo_inurba_marseille","lat":43.30886,"lon":5.37201,"is_reserved":false,"is_disabled":false,"rental_uris":{"android":"levelo://app?vid=0af98c77-e735-4f11-8f26-a525403634d8","ios":"levelo://app?vid=0af98c77-e735-4f11-8f26-a525403634d8"},"vehicle_type_id":"4","last_reported":1745206465,"current_range_meters":20400,"station_id":"ce4bguh2rcd13ifvqckg","pricing_plan_id":"cebpf4jnsgd1na2vs0mg"},{"bike_id":"d6f3a255-8161-4d45-919d-bd54887358d5","system_id":"levelo_inurba_marseille","lat":43.24069,"lon":5.37772,"is_reserved":false,"is_disabled":false,"rental_uris":{"android":"levelo://app?vid=d6f3a255-8161-4d45-919d-bd54887358d5","ios":"levelo://app?vid=d6f3a255-8161-4d45-919d-bd54887358d5"},"vehicle_type_id":"4","last_reported":1745206465,"current_range_meters":20400,"station_id":"ce4bhnp2rcd13ifvqgvg","pricing_plan_id":"cebpf4jnsgd1na2vs0mg"},{"bike_id":"59e0332a-055c-4a55-bbe7-35149d5556ed","system_id":"levelo_inurba_marseille","lat":43.240808,"lon":5.37741,"is_reserved":false,"is_disabled":false,"rental_uris":{"android":"levelo://app?vid=59e0332a-055c-4a55-bbe7-35149d5556ed","ios":"levelo://app?vid=59e0332a-055c-4a55-bbe7-35149d5556ed"},"vehicle_type_id":"4","last_reported":1745206465,"current_range_meters":20400,"station_id":"ce4bhnp2rcd13ifvqgvg","pricing_plan_id":"cebpf4jnsgd1na2vs0mg"},{"bike_id":"b261fe84-cd86-4730-b2ee-802177904fc1","system_id":"levelo_inurba_marseille","lat":43.31731,"lon":5.37776,"is_reserved":false,"is_disabled":false,"rental_uris":{"android":"levelo://app?vid=b261fe84-cd86-4730-b2ee-802177904fc1","ios":"levelo://app?vid=b261fe84-cd86-4730-b2ee-802177904fc1"},"vehicle_type_id":"4","last_reported":1745206465,"current_range_meters":20400,"station_id":"ce4bgth2rcd13ifvqch0","pricing_plan_id":"cebpf4jnsgd1na2vs0mg"},{"bike_id":"18e3b8e3-4921-4d42-8ca8-50d09a9007c8","system_id":"levelo_inurba_marseille","lat":43.30934,"lon":5.4014,"is_reserved":false,"is_disabled":false,"rental_uris":{"android":"levelo://app?vid=18e3b8e3-4921-4d42-8ca8-50d09a9007c8","ios":"levelo://app?vid=18e3b8e3-4921-4d42-8ca8-50d09a9007c8"},"vehicle_type_id":"4","last_reported":1745206465,"current_range_meters":20800,"station_id":"ce4bgvp2rcd13ifvqct0","pricing_plan_id":"cebpf4jnsgd1na2vs0mg"},{"bike_id":"06839e26-45cf-4850-81ea-ca86cbed935d","system_id":"levelo_inurba_marseille","lat":43.30599,"lon":5.39371,"is_reserved":false,"is_disabled":false,"rental_uris":{"android":"levelo://app?vid=06839e26-45cf-4850-81ea-ca86cbed935d","ios":"levelo://app?vid=06839e26-45cf-4850-81ea-ca86cbed935d"},"vehicle_type_id":"4","last_reported":1745206465,"current_range_meters":20800,"station_id":"ce4bh0p2rcd13ifvqd80","pricing_plan_id":"cebpf4jnsgd1na2vs0mg"},{"bike_id":"0ea403e7-0bae-4fc6-85cb-2bcadf8a0a3b","system_id":"levelo_inurba_marseille","lat":43.31114,"lon":5.37783,"is_reserved":false,"is_disabled":false,"rental_uris":{"android":"levelo://app?vid=0ea403e7-0bae-4fc6-85cb-2bcadf8a0a3b","ios":"levelo://app?vid=0ea403e7-0bae-4fc6-85cb-2bcadf8a0a3b"},"vehicle_type_id":"4","last_reported":1745206465,"current_range_meters":20800,"station_id":"ce4bgt92rcd13ifvqcg0","pricing_plan_id":"cebpf4jnsgd1na2vs0mg"},{"bike_id":"a79fb0f7-3487-47ce-865f-146ad377c1c2","system_id":"levelo_inurba_marseille","lat":43.2469,"lon":5.38177,"is_reserved":false,"is_disabled":false,"rental_uris":{"android":"levelo://app?vid=a79fb0f7-3487-47ce-865f-146ad377c1c2","ios":"levelo://app?vid=a79fb0f7-3487-47ce-865f-146ad377c1c2"},"vehicle_type_id":"4","last_reported":1745206465,"current_range_meters":20800,"station_id":"ce4bhih2rcd13ifvqfr0","pricing_plan_id":"cebpf4jnsgd1na2vs0mg"},{"bike_id":"812d9bb8-13f0-4982-90b7-1d13c2703a54","system_id":"levelo_inurba_marseille","lat":43.28477,"lon":5.35871,"is_reserved":false,"is_disabled":false,"rental_uris":{"android":"levelo://app?vid=812d9bb8-13f0-4982-90b7-1d13c2703a54","ios":"levelo://app?vid=812d9bb8-13f0-4982-90b7-1d13c2703a54"},"vehicle_type_id":"4","last_reported":1745206465,"current_range_meters":20800,"station_id":"ce4bhah2rcd13ifvqei0","pricing_plan_id":"cebpf4jnsgd1na2vs0mg"},{"bike_id":"ff691947-2342-40b1-b007-4c50dc3c90c0","system_id":"levelo_inurba_marseille","lat":43.30972,"lon":5.37986,"is_reserved":false,"is_disabled":true,"rental_uris":{"android":"levelo://app?vid=ff691947-2342-40b1-b007-4c50dc3c90c0","ios":"levelo://app?vid=ff691947-2342-40b1-b007-4c50dc3c90c0"},"vehicle_type_id":"4","last_reported":1745206465,"current_range_meters":20800,"station_id":"","pricing_plan_id":"cebpf4jnsgd1na2vs0mg"},{"bike_id":"fa56eefd-8d10-45c5-b0e1-b4b133c6abe6","system_id":"levelo_inurba_marseille","lat":43.30787,"lon":5.37678,"is_reserved":false,"is_disabled":false,"rental_uris":{"android":"levelo://app?vid=fa56eefd-8d10-45c5-b0e1-b4b133c6abe6","ios":"levelo://app?vid=fa56eefd-8d10-45c5-b0e1-b4b133c6abe6"},"vehicle_type_id":"4","last_reported":1745206465,"current_range_meters":20800,"station_id":"ce4bgv92rcd13ifvqcq0","pricing_plan_id":"cebpf4jnsgd1na2vs0mg"},{"bike_id":"dc6f1c25-388d-4263-85e6-cf1beda449af","system_id":"levelo_inurba_marseille","lat":43.2885,"lon":5.39301,"is_reserved":false,"is_disabled":false,"rental_uris":{"android":"levelo://app?vid=dc6f1c25-388d-4263-85e6-cf1beda449af","ios":"levelo://app?vid=dc6f1c25-388d-4263-85e6-cf1beda449af"},"vehicle_type_id":"4","last_reported":1745206465,"current_range_meters":21600,"station_id":"ce4bh2p2rcd13ifvqdi0","pricing_plan_id":"cebpf4jnsgd1na2vs0mg"},{"bike_id":"e7daab05-2780-4d35-94e4-9376c01cc222","system_id":"levelo_inurba_marseille","lat":43.3031,"lon":5.368918,"is_reserved":false,"is_disabled":false,"rental_uris":{"android":"levelo://app?vid=e7daab05-2780-4d35-94e4-9376c01cc222","ios":"levelo://app?vid=e7daab05-2780-4d35-94e4-9376c01cc222"},"vehicle_type_id":"4","last_reported":1745206465,"current_range_meters":21600,"station_id":"ce4bgqh2rcd13ifvqc5g","pricing_plan_id":"cebpf4jnsgd1na2vs0mg"},{"bike_id":"cfde290e-eb1f-41f2-8764-c44c415e0110","system_id":"levelo_inurba_marseille","lat":43.26191,"lon":5.40443,"is_reserved":false,"is_disabled":false,"rental_uris":{"android":"levelo://app?vid=cfde290e-eb1f-41f2-8764-c44c415e0110","ios":"levelo://app?vid=cfde290e-eb1f-41f2-8764-c44c415e0110"},"vehicle_type_id":"4","last_reported":1745206465,"current_range_meters":21600,"station_id":"ce4bhmh2rcd13ifvqgmg","pricing_plan_id":"cebpf4jnsgd1na2vs0mg"},{"bike_id":"f526e5c1-8e93-488d-a92e-0bcec7b169c5","system_id":"levelo_inurba_marseille","lat":43.29887,"lon":5.39615,"is_reserved":false,"is_disabled":false,"rental_uris":{"android":"levelo://app?vid=f526e5c1-8e93-488d-a92e-0bcec7b169c5","ios":"levelo://app?vid=f526e5c1-8e93-488d-a92e-0bcec7b169c5"},"vehicle_type_id":"4","last_reported":1745206465,"current_range_meters":21600,"station_id":"","pricing_plan_id":"cebpf4jnsgd1na2vs0mg"},{"bike_id":"0b044c5d-9d6e-407a-a0f4-56217862b4cf","system_id":"levelo_inurba_marseille","lat":43.278961,"lon":5.380114,"is_reserved":false,"is_disabled":false,"rental_uris":{"android":"levelo://app?vid=0b044c5d-9d6e-407a-a0f4-56217862b4cf","ios":"levelo://app?vid=0b044c5d-9d6e-407a-a0f4-56217862b4cf"},"vehicle_type_id":"4","last_reported":1745206465,"current_range_meters":22000,"station_id":"ce4bhf92rcd13ifvqf50","pricing_plan_id":"cebpf4jnsgd1na2vs0mg"},{"bike_id":"7b184fcb-8493-418c-970a-b38700a9d83d","system_id":"levelo_inurba_marseille","lat":43.321021,"lon":5.367759,"is_reserved":false,"is_disabled":false,"rental_uris":{"android":"levelo://app?vid=7b184fcb-8493-418c-970a-b38700a9d83d","ios":"levelo://app?vid=7b184fcb-8493-418c-970a-b38700a9d83d"},"vehicle_type_id":"4","last_reported":1745206465,"current_range_meters":22000,"station_id":"ce4bhrh2rcd13ifvqhug","pricing_plan_id":"cebpf4jnsgd1na2vs0mg"},{"bike_id":"d13c8523-a386-4e1a-87c5-8567981b6e44","system_id":"levelo_inurba_marseille","lat":43.23964,"lon":5.36636,"is_reserved":false,"is_disabled":false,"rental_uris":{"android":"levelo://app?vid=d13c8523-a386-4e1a-87c5-8567981b6e44","ios":"levelo://app?vid=d13c8523-a386-4e1a-87c5-8567981b6e44"},"vehicle_type_id":"4","last_reported":1745206465,"current_range_meters":22000,"station_id":"ce4bhi12rcd13ifvqfp0","pricing_plan_id":"cebpf4jnsgd1na2vs0mg"},{"bike_id":"8b130a09-aaaf-4aa6-818b-7046c9a559b0","system_id":"levelo_inurba_marseille","lat":43.24665,"lon":5.38163,"is_reserved":false,"is_disabled":false,"rental_uris":{"android":"levelo://app?vid=8b130a09-aaaf-4aa6-818b-7046c9a559b0","ios":"levelo://app?vid=8b130a09-aaaf-4aa6-818b-7046c9a559b0"},"vehicle_type_id":"4","last_reported":1745206465,"current_range_meters":22000,"station_id":"ce4bhih2rcd13ifvqfr0","pricing_plan_id":"cebpf4jnsgd1na2vs0mg"},{"bike_id":"d3d20f09-fde3-4089-a68c-f61e01a813b2","system_id":"levelo_inurba_marseille","lat":43.231886,"lon":5.399911,"is_reserved":false,"is_disabled":true,"rental_uris":{"android":"levelo://app?vid=d3d20f09-fde3-4089-a68c-f61e01a813b2","ios":"levelo://app?vid=d3d20f09-fde3-4089-a68c-f61e01a813b2"},"vehicle_type_id":"4","last_reported":1745206465,"current_range_meters":22000,"station_id":"ce4bhn12rcd13ifvqgqg","pricing_plan_id":"cebpf4jnsgd1na2vs0mg"},{"bike_id":"2e62bd50-8ce6-4b79-8517-7402c9904232","system_id":"levelo_inurba_marseille","lat":43.23195,"lon":5.39968,"is_reserved":false,"is_disabled":false,"rental_uris":{"android":"levelo://app?vid=2e62bd50-8ce6-4b79-8517-7402c9904232","ios":"levelo://app?vid=2e62bd50-8ce6-4b79-8517-7402c9904232"},"vehicle_type_id":"4","last_reported":1745206465,"current_range_meters":22400,"station_id":"ce4bhn12rcd13ifvqgqg","pricing_plan_id":"cebpf4jnsgd1na2vs0mg"},{"bike_id":"922ebf99-0297-4920-86fd-77f2def5a6f2","system_id":"levelo_inurba_marseille","lat":43.260202,"lon":5.41738,"is_reserved":false,"is_disabled":false,"rental_uris":{"android":"levelo://app?vid=922ebf99-0297-4920-86fd-77f2def5a6f2","ios":"levelo://app?vid=922ebf99-0297-4920-86fd-77f2def5a6f2"},"vehicle_type_id":"4","last_reported":1745206465,"current_range_meters":22400,"station_id":"","pricing_plan_id":"cebpf4jnsgd1na2vs0mg"},{"bike_id":"5346160b-695d-44d0-915a-5dfd75ed6529","system_id":"levelo_inurba_marseille","lat":43.26228,"lon":5.40463,"is_reserved":false,"is_disabled":false,"rental_uris":{"android":"levelo://app?vid=5346160b-695d-44d0-915a-5dfd75ed6529","ios":"levelo://app?vid=5346160b-695d-44d0-915a-5dfd75ed6529"},"vehicle_type_id":"4","last_reported":1745206465,"current_range_meters":22400,"station_id":"ce4bhmh2rcd13ifvqgmg","pricing_plan_id":"cebpf4jnsgd1na2vs0mg"},{"bike_id":"5a4030a3-e20e-4b79-8be2-0a55825b7aac","system_id":"levelo_inurba_marseille","lat":43.28023,"lon":5.37,"is_reserved":false,"is_disabled":false,"rental_uris":{"android":"levelo://app?vid=5a4030a3-e20e-4b79-8be2-0a55825b7aac","ios":"levelo://app?vid=5a4030a3-e20e-4b79-8be2-0a55825b7aac"},"vehicle_type_id":"4","last_reported":1745206465,"current_range_meters":22400,"station_id":"","pricing_plan_id":"cebpf4jnsgd1na2vs0mg"},{"bike_id":"e448e6a6-efd7-4dcb-85af-ec7e8f10bceb","system_id":"levelo_inurba_marseille","lat":43.2943,"lon":5.38606,"is_reserved":false,"is_disabled":true,"rental_uris":{"android":"levelo://app?vid=e448e6a6-efd7-4dcb-85af-ec7e8f10bceb","ios":"levelo://app?vid=e448e6a6-efd7-4dcb-85af-ec7e8f10bceb"},"vehicle_type_id":"4","last_reported":1745206465,"current_range_meters":22400,"station_id":"ce4bh2h2rcd13ifvqdh0","pricing_plan_id":"cebpf4jnsgd1na2vs0mg"},{"bike_id":"cb9917fc-856e-4194-b94e-d83b0fe1bd27","system_id":"levelo_inurba_marseille","lat":43.311894,"lon":5.416126,"is_reserved":false,"is_disabled":false,"rental_uris":{"android":"levelo://app?vid=cb9917fc-856e-4194-b94e-d83b0fe1bd27","ios":"levelo://app?vid=cb9917fc-856e-4194-b94e-d83b0fe1bd27"},"vehicle_type_id":"4","last_reported":1745206465,"current_range_meters":22800,"station_id":"","pricing_plan_id":"cebpf4jnsgd1na2vs0mg"},{"bike_id":"92918a7f-df96-4c5a-8eb5-64b292a739f8","system_id":"levelo_inurba_marseille","lat":43.22496,"lon":5.34768,"is_reserved":false,"is_disabled":false,"rental_uris":{"android":"levelo://app?vid=92918a7f-df96-4c5a-8eb5-64b292a739f8","ios":"levelo://app?vid=92918a7f-df96-4c5a-8eb5-64b292a739f8"},"vehicle_type_id":"4","last_reported":1745206465,"current_range_meters":22800,"station_id":"st_cvj5dfep6f1abm77gieg","pricing_plan_id":"cebpf4jnsgd1na2vs0mg"},{"bike_id":"963cf6b2-da97-452d-b25f-605760a6d085","system_id":"levelo_inurba_marseille","lat":43.309306,"lon":5.401451,"is_reserved":false,"is_disabled":false,"rental_uris":{"android":"levelo://app?vid=963cf6b2-da97-452d-b25f-605760a6d085","ios":"levelo://app?vid=963cf6b2-da97-452d-b25f-605760a6d085"},"vehicle_type_id":"4","last_reported":1745206465,"current_range_meters":22800,"station_id":"ce4bgvp2rcd13ifvqct0","pricing_plan_id":"cebpf4jnsgd1na2vs0mg"},{"bike_id":"6d98458a-f292-45cd-9108-e91653a5ec28","system_id":"levelo_inurba_marseille","lat":43.28269,"lon":5.35081,"is_reserved":false,"is_disabled":true,"rental_uris":{"android":"levelo://app?vid=6d98458a-f292-45cd-9108-e91653a5ec28","ios":"levelo://app?vid=6d98458a-f292-45cd-9108-e91653a5ec28"},"vehicle_type_id":"4","last_reported":1745206465,"current_range_meters":22800,"station_id":"ce4bhbp2rcd13ifvqerg","pricing_plan_id":"cebpf4jnsgd1na2vs0mg"},{"bike_id":"007cf8fa-48b3-46f4-bdd8-021db7910db3","system_id":"levelo_inurba_marseille","lat":43.28613,"lon":5.37051,"is_reserved":false,"is_disabled":false,"rental_uris":{"android":"levelo://app?vid=007cf8fa-48b3-46f4-bdd8-021db7910db3","ios":"levelo://app?vid=007cf8fa-48b3-46f4-bdd8-021db7910db3"},"vehicle_type_id":"4","last_reported":1745206465,"current_range_meters":22800,"station_id":"ce4bht12rcd13ifvqi60","pricing_plan_id":"cebpf4jnsgd1na2vs0mg"},{"bike_id":"d9455f13-a47f-46b8-b4e4-f326fbee9108","system_id":"levelo_inurba_marseille","lat":43.30135,"lon":5.39886,"is_reserved":false,"is_disabled":true,"rental_uris":{"android":"levelo://app?vid=d9455f13-a47f-46b8-b4e4-f326fbee9108","ios":"levelo://app?vid=d9455f13-a47f-46b8-b4e4-f326fbee9108"},"vehicle_type_id":"4","last_reported":1745206465,"current_range_meters":22800,"station_id":"ce4bh0h2rcd13ifvqd40","pricing_plan_id":"cebpf4jnsgd1na2vs0mg"},{"bike_id":"cdd5db1d-b589-4ca1-94c1-202d30db1e56","system_id":"levelo_inurba_marseille","lat":43.23958,"lon":5.36663,"is_reserved":false,"is_disabled":false,"rental_uris":{"android":"levelo://app?vid=cdd5db1d-b589-4ca1-94c1-202d30db1e56","ios":"levelo://app?vid=cdd5db1d-b589-4ca1-94c1-202d30db1e56"},"vehicle_type_id":"4","last_reported":1745206465,"current_range_meters":22800,"station_id":"ce4bhi12rcd13ifvqfp0","pricing_plan_id":"cebpf4jnsgd1na2vs0mg"},{"bike_id":"04c8951e-3a8b-40df-8ac4-0ebf1b70c9b4","system_id":"levelo_inurba_marseille","lat":43.24713,"lon":5.41173,"is_reserved":false,"is_disabled":false,"rental_uris":{"android":"levelo://app?vid=04c8951e-3a8b-40df-8ac4-0ebf1b70c9b4","ios":"levelo://app?vid=04c8951e-3a8b-40df-8ac4-0ebf1b70c9b4"},"vehicle_type_id":"4","last_reported":1745206465,"current_range_meters":22800,"station_id":"","pricing_plan_id":"cebpf4jnsgd1na2vs0mg"},{"bike_id":"278ee132-281e-4a56-a4a6-ae5a169037d3","system_id":"levelo_inurba_marseille","lat":43.23977,"lon":5.36632,"is_reserved":false,"is_disabled":false,"rental_uris":{"android":"levelo://app?vid=278ee132-281e-4a56-a4a6-ae5a169037d3","ios":"levelo://app?vid=278ee132-281e-4a56-a4a6-ae5a169037d3"},"vehicle_type_id":"4","last_reported":1745206465,"current_range_meters":22800,"station_id":"ce4bhi12rcd13ifvqfp0","pricing_plan_id":"cebpf4jnsgd1na2vs0mg"},{"bike_id":"b80b82d4-09f0-496a-841d-5b020810f36c","system_id":"levelo_inurba_marseille","lat":43.282556,"lon":5.358203,"is_reserved":false,"is_disabled":false,"rental_uris":{"android":"levelo://app?vid=b80b82d4-09f0-496a-841d-5b020810f36c","ios":"levelo://app?vid=b80b82d4-09f0-496a-841d-5b020810f36c"},"vehicle_type_id":"4","last_reported":1745206465,"current_range_meters":23200,"station_id":"","pricing_plan_id":"cebpf4jnsgd1na2vs0mg"},