{"last_updated":1683375092,"ttl":30,"version":"2.2","data":{"bikes":[{"bike_id":"03fc19c3-5582-4f19-964f-b231531cd2fd","system_id":"levelo_inurba_marseille","lat":43.31341,"lon":5.367098,"is_reserved":false,"is_disabled":false,"rental_uris":{"android":"levelo://app?vid=03fc19c3-5582-4f19-964f-b231531cd2fd","ios":"levelo://app?vid=03fc19c3-5582-4f19-964f-b231531cd2fd"},"vehicle_type_id":"4","last_reported":1683375094,"current_range_meters":28400,"station_id":"ce4bgr92rcd13ifvqc6g","pricing_plan_id":"free"},{"bike_id":"73436557-f772-406a-9df7-85fe4708ec6e","system_id":"levelo_inurba_marseille","lat":43.312239,"lon":5.368562,"is_reserved":false,"is_disabled":false,"rental_uris":{"android":"levelo://app?vid=73436557-f772-406a-9df7-85fe4708ec6e","ios":"levelo://app?vid=73436557-f772-406a-9df7-85fe4708ec6e"},"vehicle_type_id":"4","last_reported":1683375094,"current_range_meters":0,"station_id":"ce4bgl92rcd13ifvqbq0","pricing_plan_id":"free"},{"bike_id":"d0b19bdc-028c-4e53-824f-3158711604ba","system_id":"levelo_inurba_marseille","lat":43.309076,"lon":5.368465,"is_reserved":false,"is_disabled":false,"rental_uris":{"android":"levelo://app?vid=d0b19bdc-028c-4e53-824f-3158711604ba","ios":"levelo://app?vid=d0b19bdc-028c-4e53-824f-3158711604ba"},"vehicle_type_id":"4","last_reported":1683375094,"current_range_meters":31200,"station_id":"ce4bgn92rcd13ifvqbvg","pricing_plan_id":"free"},{"bike_id":"e8c552e0-1852-45c0-953b-df675dd94e09","system_id":"levelo_inurba_marseille","lat":43.309076,"lon":5.368465,"is_reserved":false,"is_disabled":false,"rental_uris":{"android":"levelo://app?vid=e8c552e0-1852-45c0-953b-df675dd94e09","ios":"levelo://app?vid=e8c552e0-1852-45c0-953b-df675dd94e09"},"vehicle_type_id":"4","last_reported":1683375094,"current_range_meters":28000,"station_id":"ce4bgn92rcd13ifvqbvg","pricing_plan_id":"free"},{"bike_id":"6482b8a3-70c9-4804-83f2-4836c15ec734","system_id":"levelo_inurba_marseille","lat":43.309076,"lon":5.368465,"is_reserved":false,"is_disabled":false,"rental_uris":{"android":"levelo://app?vid=6482b8a3-70c9-4804-83f2-4836c15ec734","ios":"levelo://app?vid=6482b8a3-70c9-4804-83f2-4836c15ec734"},"vehicle_type_id":"4","last_reported":1683375094,"current_range_meters":31200,"station_id":"ce4bgn92rcd13ifvqbvg","pricing_plan_id":"free"},{"bike_id":"4897c916-e9e2-440a-b225-7ace352307cb","system_id":"levelo_inurba_marseille","lat":43.309076,"lon":5.368465,"is_reserved":false,"is_disabled":false,"rental_uris":{"android":"levelo://app?vid=4897c916-e9e2-440a-b225-7ace352307cb","ios":"levelo://app?vid=4897c916-e9e2-440a-b225-7ace352307cb"},"vehicle_type_id":"4","last_reported":1683375094,"current_range_meters":31200,"station_id":"ce4bgn92rcd13ifvqbvg","pricing_plan_id":"free"},{"bike_id":"73adaaaf-9942-442f-930d-bef4f03eef0a","system_id":"levelo_inurba_marseille","lat":43.309076,"lon":5.368465,"is_reserved":false,"is_disabled":false,"rental_uris":{"android":"levelo://app?vid=73adaaaf-9942-442f-930d-bef4f03eef0a","ios":"levelo://app?vid=73adaaaf-9942-442f-930d-bef4f03eef0a"},"vehicle_type_id":"4","last_reported":1683375094,"current_range_meters":31200,"station_id":"ce4bgn92rcd13ifvqbvg","pricing_plan_id":"free"},{"bike_id":"2fe9e76f-3d13-411b-a561-194c0de1192c","system_id":"levelo_inurba_marseille","lat":43.30901,"lon":5.36843,"is_reserved":false,"is_disabled":false,"rental_uris":{"android":"levelo://app?vid=2fe9e76f-3d13-411b-a561-194c0de1192c","ios":"levelo://app?vid=2fe9e76f-3d13-411b-a561-194c0de1192c"},"vehicle_type_id":"4","last_reported":1683375094,"current_range_meters":24400,"station_id":"ce4bgn92rcd13ifvqbvg","pricing_plan_id":"free"},{"bike_id":"caea2489-5a5d-4f00-8e78-8c319f8ed68e","system_id":"levelo_inurba_marseille","lat":43.3057,"lon":5.36553,"is_reserved":false,"is_disabled":false,"rental_uris":{"android":"levelo://app?vid=caea2489-5a5d-4f00-8e78-8c319f8ed68e","ios":"levelo://app?vid=caea2489-5a5d-4f00-8e78-8c319f8ed68e"},"vehicle_type_id":"4","last_reported":1683375094,"current_range_meters":6400,"station_id":"","pricing_plan_id":"free"},{"bike_id":"b9857c94-ed22-4372-99be-1950effecb66","system_id":"levelo_inurba_marseille","lat":43.305706,"lon":5.365654,"is_reserved":false,"is_disabled":false,"rental_uris":{"android":"levelo://app?vid=b9857c94-ed22-4372-99be-1950effecb66","ios":"levelo://app?vid=b9857c94-ed22-4372-99be-1950effecb66"},"vehicle_type_id":"4","last_reported":1683375094,"current_range_meters":24800,"station_id":"ce4bgs12rcd13ifvqcag","pricing_plan_id":"free"},{"bike_id":"41fc1f47-04ce-4091-bb36-6ba7b384c729","system_id":"levelo_inurba_marseille","lat":43.305714,"lon":5.365633,"is_reserved":false,"is_disabled":false,"rental_uris":{"android":"levelo://app?vid=41fc1f47-04ce-4091-bb36-6ba7b384c729","ios":"levelo://app?vid=41fc1f47-04ce-4091-bb36-6ba7b384c729"},"vehicle_type_id":"4","last_reported":1683375094,"current_range_meters":26800,"station_id":"ce4bgs12rcd13ifvqcag","pricing_plan_id":"free"},{"bike_id":"1d895922-2d8a-475b-a200-494671cbd3af","system_id":"levelo_inurba_marseille","lat":43.305714,"lon":5.365633,"is_reserved":false,"is_disabled":false,"rental_uris":{"android":"levelo://app?vid=1d895922-2d8a-475b-a200-494671cbd3af","ios":"levelo://app?vid=1d895922-2d8a-475b-a200-494671cbd3af"},"vehicle_type_id":"4","last_reported":1683375094,"current_range_meters":17200,"station_id":"ce4bgs12rcd13ifvqcag","pricing_plan_id":"free"},{"bike_id":"df64e7df-dbac-4957-a1e8-4918f3ab8ce9","system_id":"levelo_inurba_marseille","lat":43.305989,"lon":5.37225,"is_reserved":false,"is_disabled":false,"rental_uris":{"android":"levelo://app?vid=df64e7df-dbac-4957-a1e8-4918f3ab8ce9","ios":"levelo://app?vid=df64e7df-dbac-4957-a1e8-4918f3ab8ce9"},"vehicle_type_id":"4","last_reported":1683375094,"current_range_meters":21600,"station_id":"ce4bgqh2rcd13ifvqc4g","pricing_plan_id":"free"},{"bike_id":"ff4f77da-f13b-41c7-aff7-7f1bca549e8e","system_id":"levelo_inurba_marseille","lat":43.305989,"lon":5.37225,"is_reserved":false,"is_disabled":false,"rental_uris":{"android":"levelo://app?vid=ff4f77da-f13b-41c7-aff7-7f1bca549e8e","ios":"levelo://app?vid=ff4f77da-f13b-41c7-aff7-7f1bca549e8e"},"vehicle_type_id":"4","last_reported":1683375094,"current_range_meters":31200,"station_id":"ce4bgqh2rcd13ifvqc4g","pricing_plan_id":"free"},{"bike_id":"303df007-8403-45e0-b0ae-7ea5a1413a77","system_id":"levelo_inurba_marseille","lat":43.305989,"lon":5.37225,"is_reserved":false,"is_disabled":false,"rental_uris":{"android":"levelo://app?vid=303df007-8403-45e0-b0ae-7ea5a1413a77","ios":"levelo://app?vid=303df007-8403-45e0-b0ae-7ea5a1413a77"},"vehicle_type_id":"4","last_reported":1683375094,"current_range_meters":22400,"station_id":"ce4bgqh2rcd13ifvqc4g","pricing_plan_id":"free"},{"bike_id":"96c8e4c3-c55a-4d7c-817c-f70df7bb4eaf","system_id":"levelo_inurba_marseille","lat":43.305989,"lon":5.37225,"is_reserved":false,"is_disabled":false,"rental_uris":{"android":"levelo://app?vid=96c8e4c3-c55a-4d7c-817c-f70df7bb4eaf","ios":"levelo://app?vid=96c8e4c3-c55a-4d7c-817c-f70df7bb4eaf"},"vehicle_type_id":"4","last_reported":1683375094,"current_range_meters":29600,"station_id":"ce4bgqh2rcd13ifvqc4g","pricing_plan_id":"free"},{"bike_id":"8b0841c8-9183-4536-b0da-2d55505e32fa","system_id":"levelo_inurba_marseille","lat":43.311125,"lon":5.377624,"is_reserved":false,"is_disabled":false,"rental_uris":{"android":"levelo://app?vid=8b0841c8-9183-4536-b0da-2d55505e32fa","ios":"levelo://app?vid=8b0841c8-9183-4536-b0da-2d55505e32fa"},"vehicle_type_id":"4","last_reported":1683375094,"current_range_meters":14400,"station_id":"ce4bgt92rcd13ifvqcg0","pricing_plan_id":"free"},{"bike_id":"121bcd91-5f14-460c-a875-40e2214d56a2","system_id":"levelo_inurba_marseille","lat":43.317075,"lon":5.377367,"is_reserved":false,"is_disabled":false,"rental_uris":{"android":"levelo://app?vid=121bcd91-5f14-460c-a875-40e2214d56a2","ios":"levelo://app?vid=121bcd91-5f14-460c-a875-40e2214d56a2"},"vehicle_type_id":"4","last_reported":1683375094,"current_range_meters":30000,"station_id":"ce4bgth2rcd13ifvqch0","pricing_plan_id":"free"},{"bike_id":"7d588c5c-06eb-4e51-9b18-f866c7007f0b","system_id":"levelo_inurba_marseille","lat":43.317075,"lon":5.377367,"is_reserved":false,"is_disabled":false,"rental_uris":{"android":"levelo://app?vid=7d588c5c-06eb-4e51-9b18-f866c7007f0b","ios":"levelo://app?vid=7d588c5c-06eb-4e51-9b18-f866c7007f0b"},"vehicle_type_id":"4","last_reported":1683375094,"current_range_meters":27200,"station_id":"ce4bgth2rcd13ifvqch0","pricing_plan_id":"free"},{"bike_id":"2114a6b2-e574-42fa-a3ce-a7c7154196b6","system_id":"levelo_inurba_marseille","lat":43.317075,"lon":5.377367,"is_reserved":false,"is_disabled":false,"rental_uris":{"android":"levelo://app?vid=2114a6b2-e574-42fa-a3ce-a7c7154196b6","ios":"levelo://app?vid=2114a6b2-e574-42fa-a3ce-a7c7154196b6"},"vehicle_type_id":"4","last_reported":1683375094,"current_range_meters":31200,"station_id":"ce4bgth2rcd13ifvqch0","pricing_plan_id":"free"},{"bike_id":"b3b28336-ae3c-45c3-9187-488825acd3a3","system_id":"levelo_inurba_marseille","lat":43.317075,"lon":5.377367,"is_reserved":false,"is_disabled":false,"rental_uris":{"android":"levelo://app?vid=b3b28336-ae3c-45c3-9187-488825acd3a3","ios":"levelo://app?vid=b3b28336-ae3c-45c3-9187-488825acd3a3"},"vehicle_type_id":"4","last_reported":1683375094,"current_range_meters":24000,"station_id":"ce4bgth2rcd13ifvqch0","pricing_plan_id":"free"},{"bike_id":"245c1e28-3e9d-4163-a52a-9dcd1d6daa13","system_id":"levelo_inurba_marseille","lat":43.317075,"lon":5.377367,"is_reserved":false,"is_disabled":false,"rental_uris":{"android":"levelo://app?vid=245c1e28-3e9d-4163-a52a-9dcd1d6daa13","ios":"levelo://app?vid=245c1e28-3e9d-4163-a52a-9dcd1d6daa13"},"vehicle_type_id":"4","last_reported":1683375094,"current_range_meters":31200,"station_id":"ce4bgth2rcd13ifvqch0","pricing_plan_id":"free"},{"bike_id":"ac81ec7d-bd04-4187-8b39-cfadbab6d2e0","system_id":"levelo_inurba_marseille","lat":43.317075,"lon":5.377367,"is_reserved":false,"is_disabled":false,"rental_uris":{"android":"levelo://app?vid=ac81ec7d-bd04-4187-8b39-cfadbab6d2e0","ios":"levelo://app?vid=ac81ec7d-bd04-4187-8b39-cfadbab6d2e0"},"vehicle_type_id":"4","last_reported":1683375094,"current_range_meters":28400,"station_id":"ce4bgth2rcd13ifvqch0","pricing_plan_id":"free"},{"bike_id":"c869ad53-8cb7-4f56-a74f-69e2af3ab997","system_id":"levelo_inurba_marseille","lat":43.301939,"lon":5.366286,"is_reserved":false,"is_disabled":false,"rental_uris":{"android":"levelo://app?vid=c869ad53-8cb7-4f56-a74f-69e2af3ab997","ios":"levelo://app?vid=c869ad53-8cb7-4f56-a74f-69e2af3ab997"},"vehicle_type_id":"4","last_reported":1683375094,"current_range_meters":26400,"station_id":"ce4bgrh2rcd13ifvqc8g","pricing_plan_id":"free"},{"bike_id":"9874f2b8-d4a3-4d74-8edc-73fdc29fd35d","system_id":"levelo_inurba_marseille","lat":43.30186,"lon":5.36615,"is_reserved":false,"is_disabled":false,"rental_uris":{"android":"levelo://app?vid=9874f2b8-d4a3-4d74-8edc-73fdc29fd35d","ios":"levelo://app?vid=9874f2b8-d4a3-4d74-8edc-73fdc29fd35d"},"vehicle_type_id":"4","last_reported":1683375094,"current_range_meters":17600,"station_id":"ce4bgrh2rcd13ifvqc8g","pricing_plan_id":"free"},{"bike_id":"43d31317-4b0d-4ed2-88f1-627d24268aa1","system_id":"levelo_inurba_marseille","lat":43.308012,"lon":5.381511,"is_reserved":false,"is_disabled":false,"rental_uris":{"android":"levelo://app?vid=43d31317-4b0d-4ed2-88f1-627d24268aa1","ios":"levelo://app?vid=43d31317-4b0d-4ed2-88f1-627d24268aa1"},"vehicle_type_id":"4","last_reported":1683375094,"current_range_meters":19600,"station_id":"ce4bgt12rcd13ifvqce0","pricing_plan_id":"free"},{"bike_id":"9703fb70-382b-48d6-b586-50de555ae0cf","system_id":"levelo_inurba_marseille","lat":43.308012,"lon":5.381511,"is_reserved":false,"is_disabled":false,"rental_uris":{"android":"levelo://app?vid=9703fb70-382b-48d6-b586-50de555ae0cf","ios":"levelo://app?vid=9703fb70-382b-48d6-b586-50de555ae0cf"},"vehicle_type_id":"4","last_reported":1683375094,"current_range_meters":8000,"station_id":"ce4bgt12rcd13ifvqce0","pricing_plan_id":"free"},{"bike_id":"047b2364-9842-4771-ab47-a1d08604162e","system_id":"levelo_inurba_marseille","lat":43.308012,"lon":5.381511,"is_reserved":false,"is_disabled":false,"rental_uris":{"android":"levelo://app?vid=047b2364-9842-4771-ab47-a1d08604162e","ios":"levelo://app?vid=047b2364-9842-4771-ab47-a1d08604162e"},"vehicle_type_id":"4","last_reported":1683375094,"current_range_meters":26400,"station_id":"ce4bgt12rcd13ifvqce0","pricing_plan_id":"free"},{"bike_id":"8c7eded6-7bbe-4f00-9b85-87b365313770","system_id":"levelo_inurba_marseille","lat":43.308012,"lon":5.381511,"is_reserved":false,"is_disabled":false,"rental_uris":{"android":"levelo://app?vid=8c7eded6-7bbe-4f00-9b85-87b365313770","ios":"levelo://app?vid=8c7eded6-7bbe-4f00-9b85-87b365313770"},"vehicle_type_id":"4","last_reported":1683375094,"current_range_meters":18000,"station_id":"ce4bgt12rcd13ifvqce0","pricing_plan_id":"free"},{"bike_id":"3a69c730-f5c2-454a-a481-55c8a89be48d","system_id":"levelo_inurba_marseille","lat":43.304606,"lon":5.379026,"is_reserved":false,"is_disabled":false,"rental_uris":{"android":"levelo://app?vid=3a69c730-f5c2-454a-a481-55c8a89be48d","ios":"levelo://app?vid=3a69c730-f5c2-454a-a481-55c8a89be48d"},"vehicle_type_id":"4","last_reported":1683375094,"current_range_meters":6000,"station_id":"ce4bgup2rcd13ifvqcn0","pricing_plan_id":"free"},{"bike_id":"83913237-c344-4e32-be60-32e4ad8351f4","system_id":"levelo_inurba_marseille","lat":43.304606,"lon":5.379026,"is_reserved":false,"is_disabled":false,"rental_uris":{"android":"levelo://app?vid=83913237-c344-4e32-be60-32e4ad8351f4","ios":"levelo://app?vid=83913237-c344-4e32-be60-32e4ad8351f4"},"vehicle_type_id":"4","last_reported":1683375094,"current_range_meters":19200,"station_id":"ce4bgup2rcd13ifvqcn0","pricing_plan_id":"free"},{"bike_id":"47172b7f-ac24-4533-91f3-043f46a74052","system_id":"levelo_inurba_marseille","lat":43.30143,"lon":5.37413,"is_reserved":false,"is_disabled":false,"rental_uris":{"android":"levelo://app?vid=47172b7f-ac24-4533-91f3-043f46a74052","ios":"levelo://app?vid=47172b7f-ac24-4533-91f3-043f46a74052"},"vehicle_type_id":"4","last_reported":1683375094,"current_range_meters":2000,"station_id":"ce4bgs92rcd13ifvqcc0","pricing_plan_id":"free"},{"bike_id":"ce2320d6-4bce-4e27-9438-c2a98fad4084","system_id":"levelo_inurba_marseille","lat":43.30143,"lon":5.37413,"is_reserved":false,"is_disabled":false,"rental_uris":{"android":"levelo://app?vid=ce2320d6-4bce-4e27-9438-c2a98fad4084","ios":"levelo://app?vid=ce2320d6-4bce-4e27-9438-c2a98fad4084"},"vehicle_type_id":"4","last_reported":1683375094,"current_range_meters":31200,"station_id":"ce4bgs92rcd13ifvqcc0","pricing_plan_id":"free"},{"bike_id":"659a1e2e-b4d0-4712-be66-e52206c03164","system_id":"levelo_inurba_marseille","lat":43.3013,"lon":5.37432,"is_reserved":false,"is_disabled":false,"rental_uris":{"android":"levelo://app?vid=659a1e2e-b4d0-4712-be66-e52206c03164","ios":"levelo://app?vid=659a1e2e-b4d0-4712-be66-e52206c03164"},"vehicle_type_id":"4","last_reported":1683375094,"current_range_meters":30000,"station_id":"ce4bgs92rcd13ifvqcc0","pricing_plan_id":"free"},{"bike_id":"756515ed-9767-482e-a4f0-c2e5da09b510","system_id":"levelo_inurba_marseille","lat":43.313571,"lon":5.384829,"is_reserved":false,"is_disabled":false,"rental_uris":{"android":"levelo://app?vid=756515ed-9767-482e-a4f0-c2e5da09b510","ios":"levelo://app?vid=756515ed-9767-482e-a4f0-c2e5da09b510"},"vehicle_type_id":"4","last_reported":1683375094,"current_range_meters":10400,"station_id":"ce4bgt92rcd13ifvqcf0","pricing_plan_id":"free"},{"bike_id":"f6c64a9d-d5f6-48c4-8a81-960fe0f29fb2","system_id":"levelo_inurba_marseille","lat":43.31357,"lon":5.38528,"is_reserved":false,"is_disabled":false,"rental_uris":{"android":"levelo://app?vid=f6c64a9d-d5f6-48c4-8a81-960fe0f29fb2","ios":"levelo://app?vid=f6c64a9d-d5f6-48c4-8a81-960fe0f29fb2"},"vehicle_type_id":"4","last_reported":1683375094,"current_range_meters":18400,"station_id":"","pricing_plan_id":"free"},{"bike_id":"008a5902-fbb5-49f0-a21e-18d0d937881f","system_id":"levelo_inurba_marseille","lat":43.299222,"lon":5.365554,"is_reserved":false,"is_disabled":false,"rental_uris":{"android":"levelo://app?vid=008a5902-fbb5-49f0-a21e-18d0d937881f","ios":"levelo://app?vid=008a5902-fbb5-49f0-a21e-18d0d937881f"},"vehicle_type_id":"4","last_reported":1683375094,"current_range_meters":22000,"station_id":"ce4bgm92rcd13ifvqbr0","pricing_plan_id":"free"},{"bike_id":"0a46ed1d-3128-4721-bf33-17843aad797f","system_id":"levelo_inurba_marseille","lat":43.299222,"lon":5.365554,"is_reserved":false,"is_disabled":false,"rental_uris":{"android":"levelo://app?vid=0a46ed1d-3128-4721-bf33-17843aad797f","ios":"levelo://app?vid=0a46ed1d-3128-4721-bf33-17843aad797f"},"vehicle_type_id":"4","last_reported":1683375094,"current_range_meters":24400,"station_id":"ce4bgm92rcd13ifvqbr0","pricing_plan_id":"free"},{"bike_id":"bcf12486-4d40-4884-969b-2c19f244a968","system_id":"levelo_inurba_marseille","lat":43.29886,"lon":5.36683,"is_reserved":false,"is_disabled":false,"rental_uris":{"android":"levelo://app?vid=bcf12486-4d40-4884-969b-2c19f244a968","ios":"levelo://app?vid=bcf12486-4d40-4884-969b-2c19f244a968"},"vehicle_type_id":"4","last_reported":1683375094,"current_range_meters":0,"station_id":"","pricing_plan_id":"free"},{"bike_id":"9a8cb2cd-7757-4f79-b6cf-f301b5954263","system_id":"levelo_inurba_marseille","lat":43.30047,"lon":5.37634,"is_reserved":false,"is_disabled":false,"rental_uris":{"android":"levelo://app?vid=9a8cb2cd-7757-4f79-b6cf-f301b5954263","ios":"levelo://app?vid=9a8cb2cd-7757-4f79-b6cf-f301b5954263"},"vehicle_type_id":"4","last_reported":1683375094,"current_range_meters":22400,"station_id":"","pricing_plan_id":"free"},{"bike_id":"1299f5ef-7e4a-41a4-a904-7ee78a919821","system_id":"levelo_inurba_marseille","lat":43.298433,"lon":5.362774,"is_reserved":false,"is_disabled":false,"rental_uris":{"android":"levelo://app?vid=1299f5ef-7e4a-41a4-a904-7ee78a919821","ios":"levelo://app?vid=1299f5ef-7e4a-41a4-a904-7ee78a919821"},"vehicle_type_id":"4","last_reported":1683375094,"current_range_meters":31600,"station_id":"ce4bgpp2rcd13ifvqc3g","pricing_plan_id":"free"},{"bike_id":"d2a8e75f-82ce-4c2d-b0d0-26a1181f7ad3","system_id":"levelo_inurba_marseille","lat":43.298433,"lon":5.362774,"is_reserved":false,"is_disabled":false,"rental_uris":{"android":"levelo://app?vid=d2a8e75f-82ce-4c2d-b0d0-26a1181f7ad3","ios":"levelo://app?vid=d2a8e75f-82ce-4c2d-b0d0-26a1181f7ad3"},"vehicle_type_id":"4","last_reported":1683375094,"current_range_meters":26000,"station_id":"ce4bgpp2rcd13ifvqc3g","pricing_plan_id":"free"},{"bike_id":"cd4feed5-fbdd-406b-9827-9ff307431217","system_id":"levelo_inurba_marseille","lat":43.298433,"lon":5.362774,"is_reserved":false,"is_disabled":false,"rental_uris":{"android":"levelo://app?vid=cd4feed5-fbdd-406b-9827-9ff307431217","ios":"levelo://app?vid=cd4feed5-fbdd-406b-9827-9ff307431217"},"vehicle_type_id":"4","last_reported":1683375094,"current_range_meters":18800,"station_id":"ce4bgpp2rcd13ifvqc3g","pricing_plan_id":"free"},{"bike_id":"fe78af74-e983-4de1-84ac-4c55bf99a9fd","system_id":"levelo_inurba_marseille","lat":43.298433,"lon":5.362774,"is_reserved":false,"is_disabled":false,"rental_uris":{"android":"levelo://app?vid=fe78af74-e983-4de1-84ac-4c55bf99a9fd","ios":"levelo://app?vid=fe78af74-e983-4de1-84ac-4c55bf99a9fd"},"vehicle_type_id":"4","last_reported":1683375094,"current_range_meters":23200,"station_id":"ce4bgpp2rcd13ifvqc3g","pricing_plan_id":"free"},{"bike_id":"3058bbf0-9cf7-4616-bf4d-06ae90bbe77a","system_id":"levelo_inurba_marseille","lat":43.298433,"lon":5.362774,"is_reserved":false,"is_disabled":false,"rental_uris":{"android":"levelo://app?vid=3058bbf0-9cf7-4616-bf4d-06ae90bbe77a","ios":"levelo://app?vid=3058bbf0-9cf7-4616-bf4d-06ae90bbe77a"},"vehicle_type_id":"4","last_reported":1683375094,"current_range_meters":25600,"station_id":"ce4bgpp2rcd13ifvqc3g","pricing_plan_id":"free"},{"bike_id":"05c4847d-c8a9-4166-b18b-0736833ba7fd","system_id":"levelo_inurba_marseille","lat":43.298433,"lon":5.362774,"is_reserved":false,"is_disabled":false,"rental_uris":{"android":"levelo://app?vid=05c4847d-c8a9-4166-b18b-0736833ba7fd","ios":"levelo://app?vid=05c4847d-c8a9-4166-b18b-0736833ba7fd"},"vehicle_type_id":"4","last_reported":1683375094,"current_range_meters":31200,"station_id":"ce4bgpp2rcd13ifvqc3g","pricing_plan_id":"free"},{"bike_id":"cbf7609a-68b2-4d5d-a9e2-0b2ba3d9f3dc","system_id":"levelo_inurba_marseille","lat":43.298433,"lon":5.362774,"is_reserved":false,"is_disabled":false,"rental_uris":{"android":"levelo://app?vid=cbf7609a-68b2-4d5d-a9e2-0b2ba3d9f3dc","ios":"levelo://app?vid=cbf7609a-68b2-4d5d-a9e2-0b2ba3d9f3dc"},"vehicle_type_id":"4","last_reported":1683375094,"current_range_meters":31200,"station_id":"ce4bgpp2rcd13ifvqc3g","pricing_plan_id":"free"},{"bike_id":"554fec9f-8289-46e2-a5c0-d31af128dc71","system_id":"levelo_inurba_marseille","lat":43.298433,"lon":5.362774,"is_reserved":false,"is_disabled":false,"rental_uris":{"android":"levelo://app?vid=554fec9f-8289-46e2-a5c0-d31af128dc71","ios":"levelo://app?vid=554fec9f-8289-46e2-a5c0-d31af128dc71"},"vehicle_type_id":"4","last_reported":1683375094,"current_range_meters":30000,"station_id":"ce4bgpp2rcd13ifvqc3g","pricing_plan_id":"free"},{"bike_id":"583fb971-9406-424e-b976-13c9597f8615","system_id":"levelo_inurba_marseille","lat":43.298433,"lon":5.362774,"is_reserved":false,"is_disabled":false,"rental_uris":{"android":"levelo://app?vid=583fb971-9406-424e-b976-13c9597f8615","ios":"levelo://app?vid=583fb971-9406-424e-b976-13c9597f8615"},"vehicle_type_id":"4","last_reported":1683375094,"current_range_meters":31200,"station_id":"ce4bgpp2rcd13ifvqc3g","pricing_plan_id":"free"},{"bike_id":"bf5494b9-343f-498f-8c7e-c9b9f3e4f577","system_id":"levelo_inurba_marseille","lat":43.311722,"lon":5.387247,"is_reserved":false,"is_disabled":false,"rental_uris":{"android":"levelo://app?vid=bf5494b9-343f-498f-8c7e-c9b9f3e4f577","ios":"levelo://app?vid=bf5494b9-343f-498f-8c7e-c9b9f3e4f577"},"vehicle_type_id":"4","last_reported":1683375094,"current_range_meters":15600,"station_id":"ce4bgv12rcd13ifvqcp0","pricing_plan_id":"free"},{"bike_id":"1f02779d-7aab-4024-9cc4-21bd4ae05d37","system_id":"levelo_inurba_marseille","lat":43.311722,"lon":5.387247,"is_reserved":false,"is_disabled":false,"rental_uris":{"android":"levelo://app?vid=1f02779d-7aab-4024-9cc4-21bd4ae05d37","ios":"levelo://app?vid=1f02779d-7aab-4024-9cc4-21bd4ae05d37"},"vehicle_type_id":"4","last_reported":1683375094,"current_range_meters":27200,"station_id":"ce4bgv12rcd13ifvqcp0","pricing_plan_id":"free"},{"bike_id":"7efebf50-d6a1-443f-ba80-f0ae49d5b657","system_id":"levelo_inurba_marseille","lat":43.311722,"lon":5.387247,"is_reserved":false,"is_disabled":false,"rental_uris":{"android":"levelo://app?vid=7efebf50-d6a1-443f-ba80-f0ae49d5b657","ios":"levelo://app?vid=7efebf50-d6a1-443f-ba80-f0ae49d5b657"},"vehicle_type_id":"4","last_reported":1683375094,"current_range_meters":14000,"station_id":"ce4bgv12rcd13ifvqcp0","pricing_plan_id":"free"},{"bike_id":"a7029048-da20-4fb9-993e-80e8bc127e99","system_id":"levelo_inurba_marseille","lat":43.311722,"lon":5.387247,"is_reserved":false,"is_disabled":false,"rental_uris":{"android":"levelo://app?vid=a7029048-da20-4fb9-993e-80e8bc127e99","ios":"levelo://app?vid=a7029048-da20-4fb9-993e-80e8bc127e99"},"vehicle_type_id":"4","last_reported":1683375094,"current_range_meters":1600,"station_id":"ce4bgv12rcd13ifvqcp0","pricing_plan_id":"free"},{"bike_id":"7cf2b24f-c0af-412b-8e7b-7f50af4b6ce2","system_id":"levelo_inurba_marseille","lat":43.311722,"lon":5.387247,"is_reserved":false,"is_disabled":false,"rental_uris":{"android":"levelo://app?vid=7cf2b24f-c0af-412b-8e7b-7f50af4b6ce2","ios":"levelo://app?vid=7cf2b24f-c0af-412b-8e7b-7f50af4b6ce2"},"vehicle_type_id":"4","last_reported":1683375094,"current_range_meters":28000,"station_id":"ce4bgv12rcd13ifvqcp0","pricing_plan_id":"free"},{"bike_id":"8d357cc1-8400-473c-8595-a1bb3542694a","system_id":"levelo_inurba_marseille","lat":43.29788,"lon":5.37108,"is_reserved":false,"is_disabled":false,"rental_uris":{"android":"levelo://app?vid=8d357cc1-8400-473c-8595-a1bb3542694a","ios":"levelo://app?vid=8d357cc1-8400-473c-8595-a1bb3542694a"},"vehicle_type_id":"4","last_reported":1683375094,"current_range_meters":5200,"station_id":"ce4bgop2rcd13ifvqc1g","pricing_plan_id":"free"},{"bike_id":"0dd8df2b-858d-41e1-87ca-7eba7c62041f","system_id":"levelo_inurba_marseille","lat":43.29788,"lon":5.37112,"is_reserved":false,"is_disabled":false,"rental_uris":{"android":"levelo://app?vid=0dd8df2b-858d-41e1-87ca-7eba7c62041f","ios":"levelo://app?vid=0dd8df2b-858d-41e1-87ca-7eba7c62041f"},"vehicle_type_id":"4","last_reported":1683375094,"current_range_meters":20800,"station_id":"ce4bgop2rcd13ifvqc1g","pricing_plan_id":"free"},{"bike_id":"c0b0aa6b-e4fa-4d58-8d7d-fdd945d29f8c","system_id":"levelo_inurba_marseille","lat":43.29785,"lon":5.37098,"is_reserved":false,"is_disabled":false,"rental_uris":{"android":"levelo://app?vid=c0b0aa6b-e4fa-4d58-8d7d-fdd945d29f8c","ios":"levelo://app?vid=c0b0aa6b-e4fa-4d58-8d7d-fdd945d29f8c"},"vehicle_type_id":"4","last_reported":1683375094,"current_range_meters":4000,"station_id":"ce4bgop2rcd13ifvqc1g","pricing_plan_id":"free"},{"bike_id":"b7efdd23-7512-4115-9a4c-67200475cd62","system_id":"levelo_inurba_marseille","lat":43.29785,"lon":5.37102,"is_reserved":false,"is_disabled":false,"rental_uris":{"android":"levelo://app?vid=b7efdd23-7512-4115-9a4c-67200475cd62","ios":"levelo://app?vid=b7efdd23-7512-4115-9a4c-67200475cd62"},"vehicle_type_id":"4","last_reported":1683375094,"current_range_meters":2000,"station_id":"ce4bgop2rcd13ifvqc1g","pricing_plan_id":"free"},{"bike_id":"37c5c50d-8ffe-433f-9f9f-8b4e0b7f8401","system_id":"levelo_inurba_marseille","lat":43.29784,"lon":5.37096,"is_reserved":false,"is_disabled":false,"rental_uris":{"android":"levelo://app?vid=37c5c50d-8ffe-433f-9f9f-8b4e0b7f8401","ios":"levelo://app?vid=37c5c50d-8ffe-433f-9f9f-8b4e0b7f8401"},"vehicle_type_id":"4","last_reported":1683375094,"current_range_meters":20000,"station_id":"ce4bgop2rcd13ifvqc1g","pricing_plan_id":"free"},{"bike_id":"8db9845e-5837-48f3-a417-060763bd457e","system_id":"levelo_inurba_marseille","lat":43.29783,"lon":5.37093,"is_reserved":false,"is_disabled":false,"rental_uris":{"android":"levelo://app?vid=8db9845e-5837-48f3-a417-060763bd457e","ios":"levelo://app?vid=8db9845e-5837-48f3-a417-060763bd457e"},"vehicle_type_id":"4","last_reported":1683375094,"current_range_meters":22400,"station_id":"ce4bgop2rcd13ifvqc1g","pricing_plan_id":"free"},{"bike_id":"aafa4acd-f035-434e-bcb8-39e574f30414","system_id":"levelo_inurba_marseille","lat":43.29785,"lon":5.37107,"is_reserved":false,"is_disabled":false,"rental_uris":{"android":"levelo://app?vid=aafa4acd-f035-434e-bcb8-39e574f30414","ios":"levelo://app?vid=aafa4acd-f035-434e-bcb8-39e574f30414"},"vehicle_type_id":"4","last_reported":1683375094,"current_range_meters":20400,"station_id":"ce4bgop2rcd13ifvqc1g","pricing_plan_id":"free"},{"bike_id":"8248738e-1b42-4e67-99c7-3d31b76d49ab","system_id":"levelo_inurba_marseille","lat":43.29782,"lon":5.37092,"is_reserved":false,"is_disabled":false,"rental_uris":{"android":"levelo://app?vid=8248738e-1b42-4e67-99c7-3d31b76d49ab","ios":"levelo://app?vid=8248738e-1b42-4e67-99c7-3d31b76d49ab"},"vehicle_type_id":"4","last_reported":1683375094,"current_range_meters":29600,"station_id":"ce4bgop2rcd13ifvqc1g","pricing_plan_id":"free"},{"bike_id":"294ef4b8-8e55-4312-bcd4-2fb00be7cf2e","system_id":"levelo_inurba_marseille","lat":43.29782,"lon":5.37098,"is_reserved":false,"is_disabled":false,"rental_uris":{"android":"levelo://app?vid=294ef4b8-8e55-4312-bcd4-2fb00be7cf2e","ios":"levelo://app?vid=294ef4b8-8e55-4312-bcd4-2fb00be7cf2e"},"vehicle_type_id":"4","last_reported":1683375094,"current_range_meters":6000,"station_id":"ce4bgop2rcd13ifvqc1g","pricing_plan_id":"free"},{"bike_id":"5957f5a5-4242-4200-a349-1f6208f96d12","system_id":"levelo_inurba_marseille","lat":43.29782,"lon":5.37101,"is_reserved":false,"is_disabled":false,"rental_uris":{"android":"levelo://app?vid=5957f5a5-4242-4200-a349-1f6208f96d12","ios":"levelo://app?vid=5957f5a5-4242-4200-a349-1f6208f96d12"},"vehicle_type_id":"4","last_reported":1683375094,"current_range_meters":24000,"station_id":"ce4bgop2rcd13ifvqc1g","pricing_plan_id":"free"},{"bike_id":"708332cb-9812-4f83-96da-3408407c7700","system_id":"levelo_inurba_marseille","lat":43.29781,"lon":5.37102,"is_reserved":false,"is_disabled":false,"rental_uris":{"android":"levelo://app?vid=708332cb-9812-4f83-96da-3408407c7700","ios":"levelo://app?vid=708332cb-9812-4f83-96da-3408407c7700"},"vehicle_type_id":"4","last_reported":1683375094,"current_range_meters":19200,"station_id":"ce4bgop2rcd13ifvqc1g","pricing_plan_id":"free"},{"bike_id":"fbb97892-cd6f-4029-8eb6-e839bc75166e","system_id":"levelo_inurba_marseille","lat":43.29778,"lon":5.3709,"is_reserved":false,"is_disabled":false,"rental_uris":{"android":"levelo://app?vid=fbb97892-cd6f-4029-8eb6-e839bc75166e","ios":"levelo://app?vid=fbb97892-cd6f-4029-8eb6-e839bc75166e"},"vehicle_type_id":"4","last_reported":1683375094,"current_range_meters":22800,"station_id":"ce4bgop2rcd13ifvqc1g","pricing_plan_id":"free"},{"bike_id":"ed5aae2f-9a13-46b5-97f2-d2e72dccd1c8","system_id":"levelo_inurba_marseille","lat":43.297794,"lon":5.370888,"is_reserved":false,"is_disabled":false,"rental_uris":{"android":"levelo://app?vid=ed5aae2f-9a13-46b5-97f2-d2e72dccd1c8","ios":"levelo://app?vid=ed5aae2f-9a13-46b5-97f2-d2e72dccd1c8"},"vehicle_type_id":"4","last_reported":1683375094,"current_range_meters":24400,"station_id":"ce4bgop2rcd13ifvqc1g","pricing_plan_id":"free"},{"bike_id":"d337e37c-f9a9-4c00-af80-d39d4da86db8","system_id":"levelo_inurba_marseille","lat":43.297794,"lon":5.370888,"is_reserved":false,"is_disabled":false,"rental_uris":{"android":"levelo://app?vid=d337e37c-f9a9-4c00-af80-d39d4da86db8","ios":"levelo://app?vid=d337e37c-f9a9-4c00-af80-d39d4da86db8"},"vehicle_type_id":"4","last_reported":1683375094,"current_range_meters":10400,"station_id":"ce4bgop2rcd13ifvqc1g","pricing_plan_id":"free"},{"bike_id":"5cc503e2-d477-4688-9edb-860d3e70480d","system_id":"levelo_inurba_marseille","lat":43.2968,"lon":5.37291,"is_reserved":false,"is_disabled":false,"rental_uris":{"android":"levelo://app?vid=5cc503e2-d477-4688-9edb-860d3e70480d","ios":"levelo://app?vid=5cc503e2-d477-4688-9edb-860d3e70480d"},"vehicle_type_id":"4","last_reported":1683375094,"current_range_meters":27200,"station_id":"ce4bgk12rcd13ifvqbj0","pricing_plan_id":"free"},{"bike_id":"587f757e-0904-4060-9438-3a2d75559e0d","system_id":"levelo_inurba_marseille","lat":43.2968,"lon":5.37291,"is_reserved":false,"is_disabled":false,"rental_uris":{"android":"levelo://app?vid=587f757e-0904-4060-9438-3a2d75559e0d","ios":"levelo://app?vid=587f757e-0904-4060-9438-3a2d75559e0d"},"vehicle_type_id":"4","last_reported":1683375094,"current_range_meters":13200,"station_id":"ce4bgk12rcd13ifvqbj0","pricing_plan_id":"free"},{"bike_id":"aafcc005-5e38-4c52-a10d-6d0f89f0012b","system_id":"levelo_inurba_marseille","lat":43.302008,"lon":5.394694,"is_reserved":false,"is_disabled":false,"rental_uris":{"android":"levelo://app?vid=aafcc005-5e38-4c52-a10d-6d0f89f0012b","ios":"levelo://app?vid=aafcc005-5e38-4c52-a10d-6d0f89f0012b"},"vehicle_type_id":"4","last_reported":1683375094,"current_range_meters":5200,"station_id":"ce4bh0p2rcd13ifvqd70","pricing_plan_id":"free"},{"bike_id":"c459207e-8c5a-4f5e-9e14-12c2b77a31ea","system_id":"levelo_inurba_marseille","lat":43.29586,"lon":5.36738,"is_reserved":false,"is_disabled":false,"rental_uris":{"android":"levelo://app?vid=c459207e-8c5a-4f5e-9e14-12c2b77a31ea","ios":"levelo://app?vid=c459207e-8c5a-4f5e-9e14-12c2b77a31ea"},"vehicle_type_id":"4","last_reported":1683375094,"current_range_meters":30000,"station_id":"ce4bgph2rcd13ifvqc2g","pricing_plan_id":"free"},{"bike_id":"97c7b002-d612-493c-87ae-6c9b21617d8b","system_id":"levelo_inurba_marseille","lat":43.29586,"lon":5.36747,"is_reserved":false,"is_disabled":false,"rental_uris":{"android":"levelo://app?vid=97c7b002-d612-493c-87ae-6c9b21617d8b","ios":"levelo://app?vid=97c7b002-d612-493c-87ae-6c9b21617d8b"},"vehicle_type_id":"4","last_reported":1683375094,"current_range_meters":6800,"station_id":"ce4bgph2rcd13ifvqc2g","pricing_plan_id":"free"},{"bike_id":"5a7558b1-9c35-4332-b67a-e6ee1c87e13d","system_id":"levelo_inurba_marseille","lat":43.296131,"lon":5.370773,"is_reserved":false,"is_disabled":false,"rental_uris":{"android":"levelo://app?vid=5a7558b1-9c35-4332-b67a-e6ee1c87e13d","ios":"levelo://app?vid=5a7558b1-9c35-4332-b67a-e6ee1c87e13d"},"vehicle_type_id":"4","last_reported":1683375094,"current_range_meters":31600,"station_id":"ce4bgnh2rcd13ifvqc0g","pricing_plan_id":"free"},{"bike_id":"db76acee-7fe7-40a3-a414-92194b83996d","system_id":"levelo_inurba_marseille","lat":43.296131,"lon":5.370773,"is_reserved":false,"is_disabled":false,"rental_uris":{"android":"levelo://app?vid=db76acee-7fe7-40a3-a414-92194b83996d","ios":"levelo://app?vid=db76acee-7fe7-40a3-a414-92194b83996d"},"vehicle_type_id":"4","last_reported":1683375094,"current_range_meters":10800,"station_id":"ce4bgnh2rcd13ifvqc0g","pricing_plan_id":"free"},{"bike_id":"f5ab8c44-3459-46c9-9ef7-c56ec337ffbc","system_id":"levelo_inurba_marseille","lat":43.29582,"lon":5.36735,"is_reserved":false,"is_disabled":false,"rental_uris":{"android":"levelo://app?vid=f5ab8c44-3459-46c9-9ef7-c56ec337ffbc","ios":"levelo://app?vid=f5ab8c44-3459-46c9-9ef7-c56ec337ffbc"},"vehicle_type_id":"4","last_reported":1683375094,"current_range_meters":12400,"station_id":"ce4bgph2rcd13ifvqc2g","pricing_plan_id":"free"},{"bike_id":"8eceffc6-1411-4c22-96d4-b49b60e4dc19","system_id":"levelo_inurba_marseille","lat":43.2958,"lon":5.36739,"is_reserved":false,"is_disabled":false,"rental_uris":{"android":"levelo://app?vid=8eceffc6-1411-4c22-96d4-b49b60e4dc19","ios":"levelo://app?vid=8eceffc6-1411-4c22-96d4-b49b60e4dc19"},"vehicle_type_id":"4","last_reported":1683375094,"current_range_meters":26800,"station_id":"ce4bgph2rcd13ifvqc2g","pricing_plan_id":"free"},{"bike_id":"43bf45db-57bc-424d-b319-4a3486362641","system_id":"levelo_inurba_marseille","lat":43.29577,"lon":5.36734,"is_reserved":false,"is_disabled":false,"rental_uris":{"android":"levelo://app?vid=43bf45db-57bc-424d-b319-4a3486362641","ios":"levelo://app?vid=43bf45db-57bc-424d-b319-4a3486362641"},"vehicle_type_id":"4","last_reported":1683375094,"current_range_meters":0,"station_id":"ce4bgph2rcd13ifvqc2g","pricing_plan_id":"free"},{"bike_id":"5f708886-c442-4ba5-a30f-d0412d359c36","system_id":"levelo_inurba_marseille","lat":43.29577,"lon":5.36738,"is_reserved":false,"is_disabled":false,"rental_uris":{"android":"levelo://app?vid=5f708886-c442-4ba5-a30f-d0412d359c36","ios":"levelo://app?vid=5f708886-c442-4ba5-a30f-d0412d359c36"},"vehicle_type_id":"4","last_reported":1683375094,"current_range_meters":31200,"station_id":"ce4bgph2rcd13ifvqc2g","pricing_plan_id":"free"},{"bike_id":"a4ed4416-8dc1-40dd-847b-4948ccdf79c8","system_id":"levelo_inurba_marseille","lat":43.29713,"lon":5.37707,"is_reserved":false,"is_disabled":false,"rental_uris":{"android":"levelo://app?vid=a4ed4416-8dc1-40dd-847b-4948ccdf79c8","ios":"levelo://app?vid=a4ed4416-8dc1-40dd-847b-4948ccdf79c8"},"vehicle_type_id":"4","last_reported":1683375094,"current_range_meters":21600,"station_id":"","pricing_plan_id":"free"},{"bike_id":"4aca72f3-bb4e-46c7-b4cd-31b8412b44cd","system_id":"levelo_inurba_marseille","lat":43.309589,"lon":5.390258,"is_reserved":false,"is_disabled":false,"rental_uris":{"android":"levelo://app?vid=4aca72f3-bb4e-46c7-b4cd-31b8412b44cd","ios":"levelo://app?vid=4aca72f3-bb4e-46c7-b4cd-31b8412b44cd"},"vehicle_type_id":"4","last_reported":1683375094,"current_range_meters":4800,"station_id":"ce4bgup2rcd13ifvqco0","pricing_plan_id":"free"},{"bike_id":"8746f4a0-7441-449e-9dea-11f73584f8f0","system_id":"levelo_inurba_marseille","lat":43.309589,"lon":5.390258,"is_reserved":false,"is_disabled":false,"rental_uris":{"android":"levelo://app?vid=8746f4a0-7441-449e-9dea-11f73584f8f0","ios":"levelo://app?vid=8746f4a0-7441-449e-9dea-11f73584f8f0"},"vehicle_type_id":"4","last_reported":1683375094,"current_range_meters":16400,"station_id":"ce4bgup2rcd13ifvqco0","pricing_plan_id":"free"},{"bike_id":"a25e1565-2565-4122-8cd8-405b701857b6","system_id":"levelo_inurba_marseille","lat":43.309589,"lon":5.390258,"is_reserved":false,"is_disabled":false,"rental_uris":{"android":"levelo://app?vid=a25e1565-2565-4122-8cd8-405b701857b6","ios":"levelo://app?vid=a25e1565-2565-4122-8cd8-405b701857b6"},"vehicle_type_id":"4","last_reported":1683375094,"current_range_meters":23600,"station_id":"ce4bgup2rcd13ifvqco0","pricing_plan_id":"free"},{"bike_id":"d8759e64-60bb-4f19-a49a-00c91bc04f7f","system_id":"levelo_inurba_marseille","lat":43.309589,"lon":5.390258,"is_reserved":false,"is_disabled":false,"rental_uris":{"android":"levelo://app?vid=d8759e64-60bb-4f19-a49a-00c91bc04f7f","ios":"levelo://app?vid=d8759e64-60bb-4f19-a49a-00c91bc04f7f"},"vehicle_type_id":"4","last_reported":1683375094,"current_range_meters":18800,"station_id":"ce4bgup2rcd13ifvqco0","pricing_plan_id":"free"},{"bike_id":"96544010-bc30-4024-a3f1-b379b4e161bb","system_id":"levelo_inurba_marseille","lat":43.309589,"lon":5.390258,"is_reserved":false,"is_disabled":false,"rental_uris":{"android":"levelo://app?vid=96544010-bc30-4024-a3f1-b379b4e161bb","ios":"levelo://app?vid=96544010-bc30-4024-a3f1-b379b4e161bb"},"vehicle_type_id":"4","last_reported":1683375094,"current_range_meters":13600,"station_id":"ce4bgup2rcd13ifvqco0","pricing_plan_id":"free"},{"bike_id":"40fe8144-9fb8-42c8-9250-22f953f79a53","system_id":"levelo_inurba_marseille","lat":43.309589,"lon":5.390258,"is_reserved":false,"is_disabled":false,"rental_uris":{"android":"levelo://app?vid=40fe8144-9fb8-42c8-9250-22f953f79a53","ios":"levelo://app?vid=40fe8144-9fb8-42c8-9250-22f953f79a53"},"vehicle_type_id":"4","last_reported":1683375094,"current_range_meters":12400,"station_id":"ce4bgup2rcd13ifvqco0","pricing_plan_id":"free"},{"bike_id":"ec34f3a9-d482-4e5a-94e2-33bdbc23232d","system_id":"levelo_inurba_marseille","lat":43.309589,"lon":5.390258,"is_reserved":false,"is_disabled":false,"rental_uris":{"android":"levelo://app?vid=ec34f3a9-d482-4e5a-94e2-33bdbc23232d","ios":"levelo://app?vid=ec34f3a9-d482-4e5a-94e2-33bdbc23232d"},"vehicle_type_id":"4","last_reported":1683375094,"current_range_meters":19600,"station_id":"ce4bgup2rcd13ifvqco0","pricing_plan_id":"free"},{"bike_id":"b1611bf6-08d7-48e4-8ca3-bcc547f61e03","system_id":"levelo_inurba_marseille","lat":43.309589,"lon":5.390258,"is_reserved":false,"is_disabled":false,"rental_uris":{"android":"levelo://app?vid=b1611bf6-08d7-48e4-8ca3-bcc547f61e03","ios":"levelo://app?vid=b1611bf6-08d7-48e4-8ca3-bcc547f61e03"},"vehicle_type_id":"4","last_reported":1683375094,"current_range_meters":18400,"station_id":"ce4bgup2rcd13ifvqco0","pricing_plan_id":"free"},{"bike_id":"21707c42-162a-43bf-8364-b48b1e4a934f","system_id":"levelo_inurba_marseille","lat":43.309589,"lon":5.390258,"is_reserved":false,"is_disabled":false,"rental_uris":{"android":"levelo://app?vid=21707c42-162a-43bf-8364-b48b1e4a934f","ios":"levelo://app?vid=21707c42-162a-43bf-8364-b48b1e4a934f"},"vehicle_type_id":"4","last_reported":1683375094,"current_range_meters":11600,"station_id":"ce4bgup2rcd13ifvqco0","pricing_plan_id":"free"},{"bike_id":"3305bc55-18ef-46a5-9e06-599a79d246bf","system_id":"levelo_inurba_marseille","lat":43.317557,"lon":5.390173,"is_reserved":false,"is_disabled":false,"rental_uris":{"android":"levelo://app?vid=3305bc55-18ef-46a5-9e06-599a79d246bf","ios":"levelo://app?vid=3305bc55-18ef-46a5-9e06-599a79d246bf"},"vehicle_type_id":"4","last_reported":1683375094,"current_range_meters":28000,"station_id":"ce4bhqp2rcd13ifvqhng","pricing_plan_id":"free"},{"bike_id":"c8376053-40d6-4e25-8659-f524839f5c25","system_id":"levelo_inurba_marseille","lat":43.317557,"lon":5.390173,"is_reserved":false,"is_disabled":false,"rental_uris":{"android":"levelo://app?vid=c8376053-40d6-4e25-8659-f524839f5c25","ios":"levelo://app?vid=c8376053-40d6-4e25-8659-f524839f5c25"},"vehicle_type_id":"4","last_reported":1683375094,"current_range_meters":18000,"station_id":"ce4bhqp2rcd13ifvqhng","pricing_plan_id":"free"},{"bike_id":"bfcc6b46-12c3-495b-b00f-b45620dd470e","system_id":"levelo_inurba_marseille","lat":43.317557,"lon":5.390173,"is_reserved":false,"is_disabled":false,"rental_uris":{"android":"levelo://app?vid=bfcc6b46-12c3-495b-b00f-b45620dd470e","ios":"levelo://app?vid=bfcc6b46-12c3-495b-b00f-b45620dd470e"},"vehicle_type_id":"4","last_reported":1683375094,"current_range_meters":23600,"station_id":"ce4bhqp2rcd13ifvqhng","pricing_plan_id":"free"},{"bike_id":"07463b46-c47f-489c-9c27-a6fb2c473c78","system_id":"levelo_inurba_marseille","lat":43.31485,"lon":5.39122,"is_reserved":false,"is_disabled":false,"rental_uris":{"android":"levelo://app?vid=07463b46-c47f-489c-9c27-a6fb2c473c78","ios":"levelo://app?vid=07463b46-c47f-489c-9c27-a6fb2c473c78"},"vehicle_type_id":"4","last_reported":1683375094,"current_range_meters":800,"station_id":"","pricing_plan_id":"free"},{"bike_id":"ae714182-4c0d-4f48-b581-2b529a1d99d1","system_id":"levelo_inurba_marseille","lat":43.298037,"lon":5.381066,"is_reserved":false,"is_disabled":false,"rental_uris":{"android":"levelo://app?vid=ae714182-4c0d-4f48-b581-2b529a1d99d1","ios":"levelo://app?vid=ae714182-4c0d-4f48-b581-2b529a1d99d1"},"vehicle_type_id":"4","last_reported":1683375094,"current_range_meters":30000,"station_id":"ce4bgip2rcd13ifvqbb0","pricing_plan_id":"free"},{"bike_id":"71675876-7011-4d40-b254-875df1907e1e","system_id":"levelo_inurba_marseille","lat":43.298037,"lon":5.381066,"is_reserved":false,"is_disabled":false,"rental_uris":{"android":"levelo://app?vid=71675876-7011-4d40-b254-875df1907e1e","ios":"levelo://app?vid=71675876-7011-4d40-b254-875df1907e1e"},"vehicle_type_id":"4","last_reported":1683375094,"current_range_meters":17200,"station_id":"ce4bgip2rcd13ifvqbb0","pricing_plan_id":"free"},{"bike_id":"5b3b985f-844f-4eb5-a834-6367bf4beb21","system_id":"levelo_inurba_marseille","lat":43.295748,"lon":5.37522,"is_reserved":false,"is_disabled":false,"rental_uris":{"android":"levelo://app?vid=5b3b985f-844f-4eb5-a834-6367bf4beb21","ios":"levelo://app?vid=5b3b985f-844f-4eb5-a834-6367bf4beb21"},"vehicle_type_id":"4","last_reported":1683375094,"current_range_meters":27200,"station_id":"ce4bgh92rcd13ifvqb50","pricing_plan_id":"free"},{"bike_id":"b9e349d6-5a69-47ed-8322-7b188f75b98d","system_id":"levelo_inurba_marseille","lat":43.298037,"lon":5.381066,"is_reserved":false,"is_disabled":false,"rental_uris":{"android":"levelo://app?vid=b9e349d6-5a69-47ed-8322-7b188f75b98d","ios":"levelo://app?vid=b9e349d6-5a69-47ed-8322-7b188f75b98d"},"vehicle_type_id":"4","last_reported":1683375094,"current_range_meters":6800,"station_id":"ce4bgip2rcd13ifvqbb0","pricing_plan_id":"free"},{"bike_id":"0c5d400d-0a85-4ebd-b85b-4f02bac2d4ac","system_id":"levelo_inurba_marseille","lat":43.295748,"lon":5.37522,"is_reserved":false,"is_disabled":false,"rental_uris":{"android":"levelo://app?vid=0c5d400d-0a85-4ebd-b85b-4f02bac2d4ac","ios":"levelo://app?vid=0c5d400d-0a85-4ebd-b85b-4f02bac2d4ac"},"vehicle_type_id":"4","last_reported":1683375094,"current_range_meters":27200,"station_id":"ce4bgh92rcd13ifvqb50","pricing_plan_id":"free"},{"bike_id":"9441f5d9-a0ab-4445-b96e-ffcfd814ea28","system_id":"levelo_inurba_marseille","lat":43.304278,"lon":5.388868,"is_reserved":false,"is_disabled":false,"rental_uris":{"android":"levelo://app?vid=9441f5d9-a0ab-4445-b96e-ffcfd814ea28","ios":"levelo://app?vid=9441f5d9-a0ab-4445-b96e-ffcfd814ea28"},"vehicle_type_id":"4","last_reported":1683375094,"current_range_meters":20800,"station_id":"ce4bgk12rcd13ifvqbi0","pricing_plan_id":"free"},{"bike_id":"d730c2c9-ecd2-4080-9310-2b81e6eb46ac","system_id":"levelo_inurba_marseille","lat":43.304278,"lon":5.388868,"is_reserved":false,"is_disabled":false,"rental_uris":{"android":"levelo://app?vid=d730c2c9-ecd2-4080-9310-2b81e6eb46ac","ios":"levelo://app?vid=d730c2c9-ecd2-4080-9310-2b81e6eb46ac"},"vehicle_type_id":"4","last_reported":1683375094,"current_range_meters":3200,"station_id":"ce4bgk12rcd13ifvqbi0","pricing_plan_id":"free"},{"bike_id":"9f475d99-2ee0-4a41-8b11-e8507f65fa0c","system_id":"levelo_inurba_marseille","lat":43.29789,"lon":5.3811,"is_reserved":false,"is_disabled":false,"rental_uris":{"android":"levelo://app?vid=9f475d99-2ee0-4a41-8b11-e8507f65fa0c","ios":"levelo://app?vid=9f475d99-2ee0-4a41-8b11-e8507f65fa0c"},"vehicle_type_id":"4","last_reported":1683375094,"current_range_meters":13200,"station_id":"ce4bgip2rcd13ifvqbb0","pricing_plan_id":"free"},{"bike_id":"feb03f4c-ddd7-446a-b4e6-ed1785a5811e","system_id":"levelo_inurba_marseille","lat":43.296263,"lon":5.377094,"is_reserved":false,"is_disabled":false,"rental_uris":{"android":"levelo://app?vid=feb03f4c-ddd7-446a-b4e6-ed1785a5811e","ios":"levelo://app?vid=feb03f4c-ddd7-446a-b4e6-ed1785a5811e"},"vehicle_type_id":"4","last_reported":1683375094,"current_range_meters":400,"station_id":"ce4bgi92rcd13ifvqb90","pricing_plan_id":"free"},{"bike_id":"f3c51b54-fb50-4bc5-a4d0-15d9607f400e","system_id":"levelo_inurba_marseille","lat":43.295748,"lon":5.37522,"is_reserved":false,"is_disabled":false,"rental_uris":{"android":"levelo://app?vid=f3c51b54-fb50-4bc5-a4d0-15d9607f400e","ios":"levelo://app?vid=f3c51b54-fb50-4bc5-a4d0-15d9607f400e"},"vehicle_type_id":"4","last_reported":1683375094,"current_range_meters":26800,"station_id":"ce4bgh92rcd13ifvqb50","pricing_plan_id":"free"},{"bike_id":"d97ae42a-e29a-4e66-bc9e-3f79a1495690","system_id":"levelo_inurba_marseille","lat":43.296277,"lon":5.377108,"is_reserved":false,"is_disabled":false,"rental_uris":{"android":"levelo://app?vid=d97ae42a-e29a-4e66-bc9e-3f79a1495690","ios":"levelo://app?vid=d97ae42a-e29a-4e66-bc9e-3f79a1495690"},"vehicle_type_id":"4","last_reported":1683375094,"current_range_meters":28000,"station_id":"ce4bgi92rcd13ifvqb90","pricing_plan_id":"free"},{"bike_id":"26f404ef-c0cf-4ea3-8b8d-d9cc413ced99","system_id":"levelo_inurba_marseille","lat":43.29533,"lon":5.37505,"is_reserved":false,"is_disabled":false,"rental_uris":{"android":"levelo://app?vid=26f404ef-c0cf-4ea3-8b8d-d9cc413ced99","ios":"levelo://app?vid=26f404ef-c0cf-4ea3-8b8d-d9cc413ced99"},"vehicle_type_id":"4","last_reported":1683375094,"current_range_meters":22800,"station_id":"ce4bgkp2rcd13ifvqbmg","pricing_plan_id":"free"},{"bike_id":"ff887178-6d9a-414a-b5b4-51ca5a426648","system_id":"levelo_inurba_marseille","lat":43.299724,"lon":5.384848,"is_reserved":false,"is_disabled":false,"rental_uris":{"android":"levelo://app?vid=ff887178-6d9a-414a-b5b4-51ca5a426648","ios":"levelo://app?vid=ff887178-6d9a-414a-b5b4-51ca5a426648"},"vehicle_type_id":"4","last_reported":1683375094,"current_range_meters":31200,"station_id":"ce4bgj92rcd13ifvqbd0","pricing_plan_id":"free"},{"bike_id":"55ba452d-8acc-4be7-9fb1-7f942957aac2","system_id":"levelo_inurba_marseille","lat":43.299699,"lon":5.3849,"is_reserved":false,"is_disabled":false,"rental_uris":{"android":"levelo://app?vid=55ba452d-8acc-4be7-9fb1-7f942957aac2","ios":"levelo://app?vid=55ba452d-8acc-4be7-9fb1-7f942957aac2"},"vehicle_type_id":"4","last_reported":1683375094,"current_range_meters":30800,"station_id":"ce4bgj92rcd13ifvqbd0","pricing_plan_id":"free"},{"bike_id":"e8620ffa-ac78-4840-8a53-4b8daaa78e46","system_id":"levelo_inurba_marseille","lat":43.299668,"lon":5.384894,"is_reserved":false,"is_disabled":false,"rental_uris":{"android":"levelo://app?vid=e8620ffa-ac78-4840-8a53-4b8daaa78e46","ios":"levelo://app?vid=e8620ffa-ac78-4840-8a53-4b8daaa78e46"},"vehicle_type_id":"4","last_reported":1683375094,"current_range_meters":23200,"station_id":"ce4bgj92rcd13ifvqbd0","pricing_plan_id":"free"},{"bike_id":"b43f8a95-9eee-4aec-a3ff-2f90df82452b","system_id":"levelo_inurba_marseille","lat":43.299667,"lon":5.384935,"is_reserved":false,"is_disabled":false,"rental_uris":{"android":"levelo://app?vid=b43f8a95-9eee-4aec-a3ff-2f90df82452b","ios":"levelo://app?vid=b43f8a95-9eee-4aec-a3ff-2f90df82452b"},"vehicle_type_id":"4","last_reported":1683375094,"current_range_meters":29600,"station_id":"ce4bgj92rcd13ifvqbd0","pricing_plan_id":"free"},{"bike_id":"60af3755-0a72-43f4-92b1-ab44878716ec","system_id":"levelo_inurba_marseille","lat":43.299641,"lon":5.384933,"is_reserved":false,"is_disabled":false,"rental_uris":{"android":"levelo://app?vid=60af3755-0a72-43f4-92b1-ab44878716ec","ios":"levelo://app?vid=60af3755-0a72-43f4-92b1-ab44878716ec"},"vehicle_type_id":"4","last_reported":1683375094,"current_range_meters":28000,"station_id":"ce4bgj92rcd13ifvqbd0","pricing_plan_id":"free"},{"bike_id":"ff29d375-8b4b-4a85-aac4-6c31445cec16","system_id":"levelo_inurba_marseille","lat":43.299654,"lon":5.384959,"is_reserved":false,"is_disabled":false,"rental_uris":{"android":"levelo://app?vid=ff29d375-8b4b-4a85-aac4-6c31445cec16","ios":"levelo://app?vid=ff29d375-8b4b-4a85-aac4-6c31445cec16"},"vehicle_type_id":"4","last_reported":1683375094,"current_range_meters":26000,"station_id":"ce4bgj92rcd13ifvqbd0","pricing_plan_id":"free"},{"bike_id":"b8b85926-2cef-4271-a978-8ae0d95642d2","system_id":"levelo_inurba_marseille","lat":43.299619,"lon":5.384918,"is_reserved":false,"is_disabled":false,"rental_uris":{"android":"levelo://app?vid=b8b85926-2cef-4271-a978-8ae0d95642d2","ios":"levelo://app?vid=b8b85926-2cef-4271-a978-8ae0d95642d2"},"vehicle_type_id":"4","last_reported":1683375094,"current_range_meters":29200,"station_id":"ce4bgj92rcd13ifvqbd0","pricing_plan_id":"free"},{"bike_id":"80d89f0c-4527-4323-87f0-a499a1625db0","system_id":"levelo_inurba_marseille","lat":43.33038,"lon":5.3748,"is_reserved":false,"is_disabled":false,"rental_uris":{"android":"levelo://app?vid=80d89f0c-4527-4323-87f0-a499a1625db0","ios":"levelo://app?vid=80d89f0c-4527-4323-87f0-a499a1625db0"},"vehicle_type_id":"4","last_reported":1683375094,"current_range_meters":30800,"station_id":"","pricing_plan_id":"free"},{"bike_id":"0b597dcb-d103-4e3d-9110-0cf407596612","system_id":"levelo_inurba_marseille","lat":43.299543,"lon":5.385605,"is_reserved":false,"is_disabled":false,"rental_uris":{"android":"levelo://app?vid=0b597dcb-d103-4e3d-9110-0cf407596612","ios":"levelo://app?vid=0b597dcb-d103-4e3d-9110-0cf407596612"},"vehicle_type_id":"4","last_reported":1683375094,"current_range_meters":19600,"station_id":"ce4bgj92rcd13ifvqbd0","pricing_plan_id":"free"},{"bike_id":"1dd06c98-c200-4a3d-afc9-e5fd057d158b","system_id":"levelo_inurba_marseille","lat":43.30453,"lon":5.39057,"is_reserved":false,"is_disabled":false,"rental_uris":{"android":"levelo://app?vid=1dd06c98-c200-4a3d-afc9-e5fd057d158b","ios":"levelo://app?vid=1dd06c98-c200-4a3d-afc9-e5fd057d158b"},"vehicle_type_id":"4","last_reported":1683375094,"current_range_meters":14000,"station_id":"","pricing_plan_id":"free"},{"bike_id":"165d458e-9adf-4946-a687-870cd44a2a37","system_id":"levelo_inurba_marseille","lat":43.29613,"lon":5.38125,"is_reserved":false,"is_disabled":false,"rental_uris":{"android":"levelo://app?vid=165d458e-9adf-4946-a687-870cd44a2a37","ios":"levelo://app?vid=165d458e-9adf-4946-a687-870cd44a2a37"},"vehicle_type_id":"4","last_reported":1683375094,"current_range_meters":26800,"station_id":"ce4bgl12rcd13ifvqbo0","pricing_plan_id":"free"},{"bike_id":"faab558f-a3c0-4735-ba98-ad40fea606f5","system_id":"levelo_inurba_marseille","lat":43.29601,"lon":5.381084,"is_reserved":false,"is_disabled":false,"rental_uris":{"android":"levelo://app?vid=faab558f-a3c0-4735-ba98-ad40fea606f5","ios":"levelo://app?vid=faab558f-a3c0-4735-ba98-ad40fea606f5"},"vehicle_type_id":"4","last_reported":1683375094,"current_range_meters":15600,"station_id":"ce4bgl12rcd13ifvqbo0","pricing_plan_id":"free"},{"bike_id":"db8a3241-0305-4fc2-b277-ac4e077fa24b","system_id":"levelo_inurba_marseille","lat":43.292749,"lon":5.368402,"is_reserved":false,"is_disabled":false,"rental_uris":{"android":"levelo://app?vid=db8a3241-0305-4fc2-b277-ac4e077fa24b","ios":"levelo://app?vid=db8a3241-0305-4fc2-b277-ac4e077fa24b"},"vehicle_type_id":"4","last_reported":1683375094,"current_range_meters":17200,"station_id":"ce4bhbp2rcd13ifvqesg","pricing_plan_id":"free"},{"bike_id":"e755ad04-381f-4720-a073-5936a20036f6","system_id":"levelo_inurba_marseille","lat":43.292728,"lon":5.368525,"is_reserved":false,"is_disabled":false,"rental_uris":{"android":"levelo://app?vid=e755ad04-381f-4720-a073-5936a20036f6","ios":"levelo://app?vid=e755ad04-381f-4720-a073-5936a20036f6"},"vehicle_type_id":"4","last_reported":1683375094,"current_range_meters":31200,"station_id":"ce4bhbp2rcd13ifvqesg","pricing_plan_id":"free"},{"bike_id":"8ca3237c-4120-483f-a3c9-4737f0e6d6d1","system_id":"levelo_inurba_marseille","lat":43.305994,"lon":5.393687,"is_reserved":false,"is_disabled":false,"rental_uris":{"android":"levelo://app?vid=8ca3237c-4120-483f-a3c9-4737f0e6d6d1","ios":"levelo://app?vid=8ca3237c-4120-483f-a3c9-4737f0e6d6d1"},"vehicle_type_id":"4","last_reported":1683375094,"current_range_meters":0,"station_id":"ce4bh0p2rcd13ifvqd80","pricing_plan_id":"free"},{"bike_id":"0b8822b3-42c6-4cec-88b0-288486314ea2","system_id":"levelo_inurba_marseille","lat":43.305994,"lon":5.393687,"is_reserved":false,"is_disabled":false,"rental_uris":{"android":"levelo://app?vid=0b8822b3-42c6-4cec-88b0-288486314ea2","ios":"levelo://app?vid=0b8822b3-42c6-4cec-88b0-288486314ea2"},"vehicle_type_id":"4","last_reported":1683375094,"current_range_meters":24400,"station_id":"ce4bh0p2rcd13ifvqd80","pricing_plan_id":"free"},{"bike_id":"45ba25fe-e4da-4551-b40c-b4417a55ff7a","system_id":"levelo_inurba_marseille","lat":43.302992,"lon":5.392136,"is_reserved":false,"is_disabled":false,"rental_uris":{"android":"levelo://app?vid=45ba25fe-e4da-4551-b40c-b4417a55ff7a","ios":"levelo://app?vid=45ba25fe-e4da-4551-b40c-b4417a55ff7a"},"vehicle_type_id":"4","last_reported":1683375094,"current_range_meters":17600,"station_id":"ce4bgkh2rcd13ifvqbk0","pricing_plan_id":"free"},{"bike_id":"7fe01425-972b-4094-be13-05bd04028dd9","system_id":"levelo_inurba_marseille","lat":43.292468,"lon":5.360311,"is_reserved":false,"is_disabled":false,"rental_uris":{"android":"levelo://app?vid=7fe01425-972b-4094-be13-05bd04028dd9","ios":"levelo://app?vid=7fe01425-972b-4094-be13-05bd04028dd9"},"vehicle_type_id":"4","last_reported":1683375094,"current_range_meters":21200,"station_id":"","pricing_plan_id":"free"},{"bike_id":"82281201-0122-46d6-939e-39ab879c42d0","system_id":"levelo_inurba_marseille","lat":43.2936,"lon":5.37835,"is_reserved":false,"is_disabled":false,"rental_uris":{"android":"levelo://app?vid=82281201-0122-46d6-939e-39ab879c42d0","ios":"levelo://app?vid=82281201-0122-46d6-939e-39ab879c42d0"},"vehicle_type_id":"4","last_reported":1683375094,"current_range_meters":25600,"station_id":"ce4bgjh2rcd13ifvqbf0","pricing_plan_id":"free"},{"bike_id":"80aaa82b-44a9-48a8-810c-20926f83b914","system_id":"levelo_inurba_marseille","lat":43.29221,"lon":5.36041,"is_reserved":false,"is_disabled":false,"rental_uris":{"android":"levelo://app?vid=80aaa82b-44a9-48a8-810c-20926f83b914","ios":"levelo://app?vid=80aaa82b-44a9-48a8-810c-20926f83b914"},"vehicle_type_id":"4","last_reported":1683375094,"current_range_meters":18800,"station_id":"","pricing_plan_id":"free"},{"bike_id":"71ca0efe-078d-4180-a7aa-4879b801efed","system_id":"levelo_inurba_marseille","lat":43.29217,"lon":5.36053,"is_reserved":false,"is_disabled":false,"rental_uris":{"android":"levelo://app?vid=71ca0efe-078d-4180-a7aa-4879b801efed","ios":"levelo://app?vid=71ca0efe-078d-4180-a7aa-4879b801efed"},"vehicle_type_id":"4","last_reported":1683375094,"current_range_meters":5200,"station_id":"ce4bhbh2rcd13ifvqeqg","pricing_plan_id":"free"},{"bike_id":"ad2a3d4e-85af-4ba7-bb9e-450aa8db9bf6","system_id":"levelo_inurba_marseille","lat":43.29218,"lon":5.36042,"is_reserved":false,"is_disabled":false,"rental_uris":{"android":"levelo://app?vid=ad2a3d4e-85af-4ba7-bb9e-450aa8db9bf6","ios":"levelo://app?vid=ad2a3d4e-85af-4ba7-bb9e-450aa8db9bf6"},"vehicle_type_id":"4","last_reported":1683375094,"current_range_meters":20800,"station_id":"","pricing_plan_id":"free"},{"bike_id":"faab5a62-cbab-41d5-9a5f-60c32434b02a","system_id":"levelo_inurba_marseille","lat":43.29163,"lon":5.37089,"is_reserved":false,"is_disabled":false,"rental_uris":{"android":"levelo://app?vid=faab5a62-cbab-41d5-9a5f-60c32434b02a","ios":"levelo://app?vid=faab5a62-cbab-41d5-9a5f-60c32434b02a"},"vehicle_type_id":"4","last_reported":1683375094,"current_range_meters":11200,"station_id":"","pricing_plan_id":"free"},{"bike_id":"6c75543f-cb38-46b5-871e-4b9f965977e7","system_id":"levelo_inurba_marseille","lat":43.29169,"lon":5.37159,"is_reserved":false,"is_disabled":false,"rental_uris":{"android":"levelo://app?vid=6c75543f-cb38-46b5-871e-4b9f965977e7","ios":"levelo://app?vid=6c75543f-cb38-46b5-871e-4b9f965977e7"},"vehicle_type_id":"4","last_reported":1683375094,"current_range_meters":0,"station_id":"ce4bha92rcd13ifvqeh0","pricing_plan_id":"free"},{"bike_id":"265edb18-95ef-4d2c-867f-6830efa86c97","system_id":"levelo_inurba_marseille","lat":43.31323,"lon":5.39679,"is_reserved":false,"is_disabled":false,"rental_uris":{"android":"levelo://app?vid=265edb18-95ef-4d2c-867f-6830efa86c97","ios":"levelo://app?vid=265edb18-95ef-4d2c-867f-6830efa86c97"},"vehicle_type_id":"4","last_reported":1683375094,"current_range_meters":25200,"station_id":"ce4bgvp2rcd13ifvqcu0","pricing_plan_id":"free"},{"bike_id":"20b31b5e-b99f-4ba0-b4c9-1d8455a6dc44","system_id":"levelo_inurba_marseille","lat":43.31324,"lon":5.3968,"is_reserved":false,"is_disabled":false,"rental_uris":{"android":"levelo://app?vid=20b31b5e-b99f-4ba0-b4c9-1d8455a6dc44","ios":"levelo://app?vid=20b31b5e-b99f-4ba0-b4c9-1d8455a6dc44"},"vehicle_type_id":"4","last_reported":1683375094,"current_range_meters":1200,"station_id":"ce4bgvp2rcd13ifvqcu0","pricing_plan_id":"free"},{"bike_id":"cf845842-1bab-484b-8ef8-583ef973b692","system_id":"levelo_inurba_marseille","lat":43.31325,"lon":5.39688,"is_reserved":false,"is_disabled":false,"rental_uris":{"android":"levelo://app?vid=cf845842-1bab-484b-8ef8-583ef973b692","ios":"levelo://app?vid=cf845842-1bab-484b-8ef8-583ef973b692"},"vehicle_type_id":"4","last_reported":1683375094,"current_range_meters":19200,"station_id":"ce4bgvp2rcd13ifvqcu0","pricing_plan_id":"free"},{"bike_id":"9689b741-2e3a-4776-9c7e-d025e7969ccb","system_id":"levelo_inurba_marseille","lat":43.31326,"lon":5.39688,"is_reserved":false,"is_disabled":false,"rental_uris":{"android":"levelo://app?vid=9689b741-2e3a-4776-9c7e-d025e7969ccb","ios":"levelo://app?vid=9689b741-2e3a-4776-9c7e-d025e7969ccb"},"vehicle_type_id":"4","last_reported":1683375094,"current_range_meters":27600,"station_id":"ce4bgvp2rcd13ifvqcu0","pricing_plan_id":"free"},{"bike_id":"a9c6e4fd-3ae1-46d7-b246-0ac0d6a11056","system_id":"levelo_inurba_marseille","lat":43.313291,"lon":5.396838,"is_reserved":false,"is_disabled":false,"rental_uris":{"android":"levelo://app?vid=a9c6e4fd-3ae1-46d7-b246-0ac0d6a11056","ios":"levelo://app?vid=a9c6e4fd-3ae1-46d7-b246-0ac0d6a11056"},"vehicle_type_id":"4","last_reported":1683375094,"current_range_meters":22400,"station_id":"ce4bgvp2rcd13ifvqcu0","pricing_plan_id":"free"},{"bike_id":"d2c0bf85-4890-49dc-b907-a5745711f2d2","system_id":"levelo_inurba_marseille","lat":43.31327,"lon":5.39689,"is_reserved":false,"is_disabled":false,"rental_uris":{"android":"levelo://app?vid=d2c0bf85-4890-49dc-b907-a5745711f2d2","ios":"levelo://app?vid=d2c0bf85-4890-49dc-b907-a5745711f2d2"},"vehicle_type_id":"4","last_reported":1683375094,"current_range_meters":7200,"station_id":"ce4bgvp2rcd13ifvqcu0","pricing_plan_id":"free"},{"bike_id":"5822a7ba-8def-493d-80eb-85ce98b86a2a","system_id":"levelo_inurba_marseille","lat":43.313291,"lon":5.396838,"is_reserved":false,"is_disabled":false,"rental_uris":{"android":"levelo://app?vid=5822a7ba-8def-493d-80eb-85ce98b86a2a","ios":"levelo://app?vid=5822a7ba-8def-493d-80eb-85ce98b86a2a"},"vehicle_type_id":"4","last_reported":1683375094,"current_range_meters":14400,"station_id":"ce4bgvp2rcd13ifvqcu0","pricing_plan_id":"free"},{"bike_id":"eb6b4802-88fa-4c9f-bc1b-71a1b52ff5ba","system_id":"levelo_inurba_marseille","lat":43.31329,"lon":5.39694,"is_reserved":false,"is_disabled":false,"rental_uris":{"android":"levelo://app?vid=eb6b4802-88fa-4c9f-bc1b-71a1b52ff5ba","ios":"levelo://app?vid=eb6b4802-88fa-4c9f-bc1b-71a1b52ff5ba"},"vehicle_type_id":"4","last_reported":1683375094,"current_range_meters":21600,"station_id":"ce4bgvp2rcd13ifvqcu0","pricing_plan_id":"free"},{"bike_id":"6ae78e29-5170-4fee-9579-45a0ad34100e","system_id":"levelo_inurba_marseille","lat":43.31326,"lon":5.39695,"is_reserved":false,"is_disabled":false,"rental_uris":{"android":"levelo://app?vid=6ae78e29-5170-4fee-9579-45a0ad34100e","ios":"levelo://app?vid=6ae78e29-5170-4fee-9579-45a0ad34100e"},"vehicle_type_id":"4","last_reported":1683375094,"current_range_meters":7200,"station_id":"ce4bgvp2rcd13ifvqcu0","pricing_plan_id":"free"},{"bike_id":"d0996941-743a-44b8-8f53-61392da66b90","system_id":"levelo_inurba_marseille","lat":43.290779,"lon":5.371482,"is_reserved":false,"is_disabled":false,"rental_uris":{"android":"levelo://app?vid=d0996941-743a-44b8-8f53-61392da66b90","ios":"levelo://app?vid=d0996941-743a-44b8-8f53-61392da66b90"},"vehicle_type_id":"4","last_reported":1683375094,"current_range_meters":0,"station_id":"ce4bh5p2rcd13ifvqe4g","pricing_plan_id":"free"},{"bike_id":"4d738a19-0f7f-4590-9020-b6679dbe3977","system_id":"levelo_inurba_marseille","lat":43.290327,"lon":5.375711,"is_reserved":false,"is_disabled":false,"rental_uris":{"android":"levelo://app?vid=4d738a19-0f7f-4590-9020-b6679dbe3977","ios":"levelo://app?vid=4d738a19-0f7f-4590-9020-b6679dbe3977"},"vehicle_type_id":"4","last_reported":1683375094,"current_range_meters":25600,"station_id":"ce4bh692rcd13ifvqe90","pricing_plan_id":"free"},{"bike_id":"f116c5e7-867a-4809-a0f0-404f04855551","system_id":"levelo_inurba_marseille","lat":43.289184,"lon":5.366408,"is_reserved":false,"is_disabled":false,"rental_uris":{"android":"levelo://app?vid=f116c5e7-867a-4809-a0f0-404f04855551","ios":"levelo://app?vid=f116c5e7-867a-4809-a0f0-404f04855551"},"vehicle_type_id":"4","last_reported":1683375094,"current_range_meters":0,"station_id":"ce4bhap2rcd13ifvqek0","pricing_plan_id":"free"},{"bike_id":"f5c72205-97d2-4301-a6a7-a645eb717106","system_id":"levelo_inurba_marseille","lat":43.304296,"lon":5.397513,"is_reserved":false,"is_disabled":false,"rental_uris":{"android":"levelo://app?vid=f5c72205-97d2-4301-a6a7-a645eb717106","ios":"levelo://app?vid=f5c72205-97d2-4301-a6a7-a645eb717106"},"vehicle_type_id":"4","last_reported":1683375094,"current_range_meters":30400,"station_id":"ce4bh092rcd13ifvqd20","pricing_plan_id":"free"},{"bike_id":"575afc17-30ae-44aa-b2b7-439f83e57cf5","system_id":"levelo_inurba_marseille","lat":43.33041,"lon":5.38905,"is_reserved":false,"is_disabled":false,"rental_uris":{"android":"levelo://app?vid=575afc17-30ae-44aa-b2b7-439f83e57cf5","ios":"levelo://app?vid=575afc17-30ae-44aa-b2b7-439f83e57cf5"},"vehicle_type_id":"4","last_reported":1683375094,"current_range_meters":24800,"station_id":"ce4bhr92rcd13ifvqhrg","pricing_plan_id":"free"},{"bike_id":"c9455a8e-920b-4e52-910e-7a1224d93dcf","system_id":"levelo_inurba_marseille","lat":43.3304,"lon":5.38908,"is_reserved":false,"is_disabled":false,"rental_uris":{"android":"levelo://app?vid=c9455a8e-920b-4e52-910e-7a1224d93dcf","ios":"levelo://app?vid=c9455a8e-920b-4e52-910e-7a1224d93dcf"},"vehicle_type_id":"4","last_reported":1683375094,"current_range_meters":21200,"station_id":"ce4bhr92rcd13ifvqhrg","pricing_plan_id":"free"},{"bike_id":"46c8867e-0dd3-4981-b23a-dff36cb6859b","system_id":"levelo_inurba_marseille","lat":43.304296,"lon":5.397513,"is_reserved":false,"is_disabled":false,"rental_uris":{"android":"levelo://app?vid=46c8867e-0dd3-4981-b23a-dff36cb6859b","ios":"levelo://app?vid=46c8867e-0dd3-4981-b23a-dff36cb6859b"},"vehicle_type_id":"4","last_reported":1683375094,"current_range_meters":28800,"station_id":"ce4bh092rcd13ifvqd20","pricing_plan_id":"free"},{"bike_id":"8354f027-4ab3-43cf-aa5a-b91f8b7b635d","system_id":"levelo_inurba_marseille","lat":43.33043,"lon":5.38905,"is_reserved":false,"is_disabled":false,"rental_uris":{"android":"levelo://app?vid=8354f027-4ab3-43cf-aa5a-b91f8b7b635d","ios":"levelo://app?vid=8354f027-4ab3-43cf-aa5a-b91f8b7b635d"},"vehicle_type_id":"4","last_reported":1683375094,"current_range_meters":12000,"station_id":"ce4bhr92rcd13ifvqhrg","pricing_plan_id":"free"},{"bike_id":"1f662943-fd3c-4d30-8e8d-761822cb14d2","system_id":"levelo_inurba_marseille","lat":43.33041,"lon":5.38913,"is_reserved":false,"is_disabled":false,"rental_uris":{"android":"levelo://app?vid=1f662943-fd3c-4d30-8e8d-761822cb14d2","ios":"levelo://app?vid=1f662943-fd3c-4d30-8e8d-761822cb14d2"},"vehicle_type_id":"4","last_reported":1683375094,"current_range_meters":21200,"station_id":"ce4bhr92rcd13ifvqhrg","pricing_plan_id":"free"},{"bike_id":"c7d204ce-6619-491c-8812-dc4b0a6a663b","system_id":"levelo_inurba_marseille","lat":43.33041,"lon":5.38917,"is_reserved":false,"is_disabled":false,"rental_uris":{"android":"levelo://app?vid=c7d204ce-6619-491c-8812-dc4b0a6a663b","ios":"levelo://app?vid=c7d204ce-6619-491c-8812-dc4b0a6a663b"},"vehicle_type_id":"4","last_reported":1683375094,"current_range_meters":29200,"station_id":"ce4bhr92rcd13ifvqhrg","pricing_plan_id":"free"},{"bike_id":"b19188c7-d374-4f35-9d6f-4ee40c840621","system_id":"levelo_inurba_marseille","lat":43.33041,"lon":5.38917,"is_reserved":false,"is_disabled":false,"rental_uris":{"android":"levelo://app?vid=b19188c7-d374-4f35-9d6f-4ee40c840621","ios":"levelo://app?vid=b19188c7-d374-4f35-9d6f-4ee40c840621"},"vehicle_type_id":"4","last_reported":1683375094,"current_range_meters":22800,"station_id":"ce4bhr92rcd13ifvqhrg","pricing_plan_id":"free"},{"bike_id":"10a8eeb7-4f93-4e8d-81bd-f27d3d4ef515","system_id":"levelo_inurba_marseille","lat":43.33041,"lon":5.38918,"is_reserved":false,"is_disabled":false,"rental_uris":{"android":"levelo://app?vid=10a8eeb7-4f93-4e8d-81bd-f27d3d4ef515","ios":"levelo://app?vid=10a8eeb7-4f93-4e8d-81bd-f27d3d4ef515"},"vehicle_type_id":"4","last_reported":1683375094,"current_range_meters":26400,"station_id":"ce4bhr92rcd13ifvqhrg","pricing_plan_id":"free"},{"bike_id":"4da2ea4c-0587-4161-8586-452f9bca890c","system_id":"levelo_inurba_marseille","lat":43.33045,"lon":5.38912,"is_reserved":false,"is_disabled":false,"rental_uris":{"android":"levelo://app?vid=4da2ea4c-0587-4161-8586-452f9bca890c","ios":"levelo://app?vid=4da2ea4c-0587-4161-8586-452f9bca890c"},"vehicle_type_id":"4","last_reported":1683375094,"current_range_meters":20000,"station_id":"ce4bhr92rcd13ifvqhrg","pricing_plan_id":"free"},{"bike_id":"82843011-ce7a-457e-bdc8-82782ef86da6","system_id":"levelo_inurba_marseille","lat":43.33041,"lon":5.38919,"is_reserved":false,"is_disabled":false,"rental_uris":{"android":"levelo://app?vid=82843011-ce7a-457e-bdc8-82782ef86da6","ios":"levelo://app?vid=82843011-ce7a-457e-bdc8-82782ef86da6"},"vehicle_type_id":"4","last_reported":1683375094,"current_range_meters":19600,"station_id":"ce4bhr92rcd13ifvqhrg","pricing_plan_id":"free"},{"bike_id":"c0b39783-7886-4047-9a8d-355fea0e4444","system_id":"levelo_inurba_marseille","lat":43.33043,"lon":5.38916,"is_reserved":false,"is_disabled":false,"rental_uris":{"android":"levelo://app?vid=c0b39783-7886-4047-9a8d-355fea0e4444","ios":"levelo://app?vid=c0b39783-7886-4047-9a8d-355fea0e4444"},"vehicle_type_id":"4","last_reported":1683375094,"current_range_meters":21600,"station_id":"ce4bhr92rcd13ifvqhrg","pricing_plan_id":"free"},{"bike_id":"d6233f8b-531d-433b-b8e9-589e3920c098","system_id":"levelo_inurba_marseille","lat":43.33044,"lon":5.38915,"is_reserved":false,"is_disabled":false,"rental_uris":{"android":"levelo://app?vid=d6233f8b-531d-433b-b8e9-589e3920c098","ios":"levelo://app?vid=d6233f8b-531d-433b-b8e9-589e3920c098"},"vehicle_type_id":"4","last_reported":1683375094,"current_range_meters":22000,"station_id":"ce4bhr92rcd13ifvqhrg","pricing_plan_id":"free"},{"bike_id":"6bff39af-b880-495b-87c5-e559d7e2e65e","system_id":"levelo_inurba_marseille","lat":43.33041,"lon":5.3892,"is_reserved":false,"is_disabled":false,"rental_uris":{"android":"levelo://app?vid=6bff39af-b880-495b-87c5-e559d7e2e65e","ios":"levelo://app?vid=6bff39af-b880-495b-87c5-e559d7e2e65e"},"vehicle_type_id":"4","last_reported":1683375094,"current_range_meters":15200,"station_id":"ce4bhr92rcd13ifvqhrg","pricing_plan_id":"free"},{"bike_id":"da86836b-d020-456b-ad95-a73c452d8db8","system_id":"levelo_inurba_marseille","lat":43.33041,"lon":5.3892,"is_reserved":false,"is_disabled":false,"rental_uris":{"android":"levelo://app?vid=da86836b-d020-456b-ad95-a73c452d8db8","ios":"levelo://app?vid=da86836b-d020-456b-ad95-a73c452d8db8"},"vehicle_type_id":"4","last_reported":1683375094,"current_range_meters":25200,"station_id":"ce4bhr92rcd13ifvqhrg","pricing_plan_id":"free"},{"bike_id":"928717aa-fed2-44dc-9dda-0b43fb5e963e","system_id":"levelo_inurba_marseille","lat":43.33043,"lon":5.38918,"is_reserved":false,"is_disabled":false,"rental_uris":{"android":"levelo://app?vid=928717aa-fed2-44dc-9dda-0b43fb5e963e","ios":"levelo://app?vid=928717aa-fed2-44dc-9dda-0b43fb5e963e"},"vehicle_type_id":"4","last_reported":1683375094,"current_range_meters":24800,"station_id":"ce4bhr92rcd13ifvqhrg","pricing_plan_id":"free"},{"bike_id":"eec179c5-79de-473a-a2fe-2282099fce04","system_id":"levelo_inurba_marseille","lat":43.33047,"lon":5.38913,"is_reserved":false,"is_disabled":false,"rental_uris":{"android":"levelo://app?vid=eec179c5-79de-473a-a2fe-2282099fce04","ios":"levelo://app?vid=eec179c5-79de-473a-a2fe-2282099fce04"},"vehicle_type_id":"4","last_reported":1683375094,"current_range_meters":19600,"station_id":"ce4bhr92rcd13ifvqhrg","pricing_plan_id":"free"},{"bike_id":"496fc879-c6a2-4335-9eab-2fdd6a6f8bf1","system_id":"levelo_inurba_marseille","lat":43.33042,"lon":5.38921,"is_reserved":false,"is_disabled":false,"rental_uris":{"android":"levelo://app?vid=496fc879-c6a2-4335-9eab-2fdd6a6f8bf1","ios":"levelo://app?vid=496fc879-c6a2-4335-9eab-2fdd6a6f8bf1"},"vehicle_type_id":"4","last_reported":1683375094,"current_range_meters":17200,"station_id":"ce4bhr92rcd13ifvqhrg","pricing_plan_id":"free"},{"bike_id":"ca24a59f-d386-41a3-bec3-cccfb35035a7","system_id":"levelo_inurba_marseille","lat":43.33044,"lon":5.38918,"is_reserved":false,"is_disabled":false,"rental_uris":{"android":"levelo://app?vid=ca24a59f-d386-41a3-bec3-cccfb35035a7","ios":"levelo://app?vid=ca24a59f-d386-41a3-bec3-cccfb35035a7"},"vehicle_type_id":"4","last_reported":1683375094,"current_range_meters":0,"station_id":"ce4bhr92rcd13ifvqhrg","pricing_plan_id":"free"},{"bike_id":"a2b87c40-7b26-4b23-a67b-58c2066ae5c4","system_id":"levelo_inurba_marseille","lat":43.33048,"lon":5.38912,"is_reserved":false,"is_disabled":false,"rental_uris":{"android":"levelo://app?vid=a2b87c40-7b26-4b23-a67b-58c2066ae5c4","ios":"levelo://app?vid=a2b87c40-7b26-4b23-a67b-58c2066ae5c4"},"vehicle_type_id":"4","last_reported":1683375094,"current_range_meters":16000,"station_id":"ce4bhr92rcd13ifvqhrg","pricing_plan_id":"free"},{"bike_id":"7dcda441-b276-41c1-9a48-f3b2f702ead0","system_id":"levelo_inurba_marseille","lat":43.33047,"lon":5.38914,"is_reserved":false,"is_disabled":false,"rental_uris":{"android":"levelo://app?vid=7dcda441-b276-41c1-9a48-f3b2f702ead0","ios":"levelo://app?vid=7dcda441-b276-41c1-9a48-f3b2f702ead0"},"vehicle_type_id":"4","last_reported":1683375094,"current_range_meters":29600,"station_id":"ce4bhr92rcd13ifvqhrg","pricing_plan_id":"free"},{"bike_id":"9cc13337-a19e-40f5-b636-2bafa5380dab","system_id":"levelo_inurba_marseille","lat":43.33047,"lon":5.38915,"is_reserved":false,"is_disabled":false,"rental_uris":{"android":"levelo://app?vid=9cc13337-a19e-40f5-b636-2bafa5380dab","ios":"levelo://app?vid=9cc13337-a19e-40f5-b636-2bafa5380dab"},"vehicle_type_id":"4","last_reported":1683375094,"current_range_meters":28400,"station_id":"ce4bhr92rcd13ifvqhrg","pricing_plan_id":"free"},{"bike_id":"c6a5f3db-467c-47f5-acd9-61fe8cd674ee","system_id":"levelo_inurba_marseille","lat":43.33047,"lon":5.38916,"is_reserved":false,"is_disabled":false,"rental_uris":{"android":"levelo://app?vid=c6a5f3db-467c-47f5-acd9-61fe8cd674ee","ios":"levelo://app?vid=c6a5f3db-467c-47f5-acd9-61fe8cd674ee"},"vehicle_type_id":"4","last_reported":1683375094,"current_range_meters":23200,"station_id":"ce4bhr92rcd13ifvqhrg","pricing_plan_id":"free"},{"bike_id":"1cd8baf0-5550-4716-8d5e-6381fd878ebd","system_id":"levelo_inurba_marseille","lat":43.33045,"lon":5.38921,"is_reserved":false,"is_disabled":false,"rental_uris":{"android":"levelo://app?vid=1cd8baf0-5550-4716-8d5e-6381fd878ebd","ios":"levelo://app?vid=1cd8baf0-5550-4716-8d5e-6381fd878ebd"},"vehicle_type_id":"4","last_reported":1683375094,"current_range_meters":25600,"station_id":"ce4bhr92rcd13ifvqhrg","pricing_plan_id":"free"},{"bike_id":"1c428933-9aa8-4192-82c5-42b6b16b5880","system_id":"levelo_inurba_marseille","lat":43.290104,"lon":5.356111,"is_reserved":false,"is_disabled":false,"rental_uris":{"android":"levelo://app?vid=1c428933-9aa8-4192-82c5-42b6b16b5880","ios":"levelo://app?vid=1c428933-9aa8-4192-82c5-42b6b16b5880"},"vehicle_type_id":"4","last_reported":1683375094,"current_range_meters":1600,"station_id":"ce4bhb92rcd13ifvqen0","pricing_plan_id":"free"},{"bike_id":"b5c4ec11-beb1-448e-b6cb-581a9e557461","system_id":"levelo_inurba_marseille","lat":43.28995,"lon":5.35611,"is_reserved":false,"is_disabled":false,"rental_uris":{"android":"levelo://app?vid=b5c4ec11-beb1-448e-b6cb-581a9e557461","ios":"levelo://app?vid=b5c4ec11-beb1-448e-b6cb-581a9e557461"},"vehicle_type_id":"4","last_reported":1683375094,"current_range_meters":23200,"station_id":"ce4bhb92rcd13ifvqen0","pricing_plan_id":"free"},{"bike_id":"8de9ff1f-0536-4b19-bfd8-ce5331659bcf","system_id":"levelo_inurba_marseille","lat":43.289743,"lon":5.378304,"is_reserved":false,"is_disabled":false,"rental_uris":{"android":"levelo://app?vid=8de9ff1f-0536-4b19-bfd8-ce5331659bcf","ios":"levelo://app?vid=8de9ff1f-0536-4b19-bfd8-ce5331659bcf"},"vehicle_type_id":"4","last_reported":1683375094,"current_range_meters":9200,"station_id":"ce4bh9p2rcd13ifvqed0","pricing_plan_id":"free"},{"bike_id":"34320fce-24bb-4291-be42-2c361aed67f0","system_id":"levelo_inurba_marseille","lat":43.33745,"lon":5.37437,"is_reserved":false,"is_disabled":false,"rental_uris":{"android":"levelo://app?vid=34320fce-24bb-4291-be42-2c361aed67f0","ios":"levelo://app?vid=34320fce-24bb-4291-be42-2c361aed67f0"},"vehicle_type_id":"4","last_reported":1683375094,"current_range_meters":24000,"station_id":"","pricing_plan_id":"free"},{"bike_id":"d1338cde-b3d1-46b1-8800-7a50c92c327c","system_id":"levelo_inurba_marseille","lat":43.3375,"lon":5.3743,"is_reserved":false,"is_disabled":false,"rental_uris":{"android":"levelo://app?vid=d1338cde-b3d1-46b1-8800-7a50c92c327c","ios":"levelo://app?vid=d1338cde-b3d1-46b1-8800-7a50c92c327c"},"vehicle_type_id":"4","last_reported":1683375094,"current_range_meters":27600,"station_id":"","pricing_plan_id":"free"},{"bike_id":"9892d82e-5425-40a5-9403-bc39e084bab9","system_id":"levelo_inurba_marseille","lat":43.33739,"lon":5.375,"is_reserved":false,"is_disabled":false,"rental_uris":{"android":"levelo://app?vid=9892d82e-5425-40a5-9403-bc39e084bab9","ios":"levelo://app?vid=9892d82e-5425-40a5-9403-bc39e084bab9"},"vehicle_type_id":"4","last_reported":1683375094,"current_range_meters":31200,"station_id":"","pricing_plan_id":"free"},{"bike_id":"ab7b8dc5-9722-47e7-8a78-100d1a674f6d","system_id":"levelo_inurba_marseille","lat":43.33751,"lon":5.37469,"is_reserved":false,"is_disabled":false,"rental_uris":{"android":"levelo://app?vid=ab7b8dc5-9722-47e7-8a78-100d1a674f6d","ios":"levelo://app?vid=ab7b8dc5-9722-47e7-8a78-100d1a674f6d"},"vehicle_type_id":"4","last_reported":1683375094,"current_range_meters":5600,"station_id":"","pricing_plan_id":"free"},{"bike_id":"2803101f-ee4c-4dcf-bdd7-6442d6c2191c","system_id":"levelo_inurba_marseille","lat":43.30642,"lon":5.401031,"is_reserved":false,"is_disabled":false,"rental_uris":{"android":"levelo://app?vid=2803101f-ee4c-4dcf-bdd7-6442d6c2191c","ios":"levelo://app?vid=2803101f-ee4c-4dcf-bdd7-6442d6c2191c"},"vehicle_type_id":"4","last_reported":1683375094,"current_range_meters":26800,"station_id":"ce4bh112rcd13ifvqda0","pricing_plan_id":"free"},{"bike_id":"cc5900b6-b927-49fc-82db-4d13a3d02316","system_id":"levelo_inurba_marseille","lat":43.33752,"lon":5.37486,"is_reserved":false,"is_disabled":false,"rental_uris":{"android":"levelo://app?vid=cc5900b6-b927-49fc-82db-4d13a3d02316","ios":"levelo://app?vid=cc5900b6-b927-49fc-82db-4d13a3d02316"},"vehicle_type_id":"4","last_reported":1683375094,"current_range_meters":26400,"station_id":"","pricing_plan_id":"free"},{"bike_id":"20083ae5-f09f-4d10-9758-3cdd331d6a45","system_id":"levelo_inurba_marseille","lat":43.33756,"lon":5.37465,"is_reserved":false,"is_disabled":false,"rental_uris":{"android":"levelo://app?vid=20083ae5-f09f-4d10-9758-3cdd331d6a45","ios":"levelo://app?vid=20083ae5-f09f-4d10-9758-3cdd331d6a45"},"vehicle_type_id":"4","last_reported":1683375094,"current_range_meters":16000,"station_id":"","pricing_plan_id":"free"},{"bike_id":"a0ee7713-690a-45d1-94cb-0123b56158fb","system_id":"levelo_inurba_marseille","lat":43.30642,"lon":5.401031,"is_reserved":false,"is_disabled":false,"rental_uris":{"android":"levelo://app?vid=a0ee7713-690a-45d1-94cb-0123b56158fb","ios":"levelo://app?vid=a0ee7713-690a-45d1-94cb-0123b56158fb"},"vehicle_type_id":"4","last_reported":1683375094,"current_range_meters":12800,"station_id":"ce4bh112rcd13ifvqda0","pricing_plan_id":"free"},{"bike_id":"79ab3cb2-7fd4-4e7a-bae3-3edb55a107f0","system_id":"levelo_inurba_marseille","lat":43.30642,"lon":5.401031,"is_reserved":false,"is_disabled":false,"rental_uris":{"android":"levelo://app?vid=79ab3cb2-7fd4-4e7a-bae3-3edb55a107f0","ios":"levelo://app?vid=79ab3cb2-7fd4-4e7a-bae3-3edb55a107f0"},"vehicle_type_id":"4","last_reported":1683375094,"current_range_meters":22800,"station_id":"ce4bh112rcd13ifvqda0","pricing_plan_id":"free"},{"bike_id":"b8fe736e-840c-42af-a45d-89656544177a","system_id":"levelo_inurba_marseille","lat":43.30642,"lon":5.401031,"is_reserved":false,"is_disabled":false,"rental_uris":{"android":"levelo://app?vid=b8fe736e-840c-42af-a45d-89656544177a","ios":"levelo://app?vid=b8fe736e-840c-42af-a45d-89656544177a"},"vehicle_type_id":"4","last_reported":1683375094,"current_range_meters":24000,"station_id":"ce4bh112rcd13ifvqda0","pricing_plan_id":"free"},{"bike_id":"d299b68e-e11c-4245-a595-5d9f2f62baee","system_id":"levelo_inurba_marseille","lat":43.30642,"lon":5.401031,"is_reserved":false,"is_disabled":false,"rental_uris":{"android":"levelo://app?vid=d299b68e-e11c-4245-a595-5d9f2f62baee","ios":"levelo://app?vid=d299b68e-e11c-4245-a595-5d9f2f62baee"},"vehicle_type_id":"4","last_reported":1683375094,"current_range_meters":800,"station_id":"ce4bh112rcd13ifvqda0","pricing_plan_id":"free"},{"bike_id":"db84b57a-c242-4d31-93f3-e9f12005c4b3","system_id":"levelo_inurba_marseille","lat":43.33762,"lon":5.37494,"is_reserved":false,"is_disabled":false,"rental_uris":{"android":"levelo://app?vid=db84b57a-c242-4d31-93f3-e9f12005c4b3","ios":"levelo://app?vid=db84b57a-c242-4d31-93f3-e9f12005c4b3"},"vehicle_type_id":"4","last_reported":1683375094,"current_range_meters":27200,"station_id":"","pricing_plan_id":"free"},{"bike_id":"a9f2f4af-12bd-42e2-95b8-7aa40b3a938e","system_id":"levelo_inurba_marseille","lat":43.33783,"lon":5.37444,"is_reserved":false,"is_disabled":false,"rental_uris":{"android":"levelo://app?vid=a9f2f4af-12bd-42e2-95b8-7aa40b3a938e","ios":"levelo://app?vid=a9f2f4af-12bd-42e2-95b8-7aa40b3a938e"},"vehicle_type_id":"4","last_reported":1683375094,"current_range_meters":31200,"station_id":"","pricing_plan_id":"free"},{"bike_id":"c452a78d-8a25-4dac-a034-b406e8dd2a51","system_id":"levelo_inurba_marseille","lat":43.2877,"lon":5.35875,"is_reserved":false,"is_disabled":false,"rental_uris":{"android":"levelo://app?vid=c452a78d-8a25-4dac-a034-b406e8dd2a51","ios":"levelo://app?vid=c452a78d-8a25-4dac-a034-b406e8dd2a51"},"vehicle_type_id":"4","last_reported":1683375094,"current_range_meters":5200,"station_id":"","pricing_plan_id":"free"},{"bike_id":"93f0111c-b15c-4863-946e-bd62d9803fa7","system_id":"levelo_inurba_marseille","lat":43.29514,"lon":5.39397,"is_reserved":false,"is_disabled":false,"rental_uris":{"android":"levelo://app?vid=93f0111c-b15c-4863-946e-bd62d9803fa7","ios":"levelo://app?vid=93f0111c-b15c-4863-946e-bd62d9803fa7"},"vehicle_type_id":"4","last_reported":1683375094,"current_range_meters":0,"station_id":"ce4bh292rcd13ifvqdf0","pricing_plan_id":"free"},{"bike_id":"20567cc1-796e-4317-9ecb-264a620e075b","system_id":"levelo_inurba_marseille","lat":43.290345,"lon":5.38646,"is_reserved":false,"is_disabled":false,"rental_uris":{"android":"levelo://app?vid=20567cc1-796e-4317-9ecb-264a620e075b","ios":"levelo://app?vid=20567cc1-796e-4317-9ecb-264a620e075b"},"vehicle_type_id":"4","last_reported":1683375094,"current_range_meters":18800,"station_id":"ce4bh4p2rcd13ifvqe0g","pricing_plan_id":"free"},{"bike_id":"18f39cd3-3d13-4b77-aecd-8bcc34835802","system_id":"levelo_inurba_marseille","lat":43.28859,"lon":5.38232,"is_reserved":false,"is_disabled":false,"rental_uris":{"android":"levelo://app?vid=18f39cd3-3d13-4b77-aecd-8bcc34835802","ios":"levelo://app?vid=18f39cd3-3d13-4b77-aecd-8bcc34835802"},"vehicle_type_id":"4","last_reported":1683375094,"current_range_meters":0,"station_id":"","pricing_plan_id":"free"},{"bike_id":"93350c45-b50a-45bc-bda8-a381773e30c1","system_id":"levelo_inurba_marseille","lat":43.30765,"lon":5.40292,"is_reserved":false,"is_disabled":false,"rental_uris":{"android":"levelo://app?vid=93350c45-b50a-45bc-bda8-a381773e30c1","ios":"levelo://app?vid=93350c45-b50a-45bc-bda8-a381773e30c1"},"vehicle_type_id":"4","last_reported":1683375094,"current_range_meters":16400,"station_id":"","pricing_plan_id":"free"},{"bike_id":"25d6ee88-4546-4c48-8f64-fbe72b7b2959","system_id":"levelo_inurba_marseille","lat":43.286039,"lon":5.370679,"is_reserved":false,"is_disabled":false,"rental_uris":{"android":"levelo://app?vid=25d6ee88-4546-4c48-8f64-fbe72b7b2959","ios":"levelo://app?vid=25d6ee88-4546-4c48-8f64-fbe72b7b2959"},"vehicle_type_id":"4","last_reported":1683375094,"current_range_meters":9600,"station_id":"ce4bht12rcd13ifvqi60","pricing_plan_id":"free"},{"bike_id":"bbc378af-68c4-4a3f-82be-bca707b52190","system_id":"levelo_inurba_marseille","lat":43.286039,"lon":5.370679,"is_reserved":false,"is_disabled":false,"rental_uris":{"android":"levelo://app?vid=bbc378af-68c4-4a3f-82be-bca707b52190","ios":"levelo://app?vid=bbc378af-68c4-4a3f-82be-bca707b52190"},"vehicle_type_id":"4","last_reported":1683375094,"current_range_meters":12400,"station_id":"ce4bht12rcd13ifvqi60","pricing_plan_id":"free"},{"bike_id":"cb0d6c13-65f2-49af-aee8-330053c02af8","system_id":"levelo_inurba_marseille","lat":43.286039,"lon":5.370679,"is_reserved":false,"is_disabled":false,"rental_uris":{"android":"levelo://app?vid=cb0d6c13-65f2-49af-aee8-330053c02af8","ios":"levelo://app?vid=cb0d6c13-65f2-49af-aee8-330053c02af8"},"vehicle_type_id":"4","last_reported":1683375094,"current_range_meters":31200,"station_id":"ce4bht12rcd13ifvqi60","pricing_plan_id":"free"},{"bike_id":"dfb88fc1-2b6a-4e69-96ab-516582caff52","system_id":"levelo_inurba_marseille","lat":43.286039,"lon":5.370681,"is_reserved":false,"is_disabled":false,"rental_uris":{"android":"levelo://app?vid=dfb88fc1-2b6a-4e69-96ab-516582caff52","ios":"levelo://app?vid=dfb88fc1-2b6a-4e69-96ab-516582caff52"},"vehicle_type_id":"4","last_reported":1683375094,"current_range_meters":16800,"station_id":"ce4bht12rcd13ifvqi60","pricing_plan_id":"free"},{"bike_id":"39b520ce-b8a6-4ddf-8cf7-b2fd18b24010","system_id":"levelo_inurba_marseille","lat":43.316523,"lon":5.404367,"is_reserved":false,"is_disabled":false,"rental_uris":{"android":"levelo://app?vid=39b520ce-b8a6-4ddf-8cf7-b2fd18b24010","ios":"levelo://app?vid=39b520ce-b8a6-4ddf-8cf7-b2fd18b24010"},"vehicle_type_id":"4","last_reported":1683375094,"current_range_meters":30000,"station_id":"ce4bh012rcd13ifvqd00","pricing_plan_id":"free"},{"bike_id":"9a78b2a6-fd44-4c5e-8c58-3c4de70600e1","system_id":"levelo_inurba_marseille","lat":43.316517,"lon":5.404375,"is_reserved":false,"is_disabled":false,"rental_uris":{"android":"levelo://app?vid=9a78b2a6-fd44-4c5e-8c58-3c4de70600e1","ios":"levelo://app?vid=9a78b2a6-fd44-4c5e-8c58-3c4de70600e1"},"vehicle_type_id":"4","last_reported":1683375094,"current_range_meters":25600,"station_id":"ce4bh012rcd13ifvqd00","pricing_plan_id":"free"},{"bike_id":"3994061e-d1a9-49bb-9705-cefca2bab53c","system_id":"levelo_inurba_marseille","lat":43.2862,"lon":5.35109,"is_reserved":false,"is_disabled":false,"rental_uris":{"android":"levelo://app?vid=3994061e-d1a9-49bb-9705-cefca2bab53c","ios":"levelo://app?vid=3994061e-d1a9-49bb-9705-cefca2bab53c"},"vehicle_type_id":"4","last_reported":1683375094,"current_range_meters":19600,"station_id":"","pricing_plan_id":"free"},{"bike_id":"57b07f20-dfcd-4443-90bd-747f00d128cd","system_id":"levelo_inurba_marseille","lat":43.28619,"lon":5.35107,"is_reserved":false,"is_disabled":false,"rental_uris":{"android":"levelo://app?vid=57b07f20-dfcd-4443-90bd-747f00d128cd","ios":"levelo://app?vid=57b07f20-dfcd-4443-90bd-747f00d128cd"},"vehicle_type_id":"4","last_reported":1683375094,"current_range_meters":22400,"station_id":"","pricing_plan_id":"free"},{"bike_id":"a6cf8a0e-3ec3-430e-a8ab-48f8e095166d","system_id":"levelo_inurba_marseille","lat":43.28614,"lon":5.35111,"is_reserved":false,"is_disabled":false,"rental_uris":{"android":"levelo://app?vid=a6cf8a0e-3ec3-430e-a8ab-48f8e095166d","ios":"levelo://app?vid=a6cf8a0e-3ec3-430e-a8ab-48f8e095166d"},"vehicle_type_id":"4","last_reported":1683375094,"current_range_meters":24800,"station_id":"","pricing_plan_id":"free"},{"bike_id":"7d86bcc6-27c3-4a96-ab09-7d5b81dad5e9","system_id":"levelo_inurba_marseille","lat":43.28613,"lon":5.35109,"is_reserved":false,"is_disabled":false,"rental_uris":{"android":"levelo://app?vid=7d86bcc6-27c3-4a96-ab09-7d5b81dad5e9","ios":"levelo://app?vid=7d86bcc6-27c3-4a96-ab09-7d5b81dad5e9"},"vehicle_type_id":"4","last_reported":1683375094,"current_range_meters":28800,"station_id":"","pricing_plan_id":"free"},{"bike_id":"46973106-615e-43ab-8df4-e7959195824d","system_id":"levelo_inurba_marseille","lat":43.285856,"lon":5.350771,"is_reserved":false,"is_disabled":false,"rental_uris":{"android":"levelo://app?vid=46973106-615e-43ab-8df4-e7959195824d","ios":"levelo://app?vid=46973106-615e-43ab-8df4-e7959195824d"},"vehicle_type_id":"4","last_reported":1683375094,"current_range_meters":18800,"station_id":"ce4bhch2rcd13ifvqeug","pricing_plan_id":"free"},{"bike_id":"b3693d34-fc77-4bc6-a914-43a0a274c85d","system_id":"levelo_inurba_marseille","lat":43.285856,"lon":5.350771,"is_reserved":false,"is_disabled":false,"rental_uris":{"android":"levelo://app?vid=b3693d34-fc77-4bc6-a914-43a0a274c85d","ios":"levelo://app?vid=b3693d34-fc77-4bc6-a914-43a0a274c85d"},"vehicle_type_id":"4","last_reported":1683375094,"current_range_meters":28800,"station_id":"ce4bhch2rcd13ifvqeug","pricing_plan_id":"free"},{"bike_id":"8349c170-8205-4b35-a41e-a7e7990998ed","system_id":"levelo_inurba_marseille","lat":43.285856,"lon":5.350771,"is_reserved":false,"is_disabled":false,"rental_uris":{"android":"levelo://app?vid=8349c170-8205-4b35-a41e-a7e7990998ed","ios":"levelo://app?vid=8349c170-8205-4b35-a41e-a7e7990998ed"},"vehicle_type_id":"4","last_reported":1683375094,"current_range_meters":6800,"station_id":"ce4bhch2rcd13ifvqeug","pricing_plan_id":"free"},{"bike_id":"bbbc7a69-684b-405e-a50f-6814464c7b79","system_id":"levelo_inurba_marseille","lat":43.285856,"lon":5.350771,"is_reserved":false,"is_disabled":false,"rental_uris":{"android":"levelo://app?vid=bbbc7a69-684b-405e-a50f-6814464c7b79","ios":"levelo://app?vid=bbbc7a69-684b-405e-a50f-6814464c7b79"},"vehicle_type_id":"4","last_reported":1683375094,"current_range_meters":6800,"station_id":"ce4bhch2rcd13ifvqeug","pricing_plan_id":"free"},{"bike_id":"08fe1a4e-3b8d-48c5-8c52-fcc35430df13","system_id":"levelo_inurba_marseille","lat":43.285856,"lon":5.350771,"is_reserved":false,"is_disabled":false,"rental_uris":{"android":"levelo://app?vid=08fe1a4e-3b8d-48c5-8c52-fcc35430df13","ios":"levelo://app?vid=08fe1a4e-3b8d-48c5-8c52-fcc35430df13"},"vehicle_type_id":"4","last_reported":1683375094,"current_range_meters":29200,"station_id":"ce4bhch2rcd13ifvqeug","pricing_plan_id":"free"},{"bike_id":"023d6bd7-2497-4f6e-b031-02014d3c0b93","system_id":"levelo_inurba_marseille","lat":43.295713,"lon":5.399639,"is_reserved":false,"is_disabled":false,"rental_uris":{"android":"levelo://app?vid=023d6bd7-2497-4f6e-b031-02014d3c0b93","ios":"levelo://app?vid=023d6bd7-2497-4f6e-b031-02014d3c0b93"},"vehicle_type_id":"4","last_reported":1683375094,"current_range_meters":18400,"station_id":"ce4bh312rcd13ifvqdj0","pricing_plan_id":"free"},{"bike_id":"df3820ee-5fdb-40ab-9cad-276b3a2fe48f","system_id":"levelo_inurba_marseille","lat":43.286595,"lon":5.386795,"is_reserved":false,"is_disabled":false,"rental_uris":{"android":"levelo://app?vid=df3820ee-5fdb-40ab-9cad-276b3a2fe48f","ios":"levelo://app?vid=df3820ee-5fdb-40ab-9cad-276b3a2fe48f"},"vehicle_type_id":"4","last_reported":1683375094,"current_range_meters":30400,"station_id":"ce4bh492rcd13ifvqdug","pricing_plan_id":"free"},{"bike_id":"097a4d3c-aa6e-4f6c-8d29-4f3987625d21","system_id":"levelo_inurba_marseille","lat":43.337168,"lon":5.391825,"is_reserved":false,"is_disabled":false,"rental_uris":{"android":"levelo://app?vid=097a4d3c-aa6e-4f6c-8d29-4f3987625d21","ios":"levelo://app?vid=097a4d3c-aa6e-4f6c-8d29-4f3987625d21"},"vehicle_type_id":"4","last_reported":1683375094,"current_range_meters":24400,"station_id":"ce4bhr92rcd13ifvqhsg","pricing_plan_id":"free"},{"bike_id":"27865f6e-c046-4416-9233-48156b6bae2c","system_id":"levelo_inurba_marseille","lat":43.337168,"lon":5.391825,"is_reserved":false,"is_disabled":false,"rental_uris":{"android":"levelo://app?vid=27865f6e-c046-4416-9233-48156b6bae2c","ios":"levelo://app?vid=27865f6e-c046-4416-9233-48156b6bae2c"},"vehicle_type_id":"4","last_reported":1683375094,"current_range_meters":27600,"station_id":"ce4bhr92rcd13ifvqhsg","pricing_plan_id":"free"},{"bike_id":"60dafb37-540d-4e2b-af0c-adee965353ec","system_id":"levelo_inurba_marseille","lat":43.337168,"lon":5.391825,"is_reserved":false,"is_disabled":false,"rental_uris":{"android":"levelo://app?vid=60dafb37-540d-4e2b-af0c-adee965353ec","ios":"levelo://app?vid=60dafb37-540d-4e2b-af0c-adee965353ec"},"vehicle_type_id":"4","last_reported":1683375094,"current_range_meters":12800,"station_id":"ce4bhr92rcd13ifvqhsg","pricing_plan_id":"free"},{"bike_id":"9d15d15c-61cc-4e44-9fdd-13284d8c4606","system_id":"levelo_inurba_marseille","lat":43.337168,"lon":5.391825,"is_reserved":false,"is_disabled":false,"rental_uris":{"android":"levelo://app?vid=9d15d15c-61cc-4e44-9fdd-13284d8c4606","ios":"levelo://app?vid=9d15d15c-61cc-4e44-9fdd-13284d8c4606"},"vehicle_type_id":"4","last_reported":1683375094,"current_range_meters":31200,"station_id":"ce4bhr92rcd13ifvqhsg","pricing_plan_id":"free"},{"bike_id":"f6fae6a8-6de7-4b64-80a2-202e07d90cfd","system_id":"levelo_inurba_marseille","lat":43.32334,"lon":5.40621,"is_reserved":false,"is_disabled":false,"rental_uris":{"android":"levelo://app?vid=f6fae6a8-6de7-4b64-80a2-202e07d90cfd","ios":"levelo://app?vid=f6fae6a8-6de7-4b64-80a2-202e07d90cfd"},"vehicle_type_id":"4","last_reported":1683375094,"current_range_meters":31200,"station_id":"ce4bhq92rcd13ifvqhjg","pricing_plan_id":"free"},{"bike_id":"bff45db0-8068-4648-ad77-86c507a1b75d","system_id":"levelo_inurba_marseille","lat":43.33717,"lon":5.391857,"is_reserved":false,"is_disabled":false,"rental_uris":{"android":"levelo://app?vid=bff45db0-8068-4648-ad77-86c507a1b75d","ios":"levelo://app?vid=bff45db0-8068-4648-ad77-86c507a1b75d"},"vehicle_type_id":"4","last_reported":1683375094,"current_range_meters":10400,"station_id":"ce4bhr92rcd13ifvqhsg","pricing_plan_id":"free"},{"bike_id":"48e4df71-56be-44ec-b093-8eb75cbc6414","system_id":"levelo_inurba_marseille","lat":43.323464,"lon":5.406297,"is_reserved":false,"is_disabled":false,"rental_uris":{"android":"levelo://app?vid=48e4df71-56be-44ec-b093-8eb75cbc6414","ios":"levelo://app?vid=48e4df71-56be-44ec-b093-8eb75cbc6414"},"vehicle_type_id":"4","last_reported":1683375094,"current_range_meters":31200,"station_id":"ce4bhq92rcd13ifvqhjg","pricing_plan_id":"free"},{"bike_id":"c9c4f49a-801c-4a26-8233-f9fb4c97e2ff","system_id":"levelo_inurba_marseille","lat":43.33717,"lon":5.391857,"is_reserved":false,"is_disabled":false,"rental_uris":{"android":"levelo://app?vid=c9c4f49a-801c-4a26-8233-f9fb4c97e2ff","ios":"levelo://app?vid=c9c4f49a-801c-4a26-8233-f9fb4c97e2ff"},"vehicle_type_id":"4","last_reported":1683375094,"current_range_meters":5200,"station_id":"ce4bhr92rcd13ifvqhsg","pricing_plan_id":"free"},{"bike_id":"ad3cdfdb-0864-4cce-8a5d-05a05de94244","system_id":"levelo_inurba_marseille","lat":43.30077,"lon":5.40565,"is_reserved":false,"is_disabled":false,"rental_uris":{"android":"levelo://app?vid=ad3cdfdb-0864-4cce-8a5d-05a05de94244","ios":"levelo://app?vid=ad3cdfdb-0864-4cce-8a5d-05a05de94244"},"vehicle_type_id":"4","last_reported":1683375094,"current_range_meters":21200,"station_id":"","pricing_plan_id":"free"},{"bike_id":"e8037e44-f707-44be-909b-094098211ff6","system_id":"levelo_inurba_marseille","lat":43.284793,"lon":5.384119,"is_reserved":false,"is_disabled":false,"rental_uris":{"android":"levelo://app?vid=e8037e44-f707-44be-909b-094098211ff6","ios":"levelo://app?vid=e8037e44-f707-44be-909b-094098211ff6"},"vehicle_type_id":"4","last_reported":1683375094,"current_range_meters":8800,"station_id":"ce4bh512rcd13ifvqe3g","pricing_plan_id":"free"},{"bike_id":"4a6af45b-f8f5-4acd-b478-a36d7c9b86ca","system_id":"levelo_inurba_marseille","lat":43.284217,"lon":5.349697,"is_reserved":false,"is_disabled":false,"rental_uris":{"android":"levelo://app?vid=4a6af45b-f8f5-4acd-b478-a36d7c9b86ca","ios":"levelo://app?vid=4a6af45b-f8f5-4acd-b478-a36d7c9b86ca"},"vehicle_type_id":"4","last_reported":1683375094,"current_range_meters":22400,"station_id":"ce4bhbh2rcd13ifvqepg","pricing_plan_id":"free"},{"bike_id":"8547291d-c29a-4423-8db5-b76d88096b7a","system_id":"levelo_inurba_marseille","lat":43.284219,"lon":5.3497,"is_reserved":false,"is_disabled":false,"rental_uris":{"android":"levelo://app?vid=8547291d-c29a-4423-8db5-b76d88096b7a","ios":"levelo://app?vid=8547291d-c29a-4423-8db5-b76d88096b7a"},"vehicle_type_id":"4","last_reported":1683375094,"current_range_meters":21600,"station_id":"ce4bhbh2rcd13ifvqepg","pricing_plan_id":"free"},{"bike_id":"fbadce77-2f26-4d87-865a-366e6b325e4a","system_id":"levelo_inurba_marseille","lat":43.284219,"lon":5.3497,"is_reserved":false,"is_disabled":false,"rental_uris":{"android":"levelo://app?vid=fbadce77-2f26-4d87-865a-366e6b325e4a","ios":"levelo://app?vid=fbadce77-2f26-4d87-865a-366e6b325e4a"},"vehicle_type_id":"4","last_reported":1683375094,"current_range_meters":12000,"station_id":"ce4bhbh2rcd13ifvqepg","pricing_plan_id":"free"},{"bike_id":"a6c02902-2341-412d-b2be-2a0ab7107ffc","system_id":"levelo_inurba_marseille","lat":43.284219,"lon":5.3497,"is_reserved":false,"is_disabled":false,"rental_uris":{"android":"levelo://app?vid=a6c02902-2341-412d-b2be-2a0ab7107ffc","ios":"levelo://app?vid=a6c02902-2341-412d-b2be-2a0ab7107ffc"},"vehicle_type_id":"4","last_reported":1683375094,"current_range_meters":12400,"station_id":"ce4bhbh2rcd13ifvqepg","pricing_plan_id":"free"},{"bike_id":"a7ea350b-3c03-4177-92b9-3f202579f8c0","system_id":"levelo_inurba_marseille","lat":43.284217,"lon":5.349697,"is_reserved":false,"is_disabled":false,"rental_uris":{"android":"levelo://app?vid=a7ea350b-3c03-4177-92b9-3f202579f8c0","ios":"levelo://app?vid=a7ea350b-3c03-4177-92b9-3f202579f8c0"},"vehicle_type_id":"4","last_reported":1683375094,"current_range_meters":23200,"station_id":"ce4bhbh2rcd13ifvqepg","pricing_plan_id":"free"},{"bike_id":"0e15b775-de10-46e9-8c5d-4f549cb4b769","system_id":"levelo_inurba_marseille","lat":43.284219,"lon":5.3497,"is_reserved":false,"is_disabled":false,"rental_uris":{"android":"levelo://app?vid=0e15b775-de10-46e9-8c5d-4f549cb4b769","ios":"levelo://app?vid=0e15b775-de10-46e9-8c5d-4f549cb4b769"},"vehicle_type_id":"4","last_reported":1683375094,"current_range_meters":24400,"station_id":"ce4bhbh2rcd13ifvqepg","pricing_plan_id":"free"},{"bike_id":"9d696162-a417-4141-8951-243305fcdd01","system_id":"levelo_inurba_marseille","lat":43.284219,"lon":5.3497,"is_reserved":false,"is_disabled":false,"rental_uris":{"android":"levelo://app?vid=9d696162-a417-4141-8951-243305fcdd01","ios":"levelo://app?vid=9d696162-a417-4141-8951-243305fcdd01"},"vehicle_type_id":"4","last_reported":1683375094,"current_range_meters":12800,"station_id":"ce4bhbh2rcd13ifvqepg","pricing_plan_id":"free"},{"bike_id":"a882e427-e623-47e7-a7aa-8877397249c4","system_id":"levelo_inurba_marseille","lat":43.284217,"lon":5.349697,"is_reserved":false,"is_disabled":false,"rental_uris":{"android":"levelo://app?vid=a882e427-e623-47e7-a7aa-8877397249c4","ios":"levelo://app?vid=a882e427-e623-47e7-a7aa-8877397249c4"},"vehicle_type_id":"4","last_reported":1683375094,"current_range_meters":17200,"station_id":"ce4bhbh2rcd13ifvqepg","pricing_plan_id":"free"},{"bike_id":"b5e8c6b4-9504-48fa-92ab-da463b3a5774","system_id":"levelo_inurba_marseille","lat":43.284219,"lon":5.3497,"is_reserved":false,"is_disabled":false,"rental_uris":{"android":"levelo://app?vid=b5e8c6b4-9504-48fa-92ab-da463b3a5774","ios":"levelo://app?vid=b5e8c6b4-9504-48fa-92ab-da463b3a5774"},"vehicle_type_id":"4","last_reported":1683375094,"current_range_meters":20400,"station_id":"ce4bhbh2rcd13ifvqepg","pricing_plan_id":"free"},{"bike_id":"8e6827b8-fee2-426c-8807-8cb90cdc21ca","system_id":"levelo_inurba_marseille","lat":43.284217,"lon":5.349697,"is_reserved":false,"is_disabled":false,"rental_uris":{"android":"levelo://app?vid=8e6827b8-fee2-426c-8807-8cb90cdc21ca","ios":"levelo://app?vid=8e6827b8-fee2-426c-8807-8cb90cdc21ca"},"vehicle_type_id":"4","last_reported":1683375094,"current_range_meters":14400,"station_id":"ce4bhbh2rcd13ifvqepg","pricing_plan_id":"free"},{"bike_id":"192c2a04-ae63-45b1-a237-5c66b24e940b","system_id":"levelo_inurba_marseille","lat":43.284217,"lon":5.349697,"is_reserved":false,"is_disabled":false,"rental_uris":{"android":"levelo://app?vid=192c2a04-ae63-45b1-a237-5c66b24e940b","ios":"levelo://app?vid=192c2a04-ae63-45b1-a237-5c66b24e940b"},"vehicle_type_id":"4","last_reported":1683375094,"current_range_meters":31200,"station_id":"ce4bhbh2rcd13ifvqepg","pricing_plan_id":"free"},{"bike_id":"c0a56788-9ced-4c80-85d7-004fd0f56f5c","system_id":"levelo_inurba_marseille","lat":43.284219,"lon":5.3497,"is_reserved":false,"is_disabled":false,"rental_uris":{"android":"levelo://app?vid=c0a56788-9ced-4c80-85d7-004fd0f56f5c","ios":"levelo://app?vid=c0a56788-9ced-4c80-85d7-004fd0f56f5c"},"vehicle_type_id":"4","last_reported":1683375094,"current_range_meters":21200,"station_id":"ce4bhbh2rcd13ifvqepg","pricing_plan_id":"free"},{"bike_id":"1b85cd22-1415-49a9-9f4d-255f1e8a1260","system_id":"levelo_inurba_marseille","lat":43.284219,"lon":5.3497,"is_reserved":false,"is_disabled":false,"rental_uris":{"android":"levelo://app?vid=1b85cd22-1415-49a9-9f4d-255f1e8a1260","ios":"levelo://app?vid=1b85cd22-1415-49a9-9f4d-255f1e8a1260"},"vehicle_type_id":"4","last_reported":1683375094,"current_range_meters":17600,"station_id":"ce4bhbh2rcd13ifvqepg","pricing_plan_id":"free"},{"bike_id":"30fcb283-2802-4702-8b67-e6ff0d2ddf11","system_id":"levelo_inurba_marseille","lat":43.284217,"lon":5.349697,"is_reserved":false,"is_disabled":false,"rental_uris":{"android":"levelo://app?vid=30fcb283-2802-4702-8b67-e6ff0d2ddf11","ios":"levelo://app?vid=30fcb283-2802-4702-8b67-e6ff0d2ddf11"},"vehicle_type_id":"4","last_reported":1683375094,"current_range_meters":22000,"station_id":"ce4bhbh2rcd13ifvqepg","pricing_plan_id":"free"},