{"last_updated":1683270364,"ttl":30,"version":"2.2","data":{"bikes":[{"bike_id":"8e379ed2-30e3-4a28-943f-ec3769adfc3a","system_id":"levelo_inurba_marseille","lat":43.312239,"lon":5.368562,"is_reserved":false,"is_disabled":false,"rental_uris":{"android":"levelo://app?vid=8e379ed2-30e3-4a28-943f-ec3769adfc3a","ios":"levelo://app?vid=8e379ed2-30e3-4a28-943f-ec3769adfc3a"},"vehicle_type_id":"4","last_reported":1683270365,"current_range_meters":2400,"station_id":"ce4bgl92rcd13ifvqbq0","pricing_plan_id":"free"},{"bike_id":"a86a1a1b-0192-45da-a4e0-7345ad8ef434","system_id":"levelo_inurba_marseille","lat":43.313391,"lon":5.36706,"is_reserved":false,"is_disabled":false,"rental_uris":{"android":"levelo://app?vid=a86a1a1b-0192-45da-a4e0-7345ad8ef434","ios":"levelo://app?vid=a86a1a1b-0192-45da-a4e0-7345ad8ef434"},"vehicle_type_id":"4","last_reported":1683270365,"current_range_meters":19200,"station_id":"ce4bgr92rcd13ifvqc6g","pricing_plan_id":"free"},{"bike_id":"38a17d25-733b-4e26-ae14-77b09cf7fd21","system_id":"levelo_inurba_marseille","lat":43.313391,"lon":5.36706,"is_reserved":false,"is_disabled":false,"rental_uris":{"android":"levelo://app?vid=38a17d25-733b-4e26-ae14-77b09cf7fd21","ios":"levelo://app?vid=38a17d25-733b-4e26-ae14-77b09cf7fd21"},"vehicle_type_id":"4","last_reported":1683270365,"current_range_meters":27600,"station_id":"ce4bgr92rcd13ifvqc6g","pricing_plan_id":"free"},{"bike_id":"c71a97ca-b86b-45d7-b787-0833ddece4c3","system_id":"levelo_inurba_marseille","lat":43.31341,"lon":5.367098,"is_reserved":false,"is_disabled":false,"rental_uris":{"android":"levelo://app?vid=c71a97ca-b86b-45d7-b787-0833ddece4c3","ios":"levelo://app?vid=c71a97ca-b86b-45d7-b787-0833ddece4c3"},"vehicle_type_id":"4","last_reported":1683270365,"current_range_meters":24800,"station_id":"ce4bgr92rcd13ifvqc6g","pricing_plan_id":"free"},{"bike_id":"8ab5485b-df01-4ad3-be0b-06bf76c507ea","system_id":"levelo_inurba_marseille","lat":43.31341,"lon":5.367098,"is_reserved":false,"is_disabled":false,"rental_uris":{"android":"levelo://app?vid=8ab5485b-df01-4ad3-be0b-06bf76c507ea","ios":"levelo://app?vid=8ab5485b-df01-4ad3-be0b-06bf76c507ea"},"vehicle_type_id":"4","last_reported":1683270365,"current_range_meters":24800,"station_id":"ce4bgr92rcd13ifvqc6g","pricing_plan_id":"free"},{"bike_id":"6c22cc95-b1fc-42f6-8ff6-4ab56cd152dc","system_id":"levelo_inurba_marseille","lat":43.31341,"lon":5.367098,"is_reserved":false,"is_disabled":false,"rental_uris":{"android":"levelo://app?vid=6c22cc95-b1fc-42f6-8ff6-4ab56cd152dc","ios":"levelo://app?vid=6c22cc95-b1fc-42f6-8ff6-4ab56cd152dc"},"vehicle_type_id":"4","last_reported":1683270365,"current_range_meters":28800,"station_id":"ce4bgr92rcd13ifvqc6g","pricing_plan_id":"free"},{"bike_id":"586146ef-66c4-4dbf-94d0-49dd4119fe7a","system_id":"levelo_inurba_marseille","lat":43.31351,"lon":5.36699,"is_reserved":false,"is_disabled":false,"rental_uris":{"android":"levelo://app?vid=586146ef-66c4-4dbf-94d0-49dd4119fe7a","ios":"levelo://app?vid=586146ef-66c4-4dbf-94d0-49dd4119fe7a"},"vehicle_type_id":"4","last_reported":1683270365,"current_range_meters":26800,"station_id":"ce4bgr92rcd13ifvqc6g","pricing_plan_id":"free"},{"bike_id":"5e07e6be-865e-4dce-afa0-5084fc61d8f2","system_id":"levelo_inurba_marseille","lat":43.313391,"lon":5.36706,"is_reserved":false,"is_disabled":false,"rental_uris":{"android":"levelo://app?vid=5e07e6be-865e-4dce-afa0-5084fc61d8f2","ios":"levelo://app?vid=5e07e6be-865e-4dce-afa0-5084fc61d8f2"},"vehicle_type_id":"4","last_reported":1683270365,"current_range_meters":26400,"station_id":"ce4bgr92rcd13ifvqc6g","pricing_plan_id":"free"},{"bike_id":"71345557-53ef-4ed6-892a-4ce9e6656adc","system_id":"levelo_inurba_marseille","lat":43.313391,"lon":5.36706,"is_reserved":false,"is_disabled":false,"rental_uris":{"android":"levelo://app?vid=71345557-53ef-4ed6-892a-4ce9e6656adc","ios":"levelo://app?vid=71345557-53ef-4ed6-892a-4ce9e6656adc"},"vehicle_type_id":"4","last_reported":1683270365,"current_range_meters":21600,"station_id":"ce4bgr92rcd13ifvqc6g","pricing_plan_id":"free"},{"bike_id":"de8b3446-9330-4867-af03-b672752b5d0f","system_id":"levelo_inurba_marseille","lat":43.312239,"lon":5.368562,"is_reserved":false,"is_disabled":false,"rental_uris":{"android":"levelo://app?vid=de8b3446-9330-4867-af03-b672752b5d0f","ios":"levelo://app?vid=de8b3446-9330-4867-af03-b672752b5d0f"},"vehicle_type_id":"4","last_reported":1683270365,"current_range_meters":25600,"station_id":"ce4bgl92rcd13ifvqbq0","pricing_plan_id":"free"},{"bike_id":"c53fadd2-5a16-43e0-a16f-a88a8e2cde5c","system_id":"levelo_inurba_marseille","lat":43.312239,"lon":5.368562,"is_reserved":false,"is_disabled":false,"rental_uris":{"android":"levelo://app?vid=c53fadd2-5a16-43e0-a16f-a88a8e2cde5c","ios":"levelo://app?vid=c53fadd2-5a16-43e0-a16f-a88a8e2cde5c"},"vehicle_type_id":"4","last_reported":1683270365,"current_range_meters":12800,"station_id":"ce4bgl92rcd13ifvqbq0","pricing_plan_id":"free"},{"bike_id":"a160f317-770d-4580-bf7b-2dc273bc078c","system_id":"levelo_inurba_marseille","lat":43.31227,"lon":5.36855,"is_reserved":false,"is_disabled":false,"rental_uris":{"android":"levelo://app?vid=a160f317-770d-4580-bf7b-2dc273bc078c","ios":"levelo://app?vid=a160f317-770d-4580-bf7b-2dc273bc078c"},"vehicle_type_id":"4","last_reported":1683270365,"current_range_meters":27600,"station_id":"","pricing_plan_id":"free"},{"bike_id":"20fba199-557a-40c3-9c07-784216d5a28b","system_id":"levelo_inurba_marseille","lat":43.312239,"lon":5.368562,"is_reserved":false,"is_disabled":false,"rental_uris":{"android":"levelo://app?vid=20fba199-557a-40c3-9c07-784216d5a28b","ios":"levelo://app?vid=20fba199-557a-40c3-9c07-784216d5a28b"},"vehicle_type_id":"4","last_reported":1683270365,"current_range_meters":28400,"station_id":"ce4bgl92rcd13ifvqbq0","pricing_plan_id":"free"},{"bike_id":"56729b3f-4b23-476e-a2cc-a225201ad6db","system_id":"levelo_inurba_marseille","lat":43.31247,"lon":5.36865,"is_reserved":false,"is_disabled":false,"rental_uris":{"android":"levelo://app?vid=56729b3f-4b23-476e-a2cc-a225201ad6db","ios":"levelo://app?vid=56729b3f-4b23-476e-a2cc-a225201ad6db"},"vehicle_type_id":"4","last_reported":1683270365,"current_range_meters":26000,"station_id":"ce4bgl92rcd13ifvqbq0","pricing_plan_id":"free"},{"bike_id":"0656e5bc-2295-4e10-977e-9a64b004cbfc","system_id":"levelo_inurba_marseille","lat":43.312239,"lon":5.368562,"is_reserved":false,"is_disabled":false,"rental_uris":{"android":"levelo://app?vid=0656e5bc-2295-4e10-977e-9a64b004cbfc","ios":"levelo://app?vid=0656e5bc-2295-4e10-977e-9a64b004cbfc"},"vehicle_type_id":"4","last_reported":1683270365,"current_range_meters":26000,"station_id":"ce4bgl92rcd13ifvqbq0","pricing_plan_id":"free"},{"bike_id":"27977139-9f4f-439e-8afa-0b011511ff12","system_id":"levelo_inurba_marseille","lat":43.312239,"lon":5.368562,"is_reserved":false,"is_disabled":false,"rental_uris":{"android":"levelo://app?vid=27977139-9f4f-439e-8afa-0b011511ff12","ios":"levelo://app?vid=27977139-9f4f-439e-8afa-0b011511ff12"},"vehicle_type_id":"4","last_reported":1683270365,"current_range_meters":8800,"station_id":"ce4bgl92rcd13ifvqbq0","pricing_plan_id":"free"},{"bike_id":"a26c8d40-26bf-4c6a-9c27-0fd7db5c0b77","system_id":"levelo_inurba_marseille","lat":43.312239,"lon":5.368562,"is_reserved":false,"is_disabled":false,"rental_uris":{"android":"levelo://app?vid=a26c8d40-26bf-4c6a-9c27-0fd7db5c0b77","ios":"levelo://app?vid=a26c8d40-26bf-4c6a-9c27-0fd7db5c0b77"},"vehicle_type_id":"4","last_reported":1683270365,"current_range_meters":4000,"station_id":"ce4bgl92rcd13ifvqbq0","pricing_plan_id":"free"},{"bike_id":"7fbc64fa-d0d8-4922-a1e3-a1b13fe0c061","system_id":"levelo_inurba_marseille","lat":43.312239,"lon":5.368562,"is_reserved":false,"is_disabled":false,"rental_uris":{"android":"levelo://app?vid=7fbc64fa-d0d8-4922-a1e3-a1b13fe0c061","ios":"levelo://app?vid=7fbc64fa-d0d8-4922-a1e3-a1b13fe0c061"},"vehicle_type_id":"4","last_reported":1683270365,"current_range_meters":30400,"station_id":"ce4bgl92rcd13ifvqbq0","pricing_plan_id":"free"},{"bike_id":"13e30cb4-0ea5-42b6-8593-3e92e7b2a261","system_id":"levelo_inurba_marseille","lat":43.312239,"lon":5.368562,"is_reserved":false,"is_disabled":false,"rental_uris":{"android":"levelo://app?vid=13e30cb4-0ea5-42b6-8593-3e92e7b2a261","ios":"levelo://app?vid=13e30cb4-0ea5-42b6-8593-3e92e7b2a261"},"vehicle_type_id":"4","last_reported":1683270365,"current_range_meters":17600,"station_id":"ce4bgl92rcd13ifvqbq0","pricing_plan_id":"free"},{"bike_id":"74f20e95-66ea-41d7-ac7d-7a182f899657","system_id":"levelo_inurba_marseille","lat":43.312239,"lon":5.368562,"is_reserved":false,"is_disabled":false,"rental_uris":{"android":"levelo://app?vid=74f20e95-66ea-41d7-ac7d-7a182f899657","ios":"levelo://app?vid=74f20e95-66ea-41d7-ac7d-7a182f899657"},"vehicle_type_id":"4","last_reported":1683270365,"current_range_meters":26000,"station_id":"ce4bgl92rcd13ifvqbq0","pricing_plan_id":"free"},{"bike_id":"7bdd7eef-bb8a-4a83-9159-1db8c786abde","system_id":"levelo_inurba_marseille","lat":43.312239,"lon":5.368562,"is_reserved":false,"is_disabled":false,"rental_uris":{"android":"levelo://app?vid=7bdd7eef-bb8a-4a83-9159-1db8c786abde","ios":"levelo://app?vid=7bdd7eef-bb8a-4a83-9159-1db8c786abde"},"vehicle_type_id":"4","last_reported":1683270365,"current_range_meters":24400,"station_id":"ce4bgl92rcd13ifvqbq0","pricing_plan_id":"free"},{"bike_id":"379baad9-ee8e-4006-a09d-1055e86dcf80","system_id":"levelo_inurba_marseille","lat":43.309076,"lon":5.368465,"is_reserved":false,"is_disabled":false,"rental_uris":{"android":"levelo://app?vid=379baad9-ee8e-4006-a09d-1055e86dcf80","ios":"levelo://app?vid=379baad9-ee8e-4006-a09d-1055e86dcf80"},"vehicle_type_id":"4","last_reported":1683270365,"current_range_meters":29200,"station_id":"ce4bgn92rcd13ifvqbvg","pricing_plan_id":"free"},{"bike_id":"60be6959-de11-431d-8609-a2585e2cfe5c","system_id":"levelo_inurba_marseille","lat":43.309076,"lon":5.368465,"is_reserved":false,"is_disabled":false,"rental_uris":{"android":"levelo://app?vid=60be6959-de11-431d-8609-a2585e2cfe5c","ios":"levelo://app?vid=60be6959-de11-431d-8609-a2585e2cfe5c"},"vehicle_type_id":"4","last_reported":1683270365,"current_range_meters":22400,"station_id":"ce4bgn92rcd13ifvqbvg","pricing_plan_id":"free"},{"bike_id":"822ea703-1058-4b60-bf9e-42dbf9e4f941","system_id":"levelo_inurba_marseille","lat":43.309076,"lon":5.368465,"is_reserved":false,"is_disabled":false,"rental_uris":{"android":"levelo://app?vid=822ea703-1058-4b60-bf9e-42dbf9e4f941","ios":"levelo://app?vid=822ea703-1058-4b60-bf9e-42dbf9e4f941"},"vehicle_type_id":"4","last_reported":1683270365,"current_range_meters":31200,"station_id":"ce4bgn92rcd13ifvqbvg","pricing_plan_id":"free"},{"bike_id":"bb857ec2-b654-4b96-adb3-4b0feacf279e","system_id":"levelo_inurba_marseille","lat":43.309076,"lon":5.368465,"is_reserved":false,"is_disabled":false,"rental_uris":{"android":"levelo://app?vid=bb857ec2-b654-4b96-adb3-4b0feacf279e","ios":"levelo://app?vid=bb857ec2-b654-4b96-adb3-4b0feacf279e"},"vehicle_type_id":"4","last_reported":1683270365,"current_range_meters":25200,"station_id":"ce4bgn92rcd13ifvqbvg","pricing_plan_id":"free"},{"bike_id":"574de744-c612-4750-b83c-04b157c94323","system_id":"levelo_inurba_marseille","lat":43.309076,"lon":5.368465,"is_reserved":false,"is_disabled":false,"rental_uris":{"android":"levelo://app?vid=574de744-c612-4750-b83c-04b157c94323","ios":"levelo://app?vid=574de744-c612-4750-b83c-04b157c94323"},"vehicle_type_id":"4","last_reported":1683270365,"current_range_meters":2000,"station_id":"ce4bgn92rcd13ifvqbvg","pricing_plan_id":"free"},{"bike_id":"4a4ffd59-f6d4-408b-ab73-a75c386d8fa7","system_id":"levelo_inurba_marseille","lat":43.309076,"lon":5.368465,"is_reserved":false,"is_disabled":false,"rental_uris":{"android":"levelo://app?vid=4a4ffd59-f6d4-408b-ab73-a75c386d8fa7","ios":"levelo://app?vid=4a4ffd59-f6d4-408b-ab73-a75c386d8fa7"},"vehicle_type_id":"4","last_reported":1683270365,"current_range_meters":26400,"station_id":"ce4bgn92rcd13ifvqbvg","pricing_plan_id":"free"},{"bike_id":"6e0c5501-7cc8-426b-aba2-ddbd2256de61","system_id":"levelo_inurba_marseille","lat":43.309076,"lon":5.368465,"is_reserved":false,"is_disabled":false,"rental_uris":{"android":"levelo://app?vid=6e0c5501-7cc8-426b-aba2-ddbd2256de61","ios":"levelo://app?vid=6e0c5501-7cc8-426b-aba2-ddbd2256de61"},"vehicle_type_id":"4","last_reported":1683270365,"current_range_meters":21600,"station_id":"ce4bgn92rcd13ifvqbvg","pricing_plan_id":"free"},{"bike_id":"9d99333c-1f0b-49b6-9048-d0b1123639a2","system_id":"levelo_inurba_marseille","lat":43.309076,"lon":5.368465,"is_reserved":false,"is_disabled":false,"rental_uris":{"android":"levelo://app?vid=9d99333c-1f0b-49b6-9048-d0b1123639a2","ios":"levelo://app?vid=9d99333c-1f0b-49b6-9048-d0b1123639a2"},"vehicle_type_id":"4","last_reported":1683270365,"current_range_meters":23600,"station_id":"ce4bgn92rcd13ifvqbvg","pricing_plan_id":"free"},{"bike_id":"2e0f24e9-ba2f-42d0-952d-da8615277f2e","system_id":"levelo_inurba_marseille","lat":43.31489,"lon":5.37299,"is_reserved":false,"is_disabled":false,"rental_uris":{"android":"levelo://app?vid=2e0f24e9-ba2f-42d0-952d-da8615277f2e","ios":"levelo://app?vid=2e0f24e9-ba2f-42d0-952d-da8615277f2e"},"vehicle_type_id":"4","last_reported":1683270365,"current_range_meters":31200,"station_id":"ce4bgt12rcd13ifvqcd0","pricing_plan_id":"free"},{"bike_id":"6acdd6c9-d2de-4e7e-b9b3-804048810124","system_id":"levelo_inurba_marseille","lat":43.31476,"lon":5.37311,"is_reserved":false,"is_disabled":false,"rental_uris":{"android":"levelo://app?vid=6acdd6c9-d2de-4e7e-b9b3-804048810124","ios":"levelo://app?vid=6acdd6c9-d2de-4e7e-b9b3-804048810124"},"vehicle_type_id":"4","last_reported":1683270365,"current_range_meters":18000,"station_id":"ce4bgt12rcd13ifvqcd0","pricing_plan_id":"free"},{"bike_id":"0de2c629-7d77-4661-b506-10b9de01ffcc","system_id":"levelo_inurba_marseille","lat":43.31485,"lon":5.37312,"is_reserved":false,"is_disabled":false,"rental_uris":{"android":"levelo://app?vid=0de2c629-7d77-4661-b506-10b9de01ffcc","ios":"levelo://app?vid=0de2c629-7d77-4661-b506-10b9de01ffcc"},"vehicle_type_id":"4","last_reported":1683270365,"current_range_meters":31200,"station_id":"ce4bgt12rcd13ifvqcd0","pricing_plan_id":"free"},{"bike_id":"df97d7e0-a846-43a1-9e41-e47eb58ec7bf","system_id":"levelo_inurba_marseille","lat":43.31494,"lon":5.37308,"is_reserved":false,"is_disabled":false,"rental_uris":{"android":"levelo://app?vid=df97d7e0-a846-43a1-9e41-e47eb58ec7bf","ios":"levelo://app?vid=df97d7e0-a846-43a1-9e41-e47eb58ec7bf"},"vehicle_type_id":"4","last_reported":1683270365,"current_range_meters":7200,"station_id":"","pricing_plan_id":"free"},{"bike_id":"3b205ea0-d128-49f0-b2b2-e4e9baa2835b","system_id":"levelo_inurba_marseille","lat":43.31431,"lon":5.37589,"is_reserved":false,"is_disabled":false,"rental_uris":{"android":"levelo://app?vid=3b205ea0-d128-49f0-b2b2-e4e9baa2835b","ios":"levelo://app?vid=3b205ea0-d128-49f0-b2b2-e4e9baa2835b"},"vehicle_type_id":"4","last_reported":1683270365,"current_range_meters":16800,"station_id":"","pricing_plan_id":"free"},{"bike_id":"caea2489-5a5d-4f00-8e78-8c319f8ed68e","system_id":"levelo_inurba_marseille","lat":43.3057,"lon":5.36553,"is_reserved":false,"is_disabled":false,"rental_uris":{"android":"levelo://app?vid=caea2489-5a5d-4f00-8e78-8c319f8ed68e","ios":"levelo://app?vid=caea2489-5a5d-4f00-8e78-8c319f8ed68e"},"vehicle_type_id":"4","last_reported":1683270365,"current_range_meters":13600,"station_id":"","pricing_plan_id":"free"},{"bike_id":"c66c5d6c-4944-4e7e-ac16-4f1091b3287a","system_id":"levelo_inurba_marseille","lat":43.305368,"lon":5.367343,"is_reserved":false,"is_disabled":false,"rental_uris":{"android":"levelo://app?vid=c66c5d6c-4944-4e7e-ac16-4f1091b3287a","ios":"levelo://app?vid=c66c5d6c-4944-4e7e-ac16-4f1091b3287a"},"vehicle_type_id":"4","last_reported":1683270365,"current_range_meters":26000,"station_id":"ce4bgrp2rcd13ifvqc9g","pricing_plan_id":"free"},{"bike_id":"86e7b173-4af9-4f09-83e2-d5e60eec2070","system_id":"levelo_inurba_marseille","lat":43.305368,"lon":5.367343,"is_reserved":false,"is_disabled":false,"rental_uris":{"android":"levelo://app?vid=86e7b173-4af9-4f09-83e2-d5e60eec2070","ios":"levelo://app?vid=86e7b173-4af9-4f09-83e2-d5e60eec2070"},"vehicle_type_id":"4","last_reported":1683270365,"current_range_meters":18400,"station_id":"ce4bgrp2rcd13ifvqc9g","pricing_plan_id":"free"},{"bike_id":"797ee6c1-a24d-470d-9980-7dd9932a6702","system_id":"levelo_inurba_marseille","lat":43.305714,"lon":5.365633,"is_reserved":false,"is_disabled":false,"rental_uris":{"android":"levelo://app?vid=797ee6c1-a24d-470d-9980-7dd9932a6702","ios":"levelo://app?vid=797ee6c1-a24d-470d-9980-7dd9932a6702"},"vehicle_type_id":"4","last_reported":1683270365,"current_range_meters":4800,"station_id":"ce4bgs12rcd13ifvqcag","pricing_plan_id":"free"},{"bike_id":"fcbb3e3b-a992-419c-81ad-9c57b23bfcf3","system_id":"levelo_inurba_marseille","lat":43.305714,"lon":5.365633,"is_reserved":false,"is_disabled":false,"rental_uris":{"android":"levelo://app?vid=fcbb3e3b-a992-419c-81ad-9c57b23bfcf3","ios":"levelo://app?vid=fcbb3e3b-a992-419c-81ad-9c57b23bfcf3"},"vehicle_type_id":"4","last_reported":1683270365,"current_range_meters":29200,"station_id":"ce4bgs12rcd13ifvqcag","pricing_plan_id":"free"},{"bike_id":"9d0c80e4-1b6e-409e-bd9b-754be55347e3","system_id":"levelo_inurba_marseille","lat":43.305368,"lon":5.367343,"is_reserved":false,"is_disabled":false,"rental_uris":{"android":"levelo://app?vid=9d0c80e4-1b6e-409e-bd9b-754be55347e3","ios":"levelo://app?vid=9d0c80e4-1b6e-409e-bd9b-754be55347e3"},"vehicle_type_id":"4","last_reported":1683270365,"current_range_meters":16000,"station_id":"ce4bgrp2rcd13ifvqc9g","pricing_plan_id":"free"},{"bike_id":"e67cb26f-bb48-4302-8b41-138bf2ab64c2","system_id":"levelo_inurba_marseille","lat":43.305368,"lon":5.367343,"is_reserved":false,"is_disabled":false,"rental_uris":{"android":"levelo://app?vid=e67cb26f-bb48-4302-8b41-138bf2ab64c2","ios":"levelo://app?vid=e67cb26f-bb48-4302-8b41-138bf2ab64c2"},"vehicle_type_id":"4","last_reported":1683270365,"current_range_meters":26000,"station_id":"ce4bgrp2rcd13ifvqc9g","pricing_plan_id":"free"},{"bike_id":"c7f0d2d2-23de-4761-b5ca-ffe461fef0de","system_id":"levelo_inurba_marseille","lat":43.305706,"lon":5.365654,"is_reserved":false,"is_disabled":false,"rental_uris":{"android":"levelo://app?vid=c7f0d2d2-23de-4761-b5ca-ffe461fef0de","ios":"levelo://app?vid=c7f0d2d2-23de-4761-b5ca-ffe461fef0de"},"vehicle_type_id":"4","last_reported":1683270365,"current_range_meters":21200,"station_id":"ce4bgs12rcd13ifvqcag","pricing_plan_id":"free"},{"bike_id":"a283ee15-5292-475b-b0b2-342eba0d6ba0","system_id":"levelo_inurba_marseille","lat":43.305706,"lon":5.365654,"is_reserved":false,"is_disabled":false,"rental_uris":{"android":"levelo://app?vid=a283ee15-5292-475b-b0b2-342eba0d6ba0","ios":"levelo://app?vid=a283ee15-5292-475b-b0b2-342eba0d6ba0"},"vehicle_type_id":"4","last_reported":1683270365,"current_range_meters":12000,"station_id":"ce4bgs12rcd13ifvqcag","pricing_plan_id":"free"},{"bike_id":"a2c64b17-0e40-4ee3-9644-f377128cc660","system_id":"levelo_inurba_marseille","lat":43.305368,"lon":5.367343,"is_reserved":false,"is_disabled":false,"rental_uris":{"android":"levelo://app?vid=a2c64b17-0e40-4ee3-9644-f377128cc660","ios":"levelo://app?vid=a2c64b17-0e40-4ee3-9644-f377128cc660"},"vehicle_type_id":"4","last_reported":1683270365,"current_range_meters":23600,"station_id":"ce4bgrp2rcd13ifvqc9g","pricing_plan_id":"free"},{"bike_id":"315f3b6a-e008-432e-8817-a75d48abbc06","system_id":"levelo_inurba_marseille","lat":43.305368,"lon":5.367343,"is_reserved":false,"is_disabled":false,"rental_uris":{"android":"levelo://app?vid=315f3b6a-e008-432e-8817-a75d48abbc06","ios":"levelo://app?vid=315f3b6a-e008-432e-8817-a75d48abbc06"},"vehicle_type_id":"4","last_reported":1683270365,"current_range_meters":20800,"station_id":"ce4bgrp2rcd13ifvqc9g","pricing_plan_id":"free"},{"bike_id":"b5aa6018-c8a1-4af2-afe0-6dc3a6729db6","system_id":"levelo_inurba_marseille","lat":43.305368,"lon":5.367343,"is_reserved":false,"is_disabled":false,"rental_uris":{"android":"levelo://app?vid=b5aa6018-c8a1-4af2-afe0-6dc3a6729db6","ios":"levelo://app?vid=b5aa6018-c8a1-4af2-afe0-6dc3a6729db6"},"vehicle_type_id":"4","last_reported":1683270365,"current_range_meters":21200,"station_id":"ce4bgrp2rcd13ifvqc9g","pricing_plan_id":"free"},{"bike_id":"dfb409b7-d78c-4fe4-829b-24e8211b3c96","system_id":"levelo_inurba_marseille","lat":43.305368,"lon":5.367343,"is_reserved":false,"is_disabled":false,"rental_uris":{"android":"levelo://app?vid=dfb409b7-d78c-4fe4-829b-24e8211b3c96","ios":"levelo://app?vid=dfb409b7-d78c-4fe4-829b-24e8211b3c96"},"vehicle_type_id":"4","last_reported":1683270365,"current_range_meters":0,"station_id":"ce4bgrp2rcd13ifvqc9g","pricing_plan_id":"free"},{"bike_id":"3aa7c32f-a7fe-41ca-839d-a2daf3172e3c","system_id":"levelo_inurba_marseille","lat":43.311125,"lon":5.377624,"is_reserved":false,"is_disabled":false,"rental_uris":{"android":"levelo://app?vid=3aa7c32f-a7fe-41ca-839d-a2daf3172e3c","ios":"levelo://app?vid=3aa7c32f-a7fe-41ca-839d-a2daf3172e3c"},"vehicle_type_id":"4","last_reported":1683270365,"current_range_meters":16400,"station_id":"ce4bgt92rcd13ifvqcg0","pricing_plan_id":"free"},{"bike_id":"80bfabd3-c48b-4af6-9a68-8b837b5259a1","system_id":"levelo_inurba_marseille","lat":43.317075,"lon":5.377367,"is_reserved":false,"is_disabled":false,"rental_uris":{"android":"levelo://app?vid=80bfabd3-c48b-4af6-9a68-8b837b5259a1","ios":"levelo://app?vid=80bfabd3-c48b-4af6-9a68-8b837b5259a1"},"vehicle_type_id":"4","last_reported":1683270365,"current_range_meters":20400,"station_id":"ce4bgth2rcd13ifvqch0","pricing_plan_id":"free"},{"bike_id":"ad748744-ec20-4409-9aa1-64ca5193a76a","system_id":"levelo_inurba_marseille","lat":43.302885,"lon":5.368607,"is_reserved":false,"is_disabled":false,"rental_uris":{"android":"levelo://app?vid=ad748744-ec20-4409-9aa1-64ca5193a76a","ios":"levelo://app?vid=ad748744-ec20-4409-9aa1-64ca5193a76a"},"vehicle_type_id":"4","last_reported":1683270365,"current_range_meters":16800,"station_id":"ce4rr2p2rcd13i802rgg","pricing_plan_id":"free"},{"bike_id":"bfba0b12-25ba-4be5-b1cf-7de7574537b8","system_id":"levelo_inurba_marseille","lat":43.315289,"lon":5.380349,"is_reserved":false,"is_disabled":false,"rental_uris":{"android":"levelo://app?vid=bfba0b12-25ba-4be5-b1cf-7de7574537b8","ios":"levelo://app?vid=bfba0b12-25ba-4be5-b1cf-7de7574537b8"},"vehicle_type_id":"4","last_reported":1683270365,"current_range_meters":26400,"station_id":"ce4bhsp2rcd13ifvqi50","pricing_plan_id":"free"},{"bike_id":"9c1183b1-4df4-4852-ba16-0c778817f32a","system_id":"levelo_inurba_marseille","lat":43.315289,"lon":5.380349,"is_reserved":false,"is_disabled":false,"rental_uris":{"android":"levelo://app?vid=9c1183b1-4df4-4852-ba16-0c778817f32a","ios":"levelo://app?vid=9c1183b1-4df4-4852-ba16-0c778817f32a"},"vehicle_type_id":"4","last_reported":1683270365,"current_range_meters":31200,"station_id":"ce4bhsp2rcd13ifvqi50","pricing_plan_id":"free"},{"bike_id":"826ea5a1-1a49-4d42-9fd0-650a24a6ac5c","system_id":"levelo_inurba_marseille","lat":43.315293,"lon":5.380349,"is_reserved":false,"is_disabled":false,"rental_uris":{"android":"levelo://app?vid=826ea5a1-1a49-4d42-9fd0-650a24a6ac5c","ios":"levelo://app?vid=826ea5a1-1a49-4d42-9fd0-650a24a6ac5c"},"vehicle_type_id":"4","last_reported":1683270365,"current_range_meters":28000,"station_id":"ce4bhsp2rcd13ifvqi50","pricing_plan_id":"free"},{"bike_id":"0d70ea5d-a095-4499-9fd1-cec0c749b67e","system_id":"levelo_inurba_marseille","lat":43.315289,"lon":5.380349,"is_reserved":false,"is_disabled":false,"rental_uris":{"android":"levelo://app?vid=0d70ea5d-a095-4499-9fd1-cec0c749b67e","ios":"levelo://app?vid=0d70ea5d-a095-4499-9fd1-cec0c749b67e"},"vehicle_type_id":"4","last_reported":1683270365,"current_range_meters":26400,"station_id":"ce4bhsp2rcd13ifvqi50","pricing_plan_id":"free"},{"bike_id":"b2e1ac5b-dd33-4540-9d8d-088919061eb0","system_id":"levelo_inurba_marseille","lat":43.315293,"lon":5.380349,"is_reserved":false,"is_disabled":false,"rental_uris":{"android":"levelo://app?vid=b2e1ac5b-dd33-4540-9d8d-088919061eb0","ios":"levelo://app?vid=b2e1ac5b-dd33-4540-9d8d-088919061eb0"},"vehicle_type_id":"4","last_reported":1683270365,"current_range_meters":31200,"station_id":"ce4bhsp2rcd13ifvqi50","pricing_plan_id":"free"},{"bike_id":"2851f151-1bfd-44ab-8de4-2fe9497890b9","system_id":"levelo_inurba_marseille","lat":43.31614,"lon":5.38015,"is_reserved":false,"is_disabled":false,"rental_uris":{"android":"levelo://app?vid=2851f151-1bfd-44ab-8de4-2fe9497890b9","ios":"levelo://app?vid=2851f151-1bfd-44ab-8de4-2fe9497890b9"},"vehicle_type_id":"4","last_reported":1683270365,"current_range_meters":0,"station_id":"","pricing_plan_id":"free"},{"bike_id":"2ab327b3-d09c-416b-9c63-4c9e33430098","system_id":"levelo_inurba_marseille","lat":43.301939,"lon":5.366286,"is_reserved":false,"is_disabled":false,"rental_uris":{"android":"levelo://app?vid=2ab327b3-d09c-416b-9c63-4c9e33430098","ios":"levelo://app?vid=2ab327b3-d09c-416b-9c63-4c9e33430098"},"vehicle_type_id":"4","last_reported":1683270365,"current_range_meters":4400,"station_id":"ce4bgrh2rcd13ifvqc8g","pricing_plan_id":"free"},{"bike_id":"b2db1c4b-e383-46af-87d7-6a520052fc81","system_id":"levelo_inurba_marseille","lat":43.301939,"lon":5.366286,"is_reserved":false,"is_disabled":false,"rental_uris":{"android":"levelo://app?vid=b2db1c4b-e383-46af-87d7-6a520052fc81","ios":"levelo://app?vid=b2db1c4b-e383-46af-87d7-6a520052fc81"},"vehicle_type_id":"4","last_reported":1683270365,"current_range_meters":22000,"station_id":"ce4bgrh2rcd13ifvqc8g","pricing_plan_id":"free"},{"bike_id":"a700a390-db65-424b-92ca-e02a42cc6c9c","system_id":"levelo_inurba_marseille","lat":43.301939,"lon":5.366286,"is_reserved":false,"is_disabled":false,"rental_uris":{"android":"levelo://app?vid=a700a390-db65-424b-92ca-e02a42cc6c9c","ios":"levelo://app?vid=a700a390-db65-424b-92ca-e02a42cc6c9c"},"vehicle_type_id":"4","last_reported":1683270365,"current_range_meters":16800,"station_id":"ce4bgrh2rcd13ifvqc8g","pricing_plan_id":"free"},{"bike_id":"d51e59c3-4927-4c7e-ae78-710b39860f21","system_id":"levelo_inurba_marseille","lat":43.301939,"lon":5.366286,"is_reserved":false,"is_disabled":false,"rental_uris":{"android":"levelo://app?vid=d51e59c3-4927-4c7e-ae78-710b39860f21","ios":"levelo://app?vid=d51e59c3-4927-4c7e-ae78-710b39860f21"},"vehicle_type_id":"4","last_reported":1683270365,"current_range_meters":7200,"station_id":"ce4bgrh2rcd13ifvqc8g","pricing_plan_id":"free"},{"bike_id":"d685e19d-5ac2-4e31-86fa-04e3034c5d47","system_id":"levelo_inurba_marseille","lat":43.301939,"lon":5.366286,"is_reserved":false,"is_disabled":false,"rental_uris":{"android":"levelo://app?vid=d685e19d-5ac2-4e31-86fa-04e3034c5d47","ios":"levelo://app?vid=d685e19d-5ac2-4e31-86fa-04e3034c5d47"},"vehicle_type_id":"4","last_reported":1683270365,"current_range_meters":29600,"station_id":"ce4bgrh2rcd13ifvqc8g","pricing_plan_id":"free"},{"bike_id":"9146cacd-33ce-4f0b-a3c9-aefe5bc9dc6d","system_id":"levelo_inurba_marseille","lat":43.31912,"lon":5.37933,"is_reserved":false,"is_disabled":false,"rental_uris":{"android":"levelo://app?vid=9146cacd-33ce-4f0b-a3c9-aefe5bc9dc6d","ios":"levelo://app?vid=9146cacd-33ce-4f0b-a3c9-aefe5bc9dc6d"},"vehicle_type_id":"4","last_reported":1683270365,"current_range_meters":0,"station_id":"","pricing_plan_id":"free"},{"bike_id":"29913f1f-381b-4f69-b437-e340ceb56074","system_id":"levelo_inurba_marseille","lat":43.31589,"lon":5.38158,"is_reserved":false,"is_disabled":false,"rental_uris":{"android":"levelo://app?vid=29913f1f-381b-4f69-b437-e340ceb56074","ios":"levelo://app?vid=29913f1f-381b-4f69-b437-e340ceb56074"},"vehicle_type_id":"4","last_reported":1683270365,"current_range_meters":26000,"station_id":"","pricing_plan_id":"free"},{"bike_id":"8f300dc8-d37f-4599-b5ee-69e4d538afa4","system_id":"levelo_inurba_marseille","lat":43.30811,"lon":5.38148,"is_reserved":false,"is_disabled":false,"rental_uris":{"android":"levelo://app?vid=8f300dc8-d37f-4599-b5ee-69e4d538afa4","ios":"levelo://app?vid=8f300dc8-d37f-4599-b5ee-69e4d538afa4"},"vehicle_type_id":"4","last_reported":1683270365,"current_range_meters":21600,"station_id":"ce4bgt12rcd13ifvqce0","pricing_plan_id":"free"},{"bike_id":"953c2739-52a5-468f-ae83-f5950405993d","system_id":"levelo_inurba_marseille","lat":43.304606,"lon":5.379026,"is_reserved":false,"is_disabled":false,"rental_uris":{"android":"levelo://app?vid=953c2739-52a5-468f-ae83-f5950405993d","ios":"levelo://app?vid=953c2739-52a5-468f-ae83-f5950405993d"},"vehicle_type_id":"4","last_reported":1683270365,"current_range_meters":31600,"station_id":"ce4bgup2rcd13ifvqcn0","pricing_plan_id":"free"},{"bike_id":"c08d536f-da07-4133-b2c5-24d12ad04465","system_id":"levelo_inurba_marseille","lat":43.304606,"lon":5.379026,"is_reserved":false,"is_disabled":false,"rental_uris":{"android":"levelo://app?vid=c08d536f-da07-4133-b2c5-24d12ad04465","ios":"levelo://app?vid=c08d536f-da07-4133-b2c5-24d12ad04465"},"vehicle_type_id":"4","last_reported":1683270365,"current_range_meters":14400,"station_id":"ce4bgup2rcd13ifvqcn0","pricing_plan_id":"free"},{"bike_id":"f923475d-cf84-4563-a215-c043dca25f37","system_id":"levelo_inurba_marseille","lat":43.304606,"lon":5.379026,"is_reserved":false,"is_disabled":false,"rental_uris":{"android":"levelo://app?vid=f923475d-cf84-4563-a215-c043dca25f37","ios":"levelo://app?vid=f923475d-cf84-4563-a215-c043dca25f37"},"vehicle_type_id":"4","last_reported":1683270365,"current_range_meters":31200,"station_id":"ce4bgup2rcd13ifvqcn0","pricing_plan_id":"free"},{"bike_id":"18d08b49-c948-47c4-aa57-0181f30ab46f","system_id":"levelo_inurba_marseille","lat":43.309589,"lon":5.390258,"is_reserved":false,"is_disabled":false,"rental_uris":{"android":"levelo://app?vid=18d08b49-c948-47c4-aa57-0181f30ab46f","ios":"levelo://app?vid=18d08b49-c948-47c4-aa57-0181f30ab46f"},"vehicle_type_id":"4","last_reported":1683270365,"current_range_meters":28400,"station_id":"ce4bgup2rcd13ifvqco0","pricing_plan_id":"free"},{"bike_id":"9e5459b5-48f2-44d6-a4c4-83f1b744b6a7","system_id":"levelo_inurba_marseille","lat":43.304606,"lon":5.379026,"is_reserved":false,"is_disabled":false,"rental_uris":{"android":"levelo://app?vid=9e5459b5-48f2-44d6-a4c4-83f1b744b6a7","ios":"levelo://app?vid=9e5459b5-48f2-44d6-a4c4-83f1b744b6a7"},"vehicle_type_id":"4","last_reported":1683270365,"current_range_meters":31200,"station_id":"ce4bgup2rcd13ifvqcn0","pricing_plan_id":"free"},{"bike_id":"c1221421-60c1-4067-9f7e-24bf87b3ae09","system_id":"levelo_inurba_marseille","lat":43.304606,"lon":5.379026,"is_reserved":false,"is_disabled":false,"rental_uris":{"android":"levelo://app?vid=c1221421-60c1-4067-9f7e-24bf87b3ae09","ios":"levelo://app?vid=c1221421-60c1-4067-9f7e-24bf87b3ae09"},"vehicle_type_id":"4","last_reported":1683270365,"current_range_meters":22800,"station_id":"ce4bgup2rcd13ifvqcn0","pricing_plan_id":"free"},{"bike_id":"debcef0a-ebb5-417b-a892-947cc9d1be98","system_id":"levelo_inurba_marseille","lat":43.304606,"lon":5.379026,"is_reserved":false,"is_disabled":false,"rental_uris":{"android":"levelo://app?vid=debcef0a-ebb5-417b-a892-947cc9d1be98","ios":"levelo://app?vid=debcef0a-ebb5-417b-a892-947cc9d1be98"},"vehicle_type_id":"4","last_reported":1683270365,"current_range_meters":22800,"station_id":"ce4bgup2rcd13ifvqcn0","pricing_plan_id":"free"},{"bike_id":"5cd26488-bde8-41e1-927e-e342c4db3786","system_id":"levelo_inurba_marseille","lat":43.304606,"lon":5.379026,"is_reserved":false,"is_disabled":false,"rental_uris":{"android":"levelo://app?vid=5cd26488-bde8-41e1-927e-e342c4db3786","ios":"levelo://app?vid=5cd26488-bde8-41e1-927e-e342c4db3786"},"vehicle_type_id":"4","last_reported":1683270365,"current_range_meters":31200,"station_id":"ce4bgup2rcd13ifvqcn0","pricing_plan_id":"free"},{"bike_id":"20f000d6-22a8-4e53-98bc-fee5f29b84d5","system_id":"levelo_inurba_marseille","lat":43.304606,"lon":5.379026,"is_reserved":false,"is_disabled":false,"rental_uris":{"android":"levelo://app?vid=20f000d6-22a8-4e53-98bc-fee5f29b84d5","ios":"levelo://app?vid=20f000d6-22a8-4e53-98bc-fee5f29b84d5"},"vehicle_type_id":"4","last_reported":1683270365,"current_range_meters":31200,"station_id":"ce4bgup2rcd13ifvqcn0","pricing_plan_id":"free"},{"bike_id":"2896e2f4-d38f-42b4-82cc-58b91f4de589","system_id":"levelo_inurba_marseille","lat":43.30473,"lon":5.37908,"is_reserved":false,"is_disabled":false,"rental_uris":{"android":"levelo://app?vid=2896e2f4-d38f-42b4-82cc-58b91f4de589","ios":"levelo://app?vid=2896e2f4-d38f-42b4-82cc-58b91f4de589"},"vehicle_type_id":"4","last_reported":1683270365,"current_range_meters":31200,"station_id":"ce4bgup2rcd13ifvqcn0","pricing_plan_id":"free"},{"bike_id":"eee7da4d-adf2-4bf1-bef1-c9421ae552b2","system_id":"levelo_inurba_marseille","lat":43.304606,"lon":5.379026,"is_reserved":false,"is_disabled":false,"rental_uris":{"android":"levelo://app?vid=eee7da4d-adf2-4bf1-bef1-c9421ae552b2","ios":"levelo://app?vid=eee7da4d-adf2-4bf1-bef1-c9421ae552b2"},"vehicle_type_id":"4","last_reported":1683270365,"current_range_meters":26400,"station_id":"ce4bgup2rcd13ifvqcn0","pricing_plan_id":"free"},{"bike_id":"2918e40f-6b8a-4e5b-aef5-4396c36353cc","system_id":"levelo_inurba_marseille","lat":43.30472,"lon":5.37908,"is_reserved":false,"is_disabled":false,"rental_uris":{"android":"levelo://app?vid=2918e40f-6b8a-4e5b-aef5-4396c36353cc","ios":"levelo://app?vid=2918e40f-6b8a-4e5b-aef5-4396c36353cc"},"vehicle_type_id":"4","last_reported":1683270365,"current_range_meters":13200,"station_id":"ce4bgup2rcd13ifvqcn0","pricing_plan_id":"free"},{"bike_id":"f27208c3-ba4a-4c5c-a78f-5aa323151603","system_id":"levelo_inurba_marseille","lat":43.304606,"lon":5.379026,"is_reserved":false,"is_disabled":false,"rental_uris":{"android":"levelo://app?vid=f27208c3-ba4a-4c5c-a78f-5aa323151603","ios":"levelo://app?vid=f27208c3-ba4a-4c5c-a78f-5aa323151603"},"vehicle_type_id":"4","last_reported":1683270365,"current_range_meters":15600,"station_id":"ce4bgup2rcd13ifvqcn0","pricing_plan_id":"free"},{"bike_id":"a053120d-e0fc-4c5a-bab3-8d0a2b0b2558","system_id":"levelo_inurba_marseille","lat":43.304606,"lon":5.379026,"is_reserved":false,"is_disabled":false,"rental_uris":{"android":"levelo://app?vid=a053120d-e0fc-4c5a-bab3-8d0a2b0b2558","ios":"levelo://app?vid=a053120d-e0fc-4c5a-bab3-8d0a2b0b2558"},"vehicle_type_id":"4","last_reported":1683270365,"current_range_meters":31200,"station_id":"ce4bgup2rcd13ifvqcn0","pricing_plan_id":"free"},{"bike_id":"c09273ef-5bc6-4e14-8e36-2d455c524a6f","system_id":"levelo_inurba_marseille","lat":43.304606,"lon":5.379026,"is_reserved":false,"is_disabled":false,"rental_uris":{"android":"levelo://app?vid=c09273ef-5bc6-4e14-8e36-2d455c524a6f","ios":"levelo://app?vid=c09273ef-5bc6-4e14-8e36-2d455c524a6f"},"vehicle_type_id":"4","last_reported":1683270365,"current_range_meters":24800,"station_id":"ce4bgup2rcd13ifvqcn0","pricing_plan_id":"free"},{"bike_id":"2d2451d5-57c0-437a-a263-dcb63962d5ff","system_id":"levelo_inurba_marseille","lat":43.304606,"lon":5.379026,"is_reserved":false,"is_disabled":false,"rental_uris":{"android":"levelo://app?vid=2d2451d5-57c0-437a-a263-dcb63962d5ff","ios":"levelo://app?vid=2d2451d5-57c0-437a-a263-dcb63962d5ff"},"vehicle_type_id":"4","last_reported":1683270365,"current_range_meters":31200,"station_id":"ce4bgup2rcd13ifvqcn0","pricing_plan_id":"free"},{"bike_id":"82a7ff34-dd03-424b-9958-b03a5436936a","system_id":"levelo_inurba_marseille","lat":43.304606,"lon":5.379026,"is_reserved":false,"is_disabled":false,"rental_uris":{"android":"levelo://app?vid=82a7ff34-dd03-424b-9958-b03a5436936a","ios":"levelo://app?vid=82a7ff34-dd03-424b-9958-b03a5436936a"},"vehicle_type_id":"4","last_reported":1683270365,"current_range_meters":18800,"station_id":"ce4bgup2rcd13ifvqcn0","pricing_plan_id":"free"},{"bike_id":"90b76501-e33c-492c-9ea0-02b41d1de9ac","system_id":"levelo_inurba_marseille","lat":43.304606,"lon":5.379026,"is_reserved":false,"is_disabled":false,"rental_uris":{"android":"levelo://app?vid=90b76501-e33c-492c-9ea0-02b41d1de9ac","ios":"levelo://app?vid=90b76501-e33c-492c-9ea0-02b41d1de9ac"},"vehicle_type_id":"4","last_reported":1683270365,"current_range_meters":27200,"station_id":"ce4bgup2rcd13ifvqcn0","pricing_plan_id":"free"},{"bike_id":"43be12f9-1aa5-4ac8-8a78-b8f0df9ce2b9","system_id":"levelo_inurba_marseille","lat":43.304606,"lon":5.379026,"is_reserved":false,"is_disabled":false,"rental_uris":{"android":"levelo://app?vid=43be12f9-1aa5-4ac8-8a78-b8f0df9ce2b9","ios":"levelo://app?vid=43be12f9-1aa5-4ac8-8a78-b8f0df9ce2b9"},"vehicle_type_id":"4","last_reported":1683270365,"current_range_meters":24800,"station_id":"ce4bgup2rcd13ifvqcn0","pricing_plan_id":"free"},{"bike_id":"0bc08b09-0795-4a5b-8e5c-60844feb12a6","system_id":"levelo_inurba_marseille","lat":43.304606,"lon":5.379026,"is_reserved":false,"is_disabled":false,"rental_uris":{"android":"levelo://app?vid=0bc08b09-0795-4a5b-8e5c-60844feb12a6","ios":"levelo://app?vid=0bc08b09-0795-4a5b-8e5c-60844feb12a6"},"vehicle_type_id":"4","last_reported":1683270365,"current_range_meters":30000,"station_id":"ce4bgup2rcd13ifvqcn0","pricing_plan_id":"free"},{"bike_id":"99fd9dea-1c06-41a8-963c-79739658696e","system_id":"levelo_inurba_marseille","lat":43.3047,"lon":5.37908,"is_reserved":false,"is_disabled":false,"rental_uris":{"android":"levelo://app?vid=99fd9dea-1c06-41a8-963c-79739658696e","ios":"levelo://app?vid=99fd9dea-1c06-41a8-963c-79739658696e"},"vehicle_type_id":"4","last_reported":1683270365,"current_range_meters":13200,"station_id":"ce4bgup2rcd13ifvqcn0","pricing_plan_id":"free"},{"bike_id":"27f0cd8a-3a3c-4a0c-8f90-c818d011796f","system_id":"levelo_inurba_marseille","lat":43.304606,"lon":5.379026,"is_reserved":false,"is_disabled":false,"rental_uris":{"android":"levelo://app?vid=27f0cd8a-3a3c-4a0c-8f90-c818d011796f","ios":"levelo://app?vid=27f0cd8a-3a3c-4a0c-8f90-c818d011796f"},"vehicle_type_id":"4","last_reported":1683270365,"current_range_meters":31600,"station_id":"ce4bgup2rcd13ifvqcn0","pricing_plan_id":"free"},{"bike_id":"9da0c862-3376-4dd6-96d9-2cbd308ee400","system_id":"levelo_inurba_marseille","lat":43.304606,"lon":5.379026,"is_reserved":false,"is_disabled":false,"rental_uris":{"android":"levelo://app?vid=9da0c862-3376-4dd6-96d9-2cbd308ee400","ios":"levelo://app?vid=9da0c862-3376-4dd6-96d9-2cbd308ee400"},"vehicle_type_id":"4","last_reported":1683270365,"current_range_meters":31200,"station_id":"ce4bgup2rcd13ifvqcn0","pricing_plan_id":"free"},{"bike_id":"da96ce75-25a2-4446-90ee-004558cb2394","system_id":"levelo_inurba_marseille","lat":43.3047,"lon":5.37911,"is_reserved":false,"is_disabled":false,"rental_uris":{"android":"levelo://app?vid=da96ce75-25a2-4446-90ee-004558cb2394","ios":"levelo://app?vid=da96ce75-25a2-4446-90ee-004558cb2394"},"vehicle_type_id":"4","last_reported":1683270365,"current_range_meters":11600,"station_id":"ce4bgup2rcd13ifvqcn0","pricing_plan_id":"free"},{"bike_id":"01720bd3-4a93-4649-aedb-61e605a60ec6","system_id":"levelo_inurba_marseille","lat":43.30469,"lon":5.3791,"is_reserved":false,"is_disabled":false,"rental_uris":{"android":"levelo://app?vid=01720bd3-4a93-4649-aedb-61e605a60ec6","ios":"levelo://app?vid=01720bd3-4a93-4649-aedb-61e605a60ec6"},"vehicle_type_id":"4","last_reported":1683270365,"current_range_meters":22400,"station_id":"ce4bgup2rcd13ifvqcn0","pricing_plan_id":"free"},{"bike_id":"0f96d06d-cc00-44b3-948d-1f5efaacd653","system_id":"levelo_inurba_marseille","lat":43.304606,"lon":5.379026,"is_reserved":false,"is_disabled":false,"rental_uris":{"android":"levelo://app?vid=0f96d06d-cc00-44b3-948d-1f5efaacd653","ios":"levelo://app?vid=0f96d06d-cc00-44b3-948d-1f5efaacd653"},"vehicle_type_id":"4","last_reported":1683270365,"current_range_meters":31200,"station_id":"ce4bgup2rcd13ifvqcn0","pricing_plan_id":"free"},{"bike_id":"d314e2fa-5110-4de9-8796-7dce1841499d","system_id":"levelo_inurba_marseille","lat":43.304606,"lon":5.379026,"is_reserved":false,"is_disabled":false,"rental_uris":{"android":"levelo://app?vid=d314e2fa-5110-4de9-8796-7dce1841499d","ios":"levelo://app?vid=d314e2fa-5110-4de9-8796-7dce1841499d"},"vehicle_type_id":"4","last_reported":1683270365,"current_range_meters":23600,"station_id":"ce4bgup2rcd13ifvqcn0","pricing_plan_id":"free"},{"bike_id":"c50d7eac-93f1-4c58-8898-af72330af1da","system_id":"levelo_inurba_marseille","lat":43.30466,"lon":5.37908,"is_reserved":false,"is_disabled":false,"rental_uris":{"android":"levelo://app?vid=c50d7eac-93f1-4c58-8898-af72330af1da","ios":"levelo://app?vid=c50d7eac-93f1-4c58-8898-af72330af1da"},"vehicle_type_id":"4","last_reported":1683270365,"current_range_meters":20400,"station_id":"ce4bgup2rcd13ifvqcn0","pricing_plan_id":"free"},{"bike_id":"9758999e-f982-40e0-a707-51ffca637544","system_id":"levelo_inurba_marseille","lat":43.304606,"lon":5.379026,"is_reserved":false,"is_disabled":false,"rental_uris":{"android":"levelo://app?vid=9758999e-f982-40e0-a707-51ffca637544","ios":"levelo://app?vid=9758999e-f982-40e0-a707-51ffca637544"},"vehicle_type_id":"4","last_reported":1683270365,"current_range_meters":14000,"station_id":"ce4bgup2rcd13ifvqcn0","pricing_plan_id":"free"},{"bike_id":"4ca82eb8-bc56-4d77-bdba-4b8a3652cb5e","system_id":"levelo_inurba_marseille","lat":43.304606,"lon":5.379026,"is_reserved":false,"is_disabled":false,"rental_uris":{"android":"levelo://app?vid=4ca82eb8-bc56-4d77-bdba-4b8a3652cb5e","ios":"levelo://app?vid=4ca82eb8-bc56-4d77-bdba-4b8a3652cb5e"},"vehicle_type_id":"4","last_reported":1683270365,"current_range_meters":31200,"station_id":"ce4bgup2rcd13ifvqcn0","pricing_plan_id":"free"},{"bike_id":"ed8fb28f-8e65-44d3-bd78-6cde03a8fdb4","system_id":"levelo_inurba_marseille","lat":43.304606,"lon":5.379026,"is_reserved":false,"is_disabled":false,"rental_uris":{"android":"levelo://app?vid=ed8fb28f-8e65-44d3-bd78-6cde03a8fdb4","ios":"levelo://app?vid=ed8fb28f-8e65-44d3-bd78-6cde03a8fdb4"},"vehicle_type_id":"4","last_reported":1683270365,"current_range_meters":31200,"station_id":"ce4bgup2rcd13ifvqcn0","pricing_plan_id":"free"},{"bike_id":"61f4baf0-d5fb-4105-b233-a9f6197b16e8","system_id":"levelo_inurba_marseille","lat":43.304606,"lon":5.379026,"is_reserved":false,"is_disabled":false,"rental_uris":{"android":"levelo://app?vid=61f4baf0-d5fb-4105-b233-a9f6197b16e8","ios":"levelo://app?vid=61f4baf0-d5fb-4105-b233-a9f6197b16e8"},"vehicle_type_id":"4","last_reported":1683270365,"current_range_meters":31200,"station_id":"ce4bgup2rcd13ifvqcn0","pricing_plan_id":"free"},{"bike_id":"24809b47-ab58-43bc-89ad-eb0010f5ab73","system_id":"levelo_inurba_marseille","lat":43.30465,"lon":5.37909,"is_reserved":false,"is_disabled":false,"rental_uris":{"android":"levelo://app?vid=24809b47-ab58-43bc-89ad-eb0010f5ab73","ios":"levelo://app?vid=24809b47-ab58-43bc-89ad-eb0010f5ab73"},"vehicle_type_id":"4","last_reported":1683270365,"current_range_meters":21600,"station_id":"ce4bgup2rcd13ifvqcn0","pricing_plan_id":"free"},{"bike_id":"edc6a195-8639-410b-9625-8bc921404e7c","system_id":"levelo_inurba_marseille","lat":43.304606,"lon":5.379026,"is_reserved":false,"is_disabled":false,"rental_uris":{"android":"levelo://app?vid=edc6a195-8639-410b-9625-8bc921404e7c","ios":"levelo://app?vid=edc6a195-8639-410b-9625-8bc921404e7c"},"vehicle_type_id":"4","last_reported":1683270365,"current_range_meters":31200,"station_id":"ce4bgup2rcd13ifvqcn0","pricing_plan_id":"free"},{"bike_id":"e7257cbf-4edf-46ef-be00-96f842cfae0e","system_id":"levelo_inurba_marseille","lat":43.304606,"lon":5.379026,"is_reserved":false,"is_disabled":false,"rental_uris":{"android":"levelo://app?vid=e7257cbf-4edf-46ef-be00-96f842cfae0e","ios":"levelo://app?vid=e7257cbf-4edf-46ef-be00-96f842cfae0e"},"vehicle_type_id":"4","last_reported":1683270365,"current_range_meters":22800,"station_id":"ce4bgup2rcd13ifvqcn0","pricing_plan_id":"free"},{"bike_id":"4f57521a-13f1-4104-a875-7e601c7e2ce7","system_id":"levelo_inurba_marseille","lat":43.304606,"lon":5.379026,"is_reserved":false,"is_disabled":false,"rental_uris":{"android":"levelo://app?vid=4f57521a-13f1-4104-a875-7e601c7e2ce7","ios":"levelo://app?vid=4f57521a-13f1-4104-a875-7e601c7e2ce7"},"vehicle_type_id":"4","last_reported":1683270365,"current_range_meters":24000,"station_id":"ce4bgup2rcd13ifvqcn0","pricing_plan_id":"free"},{"bike_id":"7ec5015e-464c-400f-ac2e-9abc1cdba1dc","system_id":"levelo_inurba_marseille","lat":43.304606,"lon":5.379026,"is_reserved":false,"is_disabled":false,"rental_uris":{"android":"levelo://app?vid=7ec5015e-464c-400f-ac2e-9abc1cdba1dc","ios":"levelo://app?vid=7ec5015e-464c-400f-ac2e-9abc1cdba1dc"},"vehicle_type_id":"4","last_reported":1683270365,"current_range_meters":31200,"station_id":"ce4bgup2rcd13ifvqcn0","pricing_plan_id":"free"},{"bike_id":"4266947a-787c-418b-8ece-cd60ed3ac3da","system_id":"levelo_inurba_marseille","lat":43.30462,"lon":5.37909,"is_reserved":false,"is_disabled":false,"rental_uris":{"android":"levelo://app?vid=4266947a-787c-418b-8ece-cd60ed3ac3da","ios":"levelo://app?vid=4266947a-787c-418b-8ece-cd60ed3ac3da"},"vehicle_type_id":"4","last_reported":1683270365,"current_range_meters":26800,"station_id":"ce4bgup2rcd13ifvqcn0","pricing_plan_id":"free"},{"bike_id":"55bb5f15-2574-462a-9721-238160813274","system_id":"levelo_inurba_marseille","lat":43.30461,"lon":5.37908,"is_reserved":false,"is_disabled":false,"rental_uris":{"android":"levelo://app?vid=55bb5f15-2574-462a-9721-238160813274","ios":"levelo://app?vid=55bb5f15-2574-462a-9721-238160813274"},"vehicle_type_id":"4","last_reported":1683270365,"current_range_meters":26400,"station_id":"ce4bgup2rcd13ifvqcn0","pricing_plan_id":"free"},{"bike_id":"bf5152a4-887d-46d0-b4dc-df22810a4e4b","system_id":"levelo_inurba_marseille","lat":43.3046,"lon":5.37907,"is_reserved":false,"is_disabled":false,"rental_uris":{"android":"levelo://app?vid=bf5152a4-887d-46d0-b4dc-df22810a4e4b","ios":"levelo://app?vid=bf5152a4-887d-46d0-b4dc-df22810a4e4b"},"vehicle_type_id":"4","last_reported":1683270365,"current_range_meters":28400,"station_id":"ce4bgup2rcd13ifvqcn0","pricing_plan_id":"free"},{"bike_id":"c7419abf-a378-4a8b-bb62-677380436fbc","system_id":"levelo_inurba_marseille","lat":43.304606,"lon":5.379026,"is_reserved":false,"is_disabled":false,"rental_uris":{"android":"levelo://app?vid=c7419abf-a378-4a8b-bb62-677380436fbc","ios":"levelo://app?vid=c7419abf-a378-4a8b-bb62-677380436fbc"},"vehicle_type_id":"4","last_reported":1683270365,"current_range_meters":16000,"station_id":"ce4bgup2rcd13ifvqcn0","pricing_plan_id":"free"},{"bike_id":"5bea711b-ca1b-4ce9-afc1-7fa0952391f0","system_id":"levelo_inurba_marseille","lat":43.30459,"lon":5.3791,"is_reserved":false,"is_disabled":false,"rental_uris":{"android":"levelo://app?vid=5bea711b-ca1b-4ce9-afc1-7fa0952391f0","ios":"levelo://app?vid=5bea711b-ca1b-4ce9-afc1-7fa0952391f0"},"vehicle_type_id":"4","last_reported":1683270365,"current_range_meters":27600,"station_id":"ce4bgup2rcd13ifvqcn0","pricing_plan_id":"free"},{"bike_id":"9248c7af-24e4-435f-b7b1-6a84fd76c1af","system_id":"levelo_inurba_marseille","lat":43.30463,"lon":5.37916,"is_reserved":false,"is_disabled":false,"rental_uris":{"android":"levelo://app?vid=9248c7af-24e4-435f-b7b1-6a84fd76c1af","ios":"levelo://app?vid=9248c7af-24e4-435f-b7b1-6a84fd76c1af"},"vehicle_type_id":"4","last_reported":1683270365,"current_range_meters":28800,"station_id":"ce4bgup2rcd13ifvqcn0","pricing_plan_id":"free"},{"bike_id":"54ec6235-e44d-47fa-94fa-13ef137af876","system_id":"levelo_inurba_marseille","lat":43.301429,"lon":5.37413,"is_reserved":false,"is_disabled":false,"rental_uris":{"android":"levelo://app?vid=54ec6235-e44d-47fa-94fa-13ef137af876","ios":"levelo://app?vid=54ec6235-e44d-47fa-94fa-13ef137af876"},"vehicle_type_id":"4","last_reported":1683270365,"current_range_meters":24400,"station_id":"ce4bgs92rcd13ifvqcc0","pricing_plan_id":"free"},{"bike_id":"29261cb5-f07b-4626-90fe-660966be5dad","system_id":"levelo_inurba_marseille","lat":43.30143,"lon":5.37413,"is_reserved":false,"is_disabled":false,"rental_uris":{"android":"levelo://app?vid=29261cb5-f07b-4626-90fe-660966be5dad","ios":"levelo://app?vid=29261cb5-f07b-4626-90fe-660966be5dad"},"vehicle_type_id":"4","last_reported":1683270365,"current_range_meters":19200,"station_id":"ce4bgs92rcd13ifvqcc0","pricing_plan_id":"free"},{"bike_id":"be3e1bdd-dfea-4c75-b7a1-4f5470630b7d","system_id":"levelo_inurba_marseille","lat":43.29941,"lon":5.36559,"is_reserved":false,"is_disabled":false,"rental_uris":{"android":"levelo://app?vid=be3e1bdd-dfea-4c75-b7a1-4f5470630b7d","ios":"levelo://app?vid=be3e1bdd-dfea-4c75-b7a1-4f5470630b7d"},"vehicle_type_id":"4","last_reported":1683270365,"current_range_meters":24000,"station_id":"ce4bgm92rcd13ifvqbr0","pricing_plan_id":"free"},{"bike_id":"e50a4c0f-6c90-4297-984c-b4ab881d109a","system_id":"levelo_inurba_marseille","lat":43.30032,"lon":5.37451,"is_reserved":false,"is_disabled":false,"rental_uris":{"android":"levelo://app?vid=e50a4c0f-6c90-4297-984c-b4ab881d109a","ios":"levelo://app?vid=e50a4c0f-6c90-4297-984c-b4ab881d109a"},"vehicle_type_id":"4","last_reported":1683270365,"current_range_meters":20000,"station_id":"","pricing_plan_id":"free"},{"bike_id":"0438cc9e-6c27-4f4d-85a9-dc24a0bd3ccf","system_id":"levelo_inurba_marseille","lat":43.305364,"lon":5.384119,"is_reserved":false,"is_disabled":false,"rental_uris":{"android":"levelo://app?vid=0438cc9e-6c27-4f4d-85a9-dc24a0bd3ccf","ios":"levelo://app?vid=0438cc9e-6c27-4f4d-85a9-dc24a0bd3ccf"},"vehicle_type_id":"4","last_reported":1683270365,"current_range_meters":19200,"station_id":"ce4bgg92rcd13ifvqb30","pricing_plan_id":"free"},{"bike_id":"75901c93-9dcb-4627-ae12-bf668df110ff","system_id":"levelo_inurba_marseille","lat":43.298433,"lon":5.362774,"is_reserved":false,"is_disabled":false,"rental_uris":{"android":"levelo://app?vid=75901c93-9dcb-4627-ae12-bf668df110ff","ios":"levelo://app?vid=75901c93-9dcb-4627-ae12-bf668df110ff"},"vehicle_type_id":"4","last_reported":1683270365,"current_range_meters":18800,"station_id":"ce4bgpp2rcd13ifvqc3g","pricing_plan_id":"free"},{"bike_id":"da0634f0-d808-4192-b40a-732ea093e836","system_id":"levelo_inurba_marseille","lat":43.305364,"lon":5.384119,"is_reserved":false,"is_disabled":false,"rental_uris":{"android":"levelo://app?vid=da0634f0-d808-4192-b40a-732ea093e836","ios":"levelo://app?vid=da0634f0-d808-4192-b40a-732ea093e836"},"vehicle_type_id":"4","last_reported":1683270365,"current_range_meters":28000,"station_id":"ce4bgg92rcd13ifvqb30","pricing_plan_id":"free"},{"bike_id":"f0769b9a-4d8a-4eb5-9869-6473e549cbcb","system_id":"levelo_inurba_marseille","lat":43.305364,"lon":5.384119,"is_reserved":false,"is_disabled":false,"rental_uris":{"android":"levelo://app?vid=f0769b9a-4d8a-4eb5-9869-6473e549cbcb","ios":"levelo://app?vid=f0769b9a-4d8a-4eb5-9869-6473e549cbcb"},"vehicle_type_id":"4","last_reported":1683270365,"current_range_meters":6800,"station_id":"ce4bgg92rcd13ifvqb30","pricing_plan_id":"free"},{"bike_id":"007644db-764f-4bce-942a-f940e433db6d","system_id":"levelo_inurba_marseille","lat":43.298433,"lon":5.362774,"is_reserved":false,"is_disabled":false,"rental_uris":{"android":"levelo://app?vid=007644db-764f-4bce-942a-f940e433db6d","ios":"levelo://app?vid=007644db-764f-4bce-942a-f940e433db6d"},"vehicle_type_id":"4","last_reported":1683270365,"current_range_meters":27600,"station_id":"ce4bgpp2rcd13ifvqc3g","pricing_plan_id":"free"},{"bike_id":"d4b65cfb-2887-486c-ae80-66c0c0cfd7c6","system_id":"levelo_inurba_marseille","lat":43.298433,"lon":5.362774,"is_reserved":false,"is_disabled":false,"rental_uris":{"android":"levelo://app?vid=d4b65cfb-2887-486c-ae80-66c0c0cfd7c6","ios":"levelo://app?vid=d4b65cfb-2887-486c-ae80-66c0c0cfd7c6"},"vehicle_type_id":"4","last_reported":1683270365,"current_range_meters":29200,"station_id":"ce4bgpp2rcd13ifvqc3g","pricing_plan_id":"free"},{"bike_id":"3dcf6e5a-23a2-4ecf-80d5-fcaa80938dc4","system_id":"levelo_inurba_marseille","lat":43.299243,"lon":5.374807,"is_reserved":false,"is_disabled":false,"rental_uris":{"android":"levelo://app?vid=3dcf6e5a-23a2-4ecf-80d5-fcaa80938dc4","ios":"levelo://app?vid=3dcf6e5a-23a2-4ecf-80d5-fcaa80938dc4"},"vehicle_type_id":"4","last_reported":1683270365,"current_range_meters":22800,"station_id":"ce4bgjh2rcd13ifvqbg0","pricing_plan_id":"free"},{"bike_id":"37e4bc39-67e8-47b5-933c-303f25d1c01d","system_id":"levelo_inurba_marseille","lat":43.305292,"lon":5.384343,"is_reserved":false,"is_disabled":false,"rental_uris":{"android":"levelo://app?vid=37e4bc39-67e8-47b5-933c-303f25d1c01d","ios":"levelo://app?vid=37e4bc39-67e8-47b5-933c-303f25d1c01d"},"vehicle_type_id":"4","last_reported":1683270365,"current_range_meters":0,"station_id":"","pricing_plan_id":"free"},{"bike_id":"71e26760-72e4-4f09-ac4c-71ba0c390165","system_id":"levelo_inurba_marseille","lat":43.311722,"lon":5.387247,"is_reserved":false,"is_disabled":false,"rental_uris":{"android":"levelo://app?vid=71e26760-72e4-4f09-ac4c-71ba0c390165","ios":"levelo://app?vid=71e26760-72e4-4f09-ac4c-71ba0c390165"},"vehicle_type_id":"4","last_reported":1683270365,"current_range_meters":30400,"station_id":"ce4bgv12rcd13ifvqcp0","pricing_plan_id":"free"},{"bike_id":"b80f2876-ce62-467e-a4a6-41a5d4ba587d","system_id":"levelo_inurba_marseille","lat":43.311722,"lon":5.387247,"is_reserved":false,"is_disabled":false,"rental_uris":{"android":"levelo://app?vid=b80f2876-ce62-467e-a4a6-41a5d4ba587d","ios":"levelo://app?vid=b80f2876-ce62-467e-a4a6-41a5d4ba587d"},"vehicle_type_id":"4","last_reported":1683270365,"current_range_meters":30000,"station_id":"ce4bgv12rcd13ifvqcp0","pricing_plan_id":"free"},{"bike_id":"0c7b01cc-1bbe-4c45-9cbe-0c51bc668d89","system_id":"levelo_inurba_marseille","lat":43.297794,"lon":5.370888,"is_reserved":false,"is_disabled":false,"rental_uris":{"android":"levelo://app?vid=0c7b01cc-1bbe-4c45-9cbe-0c51bc668d89","ios":"levelo://app?vid=0c7b01cc-1bbe-4c45-9cbe-0c51bc668d89"},"vehicle_type_id":"4","last_reported":1683270365,"current_range_meters":29200,"station_id":"ce4bgop2rcd13ifvqc1g","pricing_plan_id":"free"},{"bike_id":"f2424ee5-13ae-46a7-b9aa-ece682a6277d","system_id":"levelo_inurba_marseille","lat":43.298433,"lon":5.362774,"is_reserved":false,"is_disabled":false,"rental_uris":{"android":"levelo://app?vid=f2424ee5-13ae-46a7-b9aa-ece682a6277d","ios":"levelo://app?vid=f2424ee5-13ae-46a7-b9aa-ece682a6277d"},"vehicle_type_id":"4","last_reported":1683270365,"current_range_meters":26400,"station_id":"ce4bgpp2rcd13ifvqc3g","pricing_plan_id":"free"},{"bike_id":"683ff220-7299-445b-9e2a-04d29bc6c852","system_id":"levelo_inurba_marseille","lat":43.297794,"lon":5.370888,"is_reserved":false,"is_disabled":false,"rental_uris":{"android":"levelo://app?vid=683ff220-7299-445b-9e2a-04d29bc6c852","ios":"levelo://app?vid=683ff220-7299-445b-9e2a-04d29bc6c852"},"vehicle_type_id":"4","last_reported":1683270365,"current_range_meters":31200,"station_id":"ce4bgop2rcd13ifvqc1g","pricing_plan_id":"free"},{"bike_id":"c1631b04-09dd-4136-bd20-a9cf73e0ab7d","system_id":"levelo_inurba_marseille","lat":43.297794,"lon":5.370888,"is_reserved":false,"is_disabled":false,"rental_uris":{"android":"levelo://app?vid=c1631b04-09dd-4136-bd20-a9cf73e0ab7d","ios":"levelo://app?vid=c1631b04-09dd-4136-bd20-a9cf73e0ab7d"},"vehicle_type_id":"4","last_reported":1683270365,"current_range_meters":31200,"station_id":"ce4bgop2rcd13ifvqc1g","pricing_plan_id":"free"},{"bike_id":"58888519-769e-4189-90e1-6ddcb19f6f2b","system_id":"levelo_inurba_marseille","lat":43.297794,"lon":5.370888,"is_reserved":false,"is_disabled":false,"rental_uris":{"android":"levelo://app?vid=58888519-769e-4189-90e1-6ddcb19f6f2b","ios":"levelo://app?vid=58888519-769e-4189-90e1-6ddcb19f6f2b"},"vehicle_type_id":"4","last_reported":1683270365,"current_range_meters":13200,"station_id":"ce4bgop2rcd13ifvqc1g","pricing_plan_id":"free"},{"bike_id":"1221591d-9acc-474c-bdc2-c6d9cb1ac702","system_id":"levelo_inurba_marseille","lat":43.297794,"lon":5.370888,"is_reserved":false,"is_disabled":false,"rental_uris":{"android":"levelo://app?vid=1221591d-9acc-474c-bdc2-c6d9cb1ac702","ios":"levelo://app?vid=1221591d-9acc-474c-bdc2-c6d9cb1ac702"},"vehicle_type_id":"4","last_reported":1683270365,"current_range_meters":8400,"station_id":"ce4bgop2rcd13ifvqc1g","pricing_plan_id":"free"},{"bike_id":"89c78c5e-1ab1-4b09-b442-d5135e1e8ef6","system_id":"levelo_inurba_marseille","lat":43.328371,"lon":5.366912,"is_reserved":false,"is_disabled":false,"rental_uris":{"android":"levelo://app?vid=89c78c5e-1ab1-4b09-b442-d5135e1e8ef6","ios":"levelo://app?vid=89c78c5e-1ab1-4b09-b442-d5135e1e8ef6"},"vehicle_type_id":"4","last_reported":1683270365,"current_range_meters":20400,"station_id":"ce4bhs92rcd13ifvqi0g","pricing_plan_id":"free"},{"bike_id":"ba5db858-af31-4cfe-99ff-47f4995f3617","system_id":"levelo_inurba_marseille","lat":43.328371,"lon":5.366909,"is_reserved":false,"is_disabled":false,"rental_uris":{"android":"levelo://app?vid=ba5db858-af31-4cfe-99ff-47f4995f3617","ios":"levelo://app?vid=ba5db858-af31-4cfe-99ff-47f4995f3617"},"vehicle_type_id":"4","last_reported":1683270365,"current_range_meters":20400,"station_id":"ce4bhs92rcd13ifvqi0g","pricing_plan_id":"free"},{"bike_id":"34013ead-3338-4d30-bcbd-8edc72a8ff0a","system_id":"levelo_inurba_marseille","lat":43.32824,"lon":5.36693,"is_reserved":false,"is_disabled":false,"rental_uris":{"android":"levelo://app?vid=34013ead-3338-4d30-bcbd-8edc72a8ff0a","ios":"levelo://app?vid=34013ead-3338-4d30-bcbd-8edc72a8ff0a"},"vehicle_type_id":"4","last_reported":1683270365,"current_range_meters":23600,"station_id":"ce4bhs92rcd13ifvqi0g","pricing_plan_id":"free"},{"bike_id":"9f8e3a9b-22d0-4019-9a73-4dcf0ba03bca","system_id":"levelo_inurba_marseille","lat":43.328371,"lon":5.366909,"is_reserved":false,"is_disabled":false,"rental_uris":{"android":"levelo://app?vid=9f8e3a9b-22d0-4019-9a73-4dcf0ba03bca","ios":"levelo://app?vid=9f8e3a9b-22d0-4019-9a73-4dcf0ba03bca"},"vehicle_type_id":"4","last_reported":1683270365,"current_range_meters":27600,"station_id":"ce4bhs92rcd13ifvqi0g","pricing_plan_id":"free"},{"bike_id":"1886fcb6-c856-40e4-9d68-95e9cecf7514","system_id":"levelo_inurba_marseille","lat":43.328371,"lon":5.366912,"is_reserved":false,"is_disabled":false,"rental_uris":{"android":"levelo://app?vid=1886fcb6-c856-40e4-9d68-95e9cecf7514","ios":"levelo://app?vid=1886fcb6-c856-40e4-9d68-95e9cecf7514"},"vehicle_type_id":"4","last_reported":1683270365,"current_range_meters":18000,"station_id":"ce4bhs92rcd13ifvqi0g","pricing_plan_id":"free"},{"bike_id":"f01ec473-7fe9-47ec-852c-f195da583b5a","system_id":"levelo_inurba_marseille","lat":43.328371,"lon":5.366912,"is_reserved":false,"is_disabled":false,"rental_uris":{"android":"levelo://app?vid=f01ec473-7fe9-47ec-852c-f195da583b5a","ios":"levelo://app?vid=f01ec473-7fe9-47ec-852c-f195da583b5a"},"vehicle_type_id":"4","last_reported":1683270365,"current_range_meters":24000,"station_id":"ce4bhs92rcd13ifvqi0g","pricing_plan_id":"free"},{"bike_id":"552d195b-8276-4461-8817-9bef832a3301","system_id":"levelo_inurba_marseille","lat":43.328371,"lon":5.366912,"is_reserved":false,"is_disabled":false,"rental_uris":{"android":"levelo://app?vid=552d195b-8276-4461-8817-9bef832a3301","ios":"levelo://app?vid=552d195b-8276-4461-8817-9bef832a3301"},"vehicle_type_id":"4","last_reported":1683270365,"current_range_meters":0,"station_id":"ce4bhs92rcd13ifvqi0g","pricing_plan_id":"free"},{"bike_id":"aafcc005-5e38-4c52-a10d-6d0f89f0012b","system_id":"levelo_inurba_marseille","lat":43.302008,"lon":5.394694,"is_reserved":false,"is_disabled":false,"rental_uris":{"android":"levelo://app?vid=aafcc005-5e38-4c52-a10d-6d0f89f0012b","ios":"levelo://app?vid=aafcc005-5e38-4c52-a10d-6d0f89f0012b"},"vehicle_type_id":"4","last_reported":1683270365,"current_range_meters":11600,"station_id":"ce4bh0p2rcd13ifvqd70","pricing_plan_id":"free"},{"bike_id":"0a8b0190-6386-4afb-a4c2-c9b52e57438e","system_id":"levelo_inurba_marseille","lat":43.296131,"lon":5.370791,"is_reserved":false,"is_disabled":false,"rental_uris":{"android":"levelo://app?vid=0a8b0190-6386-4afb-a4c2-c9b52e57438e","ios":"levelo://app?vid=0a8b0190-6386-4afb-a4c2-c9b52e57438e"},"vehicle_type_id":"4","last_reported":1683270365,"current_range_meters":31200,"station_id":"ce4bgnh2rcd13ifvqc0g","pricing_plan_id":"free"},{"bike_id":"1539498b-8327-4c2e-ac07-a81937e4ed66","system_id":"levelo_inurba_marseille","lat":43.296129,"lon":5.370777,"is_reserved":false,"is_disabled":false,"rental_uris":{"android":"levelo://app?vid=1539498b-8327-4c2e-ac07-a81937e4ed66","ios":"levelo://app?vid=1539498b-8327-4c2e-ac07-a81937e4ed66"},"vehicle_type_id":"4","last_reported":1683270365,"current_range_meters":31600,"station_id":"ce4bgnh2rcd13ifvqc0g","pricing_plan_id":"free"},{"bike_id":"cfb4482d-344c-4153-8489-a059a1f37ee0","system_id":"levelo_inurba_marseille","lat":43.296131,"lon":5.370791,"is_reserved":false,"is_disabled":false,"rental_uris":{"android":"levelo://app?vid=cfb4482d-344c-4153-8489-a059a1f37ee0","ios":"levelo://app?vid=cfb4482d-344c-4153-8489-a059a1f37ee0"},"vehicle_type_id":"4","last_reported":1683270365,"current_range_meters":28400,"station_id":"ce4bgnh2rcd13ifvqc0g","pricing_plan_id":"free"},{"bike_id":"276e3794-802e-451e-81cc-df8bb400a508","system_id":"levelo_inurba_marseille","lat":43.296129,"lon":5.370777,"is_reserved":false,"is_disabled":false,"rental_uris":{"android":"levelo://app?vid=276e3794-802e-451e-81cc-df8bb400a508","ios":"levelo://app?vid=276e3794-802e-451e-81cc-df8bb400a508"},"vehicle_type_id":"4","last_reported":1683270365,"current_range_meters":31200,"station_id":"ce4bgnh2rcd13ifvqc0g","pricing_plan_id":"free"},{"bike_id":"3dee66a1-f20a-47a6-a8ee-df2c101372bb","system_id":"levelo_inurba_marseille","lat":43.29586,"lon":5.36738,"is_reserved":false,"is_disabled":false,"rental_uris":{"android":"levelo://app?vid=3dee66a1-f20a-47a6-a8ee-df2c101372bb","ios":"levelo://app?vid=3dee66a1-f20a-47a6-a8ee-df2c101372bb"},"vehicle_type_id":"4","last_reported":1683270365,"current_range_meters":18000,"station_id":"ce4bgph2rcd13ifvqc2g","pricing_plan_id":"free"},{"bike_id":"3e99a779-7ea4-4697-af7c-67f7b39ad5cd","system_id":"levelo_inurba_marseille","lat":43.29585,"lon":5.36745,"is_reserved":false,"is_disabled":false,"rental_uris":{"android":"levelo://app?vid=3e99a779-7ea4-4697-af7c-67f7b39ad5cd","ios":"levelo://app?vid=3e99a779-7ea4-4697-af7c-67f7b39ad5cd"},"vehicle_type_id":"4","last_reported":1683270365,"current_range_meters":31200,"station_id":"ce4bgph2rcd13ifvqc2g","pricing_plan_id":"free"},{"bike_id":"d37c0426-c638-4a43-874f-ab8dae327daf","system_id":"levelo_inurba_marseille","lat":43.29573,"lon":5.367355,"is_reserved":false,"is_disabled":false,"rental_uris":{"android":"levelo://app?vid=d37c0426-c638-4a43-874f-ab8dae327daf","ios":"levelo://app?vid=d37c0426-c638-4a43-874f-ab8dae327daf"},"vehicle_type_id":"4","last_reported":1683270365,"current_range_meters":27600,"station_id":"ce4bgph2rcd13ifvqc2g","pricing_plan_id":"free"},{"bike_id":"5938f070-323c-4131-9c5f-b89bfbbea50c","system_id":"levelo_inurba_marseille","lat":43.296131,"lon":5.370791,"is_reserved":false,"is_disabled":false,"rental_uris":{"android":"levelo://app?vid=5938f070-323c-4131-9c5f-b89bfbbea50c","ios":"levelo://app?vid=5938f070-323c-4131-9c5f-b89bfbbea50c"},"vehicle_type_id":"4","last_reported":1683270365,"current_range_meters":27600,"station_id":"ce4bgnh2rcd13ifvqc0g","pricing_plan_id":"free"},{"bike_id":"af25b8c4-0c5a-4ab7-ac74-bcf807e51188","system_id":"levelo_inurba_marseille","lat":43.296129,"lon":5.370777,"is_reserved":false,"is_disabled":false,"rental_uris":{"android":"levelo://app?vid=af25b8c4-0c5a-4ab7-ac74-bcf807e51188","ios":"levelo://app?vid=af25b8c4-0c5a-4ab7-ac74-bcf807e51188"},"vehicle_type_id":"4","last_reported":1683270365,"current_range_meters":27200,"station_id":"ce4bgnh2rcd13ifvqc0g","pricing_plan_id":"free"},{"bike_id":"48356b52-1d81-4ffd-a285-7f174147a4b1","system_id":"levelo_inurba_marseille","lat":43.296129,"lon":5.370777,"is_reserved":false,"is_disabled":false,"rental_uris":{"android":"levelo://app?vid=48356b52-1d81-4ffd-a285-7f174147a4b1","ios":"levelo://app?vid=48356b52-1d81-4ffd-a285-7f174147a4b1"},"vehicle_type_id":"4","last_reported":1683270365,"current_range_meters":15600,"station_id":"ce4bgnh2rcd13ifvqc0g","pricing_plan_id":"free"},{"bike_id":"42ace0e8-14d4-436b-a959-4491812af3e1","system_id":"levelo_inurba_marseille","lat":43.29583,"lon":5.36734,"is_reserved":false,"is_disabled":false,"rental_uris":{"android":"levelo://app?vid=42ace0e8-14d4-436b-a959-4491812af3e1","ios":"levelo://app?vid=42ace0e8-14d4-436b-a959-4491812af3e1"},"vehicle_type_id":"4","last_reported":1683270365,"current_range_meters":26000,"station_id":"ce4bgph2rcd13ifvqc2g","pricing_plan_id":"free"},{"bike_id":"cee449fd-5404-4cd2-ad09-8d71a97d1160","system_id":"levelo_inurba_marseille","lat":43.29573,"lon":5.367355,"is_reserved":false,"is_disabled":false,"rental_uris":{"android":"levelo://app?vid=cee449fd-5404-4cd2-ad09-8d71a97d1160","ios":"levelo://app?vid=cee449fd-5404-4cd2-ad09-8d71a97d1160"},"vehicle_type_id":"4","last_reported":1683270365,"current_range_meters":30400,"station_id":"ce4bgph2rcd13ifvqc2g","pricing_plan_id":"free"},{"bike_id":"c4123720-ea95-483d-b6e9-9d600c68f454","system_id":"levelo_inurba_marseille","lat":43.296129,"lon":5.370777,"is_reserved":false,"is_disabled":false,"rental_uris":{"android":"levelo://app?vid=c4123720-ea95-483d-b6e9-9d600c68f454","ios":"levelo://app?vid=c4123720-ea95-483d-b6e9-9d600c68f454"},"vehicle_type_id":"4","last_reported":1683270365,"current_range_meters":30400,"station_id":"ce4bgnh2rcd13ifvqc0g","pricing_plan_id":"free"},{"bike_id":"f146684f-e822-43b6-a305-d92dc7d4dae4","system_id":"levelo_inurba_marseille","lat":43.29581,"lon":5.36745,"is_reserved":false,"is_disabled":false,"rental_uris":{"android":"levelo://app?vid=f146684f-e822-43b6-a305-d92dc7d4dae4","ios":"levelo://app?vid=f146684f-e822-43b6-a305-d92dc7d4dae4"},"vehicle_type_id":"4","last_reported":1683270365,"current_range_meters":3600,"station_id":"ce4bgph2rcd13ifvqc2g","pricing_plan_id":"free"},{"bike_id":"daacee0b-d87f-42d3-8a13-688ee0ec7da8","system_id":"levelo_inurba_marseille","lat":43.29581,"lon":5.36749,"is_reserved":false,"is_disabled":false,"rental_uris":{"android":"levelo://app?vid=daacee0b-d87f-42d3-8a13-688ee0ec7da8","ios":"levelo://app?vid=daacee0b-d87f-42d3-8a13-688ee0ec7da8"},"vehicle_type_id":"4","last_reported":1683270365,"current_range_meters":22000,"station_id":"ce4bgph2rcd13ifvqc2g","pricing_plan_id":"free"},{"bike_id":"d6a79f03-ff7f-4d2c-b62d-16b5a7d0ff82","system_id":"levelo_inurba_marseille","lat":43.2958,"lon":5.36734,"is_reserved":false,"is_disabled":false,"rental_uris":{"android":"levelo://app?vid=d6a79f03-ff7f-4d2c-b62d-16b5a7d0ff82","ios":"levelo://app?vid=d6a79f03-ff7f-4d2c-b62d-16b5a7d0ff82"},"vehicle_type_id":"4","last_reported":1683270365,"current_range_meters":31200,"station_id":"ce4bgph2rcd13ifvqc2g","pricing_plan_id":"free"},{"bike_id":"98f596f3-63ba-4e5d-80e9-424a02bac13f","system_id":"levelo_inurba_marseille","lat":43.29578,"lon":5.36742,"is_reserved":false,"is_disabled":false,"rental_uris":{"android":"levelo://app?vid=98f596f3-63ba-4e5d-80e9-424a02bac13f","ios":"levelo://app?vid=98f596f3-63ba-4e5d-80e9-424a02bac13f"},"vehicle_type_id":"4","last_reported":1683270365,"current_range_meters":28400,"station_id":"ce4bgph2rcd13ifvqc2g","pricing_plan_id":"free"},{"bike_id":"952459e4-aa32-41ec-9885-ac3da9bd5486","system_id":"levelo_inurba_marseille","lat":43.29578,"lon":5.36746,"is_reserved":false,"is_disabled":false,"rental_uris":{"android":"levelo://app?vid=952459e4-aa32-41ec-9885-ac3da9bd5486","ios":"levelo://app?vid=952459e4-aa32-41ec-9885-ac3da9bd5486"},"vehicle_type_id":"4","last_reported":1683270365,"current_range_meters":11600,"station_id":"ce4bgph2rcd13ifvqc2g","pricing_plan_id":"free"},{"bike_id":"2a621ece-9162-48af-9e5c-c9f3ecbbe171","system_id":"levelo_inurba_marseille","lat":43.29573,"lon":5.367355,"is_reserved":false,"is_disabled":false,"rental_uris":{"android":"levelo://app?vid=2a621ece-9162-48af-9e5c-c9f3ecbbe171","ios":"levelo://app?vid=2a621ece-9162-48af-9e5c-c9f3ecbbe171"},"vehicle_type_id":"4","last_reported":1683270365,"current_range_meters":30400,"station_id":"ce4bgph2rcd13ifvqc2g","pricing_plan_id":"free"},{"bike_id":"e5aca9b3-ca12-4475-8fe1-5b8c870a03de","system_id":"levelo_inurba_marseille","lat":43.299028,"lon":5.381509,"is_reserved":false,"is_disabled":false,"rental_uris":{"android":"levelo://app?vid=e5aca9b3-ca12-4475-8fe1-5b8c870a03de","ios":"levelo://app?vid=e5aca9b3-ca12-4475-8fe1-5b8c870a03de"},"vehicle_type_id":"4","last_reported":1683270365,"current_range_meters":22800,"station_id":"ce4bgj12rcd13ifvqbc0","pricing_plan_id":"free"},{"bike_id":"8ca52570-e98e-4f3a-b6c8-62d5d2e76812","system_id":"levelo_inurba_marseille","lat":43.299028,"lon":5.381509,"is_reserved":false,"is_disabled":false,"rental_uris":{"android":"levelo://app?vid=8ca52570-e98e-4f3a-b6c8-62d5d2e76812","ios":"levelo://app?vid=8ca52570-e98e-4f3a-b6c8-62d5d2e76812"},"vehicle_type_id":"4","last_reported":1683270365,"current_range_meters":17600,"station_id":"ce4bgj12rcd13ifvqbc0","pricing_plan_id":"free"},{"bike_id":"1446bec6-16da-484f-a918-794141e58b57","system_id":"levelo_inurba_marseille","lat":43.296921,"lon":5.376579,"is_reserved":false,"is_disabled":false,"rental_uris":{"android":"levelo://app?vid=1446bec6-16da-484f-a918-794141e58b57","ios":"levelo://app?vid=1446bec6-16da-484f-a918-794141e58b57"},"vehicle_type_id":"4","last_reported":1683270365,"current_range_meters":28400,"station_id":"ce4bgkh2rcd13ifvqbl0","pricing_plan_id":"free"},{"bike_id":"1083c706-79d0-4e28-aec8-01a81b3cafe7","system_id":"levelo_inurba_marseille","lat":43.309589,"lon":5.390258,"is_reserved":false,"is_disabled":false,"rental_uris":{"android":"levelo://app?vid=1083c706-79d0-4e28-aec8-01a81b3cafe7","ios":"levelo://app?vid=1083c706-79d0-4e28-aec8-01a81b3cafe7"},"vehicle_type_id":"4","last_reported":1683270365,"current_range_meters":13600,"station_id":"ce4bgup2rcd13ifvqco0","pricing_plan_id":"free"},{"bike_id":"a6aa57b1-e13e-473f-b293-5e713246e1f4","system_id":"levelo_inurba_marseille","lat":43.309589,"lon":5.390258,"is_reserved":false,"is_disabled":false,"rental_uris":{"android":"levelo://app?vid=a6aa57b1-e13e-473f-b293-5e713246e1f4","ios":"levelo://app?vid=a6aa57b1-e13e-473f-b293-5e713246e1f4"},"vehicle_type_id":"4","last_reported":1683270365,"current_range_meters":23200,"station_id":"ce4bgup2rcd13ifvqco0","pricing_plan_id":"free"},{"bike_id":"7256e712-4e38-407c-a757-b3ff4e0a273b","system_id":"levelo_inurba_marseille","lat":43.309589,"lon":5.390258,"is_reserved":false,"is_disabled":false,"rental_uris":{"android":"levelo://app?vid=7256e712-4e38-407c-a757-b3ff4e0a273b","ios":"levelo://app?vid=7256e712-4e38-407c-a757-b3ff4e0a273b"},"vehicle_type_id":"4","last_reported":1683270365,"current_range_meters":4000,"station_id":"ce4bgup2rcd13ifvqco0","pricing_plan_id":"free"},{"bike_id":"f43609b5-1701-4445-bcc3-410390b9401a","system_id":"levelo_inurba_marseille","lat":43.309589,"lon":5.390258,"is_reserved":false,"is_disabled":false,"rental_uris":{"android":"levelo://app?vid=f43609b5-1701-4445-bcc3-410390b9401a","ios":"levelo://app?vid=f43609b5-1701-4445-bcc3-410390b9401a"},"vehicle_type_id":"4","last_reported":1683270365,"current_range_meters":12400,"station_id":"ce4bgup2rcd13ifvqco0","pricing_plan_id":"free"},{"bike_id":"44275bf3-490c-43ba-a638-5b06390be0e2","system_id":"levelo_inurba_marseille","lat":43.309589,"lon":5.390258,"is_reserved":false,"is_disabled":false,"rental_uris":{"android":"levelo://app?vid=44275bf3-490c-43ba-a638-5b06390be0e2","ios":"levelo://app?vid=44275bf3-490c-43ba-a638-5b06390be0e2"},"vehicle_type_id":"4","last_reported":1683270365,"current_range_meters":15600,"station_id":"ce4bgup2rcd13ifvqco0","pricing_plan_id":"free"},{"bike_id":"9fea450e-7be2-464c-965c-47522ca6f115","system_id":"levelo_inurba_marseille","lat":43.309589,"lon":5.390258,"is_reserved":false,"is_disabled":false,"rental_uris":{"android":"levelo://app?vid=9fea450e-7be2-464c-965c-47522ca6f115","ios":"levelo://app?vid=9fea450e-7be2-464c-965c-47522ca6f115"},"vehicle_type_id":"4","last_reported":1683270365,"current_range_meters":28400,"station_id":"ce4bgup2rcd13ifvqco0","pricing_plan_id":"free"},{"bike_id":"58d142d1-2ad2-4767-803d-48c8539bd6cb","system_id":"levelo_inurba_marseille","lat":43.3096,"lon":5.3905,"is_reserved":false,"is_disabled":false,"rental_uris":{"android":"levelo://app?vid=58d142d1-2ad2-4767-803d-48c8539bd6cb","ios":"levelo://app?vid=58d142d1-2ad2-4767-803d-48c8539bd6cb"},"vehicle_type_id":"4","last_reported":1683270365,"current_range_meters":26800,"station_id":"ce4bgup2rcd13ifvqco0","pricing_plan_id":"free"},{"bike_id":"f673f7bd-d128-4871-b05e-22202dc16112","system_id":"levelo_inurba_marseille","lat":43.317557,"lon":5.390173,"is_reserved":false,"is_disabled":false,"rental_uris":{"android":"levelo://app?vid=f673f7bd-d128-4871-b05e-22202dc16112","ios":"levelo://app?vid=f673f7bd-d128-4871-b05e-22202dc16112"},"vehicle_type_id":"4","last_reported":1683270365,"current_range_meters":24400,"station_id":"ce4bhqp2rcd13ifvqhng","pricing_plan_id":"free"},{"bike_id":"9051c42a-d42e-4e05-a2e1-4c790310aaca","system_id":"levelo_inurba_marseille","lat":43.317557,"lon":5.390173,"is_reserved":false,"is_disabled":false,"rental_uris":{"android":"levelo://app?vid=9051c42a-d42e-4e05-a2e1-4c790310aaca","ios":"levelo://app?vid=9051c42a-d42e-4e05-a2e1-4c790310aaca"},"vehicle_type_id":"4","last_reported":1683270365,"current_range_meters":11600,"station_id":"ce4bhqp2rcd13ifvqhng","pricing_plan_id":"free"},{"bike_id":"c3b8210a-d4a1-4a25-8bb3-7ad7f39115f7","system_id":"levelo_inurba_marseille","lat":43.31756,"lon":5.39015,"is_reserved":false,"is_disabled":false,"rental_uris":{"android":"levelo://app?vid=c3b8210a-d4a1-4a25-8bb3-7ad7f39115f7","ios":"levelo://app?vid=c3b8210a-d4a1-4a25-8bb3-7ad7f39115f7"},"vehicle_type_id":"4","last_reported":1683270365,"current_range_meters":26000,"station_id":"ce4bhqp2rcd13ifvqhng","pricing_plan_id":"free"},{"bike_id":"75083129-cb37-4ae1-868b-cd09b5374176","system_id":"levelo_inurba_marseille","lat":43.317557,"lon":5.390173,"is_reserved":false,"is_disabled":false,"rental_uris":{"android":"levelo://app?vid=75083129-cb37-4ae1-868b-cd09b5374176","ios":"levelo://app?vid=75083129-cb37-4ae1-868b-cd09b5374176"},"vehicle_type_id":"4","last_reported":1683270365,"current_range_meters":20400,"station_id":"ce4bhqp2rcd13ifvqhng","pricing_plan_id":"free"},{"bike_id":"66696e3c-0692-42c1-9f12-58a4b142f4c6","system_id":"levelo_inurba_marseille","lat":43.317557,"lon":5.390173,"is_reserved":false,"is_disabled":false,"rental_uris":{"android":"levelo://app?vid=66696e3c-0692-42c1-9f12-58a4b142f4c6","ios":"levelo://app?vid=66696e3c-0692-42c1-9f12-58a4b142f4c6"},"vehicle_type_id":"4","last_reported":1683270365,"current_range_meters":24000,"station_id":"ce4bhqp2rcd13ifvqhng","pricing_plan_id":"free"},{"bike_id":"3b903444-1fcd-4fc4-ba66-b53c2bce7a02","system_id":"levelo_inurba_marseille","lat":43.317557,"lon":5.390173,"is_reserved":false,"is_disabled":false,"rental_uris":{"android":"levelo://app?vid=3b903444-1fcd-4fc4-ba66-b53c2bce7a02","ios":"levelo://app?vid=3b903444-1fcd-4fc4-ba66-b53c2bce7a02"},"vehicle_type_id":"4","last_reported":1683270365,"current_range_meters":6800,"station_id":"ce4bhqp2rcd13ifvqhng","pricing_plan_id":"free"},{"bike_id":"d3bded05-295a-4e27-816d-28fd9af6ceed","system_id":"levelo_inurba_marseille","lat":43.317557,"lon":5.390173,"is_reserved":false,"is_disabled":false,"rental_uris":{"android":"levelo://app?vid=d3bded05-295a-4e27-816d-28fd9af6ceed","ios":"levelo://app?vid=d3bded05-295a-4e27-816d-28fd9af6ceed"},"vehicle_type_id":"4","last_reported":1683270365,"current_range_meters":12000,"station_id":"ce4bhqp2rcd13ifvqhng","pricing_plan_id":"free"},{"bike_id":"fa31ede3-5c4e-40e6-9261-35c58656522d","system_id":"levelo_inurba_marseille","lat":43.31751,"lon":5.39019,"is_reserved":false,"is_disabled":false,"rental_uris":{"android":"levelo://app?vid=fa31ede3-5c4e-40e6-9261-35c58656522d","ios":"levelo://app?vid=fa31ede3-5c4e-40e6-9261-35c58656522d"},"vehicle_type_id":"4","last_reported":1683270365,"current_range_meters":19600,"station_id":"ce4bhqp2rcd13ifvqhng","pricing_plan_id":"free"},{"bike_id":"e8b9a2d6-0a3b-46b0-bd3b-f2c12574d931","system_id":"levelo_inurba_marseille","lat":43.317557,"lon":5.390173,"is_reserved":false,"is_disabled":false,"rental_uris":{"android":"levelo://app?vid=e8b9a2d6-0a3b-46b0-bd3b-f2c12574d931","ios":"levelo://app?vid=e8b9a2d6-0a3b-46b0-bd3b-f2c12574d931"},"vehicle_type_id":"4","last_reported":1683270365,"current_range_meters":30800,"station_id":"ce4bhqp2rcd13ifvqhng","pricing_plan_id":"free"},{"bike_id":"648b28d6-f324-4c3d-9b1b-608923df5df8","system_id":"levelo_inurba_marseille","lat":43.317557,"lon":5.390173,"is_reserved":false,"is_disabled":false,"rental_uris":{"android":"levelo://app?vid=648b28d6-f324-4c3d-9b1b-608923df5df8","ios":"levelo://app?vid=648b28d6-f324-4c3d-9b1b-608923df5df8"},"vehicle_type_id":"4","last_reported":1683270365,"current_range_meters":23200,"station_id":"ce4bhqp2rcd13ifvqhng","pricing_plan_id":"free"},{"bike_id":"30ff87fb-63ea-480a-a36c-1d5cddb606fa","system_id":"levelo_inurba_marseille","lat":43.317557,"lon":5.390173,"is_reserved":false,"is_disabled":false,"rental_uris":{"android":"levelo://app?vid=30ff87fb-63ea-480a-a36c-1d5cddb606fa","ios":"levelo://app?vid=30ff87fb-63ea-480a-a36c-1d5cddb606fa"},"vehicle_type_id":"4","last_reported":1683270365,"current_range_meters":2400,"station_id":"ce4bhqp2rcd13ifvqhng","pricing_plan_id":"free"},{"bike_id":"975b3a47-aa68-47d8-ae61-e7b21b8d2b3c","system_id":"levelo_inurba_marseille","lat":43.317557,"lon":5.390173,"is_reserved":false,"is_disabled":false,"rental_uris":{"android":"levelo://app?vid=975b3a47-aa68-47d8-ae61-e7b21b8d2b3c","ios":"levelo://app?vid=975b3a47-aa68-47d8-ae61-e7b21b8d2b3c"},"vehicle_type_id":"4","last_reported":1683270365,"current_range_meters":30000,"station_id":"ce4bhqp2rcd13ifvqhng","pricing_plan_id":"free"},{"bike_id":"e00888f6-99e1-4c69-986f-1e3669edea53","system_id":"levelo_inurba_marseille","lat":43.317557,"lon":5.390173,"is_reserved":false,"is_disabled":false,"rental_uris":{"android":"levelo://app?vid=e00888f6-99e1-4c69-986f-1e3669edea53","ios":"levelo://app?vid=e00888f6-99e1-4c69-986f-1e3669edea53"},"vehicle_type_id":"4","last_reported":1683270365,"current_range_meters":21600,"station_id":"ce4bhqp2rcd13ifvqhng","pricing_plan_id":"free"},{"bike_id":"8ccb50f4-bac1-4e8d-ac41-0c4d73f8c6dc","system_id":"levelo_inurba_marseille","lat":43.317557,"lon":5.390173,"is_reserved":false,"is_disabled":false,"rental_uris":{"android":"levelo://app?vid=8ccb50f4-bac1-4e8d-ac41-0c4d73f8c6dc","ios":"levelo://app?vid=8ccb50f4-bac1-4e8d-ac41-0c4d73f8c6dc"},"vehicle_type_id":"4","last_reported":1683270365,"current_range_meters":28400,"station_id":"ce4bhqp2rcd13ifvqhng","pricing_plan_id":"free"},{"bike_id":"60ef946b-9459-4a60-b71e-9a93871770e0","system_id":"levelo_inurba_marseille","lat":43.31754,"lon":5.39022,"is_reserved":false,"is_disabled":false,"rental_uris":{"android":"levelo://app?vid=60ef946b-9459-4a60-b71e-9a93871770e0","ios":"levelo://app?vid=60ef946b-9459-4a60-b71e-9a93871770e0"},"vehicle_type_id":"4","last_reported":1683270365,"current_range_meters":17600,"station_id":"ce4bhqp2rcd13ifvqhng","pricing_plan_id":"free"},{"bike_id":"77f34d79-51d0-4db3-ab3a-5aec4d75e78b","system_id":"levelo_inurba_marseille","lat":43.317557,"lon":5.390173,"is_reserved":false,"is_disabled":false,"rental_uris":{"android":"levelo://app?vid=77f34d79-51d0-4db3-ab3a-5aec4d75e78b","ios":"levelo://app?vid=77f34d79-51d0-4db3-ab3a-5aec4d75e78b"},"vehicle_type_id":"4","last_reported":1683270365,"current_range_meters":23600,"station_id":"ce4bhqp2rcd13ifvqhng","pricing_plan_id":"free"},{"bike_id":"2a4985c2-ec3b-44a5-a620-41de3bc76514","system_id":"levelo_inurba_marseille","lat":43.317557,"lon":5.390173,"is_reserved":false,"is_disabled":false,"rental_uris":{"android":"levelo://app?vid=2a4985c2-ec3b-44a5-a620-41de3bc76514","ios":"levelo://app?vid=2a4985c2-ec3b-44a5-a620-41de3bc76514"},"vehicle_type_id":"4","last_reported":1683270365,"current_range_meters":16800,"station_id":"ce4bhqp2rcd13ifvqhng","pricing_plan_id":"free"},{"bike_id":"dc32e931-93a3-495f-9302-d19cf481cc88","system_id":"levelo_inurba_marseille","lat":43.296277,"lon":5.377108,"is_reserved":false,"is_disabled":false,"rental_uris":{"android":"levelo://app?vid=dc32e931-93a3-495f-9302-d19cf481cc88","ios":"levelo://app?vid=dc32e931-93a3-495f-9302-d19cf481cc88"},"vehicle_type_id":"4","last_reported":1683270365,"current_range_meters":12400,"station_id":"ce4bgi92rcd13ifvqb90","pricing_plan_id":"free"},{"bike_id":"276266a1-96a5-4dc3-9791-f373717e7878","system_id":"levelo_inurba_marseille","lat":43.295748,"lon":5.37522,"is_reserved":false,"is_disabled":false,"rental_uris":{"android":"levelo://app?vid=276266a1-96a5-4dc3-9791-f373717e7878","ios":"levelo://app?vid=276266a1-96a5-4dc3-9791-f373717e7878"},"vehicle_type_id":"4","last_reported":1683270365,"current_range_meters":28400,"station_id":"ce4bgh92rcd13ifvqb50","pricing_plan_id":"free"},{"bike_id":"c4de6482-dfe7-4829-a06a-1c380c245089","system_id":"levelo_inurba_marseille","lat":43.30446,"lon":5.38897,"is_reserved":false,"is_disabled":false,"rental_uris":{"android":"levelo://app?vid=c4de6482-dfe7-4829-a06a-1c380c245089","ios":"levelo://app?vid=c4de6482-dfe7-4829-a06a-1c380c245089"},"vehicle_type_id":"4","last_reported":1683270365,"current_range_meters":8800,"station_id":"ce4bgk12rcd13ifvqbi0","pricing_plan_id":"free"},{"bike_id":"109aa253-caa9-481d-b7c1-4f6c0fbf0b7c","system_id":"levelo_inurba_marseille","lat":43.295748,"lon":5.37522,"is_reserved":false,"is_disabled":false,"rental_uris":{"android":"levelo://app?vid=109aa253-caa9-481d-b7c1-4f6c0fbf0b7c","ios":"levelo://app?vid=109aa253-caa9-481d-b7c1-4f6c0fbf0b7c"},"vehicle_type_id":"4","last_reported":1683270365,"current_range_meters":28800,"station_id":"ce4bgh92rcd13ifvqb50","pricing_plan_id":"free"},{"bike_id":"7834abfe-2897-484d-9f92-c91465c0cc79","system_id":"levelo_inurba_marseille","lat":43.30443,"lon":5.38896,"is_reserved":false,"is_disabled":false,"rental_uris":{"android":"levelo://app?vid=7834abfe-2897-484d-9f92-c91465c0cc79","ios":"levelo://app?vid=7834abfe-2897-484d-9f92-c91465c0cc79"},"vehicle_type_id":"4","last_reported":1683270365,"current_range_meters":27200,"station_id":"ce4bgk12rcd13ifvqbi0","pricing_plan_id":"free"},{"bike_id":"9edd70d1-f7e0-4302-8caa-590a6a18abe7","system_id":"levelo_inurba_marseille","lat":43.295748,"lon":5.37522,"is_reserved":false,"is_disabled":false,"rental_uris":{"android":"levelo://app?vid=9edd70d1-f7e0-4302-8caa-590a6a18abe7","ios":"levelo://app?vid=9edd70d1-f7e0-4302-8caa-590a6a18abe7"},"vehicle_type_id":"4","last_reported":1683270365,"current_range_meters":17600,"station_id":"ce4bgh92rcd13ifvqb50","pricing_plan_id":"free"},{"bike_id":"07e4a069-7dda-49b3-90ae-cb39b86ecca6","system_id":"levelo_inurba_marseille","lat":43.295748,"lon":5.37522,"is_reserved":false,"is_disabled":false,"rental_uris":{"android":"levelo://app?vid=07e4a069-7dda-49b3-90ae-cb39b86ecca6","ios":"levelo://app?vid=07e4a069-7dda-49b3-90ae-cb39b86ecca6"},"vehicle_type_id":"4","last_reported":1683270365,"current_range_meters":10800,"station_id":"ce4bgh92rcd13ifvqb50","pricing_plan_id":"free"},{"bike_id":"e725a2cd-24c3-4701-b301-2a064366c679","system_id":"levelo_inurba_marseille","lat":43.3044,"lon":5.38896,"is_reserved":false,"is_disabled":false,"rental_uris":{"android":"levelo://app?vid=e725a2cd-24c3-4701-b301-2a064366c679","ios":"levelo://app?vid=e725a2cd-24c3-4701-b301-2a064366c679"},"vehicle_type_id":"4","last_reported":1683270365,"current_range_meters":10400,"station_id":"ce4bgk12rcd13ifvqbi0","pricing_plan_id":"free"},{"bike_id":"645477d6-4c8f-48d0-829b-a673407d2ed1","system_id":"levelo_inurba_marseille","lat":43.295748,"lon":5.37522,"is_reserved":false,"is_disabled":false,"rental_uris":{"android":"levelo://app?vid=645477d6-4c8f-48d0-829b-a673407d2ed1","ios":"levelo://app?vid=645477d6-4c8f-48d0-829b-a673407d2ed1"},"vehicle_type_id":"4","last_reported":1683270365,"current_range_meters":27200,"station_id":"ce4bgh92rcd13ifvqb50","pricing_plan_id":"free"},{"bike_id":"d012c1c9-b06f-4549-934b-5a55c4f50b6d","system_id":"levelo_inurba_marseille","lat":43.295748,"lon":5.37522,"is_reserved":false,"is_disabled":false,"rental_uris":{"android":"levelo://app?vid=d012c1c9-b06f-4549-934b-5a55c4f50b6d","ios":"levelo://app?vid=d012c1c9-b06f-4549-934b-5a55c4f50b6d"},"vehicle_type_id":"4","last_reported":1683270365,"current_range_meters":26800,"station_id":"ce4bgh92rcd13ifvqb50","pricing_plan_id":"free"},{"bike_id":"749706f0-02c7-4fa8-9d20-098665c81008","system_id":"levelo_inurba_marseille","lat":43.295748,"lon":5.37522,"is_reserved":false,"is_disabled":false,"rental_uris":{"android":"levelo://app?vid=749706f0-02c7-4fa8-9d20-098665c81008","ios":"levelo://app?vid=749706f0-02c7-4fa8-9d20-098665c81008"},"vehicle_type_id":"4","last_reported":1683270365,"current_range_meters":26800,"station_id":"ce4bgh92rcd13ifvqb50","pricing_plan_id":"free"},{"bike_id":"c2f23d28-9af9-4d45-8393-96710c4edc16","system_id":"levelo_inurba_marseille","lat":43.295748,"lon":5.37522,"is_reserved":false,"is_disabled":false,"rental_uris":{"android":"levelo://app?vid=c2f23d28-9af9-4d45-8393-96710c4edc16","ios":"levelo://app?vid=c2f23d28-9af9-4d45-8393-96710c4edc16"},"vehicle_type_id":"4","last_reported":1683270365,"current_range_meters":18400,"station_id":"ce4bgh92rcd13ifvqb50","pricing_plan_id":"free"},{"bike_id":"0f4533f5-fb06-477b-86b1-345f9cfce89b","system_id":"levelo_inurba_marseille","lat":43.296277,"lon":5.377108,"is_reserved":false,"is_disabled":false,"rental_uris":{"android":"levelo://app?vid=0f4533f5-fb06-477b-86b1-345f9cfce89b","ios":"levelo://app?vid=0f4533f5-fb06-477b-86b1-345f9cfce89b"},"vehicle_type_id":"4","last_reported":1683270365,"current_range_meters":18000,"station_id":"ce4bgi92rcd13ifvqb90","pricing_plan_id":"free"},{"bike_id":"fa516ec1-acc2-4bd1-a6bf-a50dcaec487a","system_id":"levelo_inurba_marseille","lat":43.296277,"lon":5.377108,"is_reserved":false,"is_disabled":false,"rental_uris":{"android":"levelo://app?vid=fa516ec1-acc2-4bd1-a6bf-a50dcaec487a","ios":"levelo://app?vid=fa516ec1-acc2-4bd1-a6bf-a50dcaec487a"},"vehicle_type_id":"4","last_reported":1683270365,"current_range_meters":30000,"station_id":"ce4bgi92rcd13ifvqb90","pricing_plan_id":"free"},{"bike_id":"b230eb9c-358a-4368-a2e9-c14c89e81c7a","system_id":"levelo_inurba_marseille","lat":43.296277,"lon":5.377108,"is_reserved":false,"is_disabled":false,"rental_uris":{"android":"levelo://app?vid=b230eb9c-358a-4368-a2e9-c14c89e81c7a","ios":"levelo://app?vid=b230eb9c-358a-4368-a2e9-c14c89e81c7a"},"vehicle_type_id":"4","last_reported":1683270365,"current_range_meters":30400,"station_id":"ce4bgi92rcd13ifvqb90","pricing_plan_id":"free"},{"bike_id":"5e44f5af-2575-452c-a8d9-a2b9ca7c04a8","system_id":"levelo_inurba_marseille","lat":43.295279,"lon":5.375048,"is_reserved":false,"is_disabled":false,"rental_uris":{"android":"levelo://app?vid=5e44f5af-2575-452c-a8d9-a2b9ca7c04a8","ios":"levelo://app?vid=5e44f5af-2575-452c-a8d9-a2b9ca7c04a8"},"vehicle_type_id":"4","last_reported":1683270365,"current_range_meters":24000,"station_id":"ce4bgkp2rcd13ifvqbmg","pricing_plan_id":"free"},{"bike_id":"c8531503-67b4-497c-99c8-c135a9d62d46","system_id":"levelo_inurba_marseille","lat":43.295279,"lon":5.375048,"is_reserved":false,"is_disabled":false,"rental_uris":{"android":"levelo://app?vid=c8531503-67b4-497c-99c8-c135a9d62d46","ios":"levelo://app?vid=c8531503-67b4-497c-99c8-c135a9d62d46"},"vehicle_type_id":"4","last_reported":1683270365,"current_range_meters":31200,"station_id":"ce4bgkp2rcd13ifvqbmg","pricing_plan_id":"free"},{"bike_id":"8091b63b-2533-406a-97e7-ad01c3e75db8","system_id":"levelo_inurba_marseille","lat":43.295279,"lon":5.375048,"is_reserved":false,"is_disabled":false,"rental_uris":{"android":"levelo://app?vid=8091b63b-2533-406a-97e7-ad01c3e75db8","ios":"levelo://app?vid=8091b63b-2533-406a-97e7-ad01c3e75db8"},"vehicle_type_id":"4","last_reported":1683270365,"current_range_meters":30400,"station_id":"ce4bgkp2rcd13ifvqbmg","pricing_plan_id":"free"},{"bike_id":"0698e9c6-4fa9-4377-8ea0-0bbc77d62569","system_id":"levelo_inurba_marseille","lat":43.295279,"lon":5.375048,"is_reserved":false,"is_disabled":false,"rental_uris":{"android":"levelo://app?vid=0698e9c6-4fa9-4377-8ea0-0bbc77d62569","ios":"levelo://app?vid=0698e9c6-4fa9-4377-8ea0-0bbc77d62569"},"vehicle_type_id":"4","last_reported":1683270365,"current_range_meters":23600,"station_id":"ce4bgkp2rcd13ifvqbmg","pricing_plan_id":"free"},{"bike_id":"38705da5-82c2-454c-8bde-c79d6ab3062f","system_id":"levelo_inurba_marseille","lat":43.295279,"lon":5.375048,"is_reserved":false,"is_disabled":false,"rental_uris":{"android":"levelo://app?vid=38705da5-82c2-454c-8bde-c79d6ab3062f","ios":"levelo://app?vid=38705da5-82c2-454c-8bde-c79d6ab3062f"},"vehicle_type_id":"4","last_reported":1683270365,"current_range_meters":2800,"station_id":"ce4bgkp2rcd13ifvqbmg","pricing_plan_id":"free"},{"bike_id":"67eba0ea-03dc-4b66-8729-f01ac32a4986","system_id":"levelo_inurba_marseille","lat":43.299707,"lon":5.384859,"is_reserved":false,"is_disabled":false,"rental_uris":{"android":"levelo://app?vid=67eba0ea-03dc-4b66-8729-f01ac32a4986","ios":"levelo://app?vid=67eba0ea-03dc-4b66-8729-f01ac32a4986"},"vehicle_type_id":"4","last_reported":1683270365,"current_range_meters":1200,"station_id":"ce4bgj92rcd13ifvqbd0","pricing_plan_id":"free"},{"bike_id":"4a824dcf-cc2b-4f72-ac56-e803ef9906b6","system_id":"levelo_inurba_marseille","lat":43.295279,"lon":5.375048,"is_reserved":false,"is_disabled":false,"rental_uris":{"android":"levelo://app?vid=4a824dcf-cc2b-4f72-ac56-e803ef9906b6","ios":"levelo://app?vid=4a824dcf-cc2b-4f72-ac56-e803ef9906b6"},"vehicle_type_id":"4","last_reported":1683270365,"current_range_meters":24800,"station_id":"ce4bgkp2rcd13ifvqbmg","pricing_plan_id":"free"},{"bike_id":"e9e7bea7-a227-44c9-8a28-aa24cebdb331","system_id":"levelo_inurba_marseille","lat":43.307933,"lon":5.392137,"is_reserved":false,"is_disabled":false,"rental_uris":{"android":"levelo://app?vid=e9e7bea7-a227-44c9-8a28-aa24cebdb331","ios":"levelo://app?vid=e9e7bea7-a227-44c9-8a28-aa24cebdb331"},"vehicle_type_id":"4","last_reported":1683270365,"current_range_meters":21600,"station_id":"","pricing_plan_id":"free"},{"bike_id":"666b1ac4-c9e9-48ca-8db2-a4599ac7324f","system_id":"levelo_inurba_marseille","lat":43.293249,"lon":5.371578,"is_reserved":false,"is_disabled":false,"rental_uris":{"android":"levelo://app?vid=666b1ac4-c9e9-48ca-8db2-a4599ac7324f","ios":"levelo://app?vid=666b1ac4-c9e9-48ca-8db2-a4599ac7324f"},"vehicle_type_id":"4","last_reported":1683270365,"current_range_meters":20000,"station_id":"ce4bgh92rcd13ifvqb40","pricing_plan_id":"free"},{"bike_id":"f49e6763-4a50-4048-bbb4-3764af545dcc","system_id":"levelo_inurba_marseille","lat":43.293249,"lon":5.371578,"is_reserved":false,"is_disabled":false,"rental_uris":{"android":"levelo://app?vid=f49e6763-4a50-4048-bbb4-3764af545dcc","ios":"levelo://app?vid=f49e6763-4a50-4048-bbb4-3764af545dcc"},"vehicle_type_id":"4","last_reported":1683270365,"current_range_meters":26000,"station_id":"ce4bgh92rcd13ifvqb40","pricing_plan_id":"free"},{"bike_id":"1d9f175b-7e66-402d-84fd-a4a75076a5e3","system_id":"levelo_inurba_marseille","lat":43.293249,"lon":5.371578,"is_reserved":false,"is_disabled":false,"rental_uris":{"android":"levelo://app?vid=1d9f175b-7e66-402d-84fd-a4a75076a5e3","ios":"levelo://app?vid=1d9f175b-7e66-402d-84fd-a4a75076a5e3"},"vehicle_type_id":"4","last_reported":1683270365,"current_range_meters":28000,"station_id":"ce4bgh92rcd13ifvqb40","pricing_plan_id":"free"},{"bike_id":"162f0cf8-bdaf-4c57-8799-4573dc2eabb3","system_id":"levelo_inurba_marseille","lat":43.292749,"lon":5.368402,"is_reserved":false,"is_disabled":false,"rental_uris":{"android":"levelo://app?vid=162f0cf8-bdaf-4c57-8799-4573dc2eabb3","ios":"levelo://app?vid=162f0cf8-bdaf-4c57-8799-4573dc2eabb3"},"vehicle_type_id":"4","last_reported":1683270365,"current_range_meters":16800,"station_id":"ce4bhbp2rcd13ifvqesg","pricing_plan_id":"free"},{"bike_id":"bca18c79-4eb4-44e9-954b-951bc4121088","system_id":"levelo_inurba_marseille","lat":43.292749,"lon":5.368402,"is_reserved":false,"is_disabled":false,"rental_uris":{"android":"levelo://app?vid=bca18c79-4eb4-44e9-954b-951bc4121088","ios":"levelo://app?vid=bca18c79-4eb4-44e9-954b-951bc4121088"},"vehicle_type_id":"4","last_reported":1683270365,"current_range_meters":12000,"station_id":"ce4bhbp2rcd13ifvqesg","pricing_plan_id":"free"},{"bike_id":"9ab82089-74fc-4c57-853a-e3c5c48e8d87","system_id":"levelo_inurba_marseille","lat":43.292749,"lon":5.368402,"is_reserved":false,"is_disabled":false,"rental_uris":{"android":"levelo://app?vid=9ab82089-74fc-4c57-853a-e3c5c48e8d87","ios":"levelo://app?vid=9ab82089-74fc-4c57-853a-e3c5c48e8d87"},"vehicle_type_id":"4","last_reported":1683270365,"current_range_meters":26000,"station_id":"ce4bhbp2rcd13ifvqesg","pricing_plan_id":"free"},{"bike_id":"d6faf34b-b11b-4b70-bde1-72d07cd40214","system_id":"levelo_inurba_marseille","lat":43.292749,"lon":5.368402,"is_reserved":false,"is_disabled":false,"rental_uris":{"android":"levelo://app?vid=d6faf34b-b11b-4b70-bde1-72d07cd40214","ios":"levelo://app?vid=d6faf34b-b11b-4b70-bde1-72d07cd40214"},"vehicle_type_id":"4","last_reported":1683270365,"current_range_meters":21200,"station_id":"ce4bhbp2rcd13ifvqesg","pricing_plan_id":"free"},{"bike_id":"dc8cf246-2401-420d-9680-492388a24db9","system_id":"levelo_inurba_marseille","lat":43.292749,"lon":5.368402,"is_reserved":false,"is_disabled":false,"rental_uris":{"android":"levelo://app?vid=dc8cf246-2401-420d-9680-492388a24db9","ios":"levelo://app?vid=dc8cf246-2401-420d-9680-492388a24db9"},"vehicle_type_id":"4","last_reported":1683270365,"current_range_meters":18800,"station_id":"ce4bhbp2rcd13ifvqesg","pricing_plan_id":"free"},{"bike_id":"76db4276-e9be-4674-ab44-4948466bfc98","system_id":"levelo_inurba_marseille","lat":43.305997,"lon":5.393405,"is_reserved":false,"is_disabled":false,"rental_uris":{"android":"levelo://app?vid=76db4276-e9be-4674-ab44-4948466bfc98","ios":"levelo://app?vid=76db4276-e9be-4674-ab44-4948466bfc98"},"vehicle_type_id":"4","last_reported":1683270365,"current_range_meters":4400,"station_id":"ce4bh0p2rcd13ifvqd80","pricing_plan_id":"free"},{"bike_id":"13f34ab5-a0d1-4693-a83e-b8c87ade97a3","system_id":"levelo_inurba_marseille","lat":43.31243,"lon":5.395,"is_reserved":false,"is_disabled":false,"rental_uris":{"android":"levelo://app?vid=13f34ab5-a0d1-4693-a83e-b8c87ade97a3","ios":"levelo://app?vid=13f34ab5-a0d1-4693-a83e-b8c87ade97a3"},"vehicle_type_id":"4","last_reported":1683270365,"current_range_meters":14000,"station_id":"","pricing_plan_id":"free"},{"bike_id":"c66e0c8f-0e5b-4048-a289-c26405c31754","system_id":"levelo_inurba_marseille","lat":43.30596,"lon":5.39348,"is_reserved":false,"is_disabled":false,"rental_uris":{"android":"levelo://app?vid=c66e0c8f-0e5b-4048-a289-c26405c31754","ios":"levelo://app?vid=c66e0c8f-0e5b-4048-a289-c26405c31754"},"vehicle_type_id":"4","last_reported":1683270365,"current_range_meters":28000,"station_id":"ce4bh0p2rcd13ifvqd80","pricing_plan_id":"free"},{"bike_id":"a3d2f3a5-ad74-467e-9f8c-fc58d1ee1324","system_id":"levelo_inurba_marseille","lat":43.305994,"lon":5.393687,"is_reserved":false,"is_disabled":false,"rental_uris":{"android":"levelo://app?vid=a3d2f3a5-ad74-467e-9f8c-fc58d1ee1324","ios":"levelo://app?vid=a3d2f3a5-ad74-467e-9f8c-fc58d1ee1324"},"vehicle_type_id":"4","last_reported":1683270365,"current_range_meters":31200,"station_id":"ce4bh0p2rcd13ifvqd80","pricing_plan_id":"free"},{"bike_id":"3595b0ac-504f-4d11-8be4-fb9115cecdbf","system_id":"levelo_inurba_marseille","lat":43.30604,"lon":5.39354,"is_reserved":false,"is_disabled":false,"rental_uris":{"android":"levelo://app?vid=3595b0ac-504f-4d11-8be4-fb9115cecdbf","ios":"levelo://app?vid=3595b0ac-504f-4d11-8be4-fb9115cecdbf"},"vehicle_type_id":"4","last_reported":1683270365,"current_range_meters":25200,"station_id":"ce4bh0p2rcd13ifvqd80","pricing_plan_id":"free"},{"bike_id":"7b1d34c1-d5b2-4777-8855-bd816251ac55","system_id":"levelo_inurba_marseille","lat":43.305994,"lon":5.393687,"is_reserved":false,"is_disabled":false,"rental_uris":{"android":"levelo://app?vid=7b1d34c1-d5b2-4777-8855-bd816251ac55","ios":"levelo://app?vid=7b1d34c1-d5b2-4777-8855-bd816251ac55"},"vehicle_type_id":"4","last_reported":1683270365,"current_range_meters":26000,"station_id":"ce4bh0p2rcd13ifvqd80","pricing_plan_id":"free"},{"bike_id":"39134331-5f01-4913-b771-f21706bab9b8","system_id":"levelo_inurba_marseille","lat":43.30604,"lon":5.39359,"is_reserved":false,"is_disabled":false,"rental_uris":{"android":"levelo://app?vid=39134331-5f01-4913-b771-f21706bab9b8","ios":"levelo://app?vid=39134331-5f01-4913-b771-f21706bab9b8"},"vehicle_type_id":"4","last_reported":1683270365,"current_range_meters":24800,"station_id":"ce4bh0p2rcd13ifvqd80","pricing_plan_id":"free"},{"bike_id":"e9d48fb3-a8c3-470e-89e5-ddf7fd91f27b","system_id":"levelo_inurba_marseille","lat":43.30606,"lon":5.39362,"is_reserved":false,"is_disabled":false,"rental_uris":{"android":"levelo://app?vid=e9d48fb3-a8c3-470e-89e5-ddf7fd91f27b","ios":"levelo://app?vid=e9d48fb3-a8c3-470e-89e5-ddf7fd91f27b"},"vehicle_type_id":"4","last_reported":1683270365,"current_range_meters":26800,"station_id":"ce4bh0p2rcd13ifvqd80","pricing_plan_id":"free"},{"bike_id":"a930992d-eb83-4fa8-8ac0-ca65a073e2c4","system_id":"levelo_inurba_marseille","lat":43.305994,"lon":5.393687,"is_reserved":false,"is_disabled":false,"rental_uris":{"android":"levelo://app?vid=a930992d-eb83-4fa8-8ac0-ca65a073e2c4","ios":"levelo://app?vid=a930992d-eb83-4fa8-8ac0-ca65a073e2c4"},"vehicle_type_id":"4","last_reported":1683270365,"current_range_meters":28400,"station_id":"ce4bh0p2rcd13ifvqd80","pricing_plan_id":"free"},{"bike_id":"822e0eb0-03bd-4dbc-a80d-5dfb5898d93a","system_id":"levelo_inurba_marseille","lat":43.305994,"lon":5.393687,"is_reserved":false,"is_disabled":false,"rental_uris":{"android":"levelo://app?vid=822e0eb0-03bd-4dbc-a80d-5dfb5898d93a","ios":"levelo://app?vid=822e0eb0-03bd-4dbc-a80d-5dfb5898d93a"},"vehicle_type_id":"4","last_reported":1683270365,"current_range_meters":28400,"station_id":"ce4bh0p2rcd13ifvqd80","pricing_plan_id":"free"},{"bike_id":"92a36420-f7dc-499f-87fd-b0c22102b567","system_id":"levelo_inurba_marseille","lat":43.293009,"lon":5.374584,"is_reserved":false,"is_disabled":false,"rental_uris":{"android":"levelo://app?vid=92a36420-f7dc-499f-87fd-b0c22102b567","ios":"levelo://app?vid=92a36420-f7dc-499f-87fd-b0c22102b567"},"vehicle_type_id":"4","last_reported":1683270365,"current_range_meters":29600,"station_id":"ce4bgi12rcd13ifvqb70","pricing_plan_id":"free"},{"bike_id":"20136fa2-8bb9-4ce0-b160-cd1e057606f7","system_id":"levelo_inurba_marseille","lat":43.30584,"lon":5.39357,"is_reserved":false,"is_disabled":false,"rental_uris":{"android":"levelo://app?vid=20136fa2-8bb9-4ce0-b160-cd1e057606f7","ios":"levelo://app?vid=20136fa2-8bb9-4ce0-b160-cd1e057606f7"},"vehicle_type_id":"4","last_reported":1683270365,"current_range_meters":28800,"station_id":"ce4bh0p2rcd13ifvqd80","pricing_plan_id":"free"},{"bike_id":"e5f49583-5a68-46ce-af22-fdbf29674df9","system_id":"levelo_inurba_marseille","lat":43.30591,"lon":5.39361,"is_reserved":false,"is_disabled":false,"rental_uris":{"android":"levelo://app?vid=e5f49583-5a68-46ce-af22-fdbf29674df9","ios":"levelo://app?vid=e5f49583-5a68-46ce-af22-fdbf29674df9"},"vehicle_type_id":"4","last_reported":1683270365,"current_range_meters":23600,"station_id":"ce4bh0p2rcd13ifvqd80","pricing_plan_id":"free"},{"bike_id":"df9aa8cf-c88c-45d0-90b3-ffd8e00e6d54","system_id":"levelo_inurba_marseille","lat":43.2936,"lon":5.37835,"is_reserved":false,"is_disabled":false,"rental_uris":{"android":"levelo://app?vid=df9aa8cf-c88c-45d0-90b3-ffd8e00e6d54","ios":"levelo://app?vid=df9aa8cf-c88c-45d0-90b3-ffd8e00e6d54"},"vehicle_type_id":"4","last_reported":1683270365,"current_range_meters":24400,"station_id":"ce4bgjh2rcd13ifvqbf0","pricing_plan_id":"free"},