{"last_updated":1718399304,"ttl":30,"version":"2.2","data":{"bikes":[{"bike_id":"aaa9731e-e8b3-403d-9e83-aba53df8a80e","system_id":"levelo_inurba_marseille","lat":43.312173,"lon":5.36843,"is_reserved":false,"is_disabled":false,"rental_uris":{"android":"levelo://app?vid=aaa9731e-e8b3-403d-9e83-aba53df8a80e","ios":"levelo://app?vid=aaa9731e-e8b3-403d-9e83-aba53df8a80e"},"vehicle_type_id":"4","last_reported":1718399304,"current_range_meters":0,"station_id":"ce4bgl92rcd13ifvqbq0","pricing_plan_id":"cebpf4jnsgd1na2vs0mg"},{"bike_id":"4e2ca340-bfa2-4a6b-9377-3fb9084646ec","system_id":"levelo_inurba_marseille","lat":43.312239,"lon":5.368562,"is_reserved":false,"is_disabled":false,"rental_uris":{"android":"levelo://app?vid=4e2ca340-bfa2-4a6b-9377-3fb9084646ec","ios":"levelo://app?vid=4e2ca340-bfa2-4a6b-9377-3fb9084646ec"},"vehicle_type_id":"4","last_reported":1718399304,"current_range_meters":11200,"station_id":"ce4bgl92rcd13ifvqbq0","pricing_plan_id":"cebpf4jnsgd1na2vs0mg"},{"bike_id":"a0c1f117-3b8c-433c-a7ae-bdb76b4b5f46","system_id":"levelo_inurba_marseille","lat":43.312239,"lon":5.368562,"is_reserved":false,"is_disabled":false,"rental_uris":{"android":"levelo://app?vid=a0c1f117-3b8c-433c-a7ae-bdb76b4b5f46","ios":"levelo://app?vid=a0c1f117-3b8c-433c-a7ae-bdb76b4b5f46"},"vehicle_type_id":"4","last_reported":1718399304,"current_range_meters":24000,"station_id":"ce4bgl92rcd13ifvqbq0","pricing_plan_id":"cebpf4jnsgd1na2vs0mg"},{"bike_id":"f5f91b47-e925-4618-bc9c-5317fcb7d817","system_id":"levelo_inurba_marseille","lat":43.309076,"lon":5.368465,"is_reserved":false,"is_disabled":false,"rental_uris":{"android":"levelo://app?vid=f5f91b47-e925-4618-bc9c-5317fcb7d817","ios":"levelo://app?vid=f5f91b47-e925-4618-bc9c-5317fcb7d817"},"vehicle_type_id":"4","last_reported":1718399304,"current_range_meters":12000,"station_id":"ce4bgn92rcd13ifvqbvg","pricing_plan_id":"cebpf4jnsgd1na2vs0mg"},{"bike_id":"fdc0232f-9930-4700-b577-cad4c20d7a98","system_id":"levelo_inurba_marseille","lat":43.31744,"lon":5.36867,"is_reserved":false,"is_disabled":false,"rental_uris":{"android":"levelo://app?vid=fdc0232f-9930-4700-b577-cad4c20d7a98","ios":"levelo://app?vid=fdc0232f-9930-4700-b577-cad4c20d7a98"},"vehicle_type_id":"4","last_reported":1718399304,"current_range_meters":0,"station_id":"","pricing_plan_id":"cebpf4jnsgd1na2vs0mg"},{"bike_id":"1af3649d-550c-453b-934a-17b08b6b3691","system_id":"levelo_inurba_marseille","lat":43.31495,"lon":5.37306,"is_reserved":false,"is_disabled":false,"rental_uris":{"android":"levelo://app?vid=1af3649d-550c-453b-934a-17b08b6b3691","ios":"levelo://app?vid=1af3649d-550c-453b-934a-17b08b6b3691"},"vehicle_type_id":"4","last_reported":1718399304,"current_range_meters":0,"station_id":"ce4bgt12rcd13ifvqcd0","pricing_plan_id":"cebpf4jnsgd1na2vs0mg"},{"bike_id":"80f9dae3-1bd4-489d-93a6-3f106e71025c","system_id":"levelo_inurba_marseille","lat":43.314811,"lon":5.373103,"is_reserved":false,"is_disabled":false,"rental_uris":{"android":"levelo://app?vid=80f9dae3-1bd4-489d-93a6-3f106e71025c","ios":"levelo://app?vid=80f9dae3-1bd4-489d-93a6-3f106e71025c"},"vehicle_type_id":"4","last_reported":1718399304,"current_range_meters":21600,"station_id":"ce4bgt12rcd13ifvqcd0","pricing_plan_id":"cebpf4jnsgd1na2vs0mg"},{"bike_id":"52961b16-b043-4eec-ba22-2586874d7d00","system_id":"levelo_inurba_marseille","lat":43.30554,"lon":5.3656,"is_reserved":false,"is_disabled":false,"rental_uris":{"android":"levelo://app?vid=52961b16-b043-4eec-ba22-2586874d7d00","ios":"levelo://app?vid=52961b16-b043-4eec-ba22-2586874d7d00"},"vehicle_type_id":"4","last_reported":1718399304,"current_range_meters":3600,"station_id":"ce4bgs12rcd13ifvqcag","pricing_plan_id":"cebpf4jnsgd1na2vs0mg"},{"bike_id":"7a9fb82a-71dd-4b08-b411-c9a522b8859c","system_id":"levelo_inurba_marseille","lat":43.30544,"lon":5.36715,"is_reserved":false,"is_disabled":false,"rental_uris":{"android":"levelo://app?vid=7a9fb82a-71dd-4b08-b411-c9a522b8859c","ios":"levelo://app?vid=7a9fb82a-71dd-4b08-b411-c9a522b8859c"},"vehicle_type_id":"4","last_reported":1718399304,"current_range_meters":20400,"station_id":"ce4bgrp2rcd13ifvqc9g","pricing_plan_id":"cebpf4jnsgd1na2vs0mg"},{"bike_id":"e12c415a-9b04-4541-a692-744407b4bb2f","system_id":"levelo_inurba_marseille","lat":43.30537,"lon":5.367345,"is_reserved":false,"is_disabled":false,"rental_uris":{"android":"levelo://app?vid=e12c415a-9b04-4541-a692-744407b4bb2f","ios":"levelo://app?vid=e12c415a-9b04-4541-a692-744407b4bb2f"},"vehicle_type_id":"4","last_reported":1718399304,"current_range_meters":10800,"station_id":"ce4bgrp2rcd13ifvqc9g","pricing_plan_id":"cebpf4jnsgd1na2vs0mg"},{"bike_id":"b2bab986-d55c-43a6-87e0-f50507f916b1","system_id":"levelo_inurba_marseille","lat":43.305989,"lon":5.37225,"is_reserved":false,"is_disabled":false,"rental_uris":{"android":"levelo://app?vid=b2bab986-d55c-43a6-87e0-f50507f916b1","ios":"levelo://app?vid=b2bab986-d55c-43a6-87e0-f50507f916b1"},"vehicle_type_id":"4","last_reported":1718399304,"current_range_meters":16800,"station_id":"ce4bgqh2rcd13ifvqc4g","pricing_plan_id":"cebpf4jnsgd1na2vs0mg"},{"bike_id":"b8cf15ef-52f9-4e47-8017-c30002300564","system_id":"levelo_inurba_marseille","lat":43.311131,"lon":5.377651,"is_reserved":false,"is_disabled":false,"rental_uris":{"android":"levelo://app?vid=b8cf15ef-52f9-4e47-8017-c30002300564","ios":"levelo://app?vid=b8cf15ef-52f9-4e47-8017-c30002300564"},"vehicle_type_id":"4","last_reported":1718399304,"current_range_meters":12800,"station_id":"ce4bgt92rcd13ifvqcg0","pricing_plan_id":"cebpf4jnsgd1na2vs0mg"},{"bike_id":"25d68a41-a2dc-4401-b876-d0ca4b5297e3","system_id":"levelo_inurba_marseille","lat":43.311215,"lon":5.377705,"is_reserved":false,"is_disabled":false,"rental_uris":{"android":"levelo://app?vid=25d68a41-a2dc-4401-b876-d0ca4b5297e3","ios":"levelo://app?vid=25d68a41-a2dc-4401-b876-d0ca4b5297e3"},"vehicle_type_id":"4","last_reported":1718399304,"current_range_meters":14000,"station_id":"ce4bgt92rcd13ifvqcg0","pricing_plan_id":"cebpf4jnsgd1na2vs0mg"},{"bike_id":"3ea7b944-3536-4d68-9088-07b62d2d97e3","system_id":"levelo_inurba_marseille","lat":43.31114,"lon":5.377693,"is_reserved":false,"is_disabled":false,"rental_uris":{"android":"levelo://app?vid=3ea7b944-3536-4d68-9088-07b62d2d97e3","ios":"levelo://app?vid=3ea7b944-3536-4d68-9088-07b62d2d97e3"},"vehicle_type_id":"4","last_reported":1718399304,"current_range_meters":0,"station_id":"ce4bgt92rcd13ifvqcg0","pricing_plan_id":"cebpf4jnsgd1na2vs0mg"},{"bike_id":"7c32bafc-5f8a-473b-9ee0-7327bdf79d8d","system_id":"levelo_inurba_marseille","lat":43.311131,"lon":5.377651,"is_reserved":false,"is_disabled":false,"rental_uris":{"android":"levelo://app?vid=7c32bafc-5f8a-473b-9ee0-7327bdf79d8d","ios":"levelo://app?vid=7c32bafc-5f8a-473b-9ee0-7327bdf79d8d"},"vehicle_type_id":"4","last_reported":1718399304,"current_range_meters":2800,"station_id":"ce4bgt92rcd13ifvqcg0","pricing_plan_id":"cebpf4jnsgd1na2vs0mg"},{"bike_id":"724cd4ea-84f2-4c93-beb1-fb04eba708dd","system_id":"levelo_inurba_marseille","lat":43.311125,"lon":5.377624,"is_reserved":false,"is_disabled":false,"rental_uris":{"android":"levelo://app?vid=724cd4ea-84f2-4c93-beb1-fb04eba708dd","ios":"levelo://app?vid=724cd4ea-84f2-4c93-beb1-fb04eba708dd"},"vehicle_type_id":"4","last_reported":1718399304,"current_range_meters":16400,"station_id":"ce4bgt92rcd13ifvqcg0","pricing_plan_id":"cebpf4jnsgd1na2vs0mg"},{"bike_id":"e2a0830b-3111-4be7-9ddc-491150982b3f","system_id":"levelo_inurba_marseille","lat":43.317075,"lon":5.377367,"is_reserved":false,"is_disabled":false,"rental_uris":{"android":"levelo://app?vid=e2a0830b-3111-4be7-9ddc-491150982b3f","ios":"levelo://app?vid=e2a0830b-3111-4be7-9ddc-491150982b3f"},"vehicle_type_id":"4","last_reported":1718399304,"current_range_meters":13200,"station_id":"ce4bgth2rcd13ifvqch0","pricing_plan_id":"cebpf4jnsgd1na2vs0mg"},{"bike_id":"0ac1a2db-9810-4361-8338-737f6b924fcf","system_id":"levelo_inurba_marseille","lat":43.307945,"lon":5.376487,"is_reserved":false,"is_disabled":false,"rental_uris":{"android":"levelo://app?vid=0ac1a2db-9810-4361-8338-737f6b924fcf","ios":"levelo://app?vid=0ac1a2db-9810-4361-8338-737f6b924fcf"},"vehicle_type_id":"4","last_reported":1718399304,"current_range_meters":12000,"station_id":"ce4bgv92rcd13ifvqcq0","pricing_plan_id":"cebpf4jnsgd1na2vs0mg"},{"bike_id":"0dcfd393-aec1-404d-b961-d57adf285077","system_id":"levelo_inurba_marseille","lat":43.307945,"lon":5.376487,"is_reserved":false,"is_disabled":false,"rental_uris":{"android":"levelo://app?vid=0dcfd393-aec1-404d-b961-d57adf285077","ios":"levelo://app?vid=0dcfd393-aec1-404d-b961-d57adf285077"},"vehicle_type_id":"4","last_reported":1718399304,"current_range_meters":7600,"station_id":"ce4bgv92rcd13ifvqcq0","pricing_plan_id":"cebpf4jnsgd1na2vs0mg"},{"bike_id":"3b3a1445-b0fb-4a4f-840e-a264f85c1f5d","system_id":"levelo_inurba_marseille","lat":43.31695,"lon":5.37729,"is_reserved":false,"is_disabled":false,"rental_uris":{"android":"levelo://app?vid=3b3a1445-b0fb-4a4f-840e-a264f85c1f5d","ios":"levelo://app?vid=3b3a1445-b0fb-4a4f-840e-a264f85c1f5d"},"vehicle_type_id":"4","last_reported":1718399304,"current_range_meters":13600,"station_id":"ce4bgth2rcd13ifvqch0","pricing_plan_id":"cebpf4jnsgd1na2vs0mg"},{"bike_id":"97546cae-d851-461f-a6bd-d91ccc3e6075","system_id":"levelo_inurba_marseille","lat":43.30304,"lon":5.368987,"is_reserved":false,"is_disabled":false,"rental_uris":{"android":"levelo://app?vid=97546cae-d851-461f-a6bd-d91ccc3e6075","ios":"levelo://app?vid=97546cae-d851-461f-a6bd-d91ccc3e6075"},"vehicle_type_id":"4","last_reported":1718399304,"current_range_meters":22000,"station_id":"ce4bgqh2rcd13ifvqc5g","pricing_plan_id":"cebpf4jnsgd1na2vs0mg"},{"bike_id":"5a347d51-7fba-409b-89c5-b04496406be6","system_id":"levelo_inurba_marseille","lat":43.315289,"lon":5.380349,"is_reserved":false,"is_disabled":false,"rental_uris":{"android":"levelo://app?vid=5a347d51-7fba-409b-89c5-b04496406be6","ios":"levelo://app?vid=5a347d51-7fba-409b-89c5-b04496406be6"},"vehicle_type_id":"4","last_reported":1718399304,"current_range_meters":5600,"station_id":"ce4bhsp2rcd13ifvqi50","pricing_plan_id":"cebpf4jnsgd1na2vs0mg"},{"bike_id":"c96cd21a-8bff-441d-87bf-c0101f7589ca","system_id":"levelo_inurba_marseille","lat":43.31535,"lon":5.3803,"is_reserved":false,"is_disabled":false,"rental_uris":{"android":"levelo://app?vid=c96cd21a-8bff-441d-87bf-c0101f7589ca","ios":"levelo://app?vid=c96cd21a-8bff-441d-87bf-c0101f7589ca"},"vehicle_type_id":"4","last_reported":1718399304,"current_range_meters":0,"station_id":"ce4bhsp2rcd13ifvqi50","pricing_plan_id":"cebpf4jnsgd1na2vs0mg"},{"bike_id":"4c95a9c5-2ae1-4114-a943-ed99447add3d","system_id":"levelo_inurba_marseille","lat":43.315293,"lon":5.380349,"is_reserved":false,"is_disabled":false,"rental_uris":{"android":"levelo://app?vid=4c95a9c5-2ae1-4114-a943-ed99447add3d","ios":"levelo://app?vid=4c95a9c5-2ae1-4114-a943-ed99447add3d"},"vehicle_type_id":"4","last_reported":1718399304,"current_range_meters":0,"station_id":"ce4bhsp2rcd13ifvqi50","pricing_plan_id":"cebpf4jnsgd1na2vs0mg"},{"bike_id":"62321f95-c4c8-4d00-ab7d-8fa3c73edf54","system_id":"levelo_inurba_marseille","lat":43.3019,"lon":5.36619,"is_reserved":false,"is_disabled":false,"rental_uris":{"android":"levelo://app?vid=62321f95-c4c8-4d00-ab7d-8fa3c73edf54","ios":"levelo://app?vid=62321f95-c4c8-4d00-ab7d-8fa3c73edf54"},"vehicle_type_id":"4","last_reported":1718399304,"current_range_meters":3600,"station_id":"ce4bgrh2rcd13ifvqc8g","pricing_plan_id":"cebpf4jnsgd1na2vs0mg"},{"bike_id":"4078a8b9-d8ee-44b7-9073-d5c10afc9cef","system_id":"levelo_inurba_marseille","lat":43.308012,"lon":5.381511,"is_reserved":false,"is_disabled":false,"rental_uris":{"android":"levelo://app?vid=4078a8b9-d8ee-44b7-9073-d5c10afc9cef","ios":"levelo://app?vid=4078a8b9-d8ee-44b7-9073-d5c10afc9cef"},"vehicle_type_id":"4","last_reported":1718399304,"current_range_meters":19600,"station_id":"ce4bgt12rcd13ifvqce0","pricing_plan_id":"cebpf4jnsgd1na2vs0mg"},{"bike_id":"bb3781ae-ace6-40d7-9bc5-345952243caf","system_id":"levelo_inurba_marseille","lat":43.308012,"lon":5.381511,"is_reserved":false,"is_disabled":false,"rental_uris":{"android":"levelo://app?vid=bb3781ae-ace6-40d7-9bc5-345952243caf","ios":"levelo://app?vid=bb3781ae-ace6-40d7-9bc5-345952243caf"},"vehicle_type_id":"4","last_reported":1718399304,"current_range_meters":24800,"station_id":"ce4bgt12rcd13ifvqce0","pricing_plan_id":"cebpf4jnsgd1na2vs0mg"},{"bike_id":"202d3451-65c3-4b90-a05f-fc7c03d93852","system_id":"levelo_inurba_marseille","lat":43.308012,"lon":5.381511,"is_reserved":false,"is_disabled":false,"rental_uris":{"android":"levelo://app?vid=202d3451-65c3-4b90-a05f-fc7c03d93852","ios":"levelo://app?vid=202d3451-65c3-4b90-a05f-fc7c03d93852"},"vehicle_type_id":"4","last_reported":1718399304,"current_range_meters":24000,"station_id":"ce4bgt12rcd13ifvqce0","pricing_plan_id":"cebpf4jnsgd1na2vs0mg"},{"bike_id":"f0185fca-021e-4a22-93d1-a3cc783f552c","system_id":"levelo_inurba_marseille","lat":43.324771,"lon":5.36557,"is_reserved":false,"is_disabled":false,"rental_uris":{"android":"levelo://app?vid=f0185fca-021e-4a22-93d1-a3cc783f552c","ios":"levelo://app?vid=f0185fca-021e-4a22-93d1-a3cc783f552c"},"vehicle_type_id":"4","last_reported":1718399304,"current_range_meters":8800,"station_id":"ce4bhs12rcd13ifvqhvg","pricing_plan_id":"cebpf4jnsgd1na2vs0mg"},{"bike_id":"1bad2400-98b7-47ab-8eb3-7a6cedff3e37","system_id":"levelo_inurba_marseille","lat":43.3248,"lon":5.36562,"is_reserved":false,"is_disabled":false,"rental_uris":{"android":"levelo://app?vid=1bad2400-98b7-47ab-8eb3-7a6cedff3e37","ios":"levelo://app?vid=1bad2400-98b7-47ab-8eb3-7a6cedff3e37"},"vehicle_type_id":"4","last_reported":1718399304,"current_range_meters":13200,"station_id":"ce4bhs12rcd13ifvqhvg","pricing_plan_id":"cebpf4jnsgd1na2vs0mg"},{"bike_id":"5b3a28c3-783d-4436-ba63-0089a8908912","system_id":"levelo_inurba_marseille","lat":43.310804,"lon":5.38359,"is_reserved":false,"is_disabled":false,"rental_uris":{"android":"levelo://app?vid=5b3a28c3-783d-4436-ba63-0089a8908912","ios":"levelo://app?vid=5b3a28c3-783d-4436-ba63-0089a8908912"},"vehicle_type_id":"4","last_reported":1718399304,"current_range_meters":8400,"station_id":"ce4bgv92rcd13ifvqcr0","pricing_plan_id":"cebpf4jnsgd1na2vs0mg"},{"bike_id":"6dec15cc-e747-4cb5-84eb-ab6384b7b1a1","system_id":"levelo_inurba_marseille","lat":43.310804,"lon":5.38359,"is_reserved":false,"is_disabled":false,"rental_uris":{"android":"levelo://app?vid=6dec15cc-e747-4cb5-84eb-ab6384b7b1a1","ios":"levelo://app?vid=6dec15cc-e747-4cb5-84eb-ab6384b7b1a1"},"vehicle_type_id":"4","last_reported":1718399304,"current_range_meters":0,"station_id":"ce4bgv92rcd13ifvqcr0","pricing_plan_id":"cebpf4jnsgd1na2vs0mg"},{"bike_id":"e716aefd-c62b-4c19-ab42-7adb803b7b11","system_id":"levelo_inurba_marseille","lat":43.31993,"lon":5.38066,"is_reserved":false,"is_disabled":false,"rental_uris":{"android":"levelo://app?vid=e716aefd-c62b-4c19-ab42-7adb803b7b11","ios":"levelo://app?vid=e716aefd-c62b-4c19-ab42-7adb803b7b11"},"vehicle_type_id":"4","last_reported":1718399304,"current_range_meters":19200,"station_id":"","pricing_plan_id":"cebpf4jnsgd1na2vs0mg"},{"bike_id":"7ff2b4ad-9ec8-45cc-a413-e0bd74a93024","system_id":"levelo_inurba_marseille","lat":43.310804,"lon":5.38359,"is_reserved":false,"is_disabled":false,"rental_uris":{"android":"levelo://app?vid=7ff2b4ad-9ec8-45cc-a413-e0bd74a93024","ios":"levelo://app?vid=7ff2b4ad-9ec8-45cc-a413-e0bd74a93024"},"vehicle_type_id":"4","last_reported":1718399304,"current_range_meters":3200,"station_id":"ce4bgv92rcd13ifvqcr0","pricing_plan_id":"cebpf4jnsgd1na2vs0mg"},{"bike_id":"fc1f1168-2f3d-445d-b597-d71f569d601a","system_id":"levelo_inurba_marseille","lat":43.310804,"lon":5.38359,"is_reserved":false,"is_disabled":false,"rental_uris":{"android":"levelo://app?vid=fc1f1168-2f3d-445d-b597-d71f569d601a","ios":"levelo://app?vid=fc1f1168-2f3d-445d-b597-d71f569d601a"},"vehicle_type_id":"4","last_reported":1718399304,"current_range_meters":23200,"station_id":"ce4bgv92rcd13ifvqcr0","pricing_plan_id":"cebpf4jnsgd1na2vs0mg"},{"bike_id":"98f3a671-5b2b-489d-9ba1-6a6d205fa8b2","system_id":"levelo_inurba_marseille","lat":43.302784,"lon":5.377158,"is_reserved":false,"is_disabled":false,"rental_uris":{"android":"levelo://app?vid=98f3a671-5b2b-489d-9ba1-6a6d205fa8b2","ios":"levelo://app?vid=98f3a671-5b2b-489d-9ba1-6a6d205fa8b2"},"vehicle_type_id":"4","last_reported":1718399304,"current_range_meters":22000,"station_id":"ce4bguh2rcd13ifvqcj0","pricing_plan_id":"cebpf4jnsgd1na2vs0mg"},{"bike_id":"7ddbda4b-499d-47db-b7dc-0c28358ef267","system_id":"levelo_inurba_marseille","lat":43.302784,"lon":5.377158,"is_reserved":false,"is_disabled":false,"rental_uris":{"android":"levelo://app?vid=7ddbda4b-499d-47db-b7dc-0c28358ef267","ios":"levelo://app?vid=7ddbda4b-499d-47db-b7dc-0c28358ef267"},"vehicle_type_id":"4","last_reported":1718399304,"current_range_meters":26800,"station_id":"ce4bguh2rcd13ifvqcj0","pricing_plan_id":"cebpf4jnsgd1na2vs0mg"},{"bike_id":"57861364-c824-4c4b-aa44-7d113ad5f29f","system_id":"levelo_inurba_marseille","lat":43.319935,"lon":5.381699,"is_reserved":false,"is_disabled":false,"rental_uris":{"android":"levelo://app?vid=57861364-c824-4c4b-aa44-7d113ad5f29f","ios":"levelo://app?vid=57861364-c824-4c4b-aa44-7d113ad5f29f"},"vehicle_type_id":"4","last_reported":1718399304,"current_range_meters":2000,"station_id":"ce4bhr12rcd13ifvqhpg","pricing_plan_id":"cebpf4jnsgd1na2vs0mg"},{"bike_id":"37471f4c-741d-4423-ad28-3beb8104ff11","system_id":"levelo_inurba_marseille","lat":43.300106,"lon":5.370065,"is_reserved":false,"is_disabled":false,"rental_uris":{"android":"levelo://app?vid=37471f4c-741d-4423-ad28-3beb8104ff11","ios":"levelo://app?vid=37471f4c-741d-4423-ad28-3beb8104ff11"},"vehicle_type_id":"4","last_reported":1718399304,"current_range_meters":12400,"station_id":"","pricing_plan_id":"cebpf4jnsgd1na2vs0mg"},{"bike_id":"8291b89a-4855-48c8-b76e-8707207c49ec","system_id":"levelo_inurba_marseille","lat":43.319935,"lon":5.381699,"is_reserved":false,"is_disabled":false,"rental_uris":{"android":"levelo://app?vid=8291b89a-4855-48c8-b76e-8707207c49ec","ios":"levelo://app?vid=8291b89a-4855-48c8-b76e-8707207c49ec"},"vehicle_type_id":"4","last_reported":1718399304,"current_range_meters":16400,"station_id":"ce4bhr12rcd13ifvqhpg","pricing_plan_id":"cebpf4jnsgd1na2vs0mg"},{"bike_id":"7867a7fc-f408-4d24-a99e-23e91a58f98f","system_id":"levelo_inurba_marseille","lat":43.319935,"lon":5.381699,"is_reserved":false,"is_disabled":false,"rental_uris":{"android":"levelo://app?vid=7867a7fc-f408-4d24-a99e-23e91a58f98f","ios":"levelo://app?vid=7867a7fc-f408-4d24-a99e-23e91a58f98f"},"vehicle_type_id":"4","last_reported":1718399304,"current_range_meters":0,"station_id":"ce4bhr12rcd13ifvqhpg","pricing_plan_id":"cebpf4jnsgd1na2vs0mg"},{"bike_id":"5aaae974-ba1d-4021-b53c-d92a573b567b","system_id":"levelo_inurba_marseille","lat":43.31997,"lon":5.3817,"is_reserved":false,"is_disabled":false,"rental_uris":{"android":"levelo://app?vid=5aaae974-ba1d-4021-b53c-d92a573b567b","ios":"levelo://app?vid=5aaae974-ba1d-4021-b53c-d92a573b567b"},"vehicle_type_id":"4","last_reported":1718399304,"current_range_meters":20400,"station_id":"ce4bhr12rcd13ifvqhpg","pricing_plan_id":"cebpf4jnsgd1na2vs0mg"},{"bike_id":"39a44efd-d5f1-48d9-973b-d5d5532428a1","system_id":"levelo_inurba_marseille","lat":43.313571,"lon":5.384829,"is_reserved":false,"is_disabled":false,"rental_uris":{"android":"levelo://app?vid=39a44efd-d5f1-48d9-973b-d5d5532428a1","ios":"levelo://app?vid=39a44efd-d5f1-48d9-973b-d5d5532428a1"},"vehicle_type_id":"4","last_reported":1718399304,"current_range_meters":18000,"station_id":"ce4bgt92rcd13ifvqcf0","pricing_plan_id":"cebpf4jnsgd1na2vs0mg"},{"bike_id":"1a125627-43b0-4923-abb8-1c7db17fe7cf","system_id":"levelo_inurba_marseille","lat":43.313571,"lon":5.384829,"is_reserved":false,"is_disabled":false,"rental_uris":{"android":"levelo://app?vid=1a125627-43b0-4923-abb8-1c7db17fe7cf","ios":"levelo://app?vid=1a125627-43b0-4923-abb8-1c7db17fe7cf"},"vehicle_type_id":"4","last_reported":1718399304,"current_range_meters":28400,"station_id":"ce4bgt92rcd13ifvqcf0","pricing_plan_id":"cebpf4jnsgd1na2vs0mg"},{"bike_id":"7f4184c3-4154-496e-be88-f8e9afbd6fb5","system_id":"levelo_inurba_marseille","lat":43.299724,"lon":5.371829,"is_reserved":false,"is_disabled":false,"rental_uris":{"android":"levelo://app?vid=7f4184c3-4154-496e-be88-f8e9afbd6fb5","ios":"levelo://app?vid=7f4184c3-4154-496e-be88-f8e9afbd6fb5"},"vehicle_type_id":"4","last_reported":1718399304,"current_range_meters":4000,"station_id":"ce4bgr92rcd13ifvqc7g","pricing_plan_id":"cebpf4jnsgd1na2vs0mg"},{"bike_id":"6371b374-048a-4701-ba4d-adf6ee07bf66","system_id":"levelo_inurba_marseille","lat":43.299724,"lon":5.371829,"is_reserved":false,"is_disabled":false,"rental_uris":{"android":"levelo://app?vid=6371b374-048a-4701-ba4d-adf6ee07bf66","ios":"levelo://app?vid=6371b374-048a-4701-ba4d-adf6ee07bf66"},"vehicle_type_id":"4","last_reported":1718399304,"current_range_meters":16400,"station_id":"ce4bgr92rcd13ifvqc7g","pricing_plan_id":"cebpf4jnsgd1na2vs0mg"},{"bike_id":"dfea3770-9183-4c7f-921d-5fb088896195","system_id":"levelo_inurba_marseille","lat":43.29957,"lon":5.3717,"is_reserved":false,"is_disabled":false,"rental_uris":{"android":"levelo://app?vid=dfea3770-9183-4c7f-921d-5fb088896195","ios":"levelo://app?vid=dfea3770-9183-4c7f-921d-5fb088896195"},"vehicle_type_id":"4","last_reported":1718399304,"current_range_meters":6000,"station_id":"","pricing_plan_id":"cebpf4jnsgd1na2vs0mg"},{"bike_id":"5d8b5af3-5aa9-4fa2-8728-c9e5bc161eb0","system_id":"levelo_inurba_marseille","lat":43.322872,"lon":5.382756,"is_reserved":false,"is_disabled":false,"rental_uris":{"android":"levelo://app?vid=5d8b5af3-5aa9-4fa2-8728-c9e5bc161eb0","ios":"levelo://app?vid=5d8b5af3-5aa9-4fa2-8728-c9e5bc161eb0"},"vehicle_type_id":"4","last_reported":1718399304,"current_range_meters":25200,"station_id":"ce4bhr12rcd13ifvqhqg","pricing_plan_id":"cebpf4jnsgd1na2vs0mg"},{"bike_id":"30f6bfc9-ee01-49a9-8889-368e497ecee1","system_id":"levelo_inurba_marseille","lat":43.298433,"lon":5.362774,"is_reserved":false,"is_disabled":false,"rental_uris":{"android":"levelo://app?vid=30f6bfc9-ee01-49a9-8889-368e497ecee1","ios":"levelo://app?vid=30f6bfc9-ee01-49a9-8889-368e497ecee1"},"vehicle_type_id":"4","last_reported":1718399304,"current_range_meters":10800,"station_id":"ce4bgpp2rcd13ifvqc3g","pricing_plan_id":"cebpf4jnsgd1na2vs0mg"},{"bike_id":"6c8d82f5-0d17-430a-b245-84fed761775b","system_id":"levelo_inurba_marseille","lat":43.298433,"lon":5.362774,"is_reserved":false,"is_disabled":false,"rental_uris":{"android":"levelo://app?vid=6c8d82f5-0d17-430a-b245-84fed761775b","ios":"levelo://app?vid=6c8d82f5-0d17-430a-b245-84fed761775b"},"vehicle_type_id":"4","last_reported":1718399304,"current_range_meters":24800,"station_id":"ce4bgpp2rcd13ifvqc3g","pricing_plan_id":"cebpf4jnsgd1na2vs0mg"},{"bike_id":"51eed92f-ff28-45ca-9c10-7b8c96191a35","system_id":"levelo_inurba_marseille","lat":43.305364,"lon":5.384119,"is_reserved":false,"is_disabled":false,"rental_uris":{"android":"levelo://app?vid=51eed92f-ff28-45ca-9c10-7b8c96191a35","ios":"levelo://app?vid=51eed92f-ff28-45ca-9c10-7b8c96191a35"},"vehicle_type_id":"4","last_reported":1718399304,"current_range_meters":18000,"station_id":"ce4bgg92rcd13ifvqb30","pricing_plan_id":"cebpf4jnsgd1na2vs0mg"},{"bike_id":"f929d327-1537-440b-b4de-908e002dadea","system_id":"levelo_inurba_marseille","lat":43.299243,"lon":5.37481,"is_reserved":false,"is_disabled":false,"rental_uris":{"android":"levelo://app?vid=f929d327-1537-440b-b4de-908e002dadea","ios":"levelo://app?vid=f929d327-1537-440b-b4de-908e002dadea"},"vehicle_type_id":"4","last_reported":1718399304,"current_range_meters":26000,"station_id":"ce4bgjh2rcd13ifvqbg0","pricing_plan_id":"cebpf4jnsgd1na2vs0mg"},{"bike_id":"d9e7e022-7512-497e-bbb0-8a9a94d9d3c2","system_id":"levelo_inurba_marseille","lat":43.311722,"lon":5.387247,"is_reserved":false,"is_disabled":false,"rental_uris":{"android":"levelo://app?vid=d9e7e022-7512-497e-bbb0-8a9a94d9d3c2","ios":"levelo://app?vid=d9e7e022-7512-497e-bbb0-8a9a94d9d3c2"},"vehicle_type_id":"4","last_reported":1718399304,"current_range_meters":23200,"station_id":"ce4bgv12rcd13ifvqcp0","pricing_plan_id":"cebpf4jnsgd1na2vs0mg"},{"bike_id":"9af9c81a-87de-472f-94f3-00b6e7bf2f8d","system_id":"levelo_inurba_marseille","lat":43.311722,"lon":5.387247,"is_reserved":false,"is_disabled":false,"rental_uris":{"android":"levelo://app?vid=9af9c81a-87de-472f-94f3-00b6e7bf2f8d","ios":"levelo://app?vid=9af9c81a-87de-472f-94f3-00b6e7bf2f8d"},"vehicle_type_id":"4","last_reported":1718399304,"current_range_meters":15200,"station_id":"ce4bgv12rcd13ifvqcp0","pricing_plan_id":"cebpf4jnsgd1na2vs0mg"},{"bike_id":"e8d5f03f-138a-4e57-b13e-22af6b6a21d9","system_id":"levelo_inurba_marseille","lat":43.311722,"lon":5.387247,"is_reserved":false,"is_disabled":false,"rental_uris":{"android":"levelo://app?vid=e8d5f03f-138a-4e57-b13e-22af6b6a21d9","ios":"levelo://app?vid=e8d5f03f-138a-4e57-b13e-22af6b6a21d9"},"vehicle_type_id":"4","last_reported":1718399304,"current_range_meters":20000,"station_id":"ce4bgv12rcd13ifvqcp0","pricing_plan_id":"cebpf4jnsgd1na2vs0mg"},{"bike_id":"c98e4a66-3919-417d-a388-f293689c3289","system_id":"levelo_inurba_marseille","lat":43.29796,"lon":5.371166,"is_reserved":false,"is_disabled":false,"rental_uris":{"android":"levelo://app?vid=c98e4a66-3919-417d-a388-f293689c3289","ios":"levelo://app?vid=c98e4a66-3919-417d-a388-f293689c3289"},"vehicle_type_id":"4","last_reported":1718399304,"current_range_meters":11600,"station_id":"ce4bgop2rcd13ifvqc1g","pricing_plan_id":"cebpf4jnsgd1na2vs0mg"},{"bike_id":"8b635753-c0b3-40ee-bc32-68fb97cb1dcd","system_id":"levelo_inurba_marseille","lat":43.297794,"lon":5.370888,"is_reserved":false,"is_disabled":false,"rental_uris":{"android":"levelo://app?vid=8b635753-c0b3-40ee-bc32-68fb97cb1dcd","ios":"levelo://app?vid=8b635753-c0b3-40ee-bc32-68fb97cb1dcd"},"vehicle_type_id":"4","last_reported":1718399304,"current_range_meters":4800,"station_id":"ce4bgop2rcd13ifvqc1g","pricing_plan_id":"cebpf4jnsgd1na2vs0mg"},{"bike_id":"e025e930-8f82-4879-b09c-3202c4ca43ad","system_id":"levelo_inurba_marseille","lat":43.322872,"lon":5.382756,"is_reserved":false,"is_disabled":false,"rental_uris":{"android":"levelo://app?vid=e025e930-8f82-4879-b09c-3202c4ca43ad","ios":"levelo://app?vid=e025e930-8f82-4879-b09c-3202c4ca43ad"},"vehicle_type_id":"4","last_reported":1718399304,"current_range_meters":0,"station_id":"ce4bhr12rcd13ifvqhqg","pricing_plan_id":"cebpf4jnsgd1na2vs0mg"},{"bike_id":"d3e3f42b-5c90-4d18-b595-470722adb09d","system_id":"levelo_inurba_marseille","lat":43.29702,"lon":5.36603,"is_reserved":false,"is_disabled":false,"rental_uris":{"android":"levelo://app?vid=d3e3f42b-5c90-4d18-b595-470722adb09d","ios":"levelo://app?vid=d3e3f42b-5c90-4d18-b595-470722adb09d"},"vehicle_type_id":"4","last_reported":1718399304,"current_range_meters":5200,"station_id":"ce4bgn12rcd13ifvqbt0","pricing_plan_id":"cebpf4jnsgd1na2vs0mg"},{"bike_id":"f9897197-1399-43e0-84af-f6998ec3818e","system_id":"levelo_inurba_marseille","lat":43.317557,"lon":5.390173,"is_reserved":false,"is_disabled":false,"rental_uris":{"android":"levelo://app?vid=f9897197-1399-43e0-84af-f6998ec3818e","ios":"levelo://app?vid=f9897197-1399-43e0-84af-f6998ec3818e"},"vehicle_type_id":"4","last_reported":1718399304,"current_range_meters":3600,"station_id":"ce4bhqp2rcd13ifvqhng","pricing_plan_id":"cebpf4jnsgd1na2vs0mg"},{"bike_id":"06f6a311-18b5-466f-9278-812c3a811ebb","system_id":"levelo_inurba_marseille","lat":43.29584,"lon":5.36737,"is_reserved":false,"is_disabled":false,"rental_uris":{"android":"levelo://app?vid=06f6a311-18b5-466f-9278-812c3a811ebb","ios":"levelo://app?vid=06f6a311-18b5-466f-9278-812c3a811ebb"},"vehicle_type_id":"4","last_reported":1718399304,"current_range_meters":0,"station_id":"ce4bgph2rcd13ifvqc2g","pricing_plan_id":"cebpf4jnsgd1na2vs0mg"},{"bike_id":"79e9c433-b256-4753-9e1b-233c7fa4ffdd","system_id":"levelo_inurba_marseille","lat":43.316427,"lon":5.389867,"is_reserved":false,"is_disabled":false,"rental_uris":{"android":"levelo://app?vid=79e9c433-b256-4753-9e1b-233c7fa4ffdd","ios":"levelo://app?vid=79e9c433-b256-4753-9e1b-233c7fa4ffdd"},"vehicle_type_id":"4","last_reported":1718399304,"current_range_meters":24800,"station_id":"","pricing_plan_id":"cebpf4jnsgd1na2vs0mg"},{"bike_id":"3fb8f6c9-d752-483c-bfdd-c9c6c8a97a18","system_id":"levelo_inurba_marseille","lat":43.30949,"lon":5.3902,"is_reserved":false,"is_disabled":false,"rental_uris":{"android":"levelo://app?vid=3fb8f6c9-d752-483c-bfdd-c9c6c8a97a18","ios":"levelo://app?vid=3fb8f6c9-d752-483c-bfdd-c9c6c8a97a18"},"vehicle_type_id":"4","last_reported":1718399304,"current_range_meters":0,"station_id":"ce4bgup2rcd13ifvqco0","pricing_plan_id":"cebpf4jnsgd1na2vs0mg"},{"bike_id":"f414b707-d219-42c0-bea1-c18aee717d85","system_id":"levelo_inurba_marseille","lat":43.299028,"lon":5.381509,"is_reserved":false,"is_disabled":false,"rental_uris":{"android":"levelo://app?vid=f414b707-d219-42c0-bea1-c18aee717d85","ios":"levelo://app?vid=f414b707-d219-42c0-bea1-c18aee717d85"},"vehicle_type_id":"4","last_reported":1718399304,"current_range_meters":3600,"station_id":"ce4bgj12rcd13ifvqbc0","pricing_plan_id":"cebpf4jnsgd1na2vs0mg"},{"bike_id":"402503b4-bded-4879-bc20-6f6409c014d9","system_id":"levelo_inurba_marseille","lat":43.309589,"lon":5.390258,"is_reserved":false,"is_disabled":false,"rental_uris":{"android":"levelo://app?vid=402503b4-bded-4879-bc20-6f6409c014d9","ios":"levelo://app?vid=402503b4-bded-4879-bc20-6f6409c014d9"},"vehicle_type_id":"4","last_reported":1718399304,"current_range_meters":0,"station_id":"ce4bgup2rcd13ifvqco0","pricing_plan_id":"cebpf4jnsgd1na2vs0mg"},{"bike_id":"d51789ea-eb04-4e0b-b0d1-a567aa1af80c","system_id":"levelo_inurba_marseille","lat":43.304606,"lon":5.379026,"is_reserved":false,"is_disabled":false,"rental_uris":{"android":"levelo://app?vid=d51789ea-eb04-4e0b-b0d1-a567aa1af80c","ios":"levelo://app?vid=d51789ea-eb04-4e0b-b0d1-a567aa1af80c"},"vehicle_type_id":"4","last_reported":1718399304,"current_range_meters":400,"station_id":"ce4bgup2rcd13ifvqcn0","pricing_plan_id":"cebpf4jnsgd1na2vs0mg"},{"bike_id":"f2bd9630-59f7-4f50-a629-055a0f10a3c4","system_id":"levelo_inurba_marseille","lat":43.2958,"lon":5.37515,"is_reserved":false,"is_disabled":false,"rental_uris":{"android":"levelo://app?vid=f2bd9630-59f7-4f50-a629-055a0f10a3c4","ios":"levelo://app?vid=f2bd9630-59f7-4f50-a629-055a0f10a3c4"},"vehicle_type_id":"4","last_reported":1718399304,"current_range_meters":29200,"station_id":"ce4bgh92rcd13ifvqb50","pricing_plan_id":"cebpf4jnsgd1na2vs0mg"},{"bike_id":"0e232c7a-9b12-47c8-88b1-5f568024d8b5","system_id":"levelo_inurba_marseille","lat":43.295748,"lon":5.37522,"is_reserved":false,"is_disabled":false,"rental_uris":{"android":"levelo://app?vid=0e232c7a-9b12-47c8-88b1-5f568024d8b5","ios":"levelo://app?vid=0e232c7a-9b12-47c8-88b1-5f568024d8b5"},"vehicle_type_id":"4","last_reported":1718399304,"current_range_meters":20800,"station_id":"ce4bgh92rcd13ifvqb50","pricing_plan_id":"cebpf4jnsgd1na2vs0mg"},{"bike_id":"1187eeea-d964-4b5f-9032-7b3a86477b37","system_id":"levelo_inurba_marseille","lat":43.29791,"lon":5.38095,"is_reserved":false,"is_disabled":false,"rental_uris":{"android":"levelo://app?vid=1187eeea-d964-4b5f-9032-7b3a86477b37","ios":"levelo://app?vid=1187eeea-d964-4b5f-9032-7b3a86477b37"},"vehicle_type_id":"4","last_reported":1718399304,"current_range_meters":20000,"station_id":"","pricing_plan_id":"cebpf4jnsgd1na2vs0mg"},{"bike_id":"318c91c1-492b-4f59-9e46-ea01998f2839","system_id":"levelo_inurba_marseille","lat":43.298037,"lon":5.381066,"is_reserved":false,"is_disabled":false,"rental_uris":{"android":"levelo://app?vid=318c91c1-492b-4f59-9e46-ea01998f2839","ios":"levelo://app?vid=318c91c1-492b-4f59-9e46-ea01998f2839"},"vehicle_type_id":"4","last_reported":1718399304,"current_range_meters":23600,"station_id":"ce4bgip2rcd13ifvqbb0","pricing_plan_id":"cebpf4jnsgd1na2vs0mg"},{"bike_id":"349a2885-34dd-43b1-93c3-2a8c5c444083","system_id":"levelo_inurba_marseille","lat":43.299724,"lon":5.384848,"is_reserved":false,"is_disabled":false,"rental_uris":{"android":"levelo://app?vid=349a2885-34dd-43b1-93c3-2a8c5c444083","ios":"levelo://app?vid=349a2885-34dd-43b1-93c3-2a8c5c444083"},"vehicle_type_id":"4","last_reported":1718399304,"current_range_meters":0,"station_id":"ce4bgj92rcd13ifvqbd0","pricing_plan_id":"cebpf4jnsgd1na2vs0mg"},{"bike_id":"f13e63b5-8abd-4f62-8c54-f554ee194fee","system_id":"levelo_inurba_marseille","lat":43.29422,"lon":5.37423,"is_reserved":false,"is_disabled":false,"rental_uris":{"android":"levelo://app?vid=f13e63b5-8abd-4f62-8c54-f554ee194fee","ios":"levelo://app?vid=f13e63b5-8abd-4f62-8c54-f554ee194fee"},"vehicle_type_id":"4","last_reported":1718399304,"current_range_meters":21600,"station_id":"","pricing_plan_id":"cebpf4jnsgd1na2vs0mg"},{"bike_id":"a43a4efb-a7f7-46c7-8ba0-92c7bf3a6796","system_id":"levelo_inurba_marseille","lat":43.29602,"lon":5.381084,"is_reserved":false,"is_disabled":false,"rental_uris":{"android":"levelo://app?vid=a43a4efb-a7f7-46c7-8ba0-92c7bf3a6796","ios":"levelo://app?vid=a43a4efb-a7f7-46c7-8ba0-92c7bf3a6796"},"vehicle_type_id":"4","last_reported":1718399304,"current_range_meters":26000,"station_id":"ce4bgl12rcd13ifvqbo0","pricing_plan_id":"cebpf4jnsgd1na2vs0mg"},{"bike_id":"507f4c74-6e80-429c-8aa5-6362b2c733b4","system_id":"levelo_inurba_marseille","lat":43.29602,"lon":5.381084,"is_reserved":false,"is_disabled":false,"rental_uris":{"android":"levelo://app?vid=507f4c74-6e80-429c-8aa5-6362b2c733b4","ios":"levelo://app?vid=507f4c74-6e80-429c-8aa5-6362b2c733b4"},"vehicle_type_id":"4","last_reported":1718399304,"current_range_meters":23600,"station_id":"ce4bgl12rcd13ifvqbo0","pricing_plan_id":"cebpf4jnsgd1na2vs0mg"},{"bike_id":"b376ae62-2949-49ea-bd31-77f81c22e49c","system_id":"levelo_inurba_marseille","lat":43.29602,"lon":5.381084,"is_reserved":false,"is_disabled":false,"rental_uris":{"android":"levelo://app?vid=b376ae62-2949-49ea-bd31-77f81c22e49c","ios":"levelo://app?vid=b376ae62-2949-49ea-bd31-77f81c22e49c"},"vehicle_type_id":"4","last_reported":1718399304,"current_range_meters":7200,"station_id":"ce4bgl12rcd13ifvqbo0","pricing_plan_id":"cebpf4jnsgd1na2vs0mg"},{"bike_id":"774e3291-6b19-4467-9a11-37b30abf0f86","system_id":"levelo_inurba_marseille","lat":43.297223,"lon":5.384027,"is_reserved":false,"is_disabled":false,"rental_uris":{"android":"levelo://app?vid=774e3291-6b19-4467-9a11-37b30abf0f86","ios":"levelo://app?vid=774e3291-6b19-4467-9a11-37b30abf0f86"},"vehicle_type_id":"4","last_reported":1718399304,"current_range_meters":400,"station_id":"","pricing_plan_id":"cebpf4jnsgd1na2vs0mg"},{"bike_id":"c6c55660-c330-4d5c-a20a-52ad75413021","system_id":"levelo_inurba_marseille","lat":43.29274,"lon":5.36851,"is_reserved":false,"is_disabled":false,"rental_uris":{"android":"levelo://app?vid=c6c55660-c330-4d5c-a20a-52ad75413021","ios":"levelo://app?vid=c6c55660-c330-4d5c-a20a-52ad75413021"},"vehicle_type_id":"4","last_reported":1718399304,"current_range_meters":400,"station_id":"ce4bhbp2rcd13ifvqesg","pricing_plan_id":"cebpf4jnsgd1na2vs0mg"},{"bike_id":"1d569aed-89ef-4e76-8c27-66a10d312daa","system_id":"levelo_inurba_marseille","lat":43.29269,"lon":5.36843,"is_reserved":false,"is_disabled":false,"rental_uris":{"android":"levelo://app?vid=1d569aed-89ef-4e76-8c27-66a10d312daa","ios":"levelo://app?vid=1d569aed-89ef-4e76-8c27-66a10d312daa"},"vehicle_type_id":"4","last_reported":1718399304,"current_range_meters":0,"station_id":"ce4bhbp2rcd13ifvqesg","pricing_plan_id":"cebpf4jnsgd1na2vs0mg"},{"bike_id":"a81aeadf-31e3-4789-b466-b19d11215a21","system_id":"levelo_inurba_marseille","lat":43.29266,"lon":5.36848,"is_reserved":false,"is_disabled":false,"rental_uris":{"android":"levelo://app?vid=a81aeadf-31e3-4789-b466-b19d11215a21","ios":"levelo://app?vid=a81aeadf-31e3-4789-b466-b19d11215a21"},"vehicle_type_id":"4","last_reported":1718399304,"current_range_meters":0,"station_id":"ce4bhbp2rcd13ifvqesg","pricing_plan_id":"cebpf4jnsgd1na2vs0mg"},{"bike_id":"2c25ad7b-83d2-4cb3-accc-bfce18cd9314","system_id":"levelo_inurba_marseille","lat":43.30085,"lon":5.390856,"is_reserved":false,"is_disabled":false,"rental_uris":{"android":"levelo://app?vid=2c25ad7b-83d2-4cb3-accc-bfce18cd9314","ios":"levelo://app?vid=2c25ad7b-83d2-4cb3-accc-bfce18cd9314"},"vehicle_type_id":"4","last_reported":1718399304,"current_range_meters":27200,"station_id":"ce4bh192rcd13ifvqdb0","pricing_plan_id":"cebpf4jnsgd1na2vs0mg"},{"bike_id":"e95b56f9-9768-4a9b-9016-dc6175fc168d","system_id":"levelo_inurba_marseille","lat":43.30085,"lon":5.390856,"is_reserved":false,"is_disabled":false,"rental_uris":{"android":"levelo://app?vid=e95b56f9-9768-4a9b-9016-dc6175fc168d","ios":"levelo://app?vid=e95b56f9-9768-4a9b-9016-dc6175fc168d"},"vehicle_type_id":"4","last_reported":1718399304,"current_range_meters":4400,"station_id":"ce4bh192rcd13ifvqdb0","pricing_plan_id":"cebpf4jnsgd1na2vs0mg"},{"bike_id":"1e2b5bb6-6427-49b9-89ee-149218c50eb7","system_id":"levelo_inurba_marseille","lat":43.298437,"lon":5.38812,"is_reserved":false,"is_disabled":false,"rental_uris":{"android":"levelo://app?vid=1e2b5bb6-6427-49b9-89ee-149218c50eb7","ios":"levelo://app?vid=1e2b5bb6-6427-49b9-89ee-149218c50eb7"},"vehicle_type_id":"4","last_reported":1718399304,"current_range_meters":0,"station_id":"","pricing_plan_id":"cebpf4jnsgd1na2vs0mg"},{"bike_id":"d6fd1ca6-5e30-46bc-a585-6a45c7728e4f","system_id":"levelo_inurba_marseille","lat":43.298764,"lon":5.388973,"is_reserved":false,"is_disabled":false,"rental_uris":{"android":"levelo://app?vid=d6fd1ca6-5e30-46bc-a585-6a45c7728e4f","ios":"levelo://app?vid=d6fd1ca6-5e30-46bc-a585-6a45c7728e4f"},"vehicle_type_id":"4","last_reported":1718399304,"current_range_meters":18400,"station_id":"ce4bh392rcd13ifvqdl0","pricing_plan_id":"cebpf4jnsgd1na2vs0mg"},{"bike_id":"e62898f7-f08e-4d6d-95f7-2e2e05825827","system_id":"levelo_inurba_marseille","lat":43.298764,"lon":5.388973,"is_reserved":false,"is_disabled":false,"rental_uris":{"android":"levelo://app?vid=e62898f7-f08e-4d6d-95f7-2e2e05825827","ios":"levelo://app?vid=e62898f7-f08e-4d6d-95f7-2e2e05825827"},"vehicle_type_id":"4","last_reported":1718399304,"current_range_meters":27200,"station_id":"ce4bh392rcd13ifvqdl0","pricing_plan_id":"cebpf4jnsgd1na2vs0mg"},{"bike_id":"0def1d03-3698-4f27-8f10-5836e9ad0903","system_id":"levelo_inurba_marseille","lat":43.291671,"lon":5.371575,"is_reserved":false,"is_disabled":false,"rental_uris":{"android":"levelo://app?vid=0def1d03-3698-4f27-8f10-5836e9ad0903","ios":"levelo://app?vid=0def1d03-3698-4f27-8f10-5836e9ad0903"},"vehicle_type_id":"4","last_reported":1718399304,"current_range_meters":30000,"station_id":"ce4bha92rcd13ifvqeh0","pricing_plan_id":"cebpf4jnsgd1na2vs0mg"},{"bike_id":"be9ecc3c-e59e-47f4-9bbe-4b4753721cdc","system_id":"levelo_inurba_marseille","lat":43.291671,"lon":5.371575,"is_reserved":false,"is_disabled":false,"rental_uris":{"android":"levelo://app?vid=be9ecc3c-e59e-47f4-9bbe-4b4753721cdc","ios":"levelo://app?vid=be9ecc3c-e59e-47f4-9bbe-4b4753721cdc"},"vehicle_type_id":"4","last_reported":1718399304,"current_range_meters":800,"station_id":"ce4bha92rcd13ifvqeh0","pricing_plan_id":"cebpf4jnsgd1na2vs0mg"},{"bike_id":"67476789-3895-4023-9529-7d049fcdf5ab","system_id":"levelo_inurba_marseille","lat":43.285856,"lon":5.350771,"is_reserved":false,"is_disabled":false,"rental_uris":{"android":"levelo://app?vid=67476789-3895-4023-9529-7d049fcdf5ab","ios":"levelo://app?vid=67476789-3895-4023-9529-7d049fcdf5ab"},"vehicle_type_id":"4","last_reported":1718399304,"current_range_meters":9200,"station_id":"ce4bhch2rcd13ifvqeug","pricing_plan_id":"cebpf4jnsgd1na2vs0mg"},{"bike_id":"32b3463c-2d23-4878-9dba-a724cde97b96","system_id":"levelo_inurba_marseille","lat":43.30889,"lon":5.39634,"is_reserved":false,"is_disabled":false,"rental_uris":{"android":"levelo://app?vid=32b3463c-2d23-4878-9dba-a724cde97b96","ios":"levelo://app?vid=32b3463c-2d23-4878-9dba-a724cde97b96"},"vehicle_type_id":"4","last_reported":1718399304,"current_range_meters":19200,"station_id":"ce4bh012rcd13ifvqcv0","pricing_plan_id":"cebpf4jnsgd1na2vs0mg"},{"bike_id":"397a2823-6abe-438c-b7c5-d5928ff7850a","system_id":"levelo_inurba_marseille","lat":43.30881,"lon":5.3964,"is_reserved":false,"is_disabled":false,"rental_uris":{"android":"levelo://app?vid=397a2823-6abe-438c-b7c5-d5928ff7850a","ios":"levelo://app?vid=397a2823-6abe-438c-b7c5-d5928ff7850a"},"vehicle_type_id":"4","last_reported":1718399304,"current_range_meters":2800,"station_id":"ce4bh012rcd13ifvqcv0","pricing_plan_id":"cebpf4jnsgd1na2vs0mg"},{"bike_id":"c228cf81-988c-49ed-a04a-81579fe9af86","system_id":"levelo_inurba_marseille","lat":43.291994,"lon":5.357886,"is_reserved":false,"is_disabled":false,"rental_uris":{"android":"levelo://app?vid=c228cf81-988c-49ed-a04a-81579fe9af86","ios":"levelo://app?vid=c228cf81-988c-49ed-a04a-81579fe9af86"},"vehicle_type_id":"4","last_reported":1718399304,"current_range_meters":21200,"station_id":"ce4bhb12rcd13ifvqel0","pricing_plan_id":"cebpf4jnsgd1na2vs0mg"},{"bike_id":"c28a5f72-d922-40f1-ac46-b597ad2386c5","system_id":"levelo_inurba_marseille","lat":43.31334,"lon":5.39691,"is_reserved":false,"is_disabled":false,"rental_uris":{"android":"levelo://app?vid=c28a5f72-d922-40f1-ac46-b597ad2386c5","ios":"levelo://app?vid=c28a5f72-d922-40f1-ac46-b597ad2386c5"},"vehicle_type_id":"4","last_reported":1718399304,"current_range_meters":0,"station_id":"ce4bgvp2rcd13ifvqcu0","pricing_plan_id":"cebpf4jnsgd1na2vs0mg"},{"bike_id":"3ffc0be7-c40c-4891-9d9e-d0da5198f521","system_id":"levelo_inurba_marseille","lat":43.313291,"lon":5.396838,"is_reserved":false,"is_disabled":false,"rental_uris":{"android":"levelo://app?vid=3ffc0be7-c40c-4891-9d9e-d0da5198f521","ios":"levelo://app?vid=3ffc0be7-c40c-4891-9d9e-d0da5198f521"},"vehicle_type_id":"4","last_reported":1718399304,"current_range_meters":26800,"station_id":"ce4bgvp2rcd13ifvqcu0","pricing_plan_id":"cebpf4jnsgd1na2vs0mg"},{"bike_id":"72b9fbbc-a239-4854-9f80-f967625f5dee","system_id":"levelo_inurba_marseille","lat":43.313291,"lon":5.396838,"is_reserved":false,"is_disabled":false,"rental_uris":{"android":"levelo://app?vid=72b9fbbc-a239-4854-9f80-f967625f5dee","ios":"levelo://app?vid=72b9fbbc-a239-4854-9f80-f967625f5dee"},"vehicle_type_id":"4","last_reported":1718399304,"current_range_meters":4000,"station_id":"ce4bgvp2rcd13ifvqcu0","pricing_plan_id":"cebpf4jnsgd1na2vs0mg"},{"bike_id":"8bd09d14-2751-47bc-874a-84bc90d1c87a","system_id":"levelo_inurba_marseille","lat":43.308843,"lon":5.396469,"is_reserved":false,"is_disabled":false,"rental_uris":{"android":"levelo://app?vid=8bd09d14-2751-47bc-874a-84bc90d1c87a","ios":"levelo://app?vid=8bd09d14-2751-47bc-874a-84bc90d1c87a"},"vehicle_type_id":"4","last_reported":1718399304,"current_range_meters":10800,"station_id":"ce4bh012rcd13ifvqcv0","pricing_plan_id":"cebpf4jnsgd1na2vs0mg"},{"bike_id":"b4d83530-0af9-4157-9430-973bcffc8560","system_id":"levelo_inurba_marseille","lat":43.30888,"lon":5.39648,"is_reserved":false,"is_disabled":false,"rental_uris":{"android":"levelo://app?vid=b4d83530-0af9-4157-9430-973bcffc8560","ios":"levelo://app?vid=b4d83530-0af9-4157-9430-973bcffc8560"},"vehicle_type_id":"4","last_reported":1718399304,"current_range_meters":12000,"station_id":"ce4bh012rcd13ifvqcv0","pricing_plan_id":"cebpf4jnsgd1na2vs0mg"},{"bike_id":"bc510a87-72d4-41bd-a994-02d19d98750f","system_id":"levelo_inurba_marseille","lat":43.31333,"lon":5.39696,"is_reserved":false,"is_disabled":false,"rental_uris":{"android":"levelo://app?vid=bc510a87-72d4-41bd-a994-02d19d98750f","ios":"levelo://app?vid=bc510a87-72d4-41bd-a994-02d19d98750f"},"vehicle_type_id":"4","last_reported":1718399304,"current_range_meters":0,"station_id":"ce4bgvp2rcd13ifvqcu0","pricing_plan_id":"cebpf4jnsgd1na2vs0mg"},{"bike_id":"346f0d8b-bca2-4939-aad7-a6ff3fb1386f","system_id":"levelo_inurba_marseille","lat":43.313291,"lon":5.396838,"is_reserved":false,"is_disabled":false,"rental_uris":{"android":"levelo://app?vid=346f0d8b-bca2-4939-aad7-a6ff3fb1386f","ios":"levelo://app?vid=346f0d8b-bca2-4939-aad7-a6ff3fb1386f"},"vehicle_type_id":"4","last_reported":1718399304,"current_range_meters":30400,"station_id":"ce4bgvp2rcd13ifvqcu0","pricing_plan_id":"cebpf4jnsgd1na2vs0mg"},{"bike_id":"89abc464-9d1c-48ca-bc96-792309d78224","system_id":"levelo_inurba_marseille","lat":43.30885,"lon":5.39651,"is_reserved":false,"is_disabled":false,"rental_uris":{"android":"levelo://app?vid=89abc464-9d1c-48ca-bc96-792309d78224","ios":"levelo://app?vid=89abc464-9d1c-48ca-bc96-792309d78224"},"vehicle_type_id":"4","last_reported":1718399304,"current_range_meters":2800,"station_id":"ce4bh012rcd13ifvqcv0","pricing_plan_id":"cebpf4jnsgd1na2vs0mg"},{"bike_id":"558ed27a-0502-4ecf-a7ab-e1313281d32e","system_id":"levelo_inurba_marseille","lat":43.30879,"lon":5.39655,"is_reserved":false,"is_disabled":false,"rental_uris":{"android":"levelo://app?vid=558ed27a-0502-4ecf-a7ab-e1313281d32e","ios":"levelo://app?vid=558ed27a-0502-4ecf-a7ab-e1313281d32e"},"vehicle_type_id":"4","last_reported":1718399304,"current_range_meters":17600,"station_id":"ce4bh012rcd13ifvqcv0","pricing_plan_id":"cebpf4jnsgd1na2vs0mg"},{"bike_id":"bd1dbc5a-7c90-4f2d-8362-fed314be4aba","system_id":"levelo_inurba_marseille","lat":43.29529,"lon":5.385581,"is_reserved":false,"is_disabled":false,"rental_uris":{"android":"levelo://app?vid=bd1dbc5a-7c90-4f2d-8362-fed314be4aba","ios":"levelo://app?vid=bd1dbc5a-7c90-4f2d-8362-fed314be4aba"},"vehicle_type_id":"4","last_reported":1718399304,"current_range_meters":20800,"station_id":"ce4bgih2rcd13ifvqba0","pricing_plan_id":"cebpf4jnsgd1na2vs0mg"},{"bike_id":"ab4f1298-a43b-4d31-bb1d-64ab43ebd440","system_id":"levelo_inurba_marseille","lat":43.290779,"lon":5.371482,"is_reserved":false,"is_disabled":false,"rental_uris":{"android":"levelo://app?vid=ab4f1298-a43b-4d31-bb1d-64ab43ebd440","ios":"levelo://app?vid=ab4f1298-a43b-4d31-bb1d-64ab43ebd440"},"vehicle_type_id":"4","last_reported":1718399304,"current_range_meters":5600,"station_id":"ce4bh5p2rcd13ifvqe4g","pricing_plan_id":"cebpf4jnsgd1na2vs0mg"},{"bike_id":"8cdb185a-7d55-4992-a5b8-093c15df1e48","system_id":"levelo_inurba_marseille","lat":43.289184,"lon":5.366408,"is_reserved":false,"is_disabled":false,"rental_uris":{"android":"levelo://app?vid=8cdb185a-7d55-4992-a5b8-093c15df1e48","ios":"levelo://app?vid=8cdb185a-7d55-4992-a5b8-093c15df1e48"},"vehicle_type_id":"4","last_reported":1718399304,"current_range_meters":0,"station_id":"ce4bhap2rcd13ifvqek0","pricing_plan_id":"cebpf4jnsgd1na2vs0mg"},{"bike_id":"b973130f-2749-4b3a-8e25-6a8f194da6ff","system_id":"levelo_inurba_marseille","lat":43.289184,"lon":5.366408,"is_reserved":false,"is_disabled":false,"rental_uris":{"android":"levelo://app?vid=b973130f-2749-4b3a-8e25-6a8f194da6ff","ios":"levelo://app?vid=b973130f-2749-4b3a-8e25-6a8f194da6ff"},"vehicle_type_id":"4","last_reported":1718399304,"current_range_meters":0,"station_id":"ce4bhap2rcd13ifvqek0","pricing_plan_id":"cebpf4jnsgd1na2vs0mg"},{"bike_id":"f44311ea-1314-4a9a-b76e-9c2167eb4be1","system_id":"levelo_inurba_marseille","lat":43.289468,"lon":5.363719,"is_reserved":false,"is_disabled":false,"rental_uris":{"android":"levelo://app?vid=f44311ea-1314-4a9a-b76e-9c2167eb4be1","ios":"levelo://app?vid=f44311ea-1314-4a9a-b76e-9c2167eb4be1"},"vehicle_type_id":"4","last_reported":1718399304,"current_range_meters":10000,"station_id":"ce4bhc92rcd13ifvqetg","pricing_plan_id":"cebpf4jnsgd1na2vs0mg"},{"bike_id":"4eaf905f-6145-4f27-ba46-43738122e40a","system_id":"levelo_inurba_marseille","lat":43.32947,"lon":5.39012,"is_reserved":false,"is_disabled":false,"rental_uris":{"android":"levelo://app?vid=4eaf905f-6145-4f27-ba46-43738122e40a","ios":"levelo://app?vid=4eaf905f-6145-4f27-ba46-43738122e40a"},"vehicle_type_id":"4","last_reported":1718399304,"current_range_meters":28800,"station_id":"","pricing_plan_id":"cebpf4jnsgd1na2vs0mg"},{"bike_id":"fa902305-27d3-489b-8961-123d96e12cd3","system_id":"levelo_inurba_marseille","lat":43.304296,"lon":5.397513,"is_reserved":false,"is_disabled":false,"rental_uris":{"android":"levelo://app?vid=fa902305-27d3-489b-8961-123d96e12cd3","ios":"levelo://app?vid=fa902305-27d3-489b-8961-123d96e12cd3"},"vehicle_type_id":"4","last_reported":1718399304,"current_range_meters":16800,"station_id":"ce4bh092rcd13ifvqd20","pricing_plan_id":"cebpf4jnsgd1na2vs0mg"},{"bike_id":"fcbd0937-03ec-4105-acaa-1488b20fc27d","system_id":"levelo_inurba_marseille","lat":43.29256,"lon":5.38442,"is_reserved":false,"is_disabled":false,"rental_uris":{"android":"levelo://app?vid=fcbd0937-03ec-4105-acaa-1488b20fc27d","ios":"levelo://app?vid=fcbd0937-03ec-4105-acaa-1488b20fc27d"},"vehicle_type_id":"4","last_reported":1718399304,"current_range_meters":0,"station_id":"ce4bh692rcd13ifvqea0","pricing_plan_id":"cebpf4jnsgd1na2vs0mg"},{"bike_id":"38afcaed-6bd0-4938-8fad-cb08336c9dde","system_id":"levelo_inurba_marseille","lat":43.290104,"lon":5.356111,"is_reserved":false,"is_disabled":false,"rental_uris":{"android":"levelo://app?vid=38afcaed-6bd0-4938-8fad-cb08336c9dde","ios":"levelo://app?vid=38afcaed-6bd0-4938-8fad-cb08336c9dde"},"vehicle_type_id":"4","last_reported":1718399304,"current_range_meters":1600,"station_id":"ce4bhb92rcd13ifvqen0","pricing_plan_id":"cebpf4jnsgd1na2vs0mg"},{"bike_id":"8ce94f48-b36d-47a8-ac44-2f395345771a","system_id":"levelo_inurba_marseille","lat":43.290067,"lon":5.35577,"is_reserved":false,"is_disabled":false,"rental_uris":{"android":"levelo://app?vid=8ce94f48-b36d-47a8-ac44-2f395345771a","ios":"levelo://app?vid=8ce94f48-b36d-47a8-ac44-2f395345771a"},"vehicle_type_id":"4","last_reported":1718399304,"current_range_meters":0,"station_id":"","pricing_plan_id":"cebpf4jnsgd1na2vs0mg"},{"bike_id":"8a08ae1c-b659-4770-b674-6b44bde22f97","system_id":"levelo_inurba_marseille","lat":43.297815,"lon":5.393548,"is_reserved":false,"is_disabled":false,"rental_uris":{"android":"levelo://app?vid=8a08ae1c-b659-4770-b674-6b44bde22f97","ios":"levelo://app?vid=8a08ae1c-b659-4770-b674-6b44bde22f97"},"vehicle_type_id":"4","last_reported":1718399304,"current_range_meters":30000,"station_id":"chh1huq6cuj3fo74tm60","pricing_plan_id":"cebpf4jnsgd1na2vs0mg"},{"bike_id":"7b6b5c2c-0d04-4c69-938c-efb4789c8d09","system_id":"levelo_inurba_marseille","lat":43.297815,"lon":5.393548,"is_reserved":false,"is_disabled":false,"rental_uris":{"android":"levelo://app?vid=7b6b5c2c-0d04-4c69-938c-efb4789c8d09","ios":"levelo://app?vid=7b6b5c2c-0d04-4c69-938c-efb4789c8d09"},"vehicle_type_id":"4","last_reported":1718399304,"current_range_meters":30800,"station_id":"chh1huq6cuj3fo74tm60","pricing_plan_id":"cebpf4jnsgd1na2vs0mg"},{"bike_id":"93302c4d-4d79-48e7-aa4b-8e008b819cde","system_id":"levelo_inurba_marseille","lat":43.28977,"lon":5.37827,"is_reserved":false,"is_disabled":false,"rental_uris":{"android":"levelo://app?vid=93302c4d-4d79-48e7-aa4b-8e008b819cde","ios":"levelo://app?vid=93302c4d-4d79-48e7-aa4b-8e008b819cde"},"vehicle_type_id":"4","last_reported":1718399304,"current_range_meters":0,"station_id":"ce4bh9p2rcd13ifvqed0","pricing_plan_id":"cebpf4jnsgd1na2vs0mg"},{"bike_id":"5f61f95a-f30e-4d95-aab0-67e90523978e","system_id":"levelo_inurba_marseille","lat":43.330442,"lon":5.389148,"is_reserved":false,"is_disabled":false,"rental_uris":{"android":"levelo://app?vid=5f61f95a-f30e-4d95-aab0-67e90523978e","ios":"levelo://app?vid=5f61f95a-f30e-4d95-aab0-67e90523978e"},"vehicle_type_id":"4","last_reported":1718399304,"current_range_meters":8800,"station_id":"ce4bhr92rcd13ifvqhrg","pricing_plan_id":"cebpf4jnsgd1na2vs0mg"},{"bike_id":"dbcd7471-a62a-479d-82f5-10a37d745d37","system_id":"levelo_inurba_marseille","lat":43.28972,"lon":5.37826,"is_reserved":false,"is_disabled":false,"rental_uris":{"android":"levelo://app?vid=dbcd7471-a62a-479d-82f5-10a37d745d37","ios":"levelo://app?vid=dbcd7471-a62a-479d-82f5-10a37d745d37"},"vehicle_type_id":"4","last_reported":1718399304,"current_range_meters":20800,"station_id":"ce4bh9p2rcd13ifvqed0","pricing_plan_id":"cebpf4jnsgd1na2vs0mg"},{"bike_id":"0604af3d-abcd-4df6-a70e-a1dadcad768b","system_id":"levelo_inurba_marseille","lat":43.330442,"lon":5.389148,"is_reserved":false,"is_disabled":false,"rental_uris":{"android":"levelo://app?vid=0604af3d-abcd-4df6-a70e-a1dadcad768b","ios":"levelo://app?vid=0604af3d-abcd-4df6-a70e-a1dadcad768b"},"vehicle_type_id":"4","last_reported":1718399304,"current_range_meters":17200,"station_id":"ce4bhr92rcd13ifvqhrg","pricing_plan_id":"cebpf4jnsgd1na2vs0mg"},{"bike_id":"46980f1c-27b1-4202-ae54-34f005cdc9e9","system_id":"levelo_inurba_marseille","lat":43.330442,"lon":5.389148,"is_reserved":false,"is_disabled":false,"rental_uris":{"android":"levelo://app?vid=46980f1c-27b1-4202-ae54-34f005cdc9e9","ios":"levelo://app?vid=46980f1c-27b1-4202-ae54-34f005cdc9e9"},"vehicle_type_id":"4","last_reported":1718399304,"current_range_meters":12400,"station_id":"ce4bhr92rcd13ifvqhrg","pricing_plan_id":"cebpf4jnsgd1na2vs0mg"},{"bike_id":"df4b3b69-caec-4af7-8944-58bbb088c20a","system_id":"levelo_inurba_marseille","lat":43.330442,"lon":5.389148,"is_reserved":false,"is_disabled":false,"rental_uris":{"android":"levelo://app?vid=df4b3b69-caec-4af7-8944-58bbb088c20a","ios":"levelo://app?vid=df4b3b69-caec-4af7-8944-58bbb088c20a"},"vehicle_type_id":"4","last_reported":1718399304,"current_range_meters":8400,"station_id":"ce4bhr92rcd13ifvqhrg","pricing_plan_id":"cebpf4jnsgd1na2vs0mg"},{"bike_id":"d66a66b9-6b89-4ac3-a027-04ddf51ec1d1","system_id":"levelo_inurba_marseille","lat":43.330442,"lon":5.389148,"is_reserved":false,"is_disabled":false,"rental_uris":{"android":"levelo://app?vid=d66a66b9-6b89-4ac3-a027-04ddf51ec1d1","ios":"levelo://app?vid=d66a66b9-6b89-4ac3-a027-04ddf51ec1d1"},"vehicle_type_id":"4","last_reported":1718399304,"current_range_meters":17200,"station_id":"ce4bhr92rcd13ifvqhrg","pricing_plan_id":"cebpf4jnsgd1na2vs0mg"},{"bike_id":"8e08d330-059b-492b-b34a-3aef8c873470","system_id":"levelo_inurba_marseille","lat":43.279465,"lon":5.410561,"is_reserved":false,"is_disabled":false,"rental_uris":{"android":"levelo://app?vid=8e08d330-059b-492b-b34a-3aef8c873470","ios":"levelo://app?vid=8e08d330-059b-492b-b34a-3aef8c873470"},"vehicle_type_id":"4","last_reported":1718399304,"current_range_meters":14800,"station_id":"ce4bhnp2rcd13ifvqh0g","pricing_plan_id":"cebpf4jnsgd1na2vs0mg"},{"bike_id":"2addb3bd-151a-48af-9634-6eaf9af7e696","system_id":"levelo_inurba_marseille","lat":43.28856,"lon":5.358371,"is_reserved":false,"is_disabled":false,"rental_uris":{"android":"levelo://app?vid=2addb3bd-151a-48af-9634-6eaf9af7e696","ios":"levelo://app?vid=2addb3bd-151a-48af-9634-6eaf9af7e696"},"vehicle_type_id":"4","last_reported":1718399304,"current_range_meters":0,"station_id":"ce4bhb12rcd13ifvqem0","pricing_plan_id":"cebpf4jnsgd1na2vs0mg"},{"bike_id":"a09e89f4-4db0-497a-a6f1-80a0273a4f2d","system_id":"levelo_inurba_marseille","lat":43.2901,"lon":5.381269,"is_reserved":false,"is_disabled":false,"rental_uris":{"android":"levelo://app?vid=a09e89f4-4db0-497a-a6f1-80a0273a4f2d","ios":"levelo://app?vid=a09e89f4-4db0-497a-a6f1-80a0273a4f2d"},"vehicle_type_id":"4","last_reported":1718399304,"current_range_meters":800,"station_id":"ce4bh4p2rcd13ifvqe1g","pricing_plan_id":"cebpf4jnsgd1na2vs0mg"},{"bike_id":"d83e11f6-c0e0-4462-8e38-bff02290cb53","system_id":"levelo_inurba_marseille","lat":43.28856,"lon":5.358371,"is_reserved":false,"is_disabled":false,"rental_uris":{"android":"levelo://app?vid=d83e11f6-c0e0-4462-8e38-bff02290cb53","ios":"levelo://app?vid=d83e11f6-c0e0-4462-8e38-bff02290cb53"},"vehicle_type_id":"4","last_reported":1718399304,"current_range_meters":11600,"station_id":"ce4bhb12rcd13ifvqem0","pricing_plan_id":"cebpf4jnsgd1na2vs0mg"},{"bike_id":"bc52dfaf-babc-4138-b1b2-343e61745268","system_id":"levelo_inurba_marseille","lat":43.312609,"lon":5.401662,"is_reserved":false,"is_disabled":false,"rental_uris":{"android":"levelo://app?vid=bc52dfaf-babc-4138-b1b2-343e61745268","ios":"levelo://app?vid=bc52dfaf-babc-4138-b1b2-343e61745268"},"vehicle_type_id":"4","last_reported":1718399304,"current_range_meters":15200,"station_id":"ce4bh092rcd13ifvqd30","pricing_plan_id":"cebpf4jnsgd1na2vs0mg"},{"bike_id":"b210619f-e0aa-4e7b-9b64-c3631a0b8d71","system_id":"levelo_inurba_marseille","lat":43.31273,"lon":5.40164,"is_reserved":false,"is_disabled":false,"rental_uris":{"android":"levelo://app?vid=b210619f-e0aa-4e7b-9b64-c3631a0b8d71","ios":"levelo://app?vid=b210619f-e0aa-4e7b-9b64-c3631a0b8d71"},"vehicle_type_id":"4","last_reported":1718399304,"current_range_meters":2400,"station_id":"ce4bh092rcd13ifvqd30","pricing_plan_id":"cebpf4jnsgd1na2vs0mg"},{"bike_id":"e19d1e06-9998-462c-8b59-ee51b0eb1958","system_id":"levelo_inurba_marseille","lat":43.286591,"lon":5.363346,"is_reserved":false,"is_disabled":false,"rental_uris":{"android":"levelo://app?vid=e19d1e06-9998-462c-8b59-ee51b0eb1958","ios":"levelo://app?vid=e19d1e06-9998-462c-8b59-ee51b0eb1958"},"vehicle_type_id":"4","last_reported":1718399304,"current_range_meters":2800,"station_id":"ce4bhah2rcd13ifvqej0","pricing_plan_id":"cebpf4jnsgd1na2vs0mg"},{"bike_id":"33c2206e-a9b3-48c4-8cbe-4e1c60995a82","system_id":"levelo_inurba_marseille","lat":43.309371,"lon":5.401449,"is_reserved":false,"is_disabled":false,"rental_uris":{"android":"levelo://app?vid=33c2206e-a9b3-48c4-8cbe-4e1c60995a82","ios":"levelo://app?vid=33c2206e-a9b3-48c4-8cbe-4e1c60995a82"},"vehicle_type_id":"4","last_reported":1718399304,"current_range_meters":1200,"station_id":"ce4bgvp2rcd13ifvqct0","pricing_plan_id":"cebpf4jnsgd1na2vs0mg"},{"bike_id":"6a583d71-4af0-45cd-a34d-358bcdb42815","system_id":"levelo_inurba_marseille","lat":43.309371,"lon":5.401449,"is_reserved":false,"is_disabled":false,"rental_uris":{"android":"levelo://app?vid=6a583d71-4af0-45cd-a34d-358bcdb42815","ios":"levelo://app?vid=6a583d71-4af0-45cd-a34d-358bcdb42815"},"vehicle_type_id":"4","last_reported":1718399304,"current_range_meters":4400,"station_id":"ce4bgvp2rcd13ifvqct0","pricing_plan_id":"cebpf4jnsgd1na2vs0mg"},{"bike_id":"fcbb9472-4364-4240-829b-6b21b0ddd92a","system_id":"levelo_inurba_marseille","lat":43.309371,"lon":5.401449,"is_reserved":false,"is_disabled":false,"rental_uris":{"android":"levelo://app?vid=fcbb9472-4364-4240-829b-6b21b0ddd92a","ios":"levelo://app?vid=fcbb9472-4364-4240-829b-6b21b0ddd92a"},"vehicle_type_id":"4","last_reported":1718399304,"current_range_meters":0,"station_id":"ce4bgvp2rcd13ifvqct0","pricing_plan_id":"cebpf4jnsgd1na2vs0mg"},{"bike_id":"d3c35657-eade-4aef-a1bd-4113799a0294","system_id":"levelo_inurba_marseille","lat":43.309371,"lon":5.401449,"is_reserved":false,"is_disabled":false,"rental_uris":{"android":"levelo://app?vid=d3c35657-eade-4aef-a1bd-4113799a0294","ios":"levelo://app?vid=d3c35657-eade-4aef-a1bd-4113799a0294"},"vehicle_type_id":"4","last_reported":1718399304,"current_range_meters":16800,"station_id":"ce4bgvp2rcd13ifvqct0","pricing_plan_id":"cebpf4jnsgd1na2vs0mg"},{"bike_id":"dbdf4748-bb56-474d-b70c-54870d128ab0","system_id":"levelo_inurba_marseille","lat":43.309371,"lon":5.401449,"is_reserved":false,"is_disabled":false,"rental_uris":{"android":"levelo://app?vid=dbdf4748-bb56-474d-b70c-54870d128ab0","ios":"levelo://app?vid=dbdf4748-bb56-474d-b70c-54870d128ab0"},"vehicle_type_id":"4","last_reported":1718399304,"current_range_meters":0,"station_id":"ce4bgvp2rcd13ifvqct0","pricing_plan_id":"cebpf4jnsgd1na2vs0mg"},{"bike_id":"fc18fc9c-7d17-4d40-8ffd-a266fa512dea","system_id":"levelo_inurba_marseille","lat":43.33612,"lon":5.410321,"is_reserved":false,"is_disabled":false,"rental_uris":{"android":"levelo://app?vid=fc18fc9c-7d17-4d40-8ffd-a266fa512dea","ios":"levelo://app?vid=fc18fc9c-7d17-4d40-8ffd-a266fa512dea"},"vehicle_type_id":"4","last_reported":1718399304,"current_range_meters":3200,"station_id":"ce4bhqh2rcd13ifvqhmg","pricing_plan_id":"cebpf4jnsgd1na2vs0mg"},{"bike_id":"e26f94ae-4111-459e-9747-baf92248da64","system_id":"levelo_inurba_marseille","lat":43.309371,"lon":5.401449,"is_reserved":false,"is_disabled":false,"rental_uris":{"android":"levelo://app?vid=e26f94ae-4111-459e-9747-baf92248da64","ios":"levelo://app?vid=e26f94ae-4111-459e-9747-baf92248da64"},"vehicle_type_id":"4","last_reported":1718399304,"current_range_meters":0,"station_id":"ce4bgvp2rcd13ifvqct0","pricing_plan_id":"cebpf4jnsgd1na2vs0mg"},{"bike_id":"125c9286-5755-444b-b903-e00077231b8b","system_id":"levelo_inurba_marseille","lat":43.309371,"lon":5.401449,"is_reserved":false,"is_disabled":false,"rental_uris":{"android":"levelo://app?vid=125c9286-5755-444b-b903-e00077231b8b","ios":"levelo://app?vid=125c9286-5755-444b-b903-e00077231b8b"},"vehicle_type_id":"4","last_reported":1718399304,"current_range_meters":20400,"station_id":"ce4bgvp2rcd13ifvqct0","pricing_plan_id":"cebpf4jnsgd1na2vs0mg"},{"bike_id":"3ab4e3ec-07f5-4c5f-8645-e3937796c552","system_id":"levelo_inurba_marseille","lat":43.337562,"lon":5.3745,"is_reserved":false,"is_disabled":false,"rental_uris":{"android":"levelo://app?vid=3ab4e3ec-07f5-4c5f-8645-e3937796c552","ios":"levelo://app?vid=3ab4e3ec-07f5-4c5f-8645-e3937796c552"},"vehicle_type_id":"4","last_reported":1718399304,"current_range_meters":13200,"station_id":"","pricing_plan_id":"cebpf4jnsgd1na2vs0mg"},{"bike_id":"3524e4ef-d297-4600-a277-f5c2e7a85327","system_id":"levelo_inurba_marseille","lat":43.337625,"lon":5.374378,"is_reserved":false,"is_disabled":false,"rental_uris":{"android":"levelo://app?vid=3524e4ef-d297-4600-a277-f5c2e7a85327","ios":"levelo://app?vid=3524e4ef-d297-4600-a277-f5c2e7a85327"},"vehicle_type_id":"4","last_reported":1718399304,"current_range_meters":30000,"station_id":"","pricing_plan_id":"cebpf4jnsgd1na2vs0mg"},{"bike_id":"4606f127-24f6-49ab-9db3-cf76bf609f2b","system_id":"levelo_inurba_marseille","lat":43.33766,"lon":5.37423,"is_reserved":false,"is_disabled":false,"rental_uris":{"android":"levelo://app?vid=4606f127-24f6-49ab-9db3-cf76bf609f2b","ios":"levelo://app?vid=4606f127-24f6-49ab-9db3-cf76bf609f2b"},"vehicle_type_id":"4","last_reported":1718399304,"current_range_meters":12800,"station_id":"","pricing_plan_id":"cebpf4jnsgd1na2vs0mg"},{"bike_id":"3e81f866-15ce-4e8f-ae96-3b3528f87521","system_id":"levelo_inurba_marseille","lat":43.301117,"lon":5.398795,"is_reserved":false,"is_disabled":false,"rental_uris":{"android":"levelo://app?vid=3e81f866-15ce-4e8f-ae96-3b3528f87521","ios":"levelo://app?vid=3e81f866-15ce-4e8f-ae96-3b3528f87521"},"vehicle_type_id":"4","last_reported":1718399304,"current_range_meters":6400,"station_id":"ce4bh0h2rcd13ifvqd40","pricing_plan_id":"cebpf4jnsgd1na2vs0mg"},{"bike_id":"80b67cb5-8017-428e-98bc-c332a1916d83","system_id":"levelo_inurba_marseille","lat":43.28727,"lon":5.36078,"is_reserved":false,"is_disabled":false,"rental_uris":{"android":"levelo://app?vid=80b67cb5-8017-428e-98bc-c332a1916d83","ios":"levelo://app?vid=80b67cb5-8017-428e-98bc-c332a1916d83"},"vehicle_type_id":"4","last_reported":1718399304,"current_range_meters":11200,"station_id":"cki0cbj6b192h4jlfktg","pricing_plan_id":"cebpf4jnsgd1na2vs0mg"},{"bike_id":"2ae90bd9-62d5-47a0-a998-3bd06d445e18","system_id":"levelo_inurba_marseille","lat":43.28727,"lon":5.36078,"is_reserved":false,"is_disabled":false,"rental_uris":{"android":"levelo://app?vid=2ae90bd9-62d5-47a0-a998-3bd06d445e18","ios":"levelo://app?vid=2ae90bd9-62d5-47a0-a998-3bd06d445e18"},"vehicle_type_id":"4","last_reported":1718399304,"current_range_meters":400,"station_id":"cki0cbj6b192h4jlfktg","pricing_plan_id":"cebpf4jnsgd1na2vs0mg"},{"bike_id":"b19cf88b-d1e6-47b7-ab76-b3f63feacf60","system_id":"levelo_inurba_marseille","lat":43.286591,"lon":5.363346,"is_reserved":false,"is_disabled":false,"rental_uris":{"android":"levelo://app?vid=b19cf88b-d1e6-47b7-ab76-b3f63feacf60","ios":"levelo://app?vid=b19cf88b-d1e6-47b7-ab76-b3f63feacf60"},"vehicle_type_id":"4","last_reported":1718399304,"current_range_meters":7200,"station_id":"ce4bhah2rcd13ifvqej0","pricing_plan_id":"cebpf4jnsgd1na2vs0mg"},{"bike_id":"83422739-f413-4eb4-b2aa-42194efbfa5f","system_id":"levelo_inurba_marseille","lat":43.286961,"lon":5.373785,"is_reserved":false,"is_disabled":false,"rental_uris":{"android":"levelo://app?vid=83422739-f413-4eb4-b2aa-42194efbfa5f","ios":"levelo://app?vid=83422739-f413-4eb4-b2aa-42194efbfa5f"},"vehicle_type_id":"4","last_reported":1718399304,"current_range_meters":800,"station_id":"ce4bh3p2rcd13ifvqdq0","pricing_plan_id":"cebpf4jnsgd1na2vs0mg"},{"bike_id":"a1b9a9c0-92da-45cc-99e4-eba895290749","system_id":"levelo_inurba_marseille","lat":43.28702,"lon":5.3739,"is_reserved":false,"is_disabled":false,"rental_uris":{"android":"levelo://app?vid=a1b9a9c0-92da-45cc-99e4-eba895290749","ios":"levelo://app?vid=a1b9a9c0-92da-45cc-99e4-eba895290749"},"vehicle_type_id":"4","last_reported":1718399304,"current_range_meters":30400,"station_id":"ce4bh3p2rcd13ifvqdq0","pricing_plan_id":"cebpf4jnsgd1na2vs0mg"},{"bike_id":"101ca5d0-7104-472b-b085-ff8937900c0a","system_id":"levelo_inurba_marseille","lat":43.286593,"lon":5.363346,"is_reserved":false,"is_disabled":false,"rental_uris":{"android":"levelo://app?vid=101ca5d0-7104-472b-b085-ff8937900c0a","ios":"levelo://app?vid=101ca5d0-7104-472b-b085-ff8937900c0a"},"vehicle_type_id":"4","last_reported":1718399304,"current_range_meters":27600,"station_id":"ce4bhah2rcd13ifvqej0","pricing_plan_id":"cebpf4jnsgd1na2vs0mg"},{"bike_id":"70c24340-7306-44aa-91c3-222ddcaeceed","system_id":"levelo_inurba_marseille","lat":43.286591,"lon":5.363346,"is_reserved":false,"is_disabled":false,"rental_uris":{"android":"levelo://app?vid=70c24340-7306-44aa-91c3-222ddcaeceed","ios":"levelo://app?vid=70c24340-7306-44aa-91c3-222ddcaeceed"},"vehicle_type_id":"4","last_reported":1718399304,"current_range_meters":3200,"station_id":"ce4bhah2rcd13ifvqej0","pricing_plan_id":"cebpf4jnsgd1na2vs0mg"},{"bike_id":"8a93981a-5979-4165-a7da-a0da5c345924","system_id":"levelo_inurba_marseille","lat":43.286613,"lon":5.363475,"is_reserved":false,"is_disabled":false,"rental_uris":{"android":"levelo://app?vid=8a93981a-5979-4165-a7da-a0da5c345924","ios":"levelo://app?vid=8a93981a-5979-4165-a7da-a0da5c345924"},"vehicle_type_id":"4","last_reported":1718399304,"current_range_meters":0,"station_id":"ce4bhah2rcd13ifvqej0","pricing_plan_id":"cebpf4jnsgd1na2vs0mg"},{"bike_id":"9a85e092-6987-49d1-be82-97cf4dbfd35c","system_id":"levelo_inurba_marseille","lat":43.295194,"lon":5.39397,"is_reserved":false,"is_disabled":false,"rental_uris":{"android":"levelo://app?vid=9a85e092-6987-49d1-be82-97cf4dbfd35c","ios":"levelo://app?vid=9a85e092-6987-49d1-be82-97cf4dbfd35c"},"vehicle_type_id":"4","last_reported":1718399304,"current_range_meters":0,"station_id":"ce4bh292rcd13ifvqdf0","pricing_plan_id":"cebpf4jnsgd1na2vs0mg"},{"bike_id":"ffc03504-a9d8-4f69-876c-d94f3b054021","system_id":"levelo_inurba_marseille","lat":43.286961,"lon":5.373785,"is_reserved":false,"is_disabled":false,"rental_uris":{"android":"levelo://app?vid=ffc03504-a9d8-4f69-876c-d94f3b054021","ios":"levelo://app?vid=ffc03504-a9d8-4f69-876c-d94f3b054021"},"vehicle_type_id":"4","last_reported":1718399304,"current_range_meters":23600,"station_id":"ce4bh3p2rcd13ifvqdq0","pricing_plan_id":"cebpf4jnsgd1na2vs0mg"},{"bike_id":"654575ef-08d9-496d-909c-0e67734e8b5c","system_id":"levelo_inurba_marseille","lat":43.286961,"lon":5.373785,"is_reserved":false,"is_disabled":false,"rental_uris":{"android":"levelo://app?vid=654575ef-08d9-496d-909c-0e67734e8b5c","ios":"levelo://app?vid=654575ef-08d9-496d-909c-0e67734e8b5c"},"vehicle_type_id":"4","last_reported":1718399304,"current_range_meters":15200,"station_id":"ce4bh3p2rcd13ifvqdq0","pricing_plan_id":"cebpf4jnsgd1na2vs0mg"},{"bike_id":"fdc6445a-2902-40f2-b59c-75f917dcbb48","system_id":"levelo_inurba_marseille","lat":43.286961,"lon":5.373785,"is_reserved":false,"is_disabled":false,"rental_uris":{"android":"levelo://app?vid=fdc6445a-2902-40f2-b59c-75f917dcbb48","ios":"levelo://app?vid=fdc6445a-2902-40f2-b59c-75f917dcbb48"},"vehicle_type_id":"4","last_reported":1718399304,"current_range_meters":23600,"station_id":"ce4bh3p2rcd13ifvqdq0","pricing_plan_id":"cebpf4jnsgd1na2vs0mg"},{"bike_id":"1c8c74c4-b521-4c90-a2c4-aee02a572403","system_id":"levelo_inurba_marseille","lat":43.286961,"lon":5.373785,"is_reserved":false,"is_disabled":false,"rental_uris":{"android":"levelo://app?vid=1c8c74c4-b521-4c90-a2c4-aee02a572403","ios":"levelo://app?vid=1c8c74c4-b521-4c90-a2c4-aee02a572403"},"vehicle_type_id":"4","last_reported":1718399304,"current_range_meters":11200,"station_id":"ce4bh3p2rcd13ifvqdq0","pricing_plan_id":"cebpf4jnsgd1na2vs0mg"},{"bike_id":"b339e3fb-9081-47bd-b7c3-e5a85700cdbd","system_id":"levelo_inurba_marseille","lat":43.286961,"lon":5.373785,"is_reserved":false,"is_disabled":false,"rental_uris":{"android":"levelo://app?vid=b339e3fb-9081-47bd-b7c3-e5a85700cdbd","ios":"levelo://app?vid=b339e3fb-9081-47bd-b7c3-e5a85700cdbd"},"vehicle_type_id":"4","last_reported":1718399304,"current_range_meters":28800,"station_id":"ce4bh3p2rcd13ifvqdq0","pricing_plan_id":"cebpf4jnsgd1na2vs0mg"},{"bike_id":"aa65dab8-fb9e-4b00-bafd-4be4eb8975ee","system_id":"levelo_inurba_marseille","lat":43.295196,"lon":5.39397,"is_reserved":false,"is_disabled":false,"rental_uris":{"android":"levelo://app?vid=aa65dab8-fb9e-4b00-bafd-4be4eb8975ee","ios":"levelo://app?vid=aa65dab8-fb9e-4b00-bafd-4be4eb8975ee"},"vehicle_type_id":"4","last_reported":1718399304,"current_range_meters":2000,"station_id":"ce4bh292rcd13ifvqdf0","pricing_plan_id":"cebpf4jnsgd1na2vs0mg"},{"bike_id":"d5e21701-d4b5-4dc9-a96e-361230acfd59","system_id":"levelo_inurba_marseille","lat":43.295194,"lon":5.39397,"is_reserved":false,"is_disabled":false,"rental_uris":{"android":"levelo://app?vid=d5e21701-d4b5-4dc9-a96e-361230acfd59","ios":"levelo://app?vid=d5e21701-d4b5-4dc9-a96e-361230acfd59"},"vehicle_type_id":"4","last_reported":1718399304,"current_range_meters":10800,"station_id":"ce4bh292rcd13ifvqdf0","pricing_plan_id":"cebpf4jnsgd1na2vs0mg"},{"bike_id":"17075f97-ae33-4d4c-a413-4571c31ad2d8","system_id":"levelo_inurba_marseille","lat":43.295194,"lon":5.39397,"is_reserved":false,"is_disabled":false,"rental_uris":{"android":"levelo://app?vid=17075f97-ae33-4d4c-a413-4571c31ad2d8","ios":"levelo://app?vid=17075f97-ae33-4d4c-a413-4571c31ad2d8"},"vehicle_type_id":"4","last_reported":1718399304,"current_range_meters":11200,"station_id":"ce4bh292rcd13ifvqdf0","pricing_plan_id":"cebpf4jnsgd1na2vs0mg"},{"bike_id":"b38a74f5-9eae-4374-a833-d68fd16c32e5","system_id":"levelo_inurba_marseille","lat":43.31686,"lon":5.40472,"is_reserved":false,"is_disabled":false,"rental_uris":{"android":"levelo://app?vid=b38a74f5-9eae-4374-a833-d68fd16c32e5","ios":"levelo://app?vid=b38a74f5-9eae-4374-a833-d68fd16c32e5"},"vehicle_type_id":"4","last_reported":1718399304,"current_range_meters":0,"station_id":"ce4bh012rcd13ifvqd00","pricing_plan_id":"cebpf4jnsgd1na2vs0mg"},{"bike_id":"21e1e54a-92dc-4cd4-b701-8f2158335521","system_id":"levelo_inurba_marseille","lat":43.316828,"lon":5.404723,"is_reserved":false,"is_disabled":false,"rental_uris":{"android":"levelo://app?vid=21e1e54a-92dc-4cd4-b701-8f2158335521","ios":"levelo://app?vid=21e1e54a-92dc-4cd4-b701-8f2158335521"},"vehicle_type_id":"4","last_reported":1718399304,"current_range_meters":0,"station_id":"ce4bh012rcd13ifvqd00","pricing_plan_id":"cebpf4jnsgd1na2vs0mg"},{"bike_id":"8572b54f-5e75-40c9-956e-8849924d7e02","system_id":"levelo_inurba_marseille","lat":43.291994,"lon":5.392907,"is_reserved":false,"is_disabled":false,"rental_uris":{"android":"levelo://app?vid=8572b54f-5e75-40c9-956e-8849924d7e02","ios":"levelo://app?vid=8572b54f-5e75-40c9-956e-8849924d7e02"},"vehicle_type_id":"4","last_reported":1718399304,"current_range_meters":14000,"station_id":"ce4bh192rcd13ifvqdd0","pricing_plan_id":"cebpf4jnsgd1na2vs0mg"},{"bike_id":"82354f9f-9a44-4d15-a337-a1e79d42859d","system_id":"levelo_inurba_marseille","lat":43.284534,"lon":5.358662,"is_reserved":false,"is_disabled":false,"rental_uris":{"android":"levelo://app?vid=82354f9f-9a44-4d15-a337-a1e79d42859d","ios":"levelo://app?vid=82354f9f-9a44-4d15-a337-a1e79d42859d"},"vehicle_type_id":"4","last_reported":1718399304,"current_range_meters":0,"station_id":"ce4bhah2rcd13ifvqei0","pricing_plan_id":"cebpf4jnsgd1na2vs0mg"},{"bike_id":"cccfc198-918e-4bd3-801e-eaaa8aba944d","system_id":"levelo_inurba_marseille","lat":43.284538,"lon":5.358657,"is_reserved":false,"is_disabled":false,"rental_uris":{"android":"levelo://app?vid=cccfc198-918e-4bd3-801e-eaaa8aba944d","ios":"levelo://app?vid=cccfc198-918e-4bd3-801e-eaaa8aba944d"},"vehicle_type_id":"4","last_reported":1718399304,"current_range_meters":10400,"station_id":"ce4bhah2rcd13ifvqei0","pricing_plan_id":"cebpf4jnsgd1na2vs0mg"},{"bike_id":"793f0af4-877b-429d-be6f-3fc3a8ffb014","system_id":"levelo_inurba_marseille","lat":43.284538,"lon":5.358657,"is_reserved":false,"is_disabled":false,"rental_uris":{"android":"levelo://app?vid=793f0af4-877b-429d-be6f-3fc3a8ffb014","ios":"levelo://app?vid=793f0af4-877b-429d-be6f-3fc3a8ffb014"},"vehicle_type_id":"4","last_reported":1718399304,"current_range_meters":3200,"station_id":"ce4bhah2rcd13ifvqei0","pricing_plan_id":"cebpf4jnsgd1na2vs0mg"},{"bike_id":"f1dbb8db-a2e9-41e0-abc5-5baa31294548","system_id":"levelo_inurba_marseille","lat":43.284534,"lon":5.358662,"is_reserved":false,"is_disabled":false,"rental_uris":{"android":"levelo://app?vid=f1dbb8db-a2e9-41e0-abc5-5baa31294548","ios":"levelo://app?vid=f1dbb8db-a2e9-41e0-abc5-5baa31294548"},"vehicle_type_id":"4","last_reported":1718399304,"current_range_meters":26000,"station_id":"ce4bhah2rcd13ifvqei0","pricing_plan_id":"cebpf4jnsgd1na2vs0mg"},{"bike_id":"9b44000f-f646-4d81-b8ad-7dbf7662f6ad","system_id":"levelo_inurba_marseille","lat":43.284538,"lon":5.358657,"is_reserved":false,"is_disabled":false,"rental_uris":{"android":"levelo://app?vid=9b44000f-f646-4d81-b8ad-7dbf7662f6ad","ios":"levelo://app?vid=9b44000f-f646-4d81-b8ad-7dbf7662f6ad"},"vehicle_type_id":"4","last_reported":1718399304,"current_range_meters":26800,"station_id":"ce4bhah2rcd13ifvqei0","pricing_plan_id":"cebpf4jnsgd1na2vs0mg"},{"bike_id":"9876ba59-2fbe-44e7-9860-5ff17f8c15a8","system_id":"levelo_inurba_marseille","lat":43.294314,"lon":5.397498,"is_reserved":false,"is_disabled":false,"rental_uris":{"android":"levelo://app?vid=9876ba59-2fbe-44e7-9860-5ff17f8c15a8","ios":"levelo://app?vid=9876ba59-2fbe-44e7-9860-5ff17f8c15a8"},"vehicle_type_id":"4","last_reported":1718399304,"current_range_meters":23200,"station_id":"ce4bh3h2rcd13ifvqdo0","pricing_plan_id":"cebpf4jnsgd1na2vs0mg"},{"bike_id":"7aab6099-758a-4df9-af95-6ea82282ba26","system_id":"levelo_inurba_marseille","lat":43.285848,"lon":5.350787,"is_reserved":false,"is_disabled":false,"rental_uris":{"android":"levelo://app?vid=7aab6099-758a-4df9-af95-6ea82282ba26","ios":"levelo://app?vid=7aab6099-758a-4df9-af95-6ea82282ba26"},"vehicle_type_id":"4","last_reported":1718399304,"current_range_meters":0,"station_id":"ce4bhch2rcd13ifvqeug","pricing_plan_id":"cebpf4jnsgd1na2vs0mg"},{"bike_id":"6e5ac248-8b95-4d9c-924d-c93c13840781","system_id":"levelo_inurba_marseille","lat":43.28616,"lon":5.35102,"is_reserved":false,"is_disabled":false,"rental_uris":{"android":"levelo://app?vid=6e5ac248-8b95-4d9c-924d-c93c13840781","ios":"levelo://app?vid=6e5ac248-8b95-4d9c-924d-c93c13840781"},"vehicle_type_id":"4","last_reported":1718399304,"current_range_meters":29600,"station_id":"","pricing_plan_id":"cebpf4jnsgd1na2vs0mg"},{"bike_id":"3eca11d3-3bb8-4c28-b71f-19f7e2a5619a","system_id":"levelo_inurba_marseille","lat":43.283998,"lon":5.375062,"is_reserved":false,"is_disabled":false,"rental_uris":{"android":"levelo://app?vid=3eca11d3-3bb8-4c28-b71f-19f7e2a5619a","ios":"levelo://app?vid=3eca11d3-3bb8-4c28-b71f-19f7e2a5619a"},"vehicle_type_id":"4","last_reported":1718399304,"current_range_meters":12000,"station_id":"ce4bh412rcd13ifvqds0","pricing_plan_id":"cebpf4jnsgd1na2vs0mg"},{"bike_id":"8e66a7b2-b501-4d58-b8c3-f68b6b7f6236","system_id":"levelo_inurba_marseille","lat":43.28417,"lon":5.37521,"is_reserved":false,"is_disabled":false,"rental_uris":{"android":"levelo://app?vid=8e66a7b2-b501-4d58-b8c3-f68b6b7f6236","ios":"levelo://app?vid=8e66a7b2-b501-4d58-b8c3-f68b6b7f6236"},"vehicle_type_id":"4","last_reported":1718399304,"current_range_meters":8800,"station_id":"ce4bh412rcd13ifvqds0","pricing_plan_id":"cebpf4jnsgd1na2vs0mg"},{"bike_id":"2aa422f2-5f10-4e12-b6cb-4a4a1dd1ad56","system_id":"levelo_inurba_marseille","lat":43.284108,"lon":5.375024,"is_reserved":false,"is_disabled":false,"rental_uris":{"android":"levelo://app?vid=2aa422f2-5f10-4e12-b6cb-4a4a1dd1ad56","ios":"levelo://app?vid=2aa422f2-5f10-4e12-b6cb-4a4a1dd1ad56"},"vehicle_type_id":"4","last_reported":1718399304,"current_range_meters":1600,"station_id":"ce4bh412rcd13ifvqds0","pricing_plan_id":"cebpf4jnsgd1na2vs0mg"},{"bike_id":"89c77e2c-9caa-4961-bab6-a277dbbeb84a","system_id":"levelo_inurba_marseille","lat":43.28409,"lon":5.37515,"is_reserved":false,"is_disabled":false,"rental_uris":{"android":"levelo://app?vid=89c77e2c-9caa-4961-bab6-a277dbbeb84a","ios":"levelo://app?vid=89c77e2c-9caa-4961-bab6-a277dbbeb84a"},"vehicle_type_id":"4","last_reported":1718399304,"current_range_meters":26400,"station_id":"ce4bh412rcd13ifvqds0","pricing_plan_id":"cebpf4jnsgd1na2vs0mg"},{"bike_id":"58427fe0-80ae-4ec9-a9f2-ecc918643e53","system_id":"levelo_inurba_marseille","lat":43.28406,"lon":5.37502,"is_reserved":false,"is_disabled":false,"rental_uris":{"android":"levelo://app?vid=58427fe0-80ae-4ec9-a9f2-ecc918643e53","ios":"levelo://app?vid=58427fe0-80ae-4ec9-a9f2-ecc918643e53"},"vehicle_type_id":"4","last_reported":1718399304,"current_range_meters":24800,"station_id":"ce4bh412rcd13ifvqds0","pricing_plan_id":"cebpf4jnsgd1na2vs0mg"},{"bike_id":"8a70baf9-ae2e-42ce-a989-d21ef2a8d020","system_id":"levelo_inurba_marseille","lat":43.28405,"lon":5.37523,"is_reserved":false,"is_disabled":false,"rental_uris":{"android":"levelo://app?vid=8a70baf9-ae2e-42ce-a989-d21ef2a8d020","ios":"levelo://app?vid=8a70baf9-ae2e-42ce-a989-d21ef2a8d020"},"vehicle_type_id":"4","last_reported":1718399304,"current_range_meters":4800,"station_id":"ce4bh412rcd13ifvqds0","pricing_plan_id":"cebpf4jnsgd1na2vs0mg"},{"bike_id":"799a7dc3-c0e3-4d78-80a1-950d1322b8da","system_id":"levelo_inurba_marseille","lat":43.295713,"lon":5.399639,"is_reserved":false,"is_disabled":false,"rental_uris":{"android":"levelo://app?vid=799a7dc3-c0e3-4d78-80a1-950d1322b8da","ios":"levelo://app?vid=799a7dc3-c0e3-4d78-80a1-950d1322b8da"},"vehicle_type_id":"4","last_reported":1718399304,"current_range_meters":20800,"station_id":"ce4bh312rcd13ifvqdj0","pricing_plan_id":"cebpf4jnsgd1na2vs0mg"},{"bike_id":"438f860d-f792-42e8-bab8-70b9304488ee","system_id":"levelo_inurba_marseille","lat":43.28401,"lon":5.3751,"is_reserved":false,"is_disabled":false,"rental_uris":{"android":"levelo://app?vid=438f860d-f792-42e8-bab8-70b9304488ee","ios":"levelo://app?vid=438f860d-f792-42e8-bab8-70b9304488ee"},"vehicle_type_id":"4","last_reported":1718399304,"current_range_meters":27200,"station_id":"ce4bh412rcd13ifvqds0","pricing_plan_id":"cebpf4jnsgd1na2vs0mg"},{"bike_id":"94ddb47f-e75c-47ad-99db-6d994d9b0bfa","system_id":"levelo_inurba_marseille","lat":43.286595,"lon":5.386795,"is_reserved":false,"is_disabled":false,"rental_uris":{"android":"levelo://app?vid=94ddb47f-e75c-47ad-99db-6d994d9b0bfa","ios":"levelo://app?vid=94ddb47f-e75c-47ad-99db-6d994d9b0bfa"},"vehicle_type_id":"4","last_reported":1718399304,"current_range_meters":10000,"station_id":"ce4bh492rcd13ifvqdug","pricing_plan_id":"cebpf4jnsgd1na2vs0mg"},{"bike_id":"beb24568-1027-4952-adce-6ad65ee0f12e","system_id":"levelo_inurba_marseille","lat":43.286595,"lon":5.386795,"is_reserved":false,"is_disabled":false,"rental_uris":{"android":"levelo://app?vid=beb24568-1027-4952-adce-6ad65ee0f12e","ios":"levelo://app?vid=beb24568-1027-4952-adce-6ad65ee0f12e"},"vehicle_type_id":"4","last_reported":1718399304,"current_range_meters":28400,"station_id":"ce4bh492rcd13ifvqdug","pricing_plan_id":"cebpf4jnsgd1na2vs0mg"},{"bike_id":"74aa47e3-59e4-4f12-b77e-459f2715dd47","system_id":"levelo_inurba_marseille","lat":43.286595,"lon":5.386795,"is_reserved":false,"is_disabled":false,"rental_uris":{"android":"levelo://app?vid=74aa47e3-59e4-4f12-b77e-459f2715dd47","ios":"levelo://app?vid=74aa47e3-59e4-4f12-b77e-459f2715dd47"},"vehicle_type_id":"4","last_reported":1718399304,"current_range_meters":0,"station_id":"ce4bh492rcd13ifvqdug","pricing_plan_id":"cebpf4jnsgd1na2vs0mg"},{"bike_id":"035dc141-7829-43b4-982f-23f8d920018f","system_id":"levelo_inurba_marseille","lat":43.28671,"lon":5.38662,"is_reserved":false,"is_disabled":false,"rental_uris":{"android":"levelo://app?vid=035dc141-7829-43b4-982f-23f8d920018f","ios":"levelo://app?vid=035dc141-7829-43b4-982f-23f8d920018f"},"vehicle_type_id":"4","last_reported":1718399304,"current_range_meters":0,"station_id":"ce4bh492rcd13ifvqdug","pricing_plan_id":"cebpf4jnsgd1na2vs0mg"},{"bike_id":"e473ee92-9237-4b19-a3a3-f31e12e03cf1","system_id":"levelo_inurba_marseille","lat":43.286595,"lon":5.386795,"is_reserved":false,"is_disabled":false,"rental_uris":{"android":"levelo://app?vid=e473ee92-9237-4b19-a3a3-f31e12e03cf1","ios":"levelo://app?vid=e473ee92-9237-4b19-a3a3-f31e12e03cf1"},"vehicle_type_id":"4","last_reported":1718399304,"current_range_meters":400,"station_id":"ce4bh492rcd13ifvqdug","pricing_plan_id":"cebpf4jnsgd1na2vs0mg"},{"bike_id":"e531e682-0a03-49e7-8e2c-804b20c1ed2e","system_id":"levelo_inurba_marseille","lat":43.286595,"lon":5.386795,"is_reserved":false,"is_disabled":false,"rental_uris":{"android":"levelo://app?vid=e531e682-0a03-49e7-8e2c-804b20c1ed2e","ios":"levelo://app?vid=e531e682-0a03-49e7-8e2c-804b20c1ed2e"},"vehicle_type_id":"4","last_reported":1718399304,"current_range_meters":18400,"station_id":"ce4bh492rcd13ifvqdug","pricing_plan_id":"cebpf4jnsgd1na2vs0mg"},{"bike_id":"09de90e9-093b-48a5-ab85-c5d6d34d3843","system_id":"levelo_inurba_marseille","lat":43.319179,"lon":5.407725,"is_reserved":false,"is_disabled":false,"rental_uris":{"android":"levelo://app?vid=09de90e9-093b-48a5-ab85-c5d6d34d3843","ios":"levelo://app?vid=09de90e9-093b-48a5-ab85-c5d6d34d3843"},"vehicle_type_id":"4","last_reported":1718399304,"current_range_meters":8800,"station_id":"ce4bhq12rcd13ifvqhig","pricing_plan_id":"cebpf4jnsgd1na2vs0mg"},{"bike_id":"f86eccb1-349a-442d-94d5-0a476eac6572","system_id":"levelo_inurba_marseille","lat":43.33717,"lon":5.391857,"is_reserved":false,"is_disabled":false,"rental_uris":{"android":"levelo://app?vid=f86eccb1-349a-442d-94d5-0a476eac6572","ios":"levelo://app?vid=f86eccb1-349a-442d-94d5-0a476eac6572"},"vehicle_type_id":"4","last_reported":1718399304,"current_range_meters":28000,"station_id":"ce4bhr92rcd13ifvqhsg","pricing_plan_id":"cebpf4jnsgd1na2vs0mg"},{"bike_id":"d9f23ffa-3c14-45b8-89df-fb53ba0246b0","system_id":"levelo_inurba_marseille","lat":43.337168,"lon":5.391825,"is_reserved":false,"is_disabled":false,"rental_uris":{"android":"levelo://app?vid=d9f23ffa-3c14-45b8-89df-fb53ba0246b0","ios":"levelo://app?vid=d9f23ffa-3c14-45b8-89df-fb53ba0246b0"},"vehicle_type_id":"4","last_reported":1718399304,"current_range_meters":25600,"station_id":"ce4bhr92rcd13ifvqhsg","pricing_plan_id":"cebpf4jnsgd1na2vs0mg"},{"bike_id":"1ec6f679-d7bc-47fd-9f4d-6994c5b735c2","system_id":"levelo_inurba_marseille","lat":43.284793,"lon":5.384113,"is_reserved":false,"is_disabled":false,"rental_uris":{"android":"levelo://app?vid=1ec6f679-d7bc-47fd-9f4d-6994c5b735c2","ios":"levelo://app?vid=1ec6f679-d7bc-47fd-9f4d-6994c5b735c2"},"vehicle_type_id":"4","last_reported":1718399304,"current_range_meters":11600,"station_id":"ce4bh512rcd13ifvqe3g","pricing_plan_id":"cebpf4jnsgd1na2vs0mg"},{"bike_id":"831a48ff-24a2-4fb6-9f5d-99a05e6fcd70","system_id":"levelo_inurba_marseille","lat":43.284793,"lon":5.384113,"is_reserved":false,"is_disabled":false,"rental_uris":{"android":"levelo://app?vid=831a48ff-24a2-4fb6-9f5d-99a05e6fcd70","ios":"levelo://app?vid=831a48ff-24a2-4fb6-9f5d-99a05e6fcd70"},"vehicle_type_id":"4","last_reported":1718399304,"current_range_meters":15200,"station_id":"ce4bh512rcd13ifvqe3g","pricing_plan_id":"cebpf4jnsgd1na2vs0mg"},{"bike_id":"340273ea-d0eb-4b97-825c-bd7d7d456e75","system_id":"levelo_inurba_marseille","lat":43.284793,"lon":5.384113,"is_reserved":false,"is_disabled":false,"rental_uris":{"android":"levelo://app?vid=340273ea-d0eb-4b97-825c-bd7d7d456e75","ios":"levelo://app?vid=340273ea-d0eb-4b97-825c-bd7d7d456e75"},"vehicle_type_id":"4","last_reported":1718399304,"current_range_meters":20800,"station_id":"ce4bh512rcd13ifvqe3g","pricing_plan_id":"cebpf4jnsgd1na2vs0mg"},{"bike_id":"0d399eae-d15f-4ee0-8d95-0155a518f6da","system_id":"levelo_inurba_marseille","lat":43.284721,"lon":5.384123,"is_reserved":false,"is_disabled":false,"rental_uris":{"android":"levelo://app?vid=0d399eae-d15f-4ee0-8d95-0155a518f6da","ios":"levelo://app?vid=0d399eae-d15f-4ee0-8d95-0155a518f6da"},"vehicle_type_id":"4","last_reported":1718399304,"current_range_meters":0,"station_id":"ce4bh512rcd13ifvqe3g","pricing_plan_id":"cebpf4jnsgd1na2vs0mg"},{"bike_id":"7c575815-17f8-4c27-8e74-d5a50db00760","system_id":"levelo_inurba_marseille","lat":43.284793,"lon":5.384119,"is_reserved":false,"is_disabled":false,"rental_uris":{"android":"levelo://app?vid=7c575815-17f8-4c27-8e74-d5a50db00760","ios":"levelo://app?vid=7c575815-17f8-4c27-8e74-d5a50db00760"},"vehicle_type_id":"4","last_reported":1718399304,"current_range_meters":1600,"station_id":"ce4bh512rcd13ifvqe3g","pricing_plan_id":"cebpf4jnsgd1na2vs0mg"},{"bike_id":"72dfa8a8-fa9d-4ad6-aac4-6ae002a4e51b","system_id":"levelo_inurba_marseille","lat":43.288497,"lon":5.393089,"is_reserved":false,"is_disabled":false,"rental_uris":{"android":"levelo://app?vid=72dfa8a8-fa9d-4ad6-aac4-6ae002a4e51b","ios":"levelo://app?vid=72dfa8a8-fa9d-4ad6-aac4-6ae002a4e51b"},"vehicle_type_id":"4","last_reported":1718399304,"current_range_meters":24800,"station_id":"ce4bh2p2rcd13ifvqdi0","pricing_plan_id":"cebpf4jnsgd1na2vs0mg"},{"bike_id":"883f682d-994b-482b-8d87-d31d25aef4eb","system_id":"levelo_inurba_marseille","lat":43.288501,"lon":5.393087,"is_reserved":false,"is_disabled":false,"rental_uris":{"android":"levelo://app?vid=883f682d-994b-482b-8d87-d31d25aef4eb","ios":"levelo://app?vid=883f682d-994b-482b-8d87-d31d25aef4eb"},"vehicle_type_id":"4","last_reported":1718399304,"current_range_meters":27600,"station_id":"ce4bh2p2rcd13ifvqdi0","pricing_plan_id":"cebpf4jnsgd1na2vs0mg"},{"bike_id":"a9632d70-7a47-489f-b404-8be1722e9109","system_id":"levelo_inurba_marseille","lat":43.283494,"lon":5.380945,"is_reserved":false,"is_disabled":false,"rental_uris":{"android":"levelo://app?vid=a9632d70-7a47-489f-b404-8be1722e9109","ios":"levelo://app?vid=a9632d70-7a47-489f-b404-8be1722e9109"},"vehicle_type_id":"4","last_reported":1718399304,"current_range_meters":8000,"station_id":"ce4bh412rcd13ifvqdr0","pricing_plan_id":"cebpf4jnsgd1na2vs0mg"},{"bike_id":"8eea2f64-5a5c-4aa7-8d9b-6f33eb6c1241","system_id":"levelo_inurba_marseille","lat":43.283494,"lon":5.380945,"is_reserved":false,"is_disabled":false,"rental_uris":{"android":"levelo://app?vid=8eea2f64-5a5c-4aa7-8d9b-6f33eb6c1241","ios":"levelo://app?vid=8eea2f64-5a5c-4aa7-8d9b-6f33eb6c1241"},"vehicle_type_id":"4","last_reported":1718399304,"current_range_meters":28400,"station_id":"ce4bh412rcd13ifvqdr0","pricing_plan_id":"cebpf4jnsgd1na2vs0mg"},{"bike_id":"67c1c13a-678b-4019-8465-af4c772efd0f","system_id":"levelo_inurba_marseille","lat":43.288501,"lon":5.393087,"is_reserved":false,"is_disabled":false,"rental_uris":{"android":"levelo://app?vid=67c1c13a-678b-4019-8465-af4c772efd0f","ios":"levelo://app?vid=67c1c13a-678b-4019-8465-af4c772efd0f"},"vehicle_type_id":"4","last_reported":1718399304,"current_range_meters":10400,"station_id":"ce4bh2p2rcd13ifvqdi0","pricing_plan_id":"cebpf4jnsgd1na2vs0mg"},{"bike_id":"bba574a5-5f4c-430c-b251-42ed4800b0ae","system_id":"levelo_inurba_marseille","lat":43.289363,"lon":5.396322,"is_reserved":false,"is_disabled":false,"rental_uris":{"android":"levelo://app?vid=bba574a5-5f4c-430c-b251-42ed4800b0ae","ios":"levelo://app?vid=bba574a5-5f4c-430c-b251-42ed4800b0ae"},"vehicle_type_id":"4","last_reported":1718399304,"current_range_meters":0,"station_id":"ce4bh3h2rcd13ifvqdn0","pricing_plan_id":"cebpf4jnsgd1na2vs0mg"},{"bike_id":"30c095d7-bf9f-4103-972f-60210f54d2ec","system_id":"levelo_inurba_marseille","lat":43.34159,"lon":5.38534,"is_reserved":false,"is_disabled":false,"rental_uris":{"android":"levelo://app?vid=30c095d7-bf9f-4103-972f-60210f54d2ec","ios":"levelo://app?vid=30c095d7-bf9f-4103-972f-60210f54d2ec"},"vehicle_type_id":"4","last_reported":1718399304,"current_range_meters":3200,"station_id":"","pricing_plan_id":"cebpf4jnsgd1na2vs0mg"},{"bike_id":"32e63dda-edae-4e88-baa1-653ca22ecf25","system_id":"levelo_inurba_marseille","lat":43.292724,"lon":5.401131,"is_reserved":false,"is_disabled":false,"rental_uris":{"android":"levelo://app?vid=32e63dda-edae-4e88-baa1-653ca22ecf25","ios":"levelo://app?vid=32e63dda-edae-4e88-baa1-653ca22ecf25"},"vehicle_type_id":"4","last_reported":1718399304,"current_range_meters":13200,"station_id":"ce4bh312rcd13ifvqdk0","pricing_plan_id":"cebpf4jnsgd1na2vs0mg"},{"bike_id":"1daf80ac-3907-4c95-ab81-e37db3c3f071","system_id":"levelo_inurba_marseille","lat":43.292724,"lon":5.401131,"is_reserved":false,"is_disabled":false,"rental_uris":{"android":"levelo://app?vid=1daf80ac-3907-4c95-ab81-e37db3c3f071","ios":"levelo://app?vid=1daf80ac-3907-4c95-ab81-e37db3c3f071"},"vehicle_type_id":"4","last_reported":1718399304,"current_range_meters":2000,"station_id":"ce4bh312rcd13ifvqdk0","pricing_plan_id":"cebpf4jnsgd1na2vs0mg"},{"bike_id":"e167e4a6-94e3-4c77-8392-f091133f7b57","system_id":"levelo_inurba_marseille","lat":43.292724,"lon":5.401131,"is_reserved":false,"is_disabled":false,"rental_uris":{"android":"levelo://app?vid=e167e4a6-94e3-4c77-8392-f091133f7b57","ios":"levelo://app?vid=e167e4a6-94e3-4c77-8392-f091133f7b57"},"vehicle_type_id":"4","last_reported":1718399304,"current_range_meters":11200,"station_id":"ce4bh312rcd13ifvqdk0","pricing_plan_id":"cebpf4jnsgd1na2vs0mg"},{"bike_id":"818d03ec-0320-496a-a6ee-327e9c507074","system_id":"levelo_inurba_marseille","lat":43.292724,"lon":5.401131,"is_reserved":false,"is_disabled":false,"rental_uris":{"android":"levelo://app?vid=818d03ec-0320-496a-a6ee-327e9c507074","ios":"levelo://app?vid=818d03ec-0320-496a-a6ee-327e9c507074"},"vehicle_type_id":"4","last_reported":1718399304,"current_range_meters":21600,"station_id":"ce4bh312rcd13ifvqdk0","pricing_plan_id":"cebpf4jnsgd1na2vs0mg"},{"bike_id":"511c9687-d070-4b55-ba30-fd907d55b9bf","system_id":"levelo_inurba_marseille","lat":43.282744,"lon":5.350533,"is_reserved":false,"is_disabled":false,"rental_uris":{"android":"levelo://app?vid=511c9687-d070-4b55-ba30-fd907d55b9bf","ios":"levelo://app?vid=511c9687-d070-4b55-ba30-fd907d55b9bf"},"vehicle_type_id":"4","last_reported":1718399304,"current_range_meters":0,"station_id":"ce4bhbp2rcd13ifvqerg","pricing_plan_id":"cebpf4jnsgd1na2vs0mg"},{"bike_id":"4a72e79a-8a6a-4a81-8dd6-601f99baed65","system_id":"levelo_inurba_marseille","lat":43.280382,"lon":5.369291,"is_reserved":false,"is_disabled":false,"rental_uris":{"android":"levelo://app?vid=4a72e79a-8a6a-4a81-8dd6-601f99baed65","ios":"levelo://app?vid=4a72e79a-8a6a-4a81-8dd6-601f99baed65"},"vehicle_type_id":"4","last_reported":1718399304,"current_range_meters":31600,"station_id":"ce4bha12rcd13ifvqef0","pricing_plan_id":"cebpf4jnsgd1na2vs0mg"},{"bike_id":"1d018526-e1de-48ac-a94f-888573ebb4a7","system_id":"levelo_inurba_marseille","lat":43.282754,"lon":5.350519,"is_reserved":false,"is_disabled":false,"rental_uris":{"android":"levelo://app?vid=1d018526-e1de-48ac-a94f-888573ebb4a7","ios":"levelo://app?vid=1d018526-e1de-48ac-a94f-888573ebb4a7"},"vehicle_type_id":"4","last_reported":1718399304,"current_range_meters":15600,"station_id":"ce4bhbp2rcd13ifvqerg","pricing_plan_id":"cebpf4jnsgd1na2vs0mg"},{"bike_id":"73bd9503-7adf-4533-a400-993395170a61","system_id":"levelo_inurba_marseille","lat":43.28039,"lon":5.369297,"is_reserved":false,"is_disabled":false,"rental_uris":{"android":"levelo://app?vid=73bd9503-7adf-4533-a400-993395170a61","ios":"levelo://app?vid=73bd9503-7adf-4533-a400-993395170a61"},"vehicle_type_id":"4","last_reported":1718399304,"current_range_meters":22800,"station_id":"ce4bha12rcd13ifvqef0","pricing_plan_id":"cebpf4jnsgd1na2vs0mg"},{"bike_id":"1cd1f9ed-1221-4f2f-9ab4-3993fd9dd60c","system_id":"levelo_inurba_marseille","lat":43.280382,"lon":5.369291,"is_reserved":false,"is_disabled":false,"rental_uris":{"android":"levelo://app?vid=1cd1f9ed-1221-4f2f-9ab4-3993fd9dd60c","ios":"levelo://app?vid=1cd1f9ed-1221-4f2f-9ab4-3993fd9dd60c"},"vehicle_type_id":"4","last_reported":1718399304,"current_range_meters":25600,"station_id":"ce4bha12rcd13ifvqef0","pricing_plan_id":"cebpf4jnsgd1na2vs0mg"},{"bike_id":"36a3285f-4a43-4cc3-9319-af6ad788d6a1","system_id":"levelo_inurba_marseille","lat":43.281044,"lon":5.378308,"is_reserved":false,"is_disabled":false,"rental_uris":{"android":"levelo://app?vid=36a3285f-4a43-4cc3-9319-af6ad788d6a1","ios":"levelo://app?vid=36a3285f-4a43-4cc3-9319-af6ad788d6a1"},"vehicle_type_id":"4","last_reported":1718399304,"current_range_meters":10000,"station_id":"ce4bha12rcd13ifvqee0","pricing_plan_id":"cebpf4jnsgd1na2vs0mg"},{"bike_id":"9981ad06-f9a4-4ad4-9082-32427013c24a","system_id":"levelo_inurba_marseille","lat":43.296263,"lon":5.40601,"is_reserved":false,"is_disabled":false,"rental_uris":{"android":"levelo://app?vid=9981ad06-f9a4-4ad4-9082-32427013c24a","ios":"levelo://app?vid=9981ad06-f9a4-4ad4-9082-32427013c24a"},"vehicle_type_id":"4","last_reported":1718399304,"current_range_meters":0,"station_id":"ce4bh0h2rcd13ifvqd60","pricing_plan_id":"cebpf4jnsgd1na2vs0mg"},{"bike_id":"6ab3dcac-cd89-4526-8870-3a275b67546b","system_id":"levelo_inurba_marseille","lat":43.296263,"lon":5.40601,"is_reserved":false,"is_disabled":false,"rental_uris":{"android":"levelo://app?vid=6ab3dcac-cd89-4526-8870-3a275b67546b","ios":"levelo://app?vid=6ab3dcac-cd89-4526-8870-3a275b67546b"},"vehicle_type_id":"4","last_reported":1718399304,"current_range_meters":10000,"station_id":"ce4bh0h2rcd13ifvqd60","pricing_plan_id":"cebpf4jnsgd1na2vs0mg"},{"bike_id":"42561856-339e-49c2-9fa2-1f503279b624","system_id":"levelo_inurba_marseille","lat":43.296263,"lon":5.40601,"is_reserved":false,"is_disabled":false,"rental_uris":{"android":"levelo://app?vid=42561856-339e-49c2-9fa2-1f503279b624","ios":"levelo://app?vid=42561856-339e-49c2-9fa2-1f503279b624"},"vehicle_type_id":"4","last_reported":1718399304,"current_range_meters":14400,"station_id":"ce4bh0h2rcd13ifvqd60","pricing_plan_id":"cebpf4jnsgd1na2vs0mg"},{"bike_id":"6d79bedf-2d60-43cd-adaa-095aa05b5345","system_id":"levelo_inurba_marseille","lat":43.281044,"lon":5.378308,"is_reserved":false,"is_disabled":false,"rental_uris":{"android":"levelo://app?vid=6d79bedf-2d60-43cd-adaa-095aa05b5345","ios":"levelo://app?vid=6d79bedf-2d60-43cd-adaa-095aa05b5345"},"vehicle_type_id":"4","last_reported":1718399304,"current_range_meters":26800,"station_id":"ce4bha12rcd13ifvqee0","pricing_plan_id":"cebpf4jnsgd1na2vs0mg"},{"bike_id":"65f02f07-c1b8-4b74-ae30-77e0b410b5b4","system_id":"levelo_inurba_marseille","lat":43.284462,"lon":5.392121,"is_reserved":false,"is_disabled":false,"rental_uris":{"android":"levelo://app?vid=65f02f07-c1b8-4b74-ae30-77e0b410b5b4","ios":"levelo://app?vid=65f02f07-c1b8-4b74-ae30-77e0b410b5b4"},"vehicle_type_id":"4","last_reported":1718399304,"current_range_meters":400,"station_id":"ce4bhoh2rcd13ifvqh5g","pricing_plan_id":"cebpf4jnsgd1na2vs0mg"},{"bike_id":"90f0844e-7691-4849-934c-e5cf17528ca5","system_id":"levelo_inurba_marseille","lat":43.281927,"lon":5.38589,"is_reserved":false,"is_disabled":false,"rental_uris":{"android":"levelo://app?vid=90f0844e-7691-4849-934c-e5cf17528ca5","ios":"levelo://app?vid=90f0844e-7691-4849-934c-e5cf17528ca5"},"vehicle_type_id":"4","last_reported":1718399304,"current_range_meters":0,"station_id":"","pricing_plan_id":"cebpf4jnsgd1na2vs0mg"},{"bike_id":"52eadd2e-33e9-406e-82da-aa3383ab7228","system_id":"levelo_inurba_marseille","lat":43.281903,"lon":5.385903,"is_reserved":false,"is_disabled":false,"rental_uris":{"android":"levelo://app?vid=52eadd2e-33e9-406e-82da-aa3383ab7228","ios":"levelo://app?vid=52eadd2e-33e9-406e-82da-aa3383ab7228"},"vehicle_type_id":"4","last_reported":1718399304,"current_range_meters":0,"station_id":"","pricing_plan_id":"cebpf4jnsgd1na2vs0mg"},{"bike_id":"da179c30-201f-41c8-a85d-cf568d86a198","system_id":"levelo_inurba_marseille","lat":43.285742,"lon":5.395004,"is_reserved":false,"is_disabled":false,"rental_uris":{"android":"levelo://app?vid=da179c30-201f-41c8-a85d-cf568d86a198","ios":"levelo://app?vid=da179c30-201f-41c8-a85d-cf568d86a198"},"vehicle_type_id":"4","last_reported":1718399304,"current_range_meters":20400,"station_id":"ce4bh292rcd13ifvqdg0","pricing_plan_id":"cebpf4jnsgd1na2vs0mg"},{"bike_id":"77c65d3f-31ec-4a17-9af3-8885732c488b","system_id":"levelo_inurba_marseille","lat":43.28573,"lon":5.394992,"is_reserved":false,"is_disabled":false,"rental_uris":{"android":"levelo://app?vid=77c65d3f-31ec-4a17-9af3-8885732c488b","ios":"levelo://app?vid=77c65d3f-31ec-4a17-9af3-8885732c488b"},"vehicle_type_id":"4","last_reported":1718399304,"current_range_meters":5200,"station_id":"ce4bh292rcd13ifvqdg0","pricing_plan_id":"cebpf4jnsgd1na2vs0mg"},{"bike_id":"674077ce-1099-4003-b620-9fb90e799a12","system_id":"levelo_inurba_marseille","lat":43.326605,"lon":5.409903,"is_reserved":false,"is_disabled":false,"rental_uris":{"android":"levelo://app?vid=674077ce-1099-4003-b620-9fb90e799a12","ios":"levelo://app?vid=674077ce-1099-4003-b620-9fb90e799a12"},"vehicle_type_id":"4","last_reported":1718399304,"current_range_meters":3600,"station_id":"ce4bhpp2rcd13ifvqhgg","pricing_plan_id":"cebpf4jnsgd1na2vs0mg"},{"bike_id":"c739deac-4dda-4a6a-9410-6784be284162","system_id":"levelo_inurba_marseille","lat":43.279087,"lon":5.380114,"is_reserved":false,"is_disabled":false,"rental_uris":{"android":"levelo://app?vid=c739deac-4dda-4a6a-9410-6784be284162","ios":"levelo://app?vid=c739deac-4dda-4a6a-9410-6784be284162"},"vehicle_type_id":"4","last_reported":1718399304,"current_range_meters":9200,"station_id":"ce4bhf92rcd13ifvqf50","pricing_plan_id":"cebpf4jnsgd1na2vs0mg"},{"bike_id":"7a6b24b4-7b0b-4e5b-8943-9238dbdc6c6c","system_id":"levelo_inurba_marseille","lat":43.305714,"lon":5.365633,"is_reserved":false,"is_disabled":false,"rental_uris":{"android":"levelo://app?vid=7a6b24b4-7b0b-4e5b-8943-9238dbdc6c6c","ios":"levelo://app?vid=7a6b24b4-7b0b-4e5b-8943-9238dbdc6c6c"},"vehicle_type_id":"4","last_reported":1718399304,"current_range_meters":0,"station_id":"ce4bgs12rcd13ifvqcag","pricing_plan_id":"cebpf4jnsgd1na2vs0mg"},{"bike_id":"f831b74b-7acc-4ce6-b205-90131e2ee4ca","system_id":"levelo_inurba_marseille","lat":43.279087,"lon":5.380114,"is_reserved":false,"is_disabled":false,"rental_uris":{"android":"levelo://app?vid=f831b74b-7acc-4ce6-b205-90131e2ee4ca","ios":"levelo://app?vid=f831b74b-7acc-4ce6-b205-90131e2ee4ca"},"vehicle_type_id":"4","last_reported":1718399304,"current_range_meters":25200,"station_id":"ce4bhf92rcd13ifvqf50","pricing_plan_id":"cebpf4jnsgd1na2vs0mg"},{"bike_id":"b8608052-ea4f-42ad-a026-7884d5991467","system_id":"levelo_inurba_marseille","lat":43.279087,"lon":5.380114,"is_reserved":false,"is_disabled":false,"rental_uris":{"android":"levelo://app?vid=b8608052-ea4f-42ad-a026-7884d5991467","ios":"levelo://app?vid=b8608052-ea4f-42ad-a026-7884d5991467"},"vehicle_type_id":"4","last_reported":1718399304,"current_range_meters":2400,"station_id":"ce4bhf92rcd13ifvqf50","pricing_plan_id":"cebpf4jnsgd1na2vs0mg"},{"bike_id":"7a661877-edd2-4ec8-b915-74fc3df1a19e","system_id":"levelo_inurba_marseille","lat":43.278975,"lon":5.380055,"is_reserved":false,"is_disabled":false,"rental_uris":{"android":"levelo://app?vid=7a661877-edd2-4ec8-b915-74fc3df1a19e","ios":"levelo://app?vid=7a661877-edd2-4ec8-b915-74fc3df1a19e"},"vehicle_type_id":"4","last_reported":1718399304,"current_range_meters":13600,"station_id":"ce4bhf92rcd13ifvqf50","pricing_plan_id":"cebpf4jnsgd1na2vs0mg"},