{"last_updated":1698167170,"ttl":30,"version":"2.2","data":{"bikes":[{"bike_id":"d8a39d6c-d40b-40fd-8669-64454c1b8a06","system_id":"levelo_inurba_marseille","lat":43.312239,"lon":5.368562,"is_reserved":false,"is_disabled":false,"rental_uris":{"android":"levelo://app?vid=d8a39d6c-d40b-40fd-8669-64454c1b8a06","ios":"levelo://app?vid=d8a39d6c-d40b-40fd-8669-64454c1b8a06"},"vehicle_type_id":"4","last_reported":1698167170,"current_range_meters":31200,"station_id":"ce4bgl92rcd13ifvqbq0","pricing_plan_id":"free"},{"bike_id":"bfdaa5d0-42b2-4efe-befd-2a84b8f255bd","system_id":"levelo_inurba_marseille","lat":43.312239,"lon":5.368562,"is_reserved":false,"is_disabled":false,"rental_uris":{"android":"levelo://app?vid=bfdaa5d0-42b2-4efe-befd-2a84b8f255bd","ios":"levelo://app?vid=bfdaa5d0-42b2-4efe-befd-2a84b8f255bd"},"vehicle_type_id":"4","last_reported":1698167170,"current_range_meters":31600,"station_id":"ce4bgl92rcd13ifvqbq0","pricing_plan_id":"free"},{"bike_id":"56364547-76fd-47a2-8c92-9b7e4d505f69","system_id":"levelo_inurba_marseille","lat":43.312239,"lon":5.368562,"is_reserved":false,"is_disabled":false,"rental_uris":{"android":"levelo://app?vid=56364547-76fd-47a2-8c92-9b7e4d505f69","ios":"levelo://app?vid=56364547-76fd-47a2-8c92-9b7e4d505f69"},"vehicle_type_id":"4","last_reported":1698167170,"current_range_meters":26800,"station_id":"ce4bgl92rcd13ifvqbq0","pricing_plan_id":"free"},{"bike_id":"3ef53f1d-5ef8-4639-bbc1-0264318dd643","system_id":"levelo_inurba_marseille","lat":43.312239,"lon":5.368562,"is_reserved":false,"is_disabled":false,"rental_uris":{"android":"levelo://app?vid=3ef53f1d-5ef8-4639-bbc1-0264318dd643","ios":"levelo://app?vid=3ef53f1d-5ef8-4639-bbc1-0264318dd643"},"vehicle_type_id":"4","last_reported":1698167170,"current_range_meters":18000,"station_id":"ce4bgl92rcd13ifvqbq0","pricing_plan_id":"free"},{"bike_id":"63993acd-b621-4f5e-93f5-e2eb333c5497","system_id":"levelo_inurba_marseille","lat":43.312239,"lon":5.368562,"is_reserved":false,"is_disabled":false,"rental_uris":{"android":"levelo://app?vid=63993acd-b621-4f5e-93f5-e2eb333c5497","ios":"levelo://app?vid=63993acd-b621-4f5e-93f5-e2eb333c5497"},"vehicle_type_id":"4","last_reported":1698167170,"current_range_meters":30400,"station_id":"ce4bgl92rcd13ifvqbq0","pricing_plan_id":"free"},{"bike_id":"44eb43a4-6ba6-4641-a06b-4efd19ef3751","system_id":"levelo_inurba_marseille","lat":43.312239,"lon":5.368562,"is_reserved":false,"is_disabled":false,"rental_uris":{"android":"levelo://app?vid=44eb43a4-6ba6-4641-a06b-4efd19ef3751","ios":"levelo://app?vid=44eb43a4-6ba6-4641-a06b-4efd19ef3751"},"vehicle_type_id":"4","last_reported":1698167170,"current_range_meters":27200,"station_id":"ce4bgl92rcd13ifvqbq0","pricing_plan_id":"free"},{"bike_id":"71e69131-c142-433c-b6ba-8ed13af09d75","system_id":"levelo_inurba_marseille","lat":43.312239,"lon":5.368562,"is_reserved":false,"is_disabled":false,"rental_uris":{"android":"levelo://app?vid=71e69131-c142-433c-b6ba-8ed13af09d75","ios":"levelo://app?vid=71e69131-c142-433c-b6ba-8ed13af09d75"},"vehicle_type_id":"4","last_reported":1698167170,"current_range_meters":28800,"station_id":"ce4bgl92rcd13ifvqbq0","pricing_plan_id":"free"},{"bike_id":"f5c58904-aeb7-4548-b4b5-9f5e83f269ce","system_id":"levelo_inurba_marseille","lat":43.309797,"lon":5.368093,"is_reserved":false,"is_disabled":false,"rental_uris":{"android":"levelo://app?vid=f5c58904-aeb7-4548-b4b5-9f5e83f269ce","ios":"levelo://app?vid=f5c58904-aeb7-4548-b4b5-9f5e83f269ce"},"vehicle_type_id":"4","last_reported":1698167170,"current_range_meters":6800,"station_id":"ce4bgn92rcd13ifvqbvg","pricing_plan_id":"free"},{"bike_id":"0ad04529-283c-4097-be7d-9201b294dcfc","system_id":"levelo_inurba_marseille","lat":43.309076,"lon":5.368465,"is_reserved":false,"is_disabled":false,"rental_uris":{"android":"levelo://app?vid=0ad04529-283c-4097-be7d-9201b294dcfc","ios":"levelo://app?vid=0ad04529-283c-4097-be7d-9201b294dcfc"},"vehicle_type_id":"4","last_reported":1698167170,"current_range_meters":22800,"station_id":"ce4bgn92rcd13ifvqbvg","pricing_plan_id":"free"},{"bike_id":"dbbdea51-7e3d-4271-bd96-c3aabecbd7e2","system_id":"levelo_inurba_marseille","lat":43.315783,"lon":5.372523,"is_reserved":false,"is_disabled":false,"rental_uris":{"android":"levelo://app?vid=dbbdea51-7e3d-4271-bd96-c3aabecbd7e2","ios":"levelo://app?vid=dbbdea51-7e3d-4271-bd96-c3aabecbd7e2"},"vehicle_type_id":"4","last_reported":1698167170,"current_range_meters":22800,"station_id":"","pricing_plan_id":"free"},{"bike_id":"8fb5e7e0-aff3-4b87-bc77-e18b2bd97c0b","system_id":"levelo_inurba_marseille","lat":43.30544,"lon":5.36535,"is_reserved":false,"is_disabled":false,"rental_uris":{"android":"levelo://app?vid=8fb5e7e0-aff3-4b87-bc77-e18b2bd97c0b","ios":"levelo://app?vid=8fb5e7e0-aff3-4b87-bc77-e18b2bd97c0b"},"vehicle_type_id":"4","last_reported":1698167170,"current_range_meters":0,"station_id":"ce4bgs12rcd13ifvqcag","pricing_plan_id":"free"},{"bike_id":"475dd9f3-f9b9-43c6-ae87-20ef9e1f1d7c","system_id":"levelo_inurba_marseille","lat":43.319229,"lon":5.371894,"is_reserved":false,"is_disabled":false,"rental_uris":{"android":"levelo://app?vid=475dd9f3-f9b9-43c6-ae87-20ef9e1f1d7c","ios":"levelo://app?vid=475dd9f3-f9b9-43c6-ae87-20ef9e1f1d7c"},"vehicle_type_id":"4","last_reported":1698167170,"current_range_meters":13600,"station_id":"","pricing_plan_id":"free"},{"bike_id":"f252b071-dddd-4e5f-ad07-506846af6d1a","system_id":"levelo_inurba_marseille","lat":43.305714,"lon":5.365633,"is_reserved":false,"is_disabled":false,"rental_uris":{"android":"levelo://app?vid=f252b071-dddd-4e5f-ad07-506846af6d1a","ios":"levelo://app?vid=f252b071-dddd-4e5f-ad07-506846af6d1a"},"vehicle_type_id":"4","last_reported":1698167170,"current_range_meters":16000,"station_id":"ce4bgs12rcd13ifvqcag","pricing_plan_id":"free"},{"bike_id":"2c635646-e0e7-46f7-bf2e-0b704d6c437e","system_id":"levelo_inurba_marseille","lat":43.305989,"lon":5.37225,"is_reserved":false,"is_disabled":false,"rental_uris":{"android":"levelo://app?vid=2c635646-e0e7-46f7-bf2e-0b704d6c437e","ios":"levelo://app?vid=2c635646-e0e7-46f7-bf2e-0b704d6c437e"},"vehicle_type_id":"4","last_reported":1698167170,"current_range_meters":24000,"station_id":"ce4bgqh2rcd13ifvqc4g","pricing_plan_id":"free"},{"bike_id":"8d237060-0cbe-443c-8c60-b3650aaf8d29","system_id":"levelo_inurba_marseille","lat":43.305989,"lon":5.37225,"is_reserved":false,"is_disabled":false,"rental_uris":{"android":"levelo://app?vid=8d237060-0cbe-443c-8c60-b3650aaf8d29","ios":"levelo://app?vid=8d237060-0cbe-443c-8c60-b3650aaf8d29"},"vehicle_type_id":"4","last_reported":1698167170,"current_range_meters":0,"station_id":"ce4bgqh2rcd13ifvqc4g","pricing_plan_id":"free"},{"bike_id":"2fe6addf-3f28-4e18-9be7-8e324eee151f","system_id":"levelo_inurba_marseille","lat":43.30501,"lon":5.37088,"is_reserved":false,"is_disabled":false,"rental_uris":{"android":"levelo://app?vid=2fe6addf-3f28-4e18-9be7-8e324eee151f","ios":"levelo://app?vid=2fe6addf-3f28-4e18-9be7-8e324eee151f"},"vehicle_type_id":"4","last_reported":1698167170,"current_range_meters":17200,"station_id":"","pricing_plan_id":"free"},{"bike_id":"a4065e65-cac9-4027-968a-ead2aa636d56","system_id":"levelo_inurba_marseille","lat":43.317075,"lon":5.377367,"is_reserved":false,"is_disabled":false,"rental_uris":{"android":"levelo://app?vid=a4065e65-cac9-4027-968a-ead2aa636d56","ios":"levelo://app?vid=a4065e65-cac9-4027-968a-ead2aa636d56"},"vehicle_type_id":"4","last_reported":1698167170,"current_range_meters":20400,"station_id":"ce4bgth2rcd13ifvqch0","pricing_plan_id":"free"},{"bike_id":"8efee94e-2b9d-488c-be9b-8ed746df8036","system_id":"levelo_inurba_marseille","lat":43.30471,"lon":5.37913,"is_reserved":false,"is_disabled":false,"rental_uris":{"android":"levelo://app?vid=8efee94e-2b9d-488c-be9b-8ed746df8036","ios":"levelo://app?vid=8efee94e-2b9d-488c-be9b-8ed746df8036"},"vehicle_type_id":"4","last_reported":1698167170,"current_range_meters":0,"station_id":"ce4bgup2rcd13ifvqcn0","pricing_plan_id":"free"},{"bike_id":"1047bcc5-10ff-460b-bd6f-eac1d4a67db4","system_id":"levelo_inurba_marseille","lat":43.31745,"lon":5.382537,"is_reserved":false,"is_disabled":false,"rental_uris":{"android":"levelo://app?vid=1047bcc5-10ff-460b-bd6f-eac1d4a67db4","ios":"levelo://app?vid=1047bcc5-10ff-460b-bd6f-eac1d4a67db4"},"vehicle_type_id":"4","last_reported":1698167170,"current_range_meters":7600,"station_id":"","pricing_plan_id":"free"},{"bike_id":"4c5dc60d-553c-4fa5-81c1-470d5abd0ead","system_id":"levelo_inurba_marseille","lat":43.31974,"lon":5.38128,"is_reserved":false,"is_disabled":false,"rental_uris":{"android":"levelo://app?vid=4c5dc60d-553c-4fa5-81c1-470d5abd0ead","ios":"levelo://app?vid=4c5dc60d-553c-4fa5-81c1-470d5abd0ead"},"vehicle_type_id":"4","last_reported":1698167170,"current_range_meters":23200,"station_id":"ce4bhr12rcd13ifvqhpg","pricing_plan_id":"free"},{"bike_id":"071e9d8c-2cae-4208-ad61-a8acf47da203","system_id":"levelo_inurba_marseille","lat":43.317075,"lon":5.377367,"is_reserved":false,"is_disabled":false,"rental_uris":{"android":"levelo://app?vid=071e9d8c-2cae-4208-ad61-a8acf47da203","ios":"levelo://app?vid=071e9d8c-2cae-4208-ad61-a8acf47da203"},"vehicle_type_id":"4","last_reported":1698167170,"current_range_meters":14400,"station_id":"ce4bgth2rcd13ifvqch0","pricing_plan_id":"free"},{"bike_id":"64a63afc-5581-41a9-941f-41b9b3ed6ce0","system_id":"levelo_inurba_marseille","lat":43.31998,"lon":5.38165,"is_reserved":false,"is_disabled":false,"rental_uris":{"android":"levelo://app?vid=64a63afc-5581-41a9-941f-41b9b3ed6ce0","ios":"levelo://app?vid=64a63afc-5581-41a9-941f-41b9b3ed6ce0"},"vehicle_type_id":"4","last_reported":1698167170,"current_range_meters":13600,"station_id":"ce4bhr12rcd13ifvqhpg","pricing_plan_id":"free"},{"bike_id":"2b12bc11-eb74-429d-b915-26af218ebd4f","system_id":"levelo_inurba_marseille","lat":43.313571,"lon":5.384829,"is_reserved":false,"is_disabled":false,"rental_uris":{"android":"levelo://app?vid=2b12bc11-eb74-429d-b915-26af218ebd4f","ios":"levelo://app?vid=2b12bc11-eb74-429d-b915-26af218ebd4f"},"vehicle_type_id":"4","last_reported":1698167170,"current_range_meters":6800,"station_id":"ce4bgt92rcd13ifvqcf0","pricing_plan_id":"free"},{"bike_id":"544cf357-f8e3-459c-9e73-583ba3f22aa3","system_id":"levelo_inurba_marseille","lat":43.313571,"lon":5.384829,"is_reserved":false,"is_disabled":false,"rental_uris":{"android":"levelo://app?vid=544cf357-f8e3-459c-9e73-583ba3f22aa3","ios":"levelo://app?vid=544cf357-f8e3-459c-9e73-583ba3f22aa3"},"vehicle_type_id":"4","last_reported":1698167170,"current_range_meters":800,"station_id":"ce4bgt92rcd13ifvqcf0","pricing_plan_id":"free"},{"bike_id":"6c796137-3bef-44dc-b2b5-1f7f365bca5b","system_id":"levelo_inurba_marseille","lat":43.31357,"lon":5.38495,"is_reserved":false,"is_disabled":false,"rental_uris":{"android":"levelo://app?vid=6c796137-3bef-44dc-b2b5-1f7f365bca5b","ios":"levelo://app?vid=6c796137-3bef-44dc-b2b5-1f7f365bca5b"},"vehicle_type_id":"4","last_reported":1698167170,"current_range_meters":6400,"station_id":"ce4bgt92rcd13ifvqcf0","pricing_plan_id":"free"},{"bike_id":"5244e28f-3f7c-4316-a68d-c1bcce1b9aac","system_id":"levelo_inurba_marseille","lat":43.313571,"lon":5.384829,"is_reserved":false,"is_disabled":false,"rental_uris":{"android":"levelo://app?vid=5244e28f-3f7c-4316-a68d-c1bcce1b9aac","ios":"levelo://app?vid=5244e28f-3f7c-4316-a68d-c1bcce1b9aac"},"vehicle_type_id":"4","last_reported":1698167170,"current_range_meters":4000,"station_id":"ce4bgt92rcd13ifvqcf0","pricing_plan_id":"free"},{"bike_id":"614e0d5e-33b7-4123-b2d1-fe662d1c92c7","system_id":"levelo_inurba_marseille","lat":43.313571,"lon":5.384829,"is_reserved":false,"is_disabled":false,"rental_uris":{"android":"levelo://app?vid=614e0d5e-33b7-4123-b2d1-fe662d1c92c7","ios":"levelo://app?vid=614e0d5e-33b7-4123-b2d1-fe662d1c92c7"},"vehicle_type_id":"4","last_reported":1698167170,"current_range_meters":27200,"station_id":"ce4bgt92rcd13ifvqcf0","pricing_plan_id":"free"},{"bike_id":"d4ae208b-aa62-43eb-bc20-eb94ccd0c816","system_id":"levelo_inurba_marseille","lat":43.31357,"lon":5.38505,"is_reserved":false,"is_disabled":false,"rental_uris":{"android":"levelo://app?vid=d4ae208b-aa62-43eb-bc20-eb94ccd0c816","ios":"levelo://app?vid=d4ae208b-aa62-43eb-bc20-eb94ccd0c816"},"vehicle_type_id":"4","last_reported":1698167170,"current_range_meters":12000,"station_id":"ce4bgt92rcd13ifvqcf0","pricing_plan_id":"free"},{"bike_id":"97997ef7-b347-4148-ba57-9a15ecc4912d","system_id":"levelo_inurba_marseille","lat":43.320945,"lon":5.38306,"is_reserved":false,"is_disabled":false,"rental_uris":{"android":"levelo://app?vid=97997ef7-b347-4148-ba57-9a15ecc4912d","ios":"levelo://app?vid=97997ef7-b347-4148-ba57-9a15ecc4912d"},"vehicle_type_id":"4","last_reported":1698167170,"current_range_meters":8000,"station_id":"","pricing_plan_id":"free"},{"bike_id":"00e98207-9fce-4992-91fa-b47911fa13a4","system_id":"levelo_inurba_marseille","lat":43.305364,"lon":5.384119,"is_reserved":false,"is_disabled":false,"rental_uris":{"android":"levelo://app?vid=00e98207-9fce-4992-91fa-b47911fa13a4","ios":"levelo://app?vid=00e98207-9fce-4992-91fa-b47911fa13a4"},"vehicle_type_id":"4","last_reported":1698167170,"current_range_meters":9200,"station_id":"ce4bgg92rcd13ifvqb30","pricing_plan_id":"free"},{"bike_id":"6e15bf45-f46e-41d0-8120-f0671f124030","system_id":"levelo_inurba_marseille","lat":43.299243,"lon":5.374807,"is_reserved":false,"is_disabled":false,"rental_uris":{"android":"levelo://app?vid=6e15bf45-f46e-41d0-8120-f0671f124030","ios":"levelo://app?vid=6e15bf45-f46e-41d0-8120-f0671f124030"},"vehicle_type_id":"4","last_reported":1698167170,"current_range_meters":10000,"station_id":"ce4bgjh2rcd13ifvqbg0","pricing_plan_id":"free"},{"bike_id":"4ed3d35e-8474-4abf-954b-6b1fefc8b340","system_id":"levelo_inurba_marseille","lat":43.311722,"lon":5.387247,"is_reserved":false,"is_disabled":false,"rental_uris":{"android":"levelo://app?vid=4ed3d35e-8474-4abf-954b-6b1fefc8b340","ios":"levelo://app?vid=4ed3d35e-8474-4abf-954b-6b1fefc8b340"},"vehicle_type_id":"4","last_reported":1698167170,"current_range_meters":2800,"station_id":"ce4bgv12rcd13ifvqcp0","pricing_plan_id":"free"},{"bike_id":"4ef4eaac-7bfe-4632-a833-46600baa7bba","system_id":"levelo_inurba_marseille","lat":43.322872,"lon":5.382756,"is_reserved":false,"is_disabled":false,"rental_uris":{"android":"levelo://app?vid=4ef4eaac-7bfe-4632-a833-46600baa7bba","ios":"levelo://app?vid=4ef4eaac-7bfe-4632-a833-46600baa7bba"},"vehicle_type_id":"4","last_reported":1698167170,"current_range_meters":17200,"station_id":"ce4bhr12rcd13ifvqhqg","pricing_plan_id":"free"},{"bike_id":"fc7a197f-6ee4-4af4-a204-d1d788332795","system_id":"levelo_inurba_marseille","lat":43.328123,"lon":5.366893,"is_reserved":false,"is_disabled":false,"rental_uris":{"android":"levelo://app?vid=fc7a197f-6ee4-4af4-a204-d1d788332795","ios":"levelo://app?vid=fc7a197f-6ee4-4af4-a204-d1d788332795"},"vehicle_type_id":"4","last_reported":1698167170,"current_range_meters":2000,"station_id":"","pricing_plan_id":"free"},{"bike_id":"2cb55403-67fb-4dc4-a23d-ed44a0a6b4f7","system_id":"levelo_inurba_marseille","lat":43.32827,"lon":5.36679,"is_reserved":false,"is_disabled":false,"rental_uris":{"android":"levelo://app?vid=2cb55403-67fb-4dc4-a23d-ed44a0a6b4f7","ios":"levelo://app?vid=2cb55403-67fb-4dc4-a23d-ed44a0a6b4f7"},"vehicle_type_id":"4","last_reported":1698167170,"current_range_meters":2400,"station_id":"","pricing_plan_id":"free"},{"bike_id":"7e26d0f0-cf63-4015-94a5-d04a962dcda3","system_id":"levelo_inurba_marseille","lat":43.32828,"lon":5.36685,"is_reserved":false,"is_disabled":false,"rental_uris":{"android":"levelo://app?vid=7e26d0f0-cf63-4015-94a5-d04a962dcda3","ios":"levelo://app?vid=7e26d0f0-cf63-4015-94a5-d04a962dcda3"},"vehicle_type_id":"4","last_reported":1698167170,"current_range_meters":26000,"station_id":"","pricing_plan_id":"free"},{"bike_id":"2bf09692-7151-4aba-9fa7-8ce1d6106004","system_id":"levelo_inurba_marseille","lat":43.328303,"lon":5.366873,"is_reserved":false,"is_disabled":false,"rental_uris":{"android":"levelo://app?vid=2bf09692-7151-4aba-9fa7-8ce1d6106004","ios":"levelo://app?vid=2bf09692-7151-4aba-9fa7-8ce1d6106004"},"vehicle_type_id":"4","last_reported":1698167170,"current_range_meters":27600,"station_id":"ce4bhs92rcd13ifvqi0g","pricing_plan_id":"free"},{"bike_id":"c6bc2181-6bac-4619-b2c4-ca007db43b5a","system_id":"levelo_inurba_marseille","lat":43.297163,"lon":5.365866,"is_reserved":false,"is_disabled":false,"rental_uris":{"android":"levelo://app?vid=c6bc2181-6bac-4619-b2c4-ca007db43b5a","ios":"levelo://app?vid=c6bc2181-6bac-4619-b2c4-ca007db43b5a"},"vehicle_type_id":"4","last_reported":1698167170,"current_range_meters":22800,"station_id":"ce4bgn12rcd13ifvqbt0","pricing_plan_id":"free"},{"bike_id":"d0fb070c-906b-44c4-81e5-ca5996ab0a04","system_id":"levelo_inurba_marseille","lat":43.297163,"lon":5.365866,"is_reserved":false,"is_disabled":false,"rental_uris":{"android":"levelo://app?vid=d0fb070c-906b-44c4-81e5-ca5996ab0a04","ios":"levelo://app?vid=d0fb070c-906b-44c4-81e5-ca5996ab0a04"},"vehicle_type_id":"4","last_reported":1698167170,"current_range_meters":0,"station_id":"ce4bgn12rcd13ifvqbt0","pricing_plan_id":"free"},{"bike_id":"418b9286-fd98-4cfa-ae60-81075ffc2682","system_id":"levelo_inurba_marseille","lat":43.32884,"lon":5.36392,"is_reserved":false,"is_disabled":false,"rental_uris":{"android":"levelo://app?vid=418b9286-fd98-4cfa-ae60-81075ffc2682","ios":"levelo://app?vid=418b9286-fd98-4cfa-ae60-81075ffc2682"},"vehicle_type_id":"4","last_reported":1698167170,"current_range_meters":0,"station_id":"","pricing_plan_id":"free"},{"bike_id":"cf4327b7-75ba-4832-84f5-5a2a2855d902","system_id":"levelo_inurba_marseille","lat":43.2968,"lon":5.37291,"is_reserved":false,"is_disabled":false,"rental_uris":{"android":"levelo://app?vid=cf4327b7-75ba-4832-84f5-5a2a2855d902","ios":"levelo://app?vid=cf4327b7-75ba-4832-84f5-5a2a2855d902"},"vehicle_type_id":"4","last_reported":1698167170,"current_range_meters":30000,"station_id":"ce4bgk12rcd13ifvqbj0","pricing_plan_id":"free"},{"bike_id":"f3d0381f-7a2d-409e-a12f-bd3d9095653d","system_id":"levelo_inurba_marseille","lat":43.329673,"lon":5.365468,"is_reserved":false,"is_disabled":false,"rental_uris":{"android":"levelo://app?vid=f3d0381f-7a2d-409e-a12f-bd3d9095653d","ios":"levelo://app?vid=f3d0381f-7a2d-409e-a12f-bd3d9095653d"},"vehicle_type_id":"4","last_reported":1698167170,"current_range_meters":20000,"station_id":"","pricing_plan_id":"free"},{"bike_id":"c0482fcf-1ca1-4a91-a71e-1a89515047f5","system_id":"levelo_inurba_marseille","lat":43.30951,"lon":5.39026,"is_reserved":false,"is_disabled":false,"rental_uris":{"android":"levelo://app?vid=c0482fcf-1ca1-4a91-a71e-1a89515047f5","ios":"levelo://app?vid=c0482fcf-1ca1-4a91-a71e-1a89515047f5"},"vehicle_type_id":"4","last_reported":1698167170,"current_range_meters":23600,"station_id":"ce4bgup2rcd13ifvqco0","pricing_plan_id":"free"},{"bike_id":"580d3246-f39b-4fa7-86a2-d00f9ad6bce7","system_id":"levelo_inurba_marseille","lat":43.309589,"lon":5.390258,"is_reserved":false,"is_disabled":false,"rental_uris":{"android":"levelo://app?vid=580d3246-f39b-4fa7-86a2-d00f9ad6bce7","ios":"levelo://app?vid=580d3246-f39b-4fa7-86a2-d00f9ad6bce7"},"vehicle_type_id":"4","last_reported":1698167170,"current_range_meters":30800,"station_id":"ce4bgup2rcd13ifvqco0","pricing_plan_id":"free"},{"bike_id":"0ddabf15-019a-4cd3-95f4-2dd7c75aecdf","system_id":"levelo_inurba_marseille","lat":43.309589,"lon":5.390258,"is_reserved":false,"is_disabled":false,"rental_uris":{"android":"levelo://app?vid=0ddabf15-019a-4cd3-95f4-2dd7c75aecdf","ios":"levelo://app?vid=0ddabf15-019a-4cd3-95f4-2dd7c75aecdf"},"vehicle_type_id":"4","last_reported":1698167170,"current_range_meters":4000,"station_id":"ce4bgup2rcd13ifvqco0","pricing_plan_id":"free"},{"bike_id":"6e85d57f-7b3f-4e5d-a71d-784bf85975b3","system_id":"levelo_inurba_marseille","lat":43.309589,"lon":5.390258,"is_reserved":false,"is_disabled":false,"rental_uris":{"android":"levelo://app?vid=6e85d57f-7b3f-4e5d-a71d-784bf85975b3","ios":"levelo://app?vid=6e85d57f-7b3f-4e5d-a71d-784bf85975b3"},"vehicle_type_id":"4","last_reported":1698167170,"current_range_meters":0,"station_id":"ce4bgup2rcd13ifvqco0","pricing_plan_id":"free"},{"bike_id":"ef350a87-690f-4bbf-a846-ba3034c65b82","system_id":"levelo_inurba_marseille","lat":43.309589,"lon":5.390258,"is_reserved":false,"is_disabled":false,"rental_uris":{"android":"levelo://app?vid=ef350a87-690f-4bbf-a846-ba3034c65b82","ios":"levelo://app?vid=ef350a87-690f-4bbf-a846-ba3034c65b82"},"vehicle_type_id":"4","last_reported":1698167170,"current_range_meters":20800,"station_id":"ce4bgup2rcd13ifvqco0","pricing_plan_id":"free"},{"bike_id":"cadacc3a-224b-43e3-9927-cb1855a1552e","system_id":"levelo_inurba_marseille","lat":43.309589,"lon":5.390258,"is_reserved":false,"is_disabled":false,"rental_uris":{"android":"levelo://app?vid=cadacc3a-224b-43e3-9927-cb1855a1552e","ios":"levelo://app?vid=cadacc3a-224b-43e3-9927-cb1855a1552e"},"vehicle_type_id":"4","last_reported":1698167170,"current_range_meters":11600,"station_id":"ce4bgup2rcd13ifvqco0","pricing_plan_id":"free"},{"bike_id":"14282c80-ef32-4f23-b626-022f59c52b1c","system_id":"levelo_inurba_marseille","lat":43.298037,"lon":5.381066,"is_reserved":false,"is_disabled":false,"rental_uris":{"android":"levelo://app?vid=14282c80-ef32-4f23-b626-022f59c52b1c","ios":"levelo://app?vid=14282c80-ef32-4f23-b626-022f59c52b1c"},"vehicle_type_id":"4","last_reported":1698167170,"current_range_meters":4400,"station_id":"ce4bgip2rcd13ifvqbb0","pricing_plan_id":"free"},{"bike_id":"68e70ef6-d62a-4b20-bb4e-63664ce8fb91","system_id":"levelo_inurba_marseille","lat":43.298037,"lon":5.381066,"is_reserved":false,"is_disabled":false,"rental_uris":{"android":"levelo://app?vid=68e70ef6-d62a-4b20-bb4e-63664ce8fb91","ios":"levelo://app?vid=68e70ef6-d62a-4b20-bb4e-63664ce8fb91"},"vehicle_type_id":"4","last_reported":1698167170,"current_range_meters":15600,"station_id":"ce4bgip2rcd13ifvqbb0","pricing_plan_id":"free"},{"bike_id":"ab565a28-2d8a-45fb-b2b3-7ac67b172734","system_id":"levelo_inurba_marseille","lat":43.29982,"lon":5.38481,"is_reserved":false,"is_disabled":false,"rental_uris":{"android":"levelo://app?vid=ab565a28-2d8a-45fb-b2b3-7ac67b172734","ios":"levelo://app?vid=ab565a28-2d8a-45fb-b2b3-7ac67b172734"},"vehicle_type_id":"4","last_reported":1698167170,"current_range_meters":15600,"station_id":"ce4bgih2rcd13ifvqba0","pricing_plan_id":"free"},{"bike_id":"22c6194d-0752-40dc-a5b3-901cbe176516","system_id":"levelo_inurba_marseille","lat":43.29963,"lon":5.38505,"is_reserved":false,"is_disabled":false,"rental_uris":{"android":"levelo://app?vid=22c6194d-0752-40dc-a5b3-901cbe176516","ios":"levelo://app?vid=22c6194d-0752-40dc-a5b3-901cbe176516"},"vehicle_type_id":"4","last_reported":1698167170,"current_range_meters":3200,"station_id":"ce4bgj92rcd13ifvqbd0","pricing_plan_id":"free"},{"bike_id":"50ba0a4e-dc52-4b36-bbea-ef74378b458b","system_id":"levelo_inurba_marseille","lat":43.29698,"lon":5.3812,"is_reserved":false,"is_disabled":false,"rental_uris":{"android":"levelo://app?vid=50ba0a4e-dc52-4b36-bbea-ef74378b458b","ios":"levelo://app?vid=50ba0a4e-dc52-4b36-bbea-ef74378b458b"},"vehicle_type_id":"4","last_reported":1698167170,"current_range_meters":9200,"station_id":"","pricing_plan_id":"free"},{"bike_id":"08425b59-0742-4eb1-9ac9-d28f5a10139b","system_id":"levelo_inurba_marseille","lat":43.299243,"lon":5.37481,"is_reserved":false,"is_disabled":false,"rental_uris":{"android":"levelo://app?vid=08425b59-0742-4eb1-9ac9-d28f5a10139b","ios":"levelo://app?vid=08425b59-0742-4eb1-9ac9-d28f5a10139b"},"vehicle_type_id":"4","last_reported":1698167170,"current_range_meters":20400,"station_id":"ce4bgjh2rcd13ifvqbg0","pricing_plan_id":"free"},{"bike_id":"bc3ebe9e-cd58-4e9e-87ea-c3cb92b3269a","system_id":"levelo_inurba_marseille","lat":43.32365,"lon":5.38885,"is_reserved":false,"is_disabled":false,"rental_uris":{"android":"levelo://app?vid=bc3ebe9e-cd58-4e9e-87ea-c3cb92b3269a","ios":"levelo://app?vid=bc3ebe9e-cd58-4e9e-87ea-c3cb92b3269a"},"vehicle_type_id":"4","last_reported":1698167170,"current_range_meters":10000,"station_id":"ce4bhqp2rcd13ifvqhog","pricing_plan_id":"free"},{"bike_id":"503690d1-c4e4-4249-b310-fe5688a191b7","system_id":"levelo_inurba_marseille","lat":43.32367,"lon":5.388836,"is_reserved":false,"is_disabled":false,"rental_uris":{"android":"levelo://app?vid=503690d1-c4e4-4249-b310-fe5688a191b7","ios":"levelo://app?vid=503690d1-c4e4-4249-b310-fe5688a191b7"},"vehicle_type_id":"4","last_reported":1698167170,"current_range_meters":14000,"station_id":"ce4bhqp2rcd13ifvqhog","pricing_plan_id":"free"},{"bike_id":"a7897771-cc2f-49ca-8577-8c501845e4b7","system_id":"levelo_inurba_marseille","lat":43.293259,"lon":5.371586,"is_reserved":false,"is_disabled":false,"rental_uris":{"android":"levelo://app?vid=a7897771-cc2f-49ca-8577-8c501845e4b7","ios":"levelo://app?vid=a7897771-cc2f-49ca-8577-8c501845e4b7"},"vehicle_type_id":"4","last_reported":1698167170,"current_range_meters":2000,"station_id":"ce4bgh92rcd13ifvqb40","pricing_plan_id":"free"},{"bike_id":"bbab7e28-ee01-4080-b12e-dd8baccd43d0","system_id":"levelo_inurba_marseille","lat":43.32394,"lon":5.389747,"is_reserved":false,"is_disabled":false,"rental_uris":{"android":"levelo://app?vid=bbab7e28-ee01-4080-b12e-dd8baccd43d0","ios":"levelo://app?vid=bbab7e28-ee01-4080-b12e-dd8baccd43d0"},"vehicle_type_id":"4","last_reported":1698167170,"current_range_meters":24000,"station_id":"ce4bhqp2rcd13ifvqhog","pricing_plan_id":"free"},{"bike_id":"4a396961-aec2-43c3-8cd5-a522982a906f","system_id":"levelo_inurba_marseille","lat":43.29269,"lon":5.36854,"is_reserved":false,"is_disabled":false,"rental_uris":{"android":"levelo://app?vid=4a396961-aec2-43c3-8cd5-a522982a906f","ios":"levelo://app?vid=4a396961-aec2-43c3-8cd5-a522982a906f"},"vehicle_type_id":"4","last_reported":1698167170,"current_range_meters":1200,"station_id":"ce4bhbp2rcd13ifvqesg","pricing_plan_id":"free"},{"bike_id":"7bfac049-edc9-4d3a-9b96-fa773851f14a","system_id":"levelo_inurba_marseille","lat":43.330632,"lon":5.379508,"is_reserved":false,"is_disabled":false,"rental_uris":{"android":"levelo://app?vid=7bfac049-edc9-4d3a-9b96-fa773851f14a","ios":"levelo://app?vid=7bfac049-edc9-4d3a-9b96-fa773851f14a"},"vehicle_type_id":"4","last_reported":1698167170,"current_range_meters":10000,"station_id":"","pricing_plan_id":"free"},{"bike_id":"996f67bc-fd8a-4226-bd71-455e8501e128","system_id":"levelo_inurba_marseille","lat":43.305994,"lon":5.393687,"is_reserved":false,"is_disabled":false,"rental_uris":{"android":"levelo://app?vid=996f67bc-fd8a-4226-bd71-455e8501e128","ios":"levelo://app?vid=996f67bc-fd8a-4226-bd71-455e8501e128"},"vehicle_type_id":"4","last_reported":1698167170,"current_range_meters":31200,"station_id":"ce4bh0p2rcd13ifvqd80","pricing_plan_id":"free"},{"bike_id":"57d3e800-7d50-4859-9f4c-7737b6bc171b","system_id":"levelo_inurba_marseille","lat":43.305994,"lon":5.393687,"is_reserved":false,"is_disabled":false,"rental_uris":{"android":"levelo://app?vid=57d3e800-7d50-4859-9f4c-7737b6bc171b","ios":"levelo://app?vid=57d3e800-7d50-4859-9f4c-7737b6bc171b"},"vehicle_type_id":"4","last_reported":1698167170,"current_range_meters":25200,"station_id":"ce4bh0p2rcd13ifvqd80","pricing_plan_id":"free"},{"bike_id":"8b633c17-4427-4de6-89ed-3883c937a020","system_id":"levelo_inurba_marseille","lat":43.293009,"lon":5.374584,"is_reserved":false,"is_disabled":false,"rental_uris":{"android":"levelo://app?vid=8b633c17-4427-4de6-89ed-3883c937a020","ios":"levelo://app?vid=8b633c17-4427-4de6-89ed-3883c937a020"},"vehicle_type_id":"4","last_reported":1698167170,"current_range_meters":29600,"station_id":"ce4bgi12rcd13ifvqb70","pricing_plan_id":"free"},{"bike_id":"3e55107f-c4ba-4076-be54-05089c14b50c","system_id":"levelo_inurba_marseille","lat":43.33016,"lon":5.38294,"is_reserved":false,"is_disabled":false,"rental_uris":{"android":"levelo://app?vid=3e55107f-c4ba-4076-be54-05089c14b50c","ios":"levelo://app?vid=3e55107f-c4ba-4076-be54-05089c14b50c"},"vehicle_type_id":"4","last_reported":1698167170,"current_range_meters":4400,"station_id":"","pricing_plan_id":"free"},{"bike_id":"f292a370-fc24-426d-87be-f5ed1bcc4f89","system_id":"levelo_inurba_marseille","lat":43.29875,"lon":5.38907,"is_reserved":false,"is_disabled":false,"rental_uris":{"android":"levelo://app?vid=f292a370-fc24-426d-87be-f5ed1bcc4f89","ios":"levelo://app?vid=f292a370-fc24-426d-87be-f5ed1bcc4f89"},"vehicle_type_id":"4","last_reported":1698167170,"current_range_meters":19200,"station_id":"ce4bh392rcd13ifvqdl0","pricing_plan_id":"free"},{"bike_id":"3fb39dc6-0b5d-48db-b327-e606ee44e875","system_id":"levelo_inurba_marseille","lat":43.298764,"lon":5.388973,"is_reserved":false,"is_disabled":false,"rental_uris":{"android":"levelo://app?vid=3fb39dc6-0b5d-48db-b327-e606ee44e875","ios":"levelo://app?vid=3fb39dc6-0b5d-48db-b327-e606ee44e875"},"vehicle_type_id":"4","last_reported":1698167170,"current_range_meters":17600,"station_id":"ce4bh392rcd13ifvqdl0","pricing_plan_id":"free"},{"bike_id":"d6b2ec1b-6b44-4983-ac55-129971344054","system_id":"levelo_inurba_marseille","lat":43.291928,"lon":5.358124,"is_reserved":false,"is_disabled":false,"rental_uris":{"android":"levelo://app?vid=d6b2ec1b-6b44-4983-ac55-129971344054","ios":"levelo://app?vid=d6b2ec1b-6b44-4983-ac55-129971344054"},"vehicle_type_id":"4","last_reported":1698167170,"current_range_meters":25600,"station_id":"ce4bhbh2rcd13ifvqeqg","pricing_plan_id":"free"},{"bike_id":"a547ed61-7aa6-42f7-9a11-3791ad19cbbe","system_id":"levelo_inurba_marseille","lat":43.31329,"lon":5.39686,"is_reserved":false,"is_disabled":false,"rental_uris":{"android":"levelo://app?vid=a547ed61-7aa6-42f7-9a11-3791ad19cbbe","ios":"levelo://app?vid=a547ed61-7aa6-42f7-9a11-3791ad19cbbe"},"vehicle_type_id":"4","last_reported":1698167170,"current_range_meters":8000,"station_id":"ce4bgvp2rcd13ifvqcu0","pricing_plan_id":"free"},{"bike_id":"2a37723c-d561-43df-a973-dfd6c23c9fc4","system_id":"levelo_inurba_marseille","lat":43.313291,"lon":5.396838,"is_reserved":false,"is_disabled":false,"rental_uris":{"android":"levelo://app?vid=2a37723c-d561-43df-a973-dfd6c23c9fc4","ios":"levelo://app?vid=2a37723c-d561-43df-a973-dfd6c23c9fc4"},"vehicle_type_id":"4","last_reported":1698167170,"current_range_meters":31200,"station_id":"ce4bgvp2rcd13ifvqcu0","pricing_plan_id":"free"},{"bike_id":"48ff8b36-57a6-445d-a24c-23a186c58eda","system_id":"levelo_inurba_marseille","lat":43.309038,"lon":5.396546,"is_reserved":false,"is_disabled":false,"rental_uris":{"android":"levelo://app?vid=48ff8b36-57a6-445d-a24c-23a186c58eda","ios":"levelo://app?vid=48ff8b36-57a6-445d-a24c-23a186c58eda"},"vehicle_type_id":"4","last_reported":1698167170,"current_range_meters":1200,"station_id":"ce4bh012rcd13ifvqcv0","pricing_plan_id":"free"},{"bike_id":"87b02baa-3cd8-4260-a406-626afb5b751c","system_id":"levelo_inurba_marseille","lat":43.31322,"lon":5.39695,"is_reserved":false,"is_disabled":false,"rental_uris":{"android":"levelo://app?vid=87b02baa-3cd8-4260-a406-626afb5b751c","ios":"levelo://app?vid=87b02baa-3cd8-4260-a406-626afb5b751c"},"vehicle_type_id":"4","last_reported":1698167170,"current_range_meters":18000,"station_id":"ce4bgvp2rcd13ifvqcu0","pricing_plan_id":"free"},{"bike_id":"eb6debc6-ea24-4f23-b9c7-131cc9bf3054","system_id":"levelo_inurba_marseille","lat":43.294162,"lon":5.386292,"is_reserved":false,"is_disabled":false,"rental_uris":{"android":"levelo://app?vid=eb6debc6-ea24-4f23-b9c7-131cc9bf3054","ios":"levelo://app?vid=eb6debc6-ea24-4f23-b9c7-131cc9bf3054"},"vehicle_type_id":"4","last_reported":1698167170,"current_range_meters":10000,"station_id":"ce4bh2h2rcd13ifvqdh0","pricing_plan_id":"free"},{"bike_id":"b35aa4c8-8dc6-432c-97de-da369dae2e9f","system_id":"levelo_inurba_marseille","lat":43.31327,"lon":5.39698,"is_reserved":false,"is_disabled":false,"rental_uris":{"android":"levelo://app?vid=b35aa4c8-8dc6-432c-97de-da369dae2e9f","ios":"levelo://app?vid=b35aa4c8-8dc6-432c-97de-da369dae2e9f"},"vehicle_type_id":"4","last_reported":1698167170,"current_range_meters":0,"station_id":"ce4bgvp2rcd13ifvqcu0","pricing_plan_id":"free"},{"bike_id":"de3f08c9-172d-44ae-9f75-19e989861a5f","system_id":"levelo_inurba_marseille","lat":43.309047,"lon":5.396551,"is_reserved":false,"is_disabled":false,"rental_uris":{"android":"levelo://app?vid=de3f08c9-172d-44ae-9f75-19e989861a5f","ios":"levelo://app?vid=de3f08c9-172d-44ae-9f75-19e989861a5f"},"vehicle_type_id":"4","last_reported":1698167170,"current_range_meters":5200,"station_id":"ce4bh012rcd13ifvqcv0","pricing_plan_id":"free"},{"bike_id":"2f6b2020-2e71-4738-a00a-f24199b34752","system_id":"levelo_inurba_marseille","lat":43.309038,"lon":5.396546,"is_reserved":false,"is_disabled":false,"rental_uris":{"android":"levelo://app?vid=2f6b2020-2e71-4738-a00a-f24199b34752","ios":"levelo://app?vid=2f6b2020-2e71-4738-a00a-f24199b34752"},"vehicle_type_id":"4","last_reported":1698167170,"current_range_meters":22000,"station_id":"ce4bh012rcd13ifvqcv0","pricing_plan_id":"free"},{"bike_id":"d42a9ae7-2286-45f6-a3bf-eca1894d68d1","system_id":"levelo_inurba_marseille","lat":43.29532,"lon":5.38593,"is_reserved":false,"is_disabled":false,"rental_uris":{"android":"levelo://app?vid=d42a9ae7-2286-45f6-a3bf-eca1894d68d1","ios":"levelo://app?vid=d42a9ae7-2286-45f6-a3bf-eca1894d68d1"},"vehicle_type_id":"4","last_reported":1698167170,"current_range_meters":12800,"station_id":"ce4bgih2rcd13ifvqba0","pricing_plan_id":"free"},{"bike_id":"d445e7dc-8f39-4198-8d15-1838ad42556e","system_id":"levelo_inurba_marseille","lat":43.30199,"lon":5.39472,"is_reserved":false,"is_disabled":false,"rental_uris":{"android":"levelo://app?vid=d445e7dc-8f39-4198-8d15-1838ad42556e","ios":"levelo://app?vid=d445e7dc-8f39-4198-8d15-1838ad42556e"},"vehicle_type_id":"4","last_reported":1698167170,"current_range_meters":18400,"station_id":"ce4bh0p2rcd13ifvqd70","pricing_plan_id":"free"},{"bike_id":"3ba9337c-3a4c-4b79-bb22-9c08f678ee27","system_id":"levelo_inurba_marseille","lat":43.3339,"lon":5.37907,"is_reserved":false,"is_disabled":false,"rental_uris":{"android":"levelo://app?vid=3ba9337c-3a4c-4b79-bb22-9c08f678ee27","ios":"levelo://app?vid=3ba9337c-3a4c-4b79-bb22-9c08f678ee27"},"vehicle_type_id":"4","last_reported":1698167170,"current_range_meters":29600,"station_id":"","pricing_plan_id":"free"},{"bike_id":"fa7d9dfc-aab3-4cb3-90a6-f62b54e32b36","system_id":"levelo_inurba_marseille","lat":43.290631,"lon":5.359244,"is_reserved":false,"is_disabled":false,"rental_uris":{"android":"levelo://app?vid=fa7d9dfc-aab3-4cb3-90a6-f62b54e32b36","ios":"levelo://app?vid=fa7d9dfc-aab3-4cb3-90a6-f62b54e32b36"},"vehicle_type_id":"4","last_reported":1698167170,"current_range_meters":12400,"station_id":"ce4bha92rcd13ifvqeg0","pricing_plan_id":"free"},{"bike_id":"bc8cf5d9-7742-4773-9393-012e2237bd00","system_id":"levelo_inurba_marseille","lat":43.290624,"lon":5.359245,"is_reserved":false,"is_disabled":false,"rental_uris":{"android":"levelo://app?vid=bc8cf5d9-7742-4773-9393-012e2237bd00","ios":"levelo://app?vid=bc8cf5d9-7742-4773-9393-012e2237bd00"},"vehicle_type_id":"4","last_reported":1698167170,"current_range_meters":16800,"station_id":"ce4bha92rcd13ifvqeg0","pricing_plan_id":"free"},{"bike_id":"fde18d83-3fcc-4c92-891c-582658da32d5","system_id":"levelo_inurba_marseille","lat":43.290631,"lon":5.359244,"is_reserved":false,"is_disabled":false,"rental_uris":{"android":"levelo://app?vid=fde18d83-3fcc-4c92-891c-582658da32d5","ios":"levelo://app?vid=fde18d83-3fcc-4c92-891c-582658da32d5"},"vehicle_type_id":"4","last_reported":1698167170,"current_range_meters":3600,"station_id":"ce4bha92rcd13ifvqeg0","pricing_plan_id":"free"},{"bike_id":"62269cf1-e43c-43fa-a916-fd026077b18f","system_id":"levelo_inurba_marseille","lat":43.290327,"lon":5.375711,"is_reserved":false,"is_disabled":false,"rental_uris":{"android":"levelo://app?vid=62269cf1-e43c-43fa-a916-fd026077b18f","ios":"levelo://app?vid=62269cf1-e43c-43fa-a916-fd026077b18f"},"vehicle_type_id":"4","last_reported":1698167170,"current_range_meters":0,"station_id":"ce4bh692rcd13ifvqe90","pricing_plan_id":"free"},{"bike_id":"9ea3f742-8e13-4e54-a645-c9001243abb0","system_id":"levelo_inurba_marseille","lat":43.294153,"lon":5.386305,"is_reserved":false,"is_disabled":false,"rental_uris":{"android":"levelo://app?vid=9ea3f742-8e13-4e54-a645-c9001243abb0","ios":"levelo://app?vid=9ea3f742-8e13-4e54-a645-c9001243abb0"},"vehicle_type_id":"4","last_reported":1698167170,"current_range_meters":6400,"station_id":"ce4bh2h2rcd13ifvqdh0","pricing_plan_id":"free"},{"bike_id":"dcd3ac5a-2dd9-4ba3-a245-00f095827938","system_id":"levelo_inurba_marseille","lat":43.289184,"lon":5.366408,"is_reserved":false,"is_disabled":false,"rental_uris":{"android":"levelo://app?vid=dcd3ac5a-2dd9-4ba3-a245-00f095827938","ios":"levelo://app?vid=dcd3ac5a-2dd9-4ba3-a245-00f095827938"},"vehicle_type_id":"4","last_reported":1698167170,"current_range_meters":10400,"station_id":"ce4bhap2rcd13ifvqek0","pricing_plan_id":"free"},{"bike_id":"51c5a85f-8a14-46a0-a5e0-74d3f8971853","system_id":"levelo_inurba_marseille","lat":43.289184,"lon":5.366408,"is_reserved":false,"is_disabled":false,"rental_uris":{"android":"levelo://app?vid=51c5a85f-8a14-46a0-a5e0-74d3f8971853","ios":"levelo://app?vid=51c5a85f-8a14-46a0-a5e0-74d3f8971853"},"vehicle_type_id":"4","last_reported":1698167170,"current_range_meters":800,"station_id":"ce4bhap2rcd13ifvqek0","pricing_plan_id":"free"},{"bike_id":"8b85f3f5-40dd-4a79-9cc9-4edbb83c6b7a","system_id":"levelo_inurba_marseille","lat":43.289184,"lon":5.366408,"is_reserved":false,"is_disabled":false,"rental_uris":{"android":"levelo://app?vid=8b85f3f5-40dd-4a79-9cc9-4edbb83c6b7a","ios":"levelo://app?vid=8b85f3f5-40dd-4a79-9cc9-4edbb83c6b7a"},"vehicle_type_id":"4","last_reported":1698167170,"current_range_meters":1200,"station_id":"ce4bhap2rcd13ifvqek0","pricing_plan_id":"free"},{"bike_id":"04619b24-02f6-44fc-864a-8f01edcebbdc","system_id":"levelo_inurba_marseille","lat":43.289468,"lon":5.363719,"is_reserved":false,"is_disabled":false,"rental_uris":{"android":"levelo://app?vid=04619b24-02f6-44fc-864a-8f01edcebbdc","ios":"levelo://app?vid=04619b24-02f6-44fc-864a-8f01edcebbdc"},"vehicle_type_id":"4","last_reported":1698167170,"current_range_meters":8800,"station_id":"ce4bhc92rcd13ifvqetg","pricing_plan_id":"free"},{"bike_id":"acd812fb-fd9c-44fe-a155-c781c33dba1c","system_id":"levelo_inurba_marseille","lat":43.289184,"lon":5.366408,"is_reserved":false,"is_disabled":false,"rental_uris":{"android":"levelo://app?vid=acd812fb-fd9c-44fe-a155-c781c33dba1c","ios":"levelo://app?vid=acd812fb-fd9c-44fe-a155-c781c33dba1c"},"vehicle_type_id":"4","last_reported":1698167170,"current_range_meters":1200,"station_id":"ce4bhap2rcd13ifvqek0","pricing_plan_id":"free"},{"bike_id":"5c6b4f4c-8209-4006-89b8-9f2ee77b26fa","system_id":"levelo_inurba_marseille","lat":43.289184,"lon":5.366408,"is_reserved":false,"is_disabled":false,"rental_uris":{"android":"levelo://app?vid=5c6b4f4c-8209-4006-89b8-9f2ee77b26fa","ios":"levelo://app?vid=5c6b4f4c-8209-4006-89b8-9f2ee77b26fa"},"vehicle_type_id":"4","last_reported":1698167170,"current_range_meters":30400,"station_id":"ce4bhap2rcd13ifvqek0","pricing_plan_id":"free"},{"bike_id":"db761adc-f3aa-40de-bcd5-45784a479676","system_id":"levelo_inurba_marseille","lat":43.289468,"lon":5.363719,"is_reserved":false,"is_disabled":false,"rental_uris":{"android":"levelo://app?vid=db761adc-f3aa-40de-bcd5-45784a479676","ios":"levelo://app?vid=db761adc-f3aa-40de-bcd5-45784a479676"},"vehicle_type_id":"4","last_reported":1698167170,"current_range_meters":8800,"station_id":"ce4bhc92rcd13ifvqetg","pricing_plan_id":"free"},{"bike_id":"958db14e-71c2-4f9f-b4a0-05570d85c53a","system_id":"levelo_inurba_marseille","lat":43.289468,"lon":5.363719,"is_reserved":false,"is_disabled":false,"rental_uris":{"android":"levelo://app?vid=958db14e-71c2-4f9f-b4a0-05570d85c53a","ios":"levelo://app?vid=958db14e-71c2-4f9f-b4a0-05570d85c53a"},"vehicle_type_id":"4","last_reported":1698167170,"current_range_meters":3200,"station_id":"ce4bhc92rcd13ifvqetg","pricing_plan_id":"free"},{"bike_id":"da125e41-617e-4ce9-94bf-08099927ad19","system_id":"levelo_inurba_marseille","lat":43.292644,"lon":5.384257,"is_reserved":false,"is_disabled":false,"rental_uris":{"android":"levelo://app?vid=da125e41-617e-4ce9-94bf-08099927ad19","ios":"levelo://app?vid=da125e41-617e-4ce9-94bf-08099927ad19"},"vehicle_type_id":"4","last_reported":1698167170,"current_range_meters":14000,"station_id":"ce4bh692rcd13ifvqea0","pricing_plan_id":"free"},{"bike_id":"2e077d1c-c043-48f3-894d-52a9b418a89d","system_id":"levelo_inurba_marseille","lat":43.292644,"lon":5.384257,"is_reserved":false,"is_disabled":false,"rental_uris":{"android":"levelo://app?vid=2e077d1c-c043-48f3-894d-52a9b418a89d","ios":"levelo://app?vid=2e077d1c-c043-48f3-894d-52a9b418a89d"},"vehicle_type_id":"4","last_reported":1698167170,"current_range_meters":26800,"station_id":"ce4bh692rcd13ifvqea0","pricing_plan_id":"free"},{"bike_id":"01c91914-2f0e-4f42-a345-1bd7221faf5e","system_id":"levelo_inurba_marseille","lat":43.290995,"lon":5.381361,"is_reserved":false,"is_disabled":false,"rental_uris":{"android":"levelo://app?vid=01c91914-2f0e-4f42-a345-1bd7221faf5e","ios":"levelo://app?vid=01c91914-2f0e-4f42-a345-1bd7221faf5e"},"vehicle_type_id":"4","last_reported":1698167170,"current_range_meters":3200,"station_id":"ce4bh512rcd13ifvqe2g","pricing_plan_id":"free"},{"bike_id":"6cb6beca-ef85-466c-b746-448f8a3ebbbb","system_id":"levelo_inurba_marseille","lat":43.29779,"lon":5.39322,"is_reserved":false,"is_disabled":false,"rental_uris":{"android":"levelo://app?vid=6cb6beca-ef85-466c-b746-448f8a3ebbbb","ios":"levelo://app?vid=6cb6beca-ef85-466c-b746-448f8a3ebbbb"},"vehicle_type_id":"4","last_reported":1698167170,"current_range_meters":0,"station_id":"chh1huq6cuj3fo74tm60","pricing_plan_id":"free"},{"bike_id":"141dee6d-4b0a-4aae-bdf8-608e5f6bf256","system_id":"levelo_inurba_marseille","lat":43.331293,"lon":5.388527,"is_reserved":false,"is_disabled":false,"rental_uris":{"android":"levelo://app?vid=141dee6d-4b0a-4aae-bdf8-608e5f6bf256","ios":"levelo://app?vid=141dee6d-4b0a-4aae-bdf8-608e5f6bf256"},"vehicle_type_id":"4","last_reported":1698167170,"current_range_meters":0,"station_id":"","pricing_plan_id":"free"},{"bike_id":"859ede5a-87e8-4d1c-bb13-9f0d8e8299f8","system_id":"levelo_inurba_marseille","lat":43.289743,"lon":5.378304,"is_reserved":false,"is_disabled":false,"rental_uris":{"android":"levelo://app?vid=859ede5a-87e8-4d1c-bb13-9f0d8e8299f8","ios":"levelo://app?vid=859ede5a-87e8-4d1c-bb13-9f0d8e8299f8"},"vehicle_type_id":"4","last_reported":1698167170,"current_range_meters":11200,"station_id":"ce4bh9p2rcd13ifvqed0","pricing_plan_id":"free"},{"bike_id":"a48e1efd-9180-4be8-abe3-ea060504b94c","system_id":"levelo_inurba_marseille","lat":43.29779,"lon":5.39334,"is_reserved":false,"is_disabled":false,"rental_uris":{"android":"levelo://app?vid=a48e1efd-9180-4be8-abe3-ea060504b94c","ios":"levelo://app?vid=a48e1efd-9180-4be8-abe3-ea060504b94c"},"vehicle_type_id":"4","last_reported":1698167170,"current_range_meters":7200,"station_id":"chh1huq6cuj3fo74tm60","pricing_plan_id":"free"},{"bike_id":"c10b25dd-fec3-4629-a00b-2a94dd8ce5cb","system_id":"levelo_inurba_marseille","lat":43.29784,"lon":5.39341,"is_reserved":false,"is_disabled":false,"rental_uris":{"android":"levelo://app?vid=c10b25dd-fec3-4629-a00b-2a94dd8ce5cb","ios":"levelo://app?vid=c10b25dd-fec3-4629-a00b-2a94dd8ce5cb"},"vehicle_type_id":"4","last_reported":1698167170,"current_range_meters":0,"station_id":"chh1huq6cuj3fo74tm60","pricing_plan_id":"free"},{"bike_id":"23288ab0-3c14-4098-93c2-bbde4e5acf86","system_id":"levelo_inurba_marseille","lat":43.2978,"lon":5.39337,"is_reserved":false,"is_disabled":false,"rental_uris":{"android":"levelo://app?vid=23288ab0-3c14-4098-93c2-bbde4e5acf86","ios":"levelo://app?vid=23288ab0-3c14-4098-93c2-bbde4e5acf86"},"vehicle_type_id":"4","last_reported":1698167170,"current_range_meters":0,"station_id":"chh1huq6cuj3fo74tm60","pricing_plan_id":"free"},{"bike_id":"f9825a20-53fc-47ea-8e22-c4ae61ffdf5c","system_id":"levelo_inurba_marseille","lat":43.297815,"lon":5.393548,"is_reserved":false,"is_disabled":false,"rental_uris":{"android":"levelo://app?vid=f9825a20-53fc-47ea-8e22-c4ae61ffdf5c","ios":"levelo://app?vid=f9825a20-53fc-47ea-8e22-c4ae61ffdf5c"},"vehicle_type_id":"4","last_reported":1698167170,"current_range_meters":2000,"station_id":"chh1huq6cuj3fo74tm60","pricing_plan_id":"free"},{"bike_id":"dfc28219-62fc-4de7-9898-1e2a7a2f489e","system_id":"levelo_inurba_marseille","lat":43.29778,"lon":5.39345,"is_reserved":false,"is_disabled":false,"rental_uris":{"android":"levelo://app?vid=dfc28219-62fc-4de7-9898-1e2a7a2f489e","ios":"levelo://app?vid=dfc28219-62fc-4de7-9898-1e2a7a2f489e"},"vehicle_type_id":"4","last_reported":1698167170,"current_range_meters":14800,"station_id":"chh1huq6cuj3fo74tm60","pricing_plan_id":"free"},{"bike_id":"ea272a84-cfd0-4ec8-9705-66d10a93306e","system_id":"levelo_inurba_marseille","lat":43.295169,"lon":5.390426,"is_reserved":false,"is_disabled":false,"rental_uris":{"android":"levelo://app?vid=ea272a84-cfd0-4ec8-9705-66d10a93306e","ios":"levelo://app?vid=ea272a84-cfd0-4ec8-9705-66d10a93306e"},"vehicle_type_id":"4","last_reported":1698167170,"current_range_meters":4800,"station_id":"ce4bh3p2rcd13ifvqdp0","pricing_plan_id":"free"},{"bike_id":"c9ef2e18-7ae9-479d-9e96-bc7a6a67e519","system_id":"levelo_inurba_marseille","lat":43.28856,"lon":5.358371,"is_reserved":false,"is_disabled":false,"rental_uris":{"android":"levelo://app?vid=c9ef2e18-7ae9-479d-9e96-bc7a6a67e519","ios":"levelo://app?vid=c9ef2e18-7ae9-479d-9e96-bc7a6a67e519"},"vehicle_type_id":"4","last_reported":1698167170,"current_range_meters":29200,"station_id":"ce4bhb12rcd13ifvqem0","pricing_plan_id":"free"},{"bike_id":"023b8e9c-4c3c-4768-bb85-c7d2f57364ea","system_id":"levelo_inurba_marseille","lat":43.28839,"lon":5.35856,"is_reserved":false,"is_disabled":false,"rental_uris":{"android":"levelo://app?vid=023b8e9c-4c3c-4768-bb85-c7d2f57364ea","ios":"levelo://app?vid=023b8e9c-4c3c-4768-bb85-c7d2f57364ea"},"vehicle_type_id":"4","last_reported":1698167170,"current_range_meters":6000,"station_id":"ce4bhb12rcd13ifvqem0","pricing_plan_id":"free"},{"bike_id":"d62ce109-3a0b-4298-869f-977c6b4bef4d","system_id":"levelo_inurba_marseille","lat":43.2884,"lon":5.35841,"is_reserved":false,"is_disabled":false,"rental_uris":{"android":"levelo://app?vid=d62ce109-3a0b-4298-869f-977c6b4bef4d","ios":"levelo://app?vid=d62ce109-3a0b-4298-869f-977c6b4bef4d"},"vehicle_type_id":"4","last_reported":1698167170,"current_range_meters":0,"station_id":"ce4bhb12rcd13ifvqem0","pricing_plan_id":"free"},{"bike_id":"9dcc9f7a-363f-4a32-ae51-6d09060c68a6","system_id":"levelo_inurba_marseille","lat":43.31271,"lon":5.40172,"is_reserved":false,"is_disabled":false,"rental_uris":{"android":"levelo://app?vid=9dcc9f7a-363f-4a32-ae51-6d09060c68a6","ios":"levelo://app?vid=9dcc9f7a-363f-4a32-ae51-6d09060c68a6"},"vehicle_type_id":"4","last_reported":1698167170,"current_range_meters":28400,"station_id":"ce4bh092rcd13ifvqd30","pricing_plan_id":"free"},{"bike_id":"bc2fc237-a60b-4152-85ea-8852669ed9cb","system_id":"levelo_inurba_marseille","lat":43.33749,"lon":5.37445,"is_reserved":false,"is_disabled":false,"rental_uris":{"android":"levelo://app?vid=bc2fc237-a60b-4152-85ea-8852669ed9cb","ios":"levelo://app?vid=bc2fc237-a60b-4152-85ea-8852669ed9cb"},"vehicle_type_id":"4","last_reported":1698167170,"current_range_meters":26000,"station_id":"","pricing_plan_id":"free"},{"bike_id":"2866c103-566b-4fe2-bdf9-cbfa202a4088","system_id":"levelo_inurba_marseille","lat":43.31273,"lon":5.40178,"is_reserved":false,"is_disabled":false,"rental_uris":{"android":"levelo://app?vid=2866c103-566b-4fe2-bdf9-cbfa202a4088","ios":"levelo://app?vid=2866c103-566b-4fe2-bdf9-cbfa202a4088"},"vehicle_type_id":"4","last_reported":1698167170,"current_range_meters":2400,"station_id":"ce4bh092rcd13ifvqd30","pricing_plan_id":"free"},{"bike_id":"e3af6d91-a01a-4d38-bd35-b3397e3b4870","system_id":"levelo_inurba_marseille","lat":43.30642,"lon":5.401031,"is_reserved":false,"is_disabled":false,"rental_uris":{"android":"levelo://app?vid=e3af6d91-a01a-4d38-bd35-b3397e3b4870","ios":"levelo://app?vid=e3af6d91-a01a-4d38-bd35-b3397e3b4870"},"vehicle_type_id":"4","last_reported":1698167170,"current_range_meters":10000,"station_id":"ce4bh112rcd13ifvqda0","pricing_plan_id":"free"},{"bike_id":"f8cb6a58-8ffc-4507-a38c-a13db18fabeb","system_id":"levelo_inurba_marseille","lat":43.306412,"lon":5.401035,"is_reserved":false,"is_disabled":false,"rental_uris":{"android":"levelo://app?vid=f8cb6a58-8ffc-4507-a38c-a13db18fabeb","ios":"levelo://app?vid=f8cb6a58-8ffc-4507-a38c-a13db18fabeb"},"vehicle_type_id":"4","last_reported":1698167170,"current_range_meters":4800,"station_id":"ce4bh112rcd13ifvqda0","pricing_plan_id":"free"},{"bike_id":"796062e1-5ae3-4c6e-94d7-fcb38e68b404","system_id":"levelo_inurba_marseille","lat":43.30641,"lon":5.40096,"is_reserved":false,"is_disabled":false,"rental_uris":{"android":"levelo://app?vid=796062e1-5ae3-4c6e-94d7-fcb38e68b404","ios":"levelo://app?vid=796062e1-5ae3-4c6e-94d7-fcb38e68b404"},"vehicle_type_id":"4","last_reported":1698167170,"current_range_meters":18000,"station_id":"ce4bh112rcd13ifvqda0","pricing_plan_id":"free"},{"bike_id":"728759eb-a2f6-4e89-ac24-68c594ae9a89","system_id":"levelo_inurba_marseille","lat":43.30642,"lon":5.401031,"is_reserved":false,"is_disabled":false,"rental_uris":{"android":"levelo://app?vid=728759eb-a2f6-4e89-ac24-68c594ae9a89","ios":"levelo://app?vid=728759eb-a2f6-4e89-ac24-68c594ae9a89"},"vehicle_type_id":"4","last_reported":1698167170,"current_range_meters":0,"station_id":"ce4bh112rcd13ifvqda0","pricing_plan_id":"free"},{"bike_id":"6f68f333-01aa-47a9-89eb-fb1b7c2ae79a","system_id":"levelo_inurba_marseille","lat":43.301117,"lon":5.398795,"is_reserved":false,"is_disabled":false,"rental_uris":{"android":"levelo://app?vid=6f68f333-01aa-47a9-89eb-fb1b7c2ae79a","ios":"levelo://app?vid=6f68f333-01aa-47a9-89eb-fb1b7c2ae79a"},"vehicle_type_id":"4","last_reported":1698167170,"current_range_meters":16000,"station_id":"ce4bh0h2rcd13ifvqd40","pricing_plan_id":"free"},{"bike_id":"f9222860-4816-4a28-81ab-cd71fc797111","system_id":"levelo_inurba_marseille","lat":43.30642,"lon":5.401031,"is_reserved":false,"is_disabled":false,"rental_uris":{"android":"levelo://app?vid=f9222860-4816-4a28-81ab-cd71fc797111","ios":"levelo://app?vid=f9222860-4816-4a28-81ab-cd71fc797111"},"vehicle_type_id":"4","last_reported":1698167170,"current_range_meters":10000,"station_id":"ce4bh112rcd13ifvqda0","pricing_plan_id":"free"},{"bike_id":"ff2d1111-f747-4ea7-a1a0-7272b9681a8a","system_id":"levelo_inurba_marseille","lat":43.30642,"lon":5.401031,"is_reserved":false,"is_disabled":false,"rental_uris":{"android":"levelo://app?vid=ff2d1111-f747-4ea7-a1a0-7272b9681a8a","ios":"levelo://app?vid=ff2d1111-f747-4ea7-a1a0-7272b9681a8a"},"vehicle_type_id":"4","last_reported":1698167170,"current_range_meters":14000,"station_id":"ce4bh112rcd13ifvqda0","pricing_plan_id":"free"},{"bike_id":"fd8e5242-5a79-4a8a-b132-fe78b56d7cad","system_id":"levelo_inurba_marseille","lat":43.301117,"lon":5.398795,"is_reserved":false,"is_disabled":false,"rental_uris":{"android":"levelo://app?vid=fd8e5242-5a79-4a8a-b132-fe78b56d7cad","ios":"levelo://app?vid=fd8e5242-5a79-4a8a-b132-fe78b56d7cad"},"vehicle_type_id":"4","last_reported":1698167170,"current_range_meters":16800,"station_id":"ce4bh0h2rcd13ifvqd40","pricing_plan_id":"free"},{"bike_id":"c8f23979-debb-454f-89b4-29963ef1c7a1","system_id":"levelo_inurba_marseille","lat":43.301117,"lon":5.398795,"is_reserved":false,"is_disabled":false,"rental_uris":{"android":"levelo://app?vid=c8f23979-debb-454f-89b4-29963ef1c7a1","ios":"levelo://app?vid=c8f23979-debb-454f-89b4-29963ef1c7a1"},"vehicle_type_id":"4","last_reported":1698167170,"current_range_meters":9200,"station_id":"ce4bh0h2rcd13ifvqd40","pricing_plan_id":"free"},{"bike_id":"7007b5e6-4058-4da6-9833-56b8a6b3e9d5","system_id":"levelo_inurba_marseille","lat":43.301117,"lon":5.398795,"is_reserved":false,"is_disabled":false,"rental_uris":{"android":"levelo://app?vid=7007b5e6-4058-4da6-9833-56b8a6b3e9d5","ios":"levelo://app?vid=7007b5e6-4058-4da6-9833-56b8a6b3e9d5"},"vehicle_type_id":"4","last_reported":1698167170,"current_range_meters":16000,"station_id":"ce4bh0h2rcd13ifvqd40","pricing_plan_id":"free"},{"bike_id":"1eccf490-1135-4151-89af-b081e6bfadf6","system_id":"levelo_inurba_marseille","lat":43.301117,"lon":5.398795,"is_reserved":false,"is_disabled":false,"rental_uris":{"android":"levelo://app?vid=1eccf490-1135-4151-89af-b081e6bfadf6","ios":"levelo://app?vid=1eccf490-1135-4151-89af-b081e6bfadf6"},"vehicle_type_id":"4","last_reported":1698167170,"current_range_meters":24800,"station_id":"ce4bh0h2rcd13ifvqd40","pricing_plan_id":"free"},{"bike_id":"b5a4a603-45be-480e-9872-1a51726b503a","system_id":"levelo_inurba_marseille","lat":43.301117,"lon":5.398795,"is_reserved":false,"is_disabled":false,"rental_uris":{"android":"levelo://app?vid=b5a4a603-45be-480e-9872-1a51726b503a","ios":"levelo://app?vid=b5a4a603-45be-480e-9872-1a51726b503a"},"vehicle_type_id":"4","last_reported":1698167170,"current_range_meters":1600,"station_id":"ce4bh0h2rcd13ifvqd40","pricing_plan_id":"free"},{"bike_id":"a78cb2ff-7531-4605-b2c5-5c193f95b8be","system_id":"levelo_inurba_marseille","lat":43.28727,"lon":5.36078,"is_reserved":false,"is_disabled":false,"rental_uris":{"android":"levelo://app?vid=a78cb2ff-7531-4605-b2c5-5c193f95b8be","ios":"levelo://app?vid=a78cb2ff-7531-4605-b2c5-5c193f95b8be"},"vehicle_type_id":"4","last_reported":1698167170,"current_range_meters":0,"station_id":"cki0cbj6b192h4jlfktg","pricing_plan_id":"free"},{"bike_id":"2a1acacb-81de-4992-aa8a-887db53693db","system_id":"levelo_inurba_marseille","lat":43.28727,"lon":5.36078,"is_reserved":false,"is_disabled":false,"rental_uris":{"android":"levelo://app?vid=2a1acacb-81de-4992-aa8a-887db53693db","ios":"levelo://app?vid=2a1acacb-81de-4992-aa8a-887db53693db"},"vehicle_type_id":"4","last_reported":1698167170,"current_range_meters":9200,"station_id":"cki0cbj6b192h4jlfktg","pricing_plan_id":"free"},{"bike_id":"080ed71d-7e7d-407e-bf10-f25be4c7e3b7","system_id":"levelo_inurba_marseille","lat":43.28727,"lon":5.36078,"is_reserved":false,"is_disabled":false,"rental_uris":{"android":"levelo://app?vid=080ed71d-7e7d-407e-bf10-f25be4c7e3b7","ios":"levelo://app?vid=080ed71d-7e7d-407e-bf10-f25be4c7e3b7"},"vehicle_type_id":"4","last_reported":1698167170,"current_range_meters":24400,"station_id":"cki0cbj6b192h4jlfktg","pricing_plan_id":"free"},{"bike_id":"602cb6ee-9a2f-4915-ac56-ddb421263505","system_id":"levelo_inurba_marseille","lat":43.293442,"lon":5.391166,"is_reserved":false,"is_disabled":false,"rental_uris":{"android":"levelo://app?vid=602cb6ee-9a2f-4915-ac56-ddb421263505","ios":"levelo://app?vid=602cb6ee-9a2f-4915-ac56-ddb421263505"},"vehicle_type_id":"4","last_reported":1698167170,"current_range_meters":19600,"station_id":"ce4bh4p2rcd13ifvqe0g","pricing_plan_id":"free"},{"bike_id":"71e9f6b6-a032-437a-903f-0404bbe08018","system_id":"levelo_inurba_marseille","lat":43.298681,"lon":5.397225,"is_reserved":false,"is_disabled":false,"rental_uris":{"android":"levelo://app?vid=71e9f6b6-a032-437a-903f-0404bbe08018","ios":"levelo://app?vid=71e9f6b6-a032-437a-903f-0404bbe08018"},"vehicle_type_id":"4","last_reported":1698167170,"current_range_meters":11600,"station_id":"ce4bh0h2rcd13ifvqd50","pricing_plan_id":"free"},{"bike_id":"61887aa9-133a-4fe8-9547-a56a415b0813","system_id":"levelo_inurba_marseille","lat":43.286593,"lon":5.363346,"is_reserved":false,"is_disabled":false,"rental_uris":{"android":"levelo://app?vid=61887aa9-133a-4fe8-9547-a56a415b0813","ios":"levelo://app?vid=61887aa9-133a-4fe8-9547-a56a415b0813"},"vehicle_type_id":"4","last_reported":1698167170,"current_range_meters":0,"station_id":"ce4bhah2rcd13ifvqej0","pricing_plan_id":"free"},{"bike_id":"385c8e50-0121-4882-b7c1-36e21edc9509","system_id":"levelo_inurba_marseille","lat":43.314245,"lon":5.402918,"is_reserved":false,"is_disabled":false,"rental_uris":{"android":"levelo://app?vid=385c8e50-0121-4882-b7c1-36e21edc9509","ios":"levelo://app?vid=385c8e50-0121-4882-b7c1-36e21edc9509"},"vehicle_type_id":"4","last_reported":1698167170,"current_range_meters":18400,"station_id":"","pricing_plan_id":"free"},{"bike_id":"68df8a06-940f-4a83-9261-1d8d04567bf6","system_id":"levelo_inurba_marseille","lat":43.286961,"lon":5.373785,"is_reserved":false,"is_disabled":false,"rental_uris":{"android":"levelo://app?vid=68df8a06-940f-4a83-9261-1d8d04567bf6","ios":"levelo://app?vid=68df8a06-940f-4a83-9261-1d8d04567bf6"},"vehicle_type_id":"4","last_reported":1698167170,"current_range_meters":17200,"station_id":"ce4bh3p2rcd13ifvqdq0","pricing_plan_id":"free"},{"bike_id":"e4a8c944-748e-4cd9-85ac-59f2e79ad128","system_id":"levelo_inurba_marseille","lat":43.286591,"lon":5.363346,"is_reserved":false,"is_disabled":false,"rental_uris":{"android":"levelo://app?vid=e4a8c944-748e-4cd9-85ac-59f2e79ad128","ios":"levelo://app?vid=e4a8c944-748e-4cd9-85ac-59f2e79ad128"},"vehicle_type_id":"4","last_reported":1698167170,"current_range_meters":0,"station_id":"ce4bhah2rcd13ifvqej0","pricing_plan_id":"free"},{"bike_id":"155a3b8c-116c-442f-8fa4-62e42ecbf950","system_id":"levelo_inurba_marseille","lat":43.295196,"lon":5.39397,"is_reserved":false,"is_disabled":false,"rental_uris":{"android":"levelo://app?vid=155a3b8c-116c-442f-8fa4-62e42ecbf950","ios":"levelo://app?vid=155a3b8c-116c-442f-8fa4-62e42ecbf950"},"vehicle_type_id":"4","last_reported":1698167170,"current_range_meters":26000,"station_id":"ce4bh292rcd13ifvqdf0","pricing_plan_id":"free"},{"bike_id":"3fbbab17-8125-4305-b993-38ac51e7355a","system_id":"levelo_inurba_marseille","lat":43.298681,"lon":5.397225,"is_reserved":false,"is_disabled":false,"rental_uris":{"android":"levelo://app?vid=3fbbab17-8125-4305-b993-38ac51e7355a","ios":"levelo://app?vid=3fbbab17-8125-4305-b993-38ac51e7355a"},"vehicle_type_id":"4","last_reported":1698167170,"current_range_meters":12400,"station_id":"ce4bh0h2rcd13ifvqd50","pricing_plan_id":"free"},{"bike_id":"c0417b2b-33a7-4f7a-90c4-5836e758d7e2","system_id":"levelo_inurba_marseille","lat":43.286961,"lon":5.373785,"is_reserved":false,"is_disabled":false,"rental_uris":{"android":"levelo://app?vid=c0417b2b-33a7-4f7a-90c4-5836e758d7e2","ios":"levelo://app?vid=c0417b2b-33a7-4f7a-90c4-5836e758d7e2"},"vehicle_type_id":"4","last_reported":1698167170,"current_range_meters":31200,"station_id":"ce4bh3p2rcd13ifvqdq0","pricing_plan_id":"free"},{"bike_id":"14b278a0-d2de-4bcc-a682-9b6b7ee39126","system_id":"levelo_inurba_marseille","lat":43.286961,"lon":5.373785,"is_reserved":false,"is_disabled":false,"rental_uris":{"android":"levelo://app?vid=14b278a0-d2de-4bcc-a682-9b6b7ee39126","ios":"levelo://app?vid=14b278a0-d2de-4bcc-a682-9b6b7ee39126"},"vehicle_type_id":"4","last_reported":1698167170,"current_range_meters":11200,"station_id":"ce4bh3p2rcd13ifvqdq0","pricing_plan_id":"free"},{"bike_id":"a1d444e6-58d1-4546-b08a-11e81b8f7c12","system_id":"levelo_inurba_marseille","lat":43.295194,"lon":5.39397,"is_reserved":false,"is_disabled":false,"rental_uris":{"android":"levelo://app?vid=a1d444e6-58d1-4546-b08a-11e81b8f7c12","ios":"levelo://app?vid=a1d444e6-58d1-4546-b08a-11e81b8f7c12"},"vehicle_type_id":"4","last_reported":1698167170,"current_range_meters":400,"station_id":"ce4bh292rcd13ifvqdf0","pricing_plan_id":"free"},{"bike_id":"05be3d92-710b-4922-af10-9ca6fd1718c4","system_id":"levelo_inurba_marseille","lat":43.302759,"lon":5.400793,"is_reserved":false,"is_disabled":false,"rental_uris":{"android":"levelo://app?vid=05be3d92-710b-4922-af10-9ca6fd1718c4","ios":"levelo://app?vid=05be3d92-710b-4922-af10-9ca6fd1718c4"},"vehicle_type_id":"4","last_reported":1698167170,"current_range_meters":20800,"station_id":"ce4bgvh2rcd13ifvqcs0","pricing_plan_id":"free"},{"bike_id":"09cf2908-f773-4351-bbd7-9ebffa54c7ee","system_id":"levelo_inurba_marseille","lat":43.302759,"lon":5.400793,"is_reserved":false,"is_disabled":false,"rental_uris":{"android":"levelo://app?vid=09cf2908-f773-4351-bbd7-9ebffa54c7ee","ios":"levelo://app?vid=09cf2908-f773-4351-bbd7-9ebffa54c7ee"},"vehicle_type_id":"4","last_reported":1698167170,"current_range_meters":22800,"station_id":"ce4bgvh2rcd13ifvqcs0","pricing_plan_id":"free"},{"bike_id":"44c240ad-7c58-4dc2-9094-fb328146181c","system_id":"levelo_inurba_marseille","lat":43.30242,"lon":5.40062,"is_reserved":false,"is_disabled":false,"rental_uris":{"android":"levelo://app?vid=44c240ad-7c58-4dc2-9094-fb328146181c","ios":"levelo://app?vid=44c240ad-7c58-4dc2-9094-fb328146181c"},"vehicle_type_id":"4","last_reported":1698167170,"current_range_meters":13600,"station_id":"ce4bgvh2rcd13ifvqcs0","pricing_plan_id":"free"},{"bike_id":"5b8df2ae-2a9f-4f41-a76d-25e3078e03fe","system_id":"levelo_inurba_marseille","lat":43.29021,"lon":5.38642,"is_reserved":false,"is_disabled":false,"rental_uris":{"android":"levelo://app?vid=5b8df2ae-2a9f-4f41-a76d-25e3078e03fe","ios":"levelo://app?vid=5b8df2ae-2a9f-4f41-a76d-25e3078e03fe"},"vehicle_type_id":"4","last_reported":1698167170,"current_range_meters":31200,"station_id":"ce4bh4p2rcd13ifvqe0g","pricing_plan_id":"free"},{"bike_id":"06457552-07a1-41f2-b92b-f626116039c9","system_id":"levelo_inurba_marseille","lat":43.286039,"lon":5.370681,"is_reserved":false,"is_disabled":false,"rental_uris":{"android":"levelo://app?vid=06457552-07a1-41f2-b92b-f626116039c9","ios":"levelo://app?vid=06457552-07a1-41f2-b92b-f626116039c9"},"vehicle_type_id":"4","last_reported":1698167170,"current_range_meters":6400,"station_id":"ce4bht12rcd13ifvqi60","pricing_plan_id":"free"},{"bike_id":"fdbe140b-1d88-47f1-8a6a-e3be4dfcdf01","system_id":"levelo_inurba_marseille","lat":43.286039,"lon":5.370679,"is_reserved":false,"is_disabled":false,"rental_uris":{"android":"levelo://app?vid=fdbe140b-1d88-47f1-8a6a-e3be4dfcdf01","ios":"levelo://app?vid=fdbe140b-1d88-47f1-8a6a-e3be4dfcdf01"},"vehicle_type_id":"4","last_reported":1698167170,"current_range_meters":19600,"station_id":"ce4bht12rcd13ifvqi60","pricing_plan_id":"free"},{"bike_id":"b8cccc24-34be-4ec1-a334-5e706b2f2ddf","system_id":"levelo_inurba_marseille","lat":43.287185,"lon":5.379373,"is_reserved":false,"is_disabled":false,"rental_uris":{"android":"levelo://app?vid=b8cccc24-34be-4ec1-a334-5e706b2f2ddf","ios":"levelo://app?vid=b8cccc24-34be-4ec1-a334-5e706b2f2ddf"},"vehicle_type_id":"4","last_reported":1698167170,"current_range_meters":14400,"station_id":"ce4bh9p2rcd13ifvqec0","pricing_plan_id":"free"},{"bike_id":"fb5ff789-48cf-413f-82bb-c56b1fa0c201","system_id":"levelo_inurba_marseille","lat":43.287184,"lon":5.37937,"is_reserved":false,"is_disabled":false,"rental_uris":{"android":"levelo://app?vid=fb5ff789-48cf-413f-82bb-c56b1fa0c201","ios":"levelo://app?vid=fb5ff789-48cf-413f-82bb-c56b1fa0c201"},"vehicle_type_id":"4","last_reported":1698167170,"current_range_meters":20800,"station_id":"ce4bh9p2rcd13ifvqec0","pricing_plan_id":"free"},{"bike_id":"f45b5ca2-d24a-4650-b15e-5b5d39010a16","system_id":"levelo_inurba_marseille","lat":43.287184,"lon":5.37937,"is_reserved":false,"is_disabled":false,"rental_uris":{"android":"levelo://app?vid=f45b5ca2-d24a-4650-b15e-5b5d39010a16","ios":"levelo://app?vid=f45b5ca2-d24a-4650-b15e-5b5d39010a16"},"vehicle_type_id":"4","last_reported":1698167170,"current_range_meters":1200,"station_id":"ce4bh9p2rcd13ifvqec0","pricing_plan_id":"free"},{"bike_id":"cbfe3557-848b-4301-a360-ed76925fbf94","system_id":"levelo_inurba_marseille","lat":43.287185,"lon":5.379373,"is_reserved":false,"is_disabled":false,"rental_uris":{"android":"levelo://app?vid=cbfe3557-848b-4301-a360-ed76925fbf94","ios":"levelo://app?vid=cbfe3557-848b-4301-a360-ed76925fbf94"},"vehicle_type_id":"4","last_reported":1698167170,"current_range_meters":23600,"station_id":"ce4bh9p2rcd13ifvqec0","pricing_plan_id":"free"},{"bike_id":"e0158d20-d596-4f0a-a337-3d7e3d0abf47","system_id":"levelo_inurba_marseille","lat":43.287185,"lon":5.379373,"is_reserved":false,"is_disabled":false,"rental_uris":{"android":"levelo://app?vid=e0158d20-d596-4f0a-a337-3d7e3d0abf47","ios":"levelo://app?vid=e0158d20-d596-4f0a-a337-3d7e3d0abf47"},"vehicle_type_id":"4","last_reported":1698167170,"current_range_meters":19600,"station_id":"ce4bh9p2rcd13ifvqec0","pricing_plan_id":"free"},{"bike_id":"bc368e20-93c0-495a-bb4f-cd8ed7ee7f0d","system_id":"levelo_inurba_marseille","lat":43.335307,"lon":5.388143,"is_reserved":false,"is_disabled":false,"rental_uris":{"android":"levelo://app?vid=bc368e20-93c0-495a-bb4f-cd8ed7ee7f0d","ios":"levelo://app?vid=bc368e20-93c0-495a-bb4f-cd8ed7ee7f0d"},"vehicle_type_id":"4","last_reported":1698167170,"current_range_meters":6400,"station_id":"","pricing_plan_id":"free"},{"bike_id":"4554ace8-dfb7-44cb-9be2-f5d69f750c8c","system_id":"levelo_inurba_marseille","lat":43.28542,"lon":5.36994,"is_reserved":false,"is_disabled":false,"rental_uris":{"android":"levelo://app?vid=4554ace8-dfb7-44cb-9be2-f5d69f750c8c","ios":"levelo://app?vid=4554ace8-dfb7-44cb-9be2-f5d69f750c8c"},"vehicle_type_id":"4","last_reported":1698167170,"current_range_meters":3600,"station_id":"","pricing_plan_id":"free"},{"bike_id":"02b48ff2-607f-4db2-9b5c-a42c3acaba1d","system_id":"levelo_inurba_marseille","lat":43.291994,"lon":5.392907,"is_reserved":false,"is_disabled":false,"rental_uris":{"android":"levelo://app?vid=02b48ff2-607f-4db2-9b5c-a42c3acaba1d","ios":"levelo://app?vid=02b48ff2-607f-4db2-9b5c-a42c3acaba1d"},"vehicle_type_id":"4","last_reported":1698167170,"current_range_meters":7600,"station_id":"ce4bh192rcd13ifvqdd0","pricing_plan_id":"free"},{"bike_id":"3ac9a39c-4c26-4847-997d-3e68d487e742","system_id":"levelo_inurba_marseille","lat":43.284534,"lon":5.358662,"is_reserved":false,"is_disabled":false,"rental_uris":{"android":"levelo://app?vid=3ac9a39c-4c26-4847-997d-3e68d487e742","ios":"levelo://app?vid=3ac9a39c-4c26-4847-997d-3e68d487e742"},"vehicle_type_id":"4","last_reported":1698167170,"current_range_meters":15200,"station_id":"ce4bhah2rcd13ifvqei0","pricing_plan_id":"free"},{"bike_id":"e603b1d1-bc77-445e-8ca0-7cf5f0beda84","system_id":"levelo_inurba_marseille","lat":43.302759,"lon":5.400793,"is_reserved":false,"is_disabled":false,"rental_uris":{"android":"levelo://app?vid=e603b1d1-bc77-445e-8ca0-7cf5f0beda84","ios":"levelo://app?vid=e603b1d1-bc77-445e-8ca0-7cf5f0beda84"},"vehicle_type_id":"4","last_reported":1698167170,"current_range_meters":8800,"station_id":"ce4bgvh2rcd13ifvqcs0","pricing_plan_id":"free"},{"bike_id":"a2203691-8e0c-4e21-9504-935cac27aa5b","system_id":"levelo_inurba_marseille","lat":43.283998,"lon":5.375062,"is_reserved":false,"is_disabled":false,"rental_uris":{"android":"levelo://app?vid=a2203691-8e0c-4e21-9504-935cac27aa5b","ios":"levelo://app?vid=a2203691-8e0c-4e21-9504-935cac27aa5b"},"vehicle_type_id":"4","last_reported":1698167170,"current_range_meters":2800,"station_id":"ce4bh412rcd13ifvqds0","pricing_plan_id":"free"},{"bike_id":"8e65db2a-c044-49ac-9799-01361e10ccbb","system_id":"levelo_inurba_marseille","lat":43.283998,"lon":5.375062,"is_reserved":false,"is_disabled":false,"rental_uris":{"android":"levelo://app?vid=8e65db2a-c044-49ac-9799-01361e10ccbb","ios":"levelo://app?vid=8e65db2a-c044-49ac-9799-01361e10ccbb"},"vehicle_type_id":"4","last_reported":1698167170,"current_range_meters":20000,"station_id":"ce4bh412rcd13ifvqds0","pricing_plan_id":"free"},{"bike_id":"b2547be3-6fc5-45fc-aa87-547e1e33e0b5","system_id":"levelo_inurba_marseille","lat":43.283998,"lon":5.375062,"is_reserved":false,"is_disabled":false,"rental_uris":{"android":"levelo://app?vid=b2547be3-6fc5-45fc-aa87-547e1e33e0b5","ios":"levelo://app?vid=b2547be3-6fc5-45fc-aa87-547e1e33e0b5"},"vehicle_type_id":"4","last_reported":1698167170,"current_range_meters":17200,"station_id":"ce4bh412rcd13ifvqds0","pricing_plan_id":"free"},{"bike_id":"0e0ddb03-a34a-43f6-81d0-92ca0787098c","system_id":"levelo_inurba_marseille","lat":43.284097,"lon":5.375178,"is_reserved":false,"is_disabled":false,"rental_uris":{"android":"levelo://app?vid=0e0ddb03-a34a-43f6-81d0-92ca0787098c","ios":"levelo://app?vid=0e0ddb03-a34a-43f6-81d0-92ca0787098c"},"vehicle_type_id":"4","last_reported":1698167170,"current_range_meters":14400,"station_id":"","pricing_plan_id":"free"},{"bike_id":"05e4dc37-ad69-48d0-9ee7-9312ccee5dcb","system_id":"levelo_inurba_marseille","lat":43.283998,"lon":5.375062,"is_reserved":false,"is_disabled":false,"rental_uris":{"android":"levelo://app?vid=05e4dc37-ad69-48d0-9ee7-9312ccee5dcb","ios":"levelo://app?vid=05e4dc37-ad69-48d0-9ee7-9312ccee5dcb"},"vehicle_type_id":"4","last_reported":1698167170,"current_range_meters":0,"station_id":"ce4bh412rcd13ifvqds0","pricing_plan_id":"free"},{"bike_id":"74919882-2f41-4bf8-b74f-8f17e3dd581c","system_id":"levelo_inurba_marseille","lat":43.28407,"lon":5.37518,"is_reserved":false,"is_disabled":false,"rental_uris":{"android":"levelo://app?vid=74919882-2f41-4bf8-b74f-8f17e3dd581c","ios":"levelo://app?vid=74919882-2f41-4bf8-b74f-8f17e3dd581c"},"vehicle_type_id":"4","last_reported":1698167170,"current_range_meters":0,"station_id":"ce4bh412rcd13ifvqds0","pricing_plan_id":"free"},{"bike_id":"4b5752b4-73a7-4626-ab81-b3982b122f8f","system_id":"levelo_inurba_marseille","lat":43.28403,"lon":5.37511,"is_reserved":false,"is_disabled":false,"rental_uris":{"android":"levelo://app?vid=4b5752b4-73a7-4626-ab81-b3982b122f8f","ios":"levelo://app?vid=4b5752b4-73a7-4626-ab81-b3982b122f8f"},"vehicle_type_id":"4","last_reported":1698167170,"current_range_meters":11600,"station_id":"ce4bh412rcd13ifvqds0","pricing_plan_id":"free"},{"bike_id":"31bebf29-5825-42b0-9397-d373fa78a25a","system_id":"levelo_inurba_marseille","lat":43.283998,"lon":5.375062,"is_reserved":false,"is_disabled":false,"rental_uris":{"android":"levelo://app?vid=31bebf29-5825-42b0-9397-d373fa78a25a","ios":"levelo://app?vid=31bebf29-5825-42b0-9397-d373fa78a25a"},"vehicle_type_id":"4","last_reported":1698167170,"current_range_meters":20800,"station_id":"ce4bh412rcd13ifvqds0","pricing_plan_id":"free"},{"bike_id":"f0c9ce12-8774-4fb5-991d-675ae79d770d","system_id":"levelo_inurba_marseille","lat":43.283998,"lon":5.375062,"is_reserved":false,"is_disabled":false,"rental_uris":{"android":"levelo://app?vid=f0c9ce12-8774-4fb5-991d-675ae79d770d","ios":"levelo://app?vid=f0c9ce12-8774-4fb5-991d-675ae79d770d"},"vehicle_type_id":"4","last_reported":1698167170,"current_range_meters":28400,"station_id":"ce4bh412rcd13ifvqds0","pricing_plan_id":"free"},{"bike_id":"cf16e3d1-d4c8-4147-a7b2-534afc192808","system_id":"levelo_inurba_marseille","lat":43.284,"lon":5.37513,"is_reserved":false,"is_disabled":false,"rental_uris":{"android":"levelo://app?vid=cf16e3d1-d4c8-4147-a7b2-534afc192808","ios":"levelo://app?vid=cf16e3d1-d4c8-4147-a7b2-534afc192808"},"vehicle_type_id":"4","last_reported":1698167170,"current_range_meters":16800,"station_id":"ce4bh412rcd13ifvqds0","pricing_plan_id":"free"},{"bike_id":"abc078de-6cf3-4ac4-acbf-51f6604bc74c","system_id":"levelo_inurba_marseille","lat":43.28399,"lon":5.37519,"is_reserved":false,"is_disabled":false,"rental_uris":{"android":"levelo://app?vid=abc078de-6cf3-4ac4-acbf-51f6604bc74c","ios":"levelo://app?vid=abc078de-6cf3-4ac4-acbf-51f6604bc74c"},"vehicle_type_id":"4","last_reported":1698167170,"current_range_meters":27200,"station_id":"ce4bh412rcd13ifvqds0","pricing_plan_id":"free"},{"bike_id":"c6e42da0-7b42-4a47-933e-7cdb54185f1a","system_id":"levelo_inurba_marseille","lat":43.286595,"lon":5.386795,"is_reserved":false,"is_disabled":false,"rental_uris":{"android":"levelo://app?vid=c6e42da0-7b42-4a47-933e-7cdb54185f1a","ios":"levelo://app?vid=c6e42da0-7b42-4a47-933e-7cdb54185f1a"},"vehicle_type_id":"4","last_reported":1698167170,"current_range_meters":1200,"station_id":"ce4bh492rcd13ifvqdug","pricing_plan_id":"free"},{"bike_id":"3dec9faf-c157-4bf7-bf10-efb51a05e2bd","system_id":"levelo_inurba_marseille","lat":43.286595,"lon":5.386795,"is_reserved":false,"is_disabled":false,"rental_uris":{"android":"levelo://app?vid=3dec9faf-c157-4bf7-bf10-efb51a05e2bd","ios":"levelo://app?vid=3dec9faf-c157-4bf7-bf10-efb51a05e2bd"},"vehicle_type_id":"4","last_reported":1698167170,"current_range_meters":8400,"station_id":"ce4bh492rcd13ifvqdug","pricing_plan_id":"free"},{"bike_id":"a04dca67-8317-445e-90d6-5788929468fd","system_id":"levelo_inurba_marseille","lat":43.33674,"lon":5.39198,"is_reserved":false,"is_disabled":false,"rental_uris":{"android":"levelo://app?vid=a04dca67-8317-445e-90d6-5788929468fd","ios":"levelo://app?vid=a04dca67-8317-445e-90d6-5788929468fd"},"vehicle_type_id":"4","last_reported":1698167170,"current_range_meters":20400,"station_id":"","pricing_plan_id":"free"},{"bike_id":"a3c5f9df-c02b-4502-9ade-aa8f450f5243","system_id":"levelo_inurba_marseille","lat":43.33717,"lon":5.391857,"is_reserved":false,"is_disabled":false,"rental_uris":{"android":"levelo://app?vid=a3c5f9df-c02b-4502-9ade-aa8f450f5243","ios":"levelo://app?vid=a3c5f9df-c02b-4502-9ade-aa8f450f5243"},"vehicle_type_id":"4","last_reported":1698167170,"current_range_meters":10800,"station_id":"ce4bhr92rcd13ifvqhsg","pricing_plan_id":"free"},{"bike_id":"4f8337c9-5241-4aa7-bbcb-f28713e2570c","system_id":"levelo_inurba_marseille","lat":43.323464,"lon":5.406297,"is_reserved":false,"is_disabled":false,"rental_uris":{"android":"levelo://app?vid=4f8337c9-5241-4aa7-bbcb-f28713e2570c","ios":"levelo://app?vid=4f8337c9-5241-4aa7-bbcb-f28713e2570c"},"vehicle_type_id":"4","last_reported":1698167170,"current_range_meters":15200,"station_id":"ce4bhq92rcd13ifvqhjg","pricing_plan_id":"free"},{"bike_id":"575eebf7-7fcd-4cbd-bb85-5d606b2859f7","system_id":"levelo_inurba_marseille","lat":43.288501,"lon":5.393087,"is_reserved":false,"is_disabled":false,"rental_uris":{"android":"levelo://app?vid=575eebf7-7fcd-4cbd-bb85-5d606b2859f7","ios":"levelo://app?vid=575eebf7-7fcd-4cbd-bb85-5d606b2859f7"},"vehicle_type_id":"4","last_reported":1698167170,"current_range_meters":17200,"station_id":"ce4bh2p2rcd13ifvqdi0","pricing_plan_id":"free"},{"bike_id":"d6e0f25c-aaad-4436-9a20-7d785d7e759e","system_id":"levelo_inurba_marseille","lat":43.32521,"lon":5.40572,"is_reserved":false,"is_disabled":false,"rental_uris":{"android":"levelo://app?vid=d6e0f25c-aaad-4436-9a20-7d785d7e759e","ios":"levelo://app?vid=d6e0f25c-aaad-4436-9a20-7d785d7e759e"},"vehicle_type_id":"4","last_reported":1698167170,"current_range_meters":8000,"station_id":"","pricing_plan_id":"free"},{"bike_id":"4df23587-6831-45fa-b68e-45311df6c21d","system_id":"levelo_inurba_marseille","lat":43.29277,"lon":5.40121,"is_reserved":false,"is_disabled":false,"rental_uris":{"android":"levelo://app?vid=4df23587-6831-45fa-b68e-45311df6c21d","ios":"levelo://app?vid=4df23587-6831-45fa-b68e-45311df6c21d"},"vehicle_type_id":"4","last_reported":1698167170,"current_range_meters":0,"station_id":"ce4bh312rcd13ifvqdk0","pricing_plan_id":"free"},{"bike_id":"642a05f0-3190-4e72-b8e7-cab1cae77530","system_id":"levelo_inurba_marseille","lat":43.292724,"lon":5.401131,"is_reserved":false,"is_disabled":false,"rental_uris":{"android":"levelo://app?vid=642a05f0-3190-4e72-b8e7-cab1cae77530","ios":"levelo://app?vid=642a05f0-3190-4e72-b8e7-cab1cae77530"},"vehicle_type_id":"4","last_reported":1698167170,"current_range_meters":24000,"station_id":"ce4bh312rcd13ifvqdk0","pricing_plan_id":"free"},{"bike_id":"25b2f0fa-79f5-4803-bc99-994444e8a712","system_id":"levelo_inurba_marseille","lat":43.283502,"lon":5.386471,"is_reserved":false,"is_disabled":false,"rental_uris":{"android":"levelo://app?vid=25b2f0fa-79f5-4803-bc99-994444e8a712","ios":"levelo://app?vid=25b2f0fa-79f5-4803-bc99-994444e8a712"},"vehicle_type_id":"4","last_reported":1698167170,"current_range_meters":18400,"station_id":"ce4bh492rcd13ifvqdvg","pricing_plan_id":"free"},{"bike_id":"0d84ea2c-5be1-4454-982b-0a32bc254ecf","system_id":"levelo_inurba_marseille","lat":43.282754,"lon":5.350519,"is_reserved":false,"is_disabled":false,"rental_uris":{"android":"levelo://app?vid=0d84ea2c-5be1-4454-982b-0a32bc254ecf","ios":"levelo://app?vid=0d84ea2c-5be1-4454-982b-0a32bc254ecf"},"vehicle_type_id":"4","last_reported":1698167170,"current_range_meters":29600,"station_id":"ce4bhbp2rcd13ifvqerg","pricing_plan_id":"free"},{"bike_id":"20683306-8207-44cb-9fd5-0da17f67ce5a","system_id":"levelo_inurba_marseille","lat":43.282744,"lon":5.350533,"is_reserved":false,"is_disabled":false,"rental_uris":{"android":"levelo://app?vid=20683306-8207-44cb-9fd5-0da17f67ce5a","ios":"levelo://app?vid=20683306-8207-44cb-9fd5-0da17f67ce5a"},"vehicle_type_id":"4","last_reported":1698167170,"current_range_meters":17200,"station_id":"ce4bhbp2rcd13ifvqerg","pricing_plan_id":"free"},{"bike_id":"178e7d80-2710-4b1d-843f-a321cb9ca24d","system_id":"levelo_inurba_marseille","lat":43.28039,"lon":5.369297,"is_reserved":false,"is_disabled":false,"rental_uris":{"android":"levelo://app?vid=178e7d80-2710-4b1d-843f-a321cb9ca24d","ios":"levelo://app?vid=178e7d80-2710-4b1d-843f-a321cb9ca24d"},"vehicle_type_id":"4","last_reported":1698167170,"current_range_meters":9600,"station_id":"ce4bha12rcd13ifvqef0","pricing_plan_id":"free"},{"bike_id":"73c0bc75-0c9b-4320-a1e1-46dc48455d4a","system_id":"levelo_inurba_marseille","lat":43.28039,"lon":5.369297,"is_reserved":false,"is_disabled":false,"rental_uris":{"android":"levelo://app?vid=73c0bc75-0c9b-4320-a1e1-46dc48455d4a","ios":"levelo://app?vid=73c0bc75-0c9b-4320-a1e1-46dc48455d4a"},"vehicle_type_id":"4","last_reported":1698167170,"current_range_meters":31200,"station_id":"ce4bha12rcd13ifvqef0","pricing_plan_id":"free"},{"bike_id":"1ca242fe-6084-4f9b-8b54-35d465872844","system_id":"levelo_inurba_marseille","lat":43.290412,"lon":5.399633,"is_reserved":false,"is_disabled":false,"rental_uris":{"android":"levelo://app?vid=1ca242fe-6084-4f9b-8b54-35d465872844","ios":"levelo://app?vid=1ca242fe-6084-4f9b-8b54-35d465872844"},"vehicle_type_id":"4","last_reported":1698167170,"current_range_meters":22800,"station_id":"ce4bh392rcd13ifvqdm0","pricing_plan_id":"free"},{"bike_id":"a0661e0a-0207-43bb-8ce4-7c0327795625","system_id":"levelo_inurba_marseille","lat":43.303693,"lon":5.409997,"is_reserved":false,"is_disabled":false,"rental_uris":{"android":"levelo://app?vid=a0661e0a-0207-43bb-8ce4-7c0327795625","ios":"levelo://app?vid=a0661e0a-0207-43bb-8ce4-7c0327795625"},"vehicle_type_id":"4","last_reported":1698167170,"current_range_meters":5200,"station_id":"ce4bhop2rcd13ifvqh8g","pricing_plan_id":"free"},{"bike_id":"8cfc01b3-9ad0-4077-96c0-a0f7e9c094cd","system_id":"levelo_inurba_marseille","lat":43.296263,"lon":5.40601,"is_reserved":false,"is_disabled":false,"rental_uris":{"android":"levelo://app?vid=8cfc01b3-9ad0-4077-96c0-a0f7e9c094cd","ios":"levelo://app?vid=8cfc01b3-9ad0-4077-96c0-a0f7e9c094cd"},"vehicle_type_id":"4","last_reported":1698167170,"current_range_meters":4800,"station_id":"ce4bh0h2rcd13ifvqd60","pricing_plan_id":"free"},{"bike_id":"6d170a56-cc91-47bd-89be-832ba18e336d","system_id":"levelo_inurba_marseille","lat":43.281044,"lon":5.378308,"is_reserved":false,"is_disabled":false,"rental_uris":{"android":"levelo://app?vid=6d170a56-cc91-47bd-89be-832ba18e336d","ios":"levelo://app?vid=6d170a56-cc91-47bd-89be-832ba18e336d"},"vehicle_type_id":"4","last_reported":1698167170,"current_range_meters":22000,"station_id":"ce4bha12rcd13ifvqee0","pricing_plan_id":"free"},{"bike_id":"ea1d78b8-c244-4833-acbc-e0fe81f11f64","system_id":"levelo_inurba_marseille","lat":43.281044,"lon":5.378308,"is_reserved":false,"is_disabled":false,"rental_uris":{"android":"levelo://app?vid=ea1d78b8-c244-4833-acbc-e0fe81f11f64","ios":"levelo://app?vid=ea1d78b8-c244-4833-acbc-e0fe81f11f64"},"vehicle_type_id":"4","last_reported":1698167170,"current_range_meters":1200,"station_id":"ce4bha12rcd13ifvqee0","pricing_plan_id":"free"},{"bike_id":"a57d0fdb-b213-4e44-87aa-9e931832f41a","system_id":"levelo_inurba_marseille","lat":43.336569,"lon":5.398701,"is_reserved":false,"is_disabled":false,"rental_uris":{"android":"levelo://app?vid=a57d0fdb-b213-4e44-87aa-9e931832f41a","ios":"levelo://app?vid=a57d0fdb-b213-4e44-87aa-9e931832f41a"},"vehicle_type_id":"4","last_reported":1698167170,"current_range_meters":2400,"station_id":"","pricing_plan_id":"free"},{"bike_id":"aaf27447-a04e-454e-b59e-9d874bd2e5e6","system_id":"levelo_inurba_marseille","lat":43.284462,"lon":5.392121,"is_reserved":false,"is_disabled":false,"rental_uris":{"android":"levelo://app?vid=aaf27447-a04e-454e-b59e-9d874bd2e5e6","ios":"levelo://app?vid=aaf27447-a04e-454e-b59e-9d874bd2e5e6"},"vehicle_type_id":"4","last_reported":1698167170,"current_range_meters":0,"station_id":"ce4bhoh2rcd13ifvqh5g","pricing_plan_id":"free"},{"bike_id":"977549ad-4482-4082-8272-2e6040fa9c06","system_id":"levelo_inurba_marseille","lat":43.284462,"lon":5.392121,"is_reserved":false,"is_disabled":false,"rental_uris":{"android":"levelo://app?vid=977549ad-4482-4082-8272-2e6040fa9c06","ios":"levelo://app?vid=977549ad-4482-4082-8272-2e6040fa9c06"},"vehicle_type_id":"4","last_reported":1698167170,"current_range_meters":22000,"station_id":"ce4bhoh2rcd13ifvqh5g","pricing_plan_id":"free"},{"bike_id":"2e9d686a-ad8b-4350-8ca8-44191a322ecc","system_id":"levelo_inurba_marseille","lat":43.326085,"lon":5.409688,"is_reserved":false,"is_disabled":false,"rental_uris":{"android":"levelo://app?vid=2e9d686a-ad8b-4350-8ca8-44191a322ecc","ios":"levelo://app?vid=2e9d686a-ad8b-4350-8ca8-44191a322ecc"},"vehicle_type_id":"4","last_reported":1698167170,"current_range_meters":0,"station_id":"","pricing_plan_id":"free"},{"bike_id":"9fa50966-2527-40d0-95ad-1b915660ae65","system_id":"levelo_inurba_marseille","lat":43.279087,"lon":5.380114,"is_reserved":false,"is_disabled":false,"rental_uris":{"android":"levelo://app?vid=9fa50966-2527-40d0-95ad-1b915660ae65","ios":"levelo://app?vid=9fa50966-2527-40d0-95ad-1b915660ae65"},"vehicle_type_id":"4","last_reported":1698167170,"current_range_meters":17600,"station_id":"ce4bhf92rcd13ifvqf50","pricing_plan_id":"free"},{"bike_id":"fa411614-747c-480e-aac9-3a0a7bf50f85","system_id":"levelo_inurba_marseille","lat":43.279087,"lon":5.380114,"is_reserved":false,"is_disabled":false,"rental_uris":{"android":"levelo://app?vid=fa411614-747c-480e-aac9-3a0a7bf50f85","ios":"levelo://app?vid=fa411614-747c-480e-aac9-3a0a7bf50f85"},"vehicle_type_id":"4","last_reported":1698167170,"current_range_meters":12400,"station_id":"ce4bhf92rcd13ifvqf50","pricing_plan_id":"free"},{"bike_id":"31c772f1-772e-40b2-83da-b1112bef15fb","system_id":"levelo_inurba_marseille","lat":43.287154,"lon":5.399979,"is_reserved":false,"is_disabled":false,"rental_uris":{"android":"levelo://app?vid=31c772f1-772e-40b2-83da-b1112bef15fb","ios":"levelo://app?vid=31c772f1-772e-40b2-83da-b1112bef15fb"},"vehicle_type_id":"4","last_reported":1698167170,"current_range_meters":14800,"station_id":"ce4bho92rcd13ifvqh3g","pricing_plan_id":"free"},{"bike_id":"c6dd6c78-745c-4f2c-8a75-a49da8b323b6","system_id":"levelo_inurba_marseille","lat":43.287154,"lon":5.399979,"is_reserved":false,"is_disabled":false,"rental_uris":{"android":"levelo://app?vid=c6dd6c78-745c-4f2c-8a75-a49da8b323b6","ios":"levelo://app?vid=c6dd6c78-745c-4f2c-8a75-a49da8b323b6"},"vehicle_type_id":"4","last_reported":1698167170,"current_range_meters":10400,"station_id":"ce4bho92rcd13ifvqh3g","pricing_plan_id":"free"},{"bike_id":"a05326c3-cb18-407e-ac67-45d6c54580d9","system_id":"levelo_inurba_marseille","lat":43.28124,"lon":5.38922,"is_reserved":false,"is_disabled":false,"rental_uris":{"android":"levelo://app?vid=a05326c3-cb18-407e-ac67-45d6c54580d9","ios":"levelo://app?vid=a05326c3-cb18-407e-ac67-45d6c54580d9"},"vehicle_type_id":"4","last_reported":1698167170,"current_range_meters":20400,"station_id":"","pricing_plan_id":"free"},{"bike_id":"347ce1cd-4bb5-44b4-9780-e59a68cab87c","system_id":"levelo_inurba_marseille","lat":43.320045,"lon":5.415048,"is_reserved":false,"is_disabled":false,"rental_uris":{"android":"levelo://app?vid=347ce1cd-4bb5-44b4-9780-e59a68cab87c","ios":"levelo://app?vid=347ce1cd-4bb5-44b4-9780-e59a68cab87c"},"vehicle_type_id":"4","last_reported":1698167170,"current_range_meters":10400,"station_id":"ce4bhq92rcd13ifvqhkg","pricing_plan_id":"free"},{"bike_id":"ac108b8f-45a0-49a3-8a5d-e8deebe074ac","system_id":"levelo_inurba_marseille","lat":43.328815,"lon":5.410728,"is_reserved":false,"is_disabled":false,"rental_uris":{"android":"levelo://app?vid=ac108b8f-45a0-49a3-8a5d-e8deebe074ac","ios":"levelo://app?vid=ac108b8f-45a0-49a3-8a5d-e8deebe074ac"},"vehicle_type_id":"4","last_reported":1698167170,"current_range_meters":0,"station_id":"","pricing_plan_id":"free"},{"bike_id":"0f744bea-3382-41bf-a99e-6fff3a61f781","system_id":"levelo_inurba_marseille","lat":43.299579,"lon":5.413255,"is_reserved":false,"is_disabled":false,"rental_uris":{"android":"levelo://app?vid=0f744bea-3382-41bf-a99e-6fff3a61f781","ios":"levelo://app?vid=0f744bea-3382-41bf-a99e-6fff3a61f781"},"vehicle_type_id":"4","last_reported":1698167170,"current_range_meters":30000,"station_id":"ce4bhp12rcd13ifvqh9g","pricing_plan_id":"free"},{"bike_id":"14cd26c4-73ce-46be-a3e5-be2c573d516a","system_id":"levelo_inurba_marseille","lat":43.279742,"lon":5.38744,"is_reserved":false,"is_disabled":false,"rental_uris":{"android":"levelo://app?vid=14cd26c4-73ce-46be-a3e5-be2c573d516a","ios":"levelo://app?vid=14cd26c4-73ce-46be-a3e5-be2c573d516a"},"vehicle_type_id":"4","last_reported":1698167170,"current_range_meters":6400,"station_id":"ce4bhg12rcd13ifvqf80","pricing_plan_id":"free"},{"bike_id":"63d2993b-a6f4-46de-92e0-6645c97f33a6","system_id":"levelo_inurba_marseille","lat":43.27964,"lon":5.38737,"is_reserved":false,"is_disabled":false,"rental_uris":{"android":"levelo://app?vid=63d2993b-a6f4-46de-92e0-6645c97f33a6","ios":"levelo://app?vid=63d2993b-a6f4-46de-92e0-6645c97f33a6"},"vehicle_type_id":"4","last_reported":1698167170,"current_range_meters":24000,"station_id":"ce4bhg12rcd13ifvqf80","pricing_plan_id":"free"},{"bike_id":"397cafef-fbdb-44dd-848f-78f6262959f0","system_id":"levelo_inurba_marseille","lat":43.279742,"lon":5.38744,"is_reserved":false,"is_disabled":false,"rental_uris":{"android":"levelo://app?vid=397cafef-fbdb-44dd-848f-78f6262959f0","ios":"levelo://app?vid=397cafef-fbdb-44dd-848f-78f6262959f0"},"vehicle_type_id":"4","last_reported":1698167170,"current_range_meters":10800,"station_id":"ce4bhg12rcd13ifvqf80","pricing_plan_id":"free"},{"bike_id":"a8cd9a94-faed-4ffe-b60a-fc9962d3688b","system_id":"levelo_inurba_marseille","lat":43.279742,"lon":5.38744,"is_reserved":false,"is_disabled":false,"rental_uris":{"android":"levelo://app?vid=a8cd9a94-faed-4ffe-b60a-fc9962d3688b","ios":"levelo://app?vid=a8cd9a94-faed-4ffe-b60a-fc9962d3688b"},"vehicle_type_id":"4","last_reported":1698167170,"current_range_meters":0,"station_id":"ce4bhg12rcd13ifvqf80","pricing_plan_id":"free"},{"bike_id":"c7825322-b39d-482e-8ecd-f5b300ce75b5","system_id":"levelo_inurba_marseille","lat":43.292569,"lon":5.409107,"is_reserved":false,"is_disabled":false,"rental_uris":{"android":"levelo://app?vid=c7825322-b39d-482e-8ecd-f5b300ce75b5","ios":"levelo://app?vid=c7825322-b39d-482e-8ecd-f5b300ce75b5"},"vehicle_type_id":"4","last_reported":1698167170,"current_range_meters":0,"station_id":"ce4bh192rcd13ifvqdc0","pricing_plan_id":"free"},{"bike_id":"cb2a086d-5377-40f0-b352-4a26e66b68f5","system_id":"levelo_inurba_marseille","lat":43.276216,"lon":5.361171,"is_reserved":false,"is_disabled":false,"rental_uris":{"android":"levelo://app?vid=cb2a086d-5377-40f0-b352-4a26e66b68f5","ios":"levelo://app?vid=cb2a086d-5377-40f0-b352-4a26e66b68f5"},"vehicle_type_id":"4","last_reported":1698167170,"current_range_meters":17600,"station_id":"ce4bgj92rcd13ifvqbe0","pricing_plan_id":"free"},{"bike_id":"ec254dd9-2ed8-4150-9029-c971ce5a5350","system_id":"levelo_inurba_marseille","lat":43.276168,"lon":5.361176,"is_reserved":false,"is_disabled":false,"rental_uris":{"android":"levelo://app?vid=ec254dd9-2ed8-4150-9029-c971ce5a5350","ios":"levelo://app?vid=ec254dd9-2ed8-4150-9029-c971ce5a5350"},"vehicle_type_id":"4","last_reported":1698167170,"current_range_meters":15600,"station_id":"ce4bh412rcd13ifvqds0","pricing_plan_id":"free"},{"bike_id":"43d30840-7f8a-45c4-b129-4816be93a6cf","system_id":"levelo_inurba_marseille","lat":43.27617,"lon":5.3611,"is_reserved":false,"is_disabled":false,"rental_uris":{"android":"levelo://app?vid=43d30840-7f8a-45c4-b129-4816be93a6cf","ios":"levelo://app?vid=43d30840-7f8a-45c4-b129-4816be93a6cf"},"vehicle_type_id":"4","last_reported":1698167170,"current_range_meters":16800,"station_id":"ce4bgj92rcd13ifvqbe0","pricing_plan_id":"free"},{"bike_id":"fc00bc1c-f36f-427c-8d30-5f95b64b1595","system_id":"levelo_inurba_marseille","lat":43.27617,"lon":5.36105,"is_reserved":false,"is_disabled":false,"rental_uris":{"android":"levelo://app?vid=fc00bc1c-f36f-427c-8d30-5f95b64b1595","ios":"levelo://app?vid=fc00bc1c-f36f-427c-8d30-5f95b64b1595"},"vehicle_type_id":"4","last_reported":1698167170,"current_range_meters":18800,"station_id":"ce4bgj92rcd13ifvqbe0","pricing_plan_id":"free"},{"bike_id":"2a535140-f3bb-4e2f-927b-033915662888","system_id":"levelo_inurba_marseille","lat":43.276179,"lon":5.361009,"is_reserved":false,"is_disabled":false,"rental_uris":{"android":"levelo://app?vid=2a535140-f3bb-4e2f-927b-033915662888","ios":"levelo://app?vid=2a535140-f3bb-4e2f-927b-033915662888"},"vehicle_type_id":"4","last_reported":1698167170,"current_range_meters":31200,"station_id":"ce4bgj92rcd13ifvqbe0","pricing_plan_id":"free"},{"bike_id":"fa077c3e-118f-447a-b089-a454bf419f7a","system_id":"levelo_inurba_marseille","lat":43.280784,"lon":5.396622,"is_reserved":false,"is_disabled":false,"rental_uris":{"android":"levelo://app?vid=fa077c3e-118f-447a-b089-a454bf419f7a","ios":"levelo://app?vid=fa077c3e-118f-447a-b089-a454bf419f7a"},"vehicle_type_id":"4","last_reported":1698167170,"current_range_meters":26000,"station_id":"ce4bho12rcd13ifvqh2g","pricing_plan_id":"free"},{"bike_id":"dc387467-16d5-4613-8725-d78d4d53cc81","system_id":"levelo_inurba_marseille","lat":43.303837,"lon":5.418724,"is_reserved":false,"is_disabled":false,"rental_uris":{"android":"levelo://app?vid=dc387467-16d5-4613-8725-d78d4d53cc81","ios":"levelo://app?vid=dc387467-16d5-4613-8725-d78d4d53cc81"},"vehicle_type_id":"4","last_reported":1698167170,"current_range_meters":0,"station_id":"ce4bhop2rcd13ifvqh7g","pricing_plan_id":"free"},{"bike_id":"b5bf2707-9b95-48ca-a5c9-60105b1d2104","system_id":"levelo_inurba_marseille","lat":43.303837,"lon":5.418724,"is_reserved":false,"is_disabled":false,"rental_uris":{"android":"levelo://app?vid=b5bf2707-9b95-48ca-a5c9-60105b1d2104","ios":"levelo://app?vid=b5bf2707-9b95-48ca-a5c9-60105b1d2104"},"vehicle_type_id":"4","last_reported":1698167170,"current_range_meters":28800,"station_id":"ce4bhop2rcd13ifvqh7g","pricing_plan_id":"free"},{"bike_id":"67d7f11d-7378-4a1b-b0e3-464e50247ac6","system_id":"levelo_inurba_marseille","lat":43.27832,"lon":5.39207,"is_reserved":false,"is_disabled":false,"rental_uris":{"android":"levelo://app?vid=67d7f11d-7378-4a1b-b0e3-464e50247ac6","ios":"levelo://app?vid=67d7f11d-7378-4a1b-b0e3-464e50247ac6"},"vehicle_type_id":"4","last_reported":1698167170,"current_range_meters":25200,"station_id":"ce4bhjp2rcd13ifvqga0","pricing_plan_id":"free"},{"bike_id":"b204ad0c-6778-43d8-b6ba-82d45798c18d","system_id":"levelo_inurba_marseille","lat":43.278399,"lon":5.392139,"is_reserved":false,"is_disabled":false,"rental_uris":{"android":"levelo://app?vid=b204ad0c-6778-43d8-b6ba-82d45798c18d","ios":"levelo://app?vid=b204ad0c-6778-43d8-b6ba-82d45798c18d"},"vehicle_type_id":"4","last_reported":1698167170,"current_range_meters":22800,"station_id":"ce4bhjp2rcd13ifvqga0","pricing_plan_id":"free"},{"bike_id":"089a01ca-b2b7-4b49-a216-f45592776d30","system_id":"levelo_inurba_marseille","lat":43.278315,"lon":5.392275,"is_reserved":false,"is_disabled":false,"rental_uris":{"android":"levelo://app?vid=089a01ca-b2b7-4b49-a216-f45592776d30","ios":"levelo://app?vid=089a01ca-b2b7-4b49-a216-f45592776d30"},"vehicle_type_id":"4","last_reported":1698167170,"current_range_meters":22800,"station_id":"ce4bhs92rcd13ifvqi0g","pricing_plan_id":"free"},{"bike_id":"f57e0146-97ed-486b-b01b-9d4b784415f0","system_id":"levelo_inurba_marseille","lat":43.27823,"lon":5.39212,"is_reserved":false,"is_disabled":false,"rental_uris":{"android":"levelo://app?vid=f57e0146-97ed-486b-b01b-9d4b784415f0","ios":"levelo://app?vid=f57e0146-97ed-486b-b01b-9d4b784415f0"},"vehicle_type_id":"4","last_reported":1698167170,"current_range_meters":20800,"station_id":"ce4bhjp2rcd13ifvqga0","pricing_plan_id":"free"},{"bike_id":"bb4412ce-2445-4cb2-8c7f-9a1f2c7d4222","system_id":"levelo_inurba_marseille","lat":43.273613,"lon":5.362705,"is_reserved":false,"is_disabled":false,"rental_uris":{"android":"levelo://app?vid=bb4412ce-2445-4cb2-8c7f-9a1f2c7d4222","ios":"levelo://app?vid=bb4412ce-2445-4cb2-8c7f-9a1f2c7d4222"},"vehicle_type_id":"4","last_reported":1698167170,"current_range_meters":31200,"station_id":"ce4bhbh2rcd13ifvqeo0","pricing_plan_id":"free"},{"bike_id":"fa40bbba-b52f-4047-8a4d-be459d1cabed","system_id":"levelo_inurba_marseille","lat":43.27375,"lon":5.36253,"is_reserved":false,"is_disabled":false,"rental_uris":{"android":"levelo://app?vid=fa40bbba-b52f-4047-8a4d-be459d1cabed","ios":"levelo://app?vid=fa40bbba-b52f-4047-8a4d-be459d1cabed"},"vehicle_type_id":"4","last_reported":1698167170,"current_range_meters":31200,"station_id":"ce4bhbh2rcd13ifvqeo0","pricing_plan_id":"free"},{"bike_id":"9e5095d0-f1a7-4200-ad39-264f8491c092","system_id":"levelo_inurba_marseille","lat":43.27375,"lon":5.36252,"is_reserved":false,"is_disabled":false,"rental_uris":{"android":"levelo://app?vid=9e5095d0-f1a7-4200-ad39-264f8491c092","ios":"levelo://app?vid=9e5095d0-f1a7-4200-ad39-264f8491c092"},"vehicle_type_id":"4","last_reported":1698167170,"current_range_meters":30800,"station_id":"ce4bhbh2rcd13ifvqeo0","pricing_plan_id":"free"},{"bike_id":"18c641a3-c2af-4d04-8911-c41fa7d61ad8","system_id":"levelo_inurba_marseille","lat":43.276771,"lon":5.388799,"is_reserved":false,"is_disabled":false,"rental_uris":{"android":"levelo://app?vid=18c641a3-c2af-4d04-8911-c41fa7d61ad8","ios":"levelo://app?vid=18c641a3-c2af-4d04-8911-c41fa7d61ad8"},"vehicle_type_id":"4","last_reported":1698167170,"current_range_meters":19600,"station_id":"ce4bhi12rcd13ifvqfo0","pricing_plan_id":"free"},{"bike_id":"505b33f2-35f8-4435-b59c-a8cf892fa503","system_id":"levelo_inurba_marseille","lat":43.28003,"lon":5.40009,"is_reserved":false,"is_disabled":false,"rental_uris":{"android":"levelo://app?vid=505b33f2-35f8-4435-b59c-a8cf892fa503","ios":"levelo://app?vid=505b33f2-35f8-4435-b59c-a8cf892fa503"},"vehicle_type_id":"4","last_reported":1698167170,"current_range_meters":15600,"station_id":"ce4bho92rcd13ifvqh4g","pricing_plan_id":"free"},{"bike_id":"3f631458-80f7-4126-ae1d-7dfa75107606","system_id":"levelo_inurba_marseille","lat":43.27999,"lon":5.40016,"is_reserved":false,"is_disabled":false,"rental_uris":{"android":"levelo://app?vid=3f631458-80f7-4126-ae1d-7dfa75107606","ios":"levelo://app?vid=3f631458-80f7-4126-ae1d-7dfa75107606"},"vehicle_type_id":"4","last_reported":1698167170,"current_range_meters":21200,"station_id":"ce4bho92rcd13ifvqh4g","pricing_plan_id":"free"},{"bike_id":"ce1c47ad-b959-4c6f-9847-128b374cd133","system_id":"levelo_inurba_marseille","lat":43.31721,"lon":5.42393,"is_reserved":false,"is_disabled":false,"rental_uris":{"android":"levelo://app?vid=ce1c47ad-b959-4c6f-9847-128b374cd133","ios":"levelo://app?vid=ce1c47ad-b959-4c6f-9847-128b374cd133"},"vehicle_type_id":"4","last_reported":1698167170,"current_range_meters":29600,"station_id":"ce4bhp92rcd13ifvqhbg","pricing_plan_id":"free"},{"bike_id":"a091030b-e9b0-4e92-8807-928158a1a9e0","system_id":"levelo_inurba_marseille","lat":43.31723,"lon":5.424007,"is_reserved":false,"is_disabled":false,"rental_uris":{"android":"levelo://app?vid=a091030b-e9b0-4e92-8807-928158a1a9e0","ios":"levelo://app?vid=a091030b-e9b0-4e92-8807-928158a1a9e0"},"vehicle_type_id":"4","last_reported":1698167170,"current_range_meters":31200,"station_id":"ce4bhp92rcd13ifvqhbg","pricing_plan_id":"free"},{"bike_id":"31f3916a-58f4-477b-9cb8-714a980c944e","system_id":"levelo_inurba_marseille","lat":43.31065,"lon":5.42445,"is_reserved":false,"is_disabled":false,"rental_uris":{"android":"levelo://app?vid=31f3916a-58f4-477b-9cb8-714a980c944e","ios":"levelo://app?vid=31f3916a-58f4-477b-9cb8-714a980c944e"},"vehicle_type_id":"4","last_reported":1698167170,"current_range_meters":29200,"station_id":"ce4bhp92rcd13ifvqhag","pricing_plan_id":"free"},{"bike_id":"e9b0d128-0a4a-426f-908d-d011551546fc","system_id":"levelo_inurba_marseille","lat":43.309975,"lon":5.425065,"is_reserved":false,"is_disabled":false,"rental_uris":{"android":"levelo://app?vid=e9b0d128-0a4a-426f-908d-d011551546fc","ios":"levelo://app?vid=e9b0d128-0a4a-426f-908d-d011551546fc"},"vehicle_type_id":"4","last_reported":1698167170,"current_range_meters":31200,"station_id":"","pricing_plan_id":"free"},{"bike_id":"4a25b340-0e4a-4a7f-9f5c-fcb8d90ceafc","system_id":"levelo_inurba_marseille","lat":43.309843,"lon":5.425113,"is_reserved":false,"is_disabled":false,"rental_uris":{"android":"levelo://app?vid=4a25b340-0e4a-4a7f-9f5c-fcb8d90ceafc","ios":"levelo://app?vid=4a25b340-0e4a-4a7f-9f5c-fcb8d90ceafc"},"vehicle_type_id":"4","last_reported":1698167170,"current_range_meters":31200,"station_id":"","pricing_plan_id":"free"},{"bike_id":"5a10331c-549d-4b5f-88ef-07eee97806b4","system_id":"levelo_inurba_marseille","lat":43.309863,"lon":5.425127,"is_reserved":false,"is_disabled":false,"rental_uris":{"android":"levelo://app?vid=5a10331c-549d-4b5f-88ef-07eee97806b4","ios":"levelo://app?vid=5a10331c-549d-4b5f-88ef-07eee97806b4"},"vehicle_type_id":"4","last_reported":1698167170,"current_range_meters":11600,"station_id":"","pricing_plan_id":"free"},{"bike_id":"36d50915-2af2-4a62-825c-e5db16961f2f","system_id":"levelo_inurba_marseille","lat":43.304096,"lon":5.425385,"is_reserved":false,"is_disabled":false,"rental_uris":{"android":"levelo://app?vid=36d50915-2af2-4a62-825c-e5db16961f2f","ios":"levelo://app?vid=36d50915-2af2-4a62-825c-e5db16961f2f"},"vehicle_type_id":"4","last_reported":1698167170,"current_range_meters":27200,"station_id":"ce4bhoh2rcd13ifvqh6g","pricing_plan_id":"free"},{"bike_id":"cf711ff6-4e1c-4050-9acf-8bdef96ab0d8","system_id":"levelo_inurba_marseille","lat":43.30411,"lon":5.42546,"is_reserved":false,"is_disabled":false,"rental_uris":{"android":"levelo://app?vid=cf711ff6-4e1c-4050-9acf-8bdef96ab0d8","ios":"levelo://app?vid=cf711ff6-4e1c-4050-9acf-8bdef96ab0d8"},"vehicle_type_id":"4","last_reported":1698167170,"current_range_meters":3200,"station_id":"ce4bhoh2rcd13ifvqh6g","pricing_plan_id":"free"},{"bike_id":"5314c3d2-ca61-4f4a-8f09-8c266e0159bc","system_id":"levelo_inurba_marseille","lat":43.295511,"lon":5.422926,"is_reserved":false,"is_disabled":false,"rental_uris":{"android":"levelo://app?vid=5314c3d2-ca61-4f4a-8f09-8c266e0159bc","ios":"levelo://app?vid=5314c3d2-ca61-4f4a-8f09-8c266e0159bc"},"vehicle_type_id":"4","last_reported":1698167170,"current_range_meters":18400,"station_id":"ce4bhph2rcd13ifvqhdg","pricing_plan_id":"free"},{"bike_id":"28aa7beb-57b5-48f2-b3a5-1aeb99657a08","system_id":"levelo_inurba_marseille","lat":43.295511,"lon":5.422926,"is_reserved":false,"is_disabled":false,"rental_uris":{"android":"levelo://app?vid=28aa7beb-57b5-48f2-b3a5-1aeb99657a08","ios":"levelo://app?vid=28aa7beb-57b5-48f2-b3a5-1aeb99657a08"},"vehicle_type_id":"4","last_reported":1698167170,"current_range_meters":6000,"station_id":"ce4bhph2rcd13ifvqhdg","pricing_plan_id":"free"},{"bike_id":"62266ec3-8a7d-451e-9b7a-db91cabbbf4b","system_id":"levelo_inurba_marseille","lat":43.295523,"lon":5.422926,"is_reserved":false,"is_disabled":false,"rental_uris":{"android":"levelo://app?vid=62266ec3-8a7d-451e-9b7a-db91cabbbf4b","ios":"levelo://app?vid=62266ec3-8a7d-451e-9b7a-db91cabbbf4b"},"vehicle_type_id":"4","last_reported":1698167170,"current_range_meters":26400,"station_id":"ce4bhph2rcd13ifvqhdg","pricing_plan_id":"free"},