{"last_updated":1770809753,"ttl":60,"version":"2.2","data":{"bikes":[{"bike_id":"508af785-032d-4df0-b8fe-11d0a1bf5f67","system_id":"levelo_inurba_marseille","lat":43.30117,"lon":5.43088,"is_reserved":false,"is_disabled":false,"rental_uris":{"android":"levelo://app?vid=508af785-032d-4df0-b8fe-11d0a1bf5f67","ios":"levelo://app?vid=508af785-032d-4df0-b8fe-11d0a1bf5f67"},"vehicle_type_id":"4","last_reported":1770809753,"current_range_meters":2800,"station_id":"st_d3js3co5814s73ftftug","pricing_plan_id":"cebpf4jnsgd1na2vs0mg"},{"bike_id":"8ae193d0-6aa6-49c6-83c9-9ea48a09d2ef","system_id":"levelo_inurba_marseille","lat":43.27335,"lon":5.39063,"is_reserved":false,"is_disabled":false,"rental_uris":{"android":"levelo://app?vid=8ae193d0-6aa6-49c6-83c9-9ea48a09d2ef","ios":"levelo://app?vid=8ae193d0-6aa6-49c6-83c9-9ea48a09d2ef"},"vehicle_type_id":"4","last_reported":1770809753,"current_range_meters":2800,"station_id":"ce4bhgp2rcd13ifvqfe0","pricing_plan_id":"cebpf4jnsgd1na2vs0mg"},{"bike_id":"fdcca747-1f0c-4265-9d25-6a349973ec5d","system_id":"levelo_inurba_marseille","lat":43.33165,"lon":5.37692,"is_reserved":false,"is_disabled":false,"rental_uris":{"android":"levelo://app?vid=fdcca747-1f0c-4265-9d25-6a349973ec5d","ios":"levelo://app?vid=fdcca747-1f0c-4265-9d25-6a349973ec5d"},"vehicle_type_id":"4","last_reported":1770809753,"current_range_meters":2800,"station_id":"st_d46cu089ee8s73dldbu0","pricing_plan_id":"cebpf4jnsgd1na2vs0mg"},{"bike_id":"18586b07-93c4-488e-ab36-7614b6144f73","system_id":"levelo_inurba_marseille","lat":43.27172,"lon":5.40993,"is_reserved":false,"is_disabled":false,"rental_uris":{"android":"levelo://app?vid=18586b07-93c4-488e-ab36-7614b6144f73","ios":"levelo://app?vid=18586b07-93c4-488e-ab36-7614b6144f73"},"vehicle_type_id":"4","last_reported":1770809753,"current_range_meters":2800,"station_id":"ce4bhl12rcd13ifvqgf0","pricing_plan_id":"cebpf4jnsgd1na2vs0mg"},{"bike_id":"c84f98ff-c4b0-498e-bd41-7b5647869b42","system_id":"levelo_inurba_marseille","lat":43.233817,"lon":5.412268,"is_reserved":false,"is_disabled":false,"rental_uris":{"android":"levelo://app?vid=c84f98ff-c4b0-498e-bd41-7b5647869b42","ios":"levelo://app?vid=c84f98ff-c4b0-498e-bd41-7b5647869b42"},"vehicle_type_id":"4","last_reported":1770809753,"current_range_meters":2800,"station_id":"","pricing_plan_id":"cebpf4jnsgd1na2vs0mg"},{"bike_id":"62b64ee1-a035-4dea-b7c0-5437847e47ce","system_id":"levelo_inurba_marseille","lat":43.24391,"lon":5.3706,"is_reserved":false,"is_disabled":false,"rental_uris":{"android":"levelo://app?vid=62b64ee1-a035-4dea-b7c0-5437847e47ce","ios":"levelo://app?vid=62b64ee1-a035-4dea-b7c0-5437847e47ce"},"vehicle_type_id":"4","last_reported":1770809753,"current_range_meters":2800,"station_id":"ce4bhhh2rcd13ifvqfk0","pricing_plan_id":"cebpf4jnsgd1na2vs0mg"},{"bike_id":"ebc11f7c-0d2b-476b-b3c1-baabb5f78b05","system_id":"levelo_inurba_marseille","lat":43.28863,"lon":5.4251,"is_reserved":false,"is_disabled":false,"rental_uris":{"android":"levelo://app?vid=ebc11f7c-0d2b-476b-b3c1-baabb5f78b05","ios":"levelo://app?vid=ebc11f7c-0d2b-476b-b3c1-baabb5f78b05"},"vehicle_type_id":"4","last_reported":1770809753,"current_range_meters":2800,"station_id":"st_d3b462108ojc7389ooeg","pricing_plan_id":"cebpf4jnsgd1na2vs0mg"},{"bike_id":"da9bf1cd-d18f-47c6-82f8-439a7014e703","system_id":"levelo_inurba_marseille","lat":43.29969,"lon":5.37165,"is_reserved":false,"is_disabled":false,"rental_uris":{"android":"levelo://app?vid=da9bf1cd-d18f-47c6-82f8-439a7014e703","ios":"levelo://app?vid=da9bf1cd-d18f-47c6-82f8-439a7014e703"},"vehicle_type_id":"4","last_reported":1770809753,"current_range_meters":2800,"station_id":"ce4bgr92rcd13ifvqc7g","pricing_plan_id":"cebpf4jnsgd1na2vs0mg"},{"bike_id":"8b4263f7-2795-486a-b290-22850f34f9ba","system_id":"levelo_inurba_marseille","lat":43.25003,"lon":5.38928,"is_reserved":false,"is_disabled":false,"rental_uris":{"android":"levelo://app?vid=8b4263f7-2795-486a-b290-22850f34f9ba","ios":"levelo://app?vid=8b4263f7-2795-486a-b290-22850f34f9ba"},"vehicle_type_id":"4","last_reported":1770809753,"current_range_meters":2800,"station_id":"ce4bhgp2rcd13ifvqfd0","pricing_plan_id":"cebpf4jnsgd1na2vs0mg"},{"bike_id":"abdd9fcf-433e-46d4-9e1b-866bec7073b0","system_id":"levelo_inurba_marseille","lat":43.28667,"lon":5.36345,"is_reserved":false,"is_disabled":false,"rental_uris":{"android":"levelo://app?vid=abdd9fcf-433e-46d4-9e1b-866bec7073b0","ios":"levelo://app?vid=abdd9fcf-433e-46d4-9e1b-866bec7073b0"},"vehicle_type_id":"4","last_reported":1770809753,"current_range_meters":2800,"station_id":"ce4bhah2rcd13ifvqej0","pricing_plan_id":"cebpf4jnsgd1na2vs0mg"},{"bike_id":"de5717f5-c00b-4f00-9fb2-39815c6186af","system_id":"levelo_inurba_marseille","lat":43.27068,"lon":5.40255,"is_reserved":false,"is_disabled":false,"rental_uris":{"android":"levelo://app?vid=de5717f5-c00b-4f00-9fb2-39815c6186af","ios":"levelo://app?vid=de5717f5-c00b-4f00-9fb2-39815c6186af"},"vehicle_type_id":"4","last_reported":1770809753,"current_range_meters":3200,"station_id":"ce4bhk92rcd13ifvqgc0","pricing_plan_id":"cebpf4jnsgd1na2vs0mg"},{"bike_id":"4109e4ef-141f-48d2-bf8a-09fdeeebff78","system_id":"levelo_inurba_marseille","lat":43.27285,"lon":5.40031,"is_reserved":false,"is_disabled":false,"rental_uris":{"android":"levelo://app?vid=4109e4ef-141f-48d2-bf8a-09fdeeebff78","ios":"levelo://app?vid=4109e4ef-141f-48d2-bf8a-09fdeeebff78"},"vehicle_type_id":"4","last_reported":1770809753,"current_range_meters":3200,"station_id":"","pricing_plan_id":"cebpf4jnsgd1na2vs0mg"},{"bike_id":"a07cd24c-7e73-437e-917a-60bdbc1072fc","system_id":"levelo_inurba_marseille","lat":43.24393,"lon":5.37071,"is_reserved":false,"is_disabled":false,"rental_uris":{"android":"levelo://app?vid=a07cd24c-7e73-437e-917a-60bdbc1072fc","ios":"levelo://app?vid=a07cd24c-7e73-437e-917a-60bdbc1072fc"},"vehicle_type_id":"4","last_reported":1770809753,"current_range_meters":3200,"station_id":"ce4bhhh2rcd13ifvqfk0","pricing_plan_id":"cebpf4jnsgd1na2vs0mg"},{"bike_id":"3f21dcf2-ed86-4b9e-bf82-738b56960976","system_id":"levelo_inurba_marseille","lat":43.26194,"lon":5.37452,"is_reserved":false,"is_disabled":false,"rental_uris":{"android":"levelo://app?vid=3f21dcf2-ed86-4b9e-bf82-738b56960976","ios":"levelo://app?vid=3f21dcf2-ed86-4b9e-bf82-738b56960976"},"vehicle_type_id":"4","last_reported":1770809753,"current_range_meters":3200,"station_id":"ce4bhgp2rcd13ifvqfc0","pricing_plan_id":"cebpf4jnsgd1na2vs0mg"},{"bike_id":"2393c237-9d87-4933-a4dd-1ae21c91fed0","system_id":"levelo_inurba_marseille","lat":43.28717,"lon":5.36098,"is_reserved":false,"is_disabled":false,"rental_uris":{"android":"levelo://app?vid=2393c237-9d87-4933-a4dd-1ae21c91fed0","ios":"levelo://app?vid=2393c237-9d87-4933-a4dd-1ae21c91fed0"},"vehicle_type_id":"4","last_reported":1770809753,"current_range_meters":3200,"station_id":"cki0cbj6b192h4jlfktg","pricing_plan_id":"cebpf4jnsgd1na2vs0mg"},{"bike_id":"975bd0c0-5c30-478f-a1a3-a05ee365190d","system_id":"levelo_inurba_marseille","lat":43.313104,"lon":5.407801,"is_reserved":false,"is_disabled":false,"rental_uris":{"android":"levelo://app?vid=975bd0c0-5c30-478f-a1a3-a05ee365190d","ios":"levelo://app?vid=975bd0c0-5c30-478f-a1a3-a05ee365190d"},"vehicle_type_id":"4","last_reported":1770809753,"current_range_meters":3200,"station_id":"","pricing_plan_id":"cebpf4jnsgd1na2vs0mg"},{"bike_id":"3e62a0fd-19ac-4f58-93af-6af710db8a94","system_id":"levelo_inurba_marseille","lat":43.22934,"lon":5.3538,"is_reserved":false,"is_disabled":false,"rental_uris":{"android":"levelo://app?vid=3e62a0fd-19ac-4f58-93af-6af710db8a94","ios":"levelo://app?vid=3e62a0fd-19ac-4f58-93af-6af710db8a94"},"vehicle_type_id":"4","last_reported":1770809753,"current_range_meters":3200,"station_id":"cpo3532slgdg3j2ikp40","pricing_plan_id":"cebpf4jnsgd1na2vs0mg"},{"bike_id":"8a1f19b1-39c0-42f4-b119-90f88b9acab9","system_id":"levelo_inurba_marseille","lat":43.26768,"lon":5.39438,"is_reserved":false,"is_disabled":false,"rental_uris":{"android":"levelo://app?vid=8a1f19b1-39c0-42f4-b119-90f88b9acab9","ios":"levelo://app?vid=8a1f19b1-39c0-42f4-b119-90f88b9acab9"},"vehicle_type_id":"4","last_reported":1770809753,"current_range_meters":3600,"station_id":"ce4bhh12rcd13ifvqfg0","pricing_plan_id":"cebpf4jnsgd1na2vs0mg"},{"bike_id":"45cd3b6e-1295-4610-b6e1-38ea1abd3039","system_id":"levelo_inurba_marseille","lat":43.30286,"lon":5.37728,"is_reserved":false,"is_disabled":false,"rental_uris":{"android":"levelo://app?vid=45cd3b6e-1295-4610-b6e1-38ea1abd3039","ios":"levelo://app?vid=45cd3b6e-1295-4610-b6e1-38ea1abd3039"},"vehicle_type_id":"4","last_reported":1770809753,"current_range_meters":3600,"station_id":"ce4bguh2rcd13ifvqcj0","pricing_plan_id":"cebpf4jnsgd1na2vs0mg"},{"bike_id":"9fd591d0-2348-4aee-a8e7-84023c5aa352","system_id":"levelo_inurba_marseille","lat":43.28411,"lon":5.37506,"is_reserved":false,"is_disabled":true,"rental_uris":{"android":"levelo://app?vid=9fd591d0-2348-4aee-a8e7-84023c5aa352","ios":"levelo://app?vid=9fd591d0-2348-4aee-a8e7-84023c5aa352"},"vehicle_type_id":"4","last_reported":1770809753,"current_range_meters":3600,"station_id":"ce4bh412rcd13ifvqds0","pricing_plan_id":"cebpf4jnsgd1na2vs0mg"},{"bike_id":"fd64072f-c964-4692-8fb2-01844deb1dfa","system_id":"levelo_inurba_marseille","lat":43.24079,"lon":5.3775,"is_reserved":false,"is_disabled":false,"rental_uris":{"android":"levelo://app?vid=fd64072f-c964-4692-8fb2-01844deb1dfa","ios":"levelo://app?vid=fd64072f-c964-4692-8fb2-01844deb1dfa"},"vehicle_type_id":"4","last_reported":1770809753,"current_range_meters":3600,"station_id":"ce4bhnp2rcd13ifvqgvg","pricing_plan_id":"cebpf4jnsgd1na2vs0mg"},{"bike_id":"22d8d839-db4c-4efa-bd5d-d78efaca55ca","system_id":"levelo_inurba_marseille","lat":43.27064,"lon":5.38306,"is_reserved":false,"is_disabled":false,"rental_uris":{"android":"levelo://app?vid=22d8d839-db4c-4efa-bd5d-d78efaca55ca","ios":"levelo://app?vid=22d8d839-db4c-4efa-bd5d-d78efaca55ca"},"vehicle_type_id":"4","last_reported":1770809753,"current_range_meters":3600,"station_id":"st_d3n2fo6cfp8s73cte1j0","pricing_plan_id":"cebpf4jnsgd1na2vs0mg"},{"bike_id":"928bf61b-63b4-46b3-b42e-2b2755810dea","system_id":"levelo_inurba_marseille","lat":43.33609,"lon":5.41033,"is_reserved":false,"is_disabled":false,"rental_uris":{"android":"levelo://app?vid=928bf61b-63b4-46b3-b42e-2b2755810dea","ios":"levelo://app?vid=928bf61b-63b4-46b3-b42e-2b2755810dea"},"vehicle_type_id":"4","last_reported":1770809753,"current_range_meters":3600,"station_id":"ce4bhqh2rcd13ifvqhmg","pricing_plan_id":"cebpf4jnsgd1na2vs0mg"},{"bike_id":"aef51d75-8925-4e9a-b46e-ed13a8fba76f","system_id":"levelo_inurba_marseille","lat":43.25564,"lon":5.38179,"is_reserved":false,"is_disabled":false,"rental_uris":{"android":"levelo://app?vid=aef51d75-8925-4e9a-b46e-ed13a8fba76f","ios":"levelo://app?vid=aef51d75-8925-4e9a-b46e-ed13a8fba76f"},"vehicle_type_id":"4","last_reported":1770809753,"current_range_meters":3600,"station_id":"ce4bhih2rcd13ifvqfs0","pricing_plan_id":"cebpf4jnsgd1na2vs0mg"},{"bike_id":"a5ef3890-8302-4c8a-bac6-540bffa0497d","system_id":"levelo_inurba_marseille","lat":43.22945,"lon":5.35387,"is_reserved":false,"is_disabled":false,"rental_uris":{"android":"levelo://app?vid=a5ef3890-8302-4c8a-bac6-540bffa0497d","ios":"levelo://app?vid=a5ef3890-8302-4c8a-bac6-540bffa0497d"},"vehicle_type_id":"4","last_reported":1770809753,"current_range_meters":4000,"station_id":"cpo3532slgdg3j2ikp40","pricing_plan_id":"cebpf4jnsgd1na2vs0mg"},{"bike_id":"99e7c63a-ee03-4049-a4d7-5809a6c38a55","system_id":"levelo_inurba_marseille","lat":43.28433,"lon":5.39173,"is_reserved":false,"is_disabled":false,"rental_uris":{"android":"levelo://app?vid=99e7c63a-ee03-4049-a4d7-5809a6c38a55","ios":"levelo://app?vid=99e7c63a-ee03-4049-a4d7-5809a6c38a55"},"vehicle_type_id":"4","last_reported":1770809753,"current_range_meters":4000,"station_id":"ce4bhoh2rcd13ifvqh5g","pricing_plan_id":"cebpf4jnsgd1na2vs0mg"},{"bike_id":"efd9d7ca-4b84-4ff5-876b-900e16175b1d","system_id":"levelo_inurba_marseille","lat":43.2617,"lon":5.37478,"is_reserved":false,"is_disabled":false,"rental_uris":{"android":"levelo://app?vid=efd9d7ca-4b84-4ff5-876b-900e16175b1d","ios":"levelo://app?vid=efd9d7ca-4b84-4ff5-876b-900e16175b1d"},"vehicle_type_id":"4","last_reported":1770809753,"current_range_meters":4000,"station_id":"ce4bhgp2rcd13ifvqfc0","pricing_plan_id":"cebpf4jnsgd1na2vs0mg"},{"bike_id":"14bec802-d051-447b-b6fc-298c0960dd45","system_id":"levelo_inurba_marseille","lat":43.27958,"lon":5.41037,"is_reserved":false,"is_disabled":false,"rental_uris":{"android":"levelo://app?vid=14bec802-d051-447b-b6fc-298c0960dd45","ios":"levelo://app?vid=14bec802-d051-447b-b6fc-298c0960dd45"},"vehicle_type_id":"4","last_reported":1770809753,"current_range_meters":4000,"station_id":"ce4bhnp2rcd13ifvqh0g","pricing_plan_id":"cebpf4jnsgd1na2vs0mg"},{"bike_id":"e0450db0-c8b3-4403-bc43-ed5a007877b8","system_id":"levelo_inurba_marseille","lat":43.246261,"lon":5.431507,"is_reserved":false,"is_disabled":false,"rental_uris":{"android":"levelo://app?vid=e0450db0-c8b3-4403-bc43-ed5a007877b8","ios":"levelo://app?vid=e0450db0-c8b3-4403-bc43-ed5a007877b8"},"vehicle_type_id":"4","last_reported":1770809753,"current_range_meters":4000,"station_id":"st_d2m6c4gdas8pm72e190g","pricing_plan_id":"cebpf4jnsgd1na2vs0mg"},{"bike_id":"652029fd-7389-40d5-a0bd-e85f7aa43d7c","system_id":"levelo_inurba_marseille","lat":43.22564,"lon":5.41631,"is_reserved":false,"is_disabled":false,"rental_uris":{"android":"levelo://app?vid=652029fd-7389-40d5-a0bd-e85f7aa43d7c","ios":"levelo://app?vid=652029fd-7389-40d5-a0bd-e85f7aa43d7c"},"vehicle_type_id":"4","last_reported":1770809753,"current_range_meters":4000,"station_id":"st_d2o4gvlbi1j2169b742g","pricing_plan_id":"cebpf4jnsgd1na2vs0mg"},{"bike_id":"ee213b40-802c-442b-9390-5e22834db5df","system_id":"levelo_inurba_marseille","lat":43.24163,"lon":5.36401,"is_reserved":false,"is_disabled":false,"rental_uris":{"android":"levelo://app?vid=ee213b40-802c-442b-9390-5e22834db5df","ios":"levelo://app?vid=ee213b40-802c-442b-9390-5e22834db5df"},"vehicle_type_id":"4","last_reported":1770809753,"current_range_meters":4000,"station_id":"cpo36qri1sfpv3e86is0","pricing_plan_id":"cebpf4jnsgd1na2vs0mg"},{"bike_id":"46b69bcd-f35a-433e-b9f1-16ab03d0ac0e","system_id":"levelo_inurba_marseille","lat":43.25874,"lon":5.3989,"is_reserved":false,"is_disabled":false,"rental_uris":{"android":"levelo://app?vid=46b69bcd-f35a-433e-b9f1-16ab03d0ac0e","ios":"levelo://app?vid=46b69bcd-f35a-433e-b9f1-16ab03d0ac0e"},"vehicle_type_id":"4","last_reported":1770809753,"current_range_meters":4000,"station_id":"ce4bhl92rcd13ifvqghg","pricing_plan_id":"cebpf4jnsgd1na2vs0mg"},{"bike_id":"87056c0a-278d-470f-af70-99a4eb084f35","system_id":"levelo_inurba_marseille","lat":43.24638,"lon":5.43153,"is_reserved":false,"is_disabled":false,"rental_uris":{"android":"levelo://app?vid=87056c0a-278d-470f-af70-99a4eb084f35","ios":"levelo://app?vid=87056c0a-278d-470f-af70-99a4eb084f35"},"vehicle_type_id":"4","last_reported":1770809753,"current_range_meters":4000,"station_id":"st_d2m6c4gdas8pm72e190g","pricing_plan_id":"cebpf4jnsgd1na2vs0mg"},{"bike_id":"82de1c48-569b-4a75-a6bb-e4c606446216","system_id":"levelo_inurba_marseille","lat":43.27815,"lon":5.40712,"is_reserved":false,"is_disabled":false,"rental_uris":{"android":"levelo://app?vid=82de1c48-569b-4a75-a6bb-e4c606446216","ios":"levelo://app?vid=82de1c48-569b-4a75-a6bb-e4c606446216"},"vehicle_type_id":"4","last_reported":1770809753,"current_range_meters":4000,"station_id":"ce4bhnh2rcd13ifvqgtg","pricing_plan_id":"cebpf4jnsgd1na2vs0mg"},{"bike_id":"b1429378-b93e-4184-b373-85f0415c9919","system_id":"levelo_inurba_marseille","lat":43.24632,"lon":5.43152,"is_reserved":false,"is_disabled":false,"rental_uris":{"android":"levelo://app?vid=b1429378-b93e-4184-b373-85f0415c9919","ios":"levelo://app?vid=b1429378-b93e-4184-b373-85f0415c9919"},"vehicle_type_id":"4","last_reported":1770809753,"current_range_meters":4000,"station_id":"st_d2m6c4gdas8pm72e190g","pricing_plan_id":"cebpf4jnsgd1na2vs0mg"},{"bike_id":"9b4dfdb9-a546-48ff-8f41-79291c7a980e","system_id":"levelo_inurba_marseille","lat":43.28348,"lon":5.38098,"is_reserved":false,"is_disabled":false,"rental_uris":{"android":"levelo://app?vid=9b4dfdb9-a546-48ff-8f41-79291c7a980e","ios":"levelo://app?vid=9b4dfdb9-a546-48ff-8f41-79291c7a980e"},"vehicle_type_id":"4","last_reported":1770809753,"current_range_meters":4000,"station_id":"ce4bh412rcd13ifvqdr0","pricing_plan_id":"cebpf4jnsgd1na2vs0mg"},{"bike_id":"e2d8d0dd-6d4f-4a2a-98b9-75310dc3315a","system_id":"levelo_inurba_marseille","lat":43.29971,"lon":5.38464,"is_reserved":false,"is_disabled":true,"rental_uris":{"android":"levelo://app?vid=e2d8d0dd-6d4f-4a2a-98b9-75310dc3315a","ios":"levelo://app?vid=e2d8d0dd-6d4f-4a2a-98b9-75310dc3315a"},"vehicle_type_id":"4","last_reported":1770809753,"current_range_meters":4000,"station_id":"ce4bgj92rcd13ifvqbd0","pricing_plan_id":"cebpf4jnsgd1na2vs0mg"},{"bike_id":"61da061a-8fa7-4fa9-a032-aea0a20b22e4","system_id":"levelo_inurba_marseille","lat":43.31332,"lon":5.39693,"is_reserved":false,"is_disabled":false,"rental_uris":{"android":"levelo://app?vid=61da061a-8fa7-4fa9-a032-aea0a20b22e4","ios":"levelo://app?vid=61da061a-8fa7-4fa9-a032-aea0a20b22e4"},"vehicle_type_id":"4","last_reported":1770809753,"current_range_meters":4000,"station_id":"ce4bgvp2rcd13ifvqcu0","pricing_plan_id":"cebpf4jnsgd1na2vs0mg"},{"bike_id":"44d17b9a-a696-4502-89c1-4d2b9276205f","system_id":"levelo_inurba_marseille","lat":43.25021,"lon":5.38945,"is_reserved":false,"is_disabled":false,"rental_uris":{"android":"levelo://app?vid=44d17b9a-a696-4502-89c1-4d2b9276205f","ios":"levelo://app?vid=44d17b9a-a696-4502-89c1-4d2b9276205f"},"vehicle_type_id":"4","last_reported":1770809753,"current_range_meters":4000,"station_id":"ce4bhgp2rcd13ifvqfd0","pricing_plan_id":"cebpf4jnsgd1na2vs0mg"},{"bike_id":"c4ef5bed-2c26-45ce-9600-06cb749f2528","system_id":"levelo_inurba_marseille","lat":43.26551,"lon":5.37301,"is_reserved":false,"is_disabled":false,"rental_uris":{"android":"levelo://app?vid=c4ef5bed-2c26-45ce-9600-06cb749f2528","ios":"levelo://app?vid=c4ef5bed-2c26-45ce-9600-06cb749f2528"},"vehicle_type_id":"4","last_reported":1770809753,"current_range_meters":4400,"station_id":"ce4bhg12rcd13ifvqf70","pricing_plan_id":"cebpf4jnsgd1na2vs0mg"},{"bike_id":"475fae78-75f9-4675-8012-304224f10313","system_id":"levelo_inurba_marseille","lat":43.33555,"lon":5.37467,"is_reserved":false,"is_disabled":false,"rental_uris":{"android":"levelo://app?vid=475fae78-75f9-4675-8012-304224f10313","ios":"levelo://app?vid=475fae78-75f9-4675-8012-304224f10313"},"vehicle_type_id":"4","last_reported":1770809753,"current_range_meters":4400,"station_id":"st_d46tts09ee8s73dlu43g","pricing_plan_id":"cebpf4jnsgd1na2vs0mg"},{"bike_id":"5f7df976-2770-4b0d-bd16-1a5d3e4bd86a","system_id":"levelo_inurba_marseille","lat":43.26032,"lon":5.37556,"is_reserved":false,"is_disabled":false,"rental_uris":{"android":"levelo://app?vid=5f7df976-2770-4b0d-bd16-1a5d3e4bd86a","ios":"levelo://app?vid=5f7df976-2770-4b0d-bd16-1a5d3e4bd86a"},"vehicle_type_id":"4","last_reported":1770809753,"current_range_meters":4400,"station_id":"ce4bhgh2rcd13ifvqfa0","pricing_plan_id":"cebpf4jnsgd1na2vs0mg"},{"bike_id":"2f31b582-523e-444b-8e37-cbdb2dd8f75b","system_id":"levelo_inurba_marseille","lat":43.29619,"lon":5.37712,"is_reserved":false,"is_disabled":false,"rental_uris":{"android":"levelo://app?vid=2f31b582-523e-444b-8e37-cbdb2dd8f75b","ios":"levelo://app?vid=2f31b582-523e-444b-8e37-cbdb2dd8f75b"},"vehicle_type_id":"4","last_reported":1770809753,"current_range_meters":4400,"station_id":"ce4bgi92rcd13ifvqb90","pricing_plan_id":"cebpf4jnsgd1na2vs0mg"},{"bike_id":"41c06c37-25ef-4a9a-9ea4-51a6f37eb951","system_id":"levelo_inurba_marseille","lat":43.30955,"lon":5.39041,"is_reserved":false,"is_disabled":false,"rental_uris":{"android":"levelo://app?vid=41c06c37-25ef-4a9a-9ea4-51a6f37eb951","ios":"levelo://app?vid=41c06c37-25ef-4a9a-9ea4-51a6f37eb951"},"vehicle_type_id":"4","last_reported":1770809753,"current_range_meters":4400,"station_id":"ce4bgup2rcd13ifvqco0","pricing_plan_id":"cebpf4jnsgd1na2vs0mg"},{"bike_id":"f2a82978-5f27-4a8d-8456-8eb4101715a1","system_id":"levelo_inurba_marseille","lat":43.29044,"lon":5.39941,"is_reserved":false,"is_disabled":false,"rental_uris":{"android":"levelo://app?vid=f2a82978-5f27-4a8d-8456-8eb4101715a1","ios":"levelo://app?vid=f2a82978-5f27-4a8d-8456-8eb4101715a1"},"vehicle_type_id":"4","last_reported":1770809753,"current_range_meters":4800,"station_id":"ce4bh392rcd13ifvqdm0","pricing_plan_id":"cebpf4jnsgd1na2vs0mg"},{"bike_id":"7c118f22-9d8f-4efd-b9ce-089cb5ef30ea","system_id":"levelo_inurba_marseille","lat":43.30972,"lon":5.40147,"is_reserved":false,"is_disabled":false,"rental_uris":{"android":"levelo://app?vid=7c118f22-9d8f-4efd-b9ce-089cb5ef30ea","ios":"levelo://app?vid=7c118f22-9d8f-4efd-b9ce-089cb5ef30ea"},"vehicle_type_id":"4","last_reported":1770809753,"current_range_meters":4800,"station_id":"ce4bgvp2rcd13ifvqct0","pricing_plan_id":"cebpf4jnsgd1na2vs0mg"},{"bike_id":"e400418f-545b-40ae-ad73-b01ae029c538","system_id":"levelo_inurba_marseille","lat":43.28489,"lon":5.38442,"is_reserved":false,"is_disabled":false,"rental_uris":{"android":"levelo://app?vid=e400418f-545b-40ae-ad73-b01ae029c538","ios":"levelo://app?vid=e400418f-545b-40ae-ad73-b01ae029c538"},"vehicle_type_id":"4","last_reported":1770809753,"current_range_meters":4800,"station_id":"ce4bh512rcd13ifvqe3g","pricing_plan_id":"cebpf4jnsgd1na2vs0mg"},{"bike_id":"df33b6c2-4d7d-4d51-98fe-f6e773c9f42e","system_id":"levelo_inurba_marseille","lat":43.23151,"lon":5.43717,"is_reserved":false,"is_disabled":false,"rental_uris":{"android":"levelo://app?vid=df33b6c2-4d7d-4d51-98fe-f6e773c9f42e","ios":"levelo://app?vid=df33b6c2-4d7d-4d51-98fe-f6e773c9f42e"},"vehicle_type_id":"4","last_reported":1770809753,"current_range_meters":4800,"station_id":"ce4bhmp2rcd13ifvqgog","pricing_plan_id":"cebpf4jnsgd1na2vs0mg"},{"bike_id":"8160f88d-95ad-4be4-bed7-c4d0500edb69","system_id":"levelo_inurba_marseille","lat":43.27222,"lon":5.39195,"is_reserved":false,"is_disabled":false,"rental_uris":{"android":"levelo://app?vid=8160f88d-95ad-4be4-bed7-c4d0500edb69","ios":"levelo://app?vid=8160f88d-95ad-4be4-bed7-c4d0500edb69"},"vehicle_type_id":"4","last_reported":1770809753,"current_range_meters":4800,"station_id":"ce4bhhp2rcd13ifvqfm0","pricing_plan_id":"cebpf4jnsgd1na2vs0mg"},{"bike_id":"b0577ca1-afa8-48fa-be5c-f4673c1a2294","system_id":"levelo_inurba_marseille","lat":43.28007,"lon":5.41294,"is_reserved":false,"is_disabled":false,"rental_uris":{"android":"levelo://app?vid=b0577ca1-afa8-48fa-be5c-f4673c1a2294","ios":"levelo://app?vid=b0577ca1-afa8-48fa-be5c-f4673c1a2294"},"vehicle_type_id":"4","last_reported":1770809753,"current_range_meters":4800,"station_id":"","pricing_plan_id":"cebpf4jnsgd1na2vs0mg"},{"bike_id":"32b27b47-6c8b-49c6-8b48-fbeace627871","system_id":"levelo_inurba_marseille","lat":43.31224,"lon":5.36833,"is_reserved":false,"is_disabled":false,"rental_uris":{"android":"levelo://app?vid=32b27b47-6c8b-49c6-8b48-fbeace627871","ios":"levelo://app?vid=32b27b47-6c8b-49c6-8b48-fbeace627871"},"vehicle_type_id":"4","last_reported":1770809753,"current_range_meters":5600,"station_id":"ce4bgl92rcd13ifvqbq0","pricing_plan_id":"cebpf4jnsgd1na2vs0mg"},{"bike_id":"62639614-ff78-4e62-87c6-eade8f138be9","system_id":"levelo_inurba_marseille","lat":43.21757,"lon":5.34606,"is_reserved":false,"is_disabled":false,"rental_uris":{"android":"levelo://app?vid=62639614-ff78-4e62-87c6-eade8f138be9","ios":"levelo://app?vid=62639614-ff78-4e62-87c6-eade8f138be9"},"vehicle_type_id":"4","last_reported":1770809753,"current_range_meters":5600,"station_id":"st_cvj6r9ubvosntc0bgbag","pricing_plan_id":"cebpf4jnsgd1na2vs0mg"},{"bike_id":"100a2a73-4d9e-44eb-a7e3-94a5fa7d2701","system_id":"levelo_inurba_marseille","lat":43.231886,"lon":5.355493,"is_reserved":false,"is_disabled":false,"rental_uris":{"android":"levelo://app?vid=100a2a73-4d9e-44eb-a7e3-94a5fa7d2701","ios":"levelo://app?vid=100a2a73-4d9e-44eb-a7e3-94a5fa7d2701"},"vehicle_type_id":"4","last_reported":1770809753,"current_range_meters":5600,"station_id":"ce4bhu92rcd13ifvqi70","pricing_plan_id":"cebpf4jnsgd1na2vs0mg"},{"bike_id":"a4715621-4928-48cd-86b3-585894a4385c","system_id":"levelo_inurba_marseille","lat":43.29623,"lon":5.37166,"is_reserved":false,"is_disabled":false,"rental_uris":{"android":"levelo://app?vid=a4715621-4928-48cd-86b3-585894a4385c","ios":"levelo://app?vid=a4715621-4928-48cd-86b3-585894a4385c"},"vehicle_type_id":"4","last_reported":1770809753,"current_range_meters":5600,"station_id":"ce4bgnh2rcd13ifvqc0g","pricing_plan_id":"cebpf4jnsgd1na2vs0mg"},{"bike_id":"eb54f403-f5f5-4152-9cd4-d31f05df5ad8","system_id":"levelo_inurba_marseille","lat":43.26236,"lon":5.40433,"is_reserved":false,"is_disabled":false,"rental_uris":{"android":"levelo://app?vid=eb54f403-f5f5-4152-9cd4-d31f05df5ad8","ios":"levelo://app?vid=eb54f403-f5f5-4152-9cd4-d31f05df5ad8"},"vehicle_type_id":"4","last_reported":1770809753,"current_range_meters":5600,"station_id":"ce4bhmh2rcd13ifvqgmg","pricing_plan_id":"cebpf4jnsgd1na2vs0mg"},{"bike_id":"85718a39-a74c-4cc1-8961-d3576afb9120","system_id":"levelo_inurba_marseille","lat":43.29302,"lon":5.3746,"is_reserved":false,"is_disabled":false,"rental_uris":{"android":"levelo://app?vid=85718a39-a74c-4cc1-8961-d3576afb9120","ios":"levelo://app?vid=85718a39-a74c-4cc1-8961-d3576afb9120"},"vehicle_type_id":"4","last_reported":1770809753,"current_range_meters":5600,"station_id":"ce4bgi12rcd13ifvqb70","pricing_plan_id":"cebpf4jnsgd1na2vs0mg"},{"bike_id":"1204f32f-48a7-4bb4-b62a-774e14312070","system_id":"levelo_inurba_marseille","lat":43.24178,"lon":5.36397,"is_reserved":false,"is_disabled":false,"rental_uris":{"android":"levelo://app?vid=1204f32f-48a7-4bb4-b62a-774e14312070","ios":"levelo://app?vid=1204f32f-48a7-4bb4-b62a-774e14312070"},"vehicle_type_id":"4","last_reported":1770809753,"current_range_meters":5600,"station_id":"cpo36qri1sfpv3e86is0","pricing_plan_id":"cebpf4jnsgd1na2vs0mg"},{"bike_id":"3cf4412f-4eab-4fb4-bd6a-b9dfe83e38cc","system_id":"levelo_inurba_marseille","lat":43.24176,"lon":5.39741,"is_reserved":false,"is_disabled":false,"rental_uris":{"android":"levelo://app?vid=3cf4412f-4eab-4fb4-bd6a-b9dfe83e38cc","ios":"levelo://app?vid=3cf4412f-4eab-4fb4-bd6a-b9dfe83e38cc"},"vehicle_type_id":"4","last_reported":1770809753,"current_range_meters":6000,"station_id":"ce4bhn12rcd13ifvqgpg","pricing_plan_id":"cebpf4jnsgd1na2vs0mg"},{"bike_id":"90ee3013-44b0-4686-907c-1846968ddd2c","system_id":"levelo_inurba_marseille","lat":43.267843,"lon":5.394408,"is_reserved":false,"is_disabled":false,"rental_uris":{"android":"levelo://app?vid=90ee3013-44b0-4686-907c-1846968ddd2c","ios":"levelo://app?vid=90ee3013-44b0-4686-907c-1846968ddd2c"},"vehicle_type_id":"4","last_reported":1770809753,"current_range_meters":6000,"station_id":"ce4bhh12rcd13ifvqfg0","pricing_plan_id":"cebpf4jnsgd1na2vs0mg"},{"bike_id":"4ad60033-044d-4938-a4c8-4e5aa4ca7a3e","system_id":"levelo_inurba_marseille","lat":43.30901,"lon":5.36845,"is_reserved":false,"is_disabled":false,"rental_uris":{"android":"levelo://app?vid=4ad60033-044d-4938-a4c8-4e5aa4ca7a3e","ios":"levelo://app?vid=4ad60033-044d-4938-a4c8-4e5aa4ca7a3e"},"vehicle_type_id":"4","last_reported":1770809753,"current_range_meters":6000,"station_id":"ce4bgn92rcd13ifvqbvg","pricing_plan_id":"cebpf4jnsgd1na2vs0mg"},{"bike_id":"d99d8fe4-b2b7-4ecd-b5db-4cee32291c21","system_id":"levelo_inurba_marseille","lat":43.239648,"lon":5.366319,"is_reserved":false,"is_disabled":false,"rental_uris":{"android":"levelo://app?vid=d99d8fe4-b2b7-4ecd-b5db-4cee32291c21","ios":"levelo://app?vid=d99d8fe4-b2b7-4ecd-b5db-4cee32291c21"},"vehicle_type_id":"4","last_reported":1770809753,"current_range_meters":6000,"station_id":"ce4bhi12rcd13ifvqfp0","pricing_plan_id":"cebpf4jnsgd1na2vs0mg"},{"bike_id":"8e35b4a3-d3cf-421a-ba3e-70025d86362e","system_id":"levelo_inurba_marseille","lat":43.27954,"lon":5.41054,"is_reserved":false,"is_disabled":false,"rental_uris":{"android":"levelo://app?vid=8e35b4a3-d3cf-421a-ba3e-70025d86362e","ios":"levelo://app?vid=8e35b4a3-d3cf-421a-ba3e-70025d86362e"},"vehicle_type_id":"4","last_reported":1770809753,"current_range_meters":6000,"station_id":"ce4bhnp2rcd13ifvqh0g","pricing_plan_id":"cebpf4jnsgd1na2vs0mg"},{"bike_id":"765c75d1-493f-4748-9dc7-70c46115be3a","system_id":"levelo_inurba_marseille","lat":43.2901,"lon":5.35612,"is_reserved":false,"is_disabled":false,"rental_uris":{"android":"levelo://app?vid=765c75d1-493f-4748-9dc7-70c46115be3a","ios":"levelo://app?vid=765c75d1-493f-4748-9dc7-70c46115be3a"},"vehicle_type_id":"4","last_reported":1770809753,"current_range_meters":6000,"station_id":"ce4bhb92rcd13ifvqen0","pricing_plan_id":"cebpf4jnsgd1na2vs0mg"},{"bike_id":"6f6a04ad-dd00-4f4a-bdfd-a835cfa0cc11","system_id":"levelo_inurba_marseille","lat":43.27075,"lon":5.38311,"is_reserved":false,"is_disabled":false,"rental_uris":{"android":"levelo://app?vid=6f6a04ad-dd00-4f4a-bdfd-a835cfa0cc11","ios":"levelo://app?vid=6f6a04ad-dd00-4f4a-bdfd-a835cfa0cc11"},"vehicle_type_id":"4","last_reported":1770809753,"current_range_meters":6400,"station_id":"st_d3n2fo6cfp8s73cte1j0","pricing_plan_id":"cebpf4jnsgd1na2vs0mg"},{"bike_id":"60c2c944-fc00-4d7a-8415-4900c96e89f7","system_id":"levelo_inurba_marseille","lat":43.30464,"lon":5.37902,"is_reserved":false,"is_disabled":false,"rental_uris":{"android":"levelo://app?vid=60c2c944-fc00-4d7a-8415-4900c96e89f7","ios":"levelo://app?vid=60c2c944-fc00-4d7a-8415-4900c96e89f7"},"vehicle_type_id":"4","last_reported":1770809753,"current_range_meters":6400,"station_id":"ce4bgup2rcd13ifvqcn0","pricing_plan_id":"cebpf4jnsgd1na2vs0mg"},{"bike_id":"e4393e86-b30a-45ea-b104-a7a8da4a078d","system_id":"levelo_inurba_marseille","lat":43.337444,"lon":5.374475,"is_reserved":false,"is_disabled":false,"rental_uris":{"android":"levelo://app?vid=e4393e86-b30a-45ea-b104-a7a8da4a078d","ios":"levelo://app?vid=e4393e86-b30a-45ea-b104-a7a8da4a078d"},"vehicle_type_id":"4","last_reported":1770809753,"current_range_meters":6400,"station_id":"","pricing_plan_id":"cebpf4jnsgd1na2vs0mg"},{"bike_id":"5cf9d7d0-1017-4de2-80da-237bbfab2da7","system_id":"levelo_inurba_marseille","lat":43.2319,"lon":5.39979,"is_reserved":false,"is_disabled":false,"rental_uris":{"android":"levelo://app?vid=5cf9d7d0-1017-4de2-80da-237bbfab2da7","ios":"levelo://app?vid=5cf9d7d0-1017-4de2-80da-237bbfab2da7"},"vehicle_type_id":"4","last_reported":1770809753,"current_range_meters":6400,"station_id":"ce4bhn12rcd13ifvqgqg","pricing_plan_id":"cebpf4jnsgd1na2vs0mg"},{"bike_id":"f566875e-5642-41c3-af4a-390fbf63f0fb","system_id":"levelo_inurba_marseille","lat":43.28435,"lon":5.38094,"is_reserved":false,"is_disabled":false,"rental_uris":{"android":"levelo://app?vid=f566875e-5642-41c3-af4a-390fbf63f0fb","ios":"levelo://app?vid=f566875e-5642-41c3-af4a-390fbf63f0fb"},"vehicle_type_id":"4","last_reported":1770809753,"current_range_meters":6400,"station_id":"","pricing_plan_id":"cebpf4jnsgd1na2vs0mg"},{"bike_id":"774647ab-afd2-472c-b3ee-3701d6387862","system_id":"levelo_inurba_marseille","lat":43.30538,"lon":5.36701,"is_reserved":false,"is_disabled":false,"rental_uris":{"android":"levelo://app?vid=774647ab-afd2-472c-b3ee-3701d6387862","ios":"levelo://app?vid=774647ab-afd2-472c-b3ee-3701d6387862"},"vehicle_type_id":"4","last_reported":1770809753,"current_range_meters":6400,"station_id":"ce4bgrp2rcd13ifvqc9g","pricing_plan_id":"cebpf4jnsgd1na2vs0mg"},{"bike_id":"d05c6341-3d97-4e14-b4df-ea14d40bb1eb","system_id":"levelo_inurba_marseille","lat":43.30557,"lon":5.36552,"is_reserved":false,"is_disabled":false,"rental_uris":{"android":"levelo://app?vid=d05c6341-3d97-4e14-b4df-ea14d40bb1eb","ios":"levelo://app?vid=d05c6341-3d97-4e14-b4df-ea14d40bb1eb"},"vehicle_type_id":"4","last_reported":1770809753,"current_range_meters":6400,"station_id":"ce4bgs12rcd13ifvqcag","pricing_plan_id":"cebpf4jnsgd1na2vs0mg"},{"bike_id":"17f780a6-59f5-43c1-9398-e1e34cab8a79","system_id":"levelo_inurba_marseille","lat":43.26789,"lon":5.39415,"is_reserved":false,"is_disabled":false,"rental_uris":{"android":"levelo://app?vid=17f780a6-59f5-43c1-9398-e1e34cab8a79","ios":"levelo://app?vid=17f780a6-59f5-43c1-9398-e1e34cab8a79"},"vehicle_type_id":"4","last_reported":1770809753,"current_range_meters":6400,"station_id":"ce4bhh12rcd13ifvqfg0","pricing_plan_id":"cebpf4jnsgd1na2vs0mg"},{"bike_id":"230aafc4-a18a-4d85-a1ca-a778f8668aef","system_id":"levelo_inurba_marseille","lat":43.24071,"lon":5.37767,"is_reserved":false,"is_disabled":false,"rental_uris":{"android":"levelo://app?vid=230aafc4-a18a-4d85-a1ca-a778f8668aef","ios":"levelo://app?vid=230aafc4-a18a-4d85-a1ca-a778f8668aef"},"vehicle_type_id":"4","last_reported":1770809753,"current_range_meters":6400,"station_id":"ce4bhnp2rcd13ifvqgvg","pricing_plan_id":"cebpf4jnsgd1na2vs0mg"},{"bike_id":"82c051d1-822f-4de0-8095-c2773742c990","system_id":"levelo_inurba_marseille","lat":43.24635,"lon":5.43147,"is_reserved":false,"is_disabled":false,"rental_uris":{"android":"levelo://app?vid=82c051d1-822f-4de0-8095-c2773742c990","ios":"levelo://app?vid=82c051d1-822f-4de0-8095-c2773742c990"},"vehicle_type_id":"4","last_reported":1770809753,"current_range_meters":6800,"station_id":"st_d2m6c4gdas8pm72e190g","pricing_plan_id":"cebpf4jnsgd1na2vs0mg"},{"bike_id":"12e25239-2b17-40f9-968b-1014b57e13b1","system_id":"levelo_inurba_marseille","lat":43.27997,"lon":5.41672,"is_reserved":false,"is_disabled":false,"rental_uris":{"android":"levelo://app?vid=12e25239-2b17-40f9-968b-1014b57e13b1","ios":"levelo://app?vid=12e25239-2b17-40f9-968b-1014b57e13b1"},"vehicle_type_id":"4","last_reported":1770809753,"current_range_meters":6800,"station_id":"ce4bho12rcd13ifvqh1g","pricing_plan_id":"cebpf4jnsgd1na2vs0mg"},{"bike_id":"195129a7-492c-4a00-92c9-6590be19f8d4","system_id":"levelo_inurba_marseille","lat":43.29494,"lon":5.433084,"is_reserved":false,"is_disabled":false,"rental_uris":{"android":"levelo://app?vid=195129a7-492c-4a00-92c9-6590be19f8d4","ios":"levelo://app?vid=195129a7-492c-4a00-92c9-6590be19f8d4"},"vehicle_type_id":"4","last_reported":1770809753,"current_range_meters":6800,"station_id":"st_d3j5ugp08ojc73fj9d10","pricing_plan_id":"cebpf4jnsgd1na2vs0mg"},{"bike_id":"1c120683-67bc-428a-aa0f-bec572dfb863","system_id":"levelo_inurba_marseille","lat":43.25577,"lon":5.3823,"is_reserved":false,"is_disabled":false,"rental_uris":{"android":"levelo://app?vid=1c120683-67bc-428a-aa0f-bec572dfb863","ios":"levelo://app?vid=1c120683-67bc-428a-aa0f-bec572dfb863"},"vehicle_type_id":"4","last_reported":1770809753,"current_range_meters":6800,"station_id":"ce4bhih2rcd13ifvqfs0","pricing_plan_id":"cebpf4jnsgd1na2vs0mg"},{"bike_id":"d3ff72dc-5551-4917-81f1-dd8f1a42992a","system_id":"levelo_inurba_marseille","lat":43.31286,"lon":5.36779,"is_reserved":false,"is_disabled":false,"rental_uris":{"android":"levelo://app?vid=d3ff72dc-5551-4917-81f1-dd8f1a42992a","ios":"levelo://app?vid=d3ff72dc-5551-4917-81f1-dd8f1a42992a"},"vehicle_type_id":"4","last_reported":1770809753,"current_range_meters":6800,"station_id":"","pricing_plan_id":"cebpf4jnsgd1na2vs0mg"},{"bike_id":"1c5cf88e-bae0-4a7f-af92-27de33575267","system_id":"levelo_inurba_marseille","lat":43.25885,"lon":5.39894,"is_reserved":false,"is_disabled":false,"rental_uris":{"android":"levelo://app?vid=1c5cf88e-bae0-4a7f-af92-27de33575267","ios":"levelo://app?vid=1c5cf88e-bae0-4a7f-af92-27de33575267"},"vehicle_type_id":"4","last_reported":1770809753,"current_range_meters":6800,"station_id":"ce4bhl92rcd13ifvqghg","pricing_plan_id":"cebpf4jnsgd1na2vs0mg"},{"bike_id":"4659f5f2-43a6-4213-b84f-184d5dec64b3","system_id":"levelo_inurba_marseille","lat":43.33555,"lon":5.37467,"is_reserved":false,"is_disabled":false,"rental_uris":{"android":"levelo://app?vid=4659f5f2-43a6-4213-b84f-184d5dec64b3","ios":"levelo://app?vid=4659f5f2-43a6-4213-b84f-184d5dec64b3"},"vehicle_type_id":"4","last_reported":1770809753,"current_range_meters":6800,"station_id":"st_d46tts09ee8s73dlu43g","pricing_plan_id":"cebpf4jnsgd1na2vs0mg"},{"bike_id":"0415f26c-4d21-4b4e-aeeb-299f12b793c1","system_id":"levelo_inurba_marseille","lat":43.25477,"lon":5.37656,"is_reserved":false,"is_disabled":false,"rental_uris":{"android":"levelo://app?vid=0415f26c-4d21-4b4e-aeeb-299f12b793c1","ios":"levelo://app?vid=0415f26c-4d21-4b4e-aeeb-299f12b793c1"},"vehicle_type_id":"4","last_reported":1770809753,"current_range_meters":6800,"station_id":"ce4bhh12rcd13ifvqff0","pricing_plan_id":"cebpf4jnsgd1na2vs0mg"},{"bike_id":"a89fd987-a49c-4cc5-ba9e-3a3eb87d07d0","system_id":"levelo_inurba_marseille","lat":43.29011,"lon":5.35611,"is_reserved":false,"is_disabled":false,"rental_uris":{"android":"levelo://app?vid=a89fd987-a49c-4cc5-ba9e-3a3eb87d07d0","ios":"levelo://app?vid=a89fd987-a49c-4cc5-ba9e-3a3eb87d07d0"},"vehicle_type_id":"4","last_reported":1770809753,"current_range_meters":6800,"station_id":"ce4bhb92rcd13ifvqen0","pricing_plan_id":"cebpf4jnsgd1na2vs0mg"},{"bike_id":"69cb53c0-4939-4da6-a53e-35e4cb2de7f7","system_id":"levelo_inurba_marseille","lat":43.22568,"lon":5.41624,"is_reserved":false,"is_disabled":false,"rental_uris":{"android":"levelo://app?vid=69cb53c0-4939-4da6-a53e-35e4cb2de7f7","ios":"levelo://app?vid=69cb53c0-4939-4da6-a53e-35e4cb2de7f7"},"vehicle_type_id":"4","last_reported":1770809753,"current_range_meters":6800,"station_id":"st_d2o4gvlbi1j2169b742g","pricing_plan_id":"cebpf4jnsgd1na2vs0mg"},{"bike_id":"5ed0f3ca-c4eb-409c-9eb1-a3eed1b5d0e0","system_id":"levelo_inurba_marseille","lat":43.30391,"lon":5.42482,"is_reserved":false,"is_disabled":false,"rental_uris":{"android":"levelo://app?vid=5ed0f3ca-c4eb-409c-9eb1-a3eed1b5d0e0","ios":"levelo://app?vid=5ed0f3ca-c4eb-409c-9eb1-a3eed1b5d0e0"},"vehicle_type_id":"4","last_reported":1770809753,"current_range_meters":6800,"station_id":"ce4bhoh2rcd13ifvqh6g","pricing_plan_id":"cebpf4jnsgd1na2vs0mg"},{"bike_id":"a595811d-e4a2-4edd-bc38-2905c562c34e","system_id":"levelo_inurba_marseille","lat":43.33555,"lon":5.37472,"is_reserved":false,"is_disabled":false,"rental_uris":{"android":"levelo://app?vid=a595811d-e4a2-4edd-bc38-2905c562c34e","ios":"levelo://app?vid=a595811d-e4a2-4edd-bc38-2905c562c34e"},"vehicle_type_id":"4","last_reported":1770809753,"current_range_meters":6800,"station_id":"st_d46tts09ee8s73dlu43g","pricing_plan_id":"cebpf4jnsgd1na2vs0mg"},{"bike_id":"81f100a2-2fb3-4f88-92eb-bceb3e4ad13d","system_id":"levelo_inurba_marseille","lat":43.2319,"lon":5.35555,"is_reserved":false,"is_disabled":false,"rental_uris":{"android":"levelo://app?vid=81f100a2-2fb3-4f88-92eb-bceb3e4ad13d","ios":"levelo://app?vid=81f100a2-2fb3-4f88-92eb-bceb3e4ad13d"},"vehicle_type_id":"4","last_reported":1770809753,"current_range_meters":6800,"station_id":"ce4bhu92rcd13ifvqi70","pricing_plan_id":"cebpf4jnsgd1na2vs0mg"},{"bike_id":"1448c9ce-d568-4f77-9f2b-dca45ac4e256","system_id":"levelo_inurba_marseille","lat":43.273727,"lon":5.362659,"is_reserved":false,"is_disabled":false,"rental_uris":{"android":"levelo://app?vid=1448c9ce-d568-4f77-9f2b-dca45ac4e256","ios":"levelo://app?vid=1448c9ce-d568-4f77-9f2b-dca45ac4e256"},"vehicle_type_id":"4","last_reported":1770809753,"current_range_meters":7200,"station_id":"ce4bhbh2rcd13ifvqeo0","pricing_plan_id":"cebpf4jnsgd1na2vs0mg"},{"bike_id":"8bcb3d48-3e86-4599-95ad-0f40de7ab7c3","system_id":"levelo_inurba_marseille","lat":43.24548,"lon":5.39521,"is_reserved":false,"is_disabled":false,"rental_uris":{"android":"levelo://app?vid=8bcb3d48-3e86-4599-95ad-0f40de7ab7c3","ios":"levelo://app?vid=8bcb3d48-3e86-4599-95ad-0f40de7ab7c3"},"vehicle_type_id":"4","last_reported":1770809753,"current_range_meters":7200,"station_id":"ce4bhlp2rcd13ifvqgjg","pricing_plan_id":"cebpf4jnsgd1na2vs0mg"},{"bike_id":"c6176d61-506f-4755-a0d6-6ccb9566f89a","system_id":"levelo_inurba_marseille","lat":43.25691,"lon":5.41115,"is_reserved":false,"is_disabled":false,"rental_uris":{"android":"levelo://app?vid=c6176d61-506f-4755-a0d6-6ccb9566f89a","ios":"levelo://app?vid=c6176d61-506f-4755-a0d6-6ccb9566f89a"},"vehicle_type_id":"4","last_reported":1770809753,"current_range_meters":7200,"station_id":"ce4bhkp2rcd13ifvqgd0","pricing_plan_id":"cebpf4jnsgd1na2vs0mg"},{"bike_id":"8d50b418-d397-4808-ad5c-a81963abfec2","system_id":"levelo_inurba_marseille","lat":43.29009,"lon":5.35608,"is_reserved":false,"is_disabled":false,"rental_uris":{"android":"levelo://app?vid=8d50b418-d397-4808-ad5c-a81963abfec2","ios":"levelo://app?vid=8d50b418-d397-4808-ad5c-a81963abfec2"},"vehicle_type_id":"4","last_reported":1770809753,"current_range_meters":7200,"station_id":"ce4bhb92rcd13ifvqen0","pricing_plan_id":"cebpf4jnsgd1na2vs0mg"},{"bike_id":"78bdbec6-3ec1-4b90-8a6c-8222c94ec8b4","system_id":"levelo_inurba_marseille","lat":43.31077,"lon":5.37185,"is_reserved":false,"is_disabled":false,"rental_uris":{"android":"levelo://app?vid=78bdbec6-3ec1-4b90-8a6c-8222c94ec8b4","ios":"levelo://app?vid=78bdbec6-3ec1-4b90-8a6c-8222c94ec8b4"},"vehicle_type_id":"4","last_reported":1770809753,"current_range_meters":7200,"station_id":"st_d4kl2rp97mjs73e7tdfg","pricing_plan_id":"cebpf4jnsgd1na2vs0mg"},{"bike_id":"bdde70ef-70ce-4d41-a03b-1cac73853d63","system_id":"levelo_inurba_marseille","lat":43.24163,"lon":5.36413,"is_reserved":false,"is_disabled":false,"rental_uris":{"android":"levelo://app?vid=bdde70ef-70ce-4d41-a03b-1cac73853d63","ios":"levelo://app?vid=bdde70ef-70ce-4d41-a03b-1cac73853d63"},"vehicle_type_id":"4","last_reported":1770809753,"current_range_meters":7200,"station_id":"cpo36qri1sfpv3e86is0","pricing_plan_id":"cebpf4jnsgd1na2vs0mg"},{"bike_id":"27dd483e-487f-4323-96b1-197710530e5c","system_id":"levelo_inurba_marseille","lat":43.28667,"lon":5.36358,"is_reserved":false,"is_disabled":false,"rental_uris":{"android":"levelo://app?vid=27dd483e-487f-4323-96b1-197710530e5c","ios":"levelo://app?vid=27dd483e-487f-4323-96b1-197710530e5c"},"vehicle_type_id":"4","last_reported":1770809753,"current_range_meters":7200,"station_id":"ce4bhah2rcd13ifvqej0","pricing_plan_id":"cebpf4jnsgd1na2vs0mg"},{"bike_id":"d4ca1552-174d-4ef7-a9fa-51001d780ed8","system_id":"levelo_inurba_marseille","lat":43.31707,"lon":5.43721,"is_reserved":false,"is_disabled":false,"rental_uris":{"android":"levelo://app?vid=d4ca1552-174d-4ef7-a9fa-51001d780ed8","ios":"levelo://app?vid=d4ca1552-174d-4ef7-a9fa-51001d780ed8"},"vehicle_type_id":"4","last_reported":1770809753,"current_range_meters":8000,"station_id":"ce4bhp92rcd13ifvqhcg","pricing_plan_id":"cebpf4jnsgd1na2vs0mg"},{"bike_id":"a8033c18-bf59-458a-9eb0-147256918905","system_id":"levelo_inurba_marseille","lat":43.31045,"lon":5.3718,"is_reserved":false,"is_disabled":false,"rental_uris":{"android":"levelo://app?vid=a8033c18-bf59-458a-9eb0-147256918905","ios":"levelo://app?vid=a8033c18-bf59-458a-9eb0-147256918905"},"vehicle_type_id":"4","last_reported":1770809753,"current_range_meters":8000,"station_id":"st_d4kl2rp97mjs73e7tdfg","pricing_plan_id":"cebpf4jnsgd1na2vs0mg"},{"bike_id":"d6b9d7ff-4ec2-4ca9-ba28-5a5dad54cfd3","system_id":"levelo_inurba_marseille","lat":43.2848,"lon":5.48395,"is_reserved":false,"is_disabled":false,"rental_uris":{"android":"levelo://app?vid=d6b9d7ff-4ec2-4ca9-ba28-5a5dad54cfd3","ios":"levelo://app?vid=d6b9d7ff-4ec2-4ca9-ba28-5a5dad54cfd3"},"vehicle_type_id":"4","last_reported":1770809753,"current_range_meters":8000,"station_id":"","pricing_plan_id":"cebpf4jnsgd1na2vs0mg"},{"bike_id":"8ff4a9fa-0d2e-4f7f-8193-e7a8dba5ca9a","system_id":"levelo_inurba_marseille","lat":43.25342,"lon":5.42177,"is_reserved":false,"is_disabled":false,"rental_uris":{"android":"levelo://app?vid=8ff4a9fa-0d2e-4f7f-8193-e7a8dba5ca9a","ios":"levelo://app?vid=8ff4a9fa-0d2e-4f7f-8193-e7a8dba5ca9a"},"vehicle_type_id":"4","last_reported":1770809753,"current_range_meters":8000,"station_id":"st_d2m65c5bi1j21697t3ng","pricing_plan_id":"cebpf4jnsgd1na2vs0mg"},{"bike_id":"89d39ede-d84b-4b38-8e0d-c06904d15490","system_id":"levelo_inurba_marseille","lat":43.27053,"lon":5.40259,"is_reserved":false,"is_disabled":false,"rental_uris":{"android":"levelo://app?vid=89d39ede-d84b-4b38-8e0d-c06904d15490","ios":"levelo://app?vid=89d39ede-d84b-4b38-8e0d-c06904d15490"},"vehicle_type_id":"4","last_reported":1770809753,"current_range_meters":8000,"station_id":"ce4bhk92rcd13ifvqgc0","pricing_plan_id":"cebpf4jnsgd1na2vs0mg"},{"bike_id":"28da66f8-2004-4492-b048-093018453bae","system_id":"levelo_inurba_marseille","lat":43.296041,"lon":5.376986,"is_reserved":false,"is_disabled":false,"rental_uris":{"android":"levelo://app?vid=28da66f8-2004-4492-b048-093018453bae","ios":"levelo://app?vid=28da66f8-2004-4492-b048-093018453bae"},"vehicle_type_id":"4","last_reported":1770809753,"current_range_meters":8000,"station_id":"ce4bgi92rcd13ifvqb90","pricing_plan_id":"cebpf4jnsgd1na2vs0mg"},{"bike_id":"6efe5f0a-6c4f-403e-907f-5428484845d2","system_id":"levelo_inurba_marseille","lat":43.31706,"lon":5.40392,"is_reserved":false,"is_disabled":false,"rental_uris":{"android":"levelo://app?vid=6efe5f0a-6c4f-403e-907f-5428484845d2","ios":"levelo://app?vid=6efe5f0a-6c4f-403e-907f-5428484845d2"},"vehicle_type_id":"4","last_reported":1770809753,"current_range_meters":8000,"station_id":"","pricing_plan_id":"cebpf4jnsgd1na2vs0mg"},{"bike_id":"33352d89-c7bd-4d2f-8796-2f3b2fb0783e","system_id":"levelo_inurba_marseille","lat":43.28171,"lon":5.42681,"is_reserved":false,"is_disabled":false,"rental_uris":{"android":"levelo://app?vid=33352d89-c7bd-4d2f-8796-2f3b2fb0783e","ios":"levelo://app?vid=33352d89-c7bd-4d2f-8796-2f3b2fb0783e"},"vehicle_type_id":"4","last_reported":1770809753,"current_range_meters":8000,"station_id":"ce4bhnh2rcd13ifvqgug","pricing_plan_id":"cebpf4jnsgd1na2vs0mg"},{"bike_id":"0db530a1-9821-453a-878e-fb6063868eb6","system_id":"levelo_inurba_marseille","lat":43.22937,"lon":5.35379,"is_reserved":false,"is_disabled":false,"rental_uris":{"android":"levelo://app?vid=0db530a1-9821-453a-878e-fb6063868eb6","ios":"levelo://app?vid=0db530a1-9821-453a-878e-fb6063868eb6"},"vehicle_type_id":"4","last_reported":1770809753,"current_range_meters":8000,"station_id":"cpo3532slgdg3j2ikp40","pricing_plan_id":"cebpf4jnsgd1na2vs0mg"},{"bike_id":"f19f9bc2-e641-4afc-b5d1-9e43ea855c89","system_id":"levelo_inurba_marseille","lat":43.27224,"lon":5.3919,"is_reserved":false,"is_disabled":false,"rental_uris":{"android":"levelo://app?vid=f19f9bc2-e641-4afc-b5d1-9e43ea855c89","ios":"levelo://app?vid=f19f9bc2-e641-4afc-b5d1-9e43ea855c89"},"vehicle_type_id":"4","last_reported":1770809753,"current_range_meters":8000,"station_id":"ce4bhhp2rcd13ifvqfm0","pricing_plan_id":"cebpf4jnsgd1na2vs0mg"},{"bike_id":"68b42462-7449-482b-952f-51c362fbca73","system_id":"levelo_inurba_marseille","lat":43.27322,"lon":5.39078,"is_reserved":false,"is_disabled":false,"rental_uris":{"android":"levelo://app?vid=68b42462-7449-482b-952f-51c362fbca73","ios":"levelo://app?vid=68b42462-7449-482b-952f-51c362fbca73"},"vehicle_type_id":"4","last_reported":1770809753,"current_range_meters":8000,"station_id":"ce4bhgp2rcd13ifvqfe0","pricing_plan_id":"cebpf4jnsgd1na2vs0mg"},{"bike_id":"055c6dc6-0b14-4e33-b64d-c24d1a721be6","system_id":"levelo_inurba_marseille","lat":43.31186,"lon":5.38708,"is_reserved":false,"is_disabled":false,"rental_uris":{"android":"levelo://app?vid=055c6dc6-0b14-4e33-b64d-c24d1a721be6","ios":"levelo://app?vid=055c6dc6-0b14-4e33-b64d-c24d1a721be6"},"vehicle_type_id":"4","last_reported":1770809753,"current_range_meters":8000,"station_id":"ce4bgv12rcd13ifvqcp0","pricing_plan_id":"cebpf4jnsgd1na2vs0mg"},{"bike_id":"91e14193-ec23-43c7-b089-41b3b3307db5","system_id":"levelo_inurba_marseille","lat":43.28619,"lon":5.35098,"is_reserved":false,"is_disabled":false,"rental_uris":{"android":"levelo://app?vid=91e14193-ec23-43c7-b089-41b3b3307db5","ios":"levelo://app?vid=91e14193-ec23-43c7-b089-41b3b3307db5"},"vehicle_type_id":"4","last_reported":1770809753,"current_range_meters":8400,"station_id":"ce4bhch2rcd13ifvqeug","pricing_plan_id":"cebpf4jnsgd1na2vs0mg"},{"bike_id":"fe86c9ba-789d-48cb-b139-57215407552e","system_id":"levelo_inurba_marseille","lat":43.337584,"lon":5.374636,"is_reserved":false,"is_disabled":false,"rental_uris":{"android":"levelo://app?vid=fe86c9ba-789d-48cb-b139-57215407552e","ios":"levelo://app?vid=fe86c9ba-789d-48cb-b139-57215407552e"},"vehicle_type_id":"4","last_reported":1770809753,"current_range_meters":8400,"station_id":"","pricing_plan_id":"cebpf4jnsgd1na2vs0mg"},{"bike_id":"1a0d99f0-ee74-4956-bad4-992b0789ccc7","system_id":"levelo_inurba_marseille","lat":43.21198,"lon":5.35071,"is_reserved":false,"is_disabled":false,"rental_uris":{"android":"levelo://app?vid=1a0d99f0-ee74-4956-bad4-992b0789ccc7","ios":"levelo://app?vid=1a0d99f0-ee74-4956-bad4-992b0789ccc7"},"vehicle_type_id":"4","last_reported":1770809753,"current_range_meters":8400,"station_id":"st_cvj6sg6p6f1abm77japg","pricing_plan_id":"cebpf4jnsgd1na2vs0mg"},{"bike_id":"9c4fa197-e784-47a1-9a3e-1e64aa186f14","system_id":"levelo_inurba_marseille","lat":43.25943,"lon":5.40918,"is_reserved":false,"is_disabled":false,"rental_uris":{"android":"levelo://app?vid=9c4fa197-e784-47a1-9a3e-1e64aa186f14","ios":"levelo://app?vid=9c4fa197-e784-47a1-9a3e-1e64aa186f14"},"vehicle_type_id":"4","last_reported":1770809753,"current_range_meters":8400,"station_id":"ce4bhm92rcd13ifvqglg","pricing_plan_id":"cebpf4jnsgd1na2vs0mg"},{"bike_id":"07738402-8b6a-407f-ac1f-f1a117a865bf","system_id":"levelo_inurba_marseille","lat":43.28254,"lon":5.39091,"is_reserved":false,"is_disabled":false,"rental_uris":{"android":"levelo://app?vid=07738402-8b6a-407f-ac1f-f1a117a865bf","ios":"levelo://app?vid=07738402-8b6a-407f-ac1f-f1a117a865bf"},"vehicle_type_id":"4","last_reported":1770809753,"current_range_meters":8400,"station_id":"ce4bhn92rcd13ifvqgsg","pricing_plan_id":"cebpf4jnsgd1na2vs0mg"},{"bike_id":"e8c48038-5049-4d97-8b17-bc22b934bdc2","system_id":"levelo_inurba_marseille","lat":43.25108,"lon":5.395,"is_reserved":false,"is_disabled":false,"rental_uris":{"android":"levelo://app?vid=e8c48038-5049-4d97-8b17-bc22b934bdc2","ios":"levelo://app?vid=e8c48038-5049-4d97-8b17-bc22b934bdc2"},"vehicle_type_id":"4","last_reported":1770809753,"current_range_meters":8400,"station_id":"ce4bhm12rcd13ifvqgkg","pricing_plan_id":"cebpf4jnsgd1na2vs0mg"},{"bike_id":"2b14cda8-f3bd-489e-b3e7-87e7ea87fd93","system_id":"levelo_inurba_marseille","lat":43.30142,"lon":5.37425,"is_reserved":false,"is_disabled":false,"rental_uris":{"android":"levelo://app?vid=2b14cda8-f3bd-489e-b3e7-87e7ea87fd93","ios":"levelo://app?vid=2b14cda8-f3bd-489e-b3e7-87e7ea87fd93"},"vehicle_type_id":"4","last_reported":1770809753,"current_range_meters":8400,"station_id":"ce4bgs92rcd13ifvqcc0","pricing_plan_id":"cebpf4jnsgd1na2vs0mg"},{"bike_id":"ae861497-9a22-4231-afa9-8238d5c5713c","system_id":"levelo_inurba_marseille","lat":43.24168,"lon":5.36385,"is_reserved":false,"is_disabled":false,"rental_uris":{"android":"levelo://app?vid=ae861497-9a22-4231-afa9-8238d5c5713c","ios":"levelo://app?vid=ae861497-9a22-4231-afa9-8238d5c5713c"},"vehicle_type_id":"4","last_reported":1770809753,"current_range_meters":8400,"station_id":"cpo36qri1sfpv3e86is0","pricing_plan_id":"cebpf4jnsgd1na2vs0mg"},{"bike_id":"d373c67d-1dce-4200-b1fc-e555d3a72522","system_id":"levelo_inurba_marseille","lat":43.30166,"lon":5.374075,"is_reserved":false,"is_disabled":false,"rental_uris":{"android":"levelo://app?vid=d373c67d-1dce-4200-b1fc-e555d3a72522","ios":"levelo://app?vid=d373c67d-1dce-4200-b1fc-e555d3a72522"},"vehicle_type_id":"4","last_reported":1770809753,"current_range_meters":8400,"station_id":"ce4bgs92rcd13ifvqcc0","pricing_plan_id":"cebpf4jnsgd1na2vs0mg"},{"bike_id":"5fda65b6-7f98-4bf6-b2de-a2c95ed917cc","system_id":"levelo_inurba_marseille","lat":43.2544,"lon":5.3845,"is_reserved":false,"is_disabled":false,"rental_uris":{"android":"levelo://app?vid=5fda65b6-7f98-4bf6-b2de-a2c95ed917cc","ios":"levelo://app?vid=5fda65b6-7f98-4bf6-b2de-a2c95ed917cc"},"vehicle_type_id":"4","last_reported":1770809753,"current_range_meters":8400,"station_id":"","pricing_plan_id":"cebpf4jnsgd1na2vs0mg"},{"bike_id":"bf60f23b-1c8a-4d39-bb55-b3fe30d11cb8","system_id":"levelo_inurba_marseille","lat":43.30156,"lon":5.43095,"is_reserved":false,"is_disabled":false,"rental_uris":{"android":"levelo://app?vid=bf60f23b-1c8a-4d39-bb55-b3fe30d11cb8","ios":"levelo://app?vid=bf60f23b-1c8a-4d39-bb55-b3fe30d11cb8"},"vehicle_type_id":"4","last_reported":1770809753,"current_range_meters":8400,"station_id":"st_d3js3co5814s73ftftug","pricing_plan_id":"cebpf4jnsgd1na2vs0mg"},{"bike_id":"62fadeaf-8f37-40d1-9309-c9fced425267","system_id":"levelo_inurba_marseille","lat":43.24179,"lon":5.39736,"is_reserved":false,"is_disabled":false,"rental_uris":{"android":"levelo://app?vid=62fadeaf-8f37-40d1-9309-c9fced425267","ios":"levelo://app?vid=62fadeaf-8f37-40d1-9309-c9fced425267"},"vehicle_type_id":"4","last_reported":1770809753,"current_range_meters":8400,"station_id":"ce4bhn12rcd13ifvqgpg","pricing_plan_id":"cebpf4jnsgd1na2vs0mg"},{"bike_id":"924f417a-3be5-4cdd-8a49-c8f1a8be8421","system_id":"levelo_inurba_marseille","lat":43.26229,"lon":5.40457,"is_reserved":false,"is_disabled":false,"rental_uris":{"android":"levelo://app?vid=924f417a-3be5-4cdd-8a49-c8f1a8be8421","ios":"levelo://app?vid=924f417a-3be5-4cdd-8a49-c8f1a8be8421"},"vehicle_type_id":"4","last_reported":1770809753,"current_range_meters":8400,"station_id":"ce4bhmh2rcd13ifvqgmg","pricing_plan_id":"cebpf4jnsgd1na2vs0mg"},{"bike_id":"cc43a2a6-4df1-46ee-89a5-e5908a5338ed","system_id":"levelo_inurba_marseille","lat":43.284781,"lon":5.483882,"is_reserved":false,"is_disabled":false,"rental_uris":{"android":"levelo://app?vid=cc43a2a6-4df1-46ee-89a5-e5908a5338ed","ios":"levelo://app?vid=cc43a2a6-4df1-46ee-89a5-e5908a5338ed"},"vehicle_type_id":"4","last_reported":1770809753,"current_range_meters":8400,"station_id":"st_d3svhcjqgbts73a3dn0g","pricing_plan_id":"cebpf4jnsgd1na2vs0mg"},{"bike_id":"e44df137-3a9f-4865-a2d3-769a6f5bfc14","system_id":"levelo_inurba_marseille","lat":43.30952,"lon":5.36846,"is_reserved":false,"is_disabled":false,"rental_uris":{"android":"levelo://app?vid=e44df137-3a9f-4865-a2d3-769a6f5bfc14","ios":"levelo://app?vid=e44df137-3a9f-4865-a2d3-769a6f5bfc14"},"vehicle_type_id":"4","last_reported":1770809753,"current_range_meters":8800,"station_id":"ce4bgn92rcd13ifvqbvg","pricing_plan_id":"cebpf4jnsgd1na2vs0mg"},{"bike_id":"4878db2c-1746-4e84-a2dc-9ef31135b542","system_id":"levelo_inurba_marseille","lat":43.25868,"lon":5.39927,"is_reserved":false,"is_disabled":false,"rental_uris":{"android":"levelo://app?vid=4878db2c-1746-4e84-a2dc-9ef31135b542","ios":"levelo://app?vid=4878db2c-1746-4e84-a2dc-9ef31135b542"},"vehicle_type_id":"4","last_reported":1770809753,"current_range_meters":8800,"station_id":"ce4bhl92rcd13ifvqghg","pricing_plan_id":"cebpf4jnsgd1na2vs0mg"},{"bike_id":"d997c6b7-acb1-4efa-ae35-2d8c161e2e69","system_id":"levelo_inurba_marseille","lat":43.23203,"lon":5.3557,"is_reserved":false,"is_disabled":false,"rental_uris":{"android":"levelo://app?vid=d997c6b7-acb1-4efa-ae35-2d8c161e2e69","ios":"levelo://app?vid=d997c6b7-acb1-4efa-ae35-2d8c161e2e69"},"vehicle_type_id":"4","last_reported":1770809753,"current_range_meters":8800,"station_id":"ce4bhu92rcd13ifvqi70","pricing_plan_id":"cebpf4jnsgd1na2vs0mg"},{"bike_id":"78750af1-2a8a-4c2b-82e5-116213a26ee3","system_id":"levelo_inurba_marseille","lat":43.27667,"lon":5.38878,"is_reserved":false,"is_disabled":false,"rental_uris":{"android":"levelo://app?vid=78750af1-2a8a-4c2b-82e5-116213a26ee3","ios":"levelo://app?vid=78750af1-2a8a-4c2b-82e5-116213a26ee3"},"vehicle_type_id":"4","last_reported":1770809753,"current_range_meters":8800,"station_id":"ce4bhi12rcd13ifvqfo0","pricing_plan_id":"cebpf4jnsgd1na2vs0mg"},{"bike_id":"7928aafc-a1ba-4fa7-b1c2-e6aa66cac6c0","system_id":"levelo_inurba_marseille","lat":43.29271,"lon":5.38438,"is_reserved":false,"is_disabled":false,"rental_uris":{"android":"levelo://app?vid=7928aafc-a1ba-4fa7-b1c2-e6aa66cac6c0","ios":"levelo://app?vid=7928aafc-a1ba-4fa7-b1c2-e6aa66cac6c0"},"vehicle_type_id":"4","last_reported":1770809753,"current_range_meters":8800,"station_id":"ce4bh692rcd13ifvqea0","pricing_plan_id":"cebpf4jnsgd1na2vs0mg"},{"bike_id":"ac9a885a-fe7d-4871-905c-95e91acf3aa8","system_id":"levelo_inurba_marseille","lat":43.22563,"lon":5.41632,"is_reserved":false,"is_disabled":false,"rental_uris":{"android":"levelo://app?vid=ac9a885a-fe7d-4871-905c-95e91acf3aa8","ios":"levelo://app?vid=ac9a885a-fe7d-4871-905c-95e91acf3aa8"},"vehicle_type_id":"4","last_reported":1770809753,"current_range_meters":8800,"station_id":"st_d2o4gvlbi1j2169b742g","pricing_plan_id":"cebpf4jnsgd1na2vs0mg"},{"bike_id":"ff173fcd-8ff3-41c4-b3ec-e99e3beadb9f","system_id":"levelo_inurba_marseille","lat":43.29103,"lon":5.38117,"is_reserved":false,"is_disabled":false,"rental_uris":{"android":"levelo://app?vid=ff173fcd-8ff3-41c4-b3ec-e99e3beadb9f","ios":"levelo://app?vid=ff173fcd-8ff3-41c4-b3ec-e99e3beadb9f"},"vehicle_type_id":"4","last_reported":1770809753,"current_range_meters":8800,"station_id":"ce4bh512rcd13ifvqe2g","pricing_plan_id":"cebpf4jnsgd1na2vs0mg"},{"bike_id":"01b7a0c2-ed16-407b-98a5-f5888996bd6e","system_id":"levelo_inurba_marseille","lat":43.32495,"lon":5.36508,"is_reserved":false,"is_disabled":false,"rental_uris":{"android":"levelo://app?vid=01b7a0c2-ed16-407b-98a5-f5888996bd6e","ios":"levelo://app?vid=01b7a0c2-ed16-407b-98a5-f5888996bd6e"},"vehicle_type_id":"4","last_reported":1770809753,"current_range_meters":8800,"station_id":"ce4bhs12rcd13ifvqhvg","pricing_plan_id":"cebpf4jnsgd1na2vs0mg"},{"bike_id":"9fc9bd17-4f53-4116-806f-292bce71225d","system_id":"levelo_inurba_marseille","lat":43.29819,"lon":5.38097,"is_reserved":false,"is_disabled":false,"rental_uris":{"android":"levelo://app?vid=9fc9bd17-4f53-4116-806f-292bce71225d","ios":"levelo://app?vid=9fc9bd17-4f53-4116-806f-292bce71225d"},"vehicle_type_id":"4","last_reported":1770809753,"current_range_meters":8800,"station_id":"ce4bgip2rcd13ifvqbb0","pricing_plan_id":"cebpf4jnsgd1na2vs0mg"},{"bike_id":"babdcd4a-655b-4e95-88f5-77a8529739da","system_id":"levelo_inurba_marseille","lat":43.2256,"lon":5.41595,"is_reserved":false,"is_disabled":false,"rental_uris":{"android":"levelo://app?vid=babdcd4a-655b-4e95-88f5-77a8529739da","ios":"levelo://app?vid=babdcd4a-655b-4e95-88f5-77a8529739da"},"vehicle_type_id":"4","last_reported":1770809753,"current_range_meters":8800,"station_id":"st_d2o4gvlbi1j2169b742g","pricing_plan_id":"cebpf4jnsgd1na2vs0mg"},{"bike_id":"5611e9db-46f1-411c-9cc4-47d063a5db1f","system_id":"levelo_inurba_marseille","lat":43.30548,"lon":5.36687,"is_reserved":false,"is_disabled":false,"rental_uris":{"android":"levelo://app?vid=5611e9db-46f1-411c-9cc4-47d063a5db1f","ios":"levelo://app?vid=5611e9db-46f1-411c-9cc4-47d063a5db1f"},"vehicle_type_id":"4","last_reported":1770809753,"current_range_meters":9200,"station_id":"ce4bgrp2rcd13ifvqc9g","pricing_plan_id":"cebpf4jnsgd1na2vs0mg"},{"bike_id":"0cad91d7-1079-467e-882f-8f8ec527c2c5","system_id":"levelo_inurba_marseille","lat":43.23186,"lon":5.39983,"is_reserved":false,"is_disabled":false,"rental_uris":{"android":"levelo://app?vid=0cad91d7-1079-467e-882f-8f8ec527c2c5","ios":"levelo://app?vid=0cad91d7-1079-467e-882f-8f8ec527c2c5"},"vehicle_type_id":"4","last_reported":1770809753,"current_range_meters":9200,"station_id":"ce4bhn12rcd13ifvqgqg","pricing_plan_id":"cebpf4jnsgd1na2vs0mg"},{"bike_id":"55645d2c-fdd2-4fb8-ba5c-33a389bd0683","system_id":"levelo_inurba_marseille","lat":43.28533,"lon":5.44105,"is_reserved":false,"is_disabled":false,"rental_uris":{"android":"levelo://app?vid=55645d2c-fdd2-4fb8-ba5c-33a389bd0683","ios":"levelo://app?vid=55645d2c-fdd2-4fb8-ba5c-33a389bd0683"},"vehicle_type_id":"4","last_reported":1770809753,"current_range_meters":9200,"station_id":"","pricing_plan_id":"cebpf4jnsgd1na2vs0mg"},{"bike_id":"9ed6d55e-b4ff-4b0e-9110-aea8006efaac","system_id":"levelo_inurba_marseille","lat":43.29172,"lon":5.37155,"is_reserved":false,"is_disabled":false,"rental_uris":{"android":"levelo://app?vid=9ed6d55e-b4ff-4b0e-9110-aea8006efaac","ios":"levelo://app?vid=9ed6d55e-b4ff-4b0e-9110-aea8006efaac"},"vehicle_type_id":"4","last_reported":1770809753,"current_range_meters":9200,"station_id":"ce4bha92rcd13ifvqeh0","pricing_plan_id":"cebpf4jnsgd1na2vs0mg"},{"bike_id":"b3b1cfa9-06d9-4251-9ec7-9fecdb5ce4ba","system_id":"levelo_inurba_marseille","lat":43.31178,"lon":5.39053,"is_reserved":false,"is_disabled":false,"rental_uris":{"android":"levelo://app?vid=b3b1cfa9-06d9-4251-9ec7-9fecdb5ce4ba","ios":"levelo://app?vid=b3b1cfa9-06d9-4251-9ec7-9fecdb5ce4ba"},"vehicle_type_id":"4","last_reported":1770809753,"current_range_meters":9200,"station_id":"","pricing_plan_id":"cebpf4jnsgd1na2vs0mg"},{"bike_id":"1e4a7842-cd51-4881-b298-8b4cc321effe","system_id":"levelo_inurba_marseille","lat":43.24387,"lon":5.3707,"is_reserved":false,"is_disabled":false,"rental_uris":{"android":"levelo://app?vid=1e4a7842-cd51-4881-b298-8b4cc321effe","ios":"levelo://app?vid=1e4a7842-cd51-4881-b298-8b4cc321effe"},"vehicle_type_id":"4","last_reported":1770809753,"current_range_meters":9200,"station_id":"ce4bhhh2rcd13ifvqfk0","pricing_plan_id":"cebpf4jnsgd1na2vs0mg"},{"bike_id":"ebdbedc7-4354-4eb9-bf82-5a732061a6cb","system_id":"levelo_inurba_marseille","lat":43.31033,"lon":5.37183,"is_reserved":false,"is_disabled":false,"rental_uris":{"android":"levelo://app?vid=ebdbedc7-4354-4eb9-bf82-5a732061a6cb","ios":"levelo://app?vid=ebdbedc7-4354-4eb9-bf82-5a732061a6cb"},"vehicle_type_id":"4","last_reported":1770809753,"current_range_meters":9200,"station_id":"st_d4kl2rp97mjs73e7tdfg","pricing_plan_id":"cebpf4jnsgd1na2vs0mg"},{"bike_id":"cc618cc2-b768-42e2-8f93-2a60c239a805","system_id":"levelo_inurba_marseille","lat":43.30498,"lon":5.41195,"is_reserved":false,"is_disabled":false,"rental_uris":{"android":"levelo://app?vid=cc618cc2-b768-42e2-8f93-2a60c239a805","ios":"levelo://app?vid=cc618cc2-b768-42e2-8f93-2a60c239a805"},"vehicle_type_id":"4","last_reported":1770809753,"current_range_meters":9200,"station_id":"","pricing_plan_id":"cebpf4jnsgd1na2vs0mg"},{"bike_id":"caea181a-f7c4-4f06-9446-05638dbb658d","system_id":"levelo_inurba_marseille","lat":43.27373,"lon":5.36258,"is_reserved":false,"is_disabled":false,"rental_uris":{"android":"levelo://app?vid=caea181a-f7c4-4f06-9446-05638dbb658d","ios":"levelo://app?vid=caea181a-f7c4-4f06-9446-05638dbb658d"},"vehicle_type_id":"4","last_reported":1770809753,"current_range_meters":9200,"station_id":"ce4bhbh2rcd13ifvqeo0","pricing_plan_id":"cebpf4jnsgd1na2vs0mg"},{"bike_id":"bca520ac-7e6b-4132-bbcc-e56181c5620d","system_id":"levelo_inurba_marseille","lat":43.28845,"lon":5.42528,"is_reserved":false,"is_disabled":false,"rental_uris":{"android":"levelo://app?vid=bca520ac-7e6b-4132-bbcc-e56181c5620d","ios":"levelo://app?vid=bca520ac-7e6b-4132-bbcc-e56181c5620d"},"vehicle_type_id":"4","last_reported":1770809753,"current_range_meters":9200,"station_id":"st_d3b462108ojc7389ooeg","pricing_plan_id":"cebpf4jnsgd1na2vs0mg"},{"bike_id":"acd8a958-1de7-4a78-859a-725baca696e6","system_id":"levelo_inurba_marseille","lat":43.29602,"lon":5.38082,"is_reserved":false,"is_disabled":false,"rental_uris":{"android":"levelo://app?vid=acd8a958-1de7-4a78-859a-725baca696e6","ios":"levelo://app?vid=acd8a958-1de7-4a78-859a-725baca696e6"},"vehicle_type_id":"4","last_reported":1770809753,"current_range_meters":9600,"station_id":"ce4bgl12rcd13ifvqbo0","pricing_plan_id":"cebpf4jnsgd1na2vs0mg"},{"bike_id":"5bd5dc66-cd8b-4b8c-9377-3d4d7372ecaf","system_id":"levelo_inurba_marseille","lat":43.28926,"lon":5.38376,"is_reserved":false,"is_disabled":false,"rental_uris":{"android":"levelo://app?vid=5bd5dc66-cd8b-4b8c-9377-3d4d7372ecaf","ios":"levelo://app?vid=5bd5dc66-cd8b-4b8c-9377-3d4d7372ecaf"},"vehicle_type_id":"4","last_reported":1770809753,"current_range_meters":9600,"station_id":"ce4bh612rcd13ifvqe6g","pricing_plan_id":"cebpf4jnsgd1na2vs0mg"},{"bike_id":"7b3260b1-5519-42c6-936d-53cf0b45bf65","system_id":"levelo_inurba_marseille","lat":43.29576,"lon":5.37506,"is_reserved":false,"is_disabled":false,"rental_uris":{"android":"levelo://app?vid=7b3260b1-5519-42c6-936d-53cf0b45bf65","ios":"levelo://app?vid=7b3260b1-5519-42c6-936d-53cf0b45bf65"},"vehicle_type_id":"4","last_reported":1770809753,"current_range_meters":9600,"station_id":"ce4bgh92rcd13ifvqb50","pricing_plan_id":"cebpf4jnsgd1na2vs0mg"},{"bike_id":"f80528f9-6bb1-4b22-a63c-5e57ad403fb2","system_id":"levelo_inurba_marseille","lat":43.24665,"lon":5.38156,"is_reserved":false,"is_disabled":false,"rental_uris":{"android":"levelo://app?vid=f80528f9-6bb1-4b22-a63c-5e57ad403fb2","ios":"levelo://app?vid=f80528f9-6bb1-4b22-a63c-5e57ad403fb2"},"vehicle_type_id":"4","last_reported":1770809753,"current_range_meters":9600,"station_id":"ce4bhih2rcd13ifvqfr0","pricing_plan_id":"cebpf4jnsgd1na2vs0mg"},{"bike_id":"14f61e44-8496-49e1-8819-a0328677c7db","system_id":"levelo_inurba_marseille","lat":43.24956,"lon":5.40483,"is_reserved":false,"is_disabled":false,"rental_uris":{"android":"levelo://app?vid=14f61e44-8496-49e1-8819-a0328677c7db","ios":"levelo://app?vid=14f61e44-8496-49e1-8819-a0328677c7db"},"vehicle_type_id":"4","last_reported":1770809753,"current_range_meters":9600,"station_id":"st_d2ngiaodas8pm72gd1h0","pricing_plan_id":"cebpf4jnsgd1na2vs0mg"},{"bike_id":"0f1022fa-4006-4594-9b22-17c523f9f063","system_id":"levelo_inurba_marseille","lat":43.23177,"lon":5.43714,"is_reserved":false,"is_disabled":false,"rental_uris":{"android":"levelo://app?vid=0f1022fa-4006-4594-9b22-17c523f9f063","ios":"levelo://app?vid=0f1022fa-4006-4594-9b22-17c523f9f063"},"vehicle_type_id":"4","last_reported":1770809753,"current_range_meters":9600,"station_id":"ce4bhmp2rcd13ifvqgog","pricing_plan_id":"cebpf4jnsgd1na2vs0mg"},{"bike_id":"406b8143-680c-411e-8da6-8818c609b259","system_id":"levelo_inurba_marseille","lat":43.22921,"lon":5.35403,"is_reserved":false,"is_disabled":false,"rental_uris":{"android":"levelo://app?vid=406b8143-680c-411e-8da6-8818c609b259","ios":"levelo://app?vid=406b8143-680c-411e-8da6-8818c609b259"},"vehicle_type_id":"4","last_reported":1770809753,"current_range_meters":9600,"station_id":"cpo3532slgdg3j2ikp40","pricing_plan_id":"cebpf4jnsgd1na2vs0mg"},{"bike_id":"4128404a-6f46-416c-9354-3df98c5c64de","system_id":"levelo_inurba_marseille","lat":43.27233,"lon":5.39186,"is_reserved":false,"is_disabled":false,"rental_uris":{"android":"levelo://app?vid=4128404a-6f46-416c-9354-3df98c5c64de","ios":"levelo://app?vid=4128404a-6f46-416c-9354-3df98c5c64de"},"vehicle_type_id":"4","last_reported":1770809753,"current_range_meters":9600,"station_id":"ce4bhhp2rcd13ifvqfm0","pricing_plan_id":"cebpf4jnsgd1na2vs0mg"},{"bike_id":"f28d6f89-fcc0-4566-8662-51e8789f30aa","system_id":"levelo_inurba_marseille","lat":43.30534,"lon":5.36722,"is_reserved":false,"is_disabled":false,"rental_uris":{"android":"levelo://app?vid=f28d6f89-fcc0-4566-8662-51e8789f30aa","ios":"levelo://app?vid=f28d6f89-fcc0-4566-8662-51e8789f30aa"},"vehicle_type_id":"4","last_reported":1770809753,"current_range_meters":9600,"station_id":"ce4bgrp2rcd13ifvqc9g","pricing_plan_id":"cebpf4jnsgd1na2vs0mg"},{"bike_id":"7394aa7b-274b-413c-971f-ee71dbba1d5a","system_id":"levelo_inurba_marseille","lat":43.31722,"lon":5.37767,"is_reserved":false,"is_disabled":false,"rental_uris":{"android":"levelo://app?vid=7394aa7b-274b-413c-971f-ee71dbba1d5a","ios":"levelo://app?vid=7394aa7b-274b-413c-971f-ee71dbba1d5a"},"vehicle_type_id":"4","last_reported":1770809753,"current_range_meters":9600,"station_id":"ce4bgth2rcd13ifvqch0","pricing_plan_id":"cebpf4jnsgd1na2vs0mg"},{"bike_id":"159f95b8-d74f-4ef4-8c95-0687f51342d5","system_id":"levelo_inurba_marseille","lat":43.24069,"lon":5.37691,"is_reserved":false,"is_disabled":true,"rental_uris":{"android":"levelo://app?vid=159f95b8-d74f-4ef4-8c95-0687f51342d5","ios":"levelo://app?vid=159f95b8-d74f-4ef4-8c95-0687f51342d5"},"vehicle_type_id":"4","last_reported":1770809753,"current_range_meters":9600,"station_id":"","pricing_plan_id":"cebpf4jnsgd1na2vs0mg"},{"bike_id":"9b586055-3525-4e43-ae53-8d6c2fff45ed","system_id":"levelo_inurba_marseille","lat":43.2417,"lon":5.36392,"is_reserved":false,"is_disabled":false,"rental_uris":{"android":"levelo://app?vid=9b586055-3525-4e43-ae53-8d6c2fff45ed","ios":"levelo://app?vid=9b586055-3525-4e43-ae53-8d6c2fff45ed"},"vehicle_type_id":"4","last_reported":1770809753,"current_range_meters":9600,"station_id":"cpo36qri1sfpv3e86is0","pricing_plan_id":"cebpf4jnsgd1na2vs0mg"},{"bike_id":"b51e903d-5594-453e-90a4-300c39136127","system_id":"levelo_inurba_marseille","lat":43.30208,"lon":5.39474,"is_reserved":false,"is_disabled":false,"rental_uris":{"android":"levelo://app?vid=b51e903d-5594-453e-90a4-300c39136127","ios":"levelo://app?vid=b51e903d-5594-453e-90a4-300c39136127"},"vehicle_type_id":"4","last_reported":1770809753,"current_range_meters":9600,"station_id":"ce4bh0p2rcd13ifvqd70","pricing_plan_id":"cebpf4jnsgd1na2vs0mg"},{"bike_id":"c1f7cbe2-ed0d-417a-b458-7a778b7875f7","system_id":"levelo_inurba_marseille","lat":43.31302,"lon":5.36823,"is_reserved":false,"is_disabled":false,"rental_uris":{"android":"levelo://app?vid=c1f7cbe2-ed0d-417a-b458-7a778b7875f7","ios":"levelo://app?vid=c1f7cbe2-ed0d-417a-b458-7a778b7875f7"},"vehicle_type_id":"4","last_reported":1770809753,"current_range_meters":9600,"station_id":"ce4bgl92rcd13ifvqbq0","pricing_plan_id":"cebpf4jnsgd1na2vs0mg"},{"bike_id":"486dc2ae-bc5d-4b38-be5f-d1c48c084609","system_id":"levelo_inurba_marseille","lat":43.290242,"lon":5.381388,"is_reserved":false,"is_disabled":false,"rental_uris":{"android":"levelo://app?vid=486dc2ae-bc5d-4b38-be5f-d1c48c084609","ios":"levelo://app?vid=486dc2ae-bc5d-4b38-be5f-d1c48c084609"},"vehicle_type_id":"4","last_reported":1770809753,"current_range_meters":9600,"station_id":"ce4bh4p2rcd13ifvqe1g","pricing_plan_id":"cebpf4jnsgd1na2vs0mg"},{"bike_id":"04b3ef1e-fd39-4f79-a733-e12a91897393","system_id":"levelo_inurba_marseille","lat":43.25968,"lon":5.40898,"is_reserved":false,"is_disabled":false,"rental_uris":{"android":"levelo://app?vid=04b3ef1e-fd39-4f79-a733-e12a91897393","ios":"levelo://app?vid=04b3ef1e-fd39-4f79-a733-e12a91897393"},"vehicle_type_id":"4","last_reported":1770809753,"current_range_meters":9600,"station_id":"ce4bhm92rcd13ifvqglg","pricing_plan_id":"cebpf4jnsgd1na2vs0mg"},{"bike_id":"8b4b38ac-f6cb-48ed-90a4-30149ea67fd7","system_id":"levelo_inurba_marseille","lat":43.29091,"lon":5.39945,"is_reserved":false,"is_disabled":false,"rental_uris":{"android":"levelo://app?vid=8b4b38ac-f6cb-48ed-90a4-30149ea67fd7","ios":"levelo://app?vid=8b4b38ac-f6cb-48ed-90a4-30149ea67fd7"},"vehicle_type_id":"4","last_reported":1770809753,"current_range_meters":9600,"station_id":"","pricing_plan_id":"cebpf4jnsgd1na2vs0mg"},{"bike_id":"c66db0ad-2c7f-4464-999e-e8465fece01c","system_id":"levelo_inurba_marseille","lat":43.26957,"lon":5.38937,"is_reserved":false,"is_disabled":false,"rental_uris":{"android":"levelo://app?vid=c66db0ad-2c7f-4464-999e-e8465fece01c","ios":"levelo://app?vid=c66db0ad-2c7f-4464-999e-e8465fece01c"},"vehicle_type_id":"4","last_reported":1770809753,"current_range_meters":9600,"station_id":"ce4bhhh2rcd13ifvqfl0","pricing_plan_id":"cebpf4jnsgd1na2vs0mg"},{"bike_id":"6b302969-51be-4af4-b31d-a6d9bd4e0a48","system_id":"levelo_inurba_marseille","lat":43.27378,"lon":5.36283,"is_reserved":false,"is_disabled":false,"rental_uris":{"android":"levelo://app?vid=6b302969-51be-4af4-b31d-a6d9bd4e0a48","ios":"levelo://app?vid=6b302969-51be-4af4-b31d-a6d9bd4e0a48"},"vehicle_type_id":"4","last_reported":1770809753,"current_range_meters":9600,"station_id":"ce4bhbh2rcd13ifvqeo0","pricing_plan_id":"cebpf4jnsgd1na2vs0mg"},{"bike_id":"59624936-7916-41fd-ae1c-a77a4adb46d4","system_id":"levelo_inurba_marseille","lat":43.27489,"lon":5.42446,"is_reserved":false,"is_disabled":false,"rental_uris":{"android":"levelo://app?vid=59624936-7916-41fd-ae1c-a77a4adb46d4","ios":"levelo://app?vid=59624936-7916-41fd-ae1c-a77a4adb46d4"},"vehicle_type_id":"4","last_reported":1770809753,"current_range_meters":10000,"station_id":"ce4bhn92rcd13ifvqgrg","pricing_plan_id":"cebpf4jnsgd1na2vs0mg"},{"bike_id":"adedccca-d77d-4967-91ed-2661b5b510ba","system_id":"levelo_inurba_marseille","lat":43.225584,"lon":5.416303,"is_reserved":false,"is_disabled":false,"rental_uris":{"android":"levelo://app?vid=adedccca-d77d-4967-91ed-2661b5b510ba","ios":"levelo://app?vid=adedccca-d77d-4967-91ed-2661b5b510ba"},"vehicle_type_id":"4","last_reported":1770809753,"current_range_meters":10000,"station_id":"st_d2o4gvlbi1j2169b742g","pricing_plan_id":"cebpf4jnsgd1na2vs0mg"},{"bike_id":"01733d93-1aac-46ab-a1d7-be825cb9fa16","system_id":"levelo_inurba_marseille","lat":43.292689,"lon":5.376273,"is_reserved":false,"is_disabled":false,"rental_uris":{"android":"levelo://app?vid=01733d93-1aac-46ab-a1d7-be825cb9fa16","ios":"levelo://app?vid=01733d93-1aac-46ab-a1d7-be825cb9fa16"},"vehicle_type_id":"4","last_reported":1770809753,"current_range_meters":10000,"station_id":"ce4bgi12rcd13ifvqb80","pricing_plan_id":"cebpf4jnsgd1na2vs0mg"},{"bike_id":"51f50f49-0125-412c-8286-c260be56e451","system_id":"levelo_inurba_marseille","lat":43.2316,"lon":5.43705,"is_reserved":false,"is_disabled":false,"rental_uris":{"android":"levelo://app?vid=51f50f49-0125-412c-8286-c260be56e451","ios":"levelo://app?vid=51f50f49-0125-412c-8286-c260be56e451"},"vehicle_type_id":"4","last_reported":1770809753,"current_range_meters":10000,"station_id":"ce4bhmp2rcd13ifvqgog","pricing_plan_id":"cebpf4jnsgd1na2vs0mg"},{"bike_id":"5068638c-4d4f-48b9-94c9-8b2df037c592","system_id":"levelo_inurba_marseille","lat":43.312661,"lon":5.385311,"is_reserved":false,"is_disabled":false,"rental_uris":{"android":"levelo://app?vid=5068638c-4d4f-48b9-94c9-8b2df037c592","ios":"levelo://app?vid=5068638c-4d4f-48b9-94c9-8b2df037c592"},"vehicle_type_id":"4","last_reported":1770809753,"current_range_meters":10000,"station_id":"","pricing_plan_id":"cebpf4jnsgd1na2vs0mg"},{"bike_id":"9bce456d-1542-4f37-877b-01d3ba65196a","system_id":"levelo_inurba_marseille","lat":43.29707,"lon":5.3771,"is_reserved":false,"is_disabled":false,"rental_uris":{"android":"levelo://app?vid=9bce456d-1542-4f37-877b-01d3ba65196a","ios":"levelo://app?vid=9bce456d-1542-4f37-877b-01d3ba65196a"},"vehicle_type_id":"4","last_reported":1770809753,"current_range_meters":10000,"station_id":"ce4bgkh2rcd13ifvqbl0","pricing_plan_id":"cebpf4jnsgd1na2vs0mg"},{"bike_id":"9ba15159-bc8a-46ec-906b-7f7ba3003728","system_id":"levelo_inurba_marseille","lat":43.259327,"lon":5.408889,"is_reserved":false,"is_disabled":false,"rental_uris":{"android":"levelo://app?vid=9ba15159-bc8a-46ec-906b-7f7ba3003728","ios":"levelo://app?vid=9ba15159-bc8a-46ec-906b-7f7ba3003728"},"vehicle_type_id":"4","last_reported":1770809753,"current_range_meters":10000,"station_id":"ce4bhm92rcd13ifvqglg","pricing_plan_id":"cebpf4jnsgd1na2vs0mg"},{"bike_id":"5a491698-2f1e-4844-92f0-bd732412a37d","system_id":"levelo_inurba_marseille","lat":43.276065,"lon":5.384244,"is_reserved":false,"is_disabled":false,"rental_uris":{"android":"levelo://app?vid=5a491698-2f1e-4844-92f0-bd732412a37d","ios":"levelo://app?vid=5a491698-2f1e-4844-92f0-bd732412a37d"},"vehicle_type_id":"4","last_reported":1770809753,"current_range_meters":10000,"station_id":"","pricing_plan_id":"cebpf4jnsgd1na2vs0mg"},{"bike_id":"3ed093f4-08d0-4276-9163-84c86d6b0819","system_id":"levelo_inurba_marseille","lat":43.29597,"lon":5.39962,"is_reserved":false,"is_disabled":true,"rental_uris":{"android":"levelo://app?vid=3ed093f4-08d0-4276-9163-84c86d6b0819","ios":"levelo://app?vid=3ed093f4-08d0-4276-9163-84c86d6b0819"},"vehicle_type_id":"4","last_reported":1770809753,"current_range_meters":10000,"station_id":"ce4bh312rcd13ifvqdj0","pricing_plan_id":"cebpf4jnsgd1na2vs0mg"},{"bike_id":"cc8657f3-cee0-4726-8427-1495a502b0dc","system_id":"levelo_inurba_marseille","lat":43.29761,"lon":5.42785,"is_reserved":false,"is_disabled":false,"rental_uris":{"android":"levelo://app?vid=cc8657f3-cee0-4726-8427-1495a502b0dc","ios":"levelo://app?vid=cc8657f3-cee0-4726-8427-1495a502b0dc"},"vehicle_type_id":"4","last_reported":1770809753,"current_range_meters":10000,"station_id":"st_d3md5207bmas73dh9klg","pricing_plan_id":"cebpf4jnsgd1na2vs0mg"},{"bike_id":"464590f7-013f-45c9-96ea-74fca7d439b2","system_id":"levelo_inurba_marseille","lat":43.32569,"lon":5.39161,"is_reserved":false,"is_disabled":false,"rental_uris":{"android":"levelo://app?vid=464590f7-013f-45c9-96ea-74fca7d439b2","ios":"levelo://app?vid=464590f7-013f-45c9-96ea-74fca7d439b2"},"vehicle_type_id":"4","last_reported":1770809753,"current_range_meters":10000,"station_id":"","pricing_plan_id":"cebpf4jnsgd1na2vs0mg"},{"bike_id":"df7ea344-b617-4195-996a-008d37de2a08","system_id":"levelo_inurba_marseille","lat":43.27428,"lon":5.39421,"is_reserved":false,"is_disabled":false,"rental_uris":{"android":"levelo://app?vid=df7ea344-b617-4195-996a-008d37de2a08","ios":"levelo://app?vid=df7ea344-b617-4195-996a-008d37de2a08"},"vehicle_type_id":"4","last_reported":1770809753,"current_range_meters":10000,"station_id":"ce4bhdp2rcd13ifvqf20","pricing_plan_id":"cebpf4jnsgd1na2vs0mg"},{"bike_id":"31a7a706-1ff4-486d-b0ea-aa0afb881a3f","system_id":"levelo_inurba_marseille","lat":43.31056,"lon":5.38483,"is_reserved":false,"is_disabled":false,"rental_uris":{"android":"levelo://app?vid=31a7a706-1ff4-486d-b0ea-aa0afb881a3f","ios":"levelo://app?vid=31a7a706-1ff4-486d-b0ea-aa0afb881a3f"},"vehicle_type_id":"4","last_reported":1770809753,"current_range_meters":10000,"station_id":"","pricing_plan_id":"cebpf4jnsgd1na2vs0mg"},{"bike_id":"09b34151-bc85-4ed3-ae75-6800e531e58d","system_id":"levelo_inurba_marseille","lat":43.295768,"lon":5.367405,"is_reserved":false,"is_disabled":false,"rental_uris":{"android":"levelo://app?vid=09b34151-bc85-4ed3-ae75-6800e531e58d","ios":"levelo://app?vid=09b34151-bc85-4ed3-ae75-6800e531e58d"},"vehicle_type_id":"4","last_reported":1770809753,"current_range_meters":10000,"station_id":"ce4bgph2rcd13ifvqc2g","pricing_plan_id":"cebpf4jnsgd1na2vs0mg"},{"bike_id":"72373f40-89f3-429b-8806-f0231bd6dce9","system_id":"levelo_inurba_marseille","lat":43.27388,"lon":5.36309,"is_reserved":false,"is_disabled":false,"rental_uris":{"android":"levelo://app?vid=72373f40-89f3-429b-8806-f0231bd6dce9","ios":"levelo://app?vid=72373f40-89f3-429b-8806-f0231bd6dce9"},"vehicle_type_id":"4","last_reported":1770809753,"current_range_meters":10000,"station_id":"ce4bhbh2rcd13ifvqeo0","pricing_plan_id":"cebpf4jnsgd1na2vs0mg"},{"bike_id":"befb2afa-282d-4ede-8c3b-f01cd0660840","system_id":"levelo_inurba_marseille","lat":43.30546,"lon":5.36528,"is_reserved":false,"is_disabled":false,"rental_uris":{"android":"levelo://app?vid=befb2afa-282d-4ede-8c3b-f01cd0660840","ios":"levelo://app?vid=befb2afa-282d-4ede-8c3b-f01cd0660840"},"vehicle_type_id":"4","last_reported":1770809753,"current_range_meters":10000,"station_id":"ce4bgs12rcd13ifvqcag","pricing_plan_id":"cebpf4jnsgd1na2vs0mg"},{"bike_id":"9e393b97-50a6-42b0-ae35-8d36ff1f9030","system_id":"levelo_inurba_marseille","lat":43.26379,"lon":5.41055,"is_reserved":false,"is_disabled":false,"rental_uris":{"android":"levelo://app?vid=9e393b97-50a6-42b0-ae35-8d36ff1f9030","ios":"levelo://app?vid=9e393b97-50a6-42b0-ae35-8d36ff1f9030"},"vehicle_type_id":"4","last_reported":1770809753,"current_range_meters":10800,"station_id":"st_d4e5ca6na9uc73bfl5fg","pricing_plan_id":"cebpf4jnsgd1na2vs0mg"},{"bike_id":"c32d45ac-8290-4436-8257-2ce11ffca061","system_id":"levelo_inurba_marseille","lat":43.25594,"lon":5.38261,"is_reserved":false,"is_disabled":false,"rental_uris":{"android":"levelo://app?vid=c32d45ac-8290-4436-8257-2ce11ffca061","ios":"levelo://app?vid=c32d45ac-8290-4436-8257-2ce11ffca061"},"vehicle_type_id":"4","last_reported":1770809753,"current_range_meters":10800,"station_id":"ce4bhih2rcd13ifvqfs0","pricing_plan_id":"cebpf4jnsgd1na2vs0mg"},{"bike_id":"8f96dcfb-6851-408b-97a3-780cbeae8140","system_id":"levelo_inurba_marseille","lat":43.25091,"lon":5.40302,"is_reserved":false,"is_disabled":false,"rental_uris":{"android":"levelo://app?vid=8f96dcfb-6851-408b-97a3-780cbeae8140","ios":"levelo://app?vid=8f96dcfb-6851-408b-97a3-780cbeae8140"},"vehicle_type_id":"4","last_reported":1770809753,"current_range_meters":10800,"station_id":"ce4bhlh2rcd13ifvqgig","pricing_plan_id":"cebpf4jnsgd1na2vs0mg"},{"bike_id":"d98f09ff-8b59-4519-baee-c61bc86adc1e","system_id":"levelo_inurba_marseille","lat":43.294911,"lon":5.433034,"is_reserved":false,"is_disabled":false,"rental_uris":{"android":"levelo://app?vid=d98f09ff-8b59-4519-baee-c61bc86adc1e","ios":"levelo://app?vid=d98f09ff-8b59-4519-baee-c61bc86adc1e"},"vehicle_type_id":"4","last_reported":1770809753,"current_range_meters":10800,"station_id":"st_d3j5ugp08ojc73fj9d10","pricing_plan_id":"cebpf4jnsgd1na2vs0mg"},{"bike_id":"652ca420-85e6-4d51-9c38-6e8da6c5bfbf","system_id":"levelo_inurba_marseille","lat":43.29074,"lon":5.3815,"is_reserved":false,"is_disabled":false,"rental_uris":{"android":"levelo://app?vid=652ca420-85e6-4d51-9c38-6e8da6c5bfbf","ios":"levelo://app?vid=652ca420-85e6-4d51-9c38-6e8da6c5bfbf"},"vehicle_type_id":"4","last_reported":1770809753,"current_range_meters":10800,"station_id":"ce4bh512rcd13ifvqe2g","pricing_plan_id":"cebpf4jnsgd1na2vs0mg"},{"bike_id":"60fbe695-1590-4d4e-9f79-8ee300fe75b7","system_id":"levelo_inurba_marseille","lat":43.2929,"lon":5.37157,"is_reserved":false,"is_disabled":false,"rental_uris":{"android":"levelo://app?vid=60fbe695-1590-4d4e-9f79-8ee300fe75b7","ios":"levelo://app?vid=60fbe695-1590-4d4e-9f79-8ee300fe75b7"},"vehicle_type_id":"4","last_reported":1770809753,"current_range_meters":10800,"station_id":"ce4bgh92rcd13ifvqb40","pricing_plan_id":"cebpf4jnsgd1na2vs0mg"},{"bike_id":"5ecdca59-da81-4119-a256-c37296e94b7b","system_id":"levelo_inurba_marseille","lat":43.29483,"lon":5.43313,"is_reserved":false,"is_disabled":false,"rental_uris":{"android":"levelo://app?vid=5ecdca59-da81-4119-a256-c37296e94b7b","ios":"levelo://app?vid=5ecdca59-da81-4119-a256-c37296e94b7b"},"vehicle_type_id":"4","last_reported":1770809753,"current_range_meters":10800,"station_id":"st_d3j5ugp08ojc73fj9d10","pricing_plan_id":"cebpf4jnsgd1na2vs0mg"},{"bike_id":"92e7dca4-7493-4a56-b0cf-29564c772223","system_id":"levelo_inurba_marseille","lat":43.31371,"lon":5.38491,"is_reserved":false,"is_disabled":false,"rental_uris":{"android":"levelo://app?vid=92e7dca4-7493-4a56-b0cf-29564c772223","ios":"levelo://app?vid=92e7dca4-7493-4a56-b0cf-29564c772223"},"vehicle_type_id":"4","last_reported":1770809753,"current_range_meters":10800,"station_id":"ce4bgt92rcd13ifvqcf0","pricing_plan_id":"cebpf4jnsgd1na2vs0mg"},{"bike_id":"f1a689d6-8c27-4b32-94c2-bfaf14b1fb58","system_id":"levelo_inurba_marseille","lat":43.24076,"lon":5.3776,"is_reserved":false,"is_disabled":false,"rental_uris":{"android":"levelo://app?vid=f1a689d6-8c27-4b32-94c2-bfaf14b1fb58","ios":"levelo://app?vid=f1a689d6-8c27-4b32-94c2-bfaf14b1fb58"},"vehicle_type_id":"4","last_reported":1770809753,"current_range_meters":10800,"station_id":"ce4bhnp2rcd13ifvqgvg","pricing_plan_id":"cebpf4jnsgd1na2vs0mg"},{"bike_id":"1666b265-643d-41e7-bcc3-6167a6d49f91","system_id":"levelo_inurba_marseille","lat":43.22527,"lon":5.34847,"is_reserved":false,"is_disabled":false,"rental_uris":{"android":"levelo://app?vid=1666b265-643d-41e7-bcc3-6167a6d49f91","ios":"levelo://app?vid=1666b265-643d-41e7-bcc3-6167a6d49f91"},"vehicle_type_id":"4","last_reported":1770809753,"current_range_meters":11200,"station_id":"","pricing_plan_id":"cebpf4jnsgd1na2vs0mg"},{"bike_id":"e42620f4-183e-485a-af88-c36a22e64d51","system_id":"levelo_inurba_marseille","lat":43.23192,"lon":5.40005,"is_reserved":false,"is_disabled":false,"rental_uris":{"android":"levelo://app?vid=e42620f4-183e-485a-af88-c36a22e64d51","ios":"levelo://app?vid=e42620f4-183e-485a-af88-c36a22e64d51"},"vehicle_type_id":"4","last_reported":1770809753,"current_range_meters":11200,"station_id":"ce4bhn12rcd13ifvqgqg","pricing_plan_id":"cebpf4jnsgd1na2vs0mg"},{"bike_id":"bb6faa0c-4182-45af-b174-e42f3eae8837","system_id":"levelo_inurba_marseille","lat":43.24649,"lon":5.38883,"is_reserved":false,"is_disabled":false,"rental_uris":{"android":"levelo://app?vid=bb6faa0c-4182-45af-b174-e42f3eae8837","ios":"levelo://app?vid=bb6faa0c-4182-45af-b174-e42f3eae8837"},"vehicle_type_id":"4","last_reported":1770809753,"current_range_meters":11200,"station_id":"ce4bhg12rcd13ifvqf60","pricing_plan_id":"cebpf4jnsgd1na2vs0mg"},{"bike_id":"57c7335a-6e31-409f-9d2c-42a2b3f19b20","system_id":"levelo_inurba_marseille","lat":43.31044,"lon":5.371834,"is_reserved":false,"is_disabled":false,"rental_uris":{"android":"levelo://app?vid=57c7335a-6e31-409f-9d2c-42a2b3f19b20","ios":"levelo://app?vid=57c7335a-6e31-409f-9d2c-42a2b3f19b20"},"vehicle_type_id":"4","last_reported":1770809753,"current_range_meters":11200,"station_id":"st_d4kl2rp97mjs73e7tdfg","pricing_plan_id":"cebpf4jnsgd1na2vs0mg"},{"bike_id":"ef908a2e-b3f9-4cfa-b476-a03dcbc35d48","system_id":"levelo_inurba_marseille","lat":43.29799,"lon":5.38096,"is_reserved":false,"is_disabled":false,"rental_uris":{"android":"levelo://app?vid=ef908a2e-b3f9-4cfa-b476-a03dcbc35d48","ios":"levelo://app?vid=ef908a2e-b3f9-4cfa-b476-a03dcbc35d48"},"vehicle_type_id":"4","last_reported":1770809753,"current_range_meters":11200,"station_id":"ce4bgip2rcd13ifvqbb0","pricing_plan_id":"cebpf4jnsgd1na2vs0mg"},{"bike_id":"a6a2abc2-13d8-4c9a-b978-8487fe9fcbf5","system_id":"levelo_inurba_marseille","lat":43.25832,"lon":5.39401,"is_reserved":false,"is_disabled":false,"rental_uris":{"android":"levelo://app?vid=a6a2abc2-13d8-4c9a-b978-8487fe9fcbf5","ios":"levelo://app?vid=a6a2abc2-13d8-4c9a-b978-8487fe9fcbf5"},"vehicle_type_id":"4","last_reported":1770809753,"current_range_meters":11200,"station_id":"ce4bhip2rcd13ifvqft0","pricing_plan_id":"cebpf4jnsgd1na2vs0mg"},{"bike_id":"820102d8-4bf3-43d0-bf33-9724fbbf610e","system_id":"levelo_inurba_marseille","lat":43.281513,"lon":5.426377,"is_reserved":false,"is_disabled":false,"rental_uris":{"android":"levelo://app?vid=820102d8-4bf3-43d0-bf33-9724fbbf610e","ios":"levelo://app?vid=820102d8-4bf3-43d0-bf33-9724fbbf610e"},"vehicle_type_id":"4","last_reported":1770809753,"current_range_meters":11200,"station_id":"ce4bhnh2rcd13ifvqgug","pricing_plan_id":"cebpf4jnsgd1na2vs0mg"},{"bike_id":"93d13824-88c0-4dc3-a740-8b4c56967f53","system_id":"levelo_inurba_marseille","lat":43.29769,"lon":5.42775,"is_reserved":false,"is_disabled":false,"rental_uris":{"android":"levelo://app?vid=93d13824-88c0-4dc3-a740-8b4c56967f53","ios":"levelo://app?vid=93d13824-88c0-4dc3-a740-8b4c56967f53"},"vehicle_type_id":"4","last_reported":1770809753,"current_range_meters":11200,"station_id":"st_d3md5207bmas73dh9klg","pricing_plan_id":"cebpf4jnsgd1na2vs0mg"},{"bike_id":"0bd0023f-da6b-4c9a-8898-a505f61d5f0d","system_id":"levelo_inurba_marseille","lat":43.25868,"lon":5.39897,"is_reserved":false,"is_disabled":false,"rental_uris":{"android":"levelo://app?vid=0bd0023f-da6b-4c9a-8898-a505f61d5f0d","ios":"levelo://app?vid=0bd0023f-da6b-4c9a-8898-a505f61d5f0d"},"vehicle_type_id":"4","last_reported":1770809753,"current_range_meters":11200,"station_id":"ce4bhl92rcd13ifvqghg","pricing_plan_id":"cebpf4jnsgd1na2vs0mg"},{"bike_id":"fdd583b3-e5be-44b6-8ca6-0fbe9403af7b","system_id":"levelo_inurba_marseille","lat":43.24086,"lon":5.37794,"is_reserved":false,"is_disabled":false,"rental_uris":{"android":"levelo://app?vid=fdd583b3-e5be-44b6-8ca6-0fbe9403af7b","ios":"levelo://app?vid=fdd583b3-e5be-44b6-8ca6-0fbe9403af7b"},"vehicle_type_id":"4","last_reported":1770809753,"current_range_meters":11200,"station_id":"ce4bhnp2rcd13ifvqgvg","pricing_plan_id":"cebpf4jnsgd1na2vs0mg"},{"bike_id":"62603c5b-3166-443d-8a7b-6a90f0d69cc7","system_id":"levelo_inurba_marseille","lat":43.26933,"lon":5.402955,"is_reserved":false,"is_disabled":false,"rental_uris":{"android":"levelo://app?vid=62603c5b-3166-443d-8a7b-6a90f0d69cc7","ios":"levelo://app?vid=62603c5b-3166-443d-8a7b-6a90f0d69cc7"},"vehicle_type_id":"4","last_reported":1770809753,"current_range_meters":11200,"station_id":"ce4bhk92rcd13ifvqgc0","pricing_plan_id":"cebpf4jnsgd1na2vs0mg"},{"bike_id":"eb6ccb31-8aaf-487c-81ee-076798300c96","system_id":"levelo_inurba_marseille","lat":43.3255,"lon":5.41435,"is_reserved":false,"is_disabled":false,"rental_uris":{"android":"levelo://app?vid=eb6ccb31-8aaf-487c-81ee-076798300c96","ios":"levelo://app?vid=eb6ccb31-8aaf-487c-81ee-076798300c96"},"vehicle_type_id":"4","last_reported":1770809753,"current_range_meters":11200,"station_id":"ce4bhq12rcd13ifvqhhg","pricing_plan_id":"cebpf4jnsgd1na2vs0mg"},{"bike_id":"70e591b0-f2cc-4dab-99cf-08bb3c1008b4","system_id":"levelo_inurba_marseille","lat":43.27398,"lon":5.42704,"is_reserved":false,"is_disabled":false,"rental_uris":{"android":"levelo://app?vid=70e591b0-f2cc-4dab-99cf-08bb3c1008b4","ios":"levelo://app?vid=70e591b0-f2cc-4dab-99cf-08bb3c1008b4"},"vehicle_type_id":"4","last_reported":1770809753,"current_range_meters":11200,"station_id":"","pricing_plan_id":"cebpf4jnsgd1na2vs0mg"},{"bike_id":"9f844d51-b50b-4b73-b324-1914361c05b2","system_id":"levelo_inurba_marseille","lat":43.33723,"lon":5.39182,"is_reserved":false,"is_disabled":false,"rental_uris":{"android":"levelo://app?vid=9f844d51-b50b-4b73-b324-1914361c05b2","ios":"levelo://app?vid=9f844d51-b50b-4b73-b324-1914361c05b2"},"vehicle_type_id":"4","last_reported":1770809753,"current_range_meters":11200,"station_id":"ce4bhr92rcd13ifvqhsg","pricing_plan_id":"cebpf4jnsgd1na2vs0mg"},{"bike_id":"e56573a4-f19c-42e7-828c-c81201e1be5e","system_id":"levelo_inurba_marseille","lat":43.32085,"lon":5.41542,"is_reserved":false,"is_disabled":true,"rental_uris":{"android":"levelo://app?vid=e56573a4-f19c-42e7-828c-c81201e1be5e","ios":"levelo://app?vid=e56573a4-f19c-42e7-828c-c81201e1be5e"},"vehicle_type_id":"4","last_reported":1770809753,"current_range_meters":11600,"station_id":"ce4bhq92rcd13ifvqhkg","pricing_plan_id":"cebpf4jnsgd1na2vs0mg"},{"bike_id":"6489d296-7e9a-4929-8e21-bbbfbdd3a58b","system_id":"levelo_inurba_marseille","lat":43.25524,"lon":5.3765,"is_reserved":false,"is_disabled":false,"rental_uris":{"android":"levelo://app?vid=6489d296-7e9a-4929-8e21-bbbfbdd3a58b","ios":"levelo://app?vid=6489d296-7e9a-4929-8e21-bbbfbdd3a58b"},"vehicle_type_id":"4","last_reported":1770809753,"current_range_meters":11600,"station_id":"ce4bhh12rcd13ifvqff0","pricing_plan_id":"cebpf4jnsgd1na2vs0mg"},{"bike_id":"07180377-17c0-429c-86da-e1b4de678352","system_id":"levelo_inurba_marseille","lat":43.29058,"lon":5.39961,"is_reserved":false,"is_disabled":false,"rental_uris":{"android":"levelo://app?vid=07180377-17c0-429c-86da-e1b4de678352","ios":"levelo://app?vid=07180377-17c0-429c-86da-e1b4de678352"},"vehicle_type_id":"4","last_reported":1770809753,"current_range_meters":11600,"station_id":"ce4bh392rcd13ifvqdm0","pricing_plan_id":"cebpf4jnsgd1na2vs0mg"},{"bike_id":"adc1d2de-d584-4868-8c64-eca2dab94d2f","system_id":"levelo_inurba_marseille","lat":43.2622,"lon":5.37447,"is_reserved":false,"is_disabled":false,"rental_uris":{"android":"levelo://app?vid=adc1d2de-d584-4868-8c64-eca2dab94d2f","ios":"levelo://app?vid=adc1d2de-d584-4868-8c64-eca2dab94d2f"},"vehicle_type_id":"4","last_reported":1770809753,"current_range_meters":11600,"station_id":"ce4bhgp2rcd13ifvqfc0","pricing_plan_id":"cebpf4jnsgd1na2vs0mg"},{"bike_id":"5f6ae4c8-a7cd-4f3b-9adf-671bbd618c70","system_id":"levelo_inurba_marseille","lat":43.255747,"lon":5.382407,"is_reserved":false,"is_disabled":false,"rental_uris":{"android":"levelo://app?vid=5f6ae4c8-a7cd-4f3b-9adf-671bbd618c70","ios":"levelo://app?vid=5f6ae4c8-a7cd-4f3b-9adf-671bbd618c70"},"vehicle_type_id":"4","last_reported":1770809753,"current_range_meters":11600,"station_id":"ce4bhih2rcd13ifvqfs0","pricing_plan_id":"cebpf4jnsgd1na2vs0mg"},{"bike_id":"f0286ae3-4df9-493a-a9d2-1a500a4d65a7","system_id":"levelo_inurba_marseille","lat":43.231474,"lon":5.437249,"is_reserved":false,"is_disabled":false,"rental_uris":{"android":"levelo://app?vid=f0286ae3-4df9-493a-a9d2-1a500a4d65a7","ios":"levelo://app?vid=f0286ae3-4df9-493a-a9d2-1a500a4d65a7"},"vehicle_type_id":"4","last_reported":1770809753,"current_range_meters":11600,"station_id":"ce4bhmp2rcd13ifvqgog","pricing_plan_id":"cebpf4jnsgd1na2vs0mg"},{"bike_id":"e61f8348-ac76-4cea-92f8-334c0273949b","system_id":"levelo_inurba_marseille","lat":43.24645,"lon":5.43128,"is_reserved":false,"is_disabled":false,"rental_uris":{"android":"levelo://app?vid=e61f8348-ac76-4cea-92f8-334c0273949b","ios":"levelo://app?vid=e61f8348-ac76-4cea-92f8-334c0273949b"},"vehicle_type_id":"4","last_reported":1770809753,"current_range_meters":11600,"station_id":"st_d2m6c4gdas8pm72e190g","pricing_plan_id":"cebpf4jnsgd1na2vs0mg"},{"bike_id":"d18af16b-218b-4aaf-9fd2-e468f7ed83f7","system_id":"levelo_inurba_marseille","lat":43.2981,"lon":5.38092,"is_reserved":false,"is_disabled":false,"rental_uris":{"android":"levelo://app?vid=d18af16b-218b-4aaf-9fd2-e468f7ed83f7","ios":"levelo://app?vid=d18af16b-218b-4aaf-9fd2-e468f7ed83f7"},"vehicle_type_id":"4","last_reported":1770809753,"current_range_meters":11600,"station_id":"ce4bgip2rcd13ifvqbb0","pricing_plan_id":"cebpf4jnsgd1na2vs0mg"},{"bike_id":"99a20b55-9c14-4931-b67c-a2b8a44aa1a2","system_id":"levelo_inurba_marseille","lat":43.28938,"lon":5.38391,"is_reserved":false,"is_disabled":false,"rental_uris":{"android":"levelo://app?vid=99a20b55-9c14-4931-b67c-a2b8a44aa1a2","ios":"levelo://app?vid=99a20b55-9c14-4931-b67c-a2b8a44aa1a2"},"vehicle_type_id":"4","last_reported":1770809753,"current_range_meters":11600,"station_id":"ce4bh612rcd13ifvqe6g","pricing_plan_id":"cebpf4jnsgd1na2vs0mg"},{"bike_id":"da732a47-27dd-4801-8d25-23d54a0a625d","system_id":"levelo_inurba_marseille","lat":43.27238,"lon":5.39216,"is_reserved":false,"is_disabled":false,"rental_uris":{"android":"levelo://app?vid=da732a47-27dd-4801-8d25-23d54a0a625d","ios":"levelo://app?vid=da732a47-27dd-4801-8d25-23d54a0a625d"},"vehicle_type_id":"4","last_reported":1770809753,"current_range_meters":11600,"station_id":"ce4bhhp2rcd13ifvqfm0","pricing_plan_id":"cebpf4jnsgd1na2vs0mg"},{"bike_id":"989b5b08-d948-4be9-bc29-7318c8ff2142","system_id":"levelo_inurba_marseille","lat":43.24636,"lon":5.43144,"is_reserved":false,"is_disabled":false,"rental_uris":{"android":"levelo://app?vid=989b5b08-d948-4be9-bc29-7318c8ff2142","ios":"levelo://app?vid=989b5b08-d948-4be9-bc29-7318c8ff2142"},"vehicle_type_id":"4","last_reported":1770809753,"current_range_meters":11600,"station_id":"st_d2m6c4gdas8pm72e190g","pricing_plan_id":"cebpf4jnsgd1na2vs0mg"},{"bike_id":"0534c432-df9b-40e2-90f9-0f7d9e0d7c36","system_id":"levelo_inurba_marseille","lat":43.23158,"lon":5.43706,"is_reserved":false,"is_disabled":false,"rental_uris":{"android":"levelo://app?vid=0534c432-df9b-40e2-90f9-0f7d9e0d7c36","ios":"levelo://app?vid=0534c432-df9b-40e2-90f9-0f7d9e0d7c36"},"vehicle_type_id":"4","last_reported":1770809753,"current_range_meters":11600,"station_id":"ce4bhmp2rcd13ifvqgog","pricing_plan_id":"cebpf4jnsgd1na2vs0mg"},{"bike_id":"ab2b49aa-7574-41ea-aafd-20e44f598b0a","system_id":"levelo_inurba_marseille","lat":43.3316,"lon":5.37737,"is_reserved":false,"is_disabled":false,"rental_uris":{"android":"levelo://app?vid=ab2b49aa-7574-41ea-aafd-20e44f598b0a","ios":"levelo://app?vid=ab2b49aa-7574-41ea-aafd-20e44f598b0a"},"vehicle_type_id":"4","last_reported":1770809753,"current_range_meters":11600,"station_id":"st_d46cu089ee8s73dldbu0","pricing_plan_id":"cebpf4jnsgd1na2vs0mg"},{"bike_id":"b3ba3cc5-2fa1-4600-b170-e4e11f93d8db","system_id":"levelo_inurba_marseille","lat":43.310406,"lon":5.371673,"is_reserved":false,"is_disabled":false,"rental_uris":{"android":"levelo://app?vid=b3ba3cc5-2fa1-4600-b170-e4e11f93d8db","ios":"levelo://app?vid=b3ba3cc5-2fa1-4600-b170-e4e11f93d8db"},"vehicle_type_id":"4","last_reported":1770809753,"current_range_meters":11600,"station_id":"st_d4kl2rp97mjs73e7tdfg","pricing_plan_id":"cebpf4jnsgd1na2vs0mg"},{"bike_id":"28b7189c-bfe0-4cda-a5b8-b353a1e1ecb9","system_id":"levelo_inurba_marseille","lat":43.2796,"lon":5.3872,"is_reserved":false,"is_disabled":false,"rental_uris":{"android":"levelo://app?vid=28b7189c-bfe0-4cda-a5b8-b353a1e1ecb9","ios":"levelo://app?vid=28b7189c-bfe0-4cda-a5b8-b353a1e1ecb9"},"vehicle_type_id":"4","last_reported":1770809753,"current_range_meters":12000,"station_id":"ce4bhg12rcd13ifvqf80","pricing_plan_id":"cebpf4jnsgd1na2vs0mg"},{"bike_id":"9df0032a-f26c-436e-9c30-46c9ea367aa2","system_id":"levelo_inurba_marseille","lat":43.29268,"lon":5.3685,"is_reserved":false,"is_disabled":false,"rental_uris":{"android":"levelo://app?vid=9df0032a-f26c-436e-9c30-46c9ea367aa2","ios":"levelo://app?vid=9df0032a-f26c-436e-9c30-46c9ea367aa2"},"vehicle_type_id":"4","last_reported":1770809753,"current_range_meters":12000,"station_id":"","pricing_plan_id":"cebpf4jnsgd1na2vs0mg"},{"bike_id":"48ef2e5e-395e-487a-9e41-360aad012a1f","system_id":"levelo_inurba_marseille","lat":43.262129,"lon":5.374422,"is_reserved":false,"is_disabled":false,"rental_uris":{"android":"levelo://app?vid=48ef2e5e-395e-487a-9e41-360aad012a1f","ios":"levelo://app?vid=48ef2e5e-395e-487a-9e41-360aad012a1f"},"vehicle_type_id":"4","last_reported":1770809753,"current_range_meters":12000,"station_id":"ce4bhgp2rcd13ifvqfc0","pricing_plan_id":"cebpf4jnsgd1na2vs0mg"},{"bike_id":"01ce82a4-2ac1-4e51-9582-9733201aaea4","system_id":"levelo_inurba_marseille","lat":43.30485,"lon":5.37921,"is_reserved":false,"is_disabled":false,"rental_uris":{"android":"levelo://app?vid=01ce82a4-2ac1-4e51-9582-9733201aaea4","ios":"levelo://app?vid=01ce82a4-2ac1-4e51-9582-9733201aaea4"},"vehicle_type_id":"4","last_reported":1770809753,"current_range_meters":12000,"station_id":"ce4bgup2rcd13ifvqcn0","pricing_plan_id":"cebpf4jnsgd1na2vs0mg"},{"bike_id":"fa427fcf-548f-4600-8e7c-cda34a1fa632","system_id":"levelo_inurba_marseille","lat":43.29194,"lon":5.35799,"is_reserved":false,"is_disabled":false,"rental_uris":{"android":"levelo://app?vid=fa427fcf-548f-4600-8e7c-cda34a1fa632","ios":"levelo://app?vid=fa427fcf-548f-4600-8e7c-cda34a1fa632"},"vehicle_type_id":"4","last_reported":1770809753,"current_range_meters":12000,"station_id":"ce4bhb12rcd13ifvqel0","pricing_plan_id":"cebpf4jnsgd1na2vs0mg"},{"bike_id":"0d75816b-9beb-4768-910c-24e5486d5dae","system_id":"levelo_inurba_marseille","lat":43.24189,"lon":5.39718,"is_reserved":false,"is_disabled":false,"rental_uris":{"android":"levelo://app?vid=0d75816b-9beb-4768-910c-24e5486d5dae","ios":"levelo://app?vid=0d75816b-9beb-4768-910c-24e5486d5dae"},"vehicle_type_id":"4","last_reported":1770809753,"current_range_meters":12000,"station_id":"ce4bhn12rcd13ifvqgpg","pricing_plan_id":"cebpf4jnsgd1na2vs0mg"},{"bike_id":"d54b106d-1122-48f1-917e-21c3100120b1","system_id":"levelo_inurba_marseille","lat":43.27224,"lon":5.39197,"is_reserved":false,"is_disabled":false,"rental_uris":{"android":"levelo://app?vid=d54b106d-1122-48f1-917e-21c3100120b1","ios":"levelo://app?vid=d54b106d-1122-48f1-917e-21c3100120b1"},"vehicle_type_id":"4","last_reported":1770809753,"current_range_meters":12000,"station_id":"ce4bhhp2rcd13ifvqfm0","pricing_plan_id":"cebpf4jnsgd1na2vs0mg"},{"bike_id":"f93fd7ec-dcc0-4f76-a35d-c2fb6b435566","system_id":"levelo_inurba_marseille","lat":43.27228,"lon":5.39179,"is_reserved":false,"is_disabled":false,"rental_uris":{"android":"levelo://app?vid=f93fd7ec-dcc0-4f76-a35d-c2fb6b435566","ios":"levelo://app?vid=f93fd7ec-dcc0-4f76-a35d-c2fb6b435566"},"vehicle_type_id":"4","last_reported":1770809753,"current_range_meters":12400,"station_id":"ce4bhhp2rcd13ifvqfm0","pricing_plan_id":"cebpf4jnsgd1na2vs0mg"},{"bike_id":"52c5007b-88c9-4d1c-9fe2-488c4cdcfbef","system_id":"levelo_inurba_marseille","lat":43.25868,"lon":5.39888,"is_reserved":false,"is_disabled":false,"rental_uris":{"android":"levelo://app?vid=52c5007b-88c9-4d1c-9fe2-488c4cdcfbef","ios":"levelo://app?vid=52c5007b-88c9-4d1c-9fe2-488c4cdcfbef"},"vehicle_type_id":"4","last_reported":1770809753,"current_range_meters":12400,"station_id":"ce4bhl92rcd13ifvqghg","pricing_plan_id":"cebpf4jnsgd1na2vs0mg"},{"bike_id":"5ff157dc-e3aa-4305-ad39-dfa58cf64b9c","system_id":"levelo_inurba_marseille","lat":43.24084,"lon":5.37751,"is_reserved":false,"is_disabled":false,"rental_uris":{"android":"levelo://app?vid=5ff157dc-e3aa-4305-ad39-dfa58cf64b9c","ios":"levelo://app?vid=5ff157dc-e3aa-4305-ad39-dfa58cf64b9c"},