{"last_updated":1745989855,"ttl":60,"version":"2.2","data":{"bikes":[{"bike_id":"af4f0c69-e62d-4155-b1d1-a67b45271ae1","system_id":"levelo_inurba_marseille","lat":43.247558,"lon":5.411771,"is_reserved":false,"is_disabled":false,"rental_uris":{"android":"levelo://app?vid=af4f0c69-e62d-4155-b1d1-a67b45271ae1","ios":"levelo://app?vid=af4f0c69-e62d-4155-b1d1-a67b45271ae1"},"vehicle_type_id":"4","last_reported":1745989855,"current_range_meters":2800,"station_id":"","pricing_plan_id":"cebpf4jnsgd1na2vs0mg"},{"bike_id":"e288c1b9-de3d-40c0-ac27-e03c9556d880","system_id":"levelo_inurba_marseille","lat":43.292606,"lon":5.409151,"is_reserved":false,"is_disabled":true,"rental_uris":{"android":"levelo://app?vid=e288c1b9-de3d-40c0-ac27-e03c9556d880","ios":"levelo://app?vid=e288c1b9-de3d-40c0-ac27-e03c9556d880"},"vehicle_type_id":"4","last_reported":1745989855,"current_range_meters":2800,"station_id":"ce4bh192rcd13ifvqdc0","pricing_plan_id":"cebpf4jnsgd1na2vs0mg"},{"bike_id":"110d42e0-e455-49c3-ba2f-a13b1f51573a","system_id":"levelo_inurba_marseille","lat":43.2965,"lon":5.41204,"is_reserved":false,"is_disabled":false,"rental_uris":{"android":"levelo://app?vid=110d42e0-e455-49c3-ba2f-a13b1f51573a","ios":"levelo://app?vid=110d42e0-e455-49c3-ba2f-a13b1f51573a"},"vehicle_type_id":"4","last_reported":1745989855,"current_range_meters":2800,"station_id":"","pricing_plan_id":"cebpf4jnsgd1na2vs0mg"},{"bike_id":"76265f97-ca81-465f-bf4f-0f973c70a2ef","system_id":"levelo_inurba_marseille","lat":43.301289,"lon":5.398686,"is_reserved":false,"is_disabled":false,"rental_uris":{"android":"levelo://app?vid=76265f97-ca81-465f-bf4f-0f973c70a2ef","ios":"levelo://app?vid=76265f97-ca81-465f-bf4f-0f973c70a2ef"},"vehicle_type_id":"4","last_reported":1745989855,"current_range_meters":2800,"station_id":"ce4bh0h2rcd13ifvqd40","pricing_plan_id":"cebpf4jnsgd1na2vs0mg"},{"bike_id":"1f739055-8148-4574-abff-98a1f2db48ac","system_id":"levelo_inurba_marseille","lat":43.291813,"lon":5.357977,"is_reserved":false,"is_disabled":true,"rental_uris":{"android":"levelo://app?vid=1f739055-8148-4574-abff-98a1f2db48ac","ios":"levelo://app?vid=1f739055-8148-4574-abff-98a1f2db48ac"},"vehicle_type_id":"4","last_reported":1745989855,"current_range_meters":2800,"station_id":"ce4bhb12rcd13ifvqel0","pricing_plan_id":"cebpf4jnsgd1na2vs0mg"},{"bike_id":"84cedf48-e57d-45a5-a0c8-ebc11596d2c4","system_id":"levelo_inurba_marseille","lat":43.30309,"lon":5.36889,"is_reserved":false,"is_disabled":false,"rental_uris":{"android":"levelo://app?vid=84cedf48-e57d-45a5-a0c8-ebc11596d2c4","ios":"levelo://app?vid=84cedf48-e57d-45a5-a0c8-ebc11596d2c4"},"vehicle_type_id":"4","last_reported":1745989855,"current_range_meters":2800,"station_id":"ce4bgqh2rcd13ifvqc5g","pricing_plan_id":"cebpf4jnsgd1na2vs0mg"},{"bike_id":"9d010305-db17-4453-8752-e7a64080a1fa","system_id":"levelo_inurba_marseille","lat":43.28389,"lon":5.39614,"is_reserved":false,"is_disabled":false,"rental_uris":{"android":"levelo://app?vid=9d010305-db17-4453-8752-e7a64080a1fa","ios":"levelo://app?vid=9d010305-db17-4453-8752-e7a64080a1fa"},"vehicle_type_id":"4","last_reported":1745989855,"current_range_meters":3600,"station_id":"","pricing_plan_id":"cebpf4jnsgd1na2vs0mg"},{"bike_id":"775481df-05c4-4f0e-8a67-b66aedbeddcf","system_id":"levelo_inurba_marseille","lat":43.24169,"lon":5.39736,"is_reserved":false,"is_disabled":false,"rental_uris":{"android":"levelo://app?vid=775481df-05c4-4f0e-8a67-b66aedbeddcf","ios":"levelo://app?vid=775481df-05c4-4f0e-8a67-b66aedbeddcf"},"vehicle_type_id":"4","last_reported":1745989855,"current_range_meters":3600,"station_id":"ce4bhn12rcd13ifvqgpg","pricing_plan_id":"cebpf4jnsgd1na2vs0mg"},{"bike_id":"260981a5-60d4-4b38-97de-5fb58feade6c","system_id":"levelo_inurba_marseille","lat":43.240682,"lon":5.377649,"is_reserved":false,"is_disabled":false,"rental_uris":{"android":"levelo://app?vid=260981a5-60d4-4b38-97de-5fb58feade6c","ios":"levelo://app?vid=260981a5-60d4-4b38-97de-5fb58feade6c"},"vehicle_type_id":"4","last_reported":1745989855,"current_range_meters":3600,"station_id":"ce4bhnp2rcd13ifvqgvg","pricing_plan_id":"cebpf4jnsgd1na2vs0mg"},{"bike_id":"c847c66a-5d4b-43a0-b8ce-3c816716271e","system_id":"levelo_inurba_marseille","lat":43.289969,"lon":5.356229,"is_reserved":false,"is_disabled":true,"rental_uris":{"android":"levelo://app?vid=c847c66a-5d4b-43a0-b8ce-3c816716271e","ios":"levelo://app?vid=c847c66a-5d4b-43a0-b8ce-3c816716271e"},"vehicle_type_id":"4","last_reported":1745989855,"current_range_meters":3600,"station_id":"ce4bhb92rcd13ifvqen0","pricing_plan_id":"cebpf4jnsgd1na2vs0mg"},{"bike_id":"b039c152-f87b-436a-9b54-3e5c0bb27b9c","system_id":"levelo_inurba_marseille","lat":43.28943,"lon":5.39628,"is_reserved":false,"is_disabled":false,"rental_uris":{"android":"levelo://app?vid=b039c152-f87b-436a-9b54-3e5c0bb27b9c","ios":"levelo://app?vid=b039c152-f87b-436a-9b54-3e5c0bb27b9c"},"vehicle_type_id":"4","last_reported":1745989855,"current_range_meters":3600,"station_id":"ce4bh3h2rcd13ifvqdn0","pricing_plan_id":"cebpf4jnsgd1na2vs0mg"},{"bike_id":"e0ac88e2-1eb0-4cac-b929-78c1462f501f","system_id":"levelo_inurba_marseille","lat":43.279415,"lon":5.410337,"is_reserved":false,"is_disabled":false,"rental_uris":{"android":"levelo://app?vid=e0ac88e2-1eb0-4cac-b929-78c1462f501f","ios":"levelo://app?vid=e0ac88e2-1eb0-4cac-b929-78c1462f501f"},"vehicle_type_id":"4","last_reported":1745989855,"current_range_meters":4000,"station_id":"ce4bhnp2rcd13ifvqh0g","pricing_plan_id":"cebpf4jnsgd1na2vs0mg"},{"bike_id":"6e77553d-d52f-4bbb-ae21-1ce2fa23c7c5","system_id":"levelo_inurba_marseille","lat":43.279032,"lon":5.395979,"is_reserved":false,"is_disabled":false,"rental_uris":{"android":"levelo://app?vid=6e77553d-d52f-4bbb-ae21-1ce2fa23c7c5","ios":"levelo://app?vid=6e77553d-d52f-4bbb-ae21-1ce2fa23c7c5"},"vehicle_type_id":"4","last_reported":1745989855,"current_range_meters":4000,"station_id":"ce4bhf92rcd13ifvqf40","pricing_plan_id":"cebpf4jnsgd1na2vs0mg"},{"bike_id":"83825a2b-3736-49ed-aeea-be993f789935","system_id":"levelo_inurba_marseille","lat":43.27505,"lon":5.42476,"is_reserved":false,"is_disabled":false,"rental_uris":{"android":"levelo://app?vid=83825a2b-3736-49ed-aeea-be993f789935","ios":"levelo://app?vid=83825a2b-3736-49ed-aeea-be993f789935"},"vehicle_type_id":"4","last_reported":1745989855,"current_range_meters":4400,"station_id":"ce4bhn92rcd13ifvqgrg","pricing_plan_id":"cebpf4jnsgd1na2vs0mg"},{"bike_id":"30863a6e-f457-46c9-97f1-1ff48ae4e265","system_id":"levelo_inurba_marseille","lat":43.29034,"lon":5.39963,"is_reserved":false,"is_disabled":false,"rental_uris":{"android":"levelo://app?vid=30863a6e-f457-46c9-97f1-1ff48ae4e265","ios":"levelo://app?vid=30863a6e-f457-46c9-97f1-1ff48ae4e265"},"vehicle_type_id":"4","last_reported":1745989855,"current_range_meters":4400,"station_id":"ce4bh392rcd13ifvqdm0","pricing_plan_id":"cebpf4jnsgd1na2vs0mg"},{"bike_id":"0a5341da-d064-46c5-b0f2-ab9a467ac050","system_id":"levelo_inurba_marseille","lat":43.289437,"lon":5.363973,"is_reserved":false,"is_disabled":false,"rental_uris":{"android":"levelo://app?vid=0a5341da-d064-46c5-b0f2-ab9a467ac050","ios":"levelo://app?vid=0a5341da-d064-46c5-b0f2-ab9a467ac050"},"vehicle_type_id":"4","last_reported":1745989855,"current_range_meters":4400,"station_id":"ce4bhc92rcd13ifvqetg","pricing_plan_id":"cebpf4jnsgd1na2vs0mg"},{"bike_id":"4e921bd6-7318-4e59-bc63-645afd4ef569","system_id":"levelo_inurba_marseille","lat":43.24171,"lon":5.363951,"is_reserved":false,"is_disabled":false,"rental_uris":{"android":"levelo://app?vid=4e921bd6-7318-4e59-bc63-645afd4ef569","ios":"levelo://app?vid=4e921bd6-7318-4e59-bc63-645afd4ef569"},"vehicle_type_id":"4","last_reported":1745989855,"current_range_meters":4400,"station_id":"cpo36qri1sfpv3e86is0","pricing_plan_id":"cebpf4jnsgd1na2vs0mg"},{"bike_id":"e5b4b90d-e268-4de2-98f4-f6d0513f8801","system_id":"levelo_inurba_marseille","lat":43.265457,"lon":5.42209,"is_reserved":false,"is_disabled":false,"rental_uris":{"android":"levelo://app?vid=e5b4b90d-e268-4de2-98f4-f6d0513f8801","ios":"levelo://app?vid=e5b4b90d-e268-4de2-98f4-f6d0513f8801"},"vehicle_type_id":"4","last_reported":1745989855,"current_range_meters":5600,"station_id":"","pricing_plan_id":"cebpf4jnsgd1na2vs0mg"},{"bike_id":"fabd583b-9735-440b-9c31-9b37dd4b416b","system_id":"levelo_inurba_marseille","lat":43.23201,"lon":5.39941,"is_reserved":false,"is_disabled":false,"rental_uris":{"android":"levelo://app?vid=fabd583b-9735-440b-9c31-9b37dd4b416b","ios":"levelo://app?vid=fabd583b-9735-440b-9c31-9b37dd4b416b"},"vehicle_type_id":"4","last_reported":1745989855,"current_range_meters":6000,"station_id":"ce4bhn12rcd13ifvqgqg","pricing_plan_id":"cebpf4jnsgd1na2vs0mg"},{"bike_id":"9de6f011-455c-480e-a514-d48c3e153977","system_id":"levelo_inurba_marseille","lat":43.28704,"lon":5.37404,"is_reserved":false,"is_disabled":false,"rental_uris":{"android":"levelo://app?vid=9de6f011-455c-480e-a514-d48c3e153977","ios":"levelo://app?vid=9de6f011-455c-480e-a514-d48c3e153977"},"vehicle_type_id":"4","last_reported":1745989855,"current_range_meters":6000,"station_id":"ce4bh3p2rcd13ifvqdq0","pricing_plan_id":"cebpf4jnsgd1na2vs0mg"},{"bike_id":"79af80e6-dae8-4366-9807-e3759055ac2e","system_id":"levelo_inurba_marseille","lat":43.26573,"lon":5.39011,"is_reserved":false,"is_disabled":false,"rental_uris":{"android":"levelo://app?vid=79af80e6-dae8-4366-9807-e3759055ac2e","ios":"levelo://app?vid=79af80e6-dae8-4366-9807-e3759055ac2e"},"vehicle_type_id":"4","last_reported":1745989855,"current_range_meters":6000,"station_id":"ce4bhe12rcd13ifvqf30","pricing_plan_id":"cebpf4jnsgd1na2vs0mg"},{"bike_id":"dbdacbe4-4534-4d90-9d33-96b20d3b7463","system_id":"levelo_inurba_marseille","lat":43.292141,"lon":5.400068,"is_reserved":false,"is_disabled":false,"rental_uris":{"android":"levelo://app?vid=dbdacbe4-4534-4d90-9d33-96b20d3b7463","ios":"levelo://app?vid=dbdacbe4-4534-4d90-9d33-96b20d3b7463"},"vehicle_type_id":"4","last_reported":1745989855,"current_range_meters":6000,"station_id":"","pricing_plan_id":"cebpf4jnsgd1na2vs0mg"},{"bike_id":"9d274e29-60e4-43bc-8771-a5d1f44253d3","system_id":"levelo_inurba_marseille","lat":43.33781,"lon":5.37439,"is_reserved":false,"is_disabled":false,"rental_uris":{"android":"levelo://app?vid=9d274e29-60e4-43bc-8771-a5d1f44253d3","ios":"levelo://app?vid=9d274e29-60e4-43bc-8771-a5d1f44253d3"},"vehicle_type_id":"4","last_reported":1745989855,"current_range_meters":6000,"station_id":"","pricing_plan_id":"cebpf4jnsgd1na2vs0mg"},{"bike_id":"c3701277-3ef8-4af1-aceb-6364bb93ea9e","system_id":"levelo_inurba_marseille","lat":43.32285,"lon":5.382643,"is_reserved":false,"is_disabled":false,"rental_uris":{"android":"levelo://app?vid=c3701277-3ef8-4af1-aceb-6364bb93ea9e","ios":"levelo://app?vid=c3701277-3ef8-4af1-aceb-6364bb93ea9e"},"vehicle_type_id":"4","last_reported":1745989855,"current_range_meters":6400,"station_id":"ce4bhr12rcd13ifvqhqg","pricing_plan_id":"cebpf4jnsgd1na2vs0mg"},{"bike_id":"30ea7d98-131e-411e-b817-27f888c4f046","system_id":"levelo_inurba_marseille","lat":43.26226,"lon":5.4047,"is_reserved":false,"is_disabled":false,"rental_uris":{"android":"levelo://app?vid=30ea7d98-131e-411e-b817-27f888c4f046","ios":"levelo://app?vid=30ea7d98-131e-411e-b817-27f888c4f046"},"vehicle_type_id":"4","last_reported":1745989855,"current_range_meters":6400,"station_id":"ce4bhmh2rcd13ifvqgmg","pricing_plan_id":"cebpf4jnsgd1na2vs0mg"},{"bike_id":"f1e3c12a-02a3-4893-b9e1-1aacd74f3f49","system_id":"levelo_inurba_marseille","lat":43.321056,"lon":5.367917,"is_reserved":false,"is_disabled":false,"rental_uris":{"android":"levelo://app?vid=f1e3c12a-02a3-4893-b9e1-1aacd74f3f49","ios":"levelo://app?vid=f1e3c12a-02a3-4893-b9e1-1aacd74f3f49"},"vehicle_type_id":"4","last_reported":1745989855,"current_range_meters":6400,"station_id":"ce4bhrh2rcd13ifvqhug","pricing_plan_id":"cebpf4jnsgd1na2vs0mg"},{"bike_id":"06dcc6f4-89ff-48c8-b9e4-bbe36a49349c","system_id":"levelo_inurba_marseille","lat":43.30783,"lon":5.37659,"is_reserved":false,"is_disabled":false,"rental_uris":{"android":"levelo://app?vid=06dcc6f4-89ff-48c8-b9e4-bbe36a49349c","ios":"levelo://app?vid=06dcc6f4-89ff-48c8-b9e4-bbe36a49349c"},"vehicle_type_id":"4","last_reported":1745989855,"current_range_meters":6400,"station_id":"","pricing_plan_id":"cebpf4jnsgd1na2vs0mg"},{"bike_id":"738568dc-408d-4c2d-88de-35ad23a92b23","system_id":"levelo_inurba_marseille","lat":43.241609,"lon":5.363962,"is_reserved":false,"is_disabled":false,"rental_uris":{"android":"levelo://app?vid=738568dc-408d-4c2d-88de-35ad23a92b23","ios":"levelo://app?vid=738568dc-408d-4c2d-88de-35ad23a92b23"},"vehicle_type_id":"4","last_reported":1745989855,"current_range_meters":6400,"station_id":"cpo36qri1sfpv3e86is0","pricing_plan_id":"cebpf4jnsgd1na2vs0mg"},{"bike_id":"2c1b33dc-6037-49cc-a203-b73517cb14ac","system_id":"levelo_inurba_marseille","lat":43.286581,"lon":5.454801,"is_reserved":false,"is_disabled":false,"rental_uris":{"android":"levelo://app?vid=2c1b33dc-6037-49cc-a203-b73517cb14ac","ios":"levelo://app?vid=2c1b33dc-6037-49cc-a203-b73517cb14ac"},"vehicle_type_id":"4","last_reported":1745989855,"current_range_meters":6800,"station_id":"","pricing_plan_id":"cebpf4jnsgd1na2vs0mg"},{"bike_id":"6f38b2ef-8c68-4c77-9fb6-fb95536bec70","system_id":"levelo_inurba_marseille","lat":43.26223,"lon":5.4047,"is_reserved":false,"is_disabled":false,"rental_uris":{"android":"levelo://app?vid=6f38b2ef-8c68-4c77-9fb6-fb95536bec70","ios":"levelo://app?vid=6f38b2ef-8c68-4c77-9fb6-fb95536bec70"},"vehicle_type_id":"4","last_reported":1745989855,"current_range_meters":6800,"station_id":"ce4bhmh2rcd13ifvqgmg","pricing_plan_id":"cebpf4jnsgd1na2vs0mg"},{"bike_id":"fcf39cbd-8d86-44b1-994d-edea3f417da6","system_id":"levelo_inurba_marseille","lat":43.271802,"lon":5.409943,"is_reserved":false,"is_disabled":false,"rental_uris":{"android":"levelo://app?vid=fcf39cbd-8d86-44b1-994d-edea3f417da6","ios":"levelo://app?vid=fcf39cbd-8d86-44b1-994d-edea3f417da6"},"vehicle_type_id":"4","last_reported":1745989855,"current_range_meters":6800,"station_id":"ce4bhl12rcd13ifvqgf0","pricing_plan_id":"cebpf4jnsgd1na2vs0mg"},{"bike_id":"b91f9a69-4cb5-41b7-b305-31a14f27626b","system_id":"levelo_inurba_marseille","lat":43.284219,"lon":5.349951,"is_reserved":false,"is_disabled":true,"rental_uris":{"android":"levelo://app?vid=b91f9a69-4cb5-41b7-b305-31a14f27626b","ios":"levelo://app?vid=b91f9a69-4cb5-41b7-b305-31a14f27626b"},"vehicle_type_id":"4","last_reported":1745989855,"current_range_meters":6800,"station_id":"ce4bhbh2rcd13ifvqepg","pricing_plan_id":"cebpf4jnsgd1na2vs0mg"},{"bike_id":"e37d8bc7-a4ee-4711-ada3-738b74336e54","system_id":"levelo_inurba_marseille","lat":43.285561,"lon":5.394923,"is_reserved":false,"is_disabled":false,"rental_uris":{"android":"levelo://app?vid=e37d8bc7-a4ee-4711-ada3-738b74336e54","ios":"levelo://app?vid=e37d8bc7-a4ee-4711-ada3-738b74336e54"},"vehicle_type_id":"4","last_reported":1745989855,"current_range_meters":6800,"station_id":"ce4bh292rcd13ifvqdg0","pricing_plan_id":"cebpf4jnsgd1na2vs0mg"},{"bike_id":"4495444d-abd9-4d15-ae65-abeb5470be26","system_id":"levelo_inurba_marseille","lat":43.30542,"lon":5.38424,"is_reserved":false,"is_disabled":false,"rental_uris":{"android":"levelo://app?vid=4495444d-abd9-4d15-ae65-abeb5470be26","ios":"levelo://app?vid=4495444d-abd9-4d15-ae65-abeb5470be26"},"vehicle_type_id":"4","last_reported":1745989855,"current_range_meters":6800,"station_id":"ce4bgg92rcd13ifvqb30","pricing_plan_id":"cebpf4jnsgd1na2vs0mg"},{"bike_id":"675f622c-7d55-4692-8fa9-36cb9fe77410","system_id":"levelo_inurba_marseille","lat":43.30324,"lon":5.40438,"is_reserved":false,"is_disabled":false,"rental_uris":{"android":"levelo://app?vid=675f622c-7d55-4692-8fa9-36cb9fe77410","ios":"levelo://app?vid=675f622c-7d55-4692-8fa9-36cb9fe77410"},"vehicle_type_id":"4","last_reported":1745989855,"current_range_meters":7200,"station_id":"ce4bh012rcd13ifvqd10","pricing_plan_id":"cebpf4jnsgd1na2vs0mg"},{"bike_id":"58d96813-51d9-4691-82e4-fd7df8625fb2","system_id":"levelo_inurba_marseille","lat":43.303749,"lon":5.424889,"is_reserved":false,"is_disabled":false,"rental_uris":{"android":"levelo://app?vid=58d96813-51d9-4691-82e4-fd7df8625fb2","ios":"levelo://app?vid=58d96813-51d9-4691-82e4-fd7df8625fb2"},"vehicle_type_id":"4","last_reported":1745989855,"current_range_meters":7200,"station_id":"ce4bhoh2rcd13ifvqh6g","pricing_plan_id":"cebpf4jnsgd1na2vs0mg"},{"bike_id":"7497e739-0c50-4aa1-9f39-dfb008e37b83","system_id":"levelo_inurba_marseille","lat":43.30962,"lon":5.37148,"is_reserved":false,"is_disabled":false,"rental_uris":{"android":"levelo://app?vid=7497e739-0c50-4aa1-9f39-dfb008e37b83","ios":"levelo://app?vid=7497e739-0c50-4aa1-9f39-dfb008e37b83"},"vehicle_type_id":"4","last_reported":1745989855,"current_range_meters":7200,"station_id":"","pricing_plan_id":"cebpf4jnsgd1na2vs0mg"},{"bike_id":"d693c143-5944-42c7-b7b1-448d4c6d229b","system_id":"levelo_inurba_marseille","lat":43.312801,"lon":5.401653,"is_reserved":false,"is_disabled":false,"rental_uris":{"android":"levelo://app?vid=d693c143-5944-42c7-b7b1-448d4c6d229b","ios":"levelo://app?vid=d693c143-5944-42c7-b7b1-448d4c6d229b"},"vehicle_type_id":"4","last_reported":1745989855,"current_range_meters":8000,"station_id":"ce4bh092rcd13ifvqd30","pricing_plan_id":"cebpf4jnsgd1na2vs0mg"},{"bike_id":"6b60bf79-15ce-44ac-ae2b-e41f2863a48b","system_id":"levelo_inurba_marseille","lat":43.30245,"lon":5.401,"is_reserved":false,"is_disabled":true,"rental_uris":{"android":"levelo://app?vid=6b60bf79-15ce-44ac-ae2b-e41f2863a48b","ios":"levelo://app?vid=6b60bf79-15ce-44ac-ae2b-e41f2863a48b"},"vehicle_type_id":"4","last_reported":1745989855,"current_range_meters":8000,"station_id":"ce4bgvh2rcd13ifvqcs0","pricing_plan_id":"cebpf4jnsgd1na2vs0mg"},{"bike_id":"561b2f84-08e7-4121-bad8-f7a2a19f1511","system_id":"levelo_inurba_marseille","lat":43.28056,"lon":5.39673,"is_reserved":false,"is_disabled":false,"rental_uris":{"android":"levelo://app?vid=561b2f84-08e7-4121-bad8-f7a2a19f1511","ios":"levelo://app?vid=561b2f84-08e7-4121-bad8-f7a2a19f1511"},"vehicle_type_id":"4","last_reported":1745989855,"current_range_meters":8000,"station_id":"ce4bho12rcd13ifvqh2g","pricing_plan_id":"cebpf4jnsgd1na2vs0mg"},{"bike_id":"3c10f98c-2cb9-4204-927c-152300f9b3ce","system_id":"levelo_inurba_marseille","lat":43.34727,"lon":5.35189,"is_reserved":false,"is_disabled":false,"rental_uris":{"android":"levelo://app?vid=3c10f98c-2cb9-4204-927c-152300f9b3ce","ios":"levelo://app?vid=3c10f98c-2cb9-4204-927c-152300f9b3ce"},"vehicle_type_id":"4","last_reported":1745989855,"current_range_meters":8000,"station_id":"","pricing_plan_id":"cebpf4jnsgd1na2vs0mg"},{"bike_id":"22c7b6e2-900d-49b2-a5fa-5c40e8e0d33b","system_id":"levelo_inurba_marseille","lat":43.2811,"lon":5.37834,"is_reserved":false,"is_disabled":false,"rental_uris":{"android":"levelo://app?vid=22c7b6e2-900d-49b2-a5fa-5c40e8e0d33b","ios":"levelo://app?vid=22c7b6e2-900d-49b2-a5fa-5c40e8e0d33b"},"vehicle_type_id":"4","last_reported":1745989855,"current_range_meters":8000,"station_id":"ce4bha12rcd13ifvqee0","pricing_plan_id":"cebpf4jnsgd1na2vs0mg"},{"bike_id":"b05dbe43-6724-4fbf-bf5d-4b320183bb28","system_id":"levelo_inurba_marseille","lat":43.28109,"lon":5.37848,"is_reserved":false,"is_disabled":false,"rental_uris":{"android":"levelo://app?vid=b05dbe43-6724-4fbf-bf5d-4b320183bb28","ios":"levelo://app?vid=b05dbe43-6724-4fbf-bf5d-4b320183bb28"},"vehicle_type_id":"4","last_reported":1745989855,"current_range_meters":8000,"station_id":"ce4bha12rcd13ifvqee0","pricing_plan_id":"cebpf4jnsgd1na2vs0mg"},{"bike_id":"b96f21bb-69d8-4cbf-b464-f36a8f53d6e0","system_id":"levelo_inurba_marseille","lat":43.260175,"lon":5.417509,"is_reserved":false,"is_disabled":false,"rental_uris":{"android":"levelo://app?vid=b96f21bb-69d8-4cbf-b464-f36a8f53d6e0","ios":"levelo://app?vid=b96f21bb-69d8-4cbf-b464-f36a8f53d6e0"},"vehicle_type_id":"4","last_reported":1745989855,"current_range_meters":8000,"station_id":"","pricing_plan_id":"cebpf4jnsgd1na2vs0mg"},{"bike_id":"1862fb6f-61c4-4c09-a828-864ab246ea11","system_id":"levelo_inurba_marseille","lat":43.23528,"lon":5.40336,"is_reserved":false,"is_disabled":false,"rental_uris":{"android":"levelo://app?vid=1862fb6f-61c4-4c09-a828-864ab246ea11","ios":"levelo://app?vid=1862fb6f-61c4-4c09-a828-864ab246ea11"},"vehicle_type_id":"4","last_reported":1745989855,"current_range_meters":8000,"station_id":"","pricing_plan_id":"cebpf4jnsgd1na2vs0mg"},{"bike_id":"3a3adc5f-c46c-4ddb-9f5b-addbfa5853df","system_id":"levelo_inurba_marseille","lat":43.302094,"lon":5.394742,"is_reserved":false,"is_disabled":false,"rental_uris":{"android":"levelo://app?vid=3a3adc5f-c46c-4ddb-9f5b-addbfa5853df","ios":"levelo://app?vid=3a3adc5f-c46c-4ddb-9f5b-addbfa5853df"},"vehicle_type_id":"4","last_reported":1745989855,"current_range_meters":8400,"station_id":"ce4bh0p2rcd13ifvqd70","pricing_plan_id":"cebpf4jnsgd1na2vs0mg"},{"bike_id":"1022adec-b739-4aad-8467-c13dc00ecbe3","system_id":"levelo_inurba_marseille","lat":43.29612,"lon":5.37751,"is_reserved":false,"is_disabled":false,"rental_uris":{"android":"levelo://app?vid=1022adec-b739-4aad-8467-c13dc00ecbe3","ios":"levelo://app?vid=1022adec-b739-4aad-8467-c13dc00ecbe3"},"vehicle_type_id":"4","last_reported":1745989855,"current_range_meters":8400,"station_id":"ce4bgi92rcd13ifvqb90","pricing_plan_id":"cebpf4jnsgd1na2vs0mg"},{"bike_id":"a491bdd7-c56b-4ad9-9f1e-ed090c26045e","system_id":"levelo_inurba_marseille","lat":43.30841,"lon":5.37894,"is_reserved":false,"is_disabled":false,"rental_uris":{"android":"levelo://app?vid=a491bdd7-c56b-4ad9-9f1e-ed090c26045e","ios":"levelo://app?vid=a491bdd7-c56b-4ad9-9f1e-ed090c26045e"},"vehicle_type_id":"4","last_reported":1745989855,"current_range_meters":8400,"station_id":"","pricing_plan_id":"cebpf4jnsgd1na2vs0mg"},{"bike_id":"950539c0-c2a7-4f10-9505-afe3371972fa","system_id":"levelo_inurba_marseille","lat":43.3063,"lon":5.40091,"is_reserved":false,"is_disabled":false,"rental_uris":{"android":"levelo://app?vid=950539c0-c2a7-4f10-9505-afe3371972fa","ios":"levelo://app?vid=950539c0-c2a7-4f10-9505-afe3371972fa"},"vehicle_type_id":"4","last_reported":1745989855,"current_range_meters":8800,"station_id":"ce4bh112rcd13ifvqda0","pricing_plan_id":"cebpf4jnsgd1na2vs0mg"},{"bike_id":"3afb182a-0e0c-4697-93de-dcc223754d44","system_id":"levelo_inurba_marseille","lat":43.30142,"lon":5.38073,"is_reserved":false,"is_disabled":false,"rental_uris":{"android":"levelo://app?vid=3afb182a-0e0c-4697-93de-dcc223754d44","ios":"levelo://app?vid=3afb182a-0e0c-4697-93de-dcc223754d44"},"vehicle_type_id":"4","last_reported":1745989855,"current_range_meters":8800,"station_id":"ce4bgjp2rcd13ifvqbh0","pricing_plan_id":"cebpf4jnsgd1na2vs0mg"},{"bike_id":"7b6b8c90-7742-4816-8a7b-887e91f91d1c","system_id":"levelo_inurba_marseille","lat":43.27897,"lon":5.38007,"is_reserved":false,"is_disabled":false,"rental_uris":{"android":"levelo://app?vid=7b6b8c90-7742-4816-8a7b-887e91f91d1c","ios":"levelo://app?vid=7b6b8c90-7742-4816-8a7b-887e91f91d1c"},"vehicle_type_id":"4","last_reported":1745989855,"current_range_meters":9200,"station_id":"ce4bhf92rcd13ifvqf50","pricing_plan_id":"cebpf4jnsgd1na2vs0mg"},{"bike_id":"001cc922-c08b-48c6-b124-2829e7acef22","system_id":"levelo_inurba_marseille","lat":43.285619,"lon":5.395002,"is_reserved":false,"is_disabled":false,"rental_uris":{"android":"levelo://app?vid=001cc922-c08b-48c6-b124-2829e7acef22","ios":"levelo://app?vid=001cc922-c08b-48c6-b124-2829e7acef22"},"vehicle_type_id":"4","last_reported":1745989855,"current_range_meters":8800,"station_id":"ce4bh292rcd13ifvqdg0","pricing_plan_id":"cebpf4jnsgd1na2vs0mg"},{"bike_id":"c7d4ca92-020f-4c6f-815a-ddc6fdf77b1f","system_id":"levelo_inurba_marseille","lat":43.234696,"lon":5.380474,"is_reserved":false,"is_disabled":false,"rental_uris":{"android":"levelo://app?vid=c7d4ca92-020f-4c6f-815a-ddc6fdf77b1f","ios":"levelo://app?vid=c7d4ca92-020f-4c6f-815a-ddc6fdf77b1f"},"vehicle_type_id":"4","last_reported":1745989855,"current_range_meters":8800,"station_id":"","pricing_plan_id":"cebpf4jnsgd1na2vs0mg"},{"bike_id":"1c784351-9820-4386-9392-82ce87397468","system_id":"levelo_inurba_marseille","lat":43.30657,"lon":5.40068,"is_reserved":false,"is_disabled":false,"rental_uris":{"android":"levelo://app?vid=1c784351-9820-4386-9392-82ce87397468","ios":"levelo://app?vid=1c784351-9820-4386-9392-82ce87397468"},"vehicle_type_id":"4","last_reported":1745989855,"current_range_meters":9200,"station_id":"ce4bh112rcd13ifvqda0","pricing_plan_id":"cebpf4jnsgd1na2vs0mg"},{"bike_id":"0fbda7cd-f00d-4938-8e1e-60366b309981","system_id":"levelo_inurba_marseille","lat":43.28041,"lon":5.36947,"is_reserved":false,"is_disabled":false,"rental_uris":{"android":"levelo://app?vid=0fbda7cd-f00d-4938-8e1e-60366b309981","ios":"levelo://app?vid=0fbda7cd-f00d-4938-8e1e-60366b309981"},"vehicle_type_id":"4","last_reported":1745989855,"current_range_meters":8800,"station_id":"ce4bha12rcd13ifvqef0","pricing_plan_id":"cebpf4jnsgd1na2vs0mg"},{"bike_id":"bcbdece9-18a4-4ced-8494-9c131639e5f6","system_id":"levelo_inurba_marseille","lat":43.261181,"lon":5.414665,"is_reserved":false,"is_disabled":false,"rental_uris":{"android":"levelo://app?vid=bcbdece9-18a4-4ced-8494-9c131639e5f6","ios":"levelo://app?vid=bcbdece9-18a4-4ced-8494-9c131639e5f6"},"vehicle_type_id":"4","last_reported":1745989855,"current_range_meters":8800,"station_id":"","pricing_plan_id":"cebpf4jnsgd1na2vs0mg"},{"bike_id":"b7d1cacc-d7ec-44d6-b9a5-dd56cbfe35a3","system_id":"levelo_inurba_marseille","lat":43.25711,"lon":5.41103,"is_reserved":false,"is_disabled":false,"rental_uris":{"android":"levelo://app?vid=b7d1cacc-d7ec-44d6-b9a5-dd56cbfe35a3","ios":"levelo://app?vid=b7d1cacc-d7ec-44d6-b9a5-dd56cbfe35a3"},"vehicle_type_id":"4","last_reported":1745989855,"current_range_meters":9200,"station_id":"ce4bhkp2rcd13ifvqgd0","pricing_plan_id":"cebpf4jnsgd1na2vs0mg"},{"bike_id":"b59ce27f-4cb5-4d5d-b008-e4c837d90135","system_id":"levelo_inurba_marseille","lat":43.24679,"lon":5.38185,"is_reserved":false,"is_disabled":false,"rental_uris":{"android":"levelo://app?vid=b59ce27f-4cb5-4d5d-b008-e4c837d90135","ios":"levelo://app?vid=b59ce27f-4cb5-4d5d-b008-e4c837d90135"},"vehicle_type_id":"4","last_reported":1745989855,"current_range_meters":9200,"station_id":"ce4bhih2rcd13ifvqfr0","pricing_plan_id":"cebpf4jnsgd1na2vs0mg"},{"bike_id":"1be6b8de-5ed4-4d8a-9cd6-aeff3b5c0661","system_id":"levelo_inurba_marseille","lat":43.289674,"lon":5.378421,"is_reserved":false,"is_disabled":true,"rental_uris":{"android":"levelo://app?vid=1be6b8de-5ed4-4d8a-9cd6-aeff3b5c0661","ios":"levelo://app?vid=1be6b8de-5ed4-4d8a-9cd6-aeff3b5c0661"},"vehicle_type_id":"4","last_reported":1745989855,"current_range_meters":9200,"station_id":"ce4bh9p2rcd13ifvqed0","pricing_plan_id":"cebpf4jnsgd1na2vs0mg"},{"bike_id":"7744fc4a-a864-4a95-995b-a7a1e63cfe78","system_id":"levelo_inurba_marseille","lat":43.31718,"lon":5.42418,"is_reserved":false,"is_disabled":false,"rental_uris":{"android":"levelo://app?vid=7744fc4a-a864-4a95-995b-a7a1e63cfe78","ios":"levelo://app?vid=7744fc4a-a864-4a95-995b-a7a1e63cfe78"},"vehicle_type_id":"4","last_reported":1745989855,"current_range_meters":9200,"station_id":"ce4bhp92rcd13ifvqhbg","pricing_plan_id":"cebpf4jnsgd1na2vs0mg"},{"bike_id":"9fef158f-32d9-4324-99f3-536a7be998bc","system_id":"levelo_inurba_marseille","lat":43.29242,"lon":5.37597,"is_reserved":false,"is_disabled":false,"rental_uris":{"android":"levelo://app?vid=9fef158f-32d9-4324-99f3-536a7be998bc","ios":"levelo://app?vid=9fef158f-32d9-4324-99f3-536a7be998bc"},"vehicle_type_id":"4","last_reported":1745989855,"current_range_meters":9200,"station_id":"ce4bgi12rcd13ifvqb80","pricing_plan_id":"cebpf4jnsgd1na2vs0mg"},{"bike_id":"177c0abe-e271-45f8-94f5-b49d8badd517","system_id":"levelo_inurba_marseille","lat":43.27049,"lon":5.40265,"is_reserved":false,"is_disabled":false,"rental_uris":{"android":"levelo://app?vid=177c0abe-e271-45f8-94f5-b49d8badd517","ios":"levelo://app?vid=177c0abe-e271-45f8-94f5-b49d8badd517"},"vehicle_type_id":"4","last_reported":1745989855,"current_range_meters":9200,"station_id":"ce4bhk92rcd13ifvqgc0","pricing_plan_id":"cebpf4jnsgd1na2vs0mg"},{"bike_id":"eb225726-eb05-424f-bbfe-17acb0ca5c72","system_id":"levelo_inurba_marseille","lat":43.315339,"lon":5.380206,"is_reserved":false,"is_disabled":false,"rental_uris":{"android":"levelo://app?vid=eb225726-eb05-424f-bbfe-17acb0ca5c72","ios":"levelo://app?vid=eb225726-eb05-424f-bbfe-17acb0ca5c72"},"vehicle_type_id":"4","last_reported":1745989855,"current_range_meters":9200,"station_id":"ce4bhsp2rcd13ifvqi50","pricing_plan_id":"cebpf4jnsgd1na2vs0mg"},{"bike_id":"f6afadf8-e6ff-4c7a-8692-5caf68fd0b71","system_id":"levelo_inurba_marseille","lat":43.229196,"lon":5.353746,"is_reserved":false,"is_disabled":true,"rental_uris":{"android":"levelo://app?vid=f6afadf8-e6ff-4c7a-8692-5caf68fd0b71","ios":"levelo://app?vid=f6afadf8-e6ff-4c7a-8692-5caf68fd0b71"},"vehicle_type_id":"4","last_reported":1745989855,"current_range_meters":9200,"station_id":"cpo3532slgdg3j2ikp40","pricing_plan_id":"cebpf4jnsgd1na2vs0mg"},{"bike_id":"27e2acdd-2add-407a-a835-796f76c27c03","system_id":"levelo_inurba_marseille","lat":43.32101,"lon":5.36778,"is_reserved":false,"is_disabled":false,"rental_uris":{"android":"levelo://app?vid=27e2acdd-2add-407a-a835-796f76c27c03","ios":"levelo://app?vid=27e2acdd-2add-407a-a835-796f76c27c03"},"vehicle_type_id":"4","last_reported":1745989855,"current_range_meters":9200,"station_id":"ce4bhrh2rcd13ifvqhug","pricing_plan_id":"cebpf4jnsgd1na2vs0mg"},{"bike_id":"d9d65adf-6c62-4fb9-b5a0-e8f6922a2a7d","system_id":"levelo_inurba_marseille","lat":43.28456,"lon":5.35888,"is_reserved":false,"is_disabled":false,"rental_uris":{"android":"levelo://app?vid=d9d65adf-6c62-4fb9-b5a0-e8f6922a2a7d","ios":"levelo://app?vid=d9d65adf-6c62-4fb9-b5a0-e8f6922a2a7d"},"vehicle_type_id":"4","last_reported":1745989855,"current_range_meters":9200,"station_id":"ce4bhah2rcd13ifvqei0","pricing_plan_id":"cebpf4jnsgd1na2vs0mg"},{"bike_id":"624ddcaa-e718-4c1d-bf4e-bba3a7650973","system_id":"levelo_inurba_marseille","lat":43.265607,"lon":5.373008,"is_reserved":false,"is_disabled":false,"rental_uris":{"android":"levelo://app?vid=624ddcaa-e718-4c1d-bf4e-bba3a7650973","ios":"levelo://app?vid=624ddcaa-e718-4c1d-bf4e-bba3a7650973"},"vehicle_type_id":"4","last_reported":1745989855,"current_range_meters":9200,"station_id":"ce4bhg12rcd13ifvqf70","pricing_plan_id":"cebpf4jnsgd1na2vs0mg"},{"bike_id":"c48d791e-48aa-41fb-bd56-d8ab9c9a075d","system_id":"levelo_inurba_marseille","lat":43.28542,"lon":5.39502,"is_reserved":false,"is_disabled":false,"rental_uris":{"android":"levelo://app?vid=c48d791e-48aa-41fb-bd56-d8ab9c9a075d","ios":"levelo://app?vid=c48d791e-48aa-41fb-bd56-d8ab9c9a075d"},"vehicle_type_id":"4","last_reported":1745989855,"current_range_meters":9200,"station_id":"ce4bh292rcd13ifvqdg0","pricing_plan_id":"cebpf4jnsgd1na2vs0mg"},{"bike_id":"63e3e273-abac-4534-a2cc-8a7ae8adac6e","system_id":"levelo_inurba_marseille","lat":43.2965,"lon":5.4061,"is_reserved":false,"is_disabled":false,"rental_uris":{"android":"levelo://app?vid=63e3e273-abac-4534-a2cc-8a7ae8adac6e","ios":"levelo://app?vid=63e3e273-abac-4534-a2cc-8a7ae8adac6e"},"vehicle_type_id":"4","last_reported":1745989855,"current_range_meters":9600,"station_id":"ce4bh0h2rcd13ifvqd60","pricing_plan_id":"cebpf4jnsgd1na2vs0mg"},{"bike_id":"55b59337-2dec-4b6e-b862-3b1d6d2230bb","system_id":"levelo_inurba_marseille","lat":43.31122,"lon":5.37765,"is_reserved":false,"is_disabled":false,"rental_uris":{"android":"levelo://app?vid=55b59337-2dec-4b6e-b862-3b1d6d2230bb","ios":"levelo://app?vid=55b59337-2dec-4b6e-b862-3b1d6d2230bb"},"vehicle_type_id":"4","last_reported":1745989855,"current_range_meters":9600,"station_id":"ce4bgt92rcd13ifvqcg0","pricing_plan_id":"cebpf4jnsgd1na2vs0mg"},{"bike_id":"9dd528f1-7987-4620-9e16-782da8c3e457","system_id":"levelo_inurba_marseille","lat":43.26587,"lon":5.39025,"is_reserved":false,"is_disabled":false,"rental_uris":{"android":"levelo://app?vid=9dd528f1-7987-4620-9e16-782da8c3e457","ios":"levelo://app?vid=9dd528f1-7987-4620-9e16-782da8c3e457"},"vehicle_type_id":"4","last_reported":1745989855,"current_range_meters":9600,"station_id":"ce4bhe12rcd13ifvqf30","pricing_plan_id":"cebpf4jnsgd1na2vs0mg"},{"bike_id":"a015aa72-4883-446b-a9a9-e16d84a5a524","system_id":"levelo_inurba_marseille","lat":43.30869,"lon":5.397,"is_reserved":false,"is_disabled":false,"rental_uris":{"android":"levelo://app?vid=a015aa72-4883-446b-a9a9-e16d84a5a524","ios":"levelo://app?vid=a015aa72-4883-446b-a9a9-e16d84a5a524"},"vehicle_type_id":"4","last_reported":1745989855,"current_range_meters":9600,"station_id":"","pricing_plan_id":"cebpf4jnsgd1na2vs0mg"},{"bike_id":"5a5187ce-5422-413f-8424-d1ad405e957f","system_id":"levelo_inurba_marseille","lat":43.30163,"lon":5.38097,"is_reserved":false,"is_disabled":false,"rental_uris":{"android":"levelo://app?vid=5a5187ce-5422-413f-8424-d1ad405e957f","ios":"levelo://app?vid=5a5187ce-5422-413f-8424-d1ad405e957f"},"vehicle_type_id":"4","last_reported":1745989855,"current_range_meters":9600,"station_id":"ce4bgjp2rcd13ifvqbh0","pricing_plan_id":"cebpf4jnsgd1na2vs0mg"},{"bike_id":"48ec7ae3-ab99-4db4-af94-1858a85ee192","system_id":"levelo_inurba_marseille","lat":43.265563,"lon":5.372912,"is_reserved":false,"is_disabled":false,"rental_uris":{"android":"levelo://app?vid=48ec7ae3-ab99-4db4-af94-1858a85ee192","ios":"levelo://app?vid=48ec7ae3-ab99-4db4-af94-1858a85ee192"},"vehicle_type_id":"4","last_reported":1745989855,"current_range_meters":9600,"station_id":"ce4bhg12rcd13ifvqf70","pricing_plan_id":"cebpf4jnsgd1na2vs0mg"},{"bike_id":"1c6e2801-d406-4688-a913-a775da6b0f13","system_id":"levelo_inurba_marseille","lat":43.229289,"lon":5.35379,"is_reserved":false,"is_disabled":false,"rental_uris":{"android":"levelo://app?vid=1c6e2801-d406-4688-a913-a775da6b0f13","ios":"levelo://app?vid=1c6e2801-d406-4688-a913-a775da6b0f13"},"vehicle_type_id":"4","last_reported":1745989855,"current_range_meters":9600,"station_id":"cpo3532slgdg3j2ikp40","pricing_plan_id":"cebpf4jnsgd1na2vs0mg"},{"bike_id":"489415b8-9254-45c1-b00c-e7554d56755c","system_id":"levelo_inurba_marseille","lat":43.245181,"lon":5.412168,"is_reserved":false,"is_disabled":false,"rental_uris":{"android":"levelo://app?vid=489415b8-9254-45c1-b00c-e7554d56755c","ios":"levelo://app?vid=489415b8-9254-45c1-b00c-e7554d56755c"},"vehicle_type_id":"4","last_reported":1745989855,"current_range_meters":10000,"station_id":"","pricing_plan_id":"cebpf4jnsgd1na2vs0mg"},{"bike_id":"06b23fcf-d155-46c0-acd2-5b59645454ea","system_id":"levelo_inurba_marseille","lat":43.284752,"lon":5.384325,"is_reserved":false,"is_disabled":true,"rental_uris":{"android":"levelo://app?vid=06b23fcf-d155-46c0-acd2-5b59645454ea","ios":"levelo://app?vid=06b23fcf-d155-46c0-acd2-5b59645454ea"},"vehicle_type_id":"4","last_reported":1745989855,"current_range_meters":10000,"station_id":"ce4bh512rcd13ifvqe3g","pricing_plan_id":"cebpf4jnsgd1na2vs0mg"},{"bike_id":"3ae641eb-772b-47f4-9c6f-a55115e8b3d3","system_id":"levelo_inurba_marseille","lat":43.291794,"lon":5.35786,"is_reserved":false,"is_disabled":true,"rental_uris":{"android":"levelo://app?vid=3ae641eb-772b-47f4-9c6f-a55115e8b3d3","ios":"levelo://app?vid=3ae641eb-772b-47f4-9c6f-a55115e8b3d3"},"vehicle_type_id":"4","last_reported":1745989855,"current_range_meters":10000,"station_id":"ce4bhb12rcd13ifvqel0","pricing_plan_id":"cebpf4jnsgd1na2vs0mg"},{"bike_id":"f7074da7-d5a8-40ff-b087-f6b8e470a6e1","system_id":"levelo_inurba_marseille","lat":43.31536,"lon":5.38038,"is_reserved":false,"is_disabled":false,"rental_uris":{"android":"levelo://app?vid=f7074da7-d5a8-40ff-b087-f6b8e470a6e1","ios":"levelo://app?vid=f7074da7-d5a8-40ff-b087-f6b8e470a6e1"},"vehicle_type_id":"4","last_reported":1745989855,"current_range_meters":10000,"station_id":"ce4bhsp2rcd13ifvqi50","pricing_plan_id":"cebpf4jnsgd1na2vs0mg"},{"bike_id":"77c59250-8359-4942-8c07-a9c82964e824","system_id":"levelo_inurba_marseille","lat":43.28464,"lon":5.35891,"is_reserved":false,"is_disabled":true,"rental_uris":{"android":"levelo://app?vid=77c59250-8359-4942-8c07-a9c82964e824","ios":"levelo://app?vid=77c59250-8359-4942-8c07-a9c82964e824"},"vehicle_type_id":"4","last_reported":1745989855,"current_range_meters":10000,"station_id":"ce4bhah2rcd13ifvqei0","pricing_plan_id":"cebpf4jnsgd1na2vs0mg"},{"bike_id":"312629db-7553-4f57-8655-a25196d01b88","system_id":"levelo_inurba_marseille","lat":43.303708,"lon":5.424813,"is_reserved":false,"is_disabled":false,"rental_uris":{"android":"levelo://app?vid=312629db-7553-4f57-8655-a25196d01b88","ios":"levelo://app?vid=312629db-7553-4f57-8655-a25196d01b88"},"vehicle_type_id":"4","last_reported":1745989855,"current_range_meters":10000,"station_id":"ce4bhoh2rcd13ifvqh6g","pricing_plan_id":"cebpf4jnsgd1na2vs0mg"},{"bike_id":"6ff32f17-7b9c-463f-a13f-79ee01c6a7e8","system_id":"levelo_inurba_marseille","lat":43.30269,"lon":5.40078,"is_reserved":false,"is_disabled":false,"rental_uris":{"android":"levelo://app?vid=6ff32f17-7b9c-463f-a13f-79ee01c6a7e8","ios":"levelo://app?vid=6ff32f17-7b9c-463f-a13f-79ee01c6a7e8"},"vehicle_type_id":"4","last_reported":1745989855,"current_range_meters":10000,"station_id":"ce4bgvh2rcd13ifvqcs0","pricing_plan_id":"cebpf4jnsgd1na2vs0mg"},{"bike_id":"421fd581-29e4-4138-8283-024d2e5349f4","system_id":"levelo_inurba_marseille","lat":43.31974,"lon":5.3812,"is_reserved":false,"is_disabled":false,"rental_uris":{"android":"levelo://app?vid=421fd581-29e4-4138-8283-024d2e5349f4","ios":"levelo://app?vid=421fd581-29e4-4138-8283-024d2e5349f4"},"vehicle_type_id":"4","last_reported":1745989855,"current_range_meters":10000,"station_id":"ce4bhr12rcd13ifvqhpg","pricing_plan_id":"cebpf4jnsgd1na2vs0mg"},{"bike_id":"07edfd45-c3fa-4b57-b865-cf1bf9963264","system_id":"levelo_inurba_marseille","lat":43.23377,"lon":5.36424,"is_reserved":false,"is_disabled":false,"rental_uris":{"android":"levelo://app?vid=07edfd45-c3fa-4b57-b865-cf1bf9963264","ios":"levelo://app?vid=07edfd45-c3fa-4b57-b865-cf1bf9963264"},"vehicle_type_id":"4","last_reported":1745989855,"current_range_meters":10000,"station_id":"","pricing_plan_id":"cebpf4jnsgd1na2vs0mg"},{"bike_id":"8677ec73-cb78-43f6-8771-8f65730b3bed","system_id":"levelo_inurba_marseille","lat":43.3107,"lon":5.38358,"is_reserved":false,"is_disabled":false,"rental_uris":{"android":"levelo://app?vid=8677ec73-cb78-43f6-8771-8f65730b3bed","ios":"levelo://app?vid=8677ec73-cb78-43f6-8771-8f65730b3bed"},"vehicle_type_id":"4","last_reported":1745989855,"current_range_meters":10800,"station_id":"ce4bgv92rcd13ifvqcr0","pricing_plan_id":"cebpf4jnsgd1na2vs0mg"},{"bike_id":"ddf42e2f-5ba3-456f-b6b9-71a4fb220f7c","system_id":"levelo_inurba_marseille","lat":43.21752,"lon":5.34625,"is_reserved":false,"is_disabled":false,"rental_uris":{"android":"levelo://app?vid=ddf42e2f-5ba3-456f-b6b9-71a4fb220f7c","ios":"levelo://app?vid=ddf42e2f-5ba3-456f-b6b9-71a4fb220f7c"},"vehicle_type_id":"4","last_reported":1745989855,"current_range_meters":10800,"station_id":"st_cvj6r9ubvosntc0bgbag","pricing_plan_id":"cebpf4jnsgd1na2vs0mg"},{"bike_id":"3da4f807-a9a7-4e80-80cc-47afecae7882","system_id":"levelo_inurba_marseille","lat":43.28001,"lon":5.40018,"is_reserved":false,"is_disabled":false,"rental_uris":{"android":"levelo://app?vid=3da4f807-a9a7-4e80-80cc-47afecae7882","ios":"levelo://app?vid=3da4f807-a9a7-4e80-80cc-47afecae7882"},"vehicle_type_id":"4","last_reported":1745989855,"current_range_meters":10800,"station_id":"ce4bho92rcd13ifvqh4g","pricing_plan_id":"cebpf4jnsgd1na2vs0mg"},{"bike_id":"3a9bd96a-1d84-454e-b55b-a4ef583e3749","system_id":"levelo_inurba_marseille","lat":43.26689,"lon":5.38268,"is_reserved":false,"is_disabled":true,"rental_uris":{"android":"levelo://app?vid=3a9bd96a-1d84-454e-b55b-a4ef583e3749","ios":"levelo://app?vid=3a9bd96a-1d84-454e-b55b-a4ef583e3749"},"vehicle_type_id":"4","last_reported":1745989855,"current_range_meters":10800,"station_id":"ce4bhg92rcd13ifvqf90","pricing_plan_id":"cebpf4jnsgd1na2vs0mg"},{"bike_id":"583406df-81e4-478d-9f76-59d709b4ceaa","system_id":"levelo_inurba_marseille","lat":43.30437,"lon":5.3794,"is_reserved":false,"is_disabled":false,"rental_uris":{"android":"levelo://app?vid=583406df-81e4-478d-9f76-59d709b4ceaa","ios":"levelo://app?vid=583406df-81e4-478d-9f76-59d709b4ceaa"},"vehicle_type_id":"4","last_reported":1745989855,"current_range_meters":10800,"station_id":"ce4bgup2rcd13ifvqcn0","pricing_plan_id":"cebpf4jnsgd1na2vs0mg"},{"bike_id":"28a604ef-98c1-4aff-ab31-a10d3a8eae96","system_id":"levelo_inurba_marseille","lat":43.29552,"lon":5.37506,"is_reserved":false,"is_disabled":true,"rental_uris":{"android":"levelo://app?vid=28a604ef-98c1-4aff-ab31-a10d3a8eae96","ios":"levelo://app?vid=28a604ef-98c1-4aff-ab31-a10d3a8eae96"},"vehicle_type_id":"4","last_reported":1745989855,"current_range_meters":10800,"station_id":"ce4bgkp2rcd13ifvqbmg","pricing_plan_id":"cebpf4jnsgd1na2vs0mg"},{"bike_id":"40cd9c09-5d6c-4b2c-a5ec-3d25d8f86287","system_id":"levelo_inurba_marseille","lat":43.250839,"lon":5.395283,"is_reserved":false,"is_disabled":false,"rental_uris":{"android":"levelo://app?vid=40cd9c09-5d6c-4b2c-a5ec-3d25d8f86287","ios":"levelo://app?vid=40cd9c09-5d6c-4b2c-a5ec-3d25d8f86287"},"vehicle_type_id":"4","last_reported":1745989855,"current_range_meters":11200,"station_id":"ce4bhm12rcd13ifvqgkg","pricing_plan_id":"cebpf4jnsgd1na2vs0mg"},{"bike_id":"60bbad6c-4d53-4c4c-b1c6-b7ef31cbfd0e","system_id":"levelo_inurba_marseille","lat":43.29637,"lon":5.4061,"is_reserved":false,"is_disabled":false,"rental_uris":{"android":"levelo://app?vid=60bbad6c-4d53-4c4c-b1c6-b7ef31cbfd0e","ios":"levelo://app?vid=60bbad6c-4d53-4c4c-b1c6-b7ef31cbfd0e"},"vehicle_type_id":"4","last_reported":1745989855,"current_range_meters":11600,"station_id":"ce4bh0h2rcd13ifvqd60","pricing_plan_id":"cebpf4jnsgd1na2vs0mg"},{"bike_id":"fe0c4d1a-9874-47df-b868-a5e70081d8ce","system_id":"levelo_inurba_marseille","lat":43.229343,"lon":5.353831,"is_reserved":false,"is_disabled":false,"rental_uris":{"android":"levelo://app?vid=fe0c4d1a-9874-47df-b868-a5e70081d8ce","ios":"levelo://app?vid=fe0c4d1a-9874-47df-b868-a5e70081d8ce"},"vehicle_type_id":"4","last_reported":1745989855,"current_range_meters":11200,"station_id":"cpo3532slgdg3j2ikp40","pricing_plan_id":"cebpf4jnsgd1na2vs0mg"},{"bike_id":"197839f2-0234-459c-be6d-43045265e278","system_id":"levelo_inurba_marseille","lat":43.3065,"lon":5.4009,"is_reserved":false,"is_disabled":false,"rental_uris":{"android":"levelo://app?vid=197839f2-0234-459c-be6d-43045265e278","ios":"levelo://app?vid=197839f2-0234-459c-be6d-43045265e278"},"vehicle_type_id":"4","last_reported":1745989855,"current_range_meters":11600,"station_id":"ce4bh112rcd13ifvqda0","pricing_plan_id":"cebpf4jnsgd1na2vs0mg"},{"bike_id":"ac80e985-cfdf-4940-bf6d-bf2ebe2c2fd0","system_id":"levelo_inurba_marseille","lat":43.32098,"lon":5.36772,"is_reserved":false,"is_disabled":false,"rental_uris":{"android":"levelo://app?vid=ac80e985-cfdf-4940-bf6d-bf2ebe2c2fd0","ios":"levelo://app?vid=ac80e985-cfdf-4940-bf6d-bf2ebe2c2fd0"},"vehicle_type_id":"4","last_reported":1745989855,"current_range_meters":11600,"station_id":"ce4bhrh2rcd13ifvqhug","pricing_plan_id":"cebpf4jnsgd1na2vs0mg"},{"bike_id":"9c68c416-b63e-4646-876b-a6ce563ad522","system_id":"levelo_inurba_marseille","lat":43.30933,"lon":5.40156,"is_reserved":false,"is_disabled":false,"rental_uris":{"android":"levelo://app?vid=9c68c416-b63e-4646-876b-a6ce563ad522","ios":"levelo://app?vid=9c68c416-b63e-4646-876b-a6ce563ad522"},"vehicle_type_id":"4","last_reported":1745989855,"current_range_meters":11600,"station_id":"ce4bgvp2rcd13ifvqct0","pricing_plan_id":"cebpf4jnsgd1na2vs0mg"},{"bike_id":"a94ff71c-9912-435c-847f-91e652907443","system_id":"levelo_inurba_marseille","lat":43.310714,"lon":5.383516,"is_reserved":false,"is_disabled":false,"rental_uris":{"android":"levelo://app?vid=a94ff71c-9912-435c-847f-91e652907443","ios":"levelo://app?vid=a94ff71c-9912-435c-847f-91e652907443"},"vehicle_type_id":"4","last_reported":1745989855,"current_range_meters":11600,"station_id":"ce4bgv92rcd13ifvqcr0","pricing_plan_id":"cebpf4jnsgd1na2vs0mg"},{"bike_id":"db9787d3-5253-4406-bc1c-c062d4f1238a","system_id":"levelo_inurba_marseille","lat":43.32004,"lon":5.38144,"is_reserved":false,"is_disabled":false,"rental_uris":{"android":"levelo://app?vid=db9787d3-5253-4406-bc1c-c062d4f1238a","ios":"levelo://app?vid=db9787d3-5253-4406-bc1c-c062d4f1238a"},"vehicle_type_id":"4","last_reported":1745989855,"current_range_meters":11600,"station_id":"ce4bhr12rcd13ifvqhpg","pricing_plan_id":"cebpf4jnsgd1na2vs0mg"},{"bike_id":"d50cb595-81a6-406b-90c1-e39a8ffa9f99","system_id":"levelo_inurba_marseille","lat":43.241723,"lon":5.397236,"is_reserved":false,"is_disabled":false,"rental_uris":{"android":"levelo://app?vid=d50cb595-81a6-406b-90c1-e39a8ffa9f99","ios":"levelo://app?vid=d50cb595-81a6-406b-90c1-e39a8ffa9f99"},"vehicle_type_id":"4","last_reported":1745989855,"current_range_meters":11600,"station_id":"ce4bhn12rcd13ifvqgpg","pricing_plan_id":"cebpf4jnsgd1na2vs0mg"},{"bike_id":"2bb0f5c4-ac25-4582-ae12-024a3a7b1ca5","system_id":"levelo_inurba_marseille","lat":43.285711,"lon":5.394904,"is_reserved":false,"is_disabled":false,"rental_uris":{"android":"levelo://app?vid=2bb0f5c4-ac25-4582-ae12-024a3a7b1ca5","ios":"levelo://app?vid=2bb0f5c4-ac25-4582-ae12-024a3a7b1ca5"},"vehicle_type_id":"4","last_reported":1745989855,"current_range_meters":12000,"station_id":"ce4bh292rcd13ifvqdg0","pricing_plan_id":"cebpf4jnsgd1na2vs0mg"},{"bike_id":"e499c783-5049-497f-8249-c1d53c1aa298","system_id":"levelo_inurba_marseille","lat":43.310701,"lon":5.383523,"is_reserved":false,"is_disabled":false,"rental_uris":{"android":"levelo://app?vid=e499c783-5049-497f-8249-c1d53c1aa298","ios":"levelo://app?vid=e499c783-5049-497f-8249-c1d53c1aa298"},"vehicle_type_id":"4","last_reported":1745989855,"current_range_meters":12000,"station_id":"ce4bgv92rcd13ifvqcr0","pricing_plan_id":"cebpf4jnsgd1na2vs0mg"},{"bike_id":"40a81f13-fb08-4154-bb4d-32834fddeadc","system_id":"levelo_inurba_marseille","lat":43.30137,"lon":5.37412,"is_reserved":false,"is_disabled":false,"rental_uris":{"android":"levelo://app?vid=40a81f13-fb08-4154-bb4d-32834fddeadc","ios":"levelo://app?vid=40a81f13-fb08-4154-bb4d-32834fddeadc"},"vehicle_type_id":"4","last_reported":1745989855,"current_range_meters":12000,"station_id":"ce4bgs92rcd13ifvqcc0","pricing_plan_id":"cebpf4jnsgd1na2vs0mg"},{"bike_id":"dcb0b990-89f9-495c-a9c1-10b17ae39667","system_id":"levelo_inurba_marseille","lat":43.23479,"lon":5.38034,"is_reserved":false,"is_disabled":false,"rental_uris":{"android":"levelo://app?vid=dcb0b990-89f9-495c-a9c1-10b17ae39667","ios":"levelo://app?vid=dcb0b990-89f9-495c-a9c1-10b17ae39667"},"vehicle_type_id":"4","last_reported":1745989855,"current_range_meters":12000,"station_id":"","pricing_plan_id":"cebpf4jnsgd1na2vs0mg"},{"bike_id":"67946696-e1b4-48e1-9aea-70b477d4f50c","system_id":"levelo_inurba_marseille","lat":43.3066,"lon":5.40086,"is_reserved":false,"is_disabled":false,"rental_uris":{"android":"levelo://app?vid=67946696-e1b4-48e1-9aea-70b477d4f50c","ios":"levelo://app?vid=67946696-e1b4-48e1-9aea-70b477d4f50c"},"vehicle_type_id":"4","last_reported":1745989855,"current_range_meters":12400,"station_id":"ce4bh112rcd13ifvqda0","pricing_plan_id":"cebpf4jnsgd1na2vs0mg"},{"bike_id":"697ced8a-2a05-4cd9-8153-69869351863a","system_id":"levelo_inurba_marseille","lat":43.29185,"lon":5.39329,"is_reserved":false,"is_disabled":false,"rental_uris":{"android":"levelo://app?vid=697ced8a-2a05-4cd9-8153-69869351863a","ios":"levelo://app?vid=697ced8a-2a05-4cd9-8153-69869351863a"},"vehicle_type_id":"4","last_reported":1745989855,"current_range_meters":12400,"station_id":"ce4bh192rcd13ifvqdd0","pricing_plan_id":"cebpf4jnsgd1na2vs0mg"},{"bike_id":"336d4cb0-32bf-4bc0-8b9f-e9f77c49e032","system_id":"levelo_inurba_marseille","lat":43.2418,"lon":5.39727,"is_reserved":false,"is_disabled":false,"rental_uris":{"android":"levelo://app?vid=336d4cb0-32bf-4bc0-8b9f-e9f77c49e032","ios":"levelo://app?vid=336d4cb0-32bf-4bc0-8b9f-e9f77c49e032"},"vehicle_type_id":"4","last_reported":1745989855,"current_range_meters":12400,"station_id":"ce4bhn12rcd13ifvqgpg","pricing_plan_id":"cebpf4jnsgd1na2vs0mg"},{"bike_id":"03ea244f-292f-4096-8468-3637ad73304b","system_id":"levelo_inurba_marseille","lat":43.290033,"lon":5.356314,"is_reserved":false,"is_disabled":false,"rental_uris":{"android":"levelo://app?vid=03ea244f-292f-4096-8468-3637ad73304b","ios":"levelo://app?vid=03ea244f-292f-4096-8468-3637ad73304b"},"vehicle_type_id":"4","last_reported":1745989855,"current_range_meters":12400,"station_id":"","pricing_plan_id":"cebpf4jnsgd1na2vs0mg"},{"bike_id":"2e5f005c-20b9-4aa6-8311-de6457be83d8","system_id":"levelo_inurba_marseille","lat":43.30148,"lon":5.38084,"is_reserved":false,"is_disabled":false,"rental_uris":{"android":"levelo://app?vid=2e5f005c-20b9-4aa6-8311-de6457be83d8","ios":"levelo://app?vid=2e5f005c-20b9-4aa6-8311-de6457be83d8"},"vehicle_type_id":"4","last_reported":1745989855,"current_range_meters":12400,"station_id":"ce4bgjp2rcd13ifvqbh0","pricing_plan_id":"cebpf4jnsgd1na2vs0mg"},{"bike_id":"4d4778ed-b855-40e3-aed9-6ce2157d0719","system_id":"levelo_inurba_marseille","lat":43.31323,"lon":5.3969,"is_reserved":false,"is_disabled":false,"rental_uris":{"android":"levelo://app?vid=4d4778ed-b855-40e3-aed9-6ce2157d0719","ios":"levelo://app?vid=4d4778ed-b855-40e3-aed9-6ce2157d0719"},"vehicle_type_id":"4","last_reported":1745989855,"current_range_meters":12400,"station_id":"ce4bgvp2rcd13ifvqcu0","pricing_plan_id":"cebpf4jnsgd1na2vs0mg"},{"bike_id":"b5a2cf2e-6d0d-4e35-831e-3fc08bfe9a8e","system_id":"levelo_inurba_marseille","lat":43.308828,"lon":5.396355,"is_reserved":false,"is_disabled":false,"rental_uris":{"android":"levelo://app?vid=b5a2cf2e-6d0d-4e35-831e-3fc08bfe9a8e","ios":"levelo://app?vid=b5a2cf2e-6d0d-4e35-831e-3fc08bfe9a8e"},"vehicle_type_id":"4","last_reported":1745989855,"current_range_meters":12400,"station_id":"ce4bh012rcd13ifvqcv0","pricing_plan_id":"cebpf4jnsgd1na2vs0mg"},{"bike_id":"adea6d00-de42-46e2-a3d0-67911efe401a","system_id":"levelo_inurba_marseille","lat":43.30471,"lon":5.37902,"is_reserved":false,"is_disabled":false,"rental_uris":{"android":"levelo://app?vid=adea6d00-de42-46e2-a3d0-67911efe401a","ios":"levelo://app?vid=adea6d00-de42-46e2-a3d0-67911efe401a"},"vehicle_type_id":"4","last_reported":1745989855,"current_range_meters":12800,"station_id":"ce4bgup2rcd13ifvqcn0","pricing_plan_id":"cebpf4jnsgd1na2vs0mg"},{"bike_id":"2979c9ba-f333-4238-bd1b-ea4540f902a2","system_id":"levelo_inurba_marseille","lat":43.29567,"lon":5.37526,"is_reserved":false,"is_disabled":false,"rental_uris":{"android":"levelo://app?vid=2979c9ba-f333-4238-bd1b-ea4540f902a2","ios":"levelo://app?vid=2979c9ba-f333-4238-bd1b-ea4540f902a2"},"vehicle_type_id":"4","last_reported":1745989855,"current_range_meters":12800,"station_id":"ce4bgh92rcd13ifvqb50","pricing_plan_id":"cebpf4jnsgd1na2vs0mg"},{"bike_id":"69dd1e9e-ed56-49df-8341-c0a3bbb97a00","system_id":"levelo_inurba_marseille","lat":43.304426,"lon":5.388928,"is_reserved":false,"is_disabled":false,"rental_uris":{"android":"levelo://app?vid=69dd1e9e-ed56-49df-8341-c0a3bbb97a00","ios":"levelo://app?vid=69dd1e9e-ed56-49df-8341-c0a3bbb97a00"},"vehicle_type_id":"4","last_reported":1745989855,"current_range_meters":12800,"station_id":"ce4bgk12rcd13ifvqbi0","pricing_plan_id":"cebpf4jnsgd1na2vs0mg"},{"bike_id":"1db9ca2a-10b1-4b9e-aa56-164f2c2ac111","system_id":"levelo_inurba_marseille","lat":43.283726,"lon":5.418481,"is_reserved":false,"is_disabled":false,"rental_uris":{"android":"levelo://app?vid=1db9ca2a-10b1-4b9e-aa56-164f2c2ac111","ios":"levelo://app?vid=1db9ca2a-10b1-4b9e-aa56-164f2c2ac111"},"vehicle_type_id":"4","last_reported":1745989855,"current_range_meters":12800,"station_id":"","pricing_plan_id":"cebpf4jnsgd1na2vs0mg"},{"bike_id":"19bc52c3-74db-454f-9839-b056878a7608","system_id":"levelo_inurba_marseille","lat":43.266904,"lon":5.382715,"is_reserved":false,"is_disabled":true,"rental_uris":{"android":"levelo://app?vid=19bc52c3-74db-454f-9839-b056878a7608","ios":"levelo://app?vid=19bc52c3-74db-454f-9839-b056878a7608"},"vehicle_type_id":"4","last_reported":1745989855,"current_range_meters":13600,"station_id":"ce4bhg92rcd13ifvqf90","pricing_plan_id":"cebpf4jnsgd1na2vs0mg"},{"bike_id":"71e98241-c338-4869-a871-e76d9929f8ea","system_id":"levelo_inurba_marseille","lat":43.23151,"lon":5.43739,"is_reserved":false,"is_disabled":false,"rental_uris":{"android":"levelo://app?vid=71e98241-c338-4869-a871-e76d9929f8ea","ios":"levelo://app?vid=71e98241-c338-4869-a871-e76d9929f8ea"},"vehicle_type_id":"4","last_reported":1745989855,"current_range_meters":13600,"station_id":"ce4bhmp2rcd13ifvqgog","pricing_plan_id":"cebpf4jnsgd1na2vs0mg"},{"bike_id":"4e6db395-d222-475d-869a-c9c1300e7589","system_id":"levelo_inurba_marseille","lat":43.29253,"lon":5.40916,"is_reserved":false,"is_disabled":false,"rental_uris":{"android":"levelo://app?vid=4e6db395-d222-475d-869a-c9c1300e7589","ios":"levelo://app?vid=4e6db395-d222-475d-869a-c9c1300e7589"},"vehicle_type_id":"4","last_reported":1745989855,"current_range_meters":13600,"station_id":"ce4bh192rcd13ifvqdc0","pricing_plan_id":"cebpf4jnsgd1na2vs0mg"},{"bike_id":"760b60e9-75ef-4049-b9d3-91877d77a86e","system_id":"levelo_inurba_marseille","lat":43.31534,"lon":5.38043,"is_reserved":false,"is_disabled":false,"rental_uris":{"android":"levelo://app?vid=760b60e9-75ef-4049-b9d3-91877d77a86e","ios":"levelo://app?vid=760b60e9-75ef-4049-b9d3-91877d77a86e"},"vehicle_type_id":"4","last_reported":1745989855,"current_range_meters":14000,"station_id":"ce4bhsp2rcd13ifvqi50","pricing_plan_id":"cebpf4jnsgd1na2vs0mg"},{"bike_id":"8e5e2c19-ba36-4f14-9873-ad98967d7a5b","system_id":"levelo_inurba_marseille","lat":43.324877,"lon":5.365758,"is_reserved":false,"is_disabled":true,"rental_uris":{"android":"levelo://app?vid=8e5e2c19-ba36-4f14-9873-ad98967d7a5b","ios":"levelo://app?vid=8e5e2c19-ba36-4f14-9873-ad98967d7a5b"},"vehicle_type_id":"4","last_reported":1745989855,"current_range_meters":14000,"station_id":"ce4bhs12rcd13ifvqhvg","pricing_plan_id":"cebpf4jnsgd1na2vs0mg"},{"bike_id":"e5e92a64-e709-4b1a-a9b1-cbffe85789ca","system_id":"levelo_inurba_marseille","lat":43.25541,"lon":5.38133,"is_reserved":false,"is_disabled":false,"rental_uris":{"android":"levelo://app?vid=e5e92a64-e709-4b1a-a9b1-cbffe85789ca","ios":"levelo://app?vid=e5e92a64-e709-4b1a-a9b1-cbffe85789ca"},"vehicle_type_id":"4","last_reported":1745989855,"current_range_meters":14000,"station_id":"","pricing_plan_id":"cebpf4jnsgd1na2vs0mg"},{"bike_id":"2610bbd4-d8af-4bf9-a01b-5ebfbcbdde4b","system_id":"levelo_inurba_marseille","lat":43.31062,"lon":5.38365,"is_reserved":false,"is_disabled":false,"rental_uris":{"android":"levelo://app?vid=2610bbd4-d8af-4bf9-a01b-5ebfbcbdde4b","ios":"levelo://app?vid=2610bbd4-d8af-4bf9-a01b-5ebfbcbdde4b"},"vehicle_type_id":"4","last_reported":1745989855,"current_range_meters":14400,"station_id":"ce4bgv92rcd13ifvqcr0","pricing_plan_id":"cebpf4jnsgd1na2vs0mg"},{"bike_id":"fb0daf1a-cefa-40b9-a6f4-b2612f0cf23f","system_id":"levelo_inurba_marseille","lat":43.26189,"lon":5.40452,"is_reserved":false,"is_disabled":false,"rental_uris":{"android":"levelo://app?vid=fb0daf1a-cefa-40b9-a6f4-b2612f0cf23f","ios":"levelo://app?vid=fb0daf1a-cefa-40b9-a6f4-b2612f0cf23f"},"vehicle_type_id":"4","last_reported":1745989855,"current_range_meters":14400,"station_id":"ce4bhmh2rcd13ifvqgmg","pricing_plan_id":"cebpf4jnsgd1na2vs0mg"},{"bike_id":"0946df0c-8b25-4d89-8f93-affc2e1828f1","system_id":"levelo_inurba_marseille","lat":43.3015,"lon":5.39885,"is_reserved":false,"is_disabled":false,"rental_uris":{"android":"levelo://app?vid=0946df0c-8b25-4d89-8f93-affc2e1828f1","ios":"levelo://app?vid=0946df0c-8b25-4d89-8f93-affc2e1828f1"},"vehicle_type_id":"4","last_reported":1745989855,"current_range_meters":14400,"station_id":"ce4bh0h2rcd13ifvqd40","pricing_plan_id":"cebpf4jnsgd1na2vs0mg"},{"bike_id":"5bb930cb-f687-4afc-a3b1-7d364bf87093","system_id":"levelo_inurba_marseille","lat":43.33761,"lon":5.37426,"is_reserved":false,"is_disabled":false,"rental_uris":{"android":"levelo://app?vid=5bb930cb-f687-4afc-a3b1-7d364bf87093","ios":"levelo://app?vid=5bb930cb-f687-4afc-a3b1-7d364bf87093"},"vehicle_type_id":"4","last_reported":1745989855,"current_range_meters":14800,"station_id":"","pricing_plan_id":"cebpf4jnsgd1na2vs0mg"},{"bike_id":"a083dd87-c68e-4ae0-b50d-cafd8e4610b9","system_id":"levelo_inurba_marseille","lat":43.3092,"lon":5.40148,"is_reserved":false,"is_disabled":false,"rental_uris":{"android":"levelo://app?vid=a083dd87-c68e-4ae0-b50d-cafd8e4610b9","ios":"levelo://app?vid=a083dd87-c68e-4ae0-b50d-cafd8e4610b9"},"vehicle_type_id":"4","last_reported":1745989855,"current_range_meters":14800,"station_id":"ce4bgvp2rcd13ifvqct0","pricing_plan_id":"cebpf4jnsgd1na2vs0mg"},{"bike_id":"4a887373-4acb-4f1e-adbe-6517211605ca","system_id":"levelo_inurba_marseille","lat":43.311139,"lon":5.37766,"is_reserved":false,"is_disabled":false,"rental_uris":{"android":"levelo://app?vid=4a887373-4acb-4f1e-adbe-6517211605ca","ios":"levelo://app?vid=4a887373-4acb-4f1e-adbe-6517211605ca"},"vehicle_type_id":"4","last_reported":1745989855,"current_range_meters":15200,"station_id":"ce4bgt92rcd13ifvqcg0","pricing_plan_id":"cebpf4jnsgd1na2vs0mg"},{"bike_id":"b01cbeff-8157-416f-a4f0-9990745aa5ff","system_id":"levelo_inurba_marseille","lat":43.280321,"lon":5.369479,"is_reserved":false,"is_disabled":false,"rental_uris":{"android":"levelo://app?vid=b01cbeff-8157-416f-a4f0-9990745aa5ff","ios":"levelo://app?vid=b01cbeff-8157-416f-a4f0-9990745aa5ff"},"vehicle_type_id":"4","last_reported":1745989855,"current_range_meters":15200,"station_id":"ce4bha12rcd13ifvqef0","pricing_plan_id":"cebpf4jnsgd1na2vs0mg"},{"bike_id":"4fda502e-8180-4eb2-97e5-6521d9824005","system_id":"levelo_inurba_marseille","lat":43.304973,"lon":5.380753,"is_reserved":false,"is_disabled":false,"rental_uris":{"android":"levelo://app?vid=4fda502e-8180-4eb2-97e5-6521d9824005","ios":"levelo://app?vid=4fda502e-8180-4eb2-97e5-6521d9824005"},"vehicle_type_id":"4","last_reported":1745989855,"current_range_meters":15200,"station_id":"","pricing_plan_id":"cebpf4jnsgd1na2vs0mg"},{"bike_id":"142b21fe-e15a-4a65-b770-44381c311d71","system_id":"levelo_inurba_marseille","lat":43.3133,"lon":5.39711,"is_reserved":false,"is_disabled":false,"rental_uris":{"android":"levelo://app?vid=142b21fe-e15a-4a65-b770-44381c311d71","ios":"levelo://app?vid=142b21fe-e15a-4a65-b770-44381c311d71"},"vehicle_type_id":"4","last_reported":1745989855,"current_range_meters":15200,"station_id":"ce4bgvp2rcd13ifvqcu0","pricing_plan_id":"cebpf4jnsgd1na2vs0mg"},{"bike_id":"0bf054bc-7fc3-4c86-a291-33e81796d9c0","system_id":"levelo_inurba_marseille","lat":43.30259,"lon":5.40094,"is_reserved":false,"is_disabled":false,"rental_uris":{"android":"levelo://app?vid=0bf054bc-7fc3-4c86-a291-33e81796d9c0","ios":"levelo://app?vid=0bf054bc-7fc3-4c86-a291-33e81796d9c0"},"vehicle_type_id":"4","last_reported":1745989855,"current_range_meters":15200,"station_id":"ce4bgvh2rcd13ifvqcs0","pricing_plan_id":"cebpf4jnsgd1na2vs0mg"},{"bike_id":"d677444c-5a0f-4c29-b839-d7d13f8af0cf","system_id":"levelo_inurba_marseille","lat":43.30156,"lon":5.39882,"is_reserved":false,"is_disabled":false,"rental_uris":{"android":"levelo://app?vid=d677444c-5a0f-4c29-b839-d7d13f8af0cf","ios":"levelo://app?vid=d677444c-5a0f-4c29-b839-d7d13f8af0cf"},"vehicle_type_id":"4","last_reported":1745989855,"current_range_meters":16000,"station_id":"ce4bh0h2rcd13ifvqd40","pricing_plan_id":"cebpf4jnsgd1na2vs0mg"},{"bike_id":"0b954ae2-6c3b-41a8-8abb-6fa8b5f42027","system_id":"levelo_inurba_marseille","lat":43.28949,"lon":5.36428,"is_reserved":false,"is_disabled":false,"rental_uris":{"android":"levelo://app?vid=0b954ae2-6c3b-41a8-8abb-6fa8b5f42027","ios":"levelo://app?vid=0b954ae2-6c3b-41a8-8abb-6fa8b5f42027"},"vehicle_type_id":"4","last_reported":1745989855,"current_range_meters":16000,"station_id":"ce4bhc92rcd13ifvqetg","pricing_plan_id":"cebpf4jnsgd1na2vs0mg"},{"bike_id":"a56f0186-6742-4321-af55-54f04b4d7b71","system_id":"levelo_inurba_marseille","lat":43.3089,"lon":5.39659,"is_reserved":false,"is_disabled":false,"rental_uris":{"android":"levelo://app?vid=a56f0186-6742-4321-af55-54f04b4d7b71","ios":"levelo://app?vid=a56f0186-6742-4321-af55-54f04b4d7b71"},"vehicle_type_id":"4","last_reported":1745989855,"current_range_meters":16000,"station_id":"ce4bh012rcd13ifvqcv0","pricing_plan_id":"cebpf4jnsgd1na2vs0mg"},{"bike_id":"e5c9e410-09a2-4a8b-8618-7674c87d16f0","system_id":"levelo_inurba_marseille","lat":43.29308,"lon":5.37439,"is_reserved":false,"is_disabled":true,"rental_uris":{"android":"levelo://app?vid=e5c9e410-09a2-4a8b-8618-7674c87d16f0","ios":"levelo://app?vid=e5c9e410-09a2-4a8b-8618-7674c87d16f0"},"vehicle_type_id":"4","last_reported":1745989855,"current_range_meters":16000,"station_id":"ce4bgi12rcd13ifvqb70","pricing_plan_id":"cebpf4jnsgd1na2vs0mg"},{"bike_id":"fce2c520-92d3-4d18-810b-8d643fc15a1a","system_id":"levelo_inurba_marseille","lat":43.23068,"lon":5.355,"is_reserved":false,"is_disabled":false,"rental_uris":{"android":"levelo://app?vid=fce2c520-92d3-4d18-810b-8d643fc15a1a","ios":"levelo://app?vid=fce2c520-92d3-4d18-810b-8d643fc15a1a"},"vehicle_type_id":"4","last_reported":1745989855,"current_range_meters":16000,"station_id":"cpo3342slgdg3j2ifvpg","pricing_plan_id":"cebpf4jnsgd1na2vs0mg"},{"bike_id":"7c57f542-5d9b-4d47-962e-a6357ed443fa","system_id":"levelo_inurba_marseille","lat":43.25108,"lon":5.40344,"is_reserved":false,"is_disabled":false,"rental_uris":{"android":"levelo://app?vid=7c57f542-5d9b-4d47-962e-a6357ed443fa","ios":"levelo://app?vid=7c57f542-5d9b-4d47-962e-a6357ed443fa"},"vehicle_type_id":"4","last_reported":1745989855,"current_range_meters":16000,"station_id":"ce4bhlh2rcd13ifvqgig","pricing_plan_id":"cebpf4jnsgd1na2vs0mg"},{"bike_id":"70857dd2-f23a-44a9-9fcc-6d8a63652f2e","system_id":"levelo_inurba_marseille","lat":43.30238,"lon":5.4007,"is_reserved":false,"is_disabled":false,"rental_uris":{"android":"levelo://app?vid=70857dd2-f23a-44a9-9fcc-6d8a63652f2e","ios":"levelo://app?vid=70857dd2-f23a-44a9-9fcc-6d8a63652f2e"},"vehicle_type_id":"4","last_reported":1745989855,"current_range_meters":16400,"station_id":"ce4bgvh2rcd13ifvqcs0","pricing_plan_id":"cebpf4jnsgd1na2vs0mg"},{"bike_id":"5e122a88-e9ff-4688-ab39-82005b04d2e7","system_id":"levelo_inurba_marseille","lat":43.30649,"lon":5.40077,"is_reserved":false,"is_disabled":false,"rental_uris":{"android":"levelo://app?vid=5e122a88-e9ff-4688-ab39-82005b04d2e7","ios":"levelo://app?vid=5e122a88-e9ff-4688-ab39-82005b04d2e7"},"vehicle_type_id":"4","last_reported":1745989855,"current_range_meters":16400,"station_id":"ce4bh112rcd13ifvqda0","pricing_plan_id":"cebpf4jnsgd1na2vs0mg"},{"bike_id":"c8ceb8e9-785b-4de9-9930-3fbc66d30b00","system_id":"levelo_inurba_marseille","lat":43.217544,"lon":5.346083,"is_reserved":false,"is_disabled":false,"rental_uris":{"android":"levelo://app?vid=c8ceb8e9-785b-4de9-9930-3fbc66d30b00","ios":"levelo://app?vid=c8ceb8e9-785b-4de9-9930-3fbc66d30b00"},"vehicle_type_id":"4","last_reported":1745989855,"current_range_meters":16400,"station_id":"st_cvj6r9ubvosntc0bgbag","pricing_plan_id":"cebpf4jnsgd1na2vs0mg"},{"bike_id":"86c2979e-8cf6-48ed-bdb1-835ff11e3adc","system_id":"levelo_inurba_marseille","lat":43.25339,"lon":5.41844,"is_reserved":false,"is_disabled":false,"rental_uris":{"android":"levelo://app?vid=86c2979e-8cf6-48ed-bdb1-835ff11e3adc","ios":"levelo://app?vid=86c2979e-8cf6-48ed-bdb1-835ff11e3adc"},"vehicle_type_id":"4","last_reported":1745989855,"current_range_meters":16800,"station_id":"","pricing_plan_id":"cebpf4jnsgd1na2vs0mg"},{"bike_id":"28b7c9a4-f8bb-49dc-8705-014ce1d938de","system_id":"levelo_inurba_marseille","lat":43.287096,"lon":5.39989,"is_reserved":false,"is_disabled":false,"rental_uris":{"android":"levelo://app?vid=28b7c9a4-f8bb-49dc-8705-014ce1d938de","ios":"levelo://app?vid=28b7c9a4-f8bb-49dc-8705-014ce1d938de"},"vehicle_type_id":"4","last_reported":1745989855,"current_range_meters":16800,"station_id":"ce4bho92rcd13ifvqh3g","pricing_plan_id":"cebpf4jnsgd1na2vs0mg"},{"bike_id":"201065a5-7739-457d-b6cb-8bceaff21c7b","system_id":"levelo_inurba_marseille","lat":43.28049,"lon":5.36967,"is_reserved":false,"is_disabled":false,"rental_uris":{"android":"levelo://app?vid=201065a5-7739-457d-b6cb-8bceaff21c7b","ios":"levelo://app?vid=201065a5-7739-457d-b6cb-8bceaff21c7b"},"vehicle_type_id":"4","last_reported":1745989855,"current_range_meters":17200,"station_id":"ce4bha12rcd13ifvqef0","pricing_plan_id":"cebpf4jnsgd1na2vs0mg"},{"bike_id":"529a568c-18c4-4161-87f4-156bbcdd065f","system_id":"levelo_inurba_marseille","lat":43.285698,"lon":5.394924,"is_reserved":false,"is_disabled":false,"rental_uris":{"android":"levelo://app?vid=529a568c-18c4-4161-87f4-156bbcdd065f","ios":"levelo://app?vid=529a568c-18c4-4161-87f4-156bbcdd065f"},"vehicle_type_id":"4","last_reported":1745989855,"current_range_meters":17200,"station_id":"ce4bh292rcd13ifvqdg0","pricing_plan_id":"cebpf4jnsgd1na2vs0mg"},{"bike_id":"697c5a0b-659e-44ef-9040-e76620eabbed","system_id":"levelo_inurba_marseille","lat":43.2966,"lon":5.37694,"is_reserved":false,"is_disabled":false,"rental_uris":{"android":"levelo://app?vid=697c5a0b-659e-44ef-9040-e76620eabbed","ios":"levelo://app?vid=697c5a0b-659e-44ef-9040-e76620eabbed"},"vehicle_type_id":"4","last_reported":1745989855,"current_range_meters":17200,"station_id":"ce4bgkh2rcd13ifvqbl0","pricing_plan_id":"cebpf4jnsgd1na2vs0mg"},{"bike_id":"8f287b3e-e459-4fe1-a409-13acdd977d1a","system_id":"levelo_inurba_marseille","lat":43.32102,"lon":5.36779,"is_reserved":false,"is_disabled":false,"rental_uris":{"android":"levelo://app?vid=8f287b3e-e459-4fe1-a409-13acdd977d1a","ios":"levelo://app?vid=8f287b3e-e459-4fe1-a409-13acdd977d1a"},"vehicle_type_id":"4","last_reported":1745989855,"current_range_meters":17600,"station_id":"ce4bhrh2rcd13ifvqhug","pricing_plan_id":"cebpf4jnsgd1na2vs0mg"},{"bike_id":"c664bae0-5573-409b-9e67-da14d19e0c37","system_id":"levelo_inurba_marseille","lat":43.28456,"lon":5.35882,"is_reserved":false,"is_disabled":false,"rental_uris":{"android":"levelo://app?vid=c664bae0-5573-409b-9e67-da14d19e0c37","ios":"levelo://app?vid=c664bae0-5573-409b-9e67-da14d19e0c37"},"vehicle_type_id":"4","last_reported":1745989855,"current_range_meters":17600,"station_id":"ce4bhah2rcd13ifvqei0","pricing_plan_id":"cebpf4jnsgd1na2vs0mg"},{"bike_id":"80ebd813-d55d-43a7-b7dc-643c0e5fe631","system_id":"levelo_inurba_marseille","lat":43.30914,"lon":5.40153,"is_reserved":false,"is_disabled":false,"rental_uris":{"android":"levelo://app?vid=80ebd813-d55d-43a7-b7dc-643c0e5fe631","ios":"levelo://app?vid=80ebd813-d55d-43a7-b7dc-643c0e5fe631"},"vehicle_type_id":"4","last_reported":1745989855,"current_range_meters":17600,"station_id":"ce4bgvp2rcd13ifvqct0","pricing_plan_id":"cebpf4jnsgd1na2vs0mg"},{"bike_id":"473e1fa8-f870-444c-9739-223b20bd02ae","system_id":"levelo_inurba_marseille","lat":43.2319,"lon":5.39988,"is_reserved":false,"is_disabled":false,"rental_uris":{"android":"levelo://app?vid=473e1fa8-f870-444c-9739-223b20bd02ae","ios":"levelo://app?vid=473e1fa8-f870-444c-9739-223b20bd02ae"},"vehicle_type_id":"4","last_reported":1745989855,"current_range_meters":17600,"station_id":"ce4bhn12rcd13ifvqgqg","pricing_plan_id":"cebpf4jnsgd1na2vs0mg"},{"bike_id":"234eaa74-d0a4-44ad-abfd-b486667aba20","system_id":"levelo_inurba_marseille","lat":43.23181,"lon":5.40008,"is_reserved":false,"is_disabled":false,"rental_uris":{"android":"levelo://app?vid=234eaa74-d0a4-44ad-abfd-b486667aba20","ios":"levelo://app?vid=234eaa74-d0a4-44ad-abfd-b486667aba20"},"vehicle_type_id":"4","last_reported":1745989855,"current_range_meters":17600,"station_id":"ce4bhn12rcd13ifvqgqg","pricing_plan_id":"cebpf4jnsgd1na2vs0mg"},{"bike_id":"7940bc1b-eaa7-4f49-a435-46dc9391f6a1","system_id":"levelo_inurba_marseille","lat":43.21194,"lon":5.35093,"is_reserved":false,"is_disabled":false,"rental_uris":{"android":"levelo://app?vid=7940bc1b-eaa7-4f49-a435-46dc9391f6a1","ios":"levelo://app?vid=7940bc1b-eaa7-4f49-a435-46dc9391f6a1"},"vehicle_type_id":"4","last_reported":1745989855,"current_range_meters":17600,"station_id":"st_cvj6sg6p6f1abm77japg","pricing_plan_id":"cebpf4jnsgd1na2vs0mg"},{"bike_id":"c746d294-d77c-4a5a-a6f2-b8bd8f60008f","system_id":"levelo_inurba_marseille","lat":43.2789,"lon":5.41039,"is_reserved":false,"is_disabled":true,"rental_uris":{"android":"levelo://app?vid=c746d294-d77c-4a5a-a6f2-b8bd8f60008f","ios":"levelo://app?vid=c746d294-d77c-4a5a-a6f2-b8bd8f60008f"},"vehicle_type_id":"4","last_reported":1745989855,"current_range_meters":17600,"station_id":"","pricing_plan_id":"cebpf4jnsgd1na2vs0mg"},{"bike_id":"dd1d5a3f-d140-4e61-a85f-9fd03b0cfd3a","system_id":"levelo_inurba_marseille","lat":43.31536,"lon":5.38043,"is_reserved":false,"is_disabled":false,"rental_uris":{"android":"levelo://app?vid=dd1d5a3f-d140-4e61-a85f-9fd03b0cfd3a","ios":"levelo://app?vid=dd1d5a3f-d140-4e61-a85f-9fd03b0cfd3a"},"vehicle_type_id":"4","last_reported":1745989855,"current_range_meters":18000,"station_id":"ce4bhsp2rcd13ifvqi50","pricing_plan_id":"cebpf4jnsgd1na2vs0mg"},{"bike_id":"8c1472e0-d6c5-49b2-afe2-3580e7963eb4","system_id":"levelo_inurba_marseille","lat":43.30157,"lon":5.38079,"is_reserved":false,"is_disabled":false,"rental_uris":{"android":"levelo://app?vid=8c1472e0-d6c5-49b2-afe2-3580e7963eb4","ios":"levelo://app?vid=8c1472e0-d6c5-49b2-afe2-3580e7963eb4"},"vehicle_type_id":"4","last_reported":1745989855,"current_range_meters":18000,"station_id":"ce4bgjp2rcd13ifvqbh0","pricing_plan_id":"cebpf4jnsgd1na2vs0mg"},{"bike_id":"0c9e4d09-31d9-4325-8d9f-13a37129f6e4","system_id":"levelo_inurba_marseille","lat":43.30587,"lon":5.37192,"is_reserved":false,"is_disabled":false,"rental_uris":{"android":"levelo://app?vid=0c9e4d09-31d9-4325-8d9f-13a37129f6e4","ios":"levelo://app?vid=0c9e4d09-31d9-4325-8d9f-13a37129f6e4"},"vehicle_type_id":"4","last_reported":1745989855,"current_range_meters":18000,"station_id":"ce4bgqh2rcd13ifvqc4g","pricing_plan_id":"cebpf4jnsgd1na2vs0mg"},{"bike_id":"81ef13dd-4e4e-43a8-91d3-8381345180db","system_id":"levelo_inurba_marseille","lat":43.27369,"lon":5.36269,"is_reserved":false,"is_disabled":false,"rental_uris":{"android":"levelo://app?vid=81ef13dd-4e4e-43a8-91d3-8381345180db","ios":"levelo://app?vid=81ef13dd-4e4e-43a8-91d3-8381345180db"},"vehicle_type_id":"4","last_reported":1745989855,"current_range_meters":18000,"station_id":"ce4bhbh2rcd13ifvqeo0","pricing_plan_id":"cebpf4jnsgd1na2vs0mg"},{"bike_id":"d819eb38-84ad-4017-8782-84963502c537","system_id":"levelo_inurba_marseille","lat":43.27968,"lon":5.38739,"is_reserved":false,"is_disabled":false,"rental_uris":{"android":"levelo://app?vid=d819eb38-84ad-4017-8782-84963502c537","ios":"levelo://app?vid=d819eb38-84ad-4017-8782-84963502c537"},"vehicle_type_id":"4","last_reported":1745989855,"current_range_meters":18000,"station_id":"ce4bhg12rcd13ifvqf80","pricing_plan_id":"cebpf4jnsgd1na2vs0mg"},{"bike_id":"676e79e0-6b99-43a3-89b6-703fc64ad088","system_id":"levelo_inurba_marseille","lat":43.29977,"lon":5.38481,"is_reserved":false,"is_disabled":false,"rental_uris":{"android":"levelo://app?vid=676e79e0-6b99-43a3-89b6-703fc64ad088","ios":"levelo://app?vid=676e79e0-6b99-43a3-89b6-703fc64ad088"},"vehicle_type_id":"4","last_reported":1745989855,"current_range_meters":18000,"station_id":"ce4bgj92rcd13ifvqbd0","pricing_plan_id":"cebpf4jnsgd1na2vs0mg"},{"bike_id":"330ae0d8-2228-407b-80de-905ccac38fed","system_id":"levelo_inurba_marseille","lat":43.31483,"lon":5.37309,"is_reserved":false,"is_disabled":false,"rental_uris":{"android":"levelo://app?vid=330ae0d8-2228-407b-80de-905ccac38fed","ios":"levelo://app?vid=330ae0d8-2228-407b-80de-905ccac38fed"},"vehicle_type_id":"4","last_reported":1745989855,"current_range_meters":18800,"station_id":"ce4bgt12rcd13ifvqcd0","pricing_plan_id":"cebpf4jnsgd1na2vs0mg"},{"bike_id":"9c06ceb8-02af-4bdd-93d7-cc9e840afe9d","system_id":"levelo_inurba_marseille","lat":43.231821,"lon":5.399909,"is_reserved":false,"is_disabled":false,"rental_uris":{"android":"levelo://app?vid=9c06ceb8-02af-4bdd-93d7-cc9e840afe9d","ios":"levelo://app?vid=9c06ceb8-02af-4bdd-93d7-cc9e840afe9d"},"vehicle_type_id":"4","last_reported":1745989855,"current_range_meters":18800,"station_id":"ce4bhn12rcd13ifvqgqg","pricing_plan_id":"cebpf4jnsgd1na2vs0mg"},{"bike_id":"bcb4a4d9-1d50-4d0e-94cb-4a3fe436984b","system_id":"levelo_inurba_marseille","lat":43.32285,"lon":5.38295,"is_reserved":false,"is_disabled":false,"rental_uris":{"android":"levelo://app?vid=bcb4a4d9-1d50-4d0e-94cb-4a3fe436984b","ios":"levelo://app?vid=bcb4a4d9-1d50-4d0e-94cb-4a3fe436984b"},"vehicle_type_id":"4","last_reported":1745989855,"current_range_meters":19200,"station_id":"ce4bhr12rcd13ifvqhqg","pricing_plan_id":"cebpf4jnsgd1na2vs0mg"},{"bike_id":"1197ea5e-c1b7-4a74-88b7-06654a658162","system_id":"levelo_inurba_marseille","lat":43.284044,"lon":5.375674,"is_reserved":false,"is_disabled":true,"rental_uris":{"android":"levelo://app?vid=1197ea5e-c1b7-4a74-88b7-06654a658162","ios":"levelo://app?vid=1197ea5e-c1b7-4a74-88b7-06654a658162"},"vehicle_type_id":"4","last_reported":1745989855,"current_range_meters":19200,"station_id":"ce4bh412rcd13ifvqds0","pricing_plan_id":"cebpf4jnsgd1na2vs0mg"},{"bike_id":"b3a5d772-2205-4c8b-9b69-e745366b34c4","system_id":"levelo_inurba_marseille","lat":43.30204,"lon":5.39873,"is_reserved":false,"is_disabled":false,"rental_uris":{"android":"levelo://app?vid=b3a5d772-2205-4c8b-9b69-e745366b34c4","ios":"levelo://app?vid=b3a5d772-2205-4c8b-9b69-e745366b34c4"},"vehicle_type_id":"4","last_reported":1745989855,"current_range_meters":19200,"station_id":"","pricing_plan_id":"cebpf4jnsgd1na2vs0mg"},{"bike_id":"7a081fbe-2822-4a3c-9809-94ce2e701ea9","system_id":"levelo_inurba_marseille","lat":43.30918,"lon":5.40172,"is_reserved":false,"is_disabled":false,"rental_uris":{"android":"levelo://app?vid=7a081fbe-2822-4a3c-9809-94ce2e701ea9","ios":"levelo://app?vid=7a081fbe-2822-4a3c-9809-94ce2e701ea9"},"vehicle_type_id":"4","last_reported":1745989855,"current_range_meters":19200,"station_id":"ce4bgvp2rcd13ifvqct0","pricing_plan_id":"cebpf4jnsgd1na2vs0mg"},{"bike_id":"8b5bc876-bb94-43ea-bc93-0bff06ae3dd1","system_id":"levelo_inurba_marseille","lat":43.29273,"lon":5.40146,"is_reserved":false,"is_disabled":false,"rental_uris":{"android":"levelo://app?vid=8b5bc876-bb94-43ea-bc93-0bff06ae3dd1","ios":"levelo://app?vid=8b5bc876-bb94-43ea-bc93-0bff06ae3dd1"},"vehicle_type_id":"4","last_reported":1745989855,"current_range_meters":19600,"station_id":"ce4bh312rcd13ifvqdk0","pricing_plan_id":"cebpf4jnsgd1na2vs0mg"},{"bike_id":"88b0e47a-d43f-44bb-bd7e-80d8fc6d69de","system_id":"levelo_inurba_marseille","lat":43.281056,"lon":5.401727,"is_reserved":false,"is_disabled":false,"rental_uris":{"android":"levelo://app?vid=88b0e47a-d43f-44bb-bd7e-80d8fc6d69de","ios":"levelo://app?vid=88b0e47a-d43f-44bb-bd7e-80d8fc6d69de"},"vehicle_type_id":"4","last_reported":1745989855,"current_range_meters":19600,"station_id":"","pricing_plan_id":"cebpf4jnsgd1na2vs0mg"},{"bike_id":"310d622f-a5db-4e3b-a8a9-748b6065bef9","system_id":"levelo_inurba_marseille","lat":43.28435,"lon":5.35921,"is_reserved":false,"is_disabled":false,"rental_uris":{"android":"levelo://app?vid=310d622f-a5db-4e3b-a8a9-748b6065bef9","ios":"levelo://app?vid=310d622f-a5db-4e3b-a8a9-748b6065bef9"},"vehicle_type_id":"4","last_reported":1745989855,"current_range_meters":19600,"station_id":"ce4bhah2rcd13ifvqei0","pricing_plan_id":"cebpf4jnsgd1na2vs0mg"},{"bike_id":"d29e62a1-3a78-426a-b8e4-8f27c2bce535","system_id":"levelo_inurba_marseille","lat":43.284585,"lon":5.358916,"is_reserved":false,"is_disabled":false,"rental_uris":{"android":"levelo://app?vid=d29e62a1-3a78-426a-b8e4-8f27c2bce535","ios":"levelo://app?vid=d29e62a1-3a78-426a-b8e4-8f27c2bce535"},"vehicle_type_id":"4","last_reported":1745989855,"current_range_meters":19600,"station_id":"ce4bhah2rcd13ifvqei0","pricing_plan_id":"cebpf4jnsgd1na2vs0mg"},{"bike_id":"8711dcb0-b2b4-4a94-a7c4-5bd1ceca9917","system_id":"levelo_inurba_marseille","lat":43.27497,"lon":5.42457,"is_reserved":false,"is_disabled":false,"rental_uris":{"android":"levelo://app?vid=8711dcb0-b2b4-4a94-a7c4-5bd1ceca9917","ios":"levelo://app?vid=8711dcb0-b2b4-4a94-a7c4-5bd1ceca9917"},"vehicle_type_id":"4","last_reported":1745989855,"current_range_meters":19600,"station_id":"ce4bhn92rcd13ifvqgrg","pricing_plan_id":"cebpf4jnsgd1na2vs0mg"},{"bike_id":"200cccf6-55a6-4674-8d81-12dd53204004","system_id":"levelo_inurba_marseille","lat":43.304267,"lon":5.412979,"is_reserved":false,"is_disabled":false,"rental_uris":{"android":"levelo://app?vid=200cccf6-55a6-4674-8d81-12dd53204004","ios":"levelo://app?vid=200cccf6-55a6-4674-8d81-12dd53204004"},"vehicle_type_id":"4","last_reported":1745989855,"current_range_meters":20000,"station_id":"ce4bhoh2rcd13ifvqh6g","pricing_plan_id":"cebpf4jnsgd1na2vs0mg"},{"bike_id":"ddde46b0-abb5-4db4-a967-116646d2b570","system_id":"levelo_inurba_marseille","lat":43.24168,"lon":5.36421,"is_reserved":false,"is_disabled":true,"rental_uris":{"android":"levelo://app?vid=ddde46b0-abb5-4db4-a967-116646d2b570","ios":"levelo://app?vid=ddde46b0-abb5-4db4-a967-116646d2b570"},"vehicle_type_id":"4","last_reported":1745989855,"current_range_meters":20400,"station_id":"cpo36qri1sfpv3e86is0","pricing_plan_id":"cebpf4jnsgd1na2vs0mg"},{"bike_id":"edaae8ad-5882-4d8d-9ea8-483bb3337260","system_id":"levelo_inurba_marseille","lat":43.28727,"lon":5.40028,"is_reserved":false,"is_disabled":false,"rental_uris":{"android":"levelo://app?vid=edaae8ad-5882-4d8d-9ea8-483bb3337260","ios":"levelo://app?vid=edaae8ad-5882-4d8d-9ea8-483bb3337260"},"vehicle_type_id":"4","last_reported":1745989855,"current_range_meters":20400,"station_id":"ce4bho92rcd13ifvqh3g","pricing_plan_id":"cebpf4jnsgd1na2vs0mg"},{"bike_id":"93f75a02-b262-4b0e-9254-5767e1d8caf5","system_id":"levelo_inurba_marseille","lat":43.31065,"lon":5.3835,"is_reserved":false,"is_disabled":false,"rental_uris":{"android":"levelo://app?vid=93f75a02-b262-4b0e-9254-5767e1d8caf5","ios":"levelo://app?vid=93f75a02-b262-4b0e-9254-5767e1d8caf5"},"vehicle_type_id":"4","last_reported":1745989855,"current_range_meters":20400,"station_id":"ce4bgv92rcd13ifvqcr0","pricing_plan_id":"cebpf4jnsgd1na2vs0mg"},{"bike_id":"16c54859-344b-45d7-a121-fbe85611a360","system_id":"levelo_inurba_marseille","lat":43.2292,"lon":5.35369,"is_reserved":false,"is_disabled":false,"rental_uris":{"android":"levelo://app?vid=16c54859-344b-45d7-a121-fbe85611a360","ios":"levelo://app?vid=16c54859-344b-45d7-a121-fbe85611a360"},"vehicle_type_id":"4","last_reported":1745989855,"current_range_meters":20400,"station_id":"cpo3532slgdg3j2ikp40","pricing_plan_id":"cebpf4jnsgd1na2vs0mg"},{"bike_id":"809a2870-3fd0-4e73-bfea-9c4ae9526ab9","system_id":"levelo_inurba_marseille","lat":43.23198,"lon":5.35532,"is_reserved":false,"is_disabled":false,"rental_uris":{"android":"levelo://app?vid=809a2870-3fd0-4e73-bfea-9c4ae9526ab9","ios":"levelo://app?vid=809a2870-3fd0-4e73-bfea-9c4ae9526ab9"},"vehicle_type_id":"4","last_reported":1745989855,"current_range_meters":20400,"station_id":"ce4bhu92rcd13ifvqi70","pricing_plan_id":"cebpf4jnsgd1na2vs0mg"},{"bike_id":"a7a832fe-4f68-44b4-a2f8-a77c5ef0775c","system_id":"levelo_inurba_marseille","lat":43.27842,"lon":5.40721,"is_reserved":false,"is_disabled":false,"rental_uris":{"android":"levelo://app?vid=a7a832fe-4f68-44b4-a2f8-a77c5ef0775c","ios":"levelo://app?vid=a7a832fe-4f68-44b4-a2f8-a77c5ef0775c"},"vehicle_type_id":"4","last_reported":1745989855,"current_range_meters":20800,"station_id":"ce4bhnh2rcd13ifvqgtg","pricing_plan_id":"cebpf4jnsgd1na2vs0mg"},{"bike_id":"35628976-4287-4b7f-93c6-58ca8dc28126","system_id":"levelo_inurba_marseille","lat":43.25904,"lon":5.40851,"is_reserved":false,"is_disabled":false,"rental_uris":{"android":"levelo://app?vid=35628976-4287-4b7f-93c6-58ca8dc28126","ios":"levelo://app?vid=35628976-4287-4b7f-93c6-58ca8dc28126"},"vehicle_type_id":"4","last_reported":1745989855,"current_range_meters":20800,"station_id":"ce4bhm92rcd13ifvqglg","pricing_plan_id":"cebpf4jnsgd1na2vs0mg"},{"bike_id":"ed109d56-bd00-4276-9adb-48be6f4fbfdf","system_id":"levelo_inurba_marseille","lat":43.284447,"lon":5.359013,"is_reserved":false,"is_disabled":false,"rental_uris":{"android":"levelo://app?vid=ed109d56-bd00-4276-9adb-48be6f4fbfdf","ios":"levelo://app?vid=ed109d56-bd00-4276-9adb-48be6f4fbfdf"},"vehicle_type_id":"4","last_reported":1745989855,"current_range_meters":20800,"station_id":"ce4bhah2rcd13ifvqei0","pricing_plan_id":"cebpf4jnsgd1na2vs0mg"},{"bike_id":"856b9cea-619f-4c91-8452-1e096f8abfc3","system_id":"levelo_inurba_marseille","lat":43.30871,"lon":5.39671,"is_reserved":false,"is_disabled":false,"rental_uris":{"android":"levelo://app?vid=856b9cea-619f-4c91-8452-1e096f8abfc3","ios":"levelo://app?vid=856b9cea-619f-4c91-8452-1e096f8abfc3"},"vehicle_type_id":"4","last_reported":1745989855,"current_range_meters":20800,"station_id":"ce4bh012rcd13ifvqcv0","pricing_plan_id":"cebpf4jnsgd1na2vs0mg"},{"bike_id":"fab44dda-7092-4821-bb96-89f2017ce81a","system_id":"levelo_inurba_marseille","lat":43.29531,"lon":5.38549,"is_reserved":false,"is_disabled":false,"rental_uris":{"android":"levelo://app?vid=fab44dda-7092-4821-bb96-89f2017ce81a","ios":"levelo://app?vid=fab44dda-7092-4821-bb96-89f2017ce81a"},"vehicle_type_id":"4","last_reported":1745989855,"current_range_meters":20800,"station_id":"ce4bgih2rcd13ifvqba0","pricing_plan_id":"cebpf4jnsgd1na2vs0mg"},{"bike_id":"04f24fbd-16e0-4c2c-855a-ce91ea67fe8c","system_id":"levelo_inurba_marseille","lat":43.27041,"lon":5.40266,"is_reserved":false,"is_disabled":false,"rental_uris":{"android":"levelo://app?vid=04f24fbd-16e0-4c2c-855a-ce91ea67fe8c","ios":"levelo://app?vid=04f24fbd-16e0-4c2c-855a-ce91ea67fe8c"},"vehicle_type_id":"4","last_reported":1745989855,"current_range_meters":20800,"station_id":"ce4bhk92rcd13ifvqgc0","pricing_plan_id":"cebpf4jnsgd1na2vs0mg"},{"bike_id":"24f9670e-ad78-42b7-a30f-8ec79558ce7a","system_id":"levelo_inurba_marseille","lat":43.31516,"lon":5.38077,"is_reserved":false,"is_disabled":false,"rental_uris":{"android":"levelo://app?vid=24f9670e-ad78-42b7-a30f-8ec79558ce7a","ios":"levelo://app?vid=24f9670e-ad78-42b7-a30f-8ec79558ce7a"},"vehicle_type_id":"4","last_reported":1745989855,"current_range_meters":20800,"station_id":"ce4bhsp2rcd13ifvqi50","pricing_plan_id":"cebpf4jnsgd1na2vs0mg"},{"bike_id":"885643d3-720e-482f-bfea-fac9634e1102","system_id":"levelo_inurba_marseille","lat":43.29411,"lon":5.39762,"is_reserved":false,"is_disabled":false,"rental_uris":{"android":"levelo://app?vid=885643d3-720e-482f-bfea-fac9634e1102","ios":"levelo://app?vid=885643d3-720e-482f-bfea-fac9634e1102"},"vehicle_type_id":"4","last_reported":1745989855,"current_range_meters":20800,"station_id":"ce4bh3h2rcd13ifvqdo0","pricing_plan_id":"cebpf4jnsgd1na2vs0mg"},{"bike_id":"8a5ef15b-08e5-4866-9542-282ce1544826","system_id":"levelo_inurba_marseille","lat":43.231854,"lon":5.399854,"is_reserved":false,"is_disabled":false,"rental_uris":{"android":"levelo://app?vid=8a5ef15b-08e5-4866-9542-282ce1544826","ios":"levelo://app?vid=8a5ef15b-08e5-4866-9542-282ce1544826"},"vehicle_type_id":"4","last_reported":1745989855,"current_range_meters":20800,"station_id":"ce4bhn12rcd13ifvqgqg","pricing_plan_id":"cebpf4jnsgd1na2vs0mg"},{"bike_id":"1ed1a301-a862-4162-9fb7-6977a173f9c8","system_id":"levelo_inurba_marseille","lat":43.31324,"lon":5.39741,"is_reserved":false,"is_disabled":false,"rental_uris":{"android":"levelo://app?vid=1ed1a301-a862-4162-9fb7-6977a173f9c8","ios":"levelo://app?vid=1ed1a301-a862-4162-9fb7-6977a173f9c8"},"vehicle_type_id":"4","last_reported":1745989855,"current_range_meters":21600,"station_id":"ce4bgvp2rcd13ifvqcu0","pricing_plan_id":"cebpf4jnsgd1na2vs0mg"},{"bike_id":"31804b6e-aae4-4166-bcd0-673b3856d84a","system_id":"levelo_inurba_marseille","lat":43.30458,"lon":5.37906,"is_reserved":false,"is_disabled":false,"rental_uris":{"android":"levelo://app?vid=31804b6e-aae4-4166-bcd0-673b3856d84a","ios":"levelo://app?vid=31804b6e-aae4-4166-bcd0-673b3856d84a"},"vehicle_type_id":"4","last_reported":1745989855,"current_range_meters":21600,"station_id":"ce4bgup2rcd13ifvqcn0","pricing_plan_id":"cebpf4jnsgd1na2vs0mg"},{"bike_id":"a8192352-1d6f-4d9e-8857-3f391e63857f","system_id":"levelo_inurba_marseille","lat":43.30953,"lon":5.39627,"is_reserved":false,"is_disabled":false,"rental_uris":{"android":"levelo://app?vid=a8192352-1d6f-4d9e-8857-3f391e63857f","ios":"levelo://app?vid=a8192352-1d6f-4d9e-8857-3f391e63857f"},"vehicle_type_id":"4","last_reported":1745989855,"current_range_meters":21600,"station_id":"","pricing_plan_id":"cebpf4jnsgd1na2vs0mg"},{"bike_id":"d5046189-0fb2-40d3-9ca2-25c5936499aa","system_id":"levelo_inurba_marseille","lat":43.28427,"lon":5.34999,"is_reserved":false,"is_disabled":true,"rental_uris":{"android":"levelo://app?vid=d5046189-0fb2-40d3-9ca2-25c5936499aa","ios":"levelo://app?vid=d5046189-0fb2-40d3-9ca2-25c5936499aa"},"vehicle_type_id":"4","last_reported":1745989855,"current_range_meters":21600,"station_id":"ce4bhbh2rcd13ifvqepg","pricing_plan_id":"cebpf4jnsgd1na2vs0mg"},{"bike_id":"f7bf61c7-7ab8-4686-ae02-c81e90fce057","system_id":"levelo_inurba_marseille","lat":43.31071,"lon":5.38348,"is_reserved":false,"is_disabled":false,"rental_uris":{"android":"levelo://app?vid=f7bf61c7-7ab8-4686-ae02-c81e90fce057","ios":"levelo://app?vid=f7bf61c7-7ab8-4686-ae02-c81e90fce057"},"vehicle_type_id":"4","last_reported":1745989855,"current_range_meters":21600,"station_id":"ce4bgv92rcd13ifvqcr0","pricing_plan_id":"cebpf4jnsgd1na2vs0mg"},{"bike_id":"b53bc3da-f2d0-4fae-930a-bace7286daae","system_id":"levelo_inurba_marseille","lat":43.309334,"lon":5.401404,"is_reserved":false,"is_disabled":false,"rental_uris":{"android":"levelo://app?vid=b53bc3da-f2d0-4fae-930a-bace7286daae","ios":"levelo://app?vid=b53bc3da-f2d0-4fae-930a-bace7286daae"},"vehicle_type_id":"4","last_reported":1745989855,"current_range_meters":22000,"station_id":"","pricing_plan_id":"cebpf4jnsgd1na2vs0mg"},{"bike_id":"8f686f12-2688-4beb-9927-d2a2fe8cd5aa","system_id":"levelo_inurba_marseille","lat":43.27054,"lon":5.40254,"is_reserved":false,"is_disabled":false,"rental_uris":{"android":"levelo://app?vid=8f686f12-2688-4beb-9927-d2a2fe8cd5aa","ios":"levelo://app?vid=8f686f12-2688-4beb-9927-d2a2fe8cd5aa"},"vehicle_type_id":"4","last_reported":1745989855,"current_range_meters":22000,"station_id":"ce4bhk92rcd13ifvqgc0","pricing_plan_id":"cebpf4jnsgd1na2vs0mg"},{"bike_id":"2d90d92c-e010-4034-9c8a-92ec848e2a6f","system_id":"levelo_inurba_marseille","lat":43.30321,"lon":5.36916,"is_reserved":false,"is_disabled":true,"rental_uris":{"android":"levelo://app?vid=2d90d92c-e010-4034-9c8a-92ec848e2a6f","ios":"levelo://app?vid=2d90d92c-e010-4034-9c8a-92ec848e2a6f"},"vehicle_type_id":"4","last_reported":1745989855,"current_range_meters":22000,"station_id":"ce4bgqh2rcd13ifvqc5g","pricing_plan_id":"cebpf4jnsgd1na2vs0mg"},{"bike_id":"3a1c6b65-5f0e-4cf0-b640-52fefa98b0b8","system_id":"levelo_inurba_marseille","lat":43.3204,"lon":5.41583,"is_reserved":false,"is_disabled":false,"rental_uris":{"android":"levelo://app?vid=3a1c6b65-5f0e-4cf0-b640-52fefa98b0b8","ios":"levelo://app?vid=3a1c6b65-5f0e-4cf0-b640-52fefa98b0b8"},"vehicle_type_id":"4","last_reported":1745989855,"current_range_meters":22000,"station_id":"ce4bhq92rcd13ifvqhkg","pricing_plan_id":"cebpf4jnsgd1na2vs0mg"},{"bike_id":"714061e8-7416-4067-b274-58949cf80bd2","system_id":"levelo_inurba_marseille","lat":43.29789,"lon":5.38125,"is_reserved":false,"is_disabled":true,"rental_uris":{"android":"levelo://app?vid=714061e8-7416-4067-b274-58949cf80bd2","ios":"levelo://app?vid=714061e8-7416-4067-b274-58949cf80bd2"},"vehicle_type_id":"4","last_reported":1745989855,"current_range_meters":22000,"station_id":"ce4bgip2rcd13ifvqbb0","pricing_plan_id":"cebpf4jnsgd1na2vs0mg"},{"bike_id":"a845493f-629a-41de-9b70-4749d641e58e","system_id":"levelo_inurba_marseille","lat":43.29528,"lon":5.39039,"is_reserved":false,"is_disabled":false,"rental_uris":{"android":"levelo://app?vid=a845493f-629a-41de-9b70-4749d641e58e","ios":"levelo://app?vid=a845493f-629a-41de-9b70-4749d641e58e"},"vehicle_type_id":"4","last_reported":1745989855,"current_range_meters":22000,"station_id":"ce4bh3p2rcd13ifvqdp0","pricing_plan_id":"cebpf4jnsgd1na2vs0mg"},{"bike_id":"9a6d1a0d-0520-4c44-b0a9-74ddbe754418","system_id":"levelo_inurba_marseille","lat":43.27101,"lon":5.40693,"is_reserved":false,"is_disabled":false,"rental_uris":{"android":"levelo://app?vid=9a6d1a0d-0520-4c44-b0a9-74ddbe754418","ios":"levelo://app?vid=9a6d1a0d-0520-4c44-b0a9-74ddbe754418"},"vehicle_type_id":"4","last_reported":1745989855,"current_range_meters":22400,"station_id":"","pricing_plan_id":"cebpf4jnsgd1na2vs0mg"},{"bike_id":"c48272f4-5124-44d6-a1ab-307c487c929f","system_id":"levelo_inurba_marseille","lat":43.28638,"lon":5.36352,"is_reserved":false,"is_disabled":false,"rental_uris":{"android":"levelo://app?vid=c48272f4-5124-44d6-a1ab-307c487c929f","ios":"levelo://app?vid=c48272f4-5124-44d6-a1ab-307c487c929f"},"vehicle_type_id":"4","last_reported":1745989855,"current_range_meters":22400,"station_id":"ce4bhah2rcd13ifvqej0","pricing_plan_id":"cebpf4jnsgd1na2vs0mg"},{"bike_id":"ba2f86b4-0748-4c4d-9a58-e89310a426d6","system_id":"levelo_inurba_marseille","lat":43.28717,"lon":5.39993,"is_reserved":false,"is_disabled":false,"rental_uris":{"android":"levelo://app?vid=ba2f86b4-0748-4c4d-9a58-e89310a426d6","ios":"levelo://app?vid=ba2f86b4-0748-4c4d-9a58-e89310a426d6"},"vehicle_type_id":"4","last_reported":1745989855,"current_range_meters":22400,"station_id":"ce4bho92rcd13ifvqh3g","pricing_plan_id":"cebpf4jnsgd1na2vs0mg"},{"bike_id":"4f0f5a8d-d2a8-412d-984b-40874dab4585","system_id":"levelo_inurba_marseille","lat":43.301233,"lon":5.398712,"is_reserved":false,"is_disabled":false,"rental_uris":{"android":"levelo://app?vid=4f0f5a8d-d2a8-412d-984b-40874dab4585","ios":"levelo://app?vid=4f0f5a8d-d2a8-412d-984b-40874dab4585"},"vehicle_type_id":"4","last_reported":1745989855,"current_range_meters":22400,"station_id":"ce4bh0h2rcd13ifvqd40","pricing_plan_id":"cebpf4jnsgd1na2vs0mg"},{"bike_id":"fc8ecc00-1623-4a96-b439-59197bdd0618","system_id":"levelo_inurba_marseille","lat":43.27472,"lon":5.40905,"is_reserved":false,"is_disabled":false,"rental_uris":{"android":"levelo://app?vid=fc8ecc00-1623-4a96-b439-59197bdd0618","ios":"levelo://app?vid=fc8ecc00-1623-4a96-b439-59197bdd0618"},"vehicle_type_id":"4","last_reported":1745989855,"current_range_meters":22400,"station_id":"","pricing_plan_id":"cebpf4jnsgd1na2vs0mg"},{"bike_id":"d8c1856b-cd1d-4412-9e4e-dfbccee9e410","system_id":"levelo_inurba_marseille","lat":43.30944,"lon":5.40146,"is_reserved":false,"is_disabled":false,"rental_uris":{"android":"levelo://app?vid=d8c1856b-cd1d-4412-9e4e-dfbccee9e410","ios":"levelo://app?vid=d8c1856b-cd1d-4412-9e4e-dfbccee9e410"},"vehicle_type_id":"4","last_reported":1745989855,"current_range_meters":22800,"station_id":"ce4bgvp2rcd13ifvqct0","pricing_plan_id":"cebpf4jnsgd1na2vs0mg"},{"bike_id":"06a0197f-11c7-45df-a464-b92f1fc190da","system_id":"levelo_inurba_marseille","lat":43.2678,"lon":5.39418,"is_reserved":false,"is_disabled":false,"rental_uris":{"android":"levelo://app?vid=06a0197f-11c7-45df-a464-b92f1fc190da","ios":"levelo://app?vid=06a0197f-11c7-45df-a464-b92f1fc190da"},"vehicle_type_id":"4","last_reported":1745989855,"current_range_meters":22800,"station_id":"ce4bhh12rcd13ifvqfg0","pricing_plan_id":"cebpf4jnsgd1na2vs0mg"},{"bike_id":"fc35888b-462c-491c-bb25-6cf81e434cf0","system_id":"levelo_inurba_marseille","lat":43.29966,"lon":5.3718,"is_reserved":false,"is_disabled":true,"rental_uris":{"android":"levelo://app?vid=fc35888b-462c-491c-bb25-6cf81e434cf0","ios":"levelo://app?vid=fc35888b-462c-491c-bb25-6cf81e434cf0"},"vehicle_type_id":"4","last_reported":1745989855,"current_range_meters":22800,"station_id":"ce4bgr92rcd13ifvqc7g","pricing_plan_id":"cebpf4jnsgd1na2vs0mg"},{"bike_id":"3554449c-6baf-4c8d-9213-e6f8dbb0c51d","system_id":"levelo_inurba_marseille","lat":43.313587,"lon":5.384956,"is_reserved":false,"is_disabled":true,"rental_uris":{"android":"levelo://app?vid=3554449c-6baf-4c8d-9213-e6f8dbb0c51d","ios":"levelo://app?vid=3554449c-6baf-4c8d-9213-e6f8dbb0c51d"},"vehicle_type_id":"4","last_reported":1745989855,"current_range_meters":22800,"station_id":"ce4bgt92rcd13ifvqcf0","pricing_plan_id":"cebpf4jnsgd1na2vs0mg"},{"bike_id":"7cc5dd6e-ad99-435d-9263-1baa89184852","system_id":"levelo_inurba_marseille","lat":43.28433,"lon":5.39185,"is_reserved":false,"is_disabled":false,"rental_uris":{"android":"levelo://app?vid=7cc5dd6e-ad99-435d-9263-1baa89184852","ios":"levelo://app?vid=7cc5dd6e-ad99-435d-9263-1baa89184852"},"vehicle_type_id":"4","last_reported":1745989855,"current_range_meters":22800,"station_id":"ce4bhoh2rcd13ifvqh5g","pricing_plan_id":"cebpf4jnsgd1na2vs0mg"},{"bike_id":"ac136c3c-d8ab-4f51-937d-afc9aa4575e2","system_id":"levelo_inurba_marseille","lat":43.281039,"lon":5.378413,"is_reserved":false,"is_disabled":false,"rental_uris":{"android":"levelo://app?vid=ac136c3c-d8ab-4f51-937d-afc9aa4575e2","ios":"levelo://app?vid=ac136c3c-d8ab-4f51-937d-afc9aa4575e2"},"vehicle_type_id":"4","last_reported":1745989855,"current_range_meters":22800,"station_id":"ce4bha12rcd13ifvqee0","pricing_plan_id":"cebpf4jnsgd1na2vs0mg"},{"bike_id":"6abbf3ca-fde0-4922-8653-0b2393d58042","system_id":"levelo_inurba_marseille","lat":43.28881,"lon":5.39323,"is_reserved":false,"is_disabled":true,"rental_uris":{"android":"levelo://app?vid=6abbf3ca-fde0-4922-8653-0b2393d58042","ios":"levelo://app?vid=6abbf3ca-fde0-4922-8653-0b2393d58042"},"vehicle_type_id":"4","last_reported":1745989855,"current_range_meters":23200,"station_id":"ce4bh2p2rcd13ifvqdi0","pricing_plan_id":"cebpf4jnsgd1na2vs0mg"},{"bike_id":"06013f40-ea31-414e-ad92-9ad0a8a4ac4f","system_id":"levelo_inurba_marseille","lat":43.28841,"lon":5.39288,"is_reserved":false,"is_disabled":false,"rental_uris":{"android":"levelo://app?vid=06013f40-ea31-414e-ad92-9ad0a8a4ac4f","ios":"levelo://app?vid=06013f40-ea31-414e-ad92-9ad0a8a4ac4f"},"vehicle_type_id":"4","last_reported":1745989855,"current_range_meters":23200,"station_id":"ce4bh2p2rcd13ifvqdi0","pricing_plan_id":"cebpf4jnsgd1na2vs0mg"},{"bike_id":"1fbec7a1-31ee-4f4e-8d52-0e13b7aa5fb9","system_id":"levelo_inurba_marseille","lat":43.28711,"lon":5.374,"is_reserved":false,"is_disabled":false,"rental_uris":{"android":"levelo://app?vid=1fbec7a1-31ee-4f4e-8d52-0e13b7aa5fb9","ios":"levelo://app?vid=1fbec7a1-31ee-4f4e-8d52-0e13b7aa5fb9"},"vehicle_type_id":"4","last_reported":1745989855,"current_range_meters":23200,"station_id":"ce4bh3p2rcd13ifvqdq0","pricing_plan_id":"cebpf4jnsgd1na2vs0mg"},{"bike_id":"06a8f51c-b305-4c74-b3e3-3b426a37ccee","system_id":"levelo_inurba_marseille","lat":43.295466,"lon":5.395949,"is_reserved":false,"is_disabled":true,"rental_uris":{"android":"levelo://app?vid=06a8f51c-b305-4c74-b3e3-3b426a37ccee","ios":"levelo://app?vid=06a8f51c-b305-4c74-b3e3-3b426a37ccee"},"vehicle_type_id":"4","last_reported":1745989855,"current_range_meters":23200,"station_id":"","pricing_plan_id":"cebpf4jnsgd1na2vs0mg"},{"bike_id":"83ced828-5bd0-4e19-b3e1-62635e7af537","system_id":"levelo_inurba_marseille","lat":43.303161,"lon":5.404413,"is_reserved":false,"is_disabled":false,"rental_uris":{"android":"levelo://app?vid=83ced828-5bd0-4e19-b3e1-62635e7af537","ios":"levelo://app?vid=83ced828-5bd0-4e19-b3e1-62635e7af537"},"vehicle_type_id":"4","last_reported":1745989855,"current_range_meters":23200,"station_id":"ce4bh012rcd13ifvqd10","pricing_plan_id":"cebpf4jnsgd1na2vs0mg"},{"bike_id":"438ac774-ac32-45ba-acc0-a63f4e00e38a","system_id":"levelo_inurba_marseille","lat":43.292446,"lon":5.409208,"is_reserved":false,"is_disabled":false,"rental_uris":{"android":"levelo://app?vid=438ac774-ac32-45ba-acc0-a63f4e00e38a","ios":"levelo://app?vid=438ac774-ac32-45ba-acc0-a63f4e00e38a"},"vehicle_type_id":"4","last_reported":1745989855,"current_range_meters":23200,"station_id":"ce4bh192rcd13ifvqdc0","pricing_plan_id":"cebpf4jnsgd1na2vs0mg"},{"bike_id":"48fe0a61-16d8-4c4d-8014-6583682528ed","system_id":"levelo_inurba_marseille","lat":43.217498,"lon":5.346209,"is_reserved":false,"is_disabled":false,"rental_uris":{"android":"levelo://app?vid=48fe0a61-16d8-4c4d-8014-6583682528ed","ios":"levelo://app?vid=48fe0a61-16d8-4c4d-8014-6583682528ed"},"vehicle_type_id":"4","last_reported":1745989855,"current_range_meters":23200,"station_id":"","pricing_plan_id":"cebpf4jnsgd1na2vs0mg"},{"bike_id":"99969f3f-0e90-47cc-aab8-4ffee35eedaf","system_id":"levelo_inurba_marseille","lat":43.307976,"lon":5.435231,"is_reserved":false,"is_disabled":false,"rental_uris":{"android":"levelo://app?vid=99969f3f-0e90-47cc-aab8-4ffee35eedaf","ios":"levelo://app?vid=99969f3f-0e90-47cc-aab8-4ffee35eedaf"},"vehicle_type_id":"4","last_reported":1745989855,"current_range_meters":23200,"station_id":"ce4bhph2rcd13ifvqheg","pricing_plan_id":"cebpf4jnsgd1na2vs0mg"},{"bike_id":"ce32f884-8111-48ff-84e3-be114354a449","system_id":"levelo_inurba_marseille","lat":43.30201,"lon":5.39483,"is_reserved":false,"is_disabled":false,"rental_uris":{"android":"levelo://app?vid=ce32f884-8111-48ff-84e3-be114354a449","ios":"levelo://app?vid=ce32f884-8111-48ff-84e3-be114354a449"},"vehicle_type_id":"4","last_reported":1745989855,"current_range_meters":23200,"station_id":"ce4bh0p2rcd13ifvqd70","pricing_plan_id":"cebpf4jnsgd1na2vs0mg"},{"bike_id":"a1c86bff-b3e7-40aa-b3b6-33508f7b3164","system_id":"levelo_inurba_marseille","lat":43.25937,"lon":5.40903,"is_reserved":false,"is_disabled":false,"rental_uris":{"android":"levelo://app?vid=a1c86bff-b3e7-40aa-b3b6-33508f7b3164","ios":"levelo://app?vid=a1c86bff-b3e7-40aa-b3b6-33508f7b3164"},"vehicle_type_id":"4","last_reported":1745989855,"current_range_meters":23200,"station_id":"ce4bhm92rcd13ifvqglg","pricing_plan_id":"cebpf4jnsgd1na2vs0mg"},{"bike_id":"a71c5ca1-1706-458c-89ad-9aee3075f310","system_id":"levelo_inurba_marseille","lat":43.26223,"lon":5.404505,"is_reserved":false,"is_disabled":false,"rental_uris":{"android":"levelo://app?vid=a71c5ca1-1706-458c-89ad-9aee3075f310","ios":"levelo://app?vid=a71c5ca1-1706-458c-89ad-9aee3075f310"},"vehicle_type_id":"4","last_reported":1745989855,"current_range_meters":23200,"station_id":"ce4bhmh2rcd13ifvqgmg","pricing_plan_id":"cebpf4jnsgd1na2vs0mg"},{"bike_id":"433e5855-e22e-45dc-a51c-b358aeaeb364","system_id":"levelo_inurba_marseille","lat":43.287078,"lon":5.399868,"is_reserved":false,"is_disabled":false,"rental_uris":{"android":"levelo://app?vid=433e5855-e22e-45dc-a51c-b358aeaeb364","ios":"levelo://app?vid=433e5855-e22e-45dc-a51c-b358aeaeb364"},"vehicle_type_id":"4","last_reported":1745989855,"current_range_meters":24000,"station_id":"ce4bho92rcd13ifvqh3g","pricing_plan_id":"cebpf4jnsgd1na2vs0mg"},{"bike_id":"c8ce0410-c304-4ad2-b69b-76d283185b5e","system_id":"levelo_inurba_marseille","lat":43.319991,"lon":5.381506,"is_reserved":false,"is_disabled":false,"rental_uris":{"android":"levelo://app?vid=c8ce0410-c304-4ad2-b69b-76d283185b5e","ios":"levelo://app?vid=c8ce0410-c304-4ad2-b69b-76d283185b5e"},"vehicle_type_id":"4","last_reported":1745989855,"current_range_meters":24000,"station_id":"ce4bhr12rcd13ifvqhpg","pricing_plan_id":"cebpf4jnsgd1na2vs0mg"},{"bike_id":"f6d52a41-5a3a-4364-82da-faa08fda4bd8","system_id":"levelo_inurba_marseille","lat":43.31256,"lon":5.40205,"is_reserved":false,"is_disabled":false,"rental_uris":{"android":"levelo://app?vid=f6d52a41-5a3a-4364-82da-faa08fda4bd8","ios":"levelo://app?vid=f6d52a41-5a3a-4364-82da-faa08fda4bd8"},"vehicle_type_id":"4","last_reported":1745989855,"current_range_meters":24000,"station_id":"ce4bh092rcd13ifvqd30","pricing_plan_id":"cebpf4jnsgd1na2vs0mg"},{"bike_id":"ed734bfc-0aa6-4765-97dd-9d8a536ba845","system_id":"levelo_inurba_marseille","lat":43.24682,"lon":5.39441,"is_reserved":false,"is_disabled":false,"rental_uris":{"android":"levelo://app?vid=ed734bfc-0aa6-4765-97dd-9d8a536ba845","ios":"levelo://app?vid=ed734bfc-0aa6-4765-97dd-9d8a536ba845"},"vehicle_type_id":"4","last_reported":1745989855,"current_range_meters":24000,"station_id":"","pricing_plan_id":"cebpf4jnsgd1na2vs0mg"},