{"last_updated":1737752837,"ttl":60,"version":"2.2","data":{"bikes":[{"bike_id":"83300955-a5d2-4afa-81d7-e3e697fa28cf","system_id":"levelo_inurba_marseille","lat":43.29626,"lon":5.37478,"is_reserved":false,"is_disabled":false,"rental_uris":{"android":"levelo://app?vid=83300955-a5d2-4afa-81d7-e3e697fa28cf","ios":"levelo://app?vid=83300955-a5d2-4afa-81d7-e3e697fa28cf"},"vehicle_type_id":"4","last_reported":1737752838,"current_range_meters":38000,"station_id":"","pricing_plan_id":"cebpf4jnsgd1na2vs0mg"},{"bike_id":"22fdda07-29f7-4097-aa7c-457566d3caba","system_id":"levelo_inurba_marseille","lat":43.25076,"lon":5.39542,"is_reserved":false,"is_disabled":false,"rental_uris":{"android":"levelo://app?vid=22fdda07-29f7-4097-aa7c-457566d3caba","ios":"levelo://app?vid=22fdda07-29f7-4097-aa7c-457566d3caba"},"vehicle_type_id":"4","last_reported":1737752838,"current_range_meters":32400,"station_id":"ce4bhm12rcd13ifvqgkg","pricing_plan_id":"cebpf4jnsgd1na2vs0mg"},{"bike_id":"b8616eb9-d9e4-460f-807e-1357c1bfc7f2","system_id":"levelo_inurba_marseille","lat":43.24386,"lon":5.3705,"is_reserved":false,"is_disabled":false,"rental_uris":{"android":"levelo://app?vid=b8616eb9-d9e4-460f-807e-1357c1bfc7f2","ios":"levelo://app?vid=b8616eb9-d9e4-460f-807e-1357c1bfc7f2"},"vehicle_type_id":"4","last_reported":1737752838,"current_range_meters":38800,"station_id":"ce4bhhh2rcd13ifvqfk0","pricing_plan_id":"cebpf4jnsgd1na2vs0mg"},{"bike_id":"58d9e3df-28a3-4560-b2cd-4d33fefbd544","system_id":"levelo_inurba_marseille","lat":43.28387,"lon":5.38136,"is_reserved":false,"is_disabled":false,"rental_uris":{"android":"levelo://app?vid=58d9e3df-28a3-4560-b2cd-4d33fefbd544","ios":"levelo://app?vid=58d9e3df-28a3-4560-b2cd-4d33fefbd544"},"vehicle_type_id":"4","last_reported":1737752838,"current_range_meters":25200,"station_id":"","pricing_plan_id":"cebpf4jnsgd1na2vs0mg"},{"bike_id":"0793f05d-0029-4d54-a0fe-9c0436426db5","system_id":"levelo_inurba_marseille","lat":43.23196,"lon":5.35586,"is_reserved":false,"is_disabled":false,"rental_uris":{"android":"levelo://app?vid=0793f05d-0029-4d54-a0fe-9c0436426db5","ios":"levelo://app?vid=0793f05d-0029-4d54-a0fe-9c0436426db5"},"vehicle_type_id":"4","last_reported":1737752838,"current_range_meters":35600,"station_id":"ce4bhu92rcd13ifvqi70","pricing_plan_id":"cebpf4jnsgd1na2vs0mg"},{"bike_id":"2e69219e-a32a-45dd-bfbe-a39a3389fa1c","system_id":"levelo_inurba_marseille","lat":43.2507,"lon":5.39574,"is_reserved":false,"is_disabled":false,"rental_uris":{"android":"levelo://app?vid=2e69219e-a32a-45dd-bfbe-a39a3389fa1c","ios":"levelo://app?vid=2e69219e-a32a-45dd-bfbe-a39a3389fa1c"},"vehicle_type_id":"4","last_reported":1737752838,"current_range_meters":7200,"station_id":"","pricing_plan_id":"cebpf4jnsgd1na2vs0mg"},{"bike_id":"4914872c-162c-4b5d-a9af-cff65f389580","system_id":"levelo_inurba_marseille","lat":43.29606,"lon":5.38079,"is_reserved":false,"is_disabled":true,"rental_uris":{"android":"levelo://app?vid=4914872c-162c-4b5d-a9af-cff65f389580","ios":"levelo://app?vid=4914872c-162c-4b5d-a9af-cff65f389580"},"vehicle_type_id":"4","last_reported":1737752838,"current_range_meters":3200,"station_id":"ce4bgl12rcd13ifvqbo0","pricing_plan_id":"cebpf4jnsgd1na2vs0mg"},{"bike_id":"1683b3a0-02a3-41e7-9ee4-c9fdb3c82e86","system_id":"levelo_inurba_marseille","lat":43.30925,"lon":5.40134,"is_reserved":false,"is_disabled":false,"rental_uris":{"android":"levelo://app?vid=1683b3a0-02a3-41e7-9ee4-c9fdb3c82e86","ios":"levelo://app?vid=1683b3a0-02a3-41e7-9ee4-c9fdb3c82e86"},"vehicle_type_id":"4","last_reported":1737752838,"current_range_meters":32800,"station_id":"ce4bgvp2rcd13ifvqct0","pricing_plan_id":"cebpf4jnsgd1na2vs0mg"},{"bike_id":"78f1bcbe-297f-4d89-be9d-ff7c664d65b5","system_id":"levelo_inurba_marseille","lat":43.27174,"lon":5.40995,"is_reserved":false,"is_disabled":false,"rental_uris":{"android":"levelo://app?vid=78f1bcbe-297f-4d89-be9d-ff7c664d65b5","ios":"levelo://app?vid=78f1bcbe-297f-4d89-be9d-ff7c664d65b5"},"vehicle_type_id":"4","last_reported":1737752838,"current_range_meters":11600,"station_id":"ce4bhl12rcd13ifvqgf0","pricing_plan_id":"cebpf4jnsgd1na2vs0mg"},{"bike_id":"8404d416-0cdd-42b3-b1d9-4024b2770bb7","system_id":"levelo_inurba_marseille","lat":43.26225,"lon":5.37423,"is_reserved":false,"is_disabled":false,"rental_uris":{"android":"levelo://app?vid=8404d416-0cdd-42b3-b1d9-4024b2770bb7","ios":"levelo://app?vid=8404d416-0cdd-42b3-b1d9-4024b2770bb7"},"vehicle_type_id":"4","last_reported":1737752838,"current_range_meters":38800,"station_id":"ce4bhgp2rcd13ifvqfc0","pricing_plan_id":"cebpf4jnsgd1na2vs0mg"},{"bike_id":"d90aea27-dda3-4c8f-bfd0-3400d8d72e85","system_id":"levelo_inurba_marseille","lat":43.29034,"lon":5.37571,"is_reserved":false,"is_disabled":false,"rental_uris":{"android":"levelo://app?vid=d90aea27-dda3-4c8f-bfd0-3400d8d72e85","ios":"levelo://app?vid=d90aea27-dda3-4c8f-bfd0-3400d8d72e85"},"vehicle_type_id":"4","last_reported":1737752838,"current_range_meters":31200,"station_id":"ce4bh692rcd13ifvqe90","pricing_plan_id":"cebpf4jnsgd1na2vs0mg"},{"bike_id":"eadecfe8-1294-4c6c-a688-c77357028c6c","system_id":"levelo_inurba_marseille","lat":43.28406,"lon":5.3752,"is_reserved":false,"is_disabled":false,"rental_uris":{"android":"levelo://app?vid=eadecfe8-1294-4c6c-a688-c77357028c6c","ios":"levelo://app?vid=eadecfe8-1294-4c6c-a688-c77357028c6c"},"vehicle_type_id":"4","last_reported":1737752838,"current_range_meters":36400,"station_id":"ce4bh412rcd13ifvqds0","pricing_plan_id":"cebpf4jnsgd1na2vs0mg"},{"bike_id":"6e0e02f5-b0ae-450f-ad77-51511a2e44cf","system_id":"levelo_inurba_marseille","lat":43.309318,"lon":5.401468,"is_reserved":false,"is_disabled":true,"rental_uris":{"android":"levelo://app?vid=6e0e02f5-b0ae-450f-ad77-51511a2e44cf","ios":"levelo://app?vid=6e0e02f5-b0ae-450f-ad77-51511a2e44cf"},"vehicle_type_id":"4","last_reported":1737752838,"current_range_meters":23200,"station_id":"ce4bgvp2rcd13ifvqct0","pricing_plan_id":"cebpf4jnsgd1na2vs0mg"},{"bike_id":"5771c8fc-285d-426b-bcce-d89019c09c8d","system_id":"levelo_inurba_marseille","lat":43.29424,"lon":5.38598,"is_reserved":false,"is_disabled":false,"rental_uris":{"android":"levelo://app?vid=5771c8fc-285d-426b-bcce-d89019c09c8d","ios":"levelo://app?vid=5771c8fc-285d-426b-bcce-d89019c09c8d"},"vehicle_type_id":"4","last_reported":1737752838,"current_range_meters":28000,"station_id":"ce4bh2h2rcd13ifvqdh0","pricing_plan_id":"cebpf4jnsgd1na2vs0mg"},{"bike_id":"f3ff26d7-2966-4795-be68-859ee9ce58b0","system_id":"levelo_inurba_marseille","lat":43.29172,"lon":5.37164,"is_reserved":false,"is_disabled":false,"rental_uris":{"android":"levelo://app?vid=f3ff26d7-2966-4795-be68-859ee9ce58b0","ios":"levelo://app?vid=f3ff26d7-2966-4795-be68-859ee9ce58b0"},"vehicle_type_id":"4","last_reported":1737752838,"current_range_meters":34800,"station_id":"ce4bha92rcd13ifvqeh0","pricing_plan_id":"cebpf4jnsgd1na2vs0mg"},{"bike_id":"59484627-97e0-4b2b-b7b6-2023bd4dd456","system_id":"levelo_inurba_marseille","lat":43.2942,"lon":5.38646,"is_reserved":false,"is_disabled":false,"rental_uris":{"android":"levelo://app?vid=59484627-97e0-4b2b-b7b6-2023bd4dd456","ios":"levelo://app?vid=59484627-97e0-4b2b-b7b6-2023bd4dd456"},"vehicle_type_id":"4","last_reported":1737752838,"current_range_meters":38800,"station_id":"ce4bh2h2rcd13ifvqdh0","pricing_plan_id":"cebpf4jnsgd1na2vs0mg"},{"bike_id":"bcae636d-a5b3-49cc-8a86-fed5c1b2e89a","system_id":"levelo_inurba_marseille","lat":43.29265,"lon":5.38424,"is_reserved":false,"is_disabled":false,"rental_uris":{"android":"levelo://app?vid=bcae636d-a5b3-49cc-8a86-fed5c1b2e89a","ios":"levelo://app?vid=bcae636d-a5b3-49cc-8a86-fed5c1b2e89a"},"vehicle_type_id":"4","last_reported":1737752838,"current_range_meters":38400,"station_id":"ce4bh692rcd13ifvqea0","pricing_plan_id":"cebpf4jnsgd1na2vs0mg"},{"bike_id":"6df7f438-e9a2-4488-b4c5-ad9c2cc83bb9","system_id":"levelo_inurba_marseille","lat":43.26065,"lon":5.37568,"is_reserved":false,"is_disabled":false,"rental_uris":{"android":"levelo://app?vid=6df7f438-e9a2-4488-b4c5-ad9c2cc83bb9","ios":"levelo://app?vid=6df7f438-e9a2-4488-b4c5-ad9c2cc83bb9"},"vehicle_type_id":"4","last_reported":1737752838,"current_range_meters":38800,"station_id":"ce4bhgh2rcd13ifvqfa0","pricing_plan_id":"cebpf4jnsgd1na2vs0mg"},{"bike_id":"278fa707-88f8-42b0-a06f-9a61234b8e76","system_id":"levelo_inurba_marseille","lat":43.29215,"lon":5.38048,"is_reserved":false,"is_disabled":true,"rental_uris":{"android":"levelo://app?vid=278fa707-88f8-42b0-a06f-9a61234b8e76","ios":"levelo://app?vid=278fa707-88f8-42b0-a06f-9a61234b8e76"},"vehicle_type_id":"4","last_reported":1737752838,"current_range_meters":0,"station_id":"","pricing_plan_id":"cebpf4jnsgd1na2vs0mg"},{"bike_id":"5653eca4-b417-427a-a3ec-24a4ba552e07","system_id":"levelo_inurba_marseille","lat":43.29969,"lon":5.38477,"is_reserved":false,"is_disabled":true,"rental_uris":{"android":"levelo://app?vid=5653eca4-b417-427a-a3ec-24a4ba552e07","ios":"levelo://app?vid=5653eca4-b417-427a-a3ec-24a4ba552e07"},"vehicle_type_id":"4","last_reported":1737752838,"current_range_meters":36800,"station_id":"ce4bgj92rcd13ifvqbd0","pricing_plan_id":"cebpf4jnsgd1na2vs0mg"},{"bike_id":"5b941a64-05dc-430a-ab80-a5385d8fd9c6","system_id":"levelo_inurba_marseille","lat":43.3128,"lon":5.40168,"is_reserved":false,"is_disabled":false,"rental_uris":{"android":"levelo://app?vid=5b941a64-05dc-430a-ab80-a5385d8fd9c6","ios":"levelo://app?vid=5b941a64-05dc-430a-ab80-a5385d8fd9c6"},"vehicle_type_id":"4","last_reported":1737752838,"current_range_meters":15200,"station_id":"ce4bh092rcd13ifvqd30","pricing_plan_id":"cebpf4jnsgd1na2vs0mg"},{"bike_id":"a0d0c51c-c6b2-4319-a9ec-fc53968ce78a","system_id":"levelo_inurba_marseille","lat":43.29298,"lon":5.37458,"is_reserved":false,"is_disabled":false,"rental_uris":{"android":"levelo://app?vid=a0d0c51c-c6b2-4319-a9ec-fc53968ce78a","ios":"levelo://app?vid=a0d0c51c-c6b2-4319-a9ec-fc53968ce78a"},"vehicle_type_id":"4","last_reported":1737752838,"current_range_meters":30000,"station_id":"ce4bgi12rcd13ifvqb70","pricing_plan_id":"cebpf4jnsgd1na2vs0mg"},{"bike_id":"1ff17e01-52a9-4861-a050-e0606d7af8db","system_id":"levelo_inurba_marseille","lat":43.30212,"lon":5.39462,"is_reserved":false,"is_disabled":true,"rental_uris":{"android":"levelo://app?vid=1ff17e01-52a9-4861-a050-e0606d7af8db","ios":"levelo://app?vid=1ff17e01-52a9-4861-a050-e0606d7af8db"},"vehicle_type_id":"4","last_reported":1737752838,"current_range_meters":0,"station_id":"ce4bh0p2rcd13ifvqd70","pricing_plan_id":"cebpf4jnsgd1na2vs0mg"},{"bike_id":"408c7ae9-5733-463b-a6f8-60bc2913387a","system_id":"levelo_inurba_marseille","lat":43.29021,"lon":5.38611,"is_reserved":false,"is_disabled":false,"rental_uris":{"android":"levelo://app?vid=408c7ae9-5733-463b-a6f8-60bc2913387a","ios":"levelo://app?vid=408c7ae9-5733-463b-a6f8-60bc2913387a"},"vehicle_type_id":"4","last_reported":1737752838,"current_range_meters":13600,"station_id":"ce4bh4p2rcd13ifvqe0g","pricing_plan_id":"cebpf4jnsgd1na2vs0mg"},{"bike_id":"7ff41bb0-58bb-4e7a-856f-2a2aba66f15e","system_id":"levelo_inurba_marseille","lat":43.31723,"lon":5.43717,"is_reserved":false,"is_disabled":false,"rental_uris":{"android":"levelo://app?vid=7ff41bb0-58bb-4e7a-856f-2a2aba66f15e","ios":"levelo://app?vid=7ff41bb0-58bb-4e7a-856f-2a2aba66f15e"},"vehicle_type_id":"4","last_reported":1737752838,"current_range_meters":38800,"station_id":"ce4bhp92rcd13ifvqhcg","pricing_plan_id":"cebpf4jnsgd1na2vs0mg"},{"bike_id":"799818e8-263b-4acc-a4c0-b732b7fa92e7","system_id":"levelo_inurba_marseille","lat":43.32279,"lon":5.38245,"is_reserved":false,"is_disabled":false,"rental_uris":{"android":"levelo://app?vid=799818e8-263b-4acc-a4c0-b732b7fa92e7","ios":"levelo://app?vid=799818e8-263b-4acc-a4c0-b732b7fa92e7"},"vehicle_type_id":"4","last_reported":1737752838,"current_range_meters":39200,"station_id":"ce4bhr12rcd13ifvqhqg","pricing_plan_id":"cebpf4jnsgd1na2vs0mg"},{"bike_id":"718c5575-1431-471a-94cd-b3d581f50180","system_id":"levelo_inurba_marseille","lat":43.2943,"lon":5.38622,"is_reserved":false,"is_disabled":false,"rental_uris":{"android":"levelo://app?vid=718c5575-1431-471a-94cd-b3d581f50180","ios":"levelo://app?vid=718c5575-1431-471a-94cd-b3d581f50180"},"vehicle_type_id":"4","last_reported":1737752838,"current_range_meters":24800,"station_id":"ce4bh2h2rcd13ifvqdh0","pricing_plan_id":"cebpf4jnsgd1na2vs0mg"},{"bike_id":"5cbbbd51-ab4c-47f1-b336-717e196fe6a2","system_id":"levelo_inurba_marseille","lat":43.29262,"lon":5.40914,"is_reserved":false,"is_disabled":false,"rental_uris":{"android":"levelo://app?vid=5cbbbd51-ab4c-47f1-b336-717e196fe6a2","ios":"levelo://app?vid=5cbbbd51-ab4c-47f1-b336-717e196fe6a2"},"vehicle_type_id":"4","last_reported":1737752838,"current_range_meters":36800,"station_id":"ce4bh192rcd13ifvqdc0","pricing_plan_id":"cebpf4jnsgd1na2vs0mg"},{"bike_id":"279ff178-689e-45a0-a76a-a6380ff903e0","system_id":"levelo_inurba_marseille","lat":43.29195,"lon":5.39297,"is_reserved":false,"is_disabled":false,"rental_uris":{"android":"levelo://app?vid=279ff178-689e-45a0-a76a-a6380ff903e0","ios":"levelo://app?vid=279ff178-689e-45a0-a76a-a6380ff903e0"},"vehicle_type_id":"4","last_reported":1737752838,"current_range_meters":22400,"station_id":"ce4bh192rcd13ifvqdd0","pricing_plan_id":"cebpf4jnsgd1na2vs0mg"},{"bike_id":"f34d1f0d-1d63-4a60-b8c5-3acd4e09b798","system_id":"levelo_inurba_marseille","lat":43.27611,"lon":5.36125,"is_reserved":false,"is_disabled":false,"rental_uris":{"android":"levelo://app?vid=f34d1f0d-1d63-4a60-b8c5-3acd4e09b798","ios":"levelo://app?vid=f34d1f0d-1d63-4a60-b8c5-3acd4e09b798"},"vehicle_type_id":"4","last_reported":1737752838,"current_range_meters":11600,"station_id":"ce4bgj92rcd13ifvqbe0","pricing_plan_id":"cebpf4jnsgd1na2vs0mg"},{"bike_id":"ee1c892d-ad4b-4da5-9f77-9a3a3739e5b5","system_id":"levelo_inurba_marseille","lat":43.28612,"lon":5.35101,"is_reserved":false,"is_disabled":false,"rental_uris":{"android":"levelo://app?vid=ee1c892d-ad4b-4da5-9f77-9a3a3739e5b5","ios":"levelo://app?vid=ee1c892d-ad4b-4da5-9f77-9a3a3739e5b5"},"vehicle_type_id":"4","last_reported":1737752838,"current_range_meters":38400,"station_id":"ce4bhch2rcd13ifvqeug","pricing_plan_id":"cebpf4jnsgd1na2vs0mg"},{"bike_id":"e6b213b4-805d-4e7f-8a4e-139a0766bb8a","system_id":"levelo_inurba_marseille","lat":43.29263,"lon":5.38437,"is_reserved":false,"is_disabled":false,"rental_uris":{"android":"levelo://app?vid=e6b213b4-805d-4e7f-8a4e-139a0766bb8a","ios":"levelo://app?vid=e6b213b4-805d-4e7f-8a4e-139a0766bb8a"},"vehicle_type_id":"4","last_reported":1737752838,"current_range_meters":35600,"station_id":"ce4bh692rcd13ifvqea0","pricing_plan_id":"cebpf4jnsgd1na2vs0mg"},{"bike_id":"afa1791a-153b-461d-be69-7b28da55753e","system_id":"levelo_inurba_marseille","lat":43.29262,"lon":5.38434,"is_reserved":false,"is_disabled":false,"rental_uris":{"android":"levelo://app?vid=afa1791a-153b-461d-be69-7b28da55753e","ios":"levelo://app?vid=afa1791a-153b-461d-be69-7b28da55753e"},"vehicle_type_id":"4","last_reported":1737752838,"current_range_meters":34000,"station_id":"ce4bh692rcd13ifvqea0","pricing_plan_id":"cebpf4jnsgd1na2vs0mg"},{"bike_id":"5a48328b-50b3-460c-8c64-2722d8c28ce3","system_id":"levelo_inurba_marseille","lat":43.30551,"lon":5.36887,"is_reserved":false,"is_disabled":false,"rental_uris":{"android":"levelo://app?vid=5a48328b-50b3-460c-8c64-2722d8c28ce3","ios":"levelo://app?vid=5a48328b-50b3-460c-8c64-2722d8c28ce3"},"vehicle_type_id":"4","last_reported":1737752838,"current_range_meters":12800,"station_id":"","pricing_plan_id":"cebpf4jnsgd1na2vs0mg"},{"bike_id":"325970c9-b838-4b45-9a08-e9e543aeb61b","system_id":"levelo_inurba_marseille","lat":43.32089,"lon":5.36803,"is_reserved":false,"is_disabled":false,"rental_uris":{"android":"levelo://app?vid=325970c9-b838-4b45-9a08-e9e543aeb61b","ios":"levelo://app?vid=325970c9-b838-4b45-9a08-e9e543aeb61b"},"vehicle_type_id":"4","last_reported":1737752838,"current_range_meters":26800,"station_id":"ce4bhrh2rcd13ifvqhug","pricing_plan_id":"cebpf4jnsgd1na2vs0mg"},{"bike_id":"b6841820-cc3a-4ee7-b50e-20e4d0656681","system_id":"levelo_inurba_marseille","lat":43.29001,"lon":5.37837,"is_reserved":false,"is_disabled":false,"rental_uris":{"android":"levelo://app?vid=b6841820-cc3a-4ee7-b50e-20e4d0656681","ios":"levelo://app?vid=b6841820-cc3a-4ee7-b50e-20e4d0656681"},"vehicle_type_id":"4","last_reported":1737752838,"current_range_meters":34000,"station_id":"ce4bh9p2rcd13ifvqed0","pricing_plan_id":"cebpf4jnsgd1na2vs0mg"},{"bike_id":"767ff992-8d59-4bfd-9992-d22c3517f31f","system_id":"levelo_inurba_marseille","lat":43.29271,"lon":5.38448,"is_reserved":false,"is_disabled":false,"rental_uris":{"android":"levelo://app?vid=767ff992-8d59-4bfd-9992-d22c3517f31f","ios":"levelo://app?vid=767ff992-8d59-4bfd-9992-d22c3517f31f"},"vehicle_type_id":"4","last_reported":1737752838,"current_range_meters":8000,"station_id":"ce4bh692rcd13ifvqea0","pricing_plan_id":"cebpf4jnsgd1na2vs0mg"},{"bike_id":"87c31259-8f17-417f-8e35-a5f10284e74a","system_id":"levelo_inurba_marseille","lat":43.29975,"lon":5.38497,"is_reserved":false,"is_disabled":false,"rental_uris":{"android":"levelo://app?vid=87c31259-8f17-417f-8e35-a5f10284e74a","ios":"levelo://app?vid=87c31259-8f17-417f-8e35-a5f10284e74a"},"vehicle_type_id":"4","last_reported":1737752838,"current_range_meters":27600,"station_id":"ce4bgj92rcd13ifvqbd0","pricing_plan_id":"cebpf4jnsgd1na2vs0mg"},{"bike_id":"3608a3cf-49c3-46d4-b709-f8e9629a9213","system_id":"levelo_inurba_marseille","lat":43.24647,"lon":5.38897,"is_reserved":false,"is_disabled":false,"rental_uris":{"android":"levelo://app?vid=3608a3cf-49c3-46d4-b709-f8e9629a9213","ios":"levelo://app?vid=3608a3cf-49c3-46d4-b709-f8e9629a9213"},"vehicle_type_id":"4","last_reported":1737752838,"current_range_meters":7200,"station_id":"ce4bhg12rcd13ifvqf60","pricing_plan_id":"cebpf4jnsgd1na2vs0mg"},{"bike_id":"211abf38-9d59-46f9-8a15-4ad145d0cf5e","system_id":"levelo_inurba_marseille","lat":43.29249,"lon":5.38447,"is_reserved":false,"is_disabled":false,"rental_uris":{"android":"levelo://app?vid=211abf38-9d59-46f9-8a15-4ad145d0cf5e","ios":"levelo://app?vid=211abf38-9d59-46f9-8a15-4ad145d0cf5e"},"vehicle_type_id":"4","last_reported":1737752838,"current_range_meters":25200,"station_id":"ce4bh692rcd13ifvqea0","pricing_plan_id":"cebpf4jnsgd1na2vs0mg"},{"bike_id":"e91204e9-d4fe-4e30-81a6-71464f86006e","system_id":"levelo_inurba_marseille","lat":43.29914,"lon":5.38121,"is_reserved":false,"is_disabled":true,"rental_uris":{"android":"levelo://app?vid=e91204e9-d4fe-4e30-81a6-71464f86006e","ios":"levelo://app?vid=e91204e9-d4fe-4e30-81a6-71464f86006e"},"vehicle_type_id":"4","last_reported":1737752838,"current_range_meters":38000,"station_id":"ce4bgj12rcd13ifvqbc0","pricing_plan_id":"cebpf4jnsgd1na2vs0mg"},{"bike_id":"4c2396d9-9a82-4cef-afda-d7e523c85e88","system_id":"levelo_inurba_marseille","lat":43.29803,"lon":5.39324,"is_reserved":false,"is_disabled":false,"rental_uris":{"android":"levelo://app?vid=4c2396d9-9a82-4cef-afda-d7e523c85e88","ios":"levelo://app?vid=4c2396d9-9a82-4cef-afda-d7e523c85e88"},"vehicle_type_id":"4","last_reported":1737752838,"current_range_meters":38000,"station_id":"chh1huq6cuj3fo74tm60","pricing_plan_id":"cebpf4jnsgd1na2vs0mg"},{"bike_id":"18d70cb6-22f2-4bb5-8b28-57d26df91344","system_id":"levelo_inurba_marseille","lat":43.27446,"lon":5.39407,"is_reserved":false,"is_disabled":false,"rental_uris":{"android":"levelo://app?vid=18d70cb6-22f2-4bb5-8b28-57d26df91344","ios":"levelo://app?vid=18d70cb6-22f2-4bb5-8b28-57d26df91344"},"vehicle_type_id":"4","last_reported":1737752838,"current_range_meters":39200,"station_id":"ce4bhdp2rcd13ifvqf20","pricing_plan_id":"cebpf4jnsgd1na2vs0mg"},{"bike_id":"2ddc1cd4-b7b5-4df3-ad43-2d5df2838a02","system_id":"levelo_inurba_marseille","lat":43.29536,"lon":5.38505,"is_reserved":false,"is_disabled":false,"rental_uris":{"android":"levelo://app?vid=2ddc1cd4-b7b5-4df3-ad43-2d5df2838a02","ios":"levelo://app?vid=2ddc1cd4-b7b5-4df3-ad43-2d5df2838a02"},"vehicle_type_id":"4","last_reported":1737752838,"current_range_meters":9200,"station_id":"ce4bgih2rcd13ifvqba0","pricing_plan_id":"cebpf4jnsgd1na2vs0mg"},{"bike_id":"6d1c7757-cbfa-452f-8195-daacd34f212b","system_id":"levelo_inurba_marseille","lat":43.23078,"lon":5.35487,"is_reserved":false,"is_disabled":false,"rental_uris":{"android":"levelo://app?vid=6d1c7757-cbfa-452f-8195-daacd34f212b","ios":"levelo://app?vid=6d1c7757-cbfa-452f-8195-daacd34f212b"},"vehicle_type_id":"4","last_reported":1737752838,"current_range_meters":38800,"station_id":"cpo3342slgdg3j2ifvpg","pricing_plan_id":"cebpf4jnsgd1na2vs0mg"},{"bike_id":"db1620fc-2e5a-411f-b7de-f4bb2f0c5bc9","system_id":"levelo_inurba_marseille","lat":43.29968,"lon":5.38494,"is_reserved":false,"is_disabled":false,"rental_uris":{"android":"levelo://app?vid=db1620fc-2e5a-411f-b7de-f4bb2f0c5bc9","ios":"levelo://app?vid=db1620fc-2e5a-411f-b7de-f4bb2f0c5bc9"},"vehicle_type_id":"4","last_reported":1737752838,"current_range_meters":10800,"station_id":"ce4bgj92rcd13ifvqbd0","pricing_plan_id":"cebpf4jnsgd1na2vs0mg"},{"bike_id":"34aa6db6-d08c-4f6b-ad5e-1bad446eaa72","system_id":"levelo_inurba_marseille","lat":43.231907,"lon":5.399869,"is_reserved":false,"is_disabled":false,"rental_uris":{"android":"levelo://app?vid=34aa6db6-d08c-4f6b-ad5e-1bad446eaa72","ios":"levelo://app?vid=34aa6db6-d08c-4f6b-ad5e-1bad446eaa72"},"vehicle_type_id":"4","last_reported":1737752838,"current_range_meters":38800,"station_id":"ce4bhn12rcd13ifvqgqg","pricing_plan_id":"cebpf4jnsgd1na2vs0mg"},{"bike_id":"d27af663-703d-4922-958b-bac89c3caf3d","system_id":"levelo_inurba_marseille","lat":43.29205,"lon":5.39325,"is_reserved":false,"is_disabled":false,"rental_uris":{"android":"levelo://app?vid=d27af663-703d-4922-958b-bac89c3caf3d","ios":"levelo://app?vid=d27af663-703d-4922-958b-bac89c3caf3d"},"vehicle_type_id":"4","last_reported":1737752838,"current_range_meters":10800,"station_id":"ce4bh192rcd13ifvqdd0","pricing_plan_id":"cebpf4jnsgd1na2vs0mg"},{"bike_id":"a2dbdc7e-8ab2-4f75-8035-18bef5b78a3b","system_id":"levelo_inurba_marseille","lat":43.25859,"lon":5.399,"is_reserved":false,"is_disabled":false,"rental_uris":{"android":"levelo://app?vid=a2dbdc7e-8ab2-4f75-8035-18bef5b78a3b","ios":"levelo://app?vid=a2dbdc7e-8ab2-4f75-8035-18bef5b78a3b"},"vehicle_type_id":"4","last_reported":1737752838,"current_range_meters":38800,"station_id":"ce4bhl92rcd13ifvqghg","pricing_plan_id":"cebpf4jnsgd1na2vs0mg"},{"bike_id":"f253fc82-7ca1-4c38-a41a-566478bb536e","system_id":"levelo_inurba_marseille","lat":43.28033,"lon":5.36941,"is_reserved":false,"is_disabled":false,"rental_uris":{"android":"levelo://app?vid=f253fc82-7ca1-4c38-a41a-566478bb536e","ios":"levelo://app?vid=f253fc82-7ca1-4c38-a41a-566478bb536e"},"vehicle_type_id":"4","last_reported":1737752838,"current_range_meters":39200,"station_id":"ce4bha12rcd13ifvqef0","pricing_plan_id":"cebpf4jnsgd1na2vs0mg"},{"bike_id":"c287a3ed-5ab1-4fe0-a917-cf5ecb40f512","system_id":"levelo_inurba_marseille","lat":43.29266,"lon":5.38431,"is_reserved":false,"is_disabled":true,"rental_uris":{"android":"levelo://app?vid=c287a3ed-5ab1-4fe0-a917-cf5ecb40f512","ios":"levelo://app?vid=c287a3ed-5ab1-4fe0-a917-cf5ecb40f512"},"vehicle_type_id":"4","last_reported":1737752838,"current_range_meters":20400,"station_id":"ce4bh692rcd13ifvqea0","pricing_plan_id":"cebpf4jnsgd1na2vs0mg"},{"bike_id":"9838cc78-2b53-49d3-ae13-82df62c4fd64","system_id":"levelo_inurba_marseille","lat":43.28429,"lon":5.40933,"is_reserved":false,"is_disabled":true,"rental_uris":{"android":"levelo://app?vid=9838cc78-2b53-49d3-ae13-82df62c4fd64","ios":"levelo://app?vid=9838cc78-2b53-49d3-ae13-82df62c4fd64"},"vehicle_type_id":"4","last_reported":1737752838,"current_range_meters":0,"station_id":"","pricing_plan_id":"cebpf4jnsgd1na2vs0mg"},{"bike_id":"54350f8f-9722-46a6-b192-1b95b7cc4156","system_id":"levelo_inurba_marseille","lat":43.28685,"lon":5.38666,"is_reserved":false,"is_disabled":false,"rental_uris":{"android":"levelo://app?vid=54350f8f-9722-46a6-b192-1b95b7cc4156","ios":"levelo://app?vid=54350f8f-9722-46a6-b192-1b95b7cc4156"},"vehicle_type_id":"4","last_reported":1737752838,"current_range_meters":35600,"station_id":"ce4bh492rcd13ifvqdug","pricing_plan_id":"cebpf4jnsgd1na2vs0mg"},{"bike_id":"340b47d1-2cc7-4677-b709-9209d740a993","system_id":"levelo_inurba_marseille","lat":43.29028,"lon":5.38653,"is_reserved":false,"is_disabled":false,"rental_uris":{"android":"levelo://app?vid=340b47d1-2cc7-4677-b709-9209d740a993","ios":"levelo://app?vid=340b47d1-2cc7-4677-b709-9209d740a993"},"vehicle_type_id":"4","last_reported":1737752838,"current_range_meters":22800,"station_id":"ce4bh4p2rcd13ifvqe0g","pricing_plan_id":"cebpf4jnsgd1na2vs0mg"},{"bike_id":"d6db8360-7a7b-4a5e-8c3e-ee74b2a817ee","system_id":"levelo_inurba_marseille","lat":43.31676,"lon":5.37914,"is_reserved":false,"is_disabled":false,"rental_uris":{"android":"levelo://app?vid=d6db8360-7a7b-4a5e-8c3e-ee74b2a817ee","ios":"levelo://app?vid=d6db8360-7a7b-4a5e-8c3e-ee74b2a817ee"},"vehicle_type_id":"4","last_reported":1737752838,"current_range_meters":31200,"station_id":"ce4bgth2rcd13ifvqch0","pricing_plan_id":"cebpf4jnsgd1na2vs0mg"},{"bike_id":"eb61aa18-4768-45e6-b664-56d007c664e3","system_id":"levelo_inurba_marseille","lat":43.32112,"lon":5.36763,"is_reserved":false,"is_disabled":false,"rental_uris":{"android":"levelo://app?vid=eb61aa18-4768-45e6-b664-56d007c664e3","ios":"levelo://app?vid=eb61aa18-4768-45e6-b664-56d007c664e3"},"vehicle_type_id":"4","last_reported":1737752838,"current_range_meters":10800,"station_id":"ce4bhrh2rcd13ifvqhug","pricing_plan_id":"cebpf4jnsgd1na2vs0mg"},{"bike_id":"bf096a89-ee72-4f37-85bd-7b3cf9f0cb41","system_id":"levelo_inurba_marseille","lat":43.31922,"lon":5.37899,"is_reserved":false,"is_disabled":false,"rental_uris":{"android":"levelo://app?vid=bf096a89-ee72-4f37-85bd-7b3cf9f0cb41","ios":"levelo://app?vid=bf096a89-ee72-4f37-85bd-7b3cf9f0cb41"},"vehicle_type_id":"4","last_reported":1737752838,"current_range_meters":34000,"station_id":"","pricing_plan_id":"cebpf4jnsgd1na2vs0mg"},{"bike_id":"772abf9e-1f57-4ab2-95f9-bc070d170237","system_id":"levelo_inurba_marseille","lat":43.29275,"lon":5.38449,"is_reserved":false,"is_disabled":false,"rental_uris":{"android":"levelo://app?vid=772abf9e-1f57-4ab2-95f9-bc070d170237","ios":"levelo://app?vid=772abf9e-1f57-4ab2-95f9-bc070d170237"},"vehicle_type_id":"4","last_reported":1737752838,"current_range_meters":20800,"station_id":"ce4bh692rcd13ifvqea0","pricing_plan_id":"cebpf4jnsgd1na2vs0mg"},{"bike_id":"b1a31b37-3c6a-43de-ac18-6b6b299e2d44","system_id":"levelo_inurba_marseille","lat":43.25506,"lon":5.37623,"is_reserved":false,"is_disabled":false,"rental_uris":{"android":"levelo://app?vid=b1a31b37-3c6a-43de-ac18-6b6b299e2d44","ios":"levelo://app?vid=b1a31b37-3c6a-43de-ac18-6b6b299e2d44"},"vehicle_type_id":"4","last_reported":1737752838,"current_range_meters":36000,"station_id":"ce4bhh12rcd13ifvqff0","pricing_plan_id":"cebpf4jnsgd1na2vs0mg"},{"bike_id":"a92fa0eb-942e-4e5f-b30c-cb5ee305b076","system_id":"levelo_inurba_marseille","lat":43.2926,"lon":5.38441,"is_reserved":false,"is_disabled":false,"rental_uris":{"android":"levelo://app?vid=a92fa0eb-942e-4e5f-b30c-cb5ee305b076","ios":"levelo://app?vid=a92fa0eb-942e-4e5f-b30c-cb5ee305b076"},"vehicle_type_id":"4","last_reported":1737752838,"current_range_meters":32800,"station_id":"ce4bh692rcd13ifvqea0","pricing_plan_id":"cebpf4jnsgd1na2vs0mg"},{"bike_id":"28147011-c67e-40a5-ada1-04f84de86554","system_id":"levelo_inurba_marseille","lat":43.31355,"lon":5.385,"is_reserved":false,"is_disabled":false,"rental_uris":{"android":"levelo://app?vid=28147011-c67e-40a5-ada1-04f84de86554","ios":"levelo://app?vid=28147011-c67e-40a5-ada1-04f84de86554"},"vehicle_type_id":"4","last_reported":1737752838,"current_range_meters":38800,"station_id":"ce4bgt92rcd13ifvqcf0","pricing_plan_id":"cebpf4jnsgd1na2vs0mg"},{"bike_id":"1caf7243-b0f0-4484-919a-c8dcf048623a","system_id":"levelo_inurba_marseille","lat":43.232,"lon":5.39974,"is_reserved":false,"is_disabled":false,"rental_uris":{"android":"levelo://app?vid=1caf7243-b0f0-4484-919a-c8dcf048623a","ios":"levelo://app?vid=1caf7243-b0f0-4484-919a-c8dcf048623a"},"vehicle_type_id":"4","last_reported":1737752838,"current_range_meters":12800,"station_id":"ce4bhn12rcd13ifvqgqg","pricing_plan_id":"cebpf4jnsgd1na2vs0mg"},{"bike_id":"8fd07e85-a454-4c1f-a811-21f58b09ae7d","system_id":"levelo_inurba_marseille","lat":43.28329,"lon":5.38101,"is_reserved":false,"is_disabled":false,"rental_uris":{"android":"levelo://app?vid=8fd07e85-a454-4c1f-a811-21f58b09ae7d","ios":"levelo://app?vid=8fd07e85-a454-4c1f-a811-21f58b09ae7d"},"vehicle_type_id":"4","last_reported":1737752838,"current_range_meters":38400,"station_id":"ce4bh412rcd13ifvqdr0","pricing_plan_id":"cebpf4jnsgd1na2vs0mg"},{"bike_id":"bd695487-0cf2-4eef-a51b-fe93246efbd0","system_id":"levelo_inurba_marseille","lat":43.265,"lon":5.39551,"is_reserved":false,"is_disabled":false,"rental_uris":{"android":"levelo://app?vid=bd695487-0cf2-4eef-a51b-fe93246efbd0","ios":"levelo://app?vid=bd695487-0cf2-4eef-a51b-fe93246efbd0"},"vehicle_type_id":"4","last_reported":1737752838,"current_range_meters":30800,"station_id":"ce4bhi12rcd13ifvqfq0","pricing_plan_id":"cebpf4jnsgd1na2vs0mg"},{"bike_id":"d97b035b-cd76-4be6-9920-ca5e793c898b","system_id":"levelo_inurba_marseille","lat":43.25859,"lon":5.39921,"is_reserved":false,"is_disabled":false,"rental_uris":{"android":"levelo://app?vid=d97b035b-cd76-4be6-9920-ca5e793c898b","ios":"levelo://app?vid=d97b035b-cd76-4be6-9920-ca5e793c898b"},"vehicle_type_id":"4","last_reported":1737752838,"current_range_meters":22800,"station_id":"ce4bhl92rcd13ifvqghg","pricing_plan_id":"cebpf4jnsgd1na2vs0mg"},{"bike_id":"e6fed224-e420-4150-9f76-4b1a14407d3e","system_id":"levelo_inurba_marseille","lat":43.2417,"lon":5.36407,"is_reserved":false,"is_disabled":false,"rental_uris":{"android":"levelo://app?vid=e6fed224-e420-4150-9f76-4b1a14407d3e","ios":"levelo://app?vid=e6fed224-e420-4150-9f76-4b1a14407d3e"},"vehicle_type_id":"4","last_reported":1737752838,"current_range_meters":38800,"station_id":"cpo36qri1sfpv3e86is0","pricing_plan_id":"cebpf4jnsgd1na2vs0mg"},{"bike_id":"c276da85-c857-4b0d-8792-c2826228a14c","system_id":"levelo_inurba_marseille","lat":43.23957,"lon":5.36638,"is_reserved":false,"is_disabled":false,"rental_uris":{"android":"levelo://app?vid=c276da85-c857-4b0d-8792-c2826228a14c","ios":"levelo://app?vid=c276da85-c857-4b0d-8792-c2826228a14c"},"vehicle_type_id":"4","last_reported":1737752838,"current_range_meters":28400,"station_id":"ce4bhi12rcd13ifvqfp0","pricing_plan_id":"cebpf4jnsgd1na2vs0mg"},{"bike_id":"2068ce80-1659-42b4-945e-19e0e5710b37","system_id":"levelo_inurba_marseille","lat":43.29676,"lon":5.36612,"is_reserved":false,"is_disabled":true,"rental_uris":{"android":"levelo://app?vid=2068ce80-1659-42b4-945e-19e0e5710b37","ios":"levelo://app?vid=2068ce80-1659-42b4-945e-19e0e5710b37"},"vehicle_type_id":"4","last_reported":1737752838,"current_range_meters":36800,"station_id":"ce4bgn12rcd13ifvqbt0","pricing_plan_id":"cebpf4jnsgd1na2vs0mg"},{"bike_id":"867d41e1-ec2e-4484-a31e-d471983f0ab7","system_id":"levelo_inurba_marseille","lat":43.33385,"lon":5.40034,"is_reserved":false,"is_disabled":false,"rental_uris":{"android":"levelo://app?vid=867d41e1-ec2e-4484-a31e-d471983f0ab7","ios":"levelo://app?vid=867d41e1-ec2e-4484-a31e-d471983f0ab7"},"vehicle_type_id":"4","last_reported":1737752838,"current_range_meters":17200,"station_id":"","pricing_plan_id":"cebpf4jnsgd1na2vs0mg"},{"bike_id":"2e604c67-a717-4e3f-8c0a-875b3f56243b","system_id":"levelo_inurba_marseille","lat":43.29418,"lon":5.3863,"is_reserved":false,"is_disabled":false,"rental_uris":{"android":"levelo://app?vid=2e604c67-a717-4e3f-8c0a-875b3f56243b","ios":"levelo://app?vid=2e604c67-a717-4e3f-8c0a-875b3f56243b"},"vehicle_type_id":"4","last_reported":1737752838,"current_range_meters":23200,"station_id":"ce4bh2h2rcd13ifvqdh0","pricing_plan_id":"cebpf4jnsgd1na2vs0mg"},{"bike_id":"76e4403d-8be3-4595-b8ae-95853c33e97a","system_id":"levelo_inurba_marseille","lat":43.30196,"lon":5.36617,"is_reserved":false,"is_disabled":false,"rental_uris":{"android":"levelo://app?vid=76e4403d-8be3-4595-b8ae-95853c33e97a","ios":"levelo://app?vid=76e4403d-8be3-4595-b8ae-95853c33e97a"},"vehicle_type_id":"4","last_reported":1737752838,"current_range_meters":32000,"station_id":"ce4bgrh2rcd13ifvqc8g","pricing_plan_id":"cebpf4jnsgd1na2vs0mg"},{"bike_id":"96150ead-5a0f-4aab-a150-26f0c34bd23b","system_id":"levelo_inurba_marseille","lat":43.31357,"lon":5.38492,"is_reserved":false,"is_disabled":false,"rental_uris":{"android":"levelo://app?vid=96150ead-5a0f-4aab-a150-26f0c34bd23b","ios":"levelo://app?vid=96150ead-5a0f-4aab-a150-26f0c34bd23b"},"vehicle_type_id":"4","last_reported":1737752838,"current_range_meters":30800,"station_id":"ce4bgt92rcd13ifvqcf0","pricing_plan_id":"cebpf4jnsgd1na2vs0mg"},{"bike_id":"5f051731-48c9-4289-a0fa-e19a22e6eee4","system_id":"levelo_inurba_marseille","lat":43.29246,"lon":5.38446,"is_reserved":false,"is_disabled":false,"rental_uris":{"android":"levelo://app?vid=5f051731-48c9-4289-a0fa-e19a22e6eee4","ios":"levelo://app?vid=5f051731-48c9-4289-a0fa-e19a22e6eee4"},"vehicle_type_id":"4","last_reported":1737752838,"current_range_meters":39200,"station_id":"ce4bh692rcd13ifvqea0","pricing_plan_id":"cebpf4jnsgd1na2vs0mg"},{"bike_id":"358abbba-bcda-4dcf-ac9a-0dd24d997ac8","system_id":"levelo_inurba_marseille","lat":43.29438,"lon":5.39751,"is_reserved":false,"is_disabled":false,"rental_uris":{"android":"levelo://app?vid=358abbba-bcda-4dcf-ac9a-0dd24d997ac8","ios":"levelo://app?vid=358abbba-bcda-4dcf-ac9a-0dd24d997ac8"},"vehicle_type_id":"4","last_reported":1737752838,"current_range_meters":38800,"station_id":"ce4bh3h2rcd13ifvqdo0","pricing_plan_id":"cebpf4jnsgd1na2vs0mg"},{"bike_id":"66d1346f-013f-4af1-a701-1a936ff46a00","system_id":"levelo_inurba_marseille","lat":43.31708,"lon":5.37736,"is_reserved":false,"is_disabled":false,"rental_uris":{"android":"levelo://app?vid=66d1346f-013f-4af1-a701-1a936ff46a00","ios":"levelo://app?vid=66d1346f-013f-4af1-a701-1a936ff46a00"},"vehicle_type_id":"4","last_reported":1737752838,"current_range_meters":17200,"station_id":"ce4bgth2rcd13ifvqch0","pricing_plan_id":"cebpf4jnsgd1na2vs0mg"},{"bike_id":"93f4f4e4-86dd-44c9-bedb-dcbdace9162d","system_id":"levelo_inurba_marseille","lat":43.23177,"lon":5.39952,"is_reserved":false,"is_disabled":false,"rental_uris":{"android":"levelo://app?vid=93f4f4e4-86dd-44c9-bedb-dcbdace9162d","ios":"levelo://app?vid=93f4f4e4-86dd-44c9-bedb-dcbdace9162d"},"vehicle_type_id":"4","last_reported":1737752838,"current_range_meters":39200,"station_id":"ce4bhn12rcd13ifvqgqg","pricing_plan_id":"cebpf4jnsgd1na2vs0mg"},{"bike_id":"347dd29e-9a9e-4a37-8ddd-6e2050aaff03","system_id":"levelo_inurba_marseille","lat":43.337345,"lon":5.391941,"is_reserved":false,"is_disabled":false,"rental_uris":{"android":"levelo://app?vid=347dd29e-9a9e-4a37-8ddd-6e2050aaff03","ios":"levelo://app?vid=347dd29e-9a9e-4a37-8ddd-6e2050aaff03"},"vehicle_type_id":"4","last_reported":1737752838,"current_range_meters":37600,"station_id":"ce4bhr92rcd13ifvqhsg","pricing_plan_id":"cebpf4jnsgd1na2vs0mg"},{"bike_id":"badee5fd-b7b4-423c-a117-af12b0d774ca","system_id":"levelo_inurba_marseille","lat":43.317265,"lon":5.423988,"is_reserved":false,"is_disabled":false,"rental_uris":{"android":"levelo://app?vid=badee5fd-b7b4-423c-a117-af12b0d774ca","ios":"levelo://app?vid=badee5fd-b7b4-423c-a117-af12b0d774ca"},"vehicle_type_id":"4","last_reported":1737752838,"current_range_meters":37600,"station_id":"ce4bhp92rcd13ifvqhbg","pricing_plan_id":"cebpf4jnsgd1na2vs0mg"},{"bike_id":"24027fdc-80c9-43a3-bd13-a236bdf780d3","system_id":"levelo_inurba_marseille","lat":43.29873,"lon":5.3973,"is_reserved":false,"is_disabled":false,"rental_uris":{"android":"levelo://app?vid=24027fdc-80c9-43a3-bd13-a236bdf780d3","ios":"levelo://app?vid=24027fdc-80c9-43a3-bd13-a236bdf780d3"},"vehicle_type_id":"4","last_reported":1737752838,"current_range_meters":4800,"station_id":"ce4bh0h2rcd13ifvqd50","pricing_plan_id":"cebpf4jnsgd1na2vs0mg"},{"bike_id":"689b4df9-0021-47af-92a3-26488e05e7a0","system_id":"levelo_inurba_marseille","lat":43.29185,"lon":5.35797,"is_reserved":false,"is_disabled":false,"rental_uris":{"android":"levelo://app?vid=689b4df9-0021-47af-92a3-26488e05e7a0","ios":"levelo://app?vid=689b4df9-0021-47af-92a3-26488e05e7a0"},"vehicle_type_id":"4","last_reported":1737752838,"current_range_meters":27600,"station_id":"ce4bhb12rcd13ifvqel0","pricing_plan_id":"cebpf4jnsgd1na2vs0mg"},{"bike_id":"078fec27-0171-4e07-8b6d-d1216ddff393","system_id":"levelo_inurba_marseille","lat":43.25494,"lon":5.37644,"is_reserved":false,"is_disabled":false,"rental_uris":{"android":"levelo://app?vid=078fec27-0171-4e07-8b6d-d1216ddff393","ios":"levelo://app?vid=078fec27-0171-4e07-8b6d-d1216ddff393"},"vehicle_type_id":"4","last_reported":1737752838,"current_range_meters":30800,"station_id":"ce4bhh12rcd13ifvqff0","pricing_plan_id":"cebpf4jnsgd1na2vs0mg"},{"bike_id":"1baba2d3-7dc4-463c-9870-f03fd7c13431","system_id":"levelo_inurba_marseille","lat":43.30154,"lon":5.38072,"is_reserved":false,"is_disabled":false,"rental_uris":{"android":"levelo://app?vid=1baba2d3-7dc4-463c-9870-f03fd7c13431","ios":"levelo://app?vid=1baba2d3-7dc4-463c-9870-f03fd7c13431"},"vehicle_type_id":"4","last_reported":1737752838,"current_range_meters":35600,"station_id":"ce4bgjp2rcd13ifvqbh0","pricing_plan_id":"cebpf4jnsgd1na2vs0mg"},{"bike_id":"90b8a1b1-ad54-458d-9362-f5197bbdf048","system_id":"levelo_inurba_marseille","lat":43.22932,"lon":5.35409,"is_reserved":false,"is_disabled":false,"rental_uris":{"android":"levelo://app?vid=90b8a1b1-ad54-458d-9362-f5197bbdf048","ios":"levelo://app?vid=90b8a1b1-ad54-458d-9362-f5197bbdf048"},"vehicle_type_id":"4","last_reported":1737752838,"current_range_meters":38000,"station_id":"cpo3532slgdg3j2ikp40","pricing_plan_id":"cebpf4jnsgd1na2vs0mg"},{"bike_id":"7da50f07-38d9-468b-8e2c-04df74955810","system_id":"levelo_inurba_marseille","lat":43.29557,"lon":5.42294,"is_reserved":false,"is_disabled":false,"rental_uris":{"android":"levelo://app?vid=7da50f07-38d9-468b-8e2c-04df74955810","ios":"levelo://app?vid=7da50f07-38d9-468b-8e2c-04df74955810"},"vehicle_type_id":"4","last_reported":1737752838,"current_range_meters":27200,"station_id":"ce4bhph2rcd13ifvqhdg","pricing_plan_id":"cebpf4jnsgd1na2vs0mg"},{"bike_id":"8c0db246-d933-44a9-99dc-c3e44e3c75e7","system_id":"levelo_inurba_marseille","lat":43.30271,"lon":5.37712,"is_reserved":false,"is_disabled":false,"rental_uris":{"android":"levelo://app?vid=8c0db246-d933-44a9-99dc-c3e44e3c75e7","ios":"levelo://app?vid=8c0db246-d933-44a9-99dc-c3e44e3c75e7"},"vehicle_type_id":"4","last_reported":1737752838,"current_range_meters":25600,"station_id":"ce4bguh2rcd13ifvqcj0","pricing_plan_id":"cebpf4jnsgd1na2vs0mg"},{"bike_id":"7e23d8f0-5e9e-43fa-b638-7cccf897d1e9","system_id":"levelo_inurba_marseille","lat":43.29555,"lon":5.38545,"is_reserved":false,"is_disabled":false,"rental_uris":{"android":"levelo://app?vid=7e23d8f0-5e9e-43fa-b638-7cccf897d1e9","ios":"levelo://app?vid=7e23d8f0-5e9e-43fa-b638-7cccf897d1e9"},"vehicle_type_id":"4","last_reported":1737752838,"current_range_meters":19600,"station_id":"ce4bgih2rcd13ifvqba0","pricing_plan_id":"cebpf4jnsgd1na2vs0mg"},{"bike_id":"bef091bc-c840-4b5c-961e-ff57e09f164e","system_id":"levelo_inurba_marseille","lat":43.30322,"lon":5.40435,"is_reserved":false,"is_disabled":false,"rental_uris":{"android":"levelo://app?vid=bef091bc-c840-4b5c-961e-ff57e09f164e","ios":"levelo://app?vid=bef091bc-c840-4b5c-961e-ff57e09f164e"},"vehicle_type_id":"4","last_reported":1737752838,"current_range_meters":7200,"station_id":"ce4bh012rcd13ifvqd10","pricing_plan_id":"cebpf4jnsgd1na2vs0mg"},{"bike_id":"17e306a9-20ff-47dc-8c6c-1b0f1e0bda0e","system_id":"levelo_inurba_marseille","lat":43.29268,"lon":5.38429,"is_reserved":false,"is_disabled":false,"rental_uris":{"android":"levelo://app?vid=17e306a9-20ff-47dc-8c6c-1b0f1e0bda0e","ios":"levelo://app?vid=17e306a9-20ff-47dc-8c6c-1b0f1e0bda0e"},"vehicle_type_id":"4","last_reported":1737752838,"current_range_meters":39200,"station_id":"ce4bh692rcd13ifvqea0","pricing_plan_id":"cebpf4jnsgd1na2vs0mg"},{"bike_id":"5decaeb2-fcdb-4626-ab0a-96b36ae1ebbf","system_id":"levelo_inurba_marseille","lat":43.23962,"lon":5.36633,"is_reserved":false,"is_disabled":false,"rental_uris":{"android":"levelo://app?vid=5decaeb2-fcdb-4626-ab0a-96b36ae1ebbf","ios":"levelo://app?vid=5decaeb2-fcdb-4626-ab0a-96b36ae1ebbf"},"vehicle_type_id":"4","last_reported":1737752838,"current_range_meters":8000,"station_id":"ce4bhi12rcd13ifvqfp0","pricing_plan_id":"cebpf4jnsgd1na2vs0mg"},{"bike_id":"33ec549d-ccc0-4a6e-8634-adb1b6cfa83e","system_id":"levelo_inurba_marseille","lat":43.29433,"lon":5.38625,"is_reserved":false,"is_disabled":false,"rental_uris":{"android":"levelo://app?vid=33ec549d-ccc0-4a6e-8634-adb1b6cfa83e","ios":"levelo://app?vid=33ec549d-ccc0-4a6e-8634-adb1b6cfa83e"},"vehicle_type_id":"4","last_reported":1737752838,"current_range_meters":26800,"station_id":"ce4bh2h2rcd13ifvqdh0","pricing_plan_id":"cebpf4jnsgd1na2vs0mg"},{"bike_id":"2379a823-fdeb-40da-be6e-d8af4799bc36","system_id":"levelo_inurba_marseille","lat":43.303225,"lon":5.404414,"is_reserved":false,"is_disabled":false,"rental_uris":{"android":"levelo://app?vid=2379a823-fdeb-40da-be6e-d8af4799bc36","ios":"levelo://app?vid=2379a823-fdeb-40da-be6e-d8af4799bc36"},"vehicle_type_id":"4","last_reported":1737752838,"current_range_meters":38000,"station_id":"ce4bh012rcd13ifvqd10","pricing_plan_id":"cebpf4jnsgd1na2vs0mg"},{"bike_id":"cd2a4c81-944c-45cd-ad92-4381608c75f0","system_id":"levelo_inurba_marseille","lat":43.23189,"lon":5.35561,"is_reserved":false,"is_disabled":false,"rental_uris":{"android":"levelo://app?vid=cd2a4c81-944c-45cd-ad92-4381608c75f0","ios":"levelo://app?vid=cd2a4c81-944c-45cd-ad92-4381608c75f0"},"vehicle_type_id":"4","last_reported":1737752838,"current_range_meters":9600,"station_id":"ce4bhu92rcd13ifvqi70","pricing_plan_id":"cebpf4jnsgd1na2vs0mg"},{"bike_id":"3219730d-2831-439a-8940-229aefb07db6","system_id":"levelo_inurba_marseille","lat":43.29417,"lon":5.38633,"is_reserved":false,"is_disabled":false,"rental_uris":{"android":"levelo://app?vid=3219730d-2831-439a-8940-229aefb07db6","ios":"levelo://app?vid=3219730d-2831-439a-8940-229aefb07db6"},"vehicle_type_id":"4","last_reported":1737752838,"current_range_meters":35600,"station_id":"ce4bh2h2rcd13ifvqdh0","pricing_plan_id":"cebpf4jnsgd1na2vs0mg"},{"bike_id":"511d1395-9b6a-4365-982c-ba6fd9ed2253","system_id":"levelo_inurba_marseille","lat":43.29155,"lon":5.38182,"is_reserved":false,"is_disabled":false,"rental_uris":{"android":"levelo://app?vid=511d1395-9b6a-4365-982c-ba6fd9ed2253","ios":"levelo://app?vid=511d1395-9b6a-4365-982c-ba6fd9ed2253"},"vehicle_type_id":"4","last_reported":1737752838,"current_range_meters":25200,"station_id":"","pricing_plan_id":"cebpf4jnsgd1na2vs0mg"},{"bike_id":"8d0bf438-6f14-42dc-8a42-ea54115c1c21","system_id":"levelo_inurba_marseille","lat":43.29533,"lon":5.38534,"is_reserved":false,"is_disabled":false,"rental_uris":{"android":"levelo://app?vid=8d0bf438-6f14-42dc-8a42-ea54115c1c21","ios":"levelo://app?vid=8d0bf438-6f14-42dc-8a42-ea54115c1c21"},"vehicle_type_id":"4","last_reported":1737752838,"current_range_meters":38400,"station_id":"ce4bgih2rcd13ifvqba0","pricing_plan_id":"cebpf4jnsgd1na2vs0mg"},{"bike_id":"93434538-df06-4ff5-ad75-b30c9966e4ec","system_id":"levelo_inurba_marseille","lat":43.29976,"lon":5.38496,"is_reserved":false,"is_disabled":false,"rental_uris":{"android":"levelo://app?vid=93434538-df06-4ff5-ad75-b30c9966e4ec","ios":"levelo://app?vid=93434538-df06-4ff5-ad75-b30c9966e4ec"},"vehicle_type_id":"4","last_reported":1737752838,"current_range_meters":34800,"station_id":"ce4bgj92rcd13ifvqbd0","pricing_plan_id":"cebpf4jnsgd1na2vs0mg"},{"bike_id":"8609669b-68c7-4651-8463-8b069e6b3840","system_id":"levelo_inurba_marseille","lat":43.31996,"lon":5.38136,"is_reserved":false,"is_disabled":false,"rental_uris":{"android":"levelo://app?vid=8609669b-68c7-4651-8463-8b069e6b3840","ios":"levelo://app?vid=8609669b-68c7-4651-8463-8b069e6b3840"},"vehicle_type_id":"4","last_reported":1737752838,"current_range_meters":38000,"station_id":"ce4bhr12rcd13ifvqhpg","pricing_plan_id":"cebpf4jnsgd1na2vs0mg"},{"bike_id":"dabad150-600b-4273-9d4a-f2cb97af39fc","system_id":"levelo_inurba_marseille","lat":43.246351,"lon":5.388474,"is_reserved":false,"is_disabled":false,"rental_uris":{"android":"levelo://app?vid=dabad150-600b-4273-9d4a-f2cb97af39fc","ios":"levelo://app?vid=dabad150-600b-4273-9d4a-f2cb97af39fc"},"vehicle_type_id":"4","last_reported":1737752838,"current_range_meters":35200,"station_id":"ce4bhg12rcd13ifvqf60","pricing_plan_id":"cebpf4jnsgd1na2vs0mg"},{"bike_id":"e04d6439-d3f0-49e1-ae5b-7959ba70aeaa","system_id":"levelo_inurba_marseille","lat":43.28045,"lon":5.36931,"is_reserved":false,"is_disabled":false,"rental_uris":{"android":"levelo://app?vid=e04d6439-d3f0-49e1-ae5b-7959ba70aeaa","ios":"levelo://app?vid=e04d6439-d3f0-49e1-ae5b-7959ba70aeaa"},"vehicle_type_id":"4","last_reported":1737752838,"current_range_meters":22000,"station_id":"ce4bha12rcd13ifvqef0","pricing_plan_id":"cebpf4jnsgd1na2vs0mg"},{"bike_id":"cef0fc8f-580c-434e-934c-d5b782b934ce","system_id":"levelo_inurba_marseille","lat":43.2954,"lon":5.38537,"is_reserved":false,"is_disabled":false,"rental_uris":{"android":"levelo://app?vid=cef0fc8f-580c-434e-934c-d5b782b934ce","ios":"levelo://app?vid=cef0fc8f-580c-434e-934c-d5b782b934ce"},"vehicle_type_id":"4","last_reported":1737752838,"current_range_meters":9600,"station_id":"ce4bgih2rcd13ifvqba0","pricing_plan_id":"cebpf4jnsgd1na2vs0mg"},{"bike_id":"2b812f1a-6aa5-4c93-99d7-cdaee5907faa","system_id":"levelo_inurba_marseille","lat":43.30307,"lon":5.36881,"is_reserved":false,"is_disabled":false,"rental_uris":{"android":"levelo://app?vid=2b812f1a-6aa5-4c93-99d7-cdaee5907faa","ios":"levelo://app?vid=2b812f1a-6aa5-4c93-99d7-cdaee5907faa"},"vehicle_type_id":"4","last_reported":1737752838,"current_range_meters":9200,"station_id":"ce4bgqh2rcd13ifvqc5g","pricing_plan_id":"cebpf4jnsgd1na2vs0mg"},{"bike_id":"be99910a-3202-43f9-b6a3-74e5161e658e","system_id":"levelo_inurba_marseille","lat":43.31152,"lon":5.38718,"is_reserved":false,"is_disabled":false,"rental_uris":{"android":"levelo://app?vid=be99910a-3202-43f9-b6a3-74e5161e658e","ios":"levelo://app?vid=be99910a-3202-43f9-b6a3-74e5161e658e"},"vehicle_type_id":"4","last_reported":1737752838,"current_range_meters":34000,"station_id":"ce4bgv12rcd13ifvqcp0","pricing_plan_id":"cebpf4jnsgd1na2vs0mg"},{"bike_id":"b316956f-5870-49b0-9025-43bf4043b56d","system_id":"levelo_inurba_marseille","lat":43.29532,"lon":5.39383,"is_reserved":false,"is_disabled":false,"rental_uris":{"android":"levelo://app?vid=b316956f-5870-49b0-9025-43bf4043b56d","ios":"levelo://app?vid=b316956f-5870-49b0-9025-43bf4043b56d"},"vehicle_type_id":"4","last_reported":1737752838,"current_range_meters":33600,"station_id":"ce4bh292rcd13ifvqdf0","pricing_plan_id":"cebpf4jnsgd1na2vs0mg"},{"bike_id":"5bdca74a-6612-42f9-9758-1d8be1cdc5ec","system_id":"levelo_inurba_marseille","lat":43.29435,"lon":5.38663,"is_reserved":false,"is_disabled":false,"rental_uris":{"android":"levelo://app?vid=5bdca74a-6612-42f9-9758-1d8be1cdc5ec","ios":"levelo://app?vid=5bdca74a-6612-42f9-9758-1d8be1cdc5ec"},"vehicle_type_id":"4","last_reported":1737752838,"current_range_meters":31200,"station_id":"ce4bh2h2rcd13ifvqdh0","pricing_plan_id":"cebpf4jnsgd1na2vs0mg"},{"bike_id":"e88c7789-5cc6-4131-a7fc-96bce56a7f6d","system_id":"levelo_inurba_marseille","lat":43.29293,"lon":5.3743,"is_reserved":false,"is_disabled":false,"rental_uris":{"android":"levelo://app?vid=e88c7789-5cc6-4131-a7fc-96bce56a7f6d","ios":"levelo://app?vid=e88c7789-5cc6-4131-a7fc-96bce56a7f6d"},"vehicle_type_id":"4","last_reported":1737752838,"current_range_meters":27200,"station_id":"ce4bgi12rcd13ifvqb70","pricing_plan_id":"cebpf4jnsgd1na2vs0mg"},{"bike_id":"c09107c0-8eff-4397-b16d-299aabecf68c","system_id":"levelo_inurba_marseille","lat":43.29535,"lon":5.3854,"is_reserved":false,"is_disabled":false,"rental_uris":{"android":"levelo://app?vid=c09107c0-8eff-4397-b16d-299aabecf68c","ios":"levelo://app?vid=c09107c0-8eff-4397-b16d-299aabecf68c"},"vehicle_type_id":"4","last_reported":1737752838,"current_range_meters":38000,"station_id":"ce4bgih2rcd13ifvqba0","pricing_plan_id":"cebpf4jnsgd1na2vs0mg"},{"bike_id":"9fa07e24-ca3f-4af3-9650-202e7c5077d3","system_id":"levelo_inurba_marseille","lat":43.26219,"lon":5.37436,"is_reserved":false,"is_disabled":false,"rental_uris":{"android":"levelo://app?vid=9fa07e24-ca3f-4af3-9650-202e7c5077d3","ios":"levelo://app?vid=9fa07e24-ca3f-4af3-9650-202e7c5077d3"},"vehicle_type_id":"4","last_reported":1737752838,"current_range_meters":8000,"station_id":"ce4bhgp2rcd13ifvqfc0","pricing_plan_id":"cebpf4jnsgd1na2vs0mg"},{"bike_id":"c425264b-f06d-4006-8cf2-8dc867d9adfd","system_id":"levelo_inurba_marseille","lat":43.3156,"lon":5.38606,"is_reserved":false,"is_disabled":false,"rental_uris":{"android":"levelo://app?vid=c425264b-f06d-4006-8cf2-8dc867d9adfd","ios":"levelo://app?vid=c425264b-f06d-4006-8cf2-8dc867d9adfd"},"vehicle_type_id":"4","last_reported":1737752838,"current_range_meters":9600,"station_id":"","pricing_plan_id":"cebpf4jnsgd1na2vs0mg"},{"bike_id":"7ebd4f81-a496-48d1-8ebf-65321a66b10a","system_id":"levelo_inurba_marseille","lat":43.28704,"lon":5.39979,"is_reserved":false,"is_disabled":false,"rental_uris":{"android":"levelo://app?vid=7ebd4f81-a496-48d1-8ebf-65321a66b10a","ios":"levelo://app?vid=7ebd4f81-a496-48d1-8ebf-65321a66b10a"},"vehicle_type_id":"4","last_reported":1737752838,"current_range_meters":4800,"station_id":"ce4bho92rcd13ifvqh3g","pricing_plan_id":"cebpf4jnsgd1na2vs0mg"},{"bike_id":"bce09769-02dc-489a-bcd7-84421f3b354f","system_id":"levelo_inurba_marseille","lat":43.32364,"lon":5.38877,"is_reserved":false,"is_disabled":false,"rental_uris":{"android":"levelo://app?vid=bce09769-02dc-489a-bcd7-84421f3b354f","ios":"levelo://app?vid=bce09769-02dc-489a-bcd7-84421f3b354f"},"vehicle_type_id":"4","last_reported":1737752838,"current_range_meters":21600,"station_id":"ce4bhqp2rcd13ifvqhog","pricing_plan_id":"cebpf4jnsgd1na2vs0mg"},{"bike_id":"8079e6ae-b67d-409c-be01-65ea03655a49","system_id":"levelo_inurba_marseille","lat":43.29423,"lon":5.38656,"is_reserved":false,"is_disabled":false,"rental_uris":{"android":"levelo://app?vid=8079e6ae-b67d-409c-be01-65ea03655a49","ios":"levelo://app?vid=8079e6ae-b67d-409c-be01-65ea03655a49"},"vehicle_type_id":"4","last_reported":1737752838,"current_range_meters":9600,"station_id":"ce4bh2h2rcd13ifvqdh0","pricing_plan_id":"cebpf4jnsgd1na2vs0mg"},{"bike_id":"47d2de13-afdb-4d27-86fb-30f47a86ca41","system_id":"levelo_inurba_marseille","lat":43.2952,"lon":5.37437,"is_reserved":false,"is_disabled":false,"rental_uris":{"android":"levelo://app?vid=47d2de13-afdb-4d27-86fb-30f47a86ca41","ios":"levelo://app?vid=47d2de13-afdb-4d27-86fb-30f47a86ca41"},"vehicle_type_id":"4","last_reported":1737752838,"current_range_meters":21600,"station_id":"","pricing_plan_id":"cebpf4jnsgd1na2vs0mg"},{"bike_id":"d06e4858-1735-4dcf-9f21-bf859f4d029b","system_id":"levelo_inurba_marseille","lat":43.281546,"lon":5.426244,"is_reserved":false,"is_disabled":false,"rental_uris":{"android":"levelo://app?vid=d06e4858-1735-4dcf-9f21-bf859f4d029b","ios":"levelo://app?vid=d06e4858-1735-4dcf-9f21-bf859f4d029b"},"vehicle_type_id":"4","last_reported":1737752838,"current_range_meters":38800,"station_id":"ce4bhnh2rcd13ifvqgug","pricing_plan_id":"cebpf4jnsgd1na2vs0mg"},{"bike_id":"dddde718-b5f0-4247-9093-917256745d04","system_id":"levelo_inurba_marseille","lat":43.25494,"lon":5.37644,"is_reserved":false,"is_disabled":false,"rental_uris":{"android":"levelo://app?vid=dddde718-b5f0-4247-9093-917256745d04","ios":"levelo://app?vid=dddde718-b5f0-4247-9093-917256745d04"},"vehicle_type_id":"4","last_reported":1737752838,"current_range_meters":38800,"station_id":"ce4bhh12rcd13ifvqff0","pricing_plan_id":"cebpf4jnsgd1na2vs0mg"},{"bike_id":"7f95d492-e5fe-47a9-9496-ce67e4d5c2e7","system_id":"levelo_inurba_marseille","lat":43.31778,"lon":5.39012,"is_reserved":false,"is_disabled":false,"rental_uris":{"android":"levelo://app?vid=7f95d492-e5fe-47a9-9496-ce67e4d5c2e7","ios":"levelo://app?vid=7f95d492-e5fe-47a9-9496-ce67e4d5c2e7"},"vehicle_type_id":"4","last_reported":1737752838,"current_range_meters":38800,"station_id":"ce4bhqp2rcd13ifvqhng","pricing_plan_id":"cebpf4jnsgd1na2vs0mg"},{"bike_id":"61df6208-7c8d-4faf-b087-b4cb2a715156","system_id":"levelo_inurba_marseille","lat":43.3199,"lon":5.38071,"is_reserved":false,"is_disabled":false,"rental_uris":{"android":"levelo://app?vid=61df6208-7c8d-4faf-b087-b4cb2a715156","ios":"levelo://app?vid=61df6208-7c8d-4faf-b087-b4cb2a715156"},"vehicle_type_id":"4","last_reported":1737752838,"current_range_meters":38800,"station_id":"","pricing_plan_id":"cebpf4jnsgd1na2vs0mg"},{"bike_id":"876caf81-20df-4ac2-8d02-2f62a9133e00","system_id":"levelo_inurba_marseille","lat":43.29255,"lon":5.38438,"is_reserved":false,"is_disabled":false,"rental_uris":{"android":"levelo://app?vid=876caf81-20df-4ac2-8d02-2f62a9133e00","ios":"levelo://app?vid=876caf81-20df-4ac2-8d02-2f62a9133e00"},"vehicle_type_id":"4","last_reported":1737752838,"current_range_meters":26800,"station_id":"ce4bh692rcd13ifvqea0","pricing_plan_id":"cebpf4jnsgd1na2vs0mg"},{"bike_id":"bb7e1e28-d81a-4100-94a6-9b119373fe12","system_id":"levelo_inurba_marseille","lat":43.28445,"lon":5.392,"is_reserved":false,"is_disabled":false,"rental_uris":{"android":"levelo://app?vid=bb7e1e28-d81a-4100-94a6-9b119373fe12","ios":"levelo://app?vid=bb7e1e28-d81a-4100-94a6-9b119373fe12"},"vehicle_type_id":"4","last_reported":1737752838,"current_range_meters":20800,"station_id":"ce4bhoh2rcd13ifvqh5g","pricing_plan_id":"cebpf4jnsgd1na2vs0mg"},{"bike_id":"354a0ed3-542c-4648-b29a-783f2de4680e","system_id":"levelo_inurba_marseille","lat":43.27664,"lon":5.38918,"is_reserved":false,"is_disabled":true,"rental_uris":{"android":"levelo://app?vid=354a0ed3-542c-4648-b29a-783f2de4680e","ios":"levelo://app?vid=354a0ed3-542c-4648-b29a-783f2de4680e"},"vehicle_type_id":"4","last_reported":1737752838,"current_range_meters":36000,"station_id":"ce4bhi12rcd13ifvqfo0","pricing_plan_id":"cebpf4jnsgd1na2vs0mg"},{"bike_id":"2a5bcd00-b034-49cb-a2cf-bc894e4bfe17","system_id":"levelo_inurba_marseille","lat":43.29245,"lon":5.38457,"is_reserved":false,"is_disabled":false,"rental_uris":{"android":"levelo://app?vid=2a5bcd00-b034-49cb-a2cf-bc894e4bfe17","ios":"levelo://app?vid=2a5bcd00-b034-49cb-a2cf-bc894e4bfe17"},"vehicle_type_id":"4","last_reported":1737752838,"current_range_meters":37600,"station_id":"ce4bh692rcd13ifvqea0","pricing_plan_id":"cebpf4jnsgd1na2vs0mg"},{"bike_id":"37c1cbd9-e650-4d47-9e6e-e5f4f6e5a41c","system_id":"levelo_inurba_marseille","lat":43.28964,"lon":5.37826,"is_reserved":false,"is_disabled":false,"rental_uris":{"android":"levelo://app?vid=37c1cbd9-e650-4d47-9e6e-e5f4f6e5a41c","ios":"levelo://app?vid=37c1cbd9-e650-4d47-9e6e-e5f4f6e5a41c"},"vehicle_type_id":"4","last_reported":1737752838,"current_range_meters":39200,"station_id":"ce4bh9p2rcd13ifvqed0","pricing_plan_id":"cebpf4jnsgd1na2vs0mg"},{"bike_id":"13ffeea6-4e88-4273-a218-3c5d61ae6af5","system_id":"levelo_inurba_marseille","lat":43.32104,"lon":5.3678,"is_reserved":false,"is_disabled":false,"rental_uris":{"android":"levelo://app?vid=13ffeea6-4e88-4273-a218-3c5d61ae6af5","ios":"levelo://app?vid=13ffeea6-4e88-4273-a218-3c5d61ae6af5"},"vehicle_type_id":"4","last_reported":1737752838,"current_range_meters":36000,"station_id":"ce4bhrh2rcd13ifvqhug","pricing_plan_id":"cebpf4jnsgd1na2vs0mg"},{"bike_id":"183d99f3-c5aa-4abb-b8da-46143af25668","system_id":"levelo_inurba_marseille","lat":43.29257,"lon":5.36817,"is_reserved":false,"is_disabled":false,"rental_uris":{"android":"levelo://app?vid=183d99f3-c5aa-4abb-b8da-46143af25668","ios":"levelo://app?vid=183d99f3-c5aa-4abb-b8da-46143af25668"},"vehicle_type_id":"4","last_reported":1737752838,"current_range_meters":30400,"station_id":"ce4bhbp2rcd13ifvqesg","pricing_plan_id":"cebpf4jnsgd1na2vs0mg"},{"bike_id":"0db3c5d9-6d81-4a1e-8258-3475631b52a3","system_id":"levelo_inurba_marseille","lat":43.29294,"lon":5.37178,"is_reserved":false,"is_disabled":false,"rental_uris":{"android":"levelo://app?vid=0db3c5d9-6d81-4a1e-8258-3475631b52a3","ios":"levelo://app?vid=0db3c5d9-6d81-4a1e-8258-3475631b52a3"},"vehicle_type_id":"4","last_reported":1737752838,"current_range_meters":8000,"station_id":"ce4bgh92rcd13ifvqb40","pricing_plan_id":"cebpf4jnsgd1na2vs0mg"},{"bike_id":"200a4bf1-05ee-4a72-ad3d-ba9dee551928","system_id":"levelo_inurba_marseille","lat":43.29286,"lon":5.36839,"is_reserved":false,"is_disabled":false,"rental_uris":{"android":"levelo://app?vid=200a4bf1-05ee-4a72-ad3d-ba9dee551928","ios":"levelo://app?vid=200a4bf1-05ee-4a72-ad3d-ba9dee551928"},"vehicle_type_id":"4","last_reported":1737752838,"current_range_meters":36800,"station_id":"ce4bhbp2rcd13ifvqesg","pricing_plan_id":"cebpf4jnsgd1na2vs0mg"},{"bike_id":"980c02c2-9503-4369-8686-9bce9678a308","system_id":"levelo_inurba_marseille","lat":43.2955,"lon":5.38547,"is_reserved":false,"is_disabled":false,"rental_uris":{"android":"levelo://app?vid=980c02c2-9503-4369-8686-9bce9678a308","ios":"levelo://app?vid=980c02c2-9503-4369-8686-9bce9678a308"},"vehicle_type_id":"4","last_reported":1737752838,"current_range_meters":17600,"station_id":"ce4bgih2rcd13ifvqba0","pricing_plan_id":"cebpf4jnsgd1na2vs0mg"},{"bike_id":"db3eaa5e-8c1e-46b6-b1d3-d3ff0253257f","system_id":"levelo_inurba_marseille","lat":43.29531,"lon":5.39407,"is_reserved":false,"is_disabled":false,"rental_uris":{"android":"levelo://app?vid=db3eaa5e-8c1e-46b6-b1d3-d3ff0253257f","ios":"levelo://app?vid=db3eaa5e-8c1e-46b6-b1d3-d3ff0253257f"},"vehicle_type_id":"4","last_reported":1737752838,"current_range_meters":39200,"station_id":"ce4bh292rcd13ifvqdf0","pricing_plan_id":"cebpf4jnsgd1na2vs0mg"},{"bike_id":"a7a702f5-6ec7-431b-b481-a3ae18db8c41","system_id":"levelo_inurba_marseille","lat":43.29536,"lon":5.37499,"is_reserved":false,"is_disabled":false,"rental_uris":{"android":"levelo://app?vid=a7a702f5-6ec7-431b-b481-a3ae18db8c41","ios":"levelo://app?vid=a7a702f5-6ec7-431b-b481-a3ae18db8c41"},"vehicle_type_id":"4","last_reported":1737752838,"current_range_meters":31200,"station_id":"ce4bgkp2rcd13ifvqbmg","pricing_plan_id":"cebpf4jnsgd1na2vs0mg"},{"bike_id":"5d0ced69-255e-410b-9398-708d471fa8b7","system_id":"levelo_inurba_marseille","lat":43.30295,"lon":5.39196,"is_reserved":false,"is_disabled":true,"rental_uris":{"android":"levelo://app?vid=5d0ced69-255e-410b-9398-708d471fa8b7","ios":"levelo://app?vid=5d0ced69-255e-410b-9398-708d471fa8b7"},"vehicle_type_id":"4","last_reported":1737752838,"current_range_meters":34000,"station_id":"ce4bgkh2rcd13ifvqbk0","pricing_plan_id":"cebpf4jnsgd1na2vs0mg"},{"bike_id":"35614ed7-a0df-4792-bca2-a1978fcd9fab","system_id":"levelo_inurba_marseille","lat":43.30795,"lon":5.43517,"is_reserved":false,"is_disabled":false,"rental_uris":{"android":"levelo://app?vid=35614ed7-a0df-4792-bca2-a1978fcd9fab","ios":"levelo://app?vid=35614ed7-a0df-4792-bca2-a1978fcd9fab"},"vehicle_type_id":"4","last_reported":1737752838,"current_range_meters":37600,"station_id":"ce4bhph2rcd13ifvqheg","pricing_plan_id":"cebpf4jnsgd1na2vs0mg"},{"bike_id":"7817b1c6-3ba5-4c30-91a6-d7c7566d7a64","system_id":"levelo_inurba_marseille","lat":43.3063,"lon":5.4006,"is_reserved":false,"is_disabled":false,"rental_uris":{"android":"levelo://app?vid=7817b1c6-3ba5-4c30-91a6-d7c7566d7a64","ios":"levelo://app?vid=7817b1c6-3ba5-4c30-91a6-d7c7566d7a64"},"vehicle_type_id":"4","last_reported":1737752838,"current_range_meters":28000,"station_id":"ce4bh112rcd13ifvqda0","pricing_plan_id":"cebpf4jnsgd1na2vs0mg"},{"bike_id":"a50604f6-2152-439b-b245-6f04f4d8cf8d","system_id":"levelo_inurba_marseille","lat":43.30443,"lon":5.38882,"is_reserved":false,"is_disabled":false,"rental_uris":{"android":"levelo://app?vid=a50604f6-2152-439b-b245-6f04f4d8cf8d","ios":"levelo://app?vid=a50604f6-2152-439b-b245-6f04f4d8cf8d"},"vehicle_type_id":"4","last_reported":1737752838,"current_range_meters":38000,"station_id":"ce4bgk12rcd13ifvqbi0","pricing_plan_id":"cebpf4jnsgd1na2vs0mg"},{"bike_id":"a97bcc94-afad-4893-b2da-3a3767e1c350","system_id":"levelo_inurba_marseille","lat":43.28687,"lon":5.38678,"is_reserved":false,"is_disabled":false,"rental_uris":{"android":"levelo://app?vid=a97bcc94-afad-4893-b2da-3a3767e1c350","ios":"levelo://app?vid=a97bcc94-afad-4893-b2da-3a3767e1c350"},"vehicle_type_id":"4","last_reported":1737752838,"current_range_meters":17600,"station_id":"ce4bh492rcd13ifvqdug","pricing_plan_id":"cebpf4jnsgd1na2vs0mg"},{"bike_id":"d2cb21d3-cc32-48d3-b773-800826051dd6","system_id":"levelo_inurba_marseille","lat":43.33017,"lon":5.39042,"is_reserved":false,"is_disabled":false,"rental_uris":{"android":"levelo://app?vid=d2cb21d3-cc32-48d3-b773-800826051dd6","ios":"levelo://app?vid=d2cb21d3-cc32-48d3-b773-800826051dd6"},"vehicle_type_id":"4","last_reported":1737752838,"current_range_meters":38800,"station_id":"ce4bhr92rcd13ifvqhrg","pricing_plan_id":"cebpf4jnsgd1na2vs0mg"},{"bike_id":"614069de-aa6c-4682-bdb4-b697111c134b","system_id":"levelo_inurba_marseille","lat":43.32283,"lon":5.3824,"is_reserved":false,"is_disabled":false,"rental_uris":{"android":"levelo://app?vid=614069de-aa6c-4682-bdb4-b697111c134b","ios":"levelo://app?vid=614069de-aa6c-4682-bdb4-b697111c134b"},"vehicle_type_id":"4","last_reported":1737752838,"current_range_meters":16800,"station_id":"ce4bhr12rcd13ifvqhqg","pricing_plan_id":"cebpf4jnsgd1na2vs0mg"},{"bike_id":"aa3c6022-321f-45fd-bf5f-ef01c859c4a9","system_id":"levelo_inurba_marseille","lat":43.29371,"lon":5.37827,"is_reserved":false,"is_disabled":false,"rental_uris":{"android":"levelo://app?vid=aa3c6022-321f-45fd-bf5f-ef01c859c4a9","ios":"levelo://app?vid=aa3c6022-321f-45fd-bf5f-ef01c859c4a9"},"vehicle_type_id":"4","last_reported":1737752838,"current_range_meters":38800,"station_id":"ce4bgjh2rcd13ifvqbf0","pricing_plan_id":"cebpf4jnsgd1na2vs0mg"},{"bike_id":"1751fce2-cf09-42c4-909f-331d932110c8","system_id":"levelo_inurba_marseille","lat":43.30889,"lon":5.39625,"is_reserved":false,"is_disabled":true,"rental_uris":{"android":"levelo://app?vid=1751fce2-cf09-42c4-909f-331d932110c8","ios":"levelo://app?vid=1751fce2-cf09-42c4-909f-331d932110c8"},"vehicle_type_id":"4","last_reported":1737752838,"current_range_meters":22400,"station_id":"ce4bh012rcd13ifvqcv0","pricing_plan_id":"cebpf4jnsgd1na2vs0mg"},{"bike_id":"bd985015-f87a-41f4-a867-d400948c1f14","system_id":"levelo_inurba_marseille","lat":43.2867,"lon":5.38668,"is_reserved":false,"is_disabled":false,"rental_uris":{"android":"levelo://app?vid=bd985015-f87a-41f4-a867-d400948c1f14","ios":"levelo://app?vid=bd985015-f87a-41f4-a867-d400948c1f14"},"vehicle_type_id":"4","last_reported":1737752838,"current_range_meters":14800,"station_id":"ce4bh492rcd13ifvqdug","pricing_plan_id":"cebpf4jnsgd1na2vs0mg"},{"bike_id":"9338641b-a8d4-42f9-8e4d-1cdd8c9b5fa2","system_id":"levelo_inurba_marseille","lat":43.29404,"lon":5.3867,"is_reserved":false,"is_disabled":false,"rental_uris":{"android":"levelo://app?vid=9338641b-a8d4-42f9-8e4d-1cdd8c9b5fa2","ios":"levelo://app?vid=9338641b-a8d4-42f9-8e4d-1cdd8c9b5fa2"},"vehicle_type_id":"4","last_reported":1737752838,"current_range_meters":19200,"station_id":"ce4bh2h2rcd13ifvqdh0","pricing_plan_id":"cebpf4jnsgd1na2vs0mg"},{"bike_id":"fc840760-c6d7-47de-9420-cc3f4b7608bc","system_id":"levelo_inurba_marseille","lat":43.32355,"lon":5.36756,"is_reserved":false,"is_disabled":false,"rental_uris":{"android":"levelo://app?vid=fc840760-c6d7-47de-9420-cc3f4b7608bc","ios":"levelo://app?vid=fc840760-c6d7-47de-9420-cc3f4b7608bc"},"vehicle_type_id":"4","last_reported":1737752838,"current_range_meters":23200,"station_id":"ce4bhsh2rcd13ifvqi2g","pricing_plan_id":"cebpf4jnsgd1na2vs0mg"},{"bike_id":"c8088add-af24-409c-b609-0d62e4e43103","system_id":"levelo_inurba_marseille","lat":43.287,"lon":5.37388,"is_reserved":false,"is_disabled":false,"rental_uris":{"android":"levelo://app?vid=c8088add-af24-409c-b609-0d62e4e43103","ios":"levelo://app?vid=c8088add-af24-409c-b609-0d62e4e43103"},"vehicle_type_id":"4","last_reported":1737752838,"current_range_meters":38400,"station_id":"ce4bh3p2rcd13ifvqdq0","pricing_plan_id":"cebpf4jnsgd1na2vs0mg"},{"bike_id":"dc959239-7e22-4769-a934-4271f2ecc7d9","system_id":"levelo_inurba_marseille","lat":43.2942,"lon":5.38616,"is_reserved":false,"is_disabled":false,"rental_uris":{"android":"levelo://app?vid=dc959239-7e22-4769-a934-4271f2ecc7d9","ios":"levelo://app?vid=dc959239-7e22-4769-a934-4271f2ecc7d9"},"vehicle_type_id":"4","last_reported":1737752838,"current_range_meters":32000,"station_id":"ce4bh2h2rcd13ifvqdh0","pricing_plan_id":"cebpf4jnsgd1na2vs0mg"},{"bike_id":"0abc3dc5-6d86-41e6-9d99-f1e4711c7034","system_id":"levelo_inurba_marseille","lat":43.30624,"lon":5.40076,"is_reserved":false,"is_disabled":false,"rental_uris":{"android":"levelo://app?vid=0abc3dc5-6d86-41e6-9d99-f1e4711c7034","ios":"levelo://app?vid=0abc3dc5-6d86-41e6-9d99-f1e4711c7034"},"vehicle_type_id":"4","last_reported":1737752838,"current_range_meters":30800,"station_id":"ce4bh112rcd13ifvqda0","pricing_plan_id":"cebpf4jnsgd1na2vs0mg"},{"bike_id":"254f02cb-745e-4af2-a5b7-80a58abf6b52","system_id":"levelo_inurba_marseille","lat":43.30434,"lon":5.39758,"is_reserved":false,"is_disabled":false,"rental_uris":{"android":"levelo://app?vid=254f02cb-745e-4af2-a5b7-80a58abf6b52","ios":"levelo://app?vid=254f02cb-745e-4af2-a5b7-80a58abf6b52"},"vehicle_type_id":"4","last_reported":1737752838,"current_range_meters":19600,"station_id":"ce4bh092rcd13ifvqd20","pricing_plan_id":"cebpf4jnsgd1na2vs0mg"},{"bike_id":"e7c6bf3d-e34b-4f9f-a800-8d4462a29621","system_id":"levelo_inurba_marseille","lat":43.29894,"lon":5.4364,"is_reserved":false,"is_disabled":false,"rental_uris":{"android":"levelo://app?vid=e7c6bf3d-e34b-4f9f-a800-8d4462a29621","ios":"levelo://app?vid=e7c6bf3d-e34b-4f9f-a800-8d4462a29621"},"vehicle_type_id":"4","last_reported":1737752838,"current_range_meters":32400,"station_id":"ce4bhpp2rcd13ifvqhfg","pricing_plan_id":"cebpf4jnsgd1na2vs0mg"},{"bike_id":"9863b7f9-4316-4322-9f6c-3cc66b0448e2","system_id":"levelo_inurba_marseille","lat":43.279439,"lon":5.389008,"is_reserved":false,"is_disabled":true,"rental_uris":{"android":"levelo://app?vid=9863b7f9-4316-4322-9f6c-3cc66b0448e2","ios":"levelo://app?vid=9863b7f9-4316-4322-9f6c-3cc66b0448e2"},"vehicle_type_id":"4","last_reported":1737752838,"current_range_meters":18800,"station_id":"","pricing_plan_id":"cebpf4jnsgd1na2vs0mg"},{"bike_id":"af58eb37-51db-4a03-b857-77df4f5b8bdd","system_id":"levelo_inurba_marseille","lat":43.2926,"lon":5.38432,"is_reserved":false,"is_disabled":false,"rental_uris":{"android":"levelo://app?vid=af58eb37-51db-4a03-b857-77df4f5b8bdd","ios":"levelo://app?vid=af58eb37-51db-4a03-b857-77df4f5b8bdd"},"vehicle_type_id":"4","last_reported":1737752838,"current_range_meters":7200,"station_id":"ce4bh692rcd13ifvqea0","pricing_plan_id":"cebpf4jnsgd1na2vs0mg"},{"bike_id":"56969389-8be0-4666-878d-200e3583716f","system_id":"levelo_inurba_marseille","lat":43.29573,"lon":5.39976,"is_reserved":false,"is_disabled":false,"rental_uris":{"android":"levelo://app?vid=56969389-8be0-4666-878d-200e3583716f","ios":"levelo://app?vid=56969389-8be0-4666-878d-200e3583716f"},"vehicle_type_id":"4","last_reported":1737752838,"current_range_meters":17600,"station_id":"ce4bh312rcd13ifvqdj0","pricing_plan_id":"cebpf4jnsgd1na2vs0mg"},{"bike_id":"40276c2b-c10e-42ab-857d-43e7ecb22cd6","system_id":"levelo_inurba_marseille","lat":43.27189,"lon":5.40997,"is_reserved":false,"is_disabled":false,"rental_uris":{"android":"levelo://app?vid=40276c2b-c10e-42ab-857d-43e7ecb22cd6","ios":"levelo://app?vid=40276c2b-c10e-42ab-857d-43e7ecb22cd6"},"vehicle_type_id":"4","last_reported":1737752838,"current_range_meters":36000,"station_id":"ce4bhl12rcd13ifvqgf0","pricing_plan_id":"cebpf4jnsgd1na2vs0mg"},{"bike_id":"86659941-ffd9-411f-852e-4fe613c6ddd2","system_id":"levelo_inurba_marseille","lat":43.29258,"lon":5.38441,"is_reserved":false,"is_disabled":false,"rental_uris":{"android":"levelo://app?vid=86659941-ffd9-411f-852e-4fe613c6ddd2","ios":"levelo://app?vid=86659941-ffd9-411f-852e-4fe613c6ddd2"},"vehicle_type_id":"4","last_reported":1737752838,"current_range_meters":33600,"station_id":"ce4bh692rcd13ifvqea0","pricing_plan_id":"cebpf4jnsgd1na2vs0mg"},{"bike_id":"0661138c-ae09-4831-a5ca-b52ad2ea4fd6","system_id":"levelo_inurba_marseille","lat":43.30923,"lon":5.37263,"is_reserved":false,"is_disabled":false,"rental_uris":{"android":"levelo://app?vid=0661138c-ae09-4831-a5ca-b52ad2ea4fd6","ios":"levelo://app?vid=0661138c-ae09-4831-a5ca-b52ad2ea4fd6"},"vehicle_type_id":"4","last_reported":1737752838,"current_range_meters":11200,"station_id":"","pricing_plan_id":"cebpf4jnsgd1na2vs0mg"},{"bike_id":"47fb93bc-9361-47b9-b715-3f410aa37369","system_id":"levelo_inurba_marseille","lat":43.2932,"lon":5.37166,"is_reserved":false,"is_disabled":false,"rental_uris":{"android":"levelo://app?vid=47fb93bc-9361-47b9-b715-3f410aa37369","ios":"levelo://app?vid=47fb93bc-9361-47b9-b715-3f410aa37369"},"vehicle_type_id":"4","last_reported":1737752838,"current_range_meters":8400,"station_id":"ce4bgh92rcd13ifvqb40","pricing_plan_id":"cebpf4jnsgd1na2vs0mg"},{"bike_id":"e98ec1dd-adaf-4e0e-af68-ec43b71cc3c5","system_id":"levelo_inurba_marseille","lat":43.29253,"lon":5.38441,"is_reserved":false,"is_disabled":false,"rental_uris":{"android":"levelo://app?vid=e98ec1dd-adaf-4e0e-af68-ec43b71cc3c5","ios":"levelo://app?vid=e98ec1dd-adaf-4e0e-af68-ec43b71cc3c5"},"vehicle_type_id":"4","last_reported":1737752838,"current_range_meters":17200,"station_id":"ce4bh692rcd13ifvqea0","pricing_plan_id":"cebpf4jnsgd1na2vs0mg"},{"bike_id":"25de2542-1bfa-4339-b5e3-b1aa2e18e3bf","system_id":"levelo_inurba_marseille","lat":43.32335,"lon":5.40612,"is_reserved":false,"is_disabled":false,"rental_uris":{"android":"levelo://app?vid=25de2542-1bfa-4339-b5e3-b1aa2e18e3bf","ios":"levelo://app?vid=25de2542-1bfa-4339-b5e3-b1aa2e18e3bf"},"vehicle_type_id":"4","last_reported":1737752838,"current_range_meters":21600,"station_id":"ce4bhq92rcd13ifvqhjg","pricing_plan_id":"cebpf4jnsgd1na2vs0mg"},{"bike_id":"2c8626f1-2b83-4e46-b7d1-28a6ffc36231","system_id":"levelo_inurba_marseille","lat":43.30799,"lon":5.38136,"is_reserved":false,"is_disabled":false,"rental_uris":{"android":"levelo://app?vid=2c8626f1-2b83-4e46-b7d1-28a6ffc36231","ios":"levelo://app?vid=2c8626f1-2b83-4e46-b7d1-28a6ffc36231"},"vehicle_type_id":"4","last_reported":1737752838,"current_range_meters":25600,"station_id":"ce4bgt12rcd13ifvqce0","pricing_plan_id":"cebpf4jnsgd1na2vs0mg"},{"bike_id":"47f73792-e69b-4c75-b221-3372e2e49c8b","system_id":"levelo_inurba_marseille","lat":43.30251,"lon":5.39257,"is_reserved":false,"is_disabled":false,"rental_uris":{"android":"levelo://app?vid=47f73792-e69b-4c75-b221-3372e2e49c8b","ios":"levelo://app?vid=47f73792-e69b-4c75-b221-3372e2e49c8b"},"vehicle_type_id":"4","last_reported":1737752838,"current_range_meters":5600,"station_id":"","pricing_plan_id":"cebpf4jnsgd1na2vs0mg"},{"bike_id":"930cde84-d41b-46b0-a2d7-0c422d06c2fb","system_id":"levelo_inurba_marseille","lat":43.29385,"lon":5.37833,"is_reserved":false,"is_disabled":false,"rental_uris":{"android":"levelo://app?vid=930cde84-d41b-46b0-a2d7-0c422d06c2fb","ios":"levelo://app?vid=930cde84-d41b-46b0-a2d7-0c422d06c2fb"},"vehicle_type_id":"4","last_reported":1737752838,"current_range_meters":38800,"station_id":"ce4bgjh2rcd13ifvqbf0","pricing_plan_id":"cebpf4jnsgd1na2vs0mg"},{"bike_id":"63b8162a-35b2-4e10-b91a-30e5c42129fe","system_id":"levelo_inurba_marseille","lat":43.29271,"lon":5.384413,"is_reserved":false,"is_disabled":false,"rental_uris":{"android":"levelo://app?vid=63b8162a-35b2-4e10-b91a-30e5c42129fe","ios":"levelo://app?vid=63b8162a-35b2-4e10-b91a-30e5c42129fe"},"vehicle_type_id":"4","last_reported":1737752838,"current_range_meters":14400,"station_id":"ce4bh692rcd13ifvqea0","pricing_plan_id":"cebpf4jnsgd1na2vs0mg"},{"bike_id":"c77150e9-627b-489f-a859-d0f84835af00","system_id":"levelo_inurba_marseille","lat":43.30588,"lon":5.39348,"is_reserved":false,"is_disabled":false,"rental_uris":{"android":"levelo://app?vid=c77150e9-627b-489f-a859-d0f84835af00","ios":"levelo://app?vid=c77150e9-627b-489f-a859-d0f84835af00"},"vehicle_type_id":"4","last_reported":1737752838,"current_range_meters":14000,"station_id":"ce4bh0p2rcd13ifvqd80","pricing_plan_id":"cebpf4jnsgd1na2vs0mg"},{"bike_id":"c40014d2-0c73-4081-88cf-7519588bb182","system_id":"levelo_inurba_marseille","lat":43.29091,"lon":5.38148,"is_reserved":false,"is_disabled":false,"rental_uris":{"android":"levelo://app?vid=c40014d2-0c73-4081-88cf-7519588bb182","ios":"levelo://app?vid=c40014d2-0c73-4081-88cf-7519588bb182"},"vehicle_type_id":"4","last_reported":1737752838,"current_range_meters":36800,"station_id":"ce4bh512rcd13ifvqe2g","pricing_plan_id":"cebpf4jnsgd1na2vs0mg"},{"bike_id":"6f0e28ce-024f-4cd7-923a-80deb29961a7","system_id":"levelo_inurba_marseille","lat":43.33019,"lon":5.39034,"is_reserved":false,"is_disabled":false,"rental_uris":{"android":"levelo://app?vid=6f0e28ce-024f-4cd7-923a-80deb29961a7","ios":"levelo://app?vid=6f0e28ce-024f-4cd7-923a-80deb29961a7"},"vehicle_type_id":"4","last_reported":1737752838,"current_range_meters":39200,"station_id":"ce4bhr92rcd13ifvqhrg","pricing_plan_id":"cebpf4jnsgd1na2vs0mg"},{"bike_id":"c106f839-dff0-4f4f-93b4-2fd96974c9bb","system_id":"levelo_inurba_marseille","lat":43.27991,"lon":5.40016,"is_reserved":false,"is_disabled":false,"rental_uris":{"android":"levelo://app?vid=c106f839-dff0-4f4f-93b4-2fd96974c9bb","ios":"levelo://app?vid=c106f839-dff0-4f4f-93b4-2fd96974c9bb"},"vehicle_type_id":"4","last_reported":1737752838,"current_range_meters":35600,"station_id":"ce4bho92rcd13ifvqh4g","pricing_plan_id":"cebpf4jnsgd1na2vs0mg"},{"bike_id":"7c78a755-c7f5-4f07-a96b-621451d47948","system_id":"levelo_inurba_marseille","lat":43.29895,"lon":5.4364,"is_reserved":false,"is_disabled":false,"rental_uris":{"android":"levelo://app?vid=7c78a755-c7f5-4f07-a96b-621451d47948","ios":"levelo://app?vid=7c78a755-c7f5-4f07-a96b-621451d47948"},"vehicle_type_id":"4","last_reported":1737752838,"current_range_meters":38000,"station_id":"ce4bhpp2rcd13ifvqhfg","pricing_plan_id":"cebpf4jnsgd1na2vs0mg"},{"bike_id":"a062ecb7-c16c-4371-9288-a3a3561ee8b2","system_id":"levelo_inurba_marseille","lat":43.287,"lon":5.37379,"is_reserved":false,"is_disabled":false,"rental_uris":{"android":"levelo://app?vid=a062ecb7-c16c-4371-9288-a3a3561ee8b2","ios":"levelo://app?vid=a062ecb7-c16c-4371-9288-a3a3561ee8b2"},"vehicle_type_id":"4","last_reported":1737752838,"current_range_meters":38000,"station_id":"ce4bh3p2rcd13ifvqdq0","pricing_plan_id":"cebpf4jnsgd1na2vs0mg"},{"bike_id":"7dcae2bc-6e77-45f4-810c-6e3427910691","system_id":"levelo_inurba_marseille","lat":43.29269,"lon":5.38447,"is_reserved":false,"is_disabled":false,"rental_uris":{"android":"levelo://app?vid=7dcae2bc-6e77-45f4-810c-6e3427910691","ios":"levelo://app?vid=7dcae2bc-6e77-45f4-810c-6e3427910691"},"vehicle_type_id":"4","last_reported":1737752838,"current_range_meters":38800,"station_id":"ce4bh692rcd13ifvqea0","pricing_plan_id":"cebpf4jnsgd1na2vs0mg"},{"bike_id":"deb56519-5bd3-433f-8520-373bde6a2970","system_id":"levelo_inurba_marseille","lat":43.29543,"lon":5.38544,"is_reserved":false,"is_disabled":false,"rental_uris":{"android":"levelo://app?vid=deb56519-5bd3-433f-8520-373bde6a2970","ios":"levelo://app?vid=deb56519-5bd3-433f-8520-373bde6a2970"},"vehicle_type_id":"4","last_reported":1737752838,"current_range_meters":34000,"station_id":"ce4bgih2rcd13ifvqba0","pricing_plan_id":"cebpf4jnsgd1na2vs0mg"},{"bike_id":"e21ae435-d26a-4cb5-adce-dbb968db551d","system_id":"levelo_inurba_marseille","lat":43.294298,"lon":5.386203,"is_reserved":false,"is_disabled":false,"rental_uris":{"android":"levelo://app?vid=e21ae435-d26a-4cb5-adce-dbb968db551d","ios":"levelo://app?vid=e21ae435-d26a-4cb5-adce-dbb968db551d"},"vehicle_type_id":"4","last_reported":1737752838,"current_range_meters":25200,"station_id":"ce4bh2h2rcd13ifvqdh0","pricing_plan_id":"cebpf4jnsgd1na2vs0mg"},{"bike_id":"e6c14213-fa2b-405e-a49a-704e5147d088","system_id":"levelo_inurba_marseille","lat":43.29093,"lon":5.38135,"is_reserved":false,"is_disabled":false,"rental_uris":{"android":"levelo://app?vid=e6c14213-fa2b-405e-a49a-704e5147d088","ios":"levelo://app?vid=e6c14213-fa2b-405e-a49a-704e5147d088"},"vehicle_type_id":"4","last_reported":1737752838,"current_range_meters":38800,"station_id":"ce4bh512rcd13ifvqe2g","pricing_plan_id":"cebpf4jnsgd1na2vs0mg"},{"bike_id":"76521c7a-b22c-4458-b448-a12aeb848534","system_id":"levelo_inurba_marseille","lat":43.28345,"lon":5.38092,"is_reserved":false,"is_disabled":false,"rental_uris":{"android":"levelo://app?vid=76521c7a-b22c-4458-b448-a12aeb848534","ios":"levelo://app?vid=76521c7a-b22c-4458-b448-a12aeb848534"},"vehicle_type_id":"4","last_reported":1737752838,"current_range_meters":19200,"station_id":"ce4bh412rcd13ifvqdr0","pricing_plan_id":"cebpf4jnsgd1na2vs0mg"},{"bike_id":"6f7e9cc4-edea-452a-8c9b-2b09300d3543","system_id":"levelo_inurba_marseille","lat":43.29425,"lon":5.38667,"is_reserved":false,"is_disabled":false,"rental_uris":{"android":"levelo://app?vid=6f7e9cc4-edea-452a-8c9b-2b09300d3543","ios":"levelo://app?vid=6f7e9cc4-edea-452a-8c9b-2b09300d3543"},"vehicle_type_id":"4","last_reported":1737752838,"current_range_meters":36800,"station_id":"ce4bh2h2rcd13ifvqdh0","pricing_plan_id":"cebpf4jnsgd1na2vs0mg"},{"bike_id":"2907288b-88ed-4841-bcbf-ac3690171867","system_id":"levelo_inurba_marseille","lat":43.29527,"lon":5.38536,"is_reserved":false,"is_disabled":false,"rental_uris":{"android":"levelo://app?vid=2907288b-88ed-4841-bcbf-ac3690171867","ios":"levelo://app?vid=2907288b-88ed-4841-bcbf-ac3690171867"},"vehicle_type_id":"4","last_reported":1737752838,"current_range_meters":35600,"station_id":"ce4bgih2rcd13ifvqba0","pricing_plan_id":"cebpf4jnsgd1na2vs0mg"},{"bike_id":"7aa42e4e-ad8f-4649-8efb-ae1c8e6a9d2a","system_id":"levelo_inurba_marseille","lat":43.29689,"lon":5.37312,"is_reserved":false,"is_disabled":false,"rental_uris":{"android":"levelo://app?vid=7aa42e4e-ad8f-4649-8efb-ae1c8e6a9d2a","ios":"levelo://app?vid=7aa42e4e-ad8f-4649-8efb-ae1c8e6a9d2a"},"vehicle_type_id":"4","last_reported":1737752838,"current_range_meters":36000,"station_id":"ce4bgk12rcd13ifvqbj0","pricing_plan_id":"cebpf4jnsgd1na2vs0mg"},{"bike_id":"27e9eb13-1e5a-4bd0-8331-3345530224d2","system_id":"levelo_inurba_marseille","lat":43.28693,"lon":5.38657,"is_reserved":false,"is_disabled":false,"rental_uris":{"android":"levelo://app?vid=27e9eb13-1e5a-4bd0-8331-3345530224d2","ios":"levelo://app?vid=27e9eb13-1e5a-4bd0-8331-3345530224d2"},"vehicle_type_id":"4","last_reported":1737752838,"current_range_meters":38800,"station_id":"ce4bh492rcd13ifvqdug","pricing_plan_id":"cebpf4jnsgd1na2vs0mg"},{"bike_id":"1f2bd8a0-3ae2-4aa9-823c-a0a7750c5221","system_id":"levelo_inurba_marseille","lat":43.24546,"lon":5.39528,"is_reserved":false,"is_disabled":false,"rental_uris":{"android":"levelo://app?vid=1f2bd8a0-3ae2-4aa9-823c-a0a7750c5221","ios":"levelo://app?vid=1f2bd8a0-3ae2-4aa9-823c-a0a7750c5221"},"vehicle_type_id":"4","last_reported":1737752838,"current_range_meters":39200,"station_id":"ce4bhlp2rcd13ifvqgjg","pricing_plan_id":"cebpf4jnsgd1na2vs0mg"},{"bike_id":"b83e9459-d765-4411-b2cb-244f1a3fc9bd","system_id":"levelo_inurba_marseille","lat":43.27209,"lon":5.3919,"is_reserved":false,"is_disabled":false,"rental_uris":{"android":"levelo://app?vid=b83e9459-d765-4411-b2cb-244f1a3fc9bd","ios":"levelo://app?vid=b83e9459-d765-4411-b2cb-244f1a3fc9bd"},"vehicle_type_id":"4","last_reported":1737752838,"current_range_meters":35200,"station_id":"ce4bhhp2rcd13ifvqfm0","pricing_plan_id":"cebpf4jnsgd1na2vs0mg"},{"bike_id":"cbb79a24-9d85-4fb9-b4c5-de181aba1b76","system_id":"levelo_inurba_marseille","lat":43.30786,"lon":5.37641,"is_reserved":false,"is_disabled":false,"rental_uris":{"android":"levelo://app?vid=cbb79a24-9d85-4fb9-b4c5-de181aba1b76","ios":"levelo://app?vid=cbb79a24-9d85-4fb9-b4c5-de181aba1b76"},"vehicle_type_id":"4","last_reported":1737752838,"current_range_meters":9600,"station_id":"ce4bgv92rcd13ifvqcq0","pricing_plan_id":"cebpf4jnsgd1na2vs0mg"},{"bike_id":"92ce2df2-eebb-46ae-9858-19026a114644","system_id":"levelo_inurba_marseille","lat":43.25496,"lon":5.37652,"is_reserved":false,"is_disabled":false,"rental_uris":{"android":"levelo://app?vid=92ce2df2-eebb-46ae-9858-19026a114644","ios":"levelo://app?vid=92ce2df2-eebb-46ae-9858-19026a114644"},"vehicle_type_id":"4","last_reported":1737752838,"current_range_meters":20400,"station_id":"ce4bhh12rcd13ifvqff0","pricing_plan_id":"cebpf4jnsgd1na2vs0mg"},{"bike_id":"3fd9580d-bac5-4b95-874e-e0ea8386ebe1","system_id":"levelo_inurba_marseille","lat":43.32374,"lon":5.38871,"is_reserved":false,"is_disabled":false,"rental_uris":{"android":"levelo://app?vid=3fd9580d-bac5-4b95-874e-e0ea8386ebe1","ios":"levelo://app?vid=3fd9580d-bac5-4b95-874e-e0ea8386ebe1"},"vehicle_type_id":"4","last_reported":1737752838,"current_range_meters":32400,"station_id":"ce4bhqp2rcd13ifvqhog","pricing_plan_id":"cebpf4jnsgd1na2vs0mg"},{"bike_id":"6287788a-662c-492d-a62a-4a1a59e38bf0","system_id":"levelo_inurba_marseille","lat":43.31079,"lon":5.38344,"is_reserved":false,"is_disabled":false,"rental_uris":{"android":"levelo://app?vid=6287788a-662c-492d-a62a-4a1a59e38bf0","ios":"levelo://app?vid=6287788a-662c-492d-a62a-4a1a59e38bf0"},"vehicle_type_id":"4","last_reported":1737752838,"current_range_meters":22000,"station_id":"ce4bgv92rcd13ifvqcr0","pricing_plan_id":"cebpf4jnsgd1na2vs0mg"},{"bike_id":"fde1d30b-108a-4c10-af22-5d650d321606","system_id":"levelo_inurba_marseille","lat":43.29426,"lon":5.38635,"is_reserved":false,"is_disabled":false,"rental_uris":{"android":"levelo://app?vid=fde1d30b-108a-4c10-af22-5d650d321606","ios":"levelo://app?vid=fde1d30b-108a-4c10-af22-5d650d321606"},"vehicle_type_id":"4","last_reported":1737752838,"current_range_meters":27600,"station_id":"ce4bh2h2rcd13ifvqdh0","pricing_plan_id":"cebpf4jnsgd1na2vs0mg"},{"bike_id":"9e35e062-68ce-415d-b4b2-b4ea9deeb06e","system_id":"levelo_inurba_marseille","lat":43.32277,"lon":5.38255,"is_reserved":false,"is_disabled":false,"rental_uris":{"android":"levelo://app?vid=9e35e062-68ce-415d-b4b2-b4ea9deeb06e","ios":"levelo://app?vid=9e35e062-68ce-415d-b4b2-b4ea9deeb06e"},"vehicle_type_id":"4","last_reported":1737752838,"current_range_meters":28000,"station_id":"ce4bhr12rcd13ifvqhqg","pricing_plan_id":"cebpf4jnsgd1na2vs0mg"},{"bike_id":"4b10bade-f34d-47a5-9be4-f289de305281","system_id":"levelo_inurba_marseille","lat":43.28565,"lon":5.39483,"is_reserved":false,"is_disabled":false,"rental_uris":{"android":"levelo://app?vid=4b10bade-f34d-47a5-9be4-f289de305281","ios":"levelo://app?vid=4b10bade-f34d-47a5-9be4-f289de305281"},"vehicle_type_id":"4","last_reported":1737752838,"current_range_meters":28400,"station_id":"ce4bh292rcd13ifvqdg0","pricing_plan_id":"cebpf4jnsgd1na2vs0mg"},{"bike_id":"fe3679b4-09f6-4e41-9aae-9d00892cb93e","system_id":"levelo_inurba_marseille","lat":43.23236,"lon":5.35562,"is_reserved":false,"is_disabled":false,"rental_uris":{"android":"levelo://app?vid=fe3679b4-09f6-4e41-9aae-9d00892cb93e","ios":"levelo://app?vid=fe3679b4-09f6-4e41-9aae-9d00892cb93e"},"vehicle_type_id":"4","last_reported":1737752838,"current_range_meters":16400,"station_id":"ce4bhu92rcd13ifvqi70","pricing_plan_id":"cebpf4jnsgd1na2vs0mg"},{"bike_id":"bb59c75c-b10e-4c5c-b6ea-6be79d6de009","system_id":"levelo_inurba_marseille","lat":43.29262,"lon":5.38445,"is_reserved":false,"is_disabled":false,"rental_uris":{"android":"levelo://app?vid=bb59c75c-b10e-4c5c-b6ea-6be79d6de009","ios":"levelo://app?vid=bb59c75c-b10e-4c5c-b6ea-6be79d6de009"},"vehicle_type_id":"4","last_reported":1737752838,"current_range_meters":38400,"station_id":"ce4bh692rcd13ifvqea0","pricing_plan_id":"cebpf4jnsgd1na2vs0mg"},{"bike_id":"94a409f5-c725-4cec-9668-bc63f3f1fff2","system_id":"levelo_inurba_marseille","lat":43.30187,"lon":5.36618,"is_reserved":false,"is_disabled":false,"rental_uris":{"android":"levelo://app?vid=94a409f5-c725-4cec-9668-bc63f3f1fff2","ios":"levelo://app?vid=94a409f5-c725-4cec-9668-bc63f3f1fff2"},"vehicle_type_id":"4","last_reported":1737752838,"current_range_meters":28000,"station_id":"ce4bgrh2rcd13ifvqc8g","pricing_plan_id":"cebpf4jnsgd1na2vs0mg"},{"bike_id":"1fa3ed75-21f9-4b4a-a2ad-a96d5bf08b88","system_id":"levelo_inurba_marseille","lat":43.29424,"lon":5.38613,"is_reserved":false,"is_disabled":true,"rental_uris":{"android":"levelo://app?vid=1fa3ed75-21f9-4b4a-a2ad-a96d5bf08b88","ios":"levelo://app?vid=1fa3ed75-21f9-4b4a-a2ad-a96d5bf08b88"},"vehicle_type_id":"4","last_reported":1737752838,"current_range_meters":0,"station_id":"ce4bh2h2rcd13ifvqdh0","pricing_plan_id":"cebpf4jnsgd1na2vs0mg"},{"bike_id":"f1306753-0741-4054-bb1e-176ba35f7013","system_id":"levelo_inurba_marseille","lat":43.24812,"lon":5.37453,"is_reserved":false,"is_disabled":false,"rental_uris":{"android":"levelo://app?vid=f1306753-0741-4054-bb1e-176ba35f7013","ios":"levelo://app?vid=f1306753-0741-4054-bb1e-176ba35f7013"},"vehicle_type_id":"4","last_reported":1737752838,"current_range_meters":9600,"station_id":"ce4bhgh2rcd13ifvqfb0","pricing_plan_id":"cebpf4jnsgd1na2vs0mg"},{"bike_id":"ebd62006-9f8e-4cff-90aa-b0d7252cc261","system_id":"levelo_inurba_marseille","lat":43.31706,"lon":5.37792,"is_reserved":false,"is_disabled":false,"rental_uris":{"android":"levelo://app?vid=ebd62006-9f8e-4cff-90aa-b0d7252cc261","ios":"levelo://app?vid=ebd62006-9f8e-4cff-90aa-b0d7252cc261"},"vehicle_type_id":"4","last_reported":1737752838,"current_range_meters":38800,"station_id":"ce4bgth2rcd13ifvqch0","pricing_plan_id":"cebpf4jnsgd1na2vs0mg"},{"bike_id":"52992c76-e8f1-43a9-8a4e-0d88bd811a27","system_id":"levelo_inurba_marseille","lat":43.29646,"lon":5.37165,"is_reserved":false,"is_disabled":false,"rental_uris":{"android":"levelo://app?vid=52992c76-e8f1-43a9-8a4e-0d88bd811a27","ios":"levelo://app?vid=52992c76-e8f1-43a9-8a4e-0d88bd811a27"},"vehicle_type_id":"4","last_reported":1737752838,"current_range_meters":27600,"station_id":"ce4bgnh2rcd13ifvqc0g","pricing_plan_id":"cebpf4jnsgd1na2vs0mg"},{"bike_id":"16cba4e1-cb10-44ef-b1a1-eca95385335f","system_id":"levelo_inurba_marseille","lat":43.28451,"lon":5.35038,"is_reserved":false,"is_disabled":true,"rental_uris":{"android":"levelo://app?vid=16cba4e1-cb10-44ef-b1a1-eca95385335f","ios":"levelo://app?vid=16cba4e1-cb10-44ef-b1a1-eca95385335f"},"vehicle_type_id":"4","last_reported":1737752838,"current_range_meters":20000,"station_id":"ce4bhbh2rcd13ifvqepg","pricing_plan_id":"cebpf4jnsgd1na2vs0mg"},{"bike_id":"cfdd9036-eeea-4da2-8257-dc703fa86ba2","system_id":"levelo_inurba_marseille","lat":43.27988,"lon":5.44233,"is_reserved":false,"is_disabled":false,"rental_uris":{"android":"levelo://app?vid=cfdd9036-eeea-4da2-8257-dc703fa86ba2","ios":"levelo://app?vid=cfdd9036-eeea-4da2-8257-dc703fa86ba2"},"vehicle_type_id":"4","last_reported":1737752838,"current_range_meters":20000,"station_id":"","pricing_plan_id":"cebpf4jnsgd1na2vs0mg"},{"bike_id":"f28ba890-238b-4b5f-bd7e-486eac4f3d1b","system_id":"levelo_inurba_marseille","lat":43.29244,"lon":5.38436,"is_reserved":false,"is_disabled":false,"rental_uris":{"android":"levelo://app?vid=f28ba890-238b-4b5f-bd7e-486eac4f3d1b","ios":"levelo://app?vid=f28ba890-238b-4b5f-bd7e-486eac4f3d1b"},"vehicle_type_id":"4","last_reported":1737752838,"current_range_meters":9200,"station_id":"ce4bh692rcd13ifvqea0","pricing_plan_id":"cebpf4jnsgd1na2vs0mg"},{"bike_id":"ef5d2cf6-45a0-4ca6-a7ea-61e91d91db6a","system_id":"levelo_inurba_marseille","lat":43.29947,"lon":5.3655,"is_reserved":false,"is_disabled":false,"rental_uris":{"android":"levelo://app?vid=ef5d2cf6-45a0-4ca6-a7ea-61e91d91db6a","ios":"levelo://app?vid=ef5d2cf6-45a0-4ca6-a7ea-61e91d91db6a"},"vehicle_type_id":"4","last_reported":1737752838,"current_range_meters":24000,"station_id":"ce4bgm92rcd13ifvqbr0","pricing_plan_id":"cebpf4jnsgd1na2vs0mg"},{"bike_id":"300ca8ab-ccdc-48a2-97a2-89d2d556e8dc","system_id":"levelo_inurba_marseille","lat":43.29427,"lon":5.38648,"is_reserved":false,"is_disabled":false,"rental_uris":{"android":"levelo://app?vid=300ca8ab-ccdc-48a2-97a2-89d2d556e8dc","ios":"levelo://app?vid=300ca8ab-ccdc-48a2-97a2-89d2d556e8dc"},"vehicle_type_id":"4","last_reported":1737752838,"current_range_meters":33600,"station_id":"ce4bh2h2rcd13ifvqdh0","pricing_plan_id":"cebpf4jnsgd1na2vs0mg"},{"bike_id":"cc2ff694-7157-41f3-add9-3190c75e9cf3","system_id":"levelo_inurba_marseille","lat":43.32536,"lon":5.41428,"is_reserved":false,"is_disabled":false,"rental_uris":{"android":"levelo://app?vid=cc2ff694-7157-41f3-add9-3190c75e9cf3","ios":"levelo://app?vid=cc2ff694-7157-41f3-add9-3190c75e9cf3"},"vehicle_type_id":"4","last_reported":1737752838,"current_range_meters":38000,"station_id":"ce4bhq12rcd13ifvqhhg","pricing_plan_id":"cebpf4jnsgd1na2vs0mg"},{"bike_id":"cfdcc5c9-ec26-4c34-a85a-37bad3b3a8f0","system_id":"levelo_inurba_marseille","lat":43.29969,"lon":5.38476,"is_reserved":false,"is_disabled":false,"rental_uris":{"android":"levelo://app?vid=cfdcc5c9-ec26-4c34-a85a-37bad3b3a8f0","ios":"levelo://app?vid=cfdcc5c9-ec26-4c34-a85a-37bad3b3a8f0"},"vehicle_type_id":"4","last_reported":1737752838,"current_range_meters":39200,"station_id":"ce4bgj92rcd13ifvqbd0","pricing_plan_id":"cebpf4jnsgd1na2vs0mg"},{"bike_id":"209a1569-01ac-4fff-97a7-34a29e8a68c2","system_id":"levelo_inurba_marseille","lat":43.32287,"lon":5.3827,"is_reserved":false,"is_disabled":false,"rental_uris":{"android":"levelo://app?vid=209a1569-01ac-4fff-97a7-34a29e8a68c2","ios":"levelo://app?vid=209a1569-01ac-4fff-97a7-34a29e8a68c2"},"vehicle_type_id":"4","last_reported":1737752838,"current_range_meters":39200,"station_id":"ce4bhr12rcd13ifvqhqg","pricing_plan_id":"cebpf4jnsgd1na2vs0mg"},{"bike_id":"c7cc5289-5e74-4eeb-a4be-1042ece43e7c","system_id":"levelo_inurba_marseille","lat":43.31689,"lon":5.37803,"is_reserved":false,"is_disabled":false,"rental_uris":{"android":"levelo://app?vid=c7cc5289-5e74-4eeb-a4be-1042ece43e7c","ios":"levelo://app?vid=c7cc5289-5e74-4eeb-a4be-1042ece43e7c"},"vehicle_type_id":"4","last_reported":1737752838,"current_range_meters":36000,"station_id":"ce4bgth2rcd13ifvqch0","pricing_plan_id":"cebpf4jnsgd1na2vs0mg"},{"bike_id":"8d592ad6-5d36-45af-bbcf-3e910c9ec438","system_id":"levelo_inurba_marseille","lat":43.28702,"lon":5.37386,"is_reserved":false,"is_disabled":false,"rental_uris":{"android":"levelo://app?vid=8d592ad6-5d36-45af-bbcf-3e910c9ec438","ios":"levelo://app?vid=8d592ad6-5d36-45af-bbcf-3e910c9ec438"},"vehicle_type_id":"4","last_reported":1737752838,"current_range_meters":24800,"station_id":"ce4bh3p2rcd13ifvqdq0","pricing_plan_id":"cebpf4jnsgd1na2vs0mg"},{"bike_id":"45b366a6-6abc-4401-bb9e-1aee69db2cae","system_id":"levelo_inurba_marseille","lat":43.28083,"lon":5.3966,"is_reserved":false,"is_disabled":false,"rental_uris":{"android":"levelo://app?vid=45b366a6-6abc-4401-bb9e-1aee69db2cae","ios":"levelo://app?vid=45b366a6-6abc-4401-bb9e-1aee69db2cae"},"vehicle_type_id":"4","last_reported":1737752838,"current_range_meters":30400,"station_id":"ce4bho12rcd13ifvqh2g","pricing_plan_id":"cebpf4jnsgd1na2vs0mg"},{"bike_id":"aa54f200-3fc9-43f9-ae65-d4ac497f7007","system_id":"levelo_inurba_marseille","lat":43.24542,"lon":5.39521,"is_reserved":false,"is_disabled":false,"rental_uris":{"android":"levelo://app?vid=aa54f200-3fc9-43f9-ae65-d4ac497f7007","ios":"levelo://app?vid=aa54f200-3fc9-43f9-ae65-d4ac497f7007"},"vehicle_type_id":"4","last_reported":1737752838,"current_range_meters":26800,"station_id":"ce4bhlp2rcd13ifvqgjg","pricing_plan_id":"cebpf4jnsgd1na2vs0mg"},{"bike_id":"c9d20fa4-10ed-4dbb-8422-8fd1c7fd50af","system_id":"levelo_inurba_marseille","lat":43.28348,"lon":5.3809,"is_reserved":false,"is_disabled":false,"rental_uris":{"android":"levelo://app?vid=c9d20fa4-10ed-4dbb-8422-8fd1c7fd50af","ios":"levelo://app?vid=c9d20fa4-10ed-4dbb-8422-8fd1c7fd50af"},"vehicle_type_id":"4","last_reported":1737752838,"current_range_meters":16800,"station_id":"ce4bh412rcd13ifvqdr0","pricing_plan_id":"cebpf4jnsgd1na2vs0mg"},{"bike_id":"76c35dd6-13c7-4986-b7a1-32886dccb724","system_id":"levelo_inurba_marseille","lat":43.30166,"lon":5.38073,"is_reserved":false,"is_disabled":false,"rental_uris":{"android":"levelo://app?vid=76c35dd6-13c7-4986-b7a1-32886dccb724","ios":"levelo://app?vid=76c35dd6-13c7-4986-b7a1-32886dccb724"},"vehicle_type_id":"4","last_reported":1737752838,"current_range_meters":34800,"station_id":"ce4bgjp2rcd13ifvqbh0","pricing_plan_id":"cebpf4jnsgd1na2vs0mg"},{"bike_id":"de0c0827-2602-4849-a3c4-71a6fdb88560","system_id":"levelo_inurba_marseille","lat":43.33039,"lon":5.3905,"is_reserved":false,"is_disabled":false,"rental_uris":{"android":"levelo://app?vid=de0c0827-2602-4849-a3c4-71a6fdb88560","ios":"levelo://app?vid=de0c0827-2602-4849-a3c4-71a6fdb88560"},"vehicle_type_id":"4","last_reported":1737752838,"current_range_meters":28800,"station_id":"ce4bhr92rcd13ifvqhrg","pricing_plan_id":"cebpf4jnsgd1na2vs0mg"},{"bike_id":"f4a67fd7-7ba0-462e-b321-724410a83bc3","system_id":"levelo_inurba_marseille","lat":43.28629,"lon":5.3516,"is_reserved":false,"is_disabled":true,"rental_uris":{"android":"levelo://app?vid=f4a67fd7-7ba0-462e-b321-724410a83bc3","ios":"levelo://app?vid=f4a67fd7-7ba0-462e-b321-724410a83bc3"},"vehicle_type_id":"4","last_reported":1737752838,"current_range_meters":20000,"station_id":"ce4bhch2rcd13ifvqeug","pricing_plan_id":"cebpf4jnsgd1na2vs0mg"},{"bike_id":"841a1767-078e-4378-8ef2-78843610d635","system_id":"levelo_inurba_marseille","lat":43.23199,"lon":5.35538,"is_reserved":false,"is_disabled":false,"rental_uris":{"android":"levelo://app?vid=841a1767-078e-4378-8ef2-78843610d635","ios":"levelo://app?vid=841a1767-078e-4378-8ef2-78843610d635"},"vehicle_type_id":"4","last_reported":1737752838,"current_range_meters":10000,"station_id":"ce4bhu92rcd13ifvqi70","pricing_plan_id":"cebpf4jnsgd1na2vs0mg"},{"bike_id":"d531adb9-2312-4b34-a321-08be0fda69cf","system_id":"levelo_inurba_marseille","lat":43.29554,"lon":5.40016,"is_reserved":false,"is_disabled":true,"rental_uris":{"android":"levelo://app?vid=d531adb9-2312-4b34-a321-08be0fda69cf","ios":"levelo://app?vid=d531adb9-2312-4b34-a321-08be0fda69cf"},"vehicle_type_id":"4","last_reported":1737752838,"current_range_meters":0,"station_id":"ce4bh312rcd13ifvqdj0","pricing_plan_id":"cebpf4jnsgd1na2vs0mg"},{"bike_id":"c17d619f-a14c-4d8a-bf25-d4388086c6f5","system_id":"levelo_inurba_marseille","lat":43.31225,"lon":5.38789,"is_reserved":false,"is_disabled":false,"rental_uris":{"android":"levelo://app?vid=c17d619f-a14c-4d8a-bf25-d4388086c6f5","ios":"levelo://app?vid=c17d619f-a14c-4d8a-bf25-d4388086c6f5"},"vehicle_type_id":"4","last_reported":1737752838,"current_range_meters":35200,"station_id":"ce4bgv12rcd13ifvqcp0","pricing_plan_id":"cebpf4jnsgd1na2vs0mg"},{"bike_id":"71ff8398-5124-48b7-9208-3660fbca47ca","system_id":"levelo_inurba_marseille","lat":43.29262,"lon":5.38436,"is_reserved":false,"is_disabled":false,"rental_uris":{"android":"levelo://app?vid=71ff8398-5124-48b7-9208-3660fbca47ca","ios":"levelo://app?vid=71ff8398-5124-48b7-9208-3660fbca47ca"},"vehicle_type_id":"4","last_reported":1737752838,"current_range_meters":36800,"station_id":"ce4bh692rcd13ifvqea0","pricing_plan_id":"cebpf4jnsgd1na2vs0mg"},{"bike_id":"5fb18942-60c7-4c76-b45a-09d569596110","system_id":"levelo_inurba_marseille","lat":43.30904,"lon":5.36859,"is_reserved":false,"is_disabled":false,"rental_uris":{"android":"levelo://app?vid=5fb18942-60c7-4c76-b45a-09d569596110","ios":"levelo://app?vid=5fb18942-60c7-4c76-b45a-09d569596110"},"vehicle_type_id":"4","last_reported":1737752838,"current_range_meters":39200,"station_id":"ce4bgn92rcd13ifvqbvg","pricing_plan_id":"cebpf4jnsgd1na2vs0mg"},{"bike_id":"a12ae140-7d40-4453-aee3-1f900eeb57d0","system_id":"levelo_inurba_marseille","lat":43.31725,"lon":5.42384,"is_reserved":false,"is_disabled":false,"rental_uris":{"android":"levelo://app?vid=a12ae140-7d40-4453-aee3-1f900eeb57d0","ios":"levelo://app?vid=a12ae140-7d40-4453-aee3-1f900eeb57d0"},"vehicle_type_id":"4","last_reported":1737752838,"current_range_meters":38800,"station_id":"ce4bhp92rcd13ifvqhbg","pricing_plan_id":"cebpf4jnsgd1na2vs0mg"},{"bike_id":"afd53ee7-c48e-4c7a-9b64-51b0a9bab2be","system_id":"levelo_inurba_marseille","lat":43.29872,"lon":5.36379,"is_reserved":false,"is_disabled":false,"rental_uris":{"android":"levelo://app?vid=afd53ee7-c48e-4c7a-9b64-51b0a9bab2be","ios":"levelo://app?vid=afd53ee7-c48e-4c7a-9b64-51b0a9bab2be"},"vehicle_type_id":"4","last_reported":1737752838,"current_range_meters":28000,"station_id":"","pricing_plan_id":"cebpf4jnsgd1na2vs0mg"},{"bike_id":"6d0b57d8-0793-48da-a368-984130c22b5e","system_id":"levelo_inurba_marseille","lat":43.27493,"lon":5.42447,"is_reserved":false,"is_disabled":false,"rental_uris":{"android":"levelo://app?vid=6d0b57d8-0793-48da-a368-984130c22b5e","ios":"levelo://app?vid=6d0b57d8-0793-48da-a368-984130c22b5e"},"vehicle_type_id":"4","last_reported":1737752838,"current_range_meters":14400,"station_id":"ce4bhn92rcd13ifvqgrg","pricing_plan_id":"cebpf4jnsgd1na2vs0mg"},{"bike_id":"2f95791e-70e9-4313-9f23-8419f6f7a3ee","system_id":"levelo_inurba_marseille","lat":43.30586,"lon":5.39346,"is_reserved":false,"is_disabled":false,"rental_uris":{"android":"levelo://app?vid=2f95791e-70e9-4313-9f23-8419f6f7a3ee","ios":"levelo://app?vid=2f95791e-70e9-4313-9f23-8419f6f7a3ee"},"vehicle_type_id":"4","last_reported":1737752838,"current_range_meters":22800,"station_id":"ce4bh0p2rcd13ifvqd80","pricing_plan_id":"cebpf4jnsgd1na2vs0mg"},{"bike_id":"0683b8fa-bf66-4a85-b23f-305b1ef8e2c5","system_id":"levelo_inurba_marseille","lat":43.29896,"lon":5.43659,"is_reserved":false,"is_disabled":true,"rental_uris":{"android":"levelo://app?vid=0683b8fa-bf66-4a85-b23f-305b1ef8e2c5","ios":"levelo://app?vid=0683b8fa-bf66-4a85-b23f-305b1ef8e2c5"},"vehicle_type_id":"4","last_reported":1737752838,"current_range_meters":0,"station_id":"ce4bhpp2rcd13ifvqhfg","pricing_plan_id":"cebpf4jnsgd1na2vs0mg"},{"bike_id":"adce305b-52ab-48ed-b869-88a382f8d738","system_id":"levelo_inurba_marseille","lat":43.240715,"lon":5.377622,"is_reserved":false,"is_disabled":false,"rental_uris":{"android":"levelo://app?vid=adce305b-52ab-48ed-b869-88a382f8d738","ios":"levelo://app?vid=adce305b-52ab-48ed-b869-88a382f8d738"},"vehicle_type_id":"4","last_reported":1737752838,"current_range_meters":31200,"station_id":"ce4bhnp2rcd13ifvqgvg","pricing_plan_id":"cebpf4jnsgd1na2vs0mg"},{"bike_id":"6ed35c01-0d33-41cd-b624-0252edd72fae","system_id":"levelo_inurba_marseille","lat":43.29718,"lon":5.36622,"is_reserved":false,"is_disabled":false,"rental_uris":{"android":"levelo://app?vid=6ed35c01-0d33-41cd-b624-0252edd72fae","ios":"levelo://app?vid=6ed35c01-0d33-41cd-b624-0252edd72fae"},"vehicle_type_id":"4","last_reported":1737752838,"current_range_meters":29600,"station_id":"ce4bgn12rcd13ifvqbt0","pricing_plan_id":"cebpf4jnsgd1na2vs0mg"},{"bike_id":"c6b4fa09-f074-451a-b874-faf58e9e6dc6","system_id":"levelo_inurba_marseille","lat":43.29301,"lon":5.37169,"is_reserved":false,"is_disabled":false,"rental_uris":{"android":"levelo://app?vid=c6b4fa09-f074-451a-b874-faf58e9e6dc6","ios":"levelo://app?vid=c6b4fa09-f074-451a-b874-faf58e9e6dc6"},"vehicle_type_id":"4","last_reported":1737752838,"current_range_meters":6800,"station_id":"ce4bgh92rcd13ifvqb40","pricing_plan_id":"cebpf4jnsgd1na2vs0mg"},{"bike_id":"eac48946-bfee-43f8-8271-156279da547b","system_id":"levelo_inurba_marseille","lat":43.29424,"lon":5.38602,"is_reserved":false,"is_disabled":false,"rental_uris":{"android":"levelo://app?vid=eac48946-bfee-43f8-8271-156279da547b","ios":"levelo://app?vid=eac48946-bfee-43f8-8271-156279da547b"},"vehicle_type_id":"4","last_reported":1737752838,"current_range_meters":35200,"station_id":"ce4bh2h2rcd13ifvqdh0","pricing_plan_id":"cebpf4jnsgd1na2vs0mg"},