{"last_updated":1733915265,"ttl":60,"version":"2.2","data":{"bikes":[{"bike_id":"543cf28c-73a2-4ac0-be91-76cda8e4523c","system_id":"levelo_inurba_marseille","lat":43.24715,"lon":5.38207,"is_reserved":false,"is_disabled":false,"rental_uris":{"android":"levelo://app?vid=543cf28c-73a2-4ac0-be91-76cda8e4523c","ios":"levelo://app?vid=543cf28c-73a2-4ac0-be91-76cda8e4523c"},"vehicle_type_id":"4","last_reported":1733915265,"current_range_meters":38800,"station_id":"","pricing_plan_id":"cebpf4jnsgd1na2vs0mg"},{"bike_id":"09183cc6-6364-47a9-a9c9-034bdfa6c43c","system_id":"levelo_inurba_marseille","lat":43.2827,"lon":5.35075,"is_reserved":false,"is_disabled":false,"rental_uris":{"android":"levelo://app?vid=09183cc6-6364-47a9-a9c9-034bdfa6c43c","ios":"levelo://app?vid=09183cc6-6364-47a9-a9c9-034bdfa6c43c"},"vehicle_type_id":"4","last_reported":1733915265,"current_range_meters":39200,"station_id":"ce4bhbp2rcd13ifvqerg","pricing_plan_id":"cebpf4jnsgd1na2vs0mg"},{"bike_id":"2877d6a1-306d-4afd-8fb0-2a4029d5651b","system_id":"levelo_inurba_marseille","lat":43.337444,"lon":5.374475,"is_reserved":false,"is_disabled":false,"rental_uris":{"android":"levelo://app?vid=2877d6a1-306d-4afd-8fb0-2a4029d5651b","ios":"levelo://app?vid=2877d6a1-306d-4afd-8fb0-2a4029d5651b"},"vehicle_type_id":"4","last_reported":1733915265,"current_range_meters":15200,"station_id":"ce4bgj92rcd13ifvqbe0","pricing_plan_id":"cebpf4jnsgd1na2vs0mg"},{"bike_id":"15b6f56a-fad1-4f70-a7fb-6fe1c65798e2","system_id":"levelo_inurba_marseille","lat":43.32472,"lon":5.36563,"is_reserved":false,"is_disabled":false,"rental_uris":{"android":"levelo://app?vid=15b6f56a-fad1-4f70-a7fb-6fe1c65798e2","ios":"levelo://app?vid=15b6f56a-fad1-4f70-a7fb-6fe1c65798e2"},"vehicle_type_id":"4","last_reported":1733915265,"current_range_meters":39200,"station_id":"ce4bhs12rcd13ifvqhvg","pricing_plan_id":"cebpf4jnsgd1na2vs0mg"},{"bike_id":"b266efff-3a14-4d1a-a25a-c68ad062a1f4","system_id":"levelo_inurba_marseille","lat":43.24166,"lon":5.36384,"is_reserved":false,"is_disabled":false,"rental_uris":{"android":"levelo://app?vid=b266efff-3a14-4d1a-a25a-c68ad062a1f4","ios":"levelo://app?vid=b266efff-3a14-4d1a-a25a-c68ad062a1f4"},"vehicle_type_id":"4","last_reported":1733915265,"current_range_meters":9600,"station_id":"cpo36qri1sfpv3e86is0","pricing_plan_id":"cebpf4jnsgd1na2vs0mg"},{"bike_id":"9bc0a5cc-dfff-49db-a351-357b9f68553c","system_id":"levelo_inurba_marseille","lat":43.26051,"lon":5.39406,"is_reserved":false,"is_disabled":false,"rental_uris":{"android":"levelo://app?vid=9bc0a5cc-dfff-49db-a351-357b9f68553c","ios":"levelo://app?vid=9bc0a5cc-dfff-49db-a351-357b9f68553c"},"vehicle_type_id":"4","last_reported":1733915265,"current_range_meters":29600,"station_id":"ce4bhh92rcd13ifvqfj0","pricing_plan_id":"cebpf4jnsgd1na2vs0mg"},{"bike_id":"b2c86212-c727-400f-9721-580b0be597f6","system_id":"levelo_inurba_marseille","lat":43.30469,"lon":5.37907,"is_reserved":false,"is_disabled":false,"rental_uris":{"android":"levelo://app?vid=b2c86212-c727-400f-9721-580b0be597f6","ios":"levelo://app?vid=b2c86212-c727-400f-9721-580b0be597f6"},"vehicle_type_id":"4","last_reported":1733915265,"current_range_meters":34000,"station_id":"ce4bgup2rcd13ifvqcn0","pricing_plan_id":"cebpf4jnsgd1na2vs0mg"},{"bike_id":"21a7376e-5c33-4a56-91a8-da4065619153","system_id":"levelo_inurba_marseille","lat":43.30132,"lon":5.37405,"is_reserved":false,"is_disabled":false,"rental_uris":{"android":"levelo://app?vid=21a7376e-5c33-4a56-91a8-da4065619153","ios":"levelo://app?vid=21a7376e-5c33-4a56-91a8-da4065619153"},"vehicle_type_id":"4","last_reported":1733915265,"current_range_meters":24400,"station_id":"ce4bgs92rcd13ifvqcc0","pricing_plan_id":"cebpf4jnsgd1na2vs0mg"},{"bike_id":"980f96eb-32c9-4906-98f6-c44dbf4c84a1","system_id":"levelo_inurba_marseille","lat":43.27455,"lon":5.40073,"is_reserved":false,"is_disabled":true,"rental_uris":{"android":"levelo://app?vid=980f96eb-32c9-4906-98f6-c44dbf4c84a1","ios":"levelo://app?vid=980f96eb-32c9-4906-98f6-c44dbf4c84a1"},"vehicle_type_id":"4","last_reported":1733915265,"current_range_meters":0,"station_id":"","pricing_plan_id":"cebpf4jnsgd1na2vs0mg"},{"bike_id":"6b6689b2-3111-402f-abcd-bd92f86de8f2","system_id":"levelo_inurba_marseille","lat":43.27066,"lon":5.42284,"is_reserved":false,"is_disabled":false,"rental_uris":{"android":"levelo://app?vid=6b6689b2-3111-402f-abcd-bd92f86de8f2","ios":"levelo://app?vid=6b6689b2-3111-402f-abcd-bd92f86de8f2"},"vehicle_type_id":"4","last_reported":1733915265,"current_range_meters":26000,"station_id":"ce4bhk92rcd13ifvqgb0","pricing_plan_id":"cebpf4jnsgd1na2vs0mg"},{"bike_id":"aefa309a-664c-4ad8-bfe1-7aab5e3d7a0d","system_id":"levelo_inurba_marseille","lat":43.30911,"lon":5.36852,"is_reserved":false,"is_disabled":false,"rental_uris":{"android":"levelo://app?vid=aefa309a-664c-4ad8-bfe1-7aab5e3d7a0d","ios":"levelo://app?vid=aefa309a-664c-4ad8-bfe1-7aab5e3d7a0d"},"vehicle_type_id":"4","last_reported":1733915265,"current_range_meters":34000,"station_id":"ce4bgn92rcd13ifvqbvg","pricing_plan_id":"cebpf4jnsgd1na2vs0mg"},{"bike_id":"cd6cd027-4d93-47e9-97e7-035623b25926","system_id":"levelo_inurba_marseille","lat":43.337444,"lon":5.374475,"is_reserved":false,"is_disabled":true,"rental_uris":{"android":"levelo://app?vid=cd6cd027-4d93-47e9-97e7-035623b25926","ios":"levelo://app?vid=cd6cd027-4d93-47e9-97e7-035623b25926"},"vehicle_type_id":"4","last_reported":1733915265,"current_range_meters":29600,"station_id":"ce4bhoh2rcd13ifvqh5g","pricing_plan_id":"cebpf4jnsgd1na2vs0mg"},{"bike_id":"5d9ac27a-a99f-4dee-983d-e44be0471cd5","system_id":"levelo_inurba_marseille","lat":43.33573,"lon":5.39899,"is_reserved":false,"is_disabled":false,"rental_uris":{"android":"levelo://app?vid=5d9ac27a-a99f-4dee-983d-e44be0471cd5","ios":"levelo://app?vid=5d9ac27a-a99f-4dee-983d-e44be0471cd5"},"vehicle_type_id":"4","last_reported":1733915265,"current_range_meters":32000,"station_id":"","pricing_plan_id":"cebpf4jnsgd1na2vs0mg"},{"bike_id":"e09af717-17bd-4ac0-a5f6-3d912704d732","system_id":"levelo_inurba_marseille","lat":43.26209,"lon":5.37443,"is_reserved":false,"is_disabled":false,"rental_uris":{"android":"levelo://app?vid=e09af717-17bd-4ac0-a5f6-3d912704d732","ios":"levelo://app?vid=e09af717-17bd-4ac0-a5f6-3d912704d732"},"vehicle_type_id":"4","last_reported":1733915265,"current_range_meters":17200,"station_id":"ce4bhgp2rcd13ifvqfc0","pricing_plan_id":"cebpf4jnsgd1na2vs0mg"},{"bike_id":"0464b665-516c-4517-9206-9651ecc60ccf","system_id":"levelo_inurba_marseille","lat":43.27495,"lon":5.42449,"is_reserved":false,"is_disabled":false,"rental_uris":{"android":"levelo://app?vid=0464b665-516c-4517-9206-9651ecc60ccf","ios":"levelo://app?vid=0464b665-516c-4517-9206-9651ecc60ccf"},"vehicle_type_id":"4","last_reported":1733915265,"current_range_meters":33600,"station_id":"ce4bhn92rcd13ifvqgrg","pricing_plan_id":"cebpf4jnsgd1na2vs0mg"},{"bike_id":"0a731ad1-9472-4ee6-8424-bb6823427d23","system_id":"levelo_inurba_marseille","lat":43.2895,"lon":5.3663,"is_reserved":false,"is_disabled":true,"rental_uris":{"android":"levelo://app?vid=0a731ad1-9472-4ee6-8424-bb6823427d23","ios":"levelo://app?vid=0a731ad1-9472-4ee6-8424-bb6823427d23"},"vehicle_type_id":"4","last_reported":1733915265,"current_range_meters":0,"station_id":"ce4bhap2rcd13ifvqek0","pricing_plan_id":"cebpf4jnsgd1na2vs0mg"},{"bike_id":"af34e792-3db5-4a26-aeee-b4a0ff576cbd","system_id":"levelo_inurba_marseille","lat":43.31267,"lon":5.40171,"is_reserved":false,"is_disabled":false,"rental_uris":{"android":"levelo://app?vid=af34e792-3db5-4a26-aeee-b4a0ff576cbd","ios":"levelo://app?vid=af34e792-3db5-4a26-aeee-b4a0ff576cbd"},"vehicle_type_id":"4","last_reported":1733915265,"current_range_meters":38800,"station_id":"ce4bh092rcd13ifvqd30","pricing_plan_id":"cebpf4jnsgd1na2vs0mg"},{"bike_id":"fd71dd19-9a3b-4ab7-8622-bc8844396964","system_id":"levelo_inurba_marseille","lat":43.30147,"lon":5.37403,"is_reserved":false,"is_disabled":false,"rental_uris":{"android":"levelo://app?vid=fd71dd19-9a3b-4ab7-8622-bc8844396964","ios":"levelo://app?vid=fd71dd19-9a3b-4ab7-8622-bc8844396964"},"vehicle_type_id":"4","last_reported":1733915265,"current_range_meters":24000,"station_id":"ce4bgs92rcd13ifvqcc0","pricing_plan_id":"cebpf4jnsgd1na2vs0mg"},{"bike_id":"a1532198-9e5b-463d-a558-ef8f42f55408","system_id":"levelo_inurba_marseille","lat":43.31711,"lon":5.40454,"is_reserved":false,"is_disabled":false,"rental_uris":{"android":"levelo://app?vid=a1532198-9e5b-463d-a558-ef8f42f55408","ios":"levelo://app?vid=a1532198-9e5b-463d-a558-ef8f42f55408"},"vehicle_type_id":"4","last_reported":1733915265,"current_range_meters":16000,"station_id":"ce4bh012rcd13ifvqd00","pricing_plan_id":"cebpf4jnsgd1na2vs0mg"},{"bike_id":"00ed3dce-ec8d-4122-8c6c-f6e211f7140f","system_id":"levelo_inurba_marseille","lat":43.31376,"lon":5.36742,"is_reserved":false,"is_disabled":false,"rental_uris":{"android":"levelo://app?vid=00ed3dce-ec8d-4122-8c6c-f6e211f7140f","ios":"levelo://app?vid=00ed3dce-ec8d-4122-8c6c-f6e211f7140f"},"vehicle_type_id":"4","last_reported":1733915265,"current_range_meters":38800,"station_id":"ce4bgr92rcd13ifvqc6g","pricing_plan_id":"cebpf4jnsgd1na2vs0mg"},{"bike_id":"7557af02-e734-445e-ab17-ea0d7e4663a2","system_id":"levelo_inurba_marseille","lat":43.26932,"lon":5.38921,"is_reserved":false,"is_disabled":false,"rental_uris":{"android":"levelo://app?vid=7557af02-e734-445e-ab17-ea0d7e4663a2","ios":"levelo://app?vid=7557af02-e734-445e-ab17-ea0d7e4663a2"},"vehicle_type_id":"4","last_reported":1733915265,"current_range_meters":20800,"station_id":"ce4bhhh2rcd13ifvqfl0","pricing_plan_id":"cebpf4jnsgd1na2vs0mg"},{"bike_id":"aace0a98-1fe2-4d9a-bb81-df0087c7e6b5","system_id":"levelo_inurba_marseille","lat":43.2466,"lon":5.38159,"is_reserved":false,"is_disabled":false,"rental_uris":{"android":"levelo://app?vid=aace0a98-1fe2-4d9a-bb81-df0087c7e6b5","ios":"levelo://app?vid=aace0a98-1fe2-4d9a-bb81-df0087c7e6b5"},"vehicle_type_id":"4","last_reported":1733915265,"current_range_meters":37600,"station_id":"ce4bhih2rcd13ifvqfr0","pricing_plan_id":"cebpf4jnsgd1na2vs0mg"},{"bike_id":"1b502474-2e11-43a3-922a-75f5113deb81","system_id":"levelo_inurba_marseille","lat":43.25941,"lon":5.40901,"is_reserved":false,"is_disabled":false,"rental_uris":{"android":"levelo://app?vid=1b502474-2e11-43a3-922a-75f5113deb81","ios":"levelo://app?vid=1b502474-2e11-43a3-922a-75f5113deb81"},"vehicle_type_id":"4","last_reported":1733915265,"current_range_meters":28800,"station_id":"ce4bhm92rcd13ifvqglg","pricing_plan_id":"cebpf4jnsgd1na2vs0mg"},{"bike_id":"fe4cab58-ba30-4c78-b62f-d4434eea7628","system_id":"levelo_inurba_marseille","lat":43.29438,"lon":5.39757,"is_reserved":false,"is_disabled":true,"rental_uris":{"android":"levelo://app?vid=fe4cab58-ba30-4c78-b62f-d4434eea7628","ios":"levelo://app?vid=fe4cab58-ba30-4c78-b62f-d4434eea7628"},"vehicle_type_id":"4","last_reported":1733915265,"current_range_meters":36000,"station_id":"ce4bh3h2rcd13ifvqdo0","pricing_plan_id":"cebpf4jnsgd1na2vs0mg"},{"bike_id":"187a9cac-9fe7-4437-bc4f-beab8d1e51ae","system_id":"levelo_inurba_marseille","lat":43.29556,"lon":5.42281,"is_reserved":false,"is_disabled":false,"rental_uris":{"android":"levelo://app?vid=187a9cac-9fe7-4437-bc4f-beab8d1e51ae","ios":"levelo://app?vid=187a9cac-9fe7-4437-bc4f-beab8d1e51ae"},"vehicle_type_id":"4","last_reported":1733915265,"current_range_meters":39200,"station_id":"ce4bhph2rcd13ifvqhdg","pricing_plan_id":"cebpf4jnsgd1na2vs0mg"},{"bike_id":"2a70adcf-0b41-472c-b918-982fff1d1f02","system_id":"levelo_inurba_marseille","lat":43.31541,"lon":5.36509,"is_reserved":false,"is_disabled":false,"rental_uris":{"android":"levelo://app?vid=2a70adcf-0b41-472c-b918-982fff1d1f02","ios":"levelo://app?vid=2a70adcf-0b41-472c-b918-982fff1d1f02"},"vehicle_type_id":"4","last_reported":1733915265,"current_range_meters":39200,"station_id":"","pricing_plan_id":"cebpf4jnsgd1na2vs0mg"},{"bike_id":"d94b4469-8fc0-435e-a8a5-dea409dbc022","system_id":"levelo_inurba_marseille","lat":43.31322,"lon":5.36647,"is_reserved":false,"is_disabled":true,"rental_uris":{"android":"levelo://app?vid=d94b4469-8fc0-435e-a8a5-dea409dbc022","ios":"levelo://app?vid=d94b4469-8fc0-435e-a8a5-dea409dbc022"},"vehicle_type_id":"4","last_reported":1733915265,"current_range_meters":0,"station_id":"","pricing_plan_id":"cebpf4jnsgd1na2vs0mg"},{"bike_id":"d8f77993-2d21-41cc-9ecf-407f3d2ac666","system_id":"levelo_inurba_marseille","lat":43.33022,"lon":5.39035,"is_reserved":false,"is_disabled":false,"rental_uris":{"android":"levelo://app?vid=d8f77993-2d21-41cc-9ecf-407f3d2ac666","ios":"levelo://app?vid=d8f77993-2d21-41cc-9ecf-407f3d2ac666"},"vehicle_type_id":"4","last_reported":1733915265,"current_range_meters":24800,"station_id":"ce4bhr92rcd13ifvqhrg","pricing_plan_id":"cebpf4jnsgd1na2vs0mg"},{"bike_id":"8979b88b-e0c9-465c-b920-54c929607786","system_id":"levelo_inurba_marseille","lat":43.30915,"lon":5.36894,"is_reserved":false,"is_disabled":false,"rental_uris":{"android":"levelo://app?vid=8979b88b-e0c9-465c-b920-54c929607786","ios":"levelo://app?vid=8979b88b-e0c9-465c-b920-54c929607786"},"vehicle_type_id":"4","last_reported":1733915265,"current_range_meters":20800,"station_id":"ce4bgn92rcd13ifvqbvg","pricing_plan_id":"cebpf4jnsgd1na2vs0mg"},{"bike_id":"77090a46-efdb-4ee1-ab28-d179b220f544","system_id":"levelo_inurba_marseille","lat":43.2797,"lon":5.38768,"is_reserved":false,"is_disabled":false,"rental_uris":{"android":"levelo://app?vid=77090a46-efdb-4ee1-ab28-d179b220f544","ios":"levelo://app?vid=77090a46-efdb-4ee1-ab28-d179b220f544"},"vehicle_type_id":"4","last_reported":1733915265,"current_range_meters":20000,"station_id":"ce4bhg12rcd13ifvqf80","pricing_plan_id":"cebpf4jnsgd1na2vs0mg"},{"bike_id":"0ca11bdb-24f6-4d51-8143-3268ce2598c7","system_id":"levelo_inurba_marseille","lat":43.24545,"lon":5.39523,"is_reserved":false,"is_disabled":true,"rental_uris":{"android":"levelo://app?vid=0ca11bdb-24f6-4d51-8143-3268ce2598c7","ios":"levelo://app?vid=0ca11bdb-24f6-4d51-8143-3268ce2598c7"},"vehicle_type_id":"4","last_reported":1733915265,"current_range_meters":0,"station_id":"ce4bhlp2rcd13ifvqgjg","pricing_plan_id":"cebpf4jnsgd1na2vs0mg"},{"bike_id":"eaa5756b-7d04-477a-b759-0c566d61850d","system_id":"levelo_inurba_marseille","lat":43.27989,"lon":5.40023,"is_reserved":false,"is_disabled":true,"rental_uris":{"android":"levelo://app?vid=eaa5756b-7d04-477a-b759-0c566d61850d","ios":"levelo://app?vid=eaa5756b-7d04-477a-b759-0c566d61850d"},"vehicle_type_id":"4","last_reported":1733915265,"current_range_meters":37600,"station_id":"ce4bho92rcd13ifvqh4g","pricing_plan_id":"cebpf4jnsgd1na2vs0mg"},{"bike_id":"03854ab6-9f42-4955-b580-421cf978eeb8","system_id":"levelo_inurba_marseille","lat":43.32478,"lon":5.36559,"is_reserved":false,"is_disabled":false,"rental_uris":{"android":"levelo://app?vid=03854ab6-9f42-4955-b580-421cf978eeb8","ios":"levelo://app?vid=03854ab6-9f42-4955-b580-421cf978eeb8"},"vehicle_type_id":"4","last_reported":1733915265,"current_range_meters":16800,"station_id":"ce4bhs12rcd13ifvqhvg","pricing_plan_id":"cebpf4jnsgd1na2vs0mg"},{"bike_id":"c85f036b-31a5-4275-81fb-651d87f33f09","system_id":"levelo_inurba_marseille","lat":43.25465,"lon":5.3819,"is_reserved":false,"is_disabled":false,"rental_uris":{"android":"levelo://app?vid=c85f036b-31a5-4275-81fb-651d87f33f09","ios":"levelo://app?vid=c85f036b-31a5-4275-81fb-651d87f33f09"},"vehicle_type_id":"4","last_reported":1733915265,"current_range_meters":38000,"station_id":"","pricing_plan_id":"cebpf4jnsgd1na2vs0mg"},{"bike_id":"33310cb4-4426-4da2-bcf7-35aced00849d","system_id":"levelo_inurba_marseille","lat":43.30479,"lon":5.37905,"is_reserved":false,"is_disabled":false,"rental_uris":{"android":"levelo://app?vid=33310cb4-4426-4da2-bcf7-35aced00849d","ios":"levelo://app?vid=33310cb4-4426-4da2-bcf7-35aced00849d"},"vehicle_type_id":"4","last_reported":1733915265,"current_range_meters":30000,"station_id":"ce4bgup2rcd13ifvqcn0","pricing_plan_id":"cebpf4jnsgd1na2vs0mg"},{"bike_id":"2cbb7eea-3dcb-41d0-809e-24f454a1c1c7","system_id":"levelo_inurba_marseille","lat":43.30126,"lon":5.38142,"is_reserved":false,"is_disabled":true,"rental_uris":{"android":"levelo://app?vid=2cbb7eea-3dcb-41d0-809e-24f454a1c1c7","ios":"levelo://app?vid=2cbb7eea-3dcb-41d0-809e-24f454a1c1c7"},"vehicle_type_id":"4","last_reported":1733915265,"current_range_meters":23200,"station_id":"ce4bgjp2rcd13ifvqbh0","pricing_plan_id":"cebpf4jnsgd1na2vs0mg"},{"bike_id":"90324b92-2d52-4f43-bd59-91b2038c3497","system_id":"levelo_inurba_marseille","lat":43.28933,"lon":5.36624,"is_reserved":false,"is_disabled":true,"rental_uris":{"android":"levelo://app?vid=90324b92-2d52-4f43-bd59-91b2038c3497","ios":"levelo://app?vid=90324b92-2d52-4f43-bd59-91b2038c3497"},"vehicle_type_id":"4","last_reported":1733915265,"current_range_meters":30800,"station_id":"ce4bhap2rcd13ifvqek0","pricing_plan_id":"cebpf4jnsgd1na2vs0mg"},{"bike_id":"026689a6-bc42-4366-827e-f725c1c9582f","system_id":"levelo_inurba_marseille","lat":43.30535,"lon":5.36723,"is_reserved":false,"is_disabled":false,"rental_uris":{"android":"levelo://app?vid=026689a6-bc42-4366-827e-f725c1c9582f","ios":"levelo://app?vid=026689a6-bc42-4366-827e-f725c1c9582f"},"vehicle_type_id":"4","last_reported":1733915265,"current_range_meters":39200,"station_id":"ce4bgrp2rcd13ifvqc9g","pricing_plan_id":"cebpf4jnsgd1na2vs0mg"},{"bike_id":"a1c2765b-a389-475f-98da-f62559649570","system_id":"levelo_inurba_marseille","lat":43.31359,"lon":5.38492,"is_reserved":false,"is_disabled":false,"rental_uris":{"android":"levelo://app?vid=a1c2765b-a389-475f-98da-f62559649570","ios":"levelo://app?vid=a1c2765b-a389-475f-98da-f62559649570"},"vehicle_type_id":"4","last_reported":1733915265,"current_range_meters":26800,"station_id":"ce4bgt92rcd13ifvqcf0","pricing_plan_id":"cebpf4jnsgd1na2vs0mg"},{"bike_id":"aed0c859-6c8e-47d5-add3-5686e5a57a0f","system_id":"levelo_inurba_marseille","lat":43.29909,"lon":5.38136,"is_reserved":false,"is_disabled":false,"rental_uris":{"android":"levelo://app?vid=aed0c859-6c8e-47d5-add3-5686e5a57a0f","ios":"levelo://app?vid=aed0c859-6c8e-47d5-add3-5686e5a57a0f"},"vehicle_type_id":"4","last_reported":1733915265,"current_range_meters":26000,"station_id":"ce4bgj12rcd13ifvqbc0","pricing_plan_id":"cebpf4jnsgd1na2vs0mg"},{"bike_id":"6faa6ee7-a588-4286-8e0c-a7deeaae5bab","system_id":"levelo_inurba_marseille","lat":43.27367,"lon":5.36268,"is_reserved":false,"is_disabled":false,"rental_uris":{"android":"levelo://app?vid=6faa6ee7-a588-4286-8e0c-a7deeaae5bab","ios":"levelo://app?vid=6faa6ee7-a588-4286-8e0c-a7deeaae5bab"},"vehicle_type_id":"4","last_reported":1733915265,"current_range_meters":38800,"station_id":"ce4bhbh2rcd13ifvqeo0","pricing_plan_id":"cebpf4jnsgd1na2vs0mg"},{"bike_id":"2b32d8e2-0f3f-4ab9-9385-c4610a3af426","system_id":"levelo_inurba_marseille","lat":43.33624,"lon":5.41038,"is_reserved":false,"is_disabled":false,"rental_uris":{"android":"levelo://app?vid=2b32d8e2-0f3f-4ab9-9385-c4610a3af426","ios":"levelo://app?vid=2b32d8e2-0f3f-4ab9-9385-c4610a3af426"},"vehicle_type_id":"4","last_reported":1733915265,"current_range_meters":30800,"station_id":"ce4bhqh2rcd13ifvqhmg","pricing_plan_id":"cebpf4jnsgd1na2vs0mg"},{"bike_id":"30b7f7b0-cffb-44e8-9e23-86428fe1183d","system_id":"levelo_inurba_marseille","lat":43.23065,"lon":5.35491,"is_reserved":false,"is_disabled":false,"rental_uris":{"android":"levelo://app?vid=30b7f7b0-cffb-44e8-9e23-86428fe1183d","ios":"levelo://app?vid=30b7f7b0-cffb-44e8-9e23-86428fe1183d"},"vehicle_type_id":"4","last_reported":1733915265,"current_range_meters":14400,"station_id":"cpo3342slgdg3j2ifvpg","pricing_plan_id":"cebpf4jnsgd1na2vs0mg"},{"bike_id":"a10b0f72-bc3c-41a7-9adc-1d3b81e81155","system_id":"levelo_inurba_marseille","lat":43.33022,"lon":5.39034,"is_reserved":false,"is_disabled":false,"rental_uris":{"android":"levelo://app?vid=a10b0f72-bc3c-41a7-9adc-1d3b81e81155","ios":"levelo://app?vid=a10b0f72-bc3c-41a7-9adc-1d3b81e81155"},"vehicle_type_id":"4","last_reported":1733915265,"current_range_meters":39200,"station_id":"ce4bhr92rcd13ifvqhrg","pricing_plan_id":"cebpf4jnsgd1na2vs0mg"},{"bike_id":"3525db53-1a03-423d-94da-dfa27d380ac3","system_id":"levelo_inurba_marseille","lat":43.25946,"lon":5.39871,"is_reserved":false,"is_disabled":false,"rental_uris":{"android":"levelo://app?vid=3525db53-1a03-423d-94da-dfa27d380ac3","ios":"levelo://app?vid=3525db53-1a03-423d-94da-dfa27d380ac3"},"vehicle_type_id":"4","last_reported":1733915265,"current_range_meters":34800,"station_id":"ce4bhl92rcd13ifvqghg","pricing_plan_id":"cebpf4jnsgd1na2vs0mg"},{"bike_id":"7b3bffb5-4b33-4dca-845f-6844b1f85044","system_id":"levelo_inurba_marseille","lat":43.30492,"lon":5.37919,"is_reserved":false,"is_disabled":false,"rental_uris":{"android":"levelo://app?vid=7b3bffb5-4b33-4dca-845f-6844b1f85044","ios":"levelo://app?vid=7b3bffb5-4b33-4dca-845f-6844b1f85044"},"vehicle_type_id":"4","last_reported":1733915265,"current_range_meters":35600,"station_id":"ce4bgup2rcd13ifvqcn0","pricing_plan_id":"cebpf4jnsgd1na2vs0mg"},{"bike_id":"ebc1a822-405c-41f3-9677-cf898ce3c84f","system_id":"levelo_inurba_marseille","lat":43.31236,"lon":5.3686,"is_reserved":false,"is_disabled":false,"rental_uris":{"android":"levelo://app?vid=ebc1a822-405c-41f3-9677-cf898ce3c84f","ios":"levelo://app?vid=ebc1a822-405c-41f3-9677-cf898ce3c84f"},"vehicle_type_id":"4","last_reported":1733915265,"current_range_meters":20400,"station_id":"ce4bgl92rcd13ifvqbq0","pricing_plan_id":"cebpf4jnsgd1na2vs0mg"},{"bike_id":"7b5b3e0f-fd58-45e5-a8c9-92cd621e2928","system_id":"levelo_inurba_marseille","lat":43.29097,"lon":5.38136,"is_reserved":false,"is_disabled":false,"rental_uris":{"android":"levelo://app?vid=7b5b3e0f-fd58-45e5-a8c9-92cd621e2928","ios":"levelo://app?vid=7b5b3e0f-fd58-45e5-a8c9-92cd621e2928"},"vehicle_type_id":"4","last_reported":1733915265,"current_range_meters":16400,"station_id":"ce4bh512rcd13ifvqe2g","pricing_plan_id":"cebpf4jnsgd1na2vs0mg"},{"bike_id":"b4f081a8-899f-4839-ae3a-a68bf5332f14","system_id":"levelo_inurba_marseille","lat":43.30153,"lon":5.38075,"is_reserved":false,"is_disabled":false,"rental_uris":{"android":"levelo://app?vid=b4f081a8-899f-4839-ae3a-a68bf5332f14","ios":"levelo://app?vid=b4f081a8-899f-4839-ae3a-a68bf5332f14"},"vehicle_type_id":"4","last_reported":1733915265,"current_range_meters":36800,"station_id":"ce4bgjp2rcd13ifvqbh0","pricing_plan_id":"cebpf4jnsgd1na2vs0mg"},{"bike_id":"2e36a5ec-85ce-44ac-a1d9-54a8e609efa1","system_id":"levelo_inurba_marseille","lat":43.24158,"lon":5.3641,"is_reserved":false,"is_disabled":false,"rental_uris":{"android":"levelo://app?vid=2e36a5ec-85ce-44ac-a1d9-54a8e609efa1","ios":"levelo://app?vid=2e36a5ec-85ce-44ac-a1d9-54a8e609efa1"},"vehicle_type_id":"4","last_reported":1733915265,"current_range_meters":17200,"station_id":"cpo36qri1sfpv3e86is0","pricing_plan_id":"cebpf4jnsgd1na2vs0mg"},{"bike_id":"f4eed1a7-3802-4a6e-adcc-820cb8890f67","system_id":"levelo_inurba_marseille","lat":43.31234,"lon":5.36857,"is_reserved":false,"is_disabled":false,"rental_uris":{"android":"levelo://app?vid=f4eed1a7-3802-4a6e-adcc-820cb8890f67","ios":"levelo://app?vid=f4eed1a7-3802-4a6e-adcc-820cb8890f67"},"vehicle_type_id":"4","last_reported":1733915265,"current_range_meters":26800,"station_id":"ce4bgl92rcd13ifvqbq0","pricing_plan_id":"cebpf4jnsgd1na2vs0mg"},{"bike_id":"0f17d2c4-bf96-42e6-978b-f52d4d5288cd","system_id":"levelo_inurba_marseille","lat":43.30318,"lon":5.40441,"is_reserved":false,"is_disabled":true,"rental_uris":{"android":"levelo://app?vid=0f17d2c4-bf96-42e6-978b-f52d4d5288cd","ios":"levelo://app?vid=0f17d2c4-bf96-42e6-978b-f52d4d5288cd"},"vehicle_type_id":"4","last_reported":1733915265,"current_range_meters":34800,"station_id":"ce4bh012rcd13ifvqd10","pricing_plan_id":"cebpf4jnsgd1na2vs0mg"},{"bike_id":"055ecd6d-eb29-427a-91ef-ded7a467b1be","system_id":"levelo_inurba_marseille","lat":43.28444,"lon":5.39186,"is_reserved":false,"is_disabled":true,"rental_uris":{"android":"levelo://app?vid=055ecd6d-eb29-427a-91ef-ded7a467b1be","ios":"levelo://app?vid=055ecd6d-eb29-427a-91ef-ded7a467b1be"},"vehicle_type_id":"4","last_reported":1733915265,"current_range_meters":36400,"station_id":"ce4bhoh2rcd13ifvqh5g","pricing_plan_id":"cebpf4jnsgd1na2vs0mg"},{"bike_id":"7644fc94-32f5-49d2-9b18-09c59126630e","system_id":"levelo_inurba_marseille","lat":43.26063,"lon":5.39392,"is_reserved":false,"is_disabled":false,"rental_uris":{"android":"levelo://app?vid=7644fc94-32f5-49d2-9b18-09c59126630e","ios":"levelo://app?vid=7644fc94-32f5-49d2-9b18-09c59126630e"},"vehicle_type_id":"4","last_reported":1733915265,"current_range_meters":38800,"station_id":"ce4bhh92rcd13ifvqfj0","pricing_plan_id":"cebpf4jnsgd1na2vs0mg"},{"bike_id":"43036b2e-2f8e-4c24-8b83-be83b531ecbf","system_id":"levelo_inurba_marseille","lat":43.25004,"lon":5.38912,"is_reserved":false,"is_disabled":false,"rental_uris":{"android":"levelo://app?vid=43036b2e-2f8e-4c24-8b83-be83b531ecbf","ios":"levelo://app?vid=43036b2e-2f8e-4c24-8b83-be83b531ecbf"},"vehicle_type_id":"4","last_reported":1733915265,"current_range_meters":38800,"station_id":"ce4bhgp2rcd13ifvqfd0","pricing_plan_id":"cebpf4jnsgd1na2vs0mg"},{"bike_id":"cecccbe0-d357-4a4d-8349-bd67ef739ed9","system_id":"levelo_inurba_marseille","lat":43.3144,"lon":5.37272,"is_reserved":false,"is_disabled":true,"rental_uris":{"android":"levelo://app?vid=cecccbe0-d357-4a4d-8349-bd67ef739ed9","ios":"levelo://app?vid=cecccbe0-d357-4a4d-8349-bd67ef739ed9"},"vehicle_type_id":"4","last_reported":1733915265,"current_range_meters":38800,"station_id":"","pricing_plan_id":"cebpf4jnsgd1na2vs0mg"},{"bike_id":"af824aba-2628-401b-aa85-b67b9cc0679d","system_id":"levelo_inurba_marseille","lat":43.27494,"lon":5.424478,"is_reserved":false,"is_disabled":false,"rental_uris":{"android":"levelo://app?vid=af824aba-2628-401b-aa85-b67b9cc0679d","ios":"levelo://app?vid=af824aba-2628-401b-aa85-b67b9cc0679d"},"vehicle_type_id":"4","last_reported":1733915265,"current_range_meters":32000,"station_id":"ce4bhn92rcd13ifvqgrg","pricing_plan_id":"cebpf4jnsgd1na2vs0mg"},{"bike_id":"e2da6774-dcfa-4188-9a03-b10776fca4f4","system_id":"levelo_inurba_marseille","lat":43.30548,"lon":5.36543,"is_reserved":false,"is_disabled":false,"rental_uris":{"android":"levelo://app?vid=e2da6774-dcfa-4188-9a03-b10776fca4f4","ios":"levelo://app?vid=e2da6774-dcfa-4188-9a03-b10776fca4f4"},"vehicle_type_id":"4","last_reported":1733915265,"current_range_meters":27600,"station_id":"ce4bgs12rcd13ifvqcag","pricing_plan_id":"cebpf4jnsgd1na2vs0mg"},{"bike_id":"af67ac53-ba21-4ff0-8334-95679e9ff2cc","system_id":"levelo_inurba_marseille","lat":43.278805,"lon":5.388003,"is_reserved":false,"is_disabled":true,"rental_uris":{"android":"levelo://app?vid=af67ac53-ba21-4ff0-8334-95679e9ff2cc","ios":"levelo://app?vid=af67ac53-ba21-4ff0-8334-95679e9ff2cc"},"vehicle_type_id":"4","last_reported":1733915265,"current_range_meters":0,"station_id":"","pricing_plan_id":"cebpf4jnsgd1na2vs0mg"},{"bike_id":"ab6bb814-6be0-4a23-8be0-7c219c550454","system_id":"levelo_inurba_marseille","lat":43.2944,"lon":5.39754,"is_reserved":false,"is_disabled":true,"rental_uris":{"android":"levelo://app?vid=ab6bb814-6be0-4a23-8be0-7c219c550454","ios":"levelo://app?vid=ab6bb814-6be0-4a23-8be0-7c219c550454"},"vehicle_type_id":"4","last_reported":1733915265,"current_range_meters":1600,"station_id":"ce4bh3h2rcd13ifvqdo0","pricing_plan_id":"cebpf4jnsgd1na2vs0mg"},{"bike_id":"0a5dc4e1-4128-42f7-809a-5ebdf63e6175","system_id":"levelo_inurba_marseille","lat":43.30142,"lon":5.39864,"is_reserved":false,"is_disabled":false,"rental_uris":{"android":"levelo://app?vid=0a5dc4e1-4128-42f7-809a-5ebdf63e6175","ios":"levelo://app?vid=0a5dc4e1-4128-42f7-809a-5ebdf63e6175"},"vehicle_type_id":"4","last_reported":1733915265,"current_range_meters":25600,"station_id":"ce4bh0h2rcd13ifvqd40","pricing_plan_id":"cebpf4jnsgd1na2vs0mg"},{"bike_id":"53c73a2e-bb03-40eb-b734-4d7ea0ab62f1","system_id":"levelo_inurba_marseille","lat":43.25206,"lon":5.40272,"is_reserved":false,"is_disabled":false,"rental_uris":{"android":"levelo://app?vid=53c73a2e-bb03-40eb-b734-4d7ea0ab62f1","ios":"levelo://app?vid=53c73a2e-bb03-40eb-b734-4d7ea0ab62f1"},"vehicle_type_id":"4","last_reported":1733915265,"current_range_meters":36400,"station_id":"ce4bhlh2rcd13ifvqgig","pricing_plan_id":"cebpf4jnsgd1na2vs0mg"},{"bike_id":"42167a06-2e3d-40c6-8fb4-1fd5597a86b1","system_id":"levelo_inurba_marseille","lat":43.290116,"lon":5.381457,"is_reserved":false,"is_disabled":false,"rental_uris":{"android":"levelo://app?vid=42167a06-2e3d-40c6-8fb4-1fd5597a86b1","ios":"levelo://app?vid=42167a06-2e3d-40c6-8fb4-1fd5597a86b1"},"vehicle_type_id":"4","last_reported":1733915265,"current_range_meters":28400,"station_id":"ce4bh4p2rcd13ifvqe1g","pricing_plan_id":"cebpf4jnsgd1na2vs0mg"},{"bike_id":"c3f87c2d-f647-4d71-89d3-fc010d8ba668","system_id":"levelo_inurba_marseille","lat":43.28489,"lon":5.38428,"is_reserved":false,"is_disabled":true,"rental_uris":{"android":"levelo://app?vid=c3f87c2d-f647-4d71-89d3-fc010d8ba668","ios":"levelo://app?vid=c3f87c2d-f647-4d71-89d3-fc010d8ba668"},"vehicle_type_id":"4","last_reported":1733915265,"current_range_meters":0,"station_id":"ce4bh512rcd13ifvqe3g","pricing_plan_id":"cebpf4jnsgd1na2vs0mg"},{"bike_id":"ad53aee5-a729-48be-8206-ea00c2981c19","system_id":"levelo_inurba_marseille","lat":43.305141,"lon":5.365455,"is_reserved":false,"is_disabled":true,"rental_uris":{"android":"levelo://app?vid=ad53aee5-a729-48be-8206-ea00c2981c19","ios":"levelo://app?vid=ad53aee5-a729-48be-8206-ea00c2981c19"},"vehicle_type_id":"4","last_reported":1733915265,"current_range_meters":0,"station_id":"","pricing_plan_id":"cebpf4jnsgd1na2vs0mg"},{"bike_id":"26afb23a-9a90-485b-be90-6fd78351f902","system_id":"levelo_inurba_marseille","lat":43.3046,"lon":5.37921,"is_reserved":false,"is_disabled":false,"rental_uris":{"android":"levelo://app?vid=26afb23a-9a90-485b-be90-6fd78351f902","ios":"levelo://app?vid=26afb23a-9a90-485b-be90-6fd78351f902"},"vehicle_type_id":"4","last_reported":1733915265,"current_range_meters":31200,"station_id":"ce4bgup2rcd13ifvqcn0","pricing_plan_id":"cebpf4jnsgd1na2vs0mg"},{"bike_id":"0b3eeec8-03fc-4ec9-a747-da2e101f987f","system_id":"levelo_inurba_marseille","lat":43.23965,"lon":5.36621,"is_reserved":false,"is_disabled":false,"rental_uris":{"android":"levelo://app?vid=0b3eeec8-03fc-4ec9-a747-da2e101f987f","ios":"levelo://app?vid=0b3eeec8-03fc-4ec9-a747-da2e101f987f"},"vehicle_type_id":"4","last_reported":1733915265,"current_range_meters":31200,"station_id":"ce4bhi12rcd13ifvqfp0","pricing_plan_id":"cebpf4jnsgd1na2vs0mg"},{"bike_id":"a704d482-0f58-4cb3-ab78-fdd7d67eb906","system_id":"levelo_inurba_marseille","lat":43.30533,"lon":5.36531,"is_reserved":false,"is_disabled":false,"rental_uris":{"android":"levelo://app?vid=a704d482-0f58-4cb3-ab78-fdd7d67eb906","ios":"levelo://app?vid=a704d482-0f58-4cb3-ab78-fdd7d67eb906"},"vehicle_type_id":"4","last_reported":1733915265,"current_range_meters":39200,"station_id":"ce4bgs12rcd13ifvqcag","pricing_plan_id":"cebpf4jnsgd1na2vs0mg"},{"bike_id":"3cc8ec27-f6d0-41d2-80aa-1670b36c25f2","system_id":"levelo_inurba_marseille","lat":43.27969,"lon":5.38739,"is_reserved":false,"is_disabled":false,"rental_uris":{"android":"levelo://app?vid=3cc8ec27-f6d0-41d2-80aa-1670b36c25f2","ios":"levelo://app?vid=3cc8ec27-f6d0-41d2-80aa-1670b36c25f2"},"vehicle_type_id":"4","last_reported":1733915265,"current_range_meters":30000,"station_id":"ce4bhg12rcd13ifvqf80","pricing_plan_id":"cebpf4jnsgd1na2vs0mg"},{"bike_id":"d73fc791-d55e-429f-b23a-220f886bc5c1","system_id":"levelo_inurba_marseille","lat":43.23135,"lon":5.43741,"is_reserved":false,"is_disabled":false,"rental_uris":{"android":"levelo://app?vid=d73fc791-d55e-429f-b23a-220f886bc5c1","ios":"levelo://app?vid=d73fc791-d55e-429f-b23a-220f886bc5c1"},"vehicle_type_id":"4","last_reported":1733915265,"current_range_meters":39200,"station_id":"ce4bhmp2rcd13ifvqgog","pricing_plan_id":"cebpf4jnsgd1na2vs0mg"},{"bike_id":"98fd5da6-9c91-4f24-a79d-d257cd8e76f9","system_id":"levelo_inurba_marseille","lat":43.30453,"lon":5.37916,"is_reserved":false,"is_disabled":false,"rental_uris":{"android":"levelo://app?vid=98fd5da6-9c91-4f24-a79d-d257cd8e76f9","ios":"levelo://app?vid=98fd5da6-9c91-4f24-a79d-d257cd8e76f9"},"vehicle_type_id":"4","last_reported":1733915265,"current_range_meters":39200,"station_id":"ce4bgup2rcd13ifvqcn0","pricing_plan_id":"cebpf4jnsgd1na2vs0mg"},{"bike_id":"82d96bec-251c-41ad-8bd1-f8ee53b2a226","system_id":"levelo_inurba_marseille","lat":43.30328,"lon":5.36603,"is_reserved":false,"is_disabled":false,"rental_uris":{"android":"levelo://app?vid=82d96bec-251c-41ad-8bd1-f8ee53b2a226","ios":"levelo://app?vid=82d96bec-251c-41ad-8bd1-f8ee53b2a226"},"vehicle_type_id":"4","last_reported":1733915265,"current_range_meters":33200,"station_id":"","pricing_plan_id":"cebpf4jnsgd1na2vs0mg"},{"bike_id":"bdf79f12-8daf-4d68-9ed6-ba8759c23fa4","system_id":"levelo_inurba_marseille","lat":43.30537,"lon":5.36514,"is_reserved":false,"is_disabled":false,"rental_uris":{"android":"levelo://app?vid=bdf79f12-8daf-4d68-9ed6-ba8759c23fa4","ios":"levelo://app?vid=bdf79f12-8daf-4d68-9ed6-ba8759c23fa4"},"vehicle_type_id":"4","last_reported":1733915265,"current_range_meters":38800,"station_id":"ce4bgs12rcd13ifvqcag","pricing_plan_id":"cebpf4jnsgd1na2vs0mg"},{"bike_id":"cefa54cb-a0bd-4d51-b13e-03ea2047e36f","system_id":"levelo_inurba_marseille","lat":43.29576,"lon":5.37528,"is_reserved":false,"is_disabled":true,"rental_uris":{"android":"levelo://app?vid=cefa54cb-a0bd-4d51-b13e-03ea2047e36f","ios":"levelo://app?vid=cefa54cb-a0bd-4d51-b13e-03ea2047e36f"},"vehicle_type_id":"4","last_reported":1733915265,"current_range_meters":33200,"station_id":"ce4bgh92rcd13ifvqb50","pricing_plan_id":"cebpf4jnsgd1na2vs0mg"},{"bike_id":"e737e5fa-1d93-4d81-924b-76f428bd6c9a","system_id":"levelo_inurba_marseille","lat":43.302793,"lon":5.376981,"is_reserved":false,"is_disabled":false,"rental_uris":{"android":"levelo://app?vid=e737e5fa-1d93-4d81-924b-76f428bd6c9a","ios":"levelo://app?vid=e737e5fa-1d93-4d81-924b-76f428bd6c9a"},"vehicle_type_id":"4","last_reported":1733915265,"current_range_meters":36800,"station_id":"ce4bguh2rcd13ifvqcj0","pricing_plan_id":"cebpf4jnsgd1na2vs0mg"},{"bike_id":"b8e3a311-f02b-4399-af7b-1bfb5506fa2a","system_id":"levelo_inurba_marseille","lat":43.2465,"lon":5.38886,"is_reserved":false,"is_disabled":false,"rental_uris":{"android":"levelo://app?vid=b8e3a311-f02b-4399-af7b-1bfb5506fa2a","ios":"levelo://app?vid=b8e3a311-f02b-4399-af7b-1bfb5506fa2a"},"vehicle_type_id":"4","last_reported":1733915265,"current_range_meters":28800,"station_id":"ce4bhg12rcd13ifvqf60","pricing_plan_id":"cebpf4jnsgd1na2vs0mg"},{"bike_id":"0819c574-c550-4f68-9dac-3c1b3fdf0d04","system_id":"levelo_inurba_marseille","lat":43.32282,"lon":5.38276,"is_reserved":false,"is_disabled":false,"rental_uris":{"android":"levelo://app?vid=0819c574-c550-4f68-9dac-3c1b3fdf0d04","ios":"levelo://app?vid=0819c574-c550-4f68-9dac-3c1b3fdf0d04"},"vehicle_type_id":"4","last_reported":1733915265,"current_range_meters":38800,"station_id":"ce4bhr12rcd13ifvqhqg","pricing_plan_id":"cebpf4jnsgd1na2vs0mg"},{"bike_id":"40aa3401-ee50-4d6d-8cdb-064bb29e5ead","system_id":"levelo_inurba_marseille","lat":43.32484,"lon":5.36569,"is_reserved":false,"is_disabled":false,"rental_uris":{"android":"levelo://app?vid=40aa3401-ee50-4d6d-8cdb-064bb29e5ead","ios":"levelo://app?vid=40aa3401-ee50-4d6d-8cdb-064bb29e5ead"},"vehicle_type_id":"4","last_reported":1733915265,"current_range_meters":35200,"station_id":"ce4bhs12rcd13ifvqhvg","pricing_plan_id":"cebpf4jnsgd1na2vs0mg"},{"bike_id":"c8000abf-7b04-4aa2-881e-f0c5fefdd95b","system_id":"levelo_inurba_marseille","lat":43.31991,"lon":5.38161,"is_reserved":false,"is_disabled":false,"rental_uris":{"android":"levelo://app?vid=c8000abf-7b04-4aa2-881e-f0c5fefdd95b","ios":"levelo://app?vid=c8000abf-7b04-4aa2-881e-f0c5fefdd95b"},"vehicle_type_id":"4","last_reported":1733915265,"current_range_meters":19600,"station_id":"ce4bhr12rcd13ifvqhpg","pricing_plan_id":"cebpf4jnsgd1na2vs0mg"},{"bike_id":"297c93da-50d5-4eea-acac-8d9ff0551260","system_id":"levelo_inurba_marseille","lat":43.2705,"lon":5.40267,"is_reserved":false,"is_disabled":true,"rental_uris":{"android":"levelo://app?vid=297c93da-50d5-4eea-acac-8d9ff0551260","ios":"levelo://app?vid=297c93da-50d5-4eea-acac-8d9ff0551260"},"vehicle_type_id":"4","last_reported":1733915265,"current_range_meters":800,"station_id":"ce4bhk92rcd13ifvqgc0","pricing_plan_id":"cebpf4jnsgd1na2vs0mg"},{"bike_id":"280ebb17-cfb3-4ff3-8d43-2db18993923b","system_id":"levelo_inurba_marseille","lat":43.29786,"lon":5.38099,"is_reserved":false,"is_disabled":false,"rental_uris":{"android":"levelo://app?vid=280ebb17-cfb3-4ff3-8d43-2db18993923b","ios":"levelo://app?vid=280ebb17-cfb3-4ff3-8d43-2db18993923b"},"vehicle_type_id":"4","last_reported":1733915265,"current_range_meters":35600,"station_id":"ce4bgip2rcd13ifvqbb0","pricing_plan_id":"cebpf4jnsgd1na2vs0mg"},{"bike_id":"2eefb2b0-f685-4680-8bb2-7670f8e7a2d4","system_id":"levelo_inurba_marseille","lat":43.27207,"lon":5.39183,"is_reserved":false,"is_disabled":false,"rental_uris":{"android":"levelo://app?vid=2eefb2b0-f685-4680-8bb2-7670f8e7a2d4","ios":"levelo://app?vid=2eefb2b0-f685-4680-8bb2-7670f8e7a2d4"},"vehicle_type_id":"4","last_reported":1733915265,"current_range_meters":37600,"station_id":"ce4bhhp2rcd13ifvqfm0","pricing_plan_id":"cebpf4jnsgd1na2vs0mg"},{"bike_id":"1361c9d6-6141-4087-9a39-b3948321eb90","system_id":"levelo_inurba_marseille","lat":43.26495,"lon":5.39545,"is_reserved":false,"is_disabled":false,"rental_uris":{"android":"levelo://app?vid=1361c9d6-6141-4087-9a39-b3948321eb90","ios":"levelo://app?vid=1361c9d6-6141-4087-9a39-b3948321eb90"},"vehicle_type_id":"4","last_reported":1733915265,"current_range_meters":31200,"station_id":"ce4bhi12rcd13ifvqfq0","pricing_plan_id":"cebpf4jnsgd1na2vs0mg"},{"bike_id":"50b714ae-96e6-4593-bfba-7d9f49fa5482","system_id":"levelo_inurba_marseille","lat":43.23964,"lon":5.36628,"is_reserved":false,"is_disabled":false,"rental_uris":{"android":"levelo://app?vid=50b714ae-96e6-4593-bfba-7d9f49fa5482","ios":"levelo://app?vid=50b714ae-96e6-4593-bfba-7d9f49fa5482"},"vehicle_type_id":"4","last_reported":1733915265,"current_range_meters":38800,"station_id":"ce4bhi12rcd13ifvqfp0","pricing_plan_id":"cebpf4jnsgd1na2vs0mg"},{"bike_id":"338411d9-dcc3-4ff8-b277-679a00a24582","system_id":"levelo_inurba_marseille","lat":43.3135,"lon":5.36727,"is_reserved":false,"is_disabled":false,"rental_uris":{"android":"levelo://app?vid=338411d9-dcc3-4ff8-b277-679a00a24582","ios":"levelo://app?vid=338411d9-dcc3-4ff8-b277-679a00a24582"},"vehicle_type_id":"4","last_reported":1733915265,"current_range_meters":38800,"station_id":"ce4bgr92rcd13ifvqc6g","pricing_plan_id":"cebpf4jnsgd1na2vs0mg"},{"bike_id":"c8283bc0-c4ca-4d18-80a5-b7f6334b4500","system_id":"levelo_inurba_marseille","lat":43.30273,"lon":5.37713,"is_reserved":false,"is_disabled":false,"rental_uris":{"android":"levelo://app?vid=c8283bc0-c4ca-4d18-80a5-b7f6334b4500","ios":"levelo://app?vid=c8283bc0-c4ca-4d18-80a5-b7f6334b4500"},"vehicle_type_id":"4","last_reported":1733915265,"current_range_meters":20400,"station_id":"ce4bguh2rcd13ifvqcj0","pricing_plan_id":"cebpf4jnsgd1na2vs0mg"},{"bike_id":"440c0882-719b-4b38-aba1-872c74c75218","system_id":"levelo_inurba_marseille","lat":43.32281,"lon":5.38289,"is_reserved":false,"is_disabled":false,"rental_uris":{"android":"levelo://app?vid=440c0882-719b-4b38-aba1-872c74c75218","ios":"levelo://app?vid=440c0882-719b-4b38-aba1-872c74c75218"},"vehicle_type_id":"4","last_reported":1733915265,"current_range_meters":38800,"station_id":"ce4bhr12rcd13ifvqhqg","pricing_plan_id":"cebpf4jnsgd1na2vs0mg"},{"bike_id":"043b6990-a2d9-4323-9fb9-2f90f599ded1","system_id":"levelo_inurba_marseille","lat":43.26036,"lon":5.37582,"is_reserved":false,"is_disabled":false,"rental_uris":{"android":"levelo://app?vid=043b6990-a2d9-4323-9fb9-2f90f599ded1","ios":"levelo://app?vid=043b6990-a2d9-4323-9fb9-2f90f599ded1"},"vehicle_type_id":"4","last_reported":1733915265,"current_range_meters":38800,"station_id":"ce4bhgh2rcd13ifvqfa0","pricing_plan_id":"cebpf4jnsgd1na2vs0mg"},{"bike_id":"1fbb5d03-4862-432c-87d0-5c4a534a44a3","system_id":"levelo_inurba_marseille","lat":43.26064,"lon":5.39396,"is_reserved":false,"is_disabled":false,"rental_uris":{"android":"levelo://app?vid=1fbb5d03-4862-432c-87d0-5c4a534a44a3","ios":"levelo://app?vid=1fbb5d03-4862-432c-87d0-5c4a534a44a3"},"vehicle_type_id":"4","last_reported":1733915265,"current_range_meters":36400,"station_id":"ce4bhh92rcd13ifvqfj0","pricing_plan_id":"cebpf4jnsgd1na2vs0mg"},{"bike_id":"accc15c2-75c8-4823-a61f-1d4d7e399167","system_id":"levelo_inurba_marseille","lat":43.29417,"lon":5.38611,"is_reserved":false,"is_disabled":true,"rental_uris":{"android":"levelo://app?vid=accc15c2-75c8-4823-a61f-1d4d7e399167","ios":"levelo://app?vid=accc15c2-75c8-4823-a61f-1d4d7e399167"},"vehicle_type_id":"4","last_reported":1733915265,"current_range_meters":11600,"station_id":"ce4bh2h2rcd13ifvqdh0","pricing_plan_id":"cebpf4jnsgd1na2vs0mg"},{"bike_id":"3f1792fc-db5a-48f7-8aa8-a1192d5fd90e","system_id":"levelo_inurba_marseille","lat":43.296085,"lon":5.377265,"is_reserved":false,"is_disabled":false,"rental_uris":{"android":"levelo://app?vid=3f1792fc-db5a-48f7-8aa8-a1192d5fd90e","ios":"levelo://app?vid=3f1792fc-db5a-48f7-8aa8-a1192d5fd90e"},"vehicle_type_id":"4","last_reported":1733915265,"current_range_meters":25600,"station_id":"ce4bgi92rcd13ifvqb90","pricing_plan_id":"cebpf4jnsgd1na2vs0mg"},{"bike_id":"5bbaeed9-dc1c-462f-a183-9ef6b3ebf144","system_id":"levelo_inurba_marseille","lat":43.30454,"lon":5.37956,"is_reserved":false,"is_disabled":false,"rental_uris":{"android":"levelo://app?vid=5bbaeed9-dc1c-462f-a183-9ef6b3ebf144","ios":"levelo://app?vid=5bbaeed9-dc1c-462f-a183-9ef6b3ebf144"},"vehicle_type_id":"4","last_reported":1733915265,"current_range_meters":38400,"station_id":"ce4bgup2rcd13ifvqcn0","pricing_plan_id":"cebpf4jnsgd1na2vs0mg"},{"bike_id":"cb6b98a1-43d7-4238-80c2-749167267ffc","system_id":"levelo_inurba_marseille","lat":43.30127,"lon":5.37423,"is_reserved":false,"is_disabled":false,"rental_uris":{"android":"levelo://app?vid=cb6b98a1-43d7-4238-80c2-749167267ffc","ios":"levelo://app?vid=cb6b98a1-43d7-4238-80c2-749167267ffc"},"vehicle_type_id":"4","last_reported":1733915265,"current_range_meters":38800,"station_id":"ce4bgs92rcd13ifvqcc0","pricing_plan_id":"cebpf4jnsgd1na2vs0mg"},{"bike_id":"e966d2c7-c9e1-4cb1-9a39-6325607b0be4","system_id":"levelo_inurba_marseille","lat":43.337444,"lon":5.374475,"is_reserved":false,"is_disabled":true,"rental_uris":{"android":"levelo://app?vid=e966d2c7-c9e1-4cb1-9a39-6325607b0be4","ios":"levelo://app?vid=e966d2c7-c9e1-4cb1-9a39-6325607b0be4"},"vehicle_type_id":"4","last_reported":1733915265,"current_range_meters":0,"station_id":"","pricing_plan_id":"cebpf4jnsgd1na2vs0mg"},{"bike_id":"22ea279c-05cc-4862-9b71-6d9e8a440cdd","system_id":"levelo_inurba_marseille","lat":43.26014,"lon":5.37573,"is_reserved":false,"is_disabled":false,"rental_uris":{"android":"levelo://app?vid=22ea279c-05cc-4862-9b71-6d9e8a440cdd","ios":"levelo://app?vid=22ea279c-05cc-4862-9b71-6d9e8a440cdd"},"vehicle_type_id":"4","last_reported":1733915265,"current_range_meters":38800,"station_id":"ce4bhgh2rcd13ifvqfa0","pricing_plan_id":"cebpf4jnsgd1na2vs0mg"},{"bike_id":"19f2eebc-5a16-492f-bd3b-008f84053381","system_id":"levelo_inurba_marseille","lat":43.29522,"lon":5.37498,"is_reserved":false,"is_disabled":false,"rental_uris":{"android":"levelo://app?vid=19f2eebc-5a16-492f-bd3b-008f84053381","ios":"levelo://app?vid=19f2eebc-5a16-492f-bd3b-008f84053381"},"vehicle_type_id":"4","last_reported":1733915265,"current_range_meters":28800,"station_id":"ce4bgkp2rcd13ifvqbmg","pricing_plan_id":"cebpf4jnsgd1na2vs0mg"},{"bike_id":"de8bbf10-634c-4dae-8120-d46e9232d55c","system_id":"levelo_inurba_marseille","lat":43.21266,"lon":5.35425,"is_reserved":false,"is_disabled":false,"rental_uris":{"android":"levelo://app?vid=de8bbf10-634c-4dae-8120-d46e9232d55c","ios":"levelo://app?vid=de8bbf10-634c-4dae-8120-d46e9232d55c"},"vehicle_type_id":"4","last_reported":1733915265,"current_range_meters":24000,"station_id":"","pricing_plan_id":"cebpf4jnsgd1na2vs0mg"},{"bike_id":"89c6781e-1fcc-4793-90ce-bf5633e8d803","system_id":"levelo_inurba_marseille","lat":43.26208,"lon":5.37927,"is_reserved":false,"is_disabled":false,"rental_uris":{"android":"levelo://app?vid=89c6781e-1fcc-4793-90ce-bf5633e8d803","ios":"levelo://app?vid=89c6781e-1fcc-4793-90ce-bf5633e8d803"},"vehicle_type_id":"4","last_reported":1733915265,"current_range_meters":29600,"station_id":"ce4bhjp2rcd13ifvqg90","pricing_plan_id":"cebpf4jnsgd1na2vs0mg"},{"bike_id":"7b6aa142-ca01-40d6-b323-bb3f666c0a85","system_id":"levelo_inurba_marseille","lat":43.28487,"lon":5.38398,"is_reserved":false,"is_disabled":true,"rental_uris":{"android":"levelo://app?vid=7b6aa142-ca01-40d6-b323-bb3f666c0a85","ios":"levelo://app?vid=7b6aa142-ca01-40d6-b323-bb3f666c0a85"},"vehicle_type_id":"4","last_reported":1733915265,"current_range_meters":1200,"station_id":"ce4bh512rcd13ifvqe3g","pricing_plan_id":"cebpf4jnsgd1na2vs0mg"},{"bike_id":"ba8161c7-4a94-40c7-998e-0e585e2c4d1b","system_id":"levelo_inurba_marseille","lat":43.27068,"lon":5.4228,"is_reserved":false,"is_disabled":false,"rental_uris":{"android":"levelo://app?vid=ba8161c7-4a94-40c7-998e-0e585e2c4d1b","ios":"levelo://app?vid=ba8161c7-4a94-40c7-998e-0e585e2c4d1b"},"vehicle_type_id":"4","last_reported":1733915265,"current_range_meters":37600,"station_id":"ce4bhk92rcd13ifvqgb0","pricing_plan_id":"cebpf4jnsgd1na2vs0mg"},{"bike_id":"e486db79-712e-44b1-86db-ea25ec0903fa","system_id":"levelo_inurba_marseille","lat":43.30135,"lon":5.38073,"is_reserved":false,"is_disabled":false,"rental_uris":{"android":"levelo://app?vid=e486db79-712e-44b1-86db-ea25ec0903fa","ios":"levelo://app?vid=e486db79-712e-44b1-86db-ea25ec0903fa"},"vehicle_type_id":"4","last_reported":1733915265,"current_range_meters":35600,"station_id":"ce4bgjp2rcd13ifvqbh0","pricing_plan_id":"cebpf4jnsgd1na2vs0mg"},{"bike_id":"05a25ed4-2e6a-4c18-bb82-1b033bbb0d61","system_id":"levelo_inurba_marseille","lat":43.27532,"lon":5.41003,"is_reserved":false,"is_disabled":true,"rental_uris":{"android":"levelo://app?vid=05a25ed4-2e6a-4c18-bb82-1b033bbb0d61","ios":"levelo://app?vid=05a25ed4-2e6a-4c18-bb82-1b033bbb0d61"},"vehicle_type_id":"4","last_reported":1733915265,"current_range_meters":1600,"station_id":"","pricing_plan_id":"cebpf4jnsgd1na2vs0mg"},{"bike_id":"7de250d0-6699-44bf-97d6-f1c06ef62ba9","system_id":"levelo_inurba_marseille","lat":43.29573,"lon":5.37524,"is_reserved":false,"is_disabled":false,"rental_uris":{"android":"levelo://app?vid=7de250d0-6699-44bf-97d6-f1c06ef62ba9","ios":"levelo://app?vid=7de250d0-6699-44bf-97d6-f1c06ef62ba9"},"vehicle_type_id":"4","last_reported":1733915265,"current_range_meters":9600,"station_id":"ce4bgh92rcd13ifvqb50","pricing_plan_id":"cebpf4jnsgd1na2vs0mg"},{"bike_id":"6ff14452-c0da-4450-a686-37d47545a0bd","system_id":"levelo_inurba_marseille","lat":43.26031,"lon":5.37548,"is_reserved":false,"is_disabled":false,"rental_uris":{"android":"levelo://app?vid=6ff14452-c0da-4450-a686-37d47545a0bd","ios":"levelo://app?vid=6ff14452-c0da-4450-a686-37d47545a0bd"},"vehicle_type_id":"4","last_reported":1733915265,"current_range_meters":36400,"station_id":"ce4bhgh2rcd13ifvqfa0","pricing_plan_id":"cebpf4jnsgd1na2vs0mg"},{"bike_id":"a9deec13-5eb9-42e7-a95f-11c205e39ea5","system_id":"levelo_inurba_marseille","lat":43.33762,"lon":5.37435,"is_reserved":false,"is_disabled":false,"rental_uris":{"android":"levelo://app?vid=a9deec13-5eb9-42e7-a95f-11c205e39ea5","ios":"levelo://app?vid=a9deec13-5eb9-42e7-a95f-11c205e39ea5"},"vehicle_type_id":"4","last_reported":1733915265,"current_range_meters":38800,"station_id":"","pricing_plan_id":"cebpf4jnsgd1na2vs0mg"},{"bike_id":"c5f041aa-83c3-432a-87e4-88bbedbfc7b8","system_id":"levelo_inurba_marseille","lat":43.23196,"lon":5.35559,"is_reserved":false,"is_disabled":false,"rental_uris":{"android":"levelo://app?vid=c5f041aa-83c3-432a-87e4-88bbedbfc7b8","ios":"levelo://app?vid=c5f041aa-83c3-432a-87e4-88bbedbfc7b8"},"vehicle_type_id":"4","last_reported":1733915265,"current_range_meters":38400,"station_id":"ce4bhu92rcd13ifvqi70","pricing_plan_id":"cebpf4jnsgd1na2vs0mg"},{"bike_id":"a90ab59e-9775-4bc6-a3e9-285e464122de","system_id":"levelo_inurba_marseille","lat":43.24649,"lon":5.3889,"is_reserved":false,"is_disabled":false,"rental_uris":{"android":"levelo://app?vid=a90ab59e-9775-4bc6-a3e9-285e464122de","ios":"levelo://app?vid=a90ab59e-9775-4bc6-a3e9-285e464122de"},"vehicle_type_id":"4","last_reported":1733915265,"current_range_meters":38800,"station_id":"ce4bhg12rcd13ifvqf60","pricing_plan_id":"cebpf4jnsgd1na2vs0mg"},{"bike_id":"376f2b68-1f59-4b7d-9e21-d9e16058592a","system_id":"levelo_inurba_marseille","lat":43.31329,"lon":5.36777,"is_reserved":false,"is_disabled":false,"rental_uris":{"android":"levelo://app?vid=376f2b68-1f59-4b7d-9e21-d9e16058592a","ios":"levelo://app?vid=376f2b68-1f59-4b7d-9e21-d9e16058592a"},"vehicle_type_id":"4","last_reported":1733915265,"current_range_meters":38800,"station_id":"ce4bgr92rcd13ifvqc6g","pricing_plan_id":"cebpf4jnsgd1na2vs0mg"},{"bike_id":"86b7ba35-925d-4299-8c08-056f25d55d4c","system_id":"levelo_inurba_marseille","lat":43.29626,"lon":5.40605,"is_reserved":false,"is_disabled":false,"rental_uris":{"android":"levelo://app?vid=86b7ba35-925d-4299-8c08-056f25d55d4c","ios":"levelo://app?vid=86b7ba35-925d-4299-8c08-056f25d55d4c"},"vehicle_type_id":"4","last_reported":1733915265,"current_range_meters":39200,"station_id":"ce4bh0h2rcd13ifvqd60","pricing_plan_id":"cebpf4jnsgd1na2vs0mg"},{"bike_id":"84c80222-2cd2-460c-ab97-a609dabf84d6","system_id":"levelo_inurba_marseille","lat":43.317,"lon":5.37742,"is_reserved":false,"is_disabled":false,"rental_uris":{"android":"levelo://app?vid=84c80222-2cd2-460c-ab97-a609dabf84d6","ios":"levelo://app?vid=84c80222-2cd2-460c-ab97-a609dabf84d6"},"vehicle_type_id":"4","last_reported":1733915265,"current_range_meters":19200,"station_id":"ce4bgth2rcd13ifvqch0","pricing_plan_id":"cebpf4jnsgd1na2vs0mg"},{"bike_id":"ecbfdd4f-3cf1-4aaf-9870-6003b673629b","system_id":"levelo_inurba_marseille","lat":43.2885,"lon":5.35846,"is_reserved":false,"is_disabled":true,"rental_uris":{"android":"levelo://app?vid=ecbfdd4f-3cf1-4aaf-9870-6003b673629b","ios":"levelo://app?vid=ecbfdd4f-3cf1-4aaf-9870-6003b673629b"},"vehicle_type_id":"4","last_reported":1733915265,"current_range_meters":2000,"station_id":"ce4bhb12rcd13ifvqem0","pricing_plan_id":"cebpf4jnsgd1na2vs0mg"},{"bike_id":"0d514f68-29b7-4049-844a-493370863f98","system_id":"levelo_inurba_marseille","lat":43.28348,"lon":5.38104,"is_reserved":false,"is_disabled":true,"rental_uris":{"android":"levelo://app?vid=0d514f68-29b7-4049-844a-493370863f98","ios":"levelo://app?vid=0d514f68-29b7-4049-844a-493370863f98"},"vehicle_type_id":"4","last_reported":1733915265,"current_range_meters":26000,"station_id":"ce4bh412rcd13ifvqdr0","pricing_plan_id":"cebpf4jnsgd1na2vs0mg"},{"bike_id":"acd24011-2e36-48fd-a475-73f1f754a91c","system_id":"levelo_inurba_marseille","lat":43.29887,"lon":5.39746,"is_reserved":false,"is_disabled":true,"rental_uris":{"android":"levelo://app?vid=acd24011-2e36-48fd-a475-73f1f754a91c","ios":"levelo://app?vid=acd24011-2e36-48fd-a475-73f1f754a91c"},"vehicle_type_id":"4","last_reported":1733915265,"current_range_meters":38800,"station_id":"ce4bh0h2rcd13ifvqd50","pricing_plan_id":"cebpf4jnsgd1na2vs0mg"},{"bike_id":"da78a9f2-c620-4edc-92c8-735d91b627be","system_id":"levelo_inurba_marseille","lat":43.2621,"lon":5.37444,"is_reserved":false,"is_disabled":false,"rental_uris":{"android":"levelo://app?vid=da78a9f2-c620-4edc-92c8-735d91b627be","ios":"levelo://app?vid=da78a9f2-c620-4edc-92c8-735d91b627be"},"vehicle_type_id":"4","last_reported":1733915265,"current_range_meters":36000,"station_id":"ce4bhgp2rcd13ifvqfc0","pricing_plan_id":"cebpf4jnsgd1na2vs0mg"},{"bike_id":"59e13011-fa46-4381-bc6f-319b07779c96","system_id":"levelo_inurba_marseille","lat":43.28637,"lon":5.36376,"is_reserved":false,"is_disabled":true,"rental_uris":{"android":"levelo://app?vid=59e13011-fa46-4381-bc6f-319b07779c96","ios":"levelo://app?vid=59e13011-fa46-4381-bc6f-319b07779c96"},"vehicle_type_id":"4","last_reported":1733915265,"current_range_meters":38000,"station_id":"ce4bhah2rcd13ifvqej0","pricing_plan_id":"cebpf4jnsgd1na2vs0mg"},{"bike_id":"be138c2c-b909-434e-9ab5-599cdf0e7b54","system_id":"levelo_inurba_marseille","lat":43.26218,"lon":5.37447,"is_reserved":false,"is_disabled":false,"rental_uris":{"android":"levelo://app?vid=be138c2c-b909-434e-9ab5-599cdf0e7b54","ios":"levelo://app?vid=be138c2c-b909-434e-9ab5-599cdf0e7b54"},"vehicle_type_id":"4","last_reported":1733915265,"current_range_meters":38000,"station_id":"ce4bhgp2rcd13ifvqfc0","pricing_plan_id":"cebpf4jnsgd1na2vs0mg"},{"bike_id":"f1e03800-6c46-4e10-911b-ed1d087c59b6","system_id":"levelo_inurba_marseille","lat":43.32936,"lon":5.39056,"is_reserved":false,"is_disabled":false,"rental_uris":{"android":"levelo://app?vid=f1e03800-6c46-4e10-911b-ed1d087c59b6","ios":"levelo://app?vid=f1e03800-6c46-4e10-911b-ed1d087c59b6"},"vehicle_type_id":"4","last_reported":1733915265,"current_range_meters":13600,"station_id":"ce4bhr92rcd13ifvqhrg","pricing_plan_id":"cebpf4jnsgd1na2vs0mg"},{"bike_id":"f23c5b32-ad57-4e37-831e-e990549028b3","system_id":"levelo_inurba_marseille","lat":43.27969,"lon":5.38732,"is_reserved":false,"is_disabled":false,"rental_uris":{"android":"levelo://app?vid=f23c5b32-ad57-4e37-831e-e990549028b3","ios":"levelo://app?vid=f23c5b32-ad57-4e37-831e-e990549028b3"},"vehicle_type_id":"4","last_reported":1733915265,"current_range_meters":33600,"station_id":"ce4bhg12rcd13ifvqf80","pricing_plan_id":"cebpf4jnsgd1na2vs0mg"},{"bike_id":"edfd897d-1557-41a9-896d-4b56c0544309","system_id":"levelo_inurba_marseille","lat":43.2749,"lon":5.4245,"is_reserved":false,"is_disabled":false,"rental_uris":{"android":"levelo://app?vid=edfd897d-1557-41a9-896d-4b56c0544309","ios":"levelo://app?vid=edfd897d-1557-41a9-896d-4b56c0544309"},"vehicle_type_id":"4","last_reported":1733915265,"current_range_meters":37600,"station_id":"ce4bhn92rcd13ifvqgrg","pricing_plan_id":"cebpf4jnsgd1na2vs0mg"},{"bike_id":"aaed3eaa-f687-4ad7-bfe1-a102b78860f4","system_id":"levelo_inurba_marseille","lat":43.30907,"lon":5.36852,"is_reserved":false,"is_disabled":false,"rental_uris":{"android":"levelo://app?vid=aaed3eaa-f687-4ad7-bfe1-a102b78860f4","ios":"levelo://app?vid=aaed3eaa-f687-4ad7-bfe1-a102b78860f4"},"vehicle_type_id":"4","last_reported":1733915265,"current_range_meters":20400,"station_id":"ce4bgn92rcd13ifvqbvg","pricing_plan_id":"cebpf4jnsgd1na2vs0mg"},{"bike_id":"992d5670-8e0d-48c2-8dde-56e834daea0e","system_id":"levelo_inurba_marseille","lat":43.30437,"lon":5.37923,"is_reserved":false,"is_disabled":false,"rental_uris":{"android":"levelo://app?vid=992d5670-8e0d-48c2-8dde-56e834daea0e","ios":"levelo://app?vid=992d5670-8e0d-48c2-8dde-56e834daea0e"},"vehicle_type_id":"4","last_reported":1733915265,"current_range_meters":26800,"station_id":"ce4bgup2rcd13ifvqcn0","pricing_plan_id":"cebpf4jnsgd1na2vs0mg"},{"bike_id":"ca957eaf-021b-447b-ac34-19f70a5b263d","system_id":"levelo_inurba_marseille","lat":43.30313,"lon":5.36893,"is_reserved":false,"is_disabled":false,"rental_uris":{"android":"levelo://app?vid=ca957eaf-021b-447b-ac34-19f70a5b263d","ios":"levelo://app?vid=ca957eaf-021b-447b-ac34-19f70a5b263d"},"vehicle_type_id":"4","last_reported":1733915265,"current_range_meters":38800,"station_id":"ce4bgqh2rcd13ifvqc5g","pricing_plan_id":"cebpf4jnsgd1na2vs0mg"},{"bike_id":"cb473b92-5ffa-4d4c-af36-847a5bf010cf","system_id":"levelo_inurba_marseille","lat":43.31292,"lon":5.36951,"is_reserved":false,"is_disabled":false,"rental_uris":{"android":"levelo://app?vid=cb473b92-5ffa-4d4c-af36-847a5bf010cf","ios":"levelo://app?vid=cb473b92-5ffa-4d4c-af36-847a5bf010cf"},"vehicle_type_id":"4","last_reported":1733915265,"current_range_meters":39200,"station_id":"ce4bgl92rcd13ifvqbq0","pricing_plan_id":"cebpf4jnsgd1na2vs0mg"},{"bike_id":"d5825170-b74b-4028-b918-b78a75c9f0ba","system_id":"levelo_inurba_marseille","lat":43.30799,"lon":5.38148,"is_reserved":false,"is_disabled":false,"rental_uris":{"android":"levelo://app?vid=d5825170-b74b-4028-b918-b78a75c9f0ba","ios":"levelo://app?vid=d5825170-b74b-4028-b918-b78a75c9f0ba"},"vehicle_type_id":"4","last_reported":1733915265,"current_range_meters":26000,"station_id":"ce4bgt12rcd13ifvqce0","pricing_plan_id":"cebpf4jnsgd1na2vs0mg"},{"bike_id":"a66c4b95-337e-4b9a-950c-e8c8d8e7a3a1","system_id":"levelo_inurba_marseille","lat":43.324799,"lon":5.365716,"is_reserved":false,"is_disabled":true,"rental_uris":{"android":"levelo://app?vid=a66c4b95-337e-4b9a-950c-e8c8d8e7a3a1","ios":"levelo://app?vid=a66c4b95-337e-4b9a-950c-e8c8d8e7a3a1"},"vehicle_type_id":"4","last_reported":1733915265,"current_range_meters":0,"station_id":"","pricing_plan_id":"cebpf4jnsgd1na2vs0mg"},{"bike_id":"b8a8e903-358c-4853-81b0-e99aeaec8699","system_id":"levelo_inurba_marseille","lat":43.24165,"lon":5.363975,"is_reserved":false,"is_disabled":false,"rental_uris":{"android":"levelo://app?vid=b8a8e903-358c-4853-81b0-e99aeaec8699","ios":"levelo://app?vid=b8a8e903-358c-4853-81b0-e99aeaec8699"},"vehicle_type_id":"4","last_reported":1733915265,"current_range_meters":26000,"station_id":"cpo36qri1sfpv3e86is0","pricing_plan_id":"cebpf4jnsgd1na2vs0mg"},{"bike_id":"2ed7839b-5815-46ec-8288-ac8ac565f4e7","system_id":"levelo_inurba_marseille","lat":43.32987,"lon":5.39775,"is_reserved":false,"is_disabled":false,"rental_uris":{"android":"levelo://app?vid=2ed7839b-5815-46ec-8288-ac8ac565f4e7","ios":"levelo://app?vid=2ed7839b-5815-46ec-8288-ac8ac565f4e7"},"vehicle_type_id":"4","last_reported":1733915265,"current_range_meters":28000,"station_id":"ce4bhr92rcd13ifvqhsg","pricing_plan_id":"cebpf4jnsgd1na2vs0mg"},{"bike_id":"f3003d8c-4bb8-457e-934c-d92c4bf405e2","system_id":"levelo_inurba_marseille","lat":43.29544,"lon":5.37527,"is_reserved":false,"is_disabled":false,"rental_uris":{"android":"levelo://app?vid=f3003d8c-4bb8-457e-934c-d92c4bf405e2","ios":"levelo://app?vid=f3003d8c-4bb8-457e-934c-d92c4bf405e2"},"vehicle_type_id":"4","last_reported":1733915265,"current_range_meters":38800,"station_id":"ce4bgh92rcd13ifvqb50","pricing_plan_id":"cebpf4jnsgd1na2vs0mg"},{"bike_id":"78446110-5bc9-4782-9951-0004299f66bc","system_id":"levelo_inurba_marseille","lat":43.24164,"lon":5.36419,"is_reserved":false,"is_disabled":false,"rental_uris":{"android":"levelo://app?vid=78446110-5bc9-4782-9951-0004299f66bc","ios":"levelo://app?vid=78446110-5bc9-4782-9951-0004299f66bc"},"vehicle_type_id":"4","last_reported":1733915265,"current_range_meters":33600,"station_id":"cpo36qri1sfpv3e86is0","pricing_plan_id":"cebpf4jnsgd1na2vs0mg"},{"bike_id":"68e9f2e8-7f58-4282-a6a3-bce0647110f9","system_id":"levelo_inurba_marseille","lat":43.2396,"lon":5.3663,"is_reserved":false,"is_disabled":false,"rental_uris":{"android":"levelo://app?vid=68e9f2e8-7f58-4282-a6a3-bce0647110f9","ios":"levelo://app?vid=68e9f2e8-7f58-4282-a6a3-bce0647110f9"},"vehicle_type_id":"4","last_reported":1733915265,"current_range_meters":22400,"station_id":"ce4bhi12rcd13ifvqfp0","pricing_plan_id":"cebpf4jnsgd1na2vs0mg"},{"bike_id":"abdc769b-327b-422c-954f-1431ddabf358","system_id":"levelo_inurba_marseille","lat":43.30985,"lon":5.39037,"is_reserved":false,"is_disabled":false,"rental_uris":{"android":"levelo://app?vid=abdc769b-327b-422c-954f-1431ddabf358","ios":"levelo://app?vid=abdc769b-327b-422c-954f-1431ddabf358"},"vehicle_type_id":"4","last_reported":1733915265,"current_range_meters":37600,"station_id":"ce4bgup2rcd13ifvqco0","pricing_plan_id":"cebpf4jnsgd1na2vs0mg"},{"bike_id":"3c7d8956-07af-4408-ae94-63514d5e362d","system_id":"levelo_inurba_marseille","lat":43.24646,"lon":5.38898,"is_reserved":false,"is_disabled":false,"rental_uris":{"android":"levelo://app?vid=3c7d8956-07af-4408-ae94-63514d5e362d","ios":"levelo://app?vid=3c7d8956-07af-4408-ae94-63514d5e362d"},"vehicle_type_id":"4","last_reported":1733915265,"current_range_meters":31200,"station_id":"ce4bhg12rcd13ifvqf60","pricing_plan_id":"cebpf4jnsgd1na2vs0mg"},{"bike_id":"f1c5a0af-7a0f-4511-9e5b-cbc48f3113ac","system_id":"levelo_inurba_marseille","lat":43.24073,"lon":5.37768,"is_reserved":false,"is_disabled":false,"rental_uris":{"android":"levelo://app?vid=f1c5a0af-7a0f-4511-9e5b-cbc48f3113ac","ios":"levelo://app?vid=f1c5a0af-7a0f-4511-9e5b-cbc48f3113ac"},"vehicle_type_id":"4","last_reported":1733915265,"current_range_meters":14000,"station_id":"ce4bhnp2rcd13ifvqgvg","pricing_plan_id":"cebpf4jnsgd1na2vs0mg"},{"bike_id":"40c1a22b-3860-49c4-b155-c051b46e76e6","system_id":"levelo_inurba_marseille","lat":43.30602,"lon":5.37221,"is_reserved":false,"is_disabled":false,"rental_uris":{"android":"levelo://app?vid=40c1a22b-3860-49c4-b155-c051b46e76e6","ios":"levelo://app?vid=40c1a22b-3860-49c4-b155-c051b46e76e6"},"vehicle_type_id":"4","last_reported":1733915265,"current_range_meters":26000,"station_id":"ce4bgqh2rcd13ifvqc4g","pricing_plan_id":"cebpf4jnsgd1na2vs0mg"},{"bike_id":"39bce10d-f7f0-4b70-a055-bbefd0a71a64","system_id":"levelo_inurba_marseille","lat":43.32653,"lon":5.40991,"is_reserved":false,"is_disabled":false,"rental_uris":{"android":"levelo://app?vid=39bce10d-f7f0-4b70-a055-bbefd0a71a64","ios":"levelo://app?vid=39bce10d-f7f0-4b70-a055-bbefd0a71a64"},"vehicle_type_id":"4","last_reported":1733915265,"current_range_meters":38800,"station_id":"ce4bhpp2rcd13ifvqhgg","pricing_plan_id":"cebpf4jnsgd1na2vs0mg"},{"bike_id":"7a586e7f-f3c2-42a7-88aa-a9870b503081","system_id":"levelo_inurba_marseille","lat":43.25579,"lon":5.3824,"is_reserved":false,"is_disabled":false,"rental_uris":{"android":"levelo://app?vid=7a586e7f-f3c2-42a7-88aa-a9870b503081","ios":"levelo://app?vid=7a586e7f-f3c2-42a7-88aa-a9870b503081"},"vehicle_type_id":"4","last_reported":1733915265,"current_range_meters":30400,"station_id":"ce4bhih2rcd13ifvqfs0","pricing_plan_id":"cebpf4jnsgd1na2vs0mg"},{"bike_id":"d3e25b20-ec46-4990-85c1-d29e44fff9b9","system_id":"levelo_inurba_marseille","lat":43.33601,"lon":5.41028,"is_reserved":false,"is_disabled":false,"rental_uris":{"android":"levelo://app?vid=d3e25b20-ec46-4990-85c1-d29e44fff9b9","ios":"levelo://app?vid=d3e25b20-ec46-4990-85c1-d29e44fff9b9"},"vehicle_type_id":"4","last_reported":1733915265,"current_range_meters":38800,"station_id":"ce4bhqh2rcd13ifvqhmg","pricing_plan_id":"cebpf4jnsgd1na2vs0mg"},{"bike_id":"36e3167a-8293-418c-b384-6536090e3648","system_id":"levelo_inurba_marseille","lat":43.23957,"lon":5.36633,"is_reserved":false,"is_disabled":false,"rental_uris":{"android":"levelo://app?vid=36e3167a-8293-418c-b384-6536090e3648","ios":"levelo://app?vid=36e3167a-8293-418c-b384-6536090e3648"},"vehicle_type_id":"4","last_reported":1733915265,"current_range_meters":38800,"station_id":"ce4bhi12rcd13ifvqfp0","pricing_plan_id":"cebpf4jnsgd1na2vs0mg"},{"bike_id":"17b76260-c24c-4564-87ce-d914f8bec567","system_id":"levelo_inurba_marseille","lat":43.308161,"lon":5.396281,"is_reserved":false,"is_disabled":false,"rental_uris":{"android":"levelo://app?vid=17b76260-c24c-4564-87ce-d914f8bec567","ios":"levelo://app?vid=17b76260-c24c-4564-87ce-d914f8bec567"},"vehicle_type_id":"4","last_reported":1733915265,"current_range_meters":17200,"station_id":"ce4bh012rcd13ifvqcv0","pricing_plan_id":"cebpf4jnsgd1na2vs0mg"},{"bike_id":"5f09c8a5-74ef-4cf1-952d-0686a49d1f91","system_id":"levelo_inurba_marseille","lat":43.29619,"lon":5.37191,"is_reserved":false,"is_disabled":false,"rental_uris":{"android":"levelo://app?vid=5f09c8a5-74ef-4cf1-952d-0686a49d1f91","ios":"levelo://app?vid=5f09c8a5-74ef-4cf1-952d-0686a49d1f91"},"vehicle_type_id":"4","last_reported":1733915265,"current_range_meters":38800,"station_id":"ce4bgnh2rcd13ifvqc0g","pricing_plan_id":"cebpf4jnsgd1na2vs0mg"},{"bike_id":"9de685e0-ba91-4e9f-9fcf-9f463cc6c282","system_id":"levelo_inurba_marseille","lat":43.309079,"lon":5.368325,"is_reserved":false,"is_disabled":false,"rental_uris":{"android":"levelo://app?vid=9de685e0-ba91-4e9f-9fcf-9f463cc6c282","ios":"levelo://app?vid=9de685e0-ba91-4e9f-9fcf-9f463cc6c282"},"vehicle_type_id":"4","last_reported":1733915265,"current_range_meters":16800,"station_id":"ce4bgn92rcd13ifvqbvg","pricing_plan_id":"cebpf4jnsgd1na2vs0mg"},{"bike_id":"b7e79a7d-d81f-4eb5-a5d3-e82ea77c204c","system_id":"levelo_inurba_marseille","lat":43.3053,"lon":5.36536,"is_reserved":false,"is_disabled":false,"rental_uris":{"android":"levelo://app?vid=b7e79a7d-d81f-4eb5-a5d3-e82ea77c204c","ios":"levelo://app?vid=b7e79a7d-d81f-4eb5-a5d3-e82ea77c204c"},"vehicle_type_id":"4","last_reported":1733915265,"current_range_meters":39200,"station_id":"ce4bgs12rcd13ifvqcag","pricing_plan_id":"cebpf4jnsgd1na2vs0mg"},{"bike_id":"ab1c6a12-19ac-4afb-af5f-776c48efacd2","system_id":"levelo_inurba_marseille","lat":43.23187,"lon":5.35559,"is_reserved":false,"is_disabled":false,"rental_uris":{"android":"levelo://app?vid=ab1c6a12-19ac-4afb-af5f-776c48efacd2","ios":"levelo://app?vid=ab1c6a12-19ac-4afb-af5f-776c48efacd2"},"vehicle_type_id":"4","last_reported":1733915265,"current_range_meters":20400,"station_id":"ce4bhu92rcd13ifvqi70","pricing_plan_id":"cebpf4jnsgd1na2vs0mg"},{"bike_id":"33af2d35-e937-4869-901c-88a8ff2b95c8","system_id":"levelo_inurba_marseille","lat":43.30152,"lon":5.3808,"is_reserved":false,"is_disabled":false,"rental_uris":{"android":"levelo://app?vid=33af2d35-e937-4869-901c-88a8ff2b95c8","ios":"levelo://app?vid=33af2d35-e937-4869-901c-88a8ff2b95c8"},"vehicle_type_id":"4","last_reported":1733915265,"current_range_meters":36400,"station_id":"ce4bgjp2rcd13ifvqbh0","pricing_plan_id":"cebpf4jnsgd1na2vs0mg"},{"bike_id":"4acea118-42ab-46d3-9a0f-7d2004c20183","system_id":"levelo_inurba_marseille","lat":43.27963,"lon":5.38749,"is_reserved":false,"is_disabled":false,"rental_uris":{"android":"levelo://app?vid=4acea118-42ab-46d3-9a0f-7d2004c20183","ios":"levelo://app?vid=4acea118-42ab-46d3-9a0f-7d2004c20183"},"vehicle_type_id":"4","last_reported":1733915265,"current_range_meters":12400,"station_id":"ce4bhg12rcd13ifvqf80","pricing_plan_id":"cebpf4jnsgd1na2vs0mg"},{"bike_id":"f253def6-732a-4692-b117-3280ccca3531","system_id":"levelo_inurba_marseille","lat":43.27205,"lon":5.39191,"is_reserved":false,"is_disabled":false,"rental_uris":{"android":"levelo://app?vid=f253def6-732a-4692-b117-3280ccca3531","ios":"levelo://app?vid=f253def6-732a-4692-b117-3280ccca3531"},"vehicle_type_id":"4","last_reported":1733915265,"current_range_meters":36800,"station_id":"ce4bhhp2rcd13ifvqfm0","pricing_plan_id":"cebpf4jnsgd1na2vs0mg"},{"bike_id":"23a5ee2e-b649-4334-bd63-7480ff5f72b9","system_id":"levelo_inurba_marseille","lat":43.24663,"lon":5.38165,"is_reserved":false,"is_disabled":false,"rental_uris":{"android":"levelo://app?vid=23a5ee2e-b649-4334-bd63-7480ff5f72b9","ios":"levelo://app?vid=23a5ee2e-b649-4334-bd63-7480ff5f72b9"},"vehicle_type_id":"4","last_reported":1733915265,"current_range_meters":14000,"station_id":"ce4bhih2rcd13ifvqfr0","pricing_plan_id":"cebpf4jnsgd1na2vs0mg"},{"bike_id":"235a27c5-32a3-4841-a68d-f35363ff4e8b","system_id":"levelo_inurba_marseille","lat":43.265542,"lon":5.372981,"is_reserved":false,"is_disabled":false,"rental_uris":{"android":"levelo://app?vid=235a27c5-32a3-4841-a68d-f35363ff4e8b","ios":"levelo://app?vid=235a27c5-32a3-4841-a68d-f35363ff4e8b"},"vehicle_type_id":"4","last_reported":1733915265,"current_range_meters":28400,"station_id":"ce4bhg12rcd13ifvqf70","pricing_plan_id":"cebpf4jnsgd1na2vs0mg"},{"bike_id":"52edac71-9ade-4286-ac6b-552a22a170fe","system_id":"levelo_inurba_marseille","lat":43.24076,"lon":5.37747,"is_reserved":false,"is_disabled":false,"rental_uris":{"android":"levelo://app?vid=52edac71-9ade-4286-ac6b-552a22a170fe","ios":"levelo://app?vid=52edac71-9ade-4286-ac6b-552a22a170fe"},"vehicle_type_id":"4","last_reported":1733915265,"current_range_meters":38800,"station_id":"ce4bhnp2rcd13ifvqgvg","pricing_plan_id":"cebpf4jnsgd1na2vs0mg"},{"bike_id":"3da93476-9d75-48f5-809e-7aed5a43e98a","system_id":"levelo_inurba_marseille","lat":43.25928,"lon":5.40907,"is_reserved":false,"is_disabled":false,"rental_uris":{"android":"levelo://app?vid=3da93476-9d75-48f5-809e-7aed5a43e98a","ios":"levelo://app?vid=3da93476-9d75-48f5-809e-7aed5a43e98a"},"vehicle_type_id":"4","last_reported":1733915265,"current_range_meters":27200,"station_id":"ce4bhm92rcd13ifvqglg","pricing_plan_id":"cebpf4jnsgd1na2vs0mg"},{"bike_id":"c3a91d8c-588a-40ca-bd64-a4c8d4b1b5b3","system_id":"levelo_inurba_marseille","lat":43.23052,"lon":5.35501,"is_reserved":false,"is_disabled":false,"rental_uris":{"android":"levelo://app?vid=c3a91d8c-588a-40ca-bd64-a4c8d4b1b5b3","ios":"levelo://app?vid=c3a91d8c-588a-40ca-bd64-a4c8d4b1b5b3"},"vehicle_type_id":"4","last_reported":1733915265,"current_range_meters":31200,"station_id":"cpo3342slgdg3j2ifvpg","pricing_plan_id":"cebpf4jnsgd1na2vs0mg"},{"bike_id":"881524d6-1030-4172-9fdc-ca6a0fc65d03","system_id":"levelo_inurba_marseille","lat":43.25919,"lon":5.40913,"is_reserved":false,"is_disabled":false,"rental_uris":{"android":"levelo://app?vid=881524d6-1030-4172-9fdc-ca6a0fc65d03","ios":"levelo://app?vid=881524d6-1030-4172-9fdc-ca6a0fc65d03"},"vehicle_type_id":"4","last_reported":1733915265,"current_range_meters":25200,"station_id":"ce4bhm92rcd13ifvqglg","pricing_plan_id":"cebpf4jnsgd1na2vs0mg"},{"bike_id":"b4a49c85-90fe-487a-8623-45bd53f0ada9","system_id":"levelo_inurba_marseille","lat":43.25821,"lon":5.39444,"is_reserved":false,"is_disabled":false,"rental_uris":{"android":"levelo://app?vid=b4a49c85-90fe-487a-8623-45bd53f0ada9","ios":"levelo://app?vid=b4a49c85-90fe-487a-8623-45bd53f0ada9"},"vehicle_type_id":"4","last_reported":1733915265,"current_range_meters":18000,"station_id":"ce4bhip2rcd13ifvqft0","pricing_plan_id":"cebpf4jnsgd1na2vs0mg"},{"bike_id":"44d51fde-212f-4eb7-b1c0-456cea9c506c","system_id":"levelo_inurba_marseille","lat":43.26221,"lon":5.37445,"is_reserved":false,"is_disabled":false,"rental_uris":{"android":"levelo://app?vid=44d51fde-212f-4eb7-b1c0-456cea9c506c","ios":"levelo://app?vid=44d51fde-212f-4eb7-b1c0-456cea9c506c"},"vehicle_type_id":"4","last_reported":1733915265,"current_range_meters":38000,"station_id":"ce4bhgp2rcd13ifvqfc0","pricing_plan_id":"cebpf4jnsgd1na2vs0mg"},{"bike_id":"ee0186ce-5ee6-443a-aa7c-853a1e294ff2","system_id":"levelo_inurba_marseille","lat":43.29614,"lon":5.37717,"is_reserved":false,"is_disabled":true,"rental_uris":{"android":"levelo://app?vid=ee0186ce-5ee6-443a-aa7c-853a1e294ff2","ios":"levelo://app?vid=ee0186ce-5ee6-443a-aa7c-853a1e294ff2"},"vehicle_type_id":"4","last_reported":1733915265,"current_range_meters":24400,"station_id":"ce4bgi92rcd13ifvqb90","pricing_plan_id":"cebpf4jnsgd1na2vs0mg"},{"bike_id":"78899a8f-cebd-461d-b2aa-a490349a7945","system_id":"levelo_inurba_marseille","lat":43.31526,"lon":5.37322,"is_reserved":false,"is_disabled":false,"rental_uris":{"android":"levelo://app?vid=78899a8f-cebd-461d-b2aa-a490349a7945","ios":"levelo://app?vid=78899a8f-cebd-461d-b2aa-a490349a7945"},"vehicle_type_id":"4","last_reported":1733915265,"current_range_meters":36800,"station_id":"","pricing_plan_id":"cebpf4jnsgd1na2vs0mg"},{"bike_id":"e8fd4573-cd0a-4332-a1bc-7df1db67a34d","system_id":"levelo_inurba_marseille","lat":43.29581,"lon":5.37512,"is_reserved":false,"is_disabled":false,"rental_uris":{"android":"levelo://app?vid=e8fd4573-cd0a-4332-a1bc-7df1db67a34d","ios":"levelo://app?vid=e8fd4573-cd0a-4332-a1bc-7df1db67a34d"},"vehicle_type_id":"4","last_reported":1733915265,"current_range_meters":38800,"station_id":"ce4bgh92rcd13ifvqb50","pricing_plan_id":"cebpf4jnsgd1na2vs0mg"},{"bike_id":"922b1f7a-1f93-498e-90f4-e7a54d8a9ec1","system_id":"levelo_inurba_marseille","lat":43.23061,"lon":5.3549,"is_reserved":false,"is_disabled":false,"rental_uris":{"android":"levelo://app?vid=922b1f7a-1f93-498e-90f4-e7a54d8a9ec1","ios":"levelo://app?vid=922b1f7a-1f93-498e-90f4-e7a54d8a9ec1"},"vehicle_type_id":"4","last_reported":1733915265,"current_range_meters":31200,"station_id":"cpo3342slgdg3j2ifvpg","pricing_plan_id":"cebpf4jnsgd1na2vs0mg"},{"bike_id":"146ccf1a-798c-4cb0-8a1a-1da417c0fb87","system_id":"levelo_inurba_marseille","lat":43.29915,"lon":5.38145,"is_reserved":false,"is_disabled":false,"rental_uris":{"android":"levelo://app?vid=146ccf1a-798c-4cb0-8a1a-1da417c0fb87","ios":"levelo://app?vid=146ccf1a-798c-4cb0-8a1a-1da417c0fb87"},"vehicle_type_id":"4","last_reported":1733915265,"current_range_meters":33600,"station_id":"ce4bgj12rcd13ifvqbc0","pricing_plan_id":"cebpf4jnsgd1na2vs0mg"},{"bike_id":"7d5b5fe6-5014-4d59-83cf-bc63158eed56","system_id":"levelo_inurba_marseille","lat":43.279437,"lon":5.41046,"is_reserved":false,"is_disabled":false,"rental_uris":{"android":"levelo://app?vid=7d5b5fe6-5014-4d59-83cf-bc63158eed56","ios":"levelo://app?vid=7d5b5fe6-5014-4d59-83cf-bc63158eed56"},"vehicle_type_id":"4","last_reported":1733915265,"current_range_meters":19200,"station_id":"ce4bhnp2rcd13ifvqh0g","pricing_plan_id":"cebpf4jnsgd1na2vs0mg"},{"bike_id":"32897566-5797-45de-abd8-e20f8d6b4ba0","system_id":"levelo_inurba_marseille","lat":43.26572,"lon":5.39014,"is_reserved":false,"is_disabled":false,"rental_uris":{"android":"levelo://app?vid=32897566-5797-45de-abd8-e20f8d6b4ba0","ios":"levelo://app?vid=32897566-5797-45de-abd8-e20f8d6b4ba0"},"vehicle_type_id":"4","last_reported":1733915265,"current_range_meters":18800,"station_id":"ce4bhe12rcd13ifvqf30","pricing_plan_id":"cebpf4jnsgd1na2vs0mg"},{"bike_id":"ddaf425f-0b35-49c2-a4a7-24dfe0c7d446","system_id":"levelo_inurba_marseille","lat":43.23138,"lon":5.43748,"is_reserved":false,"is_disabled":true,"rental_uris":{"android":"levelo://app?vid=ddaf425f-0b35-49c2-a4a7-24dfe0c7d446","ios":"levelo://app?vid=ddaf425f-0b35-49c2-a4a7-24dfe0c7d446"},"vehicle_type_id":"4","last_reported":1733915265,"current_range_meters":0,"station_id":"ce4bhmp2rcd13ifvqgog","pricing_plan_id":"cebpf4jnsgd1na2vs0mg"},{"bike_id":"85c9c1b8-b9a3-4a55-9a85-e64ec08dbc83","system_id":"levelo_inurba_marseille","lat":43.30566,"lon":5.36471,"is_reserved":false,"is_disabled":false,"rental_uris":{"android":"levelo://app?vid=85c9c1b8-b9a3-4a55-9a85-e64ec08dbc83","ios":"levelo://app?vid=85c9c1b8-b9a3-4a55-9a85-e64ec08dbc83"},"vehicle_type_id":"4","last_reported":1733915265,"current_range_meters":38800,"station_id":"","pricing_plan_id":"cebpf4jnsgd1na2vs0mg"},{"bike_id":"538d09e7-ee2e-4e20-83ee-ef1e3ebef7c2","system_id":"levelo_inurba_marseille","lat":43.30137,"lon":5.3742,"is_reserved":false,"is_disabled":false,"rental_uris":{"android":"levelo://app?vid=538d09e7-ee2e-4e20-83ee-ef1e3ebef7c2","ios":"levelo://app?vid=538d09e7-ee2e-4e20-83ee-ef1e3ebef7c2"},"vehicle_type_id":"4","last_reported":1733915265,"current_range_meters":38400,"station_id":"ce4bgs92rcd13ifvqcc0","pricing_plan_id":"cebpf4jnsgd1na2vs0mg"},{"bike_id":"b99edf37-8db5-403f-94fa-20a3d66813b1","system_id":"levelo_inurba_marseille","lat":43.28565,"lon":5.394978,"is_reserved":false,"is_disabled":true,"rental_uris":{"android":"levelo://app?vid=b99edf37-8db5-403f-94fa-20a3d66813b1","ios":"levelo://app?vid=b99edf37-8db5-403f-94fa-20a3d66813b1"},"vehicle_type_id":"4","last_reported":1733915265,"current_range_meters":0,"station_id":"ce4bh292rcd13ifvqdg0","pricing_plan_id":"cebpf4jnsgd1na2vs0mg"},{"bike_id":"88d1eb2a-ef44-4baa-a633-a2793e09b90f","system_id":"levelo_inurba_marseille","lat":43.29382,"lon":5.37838,"is_reserved":false,"is_disabled":true,"rental_uris":{"android":"levelo://app?vid=88d1eb2a-ef44-4baa-a633-a2793e09b90f","ios":"levelo://app?vid=88d1eb2a-ef44-4baa-a633-a2793e09b90f"},"vehicle_type_id":"4","last_reported":1733915265,"current_range_meters":0,"station_id":"ce4bgjh2rcd13ifvqbf0","pricing_plan_id":"cebpf4jnsgd1na2vs0mg"},{"bike_id":"8ffaa481-deec-48f6-9e30-c0bd791cbb75","system_id":"levelo_inurba_marseille","lat":43.28643,"lon":5.35059,"is_reserved":false,"is_disabled":false,"rental_uris":{"android":"levelo://app?vid=8ffaa481-deec-48f6-9e30-c0bd791cbb75","ios":"levelo://app?vid=8ffaa481-deec-48f6-9e30-c0bd791cbb75"},"vehicle_type_id":"4","last_reported":1733915265,"current_range_meters":26800,"station_id":"ce4bhch2rcd13ifvqeug","pricing_plan_id":"cebpf4jnsgd1na2vs0mg"},{"bike_id":"11df489c-50c5-425a-83f7-eabdec0ad821","system_id":"levelo_inurba_marseille","lat":43.27413,"lon":5.42392,"is_reserved":false,"is_disabled":true,"rental_uris":{"android":"levelo://app?vid=11df489c-50c5-425a-83f7-eabdec0ad821","ios":"levelo://app?vid=11df489c-50c5-425a-83f7-eabdec0ad821"},"vehicle_type_id":"4","last_reported":1733915265,"current_range_meters":0,"station_id":"","pricing_plan_id":"cebpf4jnsgd1na2vs0mg"},{"bike_id":"4d9975b2-8caf-4dfe-9202-9f11fbd0b727","system_id":"levelo_inurba_marseille","lat":43.29522,"lon":5.37501,"is_reserved":false,"is_disabled":true,"rental_uris":{"android":"levelo://app?vid=4d9975b2-8caf-4dfe-9202-9f11fbd0b727","ios":"levelo://app?vid=4d9975b2-8caf-4dfe-9202-9f11fbd0b727"},"vehicle_type_id":"4","last_reported":1733915265,"current_range_meters":22400,"station_id":"ce4bgkp2rcd13ifvqbmg","pricing_plan_id":"cebpf4jnsgd1na2vs0mg"},{"bike_id":"a5589391-a7e4-412b-9a87-f917b2322580","system_id":"levelo_inurba_marseille","lat":43.2308,"lon":5.35528,"is_reserved":false,"is_disabled":false,"rental_uris":{"android":"levelo://app?vid=a5589391-a7e4-412b-9a87-f917b2322580","ios":"levelo://app?vid=a5589391-a7e4-412b-9a87-f917b2322580"},"vehicle_type_id":"4","last_reported":1733915265,"current_range_meters":21600,"station_id":"cpo3342slgdg3j2ifvpg","pricing_plan_id":"cebpf4jnsgd1na2vs0mg"},{"bike_id":"6cc0d4fa-1597-4908-97bd-4249a4f0d6ef","system_id":"levelo_inurba_marseille","lat":43.2927,"lon":5.40113,"is_reserved":false,"is_disabled":true,"rental_uris":{"android":"levelo://app?vid=6cc0d4fa-1597-4908-97bd-4249a4f0d6ef","ios":"levelo://app?vid=6cc0d4fa-1597-4908-97bd-4249a4f0d6ef"},"vehicle_type_id":"4","last_reported":1733915265,"current_range_meters":0,"station_id":"ce4bh312rcd13ifvqdk0","pricing_plan_id":"cebpf4jnsgd1na2vs0mg"},{"bike_id":"6e9b4ea3-51b3-424c-88e5-4a3f3187c8ac","system_id":"levelo_inurba_marseille","lat":43.25804,"lon":5.41066,"is_reserved":false,"is_disabled":false,"rental_uris":{"android":"levelo://app?vid=6e9b4ea3-51b3-424c-88e5-4a3f3187c8ac","ios":"levelo://app?vid=6e9b4ea3-51b3-424c-88e5-4a3f3187c8ac"},"vehicle_type_id":"4","last_reported":1733915265,"current_range_meters":24000,"station_id":"","pricing_plan_id":"cebpf4jnsgd1na2vs0mg"},{"bike_id":"b14fd4b4-705b-4bdd-9b4c-7cda3311190a","system_id":"levelo_inurba_marseille","lat":43.26203,"lon":5.37927,"is_reserved":false,"is_disabled":false,"rental_uris":{"android":"levelo://app?vid=b14fd4b4-705b-4bdd-9b4c-7cda3311190a","ios":"levelo://app?vid=b14fd4b4-705b-4bdd-9b4c-7cda3311190a"},"vehicle_type_id":"4","last_reported":1733915265,"current_range_meters":30800,"station_id":"ce4bhjp2rcd13ifvqg90","pricing_plan_id":"cebpf4jnsgd1na2vs0mg"},{"bike_id":"e3a202dc-3f7d-473d-9a69-d94211b99087","system_id":"levelo_inurba_marseille","lat":43.27369,"lon":5.36259,"is_reserved":false,"is_disabled":false,"rental_uris":{"android":"levelo://app?vid=e3a202dc-3f7d-473d-9a69-d94211b99087","ios":"levelo://app?vid=e3a202dc-3f7d-473d-9a69-d94211b99087"},"vehicle_type_id":"4","last_reported":1733915265,"current_range_meters":36000,"station_id":"ce4bhbh2rcd13ifvqeo0","pricing_plan_id":"cebpf4jnsgd1na2vs0mg"},{"bike_id":"04bb6f3d-aaf2-4b7b-87d7-5075f836ec30","system_id":"levelo_inurba_marseille","lat":43.25494,"lon":5.37649,"is_reserved":false,"is_disabled":false,"rental_uris":{"android":"levelo://app?vid=04bb6f3d-aaf2-4b7b-87d7-5075f836ec30","ios":"levelo://app?vid=04bb6f3d-aaf2-4b7b-87d7-5075f836ec30"},"vehicle_type_id":"4","last_reported":1733915265,"current_range_meters":19200,"station_id":"ce4bhh12rcd13ifvqff0","pricing_plan_id":"cebpf4jnsgd1na2vs0mg"},{"bike_id":"08d6e4ca-9c70-4ce6-a251-da02ad6c3602","system_id":"levelo_inurba_marseille","lat":43.26253,"lon":5.39131,"is_reserved":false,"is_disabled":true,"rental_uris":{"android":"levelo://app?vid=08d6e4ca-9c70-4ce6-a251-da02ad6c3602","ios":"levelo://app?vid=08d6e4ca-9c70-4ce6-a251-da02ad6c3602"},"vehicle_type_id":"4","last_reported":1733915265,"current_range_meters":0,"station_id":"","pricing_plan_id":"cebpf4jnsgd1na2vs0mg"},{"bike_id":"d058d6c5-f475-4d00-9016-03b61abef9d4","system_id":"levelo_inurba_marseille","lat":43.26068,"lon":5.39395,"is_reserved":false,"is_disabled":false,"rental_uris":{"android":"levelo://app?vid=d058d6c5-f475-4d00-9016-03b61abef9d4","ios":"levelo://app?vid=d058d6c5-f475-4d00-9016-03b61abef9d4"},"vehicle_type_id":"4","last_reported":1733915265,"current_range_meters":38800,"station_id":"ce4bhh92rcd13ifvqfj0","pricing_plan_id":"cebpf4jnsgd1na2vs0mg"},{"bike_id":"f9c3043a-d8e9-4ef2-bf1e-93f507423b0e","system_id":"levelo_inurba_marseille","lat":43.29571,"lon":5.37503,"is_reserved":false,"is_disabled":false,"rental_uris":{"android":"levelo://app?vid=f9c3043a-d8e9-4ef2-bf1e-93f507423b0e","ios":"levelo://app?vid=f9c3043a-d8e9-4ef2-bf1e-93f507423b0e"},"vehicle_type_id":"4","last_reported":1733915265,"current_range_meters":18000,"station_id":"ce4bgh92rcd13ifvqb50","pricing_plan_id":"cebpf4jnsgd1na2vs0mg"},{"bike_id":"f846eb30-73d4-4235-a44d-5c0ccbf5620d","system_id":"levelo_inurba_marseille","lat":43.30283,"lon":5.37704,"is_reserved":false,"is_disabled":false,"rental_uris":{"android":"levelo://app?vid=f846eb30-73d4-4235-a44d-5c0ccbf5620d","ios":"levelo://app?vid=f846eb30-73d4-4235-a44d-5c0ccbf5620d"},"vehicle_type_id":"4","last_reported":1733915265,"current_range_meters":27600,"station_id":"ce4bguh2rcd13ifvqcj0","pricing_plan_id":"cebpf4jnsgd1na2vs0mg"},{"bike_id":"ca2957d5-bca5-4518-a330-e3c7f82b14a7","system_id":"levelo_inurba_marseille","lat":43.30963,"lon":5.39048,"is_reserved":false,"is_disabled":false,"rental_uris":{"android":"levelo://app?vid=ca2957d5-bca5-4518-a330-e3c7f82b14a7","ios":"levelo://app?vid=ca2957d5-bca5-4518-a330-e3c7f82b14a7"},"vehicle_type_id":"4","last_reported":1733915265,"current_range_meters":36000,"station_id":"ce4bgup2rcd13ifvqco0","pricing_plan_id":"cebpf4jnsgd1na2vs0mg"},{"bike_id":"c817a008-82e7-4827-b128-ad4b94c4a148","system_id":"levelo_inurba_marseille","lat":43.23964,"lon":5.3663,"is_reserved":false,"is_disabled":false,"rental_uris":{"android":"levelo://app?vid=c817a008-82e7-4827-b128-ad4b94c4a148","ios":"levelo://app?vid=c817a008-82e7-4827-b128-ad4b94c4a148"},"vehicle_type_id":"4","last_reported":1733915265,"current_range_meters":22800,"station_id":"ce4bhi12rcd13ifvqfp0","pricing_plan_id":"cebpf4jnsgd1na2vs0mg"},{"bike_id":"5fee01e0-a9ce-45a3-a2bf-0cdd473fe63e","system_id":"levelo_inurba_marseille","lat":43.3108,"lon":5.42433,"is_reserved":false,"is_disabled":false,"rental_uris":{"android":"levelo://app?vid=5fee01e0-a9ce-45a3-a2bf-0cdd473fe63e","ios":"levelo://app?vid=5fee01e0-a9ce-45a3-a2bf-0cdd473fe63e"},"vehicle_type_id":"4","last_reported":1733915265,"current_range_meters":6000,"station_id":"ce4bhp92rcd13ifvqhag","pricing_plan_id":"cebpf4jnsgd1na2vs0mg"},{"bike_id":"b332caf2-3e3b-44a8-b8bb-6913b17b0303","system_id":"levelo_inurba_marseille","lat":43.31173,"lon":5.38708,"is_reserved":false,"is_disabled":false,"rental_uris":{"android":"levelo://app?vid=b332caf2-3e3b-44a8-b8bb-6913b17b0303","ios":"levelo://app?vid=b332caf2-3e3b-44a8-b8bb-6913b17b0303"},"vehicle_type_id":"4","last_reported":1733915265,"current_range_meters":33600,"station_id":"ce4bgv12rcd13ifvqcp0","pricing_plan_id":"cebpf4jnsgd1na2vs0mg"},{"bike_id":"a0403547-2046-4942-ba52-0676ddc374a5","system_id":"levelo_inurba_marseille","lat":43.2619,"lon":5.37448,"is_reserved":false,"is_disabled":false,"rental_uris":{"android":"levelo://app?vid=a0403547-2046-4942-ba52-0676ddc374a5","ios":"levelo://app?vid=a0403547-2046-4942-ba52-0676ddc374a5"},"vehicle_type_id":"4","last_reported":1733915265,"current_range_meters":30400,"station_id":"ce4bhgp2rcd13ifvqfc0","pricing_plan_id":"cebpf4jnsgd1na2vs0mg"},{"bike_id":"46b2fdec-0870-4ae2-84dc-b1f57512351e","system_id":"levelo_inurba_marseille","lat":43.337444,"lon":5.374475,"is_reserved":false,"is_disabled":true,"rental_uris":{"android":"levelo://app?vid=46b2fdec-0870-4ae2-84dc-b1f57512351e","ios":"levelo://app?vid=46b2fdec-0870-4ae2-84dc-b1f57512351e"},"vehicle_type_id":"4","last_reported":1733915265,"current_range_meters":0,"station_id":"","pricing_plan_id":"cebpf4jnsgd1na2vs0mg"},{"bike_id":"1d86b3df-5033-4c06-919f-bd8acea8c7b2","system_id":"levelo_inurba_marseille","lat":43.2983,"lon":5.36282,"is_reserved":false,"is_disabled":false,"rental_uris":{"android":"levelo://app?vid=1d86b3df-5033-4c06-919f-bd8acea8c7b2","ios":"levelo://app?vid=1d86b3df-5033-4c06-919f-bd8acea8c7b2"},"vehicle_type_id":"4","last_reported":1733915265,"current_range_meters":38000,"station_id":"ce4bgpp2rcd13ifvqc3g","pricing_plan_id":"cebpf4jnsgd1na2vs0mg"},{"bike_id":"fa35d2a3-74a0-4945-9b04-061824848898","system_id":"levelo_inurba_marseille","lat":43.31354,"lon":5.36714,"is_reserved":false,"is_disabled":false,"rental_uris":{"android":"levelo://app?vid=fa35d2a3-74a0-4945-9b04-061824848898","ios":"levelo://app?vid=fa35d2a3-74a0-4945-9b04-061824848898"},"vehicle_type_id":"4","last_reported":1733915265,"current_range_meters":18000,"station_id":"ce4bgr92rcd13ifvqc6g","pricing_plan_id":"cebpf4jnsgd1na2vs0mg"},{"bike_id":"d5d6ed8d-7d6b-4967-a01a-e5f83dbdcb47","system_id":"levelo_inurba_marseille","lat":43.3227,"lon":5.38272,"is_reserved":false,"is_disabled":true,"rental_uris":{"android":"levelo://app?vid=d5d6ed8d-7d6b-4967-a01a-e5f83dbdcb47","ios":"levelo://app?vid=d5d6ed8d-7d6b-4967-a01a-e5f83dbdcb47"},"vehicle_type_id":"4","last_reported":1733915265,"current_range_meters":16000,"station_id":"ce4bhr12rcd13ifvqhqg","pricing_plan_id":"cebpf4jnsgd1na2vs0mg"},{"bike_id":"8b93c002-91eb-48ca-a3ec-47514fa292b3","system_id":"levelo_inurba_marseille","lat":43.30209,"lon":5.39476,"is_reserved":false,"is_disabled":true,"rental_uris":{"android":"levelo://app?vid=8b93c002-91eb-48ca-a3ec-47514fa292b3","ios":"levelo://app?vid=8b93c002-91eb-48ca-a3ec-47514fa292b3"},"vehicle_type_id":"4","last_reported":1733915265,"current_range_meters":800,"station_id":"ce4bh0p2rcd13ifvqd70","pricing_plan_id":"cebpf4jnsgd1na2vs0mg"},{"bike_id":"3a11c16b-9ba4-43a4-95d2-250cae78b908","system_id":"levelo_inurba_marseille","lat":43.26668,"lon":5.38296,"is_reserved":false,"is_disabled":false,"rental_uris":{"android":"levelo://app?vid=3a11c16b-9ba4-43a4-95d2-250cae78b908","ios":"levelo://app?vid=3a11c16b-9ba4-43a4-95d2-250cae78b908"},"vehicle_type_id":"4","last_reported":1733915265,"current_range_meters":38400,"station_id":"ce4bhg92rcd13ifvqf90","pricing_plan_id":"cebpf4jnsgd1na2vs0mg"},{"bike_id":"6482f411-9443-4cf6-b64f-678da8235b40","system_id":"levelo_inurba_marseille","lat":43.23958,"lon":5.36623,"is_reserved":false,"is_disabled":false,"rental_uris":{"android":"levelo://app?vid=6482f411-9443-4cf6-b64f-678da8235b40","ios":"levelo://app?vid=6482f411-9443-4cf6-b64f-678da8235b40"},"vehicle_type_id":"4","last_reported":1733915265,"current_range_meters":38800,"station_id":"ce4bhi12rcd13ifvqfp0","pricing_plan_id":"cebpf4jnsgd1na2vs0mg"},{"bike_id":"4cb552d3-c499-4325-b8bb-7373464de7de","system_id":"levelo_inurba_marseille","lat":43.28425,"lon":5.35022,"is_reserved":false,"is_disabled":false,"rental_uris":{"android":"levelo://app?vid=4cb552d3-c499-4325-b8bb-7373464de7de","ios":"levelo://app?vid=4cb552d3-c499-4325-b8bb-7373464de7de"},"vehicle_type_id":"4","last_reported":1733915265,"current_range_meters":27600,"station_id":"ce4bhbh2rcd13ifvqepg","pricing_plan_id":"cebpf4jnsgd1na2vs0mg"},{"bike_id":"2ebd2fc6-13ac-4b60-8a2e-07cab16d51cc","system_id":"levelo_inurba_marseille","lat":43.24647,"lon":5.38904,"is_reserved":false,"is_disabled":false,"rental_uris":{"android":"levelo://app?vid=2ebd2fc6-13ac-4b60-8a2e-07cab16d51cc","ios":"levelo://app?vid=2ebd2fc6-13ac-4b60-8a2e-07cab16d51cc"},"vehicle_type_id":"4","last_reported":1733915265,"current_range_meters":24000,"station_id":"ce4bhg12rcd13ifvqf60","pricing_plan_id":"cebpf4jnsgd1na2vs0mg"},{"bike_id":"73850768-72fe-46c4-8d50-4ed8e3abcfb1","system_id":"levelo_inurba_marseille","lat":43.30594,"lon":5.3939,"is_reserved":false,"is_disabled":true,"rental_uris":{"android":"levelo://app?vid=73850768-72fe-46c4-8d50-4ed8e3abcfb1","ios":"levelo://app?vid=73850768-72fe-46c4-8d50-4ed8e3abcfb1"},"vehicle_type_id":"4","last_reported":1733915265,"current_range_meters":1200,"station_id":"ce4bh0p2rcd13ifvqd80","pricing_plan_id":"cebpf4jnsgd1na2vs0mg"},{"bike_id":"37681a73-64ca-4af2-aa07-57c646cc09e9","system_id":"levelo_inurba_marseille","lat":43.23189,"lon":5.35545,"is_reserved":false,"is_disabled":false,"rental_uris":{"android":"levelo://app?vid=37681a73-64ca-4af2-aa07-57c646cc09e9","ios":"levelo://app?vid=37681a73-64ca-4af2-aa07-57c646cc09e9"},"vehicle_type_id":"4","last_reported":1733915265,"current_range_meters":15200,"station_id":"ce4bhu92rcd13ifvqi70","pricing_plan_id":"cebpf4jnsgd1na2vs0mg"},{"bike_id":"162a7aae-b2f7-422a-a893-5294794a581a","system_id":"levelo_inurba_marseille","lat":43.337444,"lon":5.374475,"is_reserved":false,"is_disabled":false,"rental_uris":{"android":"levelo://app?vid=162a7aae-b2f7-422a-a893-5294794a581a","ios":"levelo://app?vid=162a7aae-b2f7-422a-a893-5294794a581a"},"vehicle_type_id":"4","last_reported":1733915265,"current_range_meters":38800,"station_id":"","pricing_plan_id":"cebpf4jnsgd1na2vs0mg"},{"bike_id":"ce95ce86-6100-4717-a7c9-a9864e3093b9","system_id":"levelo_inurba_marseille","lat":43.27966,"lon":5.38753,"is_reserved":false,"is_disabled":false,"rental_uris":{"android":"levelo://app?vid=ce95ce86-6100-4717-a7c9-a9864e3093b9","ios":"levelo://app?vid=ce95ce86-6100-4717-a7c9-a9864e3093b9"},"vehicle_type_id":"4","last_reported":1733915265,"current_range_meters":39200,"station_id":"ce4bhg12rcd13ifvqf80","pricing_plan_id":"cebpf4jnsgd1na2vs0mg"},{"bike_id":"cfeef1d2-86d9-4c1b-8076-adb2f0d09c18","system_id":"levelo_inurba_marseille","lat":43.2947,"lon":5.37699,"is_reserved":false,"is_disabled":true,"rental_uris":{"android":"levelo://app?vid=cfeef1d2-86d9-4c1b-8076-adb2f0d09c18","ios":"levelo://app?vid=cfeef1d2-86d9-4c1b-8076-adb2f0d09c18"},"vehicle_type_id":"4","last_reported":1733915265,"current_range_meters":0,"station_id":"","pricing_plan_id":"cebpf4jnsgd1na2vs0mg"},{"bike_id":"6d05f7ba-808a-4403-b1f3-f8483fec843c","system_id":"levelo_inurba_marseille","lat":43.23182,"lon":5.35573,"is_reserved":false,"is_disabled":false,"rental_uris":{"android":"levelo://app?vid=6d05f7ba-808a-4403-b1f3-f8483fec843c","ios":"levelo://app?vid=6d05f7ba-808a-4403-b1f3-f8483fec843c"},"vehicle_type_id":"4","last_reported":1733915265,"current_range_meters":38000,"station_id":"ce4bhu92rcd13ifvqi70","pricing_plan_id":"cebpf4jnsgd1na2vs0mg"},{"bike_id":"d2f36225-6b0a-4432-80cc-86c2d8cc85d1","system_id":"levelo_inurba_marseille","lat":43.3013,"lon":5.37425,"is_reserved":false,"is_disabled":false,"rental_uris":{"android":"levelo://app?vid=d2f36225-6b0a-4432-80cc-86c2d8cc85d1","ios":"levelo://app?vid=d2f36225-6b0a-4432-80cc-86c2d8cc85d1"},"vehicle_type_id":"4","last_reported":1733915265,"current_range_meters":8800,"station_id":"ce4bgs92rcd13ifvqcc0","pricing_plan_id":"cebpf4jnsgd1na2vs0mg"},{"bike_id":"06e44d83-6b07-4061-84da-988eb6ce8354","system_id":"levelo_inurba_marseille","lat":43.30556,"lon":5.36539,"is_reserved":false,"is_disabled":false,"rental_uris":{"android":"levelo://app?vid=06e44d83-6b07-4061-84da-988eb6ce8354","ios":"levelo://app?vid=06e44d83-6b07-4061-84da-988eb6ce8354"},"vehicle_type_id":"4","last_reported":1733915265,"current_range_meters":22800,"station_id":"ce4bgs12rcd13ifvqcag","pricing_plan_id":"cebpf4jnsgd1na2vs0mg"},{"bike_id":"5137b643-f444-4318-a66b-2b2970621c82","system_id":"levelo_inurba_marseille","lat":43.30159,"lon":5.380947,"is_reserved":false,"is_disabled":false,"rental_uris":{"android":"levelo://app?vid=5137b643-f444-4318-a66b-2b2970621c82","ios":"levelo://app?vid=5137b643-f444-4318-a66b-2b2970621c82"},"vehicle_type_id":"4","last_reported":1733915265,"current_range_meters":19600,"station_id":"ce4bgjp2rcd13ifvqbh0","pricing_plan_id":"cebpf4jnsgd1na2vs0mg"},{"bike_id":"c2d2b156-511e-4580-b781-7ee85328cf53","system_id":"levelo_inurba_marseille","lat":43.30167,"lon":5.38102,"is_reserved":false,"is_disabled":false,"rental_uris":{"android":"levelo://app?vid=c2d2b156-511e-4580-b781-7ee85328cf53","ios":"levelo://app?vid=c2d2b156-511e-4580-b781-7ee85328cf53"},"vehicle_type_id":"4","last_reported":1733915265,"current_range_meters":38800,"station_id":"ce4bgjp2rcd13ifvqbh0","pricing_plan_id":"cebpf4jnsgd1na2vs0mg"},{"bike_id":"08595f37-404a-46f2-b805-853a25c1ebe7","system_id":"levelo_inurba_marseille","lat":43.26551,"lon":5.37289,"is_reserved":false,"is_disabled":false,"rental_uris":{"android":"levelo://app?vid=08595f37-404a-46f2-b805-853a25c1ebe7","ios":"levelo://app?vid=08595f37-404a-46f2-b805-853a25c1ebe7"},"vehicle_type_id":"4","last_reported":1733915265,"current_range_meters":18000,"station_id":"ce4bhg12rcd13ifvqf70","pricing_plan_id":"cebpf4jnsgd1na2vs0mg"},{"bike_id":"3567b1bd-e1f9-411f-8fce-4d0d6b60cf9f","system_id":"levelo_inurba_marseille","lat":43.27617,"lon":5.36118,"is_reserved":false,"is_disabled":false,"rental_uris":{"android":"levelo://app?vid=3567b1bd-e1f9-411f-8fce-4d0d6b60cf9f","ios":"levelo://app?vid=3567b1bd-e1f9-411f-8fce-4d0d6b60cf9f"},"vehicle_type_id":"4","last_reported":1733915265,"current_range_meters":17600,"station_id":"ce4bgj92rcd13ifvqbe0","pricing_plan_id":"cebpf4jnsgd1na2vs0mg"},{"bike_id":"9c8c1480-9ffa-4086-913c-c2125a6eb848","system_id":"levelo_inurba_marseille","lat":43.22933,"lon":5.35379,"is_reserved":false,"is_disabled":true,"rental_uris":{"android":"levelo://app?vid=9c8c1480-9ffa-4086-913c-c2125a6eb848","ios":"levelo://app?vid=9c8c1480-9ffa-4086-913c-c2125a6eb848"},"vehicle_type_id":"4","last_reported":1733915265,"current_range_meters":1200,"station_id":"cpo3532slgdg3j2ikp40","pricing_plan_id":"cebpf4jnsgd1na2vs0mg"},{"bike_id":"9ee18792-72aa-45dd-8c33-87cda588ffa1","system_id":"levelo_inurba_marseille","lat":43.30151,"lon":5.3809,"is_reserved":false,"is_disabled":false,"rental_uris":{"android":"levelo://app?vid=9ee18792-72aa-45dd-8c33-87cda588ffa1","ios":"levelo://app?vid=9ee18792-72aa-45dd-8c33-87cda588ffa1"},"vehicle_type_id":"4","last_reported":1733915265,"current_range_meters":38800,"station_id":"ce4bgjp2rcd13ifvqbh0","pricing_plan_id":"cebpf4jnsgd1na2vs0mg"},{"bike_id":"ac485082-1fa8-434a-824d-643a1efd9c65","system_id":"levelo_inurba_marseille","lat":43.27983,"lon":5.38737,"is_reserved":false,"is_disabled":false,"rental_uris":{"android":"levelo://app?vid=ac485082-1fa8-434a-824d-643a1efd9c65","ios":"levelo://app?vid=ac485082-1fa8-434a-824d-643a1efd9c65"},"vehicle_type_id":"4","last_reported":1733915265,"current_range_meters":33600,"station_id":"ce4bhg12rcd13ifvqf80","pricing_plan_id":"cebpf4jnsgd1na2vs0mg"},{"bike_id":"5950b791-d922-4b71-a63f-e02b266d5c10","system_id":"levelo_inurba_marseille","lat":43.27311,"lon":5.39079,"is_reserved":false,"is_disabled":false,"rental_uris":{"android":"levelo://app?vid=5950b791-d922-4b71-a63f-e02b266d5c10","ios":"levelo://app?vid=5950b791-d922-4b71-a63f-e02b266d5c10"},"vehicle_type_id":"4","last_reported":1733915265,"current_range_meters":32400,"station_id":"ce4bhgp2rcd13ifvqfe0","pricing_plan_id":"cebpf4jnsgd1na2vs0mg"},{"bike_id":"166a996b-fb0f-4dab-b67b-52f1c07f5e65","system_id":"levelo_inurba_marseille","lat":43.312475,"lon":5.366967,"is_reserved":false,"is_disabled":false,"rental_uris":{"android":"levelo://app?vid=166a996b-fb0f-4dab-b67b-52f1c07f5e65","ios":"levelo://app?vid=166a996b-fb0f-4dab-b67b-52f1c07f5e65"},"vehicle_type_id":"4","last_reported":1733915265,"current_range_meters":13600,"station_id":"","pricing_plan_id":"cebpf4jnsgd1na2vs0mg"},{"bike_id":"9c64aa79-52f4-4b09-8f17-2271d3d30843","system_id":"levelo_inurba_marseille","lat":43.29856,"lon":5.36281,"is_reserved":false,"is_disabled":false,"rental_uris":{"android":"levelo://app?vid=9c64aa79-52f4-4b09-8f17-2271d3d30843","ios":"levelo://app?vid=9c64aa79-52f4-4b09-8f17-2271d3d30843"},"vehicle_type_id":"4","last_reported":1733915265,"current_range_meters":38800,"station_id":"ce4bgpp2rcd13ifvqc3g","pricing_plan_id":"cebpf4jnsgd1na2vs0mg"},{"bike_id":"9ac7fa6e-2578-4832-8168-ade341fdc585","system_id":"levelo_inurba_marseille","lat":43.2841,"lon":5.428961,"is_reserved":false,"is_disabled":true,"rental_uris":{"android":"levelo://app?vid=9ac7fa6e-2578-4832-8168-ade341fdc585","ios":"levelo://app?vid=9ac7fa6e-2578-4832-8168-ade341fdc585"},"vehicle_type_id":"4","last_reported":1733915265,"current_range_meters":0,"station_id":"","pricing_plan_id":"cebpf4jnsgd1na2vs0mg"},{"bike_id":"2578136f-25c8-42a5-92d7-785cf14878e4","system_id":"levelo_inurba_marseille","lat":43.30523,"lon":5.36536,"is_reserved":false,"is_disabled":false,"rental_uris":{"android":"levelo://app?vid=2578136f-25c8-42a5-92d7-785cf14878e4","ios":"levelo://app?vid=2578136f-25c8-42a5-92d7-785cf14878e4"},"vehicle_type_id":"4","last_reported":1733915265,"current_range_meters":39200,"station_id":"ce4bgs12rcd13ifvqcag","pricing_plan_id":"cebpf4jnsgd1na2vs0mg"},{"bike_id":"dfa72cea-8422-423e-89ac-124a5b9338f5","system_id":"levelo_inurba_marseille","lat":43.2861,"lon":5.37064,"is_reserved":false,"is_disabled":false,"rental_uris":{"android":"levelo://app?vid=dfa72cea-8422-423e-89ac-124a5b9338f5","ios":"levelo://app?vid=dfa72cea-8422-423e-89ac-124a5b9338f5"},"vehicle_type_id":"4","last_reported":1733915265,"current_range_meters":33600,"station_id":"ce4bht12rcd13ifvqi60","pricing_plan_id":"cebpf4jnsgd1na2vs0mg"},{"bike_id":"34dd3148-c969-4ccd-90a8-1835d263a789","system_id":"levelo_inurba_marseille","lat":43.30167,"lon":5.36625,"is_reserved":false,"is_disabled":false,"rental_uris":{"android":"levelo://app?vid=34dd3148-c969-4ccd-90a8-1835d263a789","ios":"levelo://app?vid=34dd3148-c969-4ccd-90a8-1835d263a789"},"vehicle_type_id":"4","last_reported":1733915265,"current_range_meters":26800,"station_id":"ce4bgrh2rcd13ifvqc8g","pricing_plan_id":"cebpf4jnsgd1na2vs0mg"},{"bike_id":"ec335a06-12db-49d0-b5c0-d722986832bb","system_id":"levelo_inurba_marseille","lat":43.24679,"lon":5.38152,"is_reserved":false,"is_disabled":false,"rental_uris":{"android":"levelo://app?vid=ec335a06-12db-49d0-b5c0-d722986832bb","ios":"levelo://app?vid=ec335a06-12db-49d0-b5c0-d722986832bb"},"vehicle_type_id":"4","last_reported":1733915265,"current_range_meters":28400,"station_id":"ce4bhih2rcd13ifvqfr0","pricing_plan_id":"cebpf4jnsgd1na2vs0mg"},{"bike_id":"4f94ba89-ce2d-47aa-af32-5d844e05df84","system_id":"levelo_inurba_marseille","lat":43.27489,"lon":5.42458,"is_reserved":false,"is_disabled":false,"rental_uris":{"android":"levelo://app?vid=4f94ba89-ce2d-47aa-af32-5d844e05df84","ios":"levelo://app?vid=4f94ba89-ce2d-47aa-af32-5d844e05df84"},"vehicle_type_id":"4","last_reported":1733915265,"current_range_meters":35200,"station_id":"ce4bhn92rcd13ifvqgrg","pricing_plan_id":"cebpf4jnsgd1na2vs0mg"},{"bike_id":"f5db98bb-9567-4be5-a63a-3fe4d02bf151","system_id":"levelo_inurba_marseille","lat":43.27973,"lon":5.38754,"is_reserved":false,"is_disabled":false,"rental_uris":{"android":"levelo://app?vid=f5db98bb-9567-4be5-a63a-3fe4d02bf151","ios":"levelo://app?vid=f5db98bb-9567-4be5-a63a-3fe4d02bf151"},"vehicle_type_id":"4","last_reported":1733915265,"current_range_meters":39200,"station_id":"ce4bhg12rcd13ifvqf80","pricing_plan_id":"cebpf4jnsgd1na2vs0mg"},{"bike_id":"6eb605d9-37a9-4890-933d-661c5bd67087","system_id":"levelo_inurba_marseille","lat":43.29101,"lon":5.38143,"is_reserved":false,"is_disabled":true,"rental_uris":{"android":"levelo://app?vid=6eb605d9-37a9-4890-933d-661c5bd67087","ios":"levelo://app?vid=6eb605d9-37a9-4890-933d-661c5bd67087"},"vehicle_type_id":"4","last_reported":1733915265,"current_range_meters":17600,"station_id":"ce4bh512rcd13ifvqe2g","pricing_plan_id":"cebpf4jnsgd1na2vs0mg"},{"bike_id":"dc3d7a51-4954-4cee-8d90-a10249224c92","system_id":"levelo_inurba_marseille","lat":43.2419,"lon":5.39732,"is_reserved":false,"is_disabled":false,"rental_uris":{"android":"levelo://app?vid=dc3d7a51-4954-4cee-8d90-a10249224c92","ios":"levelo://app?vid=dc3d7a51-4954-4cee-8d90-a10249224c92"},"vehicle_type_id":"4","last_reported":1733915265,"current_range_meters":18000,"station_id":"ce4bhn12rcd13ifvqgpg","pricing_plan_id":"cebpf4jnsgd1na2vs0mg"},