{"last_updated":1729289318,"ttl":60,"version":"2.2","data":{"bikes":[{"bike_id":"17a2bf68-ea06-45d7-ae92-a0d2b4e8c232","system_id":"levelo_inurba_marseille","lat":43.2909,"lon":5.38137,"is_reserved":false,"is_disabled":false,"rental_uris":{"android":"levelo://app?vid=17a2bf68-ea06-45d7-ae92-a0d2b4e8c232","ios":"levelo://app?vid=17a2bf68-ea06-45d7-ae92-a0d2b4e8c232"},"vehicle_type_id":"4","last_reported":1729289318,"current_range_meters":36400,"station_id":"ce4bh512rcd13ifvqe2g","pricing_plan_id":"cebpf4jnsgd1na2vs0mg"},{"bike_id":"7c215bb1-a727-4569-986d-c8f6cf1e676e","system_id":"levelo_inurba_marseille","lat":43.31711,"lon":5.43712,"is_reserved":false,"is_disabled":false,"rental_uris":{"android":"levelo://app?vid=7c215bb1-a727-4569-986d-c8f6cf1e676e","ios":"levelo://app?vid=7c215bb1-a727-4569-986d-c8f6cf1e676e"},"vehicle_type_id":"4","last_reported":1729289318,"current_range_meters":38400,"station_id":"ce4bhp92rcd13ifvqhcg","pricing_plan_id":"cebpf4jnsgd1na2vs0mg"},{"bike_id":"ef47d04a-d623-4923-9ac4-d8403fc9a216","system_id":"levelo_inurba_marseille","lat":43.33725,"lon":5.39177,"is_reserved":false,"is_disabled":false,"rental_uris":{"android":"levelo://app?vid=ef47d04a-d623-4923-9ac4-d8403fc9a216","ios":"levelo://app?vid=ef47d04a-d623-4923-9ac4-d8403fc9a216"},"vehicle_type_id":"4","last_reported":1729289318,"current_range_meters":38000,"station_id":"ce4bhr92rcd13ifvqhsg","pricing_plan_id":"cebpf4jnsgd1na2vs0mg"},{"bike_id":"cffb9b88-f373-434c-b9ae-04df317b1190","system_id":"levelo_inurba_marseille","lat":43.31236,"lon":5.36859,"is_reserved":false,"is_disabled":false,"rental_uris":{"android":"levelo://app?vid=cffb9b88-f373-434c-b9ae-04df317b1190","ios":"levelo://app?vid=cffb9b88-f373-434c-b9ae-04df317b1190"},"vehicle_type_id":"4","last_reported":1729289318,"current_range_meters":22800,"station_id":"ce4bgl92rcd13ifvqbq0","pricing_plan_id":"cebpf4jnsgd1na2vs0mg"},{"bike_id":"676ec6c4-6b42-43e0-81fe-327782965da5","system_id":"levelo_inurba_marseille","lat":43.33765,"lon":5.37484,"is_reserved":false,"is_disabled":false,"rental_uris":{"android":"levelo://app?vid=676ec6c4-6b42-43e0-81fe-327782965da5","ios":"levelo://app?vid=676ec6c4-6b42-43e0-81fe-327782965da5"},"vehicle_type_id":"4","last_reported":1729289318,"current_range_meters":16400,"station_id":"","pricing_plan_id":"cebpf4jnsgd1na2vs0mg"},{"bike_id":"efad7009-0ee6-463a-ba8e-0be29e40d893","system_id":"levelo_inurba_marseille","lat":43.29634,"lon":5.38025,"is_reserved":false,"is_disabled":false,"rental_uris":{"android":"levelo://app?vid=efad7009-0ee6-463a-ba8e-0be29e40d893","ios":"levelo://app?vid=efad7009-0ee6-463a-ba8e-0be29e40d893"},"vehicle_type_id":"4","last_reported":1729289318,"current_range_meters":30800,"station_id":"","pricing_plan_id":"cebpf4jnsgd1na2vs0mg"},{"bike_id":"7c211f13-8b61-4402-8ed3-420ceb6cdf6a","system_id":"levelo_inurba_marseille","lat":43.28447,"lon":5.39185,"is_reserved":false,"is_disabled":false,"rental_uris":{"android":"levelo://app?vid=7c211f13-8b61-4402-8ed3-420ceb6cdf6a","ios":"levelo://app?vid=7c211f13-8b61-4402-8ed3-420ceb6cdf6a"},"vehicle_type_id":"4","last_reported":1729289318,"current_range_meters":38800,"station_id":"ce4bhoh2rcd13ifvqh5g","pricing_plan_id":"cebpf4jnsgd1na2vs0mg"},{"bike_id":"966f251d-4412-4e77-82b7-c125675614ef","system_id":"levelo_inurba_marseille","lat":43.337444,"lon":5.374475,"is_reserved":false,"is_disabled":false,"rental_uris":{"android":"levelo://app?vid=966f251d-4412-4e77-82b7-c125675614ef","ios":"levelo://app?vid=966f251d-4412-4e77-82b7-c125675614ef"},"vehicle_type_id":"4","last_reported":1729289318,"current_range_meters":6400,"station_id":"","pricing_plan_id":"cebpf4jnsgd1na2vs0mg"},{"bike_id":"9e23534c-3873-44a5-b32e-f42e453f7851","system_id":"levelo_inurba_marseille","lat":43.31081,"lon":5.4243,"is_reserved":false,"is_disabled":false,"rental_uris":{"android":"levelo://app?vid=9e23534c-3873-44a5-b32e-f42e453f7851","ios":"levelo://app?vid=9e23534c-3873-44a5-b32e-f42e453f7851"},"vehicle_type_id":"4","last_reported":1729289318,"current_range_meters":37600,"station_id":"ce4bhp92rcd13ifvqhag","pricing_plan_id":"cebpf4jnsgd1na2vs0mg"},{"bike_id":"bdac7045-6822-4f98-8d23-075c35d4893f","system_id":"levelo_inurba_marseille","lat":43.29356,"lon":5.42834,"is_reserved":false,"is_disabled":false,"rental_uris":{"android":"levelo://app?vid=bdac7045-6822-4f98-8d23-075c35d4893f","ios":"levelo://app?vid=bdac7045-6822-4f98-8d23-075c35d4893f"},"vehicle_type_id":"4","last_reported":1729289318,"current_range_meters":8400,"station_id":"","pricing_plan_id":"cebpf4jnsgd1na2vs0mg"},{"bike_id":"c776ab65-d0f8-45c6-9388-c708bbeaa1e6","system_id":"levelo_inurba_marseille","lat":43.32003,"lon":5.38144,"is_reserved":false,"is_disabled":false,"rental_uris":{"android":"levelo://app?vid=c776ab65-d0f8-45c6-9388-c708bbeaa1e6","ios":"levelo://app?vid=c776ab65-d0f8-45c6-9388-c708bbeaa1e6"},"vehicle_type_id":"4","last_reported":1729289318,"current_range_meters":28800,"station_id":"ce4bhr12rcd13ifvqhpg","pricing_plan_id":"cebpf4jnsgd1na2vs0mg"},{"bike_id":"8026e345-ee5f-499a-a48f-cdcd6de8dba0","system_id":"levelo_inurba_marseille","lat":43.32365,"lon":5.38887,"is_reserved":false,"is_disabled":false,"rental_uris":{"android":"levelo://app?vid=8026e345-ee5f-499a-a48f-cdcd6de8dba0","ios":"levelo://app?vid=8026e345-ee5f-499a-a48f-cdcd6de8dba0"},"vehicle_type_id":"4","last_reported":1729289318,"current_range_meters":16000,"station_id":"ce4bhqp2rcd13ifvqhog","pricing_plan_id":"cebpf4jnsgd1na2vs0mg"},{"bike_id":"a94a90cf-4975-4f69-8ba1-73130188f59c","system_id":"levelo_inurba_marseille","lat":43.27966,"lon":5.3873,"is_reserved":false,"is_disabled":false,"rental_uris":{"android":"levelo://app?vid=a94a90cf-4975-4f69-8ba1-73130188f59c","ios":"levelo://app?vid=a94a90cf-4975-4f69-8ba1-73130188f59c"},"vehicle_type_id":"4","last_reported":1729289318,"current_range_meters":37600,"station_id":"ce4bhg12rcd13ifvqf80","pricing_plan_id":"cebpf4jnsgd1na2vs0mg"},{"bike_id":"8536bdf8-a581-4680-941a-442b5d864722","system_id":"levelo_inurba_marseille","lat":43.307159,"lon":5.400478,"is_reserved":false,"is_disabled":false,"rental_uris":{"android":"levelo://app?vid=8536bdf8-a581-4680-941a-442b5d864722","ios":"levelo://app?vid=8536bdf8-a581-4680-941a-442b5d864722"},"vehicle_type_id":"4","last_reported":1729289318,"current_range_meters":20400,"station_id":"ce4bgvp2rcd13ifvqct0","pricing_plan_id":"cebpf4jnsgd1na2vs0mg"},{"bike_id":"b11a0b35-9a35-4c12-b0cc-c7e5e4279566","system_id":"levelo_inurba_marseille","lat":43.23958,"lon":5.36639,"is_reserved":false,"is_disabled":false,"rental_uris":{"android":"levelo://app?vid=b11a0b35-9a35-4c12-b0cc-c7e5e4279566","ios":"levelo://app?vid=b11a0b35-9a35-4c12-b0cc-c7e5e4279566"},"vehicle_type_id":"4","last_reported":1729289318,"current_range_meters":6400,"station_id":"ce4bhi12rcd13ifvqfp0","pricing_plan_id":"cebpf4jnsgd1na2vs0mg"},{"bike_id":"ead18ffd-ff4d-42d6-84be-3ac0202bb1f1","system_id":"levelo_inurba_marseille","lat":43.31886,"lon":5.40726,"is_reserved":false,"is_disabled":false,"rental_uris":{"android":"levelo://app?vid=ead18ffd-ff4d-42d6-84be-3ac0202bb1f1","ios":"levelo://app?vid=ead18ffd-ff4d-42d6-84be-3ac0202bb1f1"},"vehicle_type_id":"4","last_reported":1729289318,"current_range_meters":38800,"station_id":"ce4bhq12rcd13ifvqhig","pricing_plan_id":"cebpf4jnsgd1na2vs0mg"},{"bike_id":"684668d2-12eb-4a56-a7ec-fb247f1068f5","system_id":"levelo_inurba_marseille","lat":43.29618,"lon":5.37162,"is_reserved":false,"is_disabled":false,"rental_uris":{"android":"levelo://app?vid=684668d2-12eb-4a56-a7ec-fb247f1068f5","ios":"levelo://app?vid=684668d2-12eb-4a56-a7ec-fb247f1068f5"},"vehicle_type_id":"4","last_reported":1729289318,"current_range_meters":36000,"station_id":"ce4bgnh2rcd13ifvqc0g","pricing_plan_id":"cebpf4jnsgd1na2vs0mg"},{"bike_id":"40302e19-028a-44eb-9abb-29a38b86aa5e","system_id":"levelo_inurba_marseille","lat":43.31172,"lon":5.38727,"is_reserved":false,"is_disabled":false,"rental_uris":{"android":"levelo://app?vid=40302e19-028a-44eb-9abb-29a38b86aa5e","ios":"levelo://app?vid=40302e19-028a-44eb-9abb-29a38b86aa5e"},"vehicle_type_id":"4","last_reported":1729289318,"current_range_meters":34000,"station_id":"ce4bgv12rcd13ifvqcp0","pricing_plan_id":"cebpf4jnsgd1na2vs0mg"},{"bike_id":"83729cb6-71ab-4370-8190-3d8c8681e30a","system_id":"levelo_inurba_marseille","lat":43.30792,"lon":5.37651,"is_reserved":false,"is_disabled":false,"rental_uris":{"android":"levelo://app?vid=83729cb6-71ab-4370-8190-3d8c8681e30a","ios":"levelo://app?vid=83729cb6-71ab-4370-8190-3d8c8681e30a"},"vehicle_type_id":"4","last_reported":1729289318,"current_range_meters":39200,"station_id":"ce4bgv92rcd13ifvqcq0","pricing_plan_id":"cebpf4jnsgd1na2vs0mg"},{"bike_id":"c9df7be6-3ec5-4763-987a-e5182f17ad36","system_id":"levelo_inurba_marseille","lat":43.31073,"lon":5.38356,"is_reserved":false,"is_disabled":false,"rental_uris":{"android":"levelo://app?vid=c9df7be6-3ec5-4763-987a-e5182f17ad36","ios":"levelo://app?vid=c9df7be6-3ec5-4763-987a-e5182f17ad36"},"vehicle_type_id":"4","last_reported":1729289318,"current_range_meters":32000,"station_id":"ce4bgv92rcd13ifvqcr0","pricing_plan_id":"cebpf4jnsgd1na2vs0mg"},{"bike_id":"545fb0d0-a50d-45be-bcd4-eb452aa3b4ed","system_id":"levelo_inurba_marseille","lat":43.29255,"lon":5.40901,"is_reserved":false,"is_disabled":false,"rental_uris":{"android":"levelo://app?vid=545fb0d0-a50d-45be-bcd4-eb452aa3b4ed","ios":"levelo://app?vid=545fb0d0-a50d-45be-bcd4-eb452aa3b4ed"},"vehicle_type_id":"4","last_reported":1729289318,"current_range_meters":20000,"station_id":"ce4bh192rcd13ifvqdc0","pricing_plan_id":"cebpf4jnsgd1na2vs0mg"},{"bike_id":"006ddbf4-82cb-41c3-a643-0f3a1c8bb945","system_id":"levelo_inurba_marseille","lat":43.2707,"lon":5.42277,"is_reserved":false,"is_disabled":false,"rental_uris":{"android":"levelo://app?vid=006ddbf4-82cb-41c3-a643-0f3a1c8bb945","ios":"levelo://app?vid=006ddbf4-82cb-41c3-a643-0f3a1c8bb945"},"vehicle_type_id":"4","last_reported":1729289318,"current_range_meters":17200,"station_id":"ce4bhk92rcd13ifvqgb0","pricing_plan_id":"cebpf4jnsgd1na2vs0mg"},{"bike_id":"d07fd24a-df60-4a00-a168-dda528b8e7c7","system_id":"levelo_inurba_marseille","lat":43.30209,"lon":5.39469,"is_reserved":false,"is_disabled":false,"rental_uris":{"android":"levelo://app?vid=d07fd24a-df60-4a00-a168-dda528b8e7c7","ios":"levelo://app?vid=d07fd24a-df60-4a00-a168-dda528b8e7c7"},"vehicle_type_id":"4","last_reported":1729289318,"current_range_meters":37600,"station_id":"ce4bh0p2rcd13ifvqd70","pricing_plan_id":"cebpf4jnsgd1na2vs0mg"},{"bike_id":"c140ec43-5c1d-4351-aeaf-3acc1e63d43e","system_id":"levelo_inurba_marseille","lat":43.28612,"lon":5.37055,"is_reserved":false,"is_disabled":false,"rental_uris":{"android":"levelo://app?vid=c140ec43-5c1d-4351-aeaf-3acc1e63d43e","ios":"levelo://app?vid=c140ec43-5c1d-4351-aeaf-3acc1e63d43e"},"vehicle_type_id":"4","last_reported":1729289318,"current_range_meters":10000,"station_id":"ce4bht12rcd13ifvqi60","pricing_plan_id":"cebpf4jnsgd1na2vs0mg"},{"bike_id":"0939b9de-5a6e-4b31-b4aa-33f25b80fd91","system_id":"levelo_inurba_marseille","lat":43.29299,"lon":5.37459,"is_reserved":false,"is_disabled":false,"rental_uris":{"android":"levelo://app?vid=0939b9de-5a6e-4b31-b4aa-33f25b80fd91","ios":"levelo://app?vid=0939b9de-5a6e-4b31-b4aa-33f25b80fd91"},"vehicle_type_id":"4","last_reported":1729289318,"current_range_meters":4800,"station_id":"ce4bgi12rcd13ifvqb70","pricing_plan_id":"cebpf4jnsgd1na2vs0mg"},{"bike_id":"9e833968-4b5b-4a32-a96b-8431979de98c","system_id":"levelo_inurba_marseille","lat":43.25726,"lon":5.41103,"is_reserved":false,"is_disabled":false,"rental_uris":{"android":"levelo://app?vid=9e833968-4b5b-4a32-a96b-8431979de98c","ios":"levelo://app?vid=9e833968-4b5b-4a32-a96b-8431979de98c"},"vehicle_type_id":"4","last_reported":1729289318,"current_range_meters":16400,"station_id":"ce4bhkp2rcd13ifvqgd0","pricing_plan_id":"cebpf4jnsgd1na2vs0mg"},{"bike_id":"84a71244-fc5a-453f-b683-69ed4c14244f","system_id":"levelo_inurba_marseille","lat":43.27999,"lon":5.41648,"is_reserved":false,"is_disabled":false,"rental_uris":{"android":"levelo://app?vid=84a71244-fc5a-453f-b683-69ed4c14244f","ios":"levelo://app?vid=84a71244-fc5a-453f-b683-69ed4c14244f"},"vehicle_type_id":"4","last_reported":1729289318,"current_range_meters":12400,"station_id":"ce4bho12rcd13ifvqh1g","pricing_plan_id":"cebpf4jnsgd1na2vs0mg"},{"bike_id":"2aa30074-a798-4517-9910-408fe840d5c0","system_id":"levelo_inurba_marseille","lat":43.23192,"lon":5.35555,"is_reserved":false,"is_disabled":false,"rental_uris":{"android":"levelo://app?vid=2aa30074-a798-4517-9910-408fe840d5c0","ios":"levelo://app?vid=2aa30074-a798-4517-9910-408fe840d5c0"},"vehicle_type_id":"4","last_reported":1729289318,"current_range_meters":27200,"station_id":"ce4bhu92rcd13ifvqi70","pricing_plan_id":"cebpf4jnsgd1na2vs0mg"},{"bike_id":"62fd95d1-82c7-465e-856f-97f8526406fb","system_id":"levelo_inurba_marseille","lat":43.27835,"lon":5.39204,"is_reserved":false,"is_disabled":false,"rental_uris":{"android":"levelo://app?vid=62fd95d1-82c7-465e-856f-97f8526406fb","ios":"levelo://app?vid=62fd95d1-82c7-465e-856f-97f8526406fb"},"vehicle_type_id":"4","last_reported":1729289318,"current_range_meters":30800,"station_id":"ce4bhjp2rcd13ifvqga0","pricing_plan_id":"cebpf4jnsgd1na2vs0mg"},{"bike_id":"373210b2-2cc1-443d-a96a-3ff505892909","system_id":"levelo_inurba_marseille","lat":43.31277,"lon":5.40161,"is_reserved":false,"is_disabled":false,"rental_uris":{"android":"levelo://app?vid=373210b2-2cc1-443d-a96a-3ff505892909","ios":"levelo://app?vid=373210b2-2cc1-443d-a96a-3ff505892909"},"vehicle_type_id":"4","last_reported":1729289318,"current_range_meters":38400,"station_id":"ce4bh092rcd13ifvqd30","pricing_plan_id":"cebpf4jnsgd1na2vs0mg"},{"bike_id":"729179c8-7a5b-4dd4-9b70-b7cfb266c4ae","system_id":"levelo_inurba_marseille","lat":43.2757,"lon":5.38427,"is_reserved":false,"is_disabled":false,"rental_uris":{"android":"levelo://app?vid=729179c8-7a5b-4dd4-9b70-b7cfb266c4ae","ios":"levelo://app?vid=729179c8-7a5b-4dd4-9b70-b7cfb266c4ae"},"vehicle_type_id":"4","last_reported":1729289318,"current_range_meters":30000,"station_id":"ce4bhh92rcd13ifvqfi0","pricing_plan_id":"cebpf4jnsgd1na2vs0mg"},{"bike_id":"9224c72e-b6cd-4b3b-807f-ae00f24ef2aa","system_id":"levelo_inurba_marseille","lat":43.29509,"lon":5.3874,"is_reserved":false,"is_disabled":false,"rental_uris":{"android":"levelo://app?vid=9224c72e-b6cd-4b3b-807f-ae00f24ef2aa","ios":"levelo://app?vid=9224c72e-b6cd-4b3b-807f-ae00f24ef2aa"},"vehicle_type_id":"4","last_reported":1729289318,"current_range_meters":28000,"station_id":"","pricing_plan_id":"cebpf4jnsgd1na2vs0mg"},{"bike_id":"bc4dfd71-cdf3-45e3-8aa3-c5528379f96a","system_id":"levelo_inurba_marseille","lat":43.27609,"lon":5.36119,"is_reserved":false,"is_disabled":false,"rental_uris":{"android":"levelo://app?vid=bc4dfd71-cdf3-45e3-8aa3-c5528379f96a","ios":"levelo://app?vid=bc4dfd71-cdf3-45e3-8aa3-c5528379f96a"},"vehicle_type_id":"4","last_reported":1729289318,"current_range_meters":24000,"station_id":"ce4bgj92rcd13ifvqbe0","pricing_plan_id":"cebpf4jnsgd1na2vs0mg"},{"bike_id":"5d81cc75-3e41-4ea6-b6f5-6d48a00959b9","system_id":"levelo_inurba_marseille","lat":43.27972,"lon":5.38749,"is_reserved":false,"is_disabled":false,"rental_uris":{"android":"levelo://app?vid=5d81cc75-3e41-4ea6-b6f5-6d48a00959b9","ios":"levelo://app?vid=5d81cc75-3e41-4ea6-b6f5-6d48a00959b9"},"vehicle_type_id":"4","last_reported":1729289318,"current_range_meters":30000,"station_id":"ce4bhg12rcd13ifvqf80","pricing_plan_id":"cebpf4jnsgd1na2vs0mg"},{"bike_id":"c746da30-0175-4c63-8cc4-f4d0284e8127","system_id":"levelo_inurba_marseille","lat":43.23963,"lon":5.36643,"is_reserved":false,"is_disabled":false,"rental_uris":{"android":"levelo://app?vid=c746da30-0175-4c63-8cc4-f4d0284e8127","ios":"levelo://app?vid=c746da30-0175-4c63-8cc4-f4d0284e8127"},"vehicle_type_id":"4","last_reported":1729289318,"current_range_meters":19600,"station_id":"ce4bhi12rcd13ifvqfp0","pricing_plan_id":"cebpf4jnsgd1na2vs0mg"},{"bike_id":"bf2e778d-e13a-4348-93ad-ebc3ad345269","system_id":"levelo_inurba_marseille","lat":43.294067,"lon":5.386184,"is_reserved":false,"is_disabled":false,"rental_uris":{"android":"levelo://app?vid=bf2e778d-e13a-4348-93ad-ebc3ad345269","ios":"levelo://app?vid=bf2e778d-e13a-4348-93ad-ebc3ad345269"},"vehicle_type_id":"4","last_reported":1729289318,"current_range_meters":24000,"station_id":"ce4bh5p2rcd13ifvqe4g","pricing_plan_id":"cebpf4jnsgd1na2vs0mg"},{"bike_id":"9a599b5d-59bf-42c3-816b-5825872f1844","system_id":"levelo_inurba_marseille","lat":43.28438,"lon":5.39191,"is_reserved":false,"is_disabled":false,"rental_uris":{"android":"levelo://app?vid=9a599b5d-59bf-42c3-816b-5825872f1844","ios":"levelo://app?vid=9a599b5d-59bf-42c3-816b-5825872f1844"},"vehicle_type_id":"4","last_reported":1729289318,"current_range_meters":33600,"station_id":"ce4bhoh2rcd13ifvqh5g","pricing_plan_id":"cebpf4jnsgd1na2vs0mg"},{"bike_id":"28e3118e-6c8f-4a75-a996-b10c34037a75","system_id":"levelo_inurba_marseille","lat":43.27494,"lon":5.4244,"is_reserved":false,"is_disabled":false,"rental_uris":{"android":"levelo://app?vid=28e3118e-6c8f-4a75-a996-b10c34037a75","ios":"levelo://app?vid=28e3118e-6c8f-4a75-a996-b10c34037a75"},"vehicle_type_id":"4","last_reported":1729289318,"current_range_meters":30000,"station_id":"ce4bhn92rcd13ifvqgrg","pricing_plan_id":"cebpf4jnsgd1na2vs0mg"},{"bike_id":"1dc42c89-5aa7-41d8-bc93-1f8f11dcaf4d","system_id":"levelo_inurba_marseille","lat":43.31165,"lon":5.38721,"is_reserved":false,"is_disabled":false,"rental_uris":{"android":"levelo://app?vid=1dc42c89-5aa7-41d8-bc93-1f8f11dcaf4d","ios":"levelo://app?vid=1dc42c89-5aa7-41d8-bc93-1f8f11dcaf4d"},"vehicle_type_id":"4","last_reported":1729289318,"current_range_meters":25200,"station_id":"ce4bgv12rcd13ifvqcp0","pricing_plan_id":"cebpf4jnsgd1na2vs0mg"},{"bike_id":"20704087-a26b-4fbc-97f1-c669a909dd1d","system_id":"levelo_inurba_marseille","lat":43.28697,"lon":5.39972,"is_reserved":false,"is_disabled":false,"rental_uris":{"android":"levelo://app?vid=20704087-a26b-4fbc-97f1-c669a909dd1d","ios":"levelo://app?vid=20704087-a26b-4fbc-97f1-c669a909dd1d"},"vehicle_type_id":"4","last_reported":1729289318,"current_range_meters":18000,"station_id":"ce4bho92rcd13ifvqh3g","pricing_plan_id":"cebpf4jnsgd1na2vs0mg"},{"bike_id":"6f034070-ee6f-4e30-853e-ccd43834685f","system_id":"levelo_inurba_marseille","lat":43.28002,"lon":5.41654,"is_reserved":false,"is_disabled":false,"rental_uris":{"android":"levelo://app?vid=6f034070-ee6f-4e30-853e-ccd43834685f","ios":"levelo://app?vid=6f034070-ee6f-4e30-853e-ccd43834685f"},"vehicle_type_id":"4","last_reported":1729289318,"current_range_meters":14400,"station_id":"ce4bho12rcd13ifvqh1g","pricing_plan_id":"cebpf4jnsgd1na2vs0mg"},{"bike_id":"eca218d1-7119-492a-ba62-cb52d239834b","system_id":"levelo_inurba_marseille","lat":43.27817,"lon":5.40721,"is_reserved":false,"is_disabled":false,"rental_uris":{"android":"levelo://app?vid=eca218d1-7119-492a-ba62-cb52d239834b","ios":"levelo://app?vid=eca218d1-7119-492a-ba62-cb52d239834b"},"vehicle_type_id":"4","last_reported":1729289318,"current_range_meters":36000,"station_id":"ce4bhnh2rcd13ifvqgtg","pricing_plan_id":"cebpf4jnsgd1na2vs0mg"},{"bike_id":"4f8bd11b-a06a-4d2a-bee0-a05a0caa7df3","system_id":"levelo_inurba_marseille","lat":43.2318,"lon":5.39975,"is_reserved":false,"is_disabled":false,"rental_uris":{"android":"levelo://app?vid=4f8bd11b-a06a-4d2a-bee0-a05a0caa7df3","ios":"levelo://app?vid=4f8bd11b-a06a-4d2a-bee0-a05a0caa7df3"},"vehicle_type_id":"4","last_reported":1729289318,"current_range_meters":22800,"station_id":"ce4bhn12rcd13ifvqgqg","pricing_plan_id":"cebpf4jnsgd1na2vs0mg"},{"bike_id":"996fe878-5b5d-4603-a6c3-9fb689e4747b","system_id":"levelo_inurba_marseille","lat":43.27494,"lon":5.42453,"is_reserved":false,"is_disabled":false,"rental_uris":{"android":"levelo://app?vid=996fe878-5b5d-4603-a6c3-9fb689e4747b","ios":"levelo://app?vid=996fe878-5b5d-4603-a6c3-9fb689e4747b"},"vehicle_type_id":"4","last_reported":1729289318,"current_range_meters":16000,"station_id":"ce4bhn92rcd13ifvqgrg","pricing_plan_id":"cebpf4jnsgd1na2vs0mg"},{"bike_id":"fc6e513b-da81-4d34-a427-493e42edd768","system_id":"levelo_inurba_marseille","lat":43.29535,"lon":5.39334,"is_reserved":false,"is_disabled":false,"rental_uris":{"android":"levelo://app?vid=fc6e513b-da81-4d34-a427-493e42edd768","ios":"levelo://app?vid=fc6e513b-da81-4d34-a427-493e42edd768"},"vehicle_type_id":"4","last_reported":1729289318,"current_range_meters":25600,"station_id":"","pricing_plan_id":"cebpf4jnsgd1na2vs0mg"},{"bike_id":"0092393c-5fa7-4d7e-96ae-1d3cba232a3c","system_id":"levelo_inurba_marseille","lat":43.23186,"lon":5.39973,"is_reserved":false,"is_disabled":false,"rental_uris":{"android":"levelo://app?vid=0092393c-5fa7-4d7e-96ae-1d3cba232a3c","ios":"levelo://app?vid=0092393c-5fa7-4d7e-96ae-1d3cba232a3c"},"vehicle_type_id":"4","last_reported":1729289318,"current_range_meters":38400,"station_id":"ce4bhn12rcd13ifvqgqg","pricing_plan_id":"cebpf4jnsgd1na2vs0mg"},{"bike_id":"d17f4b43-63c8-44ed-8945-88776a427dff","system_id":"levelo_inurba_marseille","lat":43.30524,"lon":5.38411,"is_reserved":false,"is_disabled":false,"rental_uris":{"android":"levelo://app?vid=d17f4b43-63c8-44ed-8945-88776a427dff","ios":"levelo://app?vid=d17f4b43-63c8-44ed-8945-88776a427dff"},"vehicle_type_id":"4","last_reported":1729289318,"current_range_meters":39200,"station_id":"ce4bgg92rcd13ifvqb30","pricing_plan_id":"cebpf4jnsgd1na2vs0mg"},{"bike_id":"586c3761-8b32-493f-b466-fecd8a579e02","system_id":"levelo_inurba_marseille","lat":43.30803,"lon":5.38143,"is_reserved":false,"is_disabled":false,"rental_uris":{"android":"levelo://app?vid=586c3761-8b32-493f-b466-fecd8a579e02","ios":"levelo://app?vid=586c3761-8b32-493f-b466-fecd8a579e02"},"vehicle_type_id":"4","last_reported":1729289318,"current_range_meters":22400,"station_id":"ce4bgt12rcd13ifvqce0","pricing_plan_id":"cebpf4jnsgd1na2vs0mg"},{"bike_id":"9d9cfb07-0d17-4606-aa8c-54dd14c07f4d","system_id":"levelo_inurba_marseille","lat":43.28707,"lon":5.37389,"is_reserved":false,"is_disabled":false,"rental_uris":{"android":"levelo://app?vid=9d9cfb07-0d17-4606-aa8c-54dd14c07f4d","ios":"levelo://app?vid=9d9cfb07-0d17-4606-aa8c-54dd14c07f4d"},"vehicle_type_id":"4","last_reported":1729289318,"current_range_meters":20400,"station_id":"ce4bh3p2rcd13ifvqdq0","pricing_plan_id":"cebpf4jnsgd1na2vs0mg"},{"bike_id":"aac282ef-7d0d-4cf6-a738-a10a76319aa8","system_id":"levelo_inurba_marseille","lat":43.25085,"lon":5.39518,"is_reserved":false,"is_disabled":false,"rental_uris":{"android":"levelo://app?vid=aac282ef-7d0d-4cf6-a738-a10a76319aa8","ios":"levelo://app?vid=aac282ef-7d0d-4cf6-a738-a10a76319aa8"},"vehicle_type_id":"4","last_reported":1729289318,"current_range_meters":32800,"station_id":"ce4bhm12rcd13ifvqgkg","pricing_plan_id":"cebpf4jnsgd1na2vs0mg"},{"bike_id":"fcbadcaa-62d1-4b02-95d0-df263e6f55d6","system_id":"levelo_inurba_marseille","lat":43.279549,"lon":5.387421,"is_reserved":false,"is_disabled":false,"rental_uris":{"android":"levelo://app?vid=fcbadcaa-62d1-4b02-95d0-df263e6f55d6","ios":"levelo://app?vid=fcbadcaa-62d1-4b02-95d0-df263e6f55d6"},"vehicle_type_id":"4","last_reported":1729289318,"current_range_meters":20800,"station_id":"ce4bhg12rcd13ifvqf80","pricing_plan_id":"cebpf4jnsgd1na2vs0mg"},{"bike_id":"65a67f11-6e2e-4b06-8422-bf4f01279b58","system_id":"levelo_inurba_marseille","lat":43.32656,"lon":5.40985,"is_reserved":false,"is_disabled":false,"rental_uris":{"android":"levelo://app?vid=65a67f11-6e2e-4b06-8422-bf4f01279b58","ios":"levelo://app?vid=65a67f11-6e2e-4b06-8422-bf4f01279b58"},"vehicle_type_id":"4","last_reported":1729289318,"current_range_meters":39200,"station_id":"ce4bhpp2rcd13ifvqhgg","pricing_plan_id":"cebpf4jnsgd1na2vs0mg"},{"bike_id":"6a17560c-e982-4f70-afa6-b4ec03264eaa","system_id":"levelo_inurba_marseille","lat":43.28433,"lon":5.3919,"is_reserved":false,"is_disabled":false,"rental_uris":{"android":"levelo://app?vid=6a17560c-e982-4f70-afa6-b4ec03264eaa","ios":"levelo://app?vid=6a17560c-e982-4f70-afa6-b4ec03264eaa"},"vehicle_type_id":"4","last_reported":1729289318,"current_range_meters":40000,"station_id":"ce4bhoh2rcd13ifvqh5g","pricing_plan_id":"cebpf4jnsgd1na2vs0mg"},{"bike_id":"60b7beea-fbe1-4945-994d-4b03c2f21db8","system_id":"levelo_inurba_marseille","lat":43.30883,"lon":5.37188,"is_reserved":false,"is_disabled":false,"rental_uris":{"android":"levelo://app?vid=60b7beea-fbe1-4945-994d-4b03c2f21db8","ios":"levelo://app?vid=60b7beea-fbe1-4945-994d-4b03c2f21db8"},"vehicle_type_id":"4","last_reported":1729289318,"current_range_meters":38800,"station_id":"ce4bguh2rcd13ifvqckg","pricing_plan_id":"cebpf4jnsgd1na2vs0mg"},{"bike_id":"43bf3f09-3b44-40db-9b4f-30b53b0a8904","system_id":"levelo_inurba_marseille","lat":43.28437,"lon":5.39182,"is_reserved":false,"is_disabled":false,"rental_uris":{"android":"levelo://app?vid=43bf3f09-3b44-40db-9b4f-30b53b0a8904","ios":"levelo://app?vid=43bf3f09-3b44-40db-9b4f-30b53b0a8904"},"vehicle_type_id":"4","last_reported":1729289318,"current_range_meters":24800,"station_id":"ce4bhoh2rcd13ifvqh5g","pricing_plan_id":"cebpf4jnsgd1na2vs0mg"},{"bike_id":"3d7546d0-4dba-4212-88c9-dfe9a2032237","system_id":"levelo_inurba_marseille","lat":43.24171,"lon":5.36394,"is_reserved":false,"is_disabled":false,"rental_uris":{"android":"levelo://app?vid=3d7546d0-4dba-4212-88c9-dfe9a2032237","ios":"levelo://app?vid=3d7546d0-4dba-4212-88c9-dfe9a2032237"},"vehicle_type_id":"4","last_reported":1729289318,"current_range_meters":36400,"station_id":"cpo36qri1sfpv3e86is0","pricing_plan_id":"cebpf4jnsgd1na2vs0mg"},{"bike_id":"8de21701-f0da-4ad6-a0a8-a05d0969b2d4","system_id":"levelo_inurba_marseille","lat":43.31169,"lon":5.38714,"is_reserved":false,"is_disabled":false,"rental_uris":{"android":"levelo://app?vid=8de21701-f0da-4ad6-a0a8-a05d0969b2d4","ios":"levelo://app?vid=8de21701-f0da-4ad6-a0a8-a05d0969b2d4"},"vehicle_type_id":"4","last_reported":1729289318,"current_range_meters":28000,"station_id":"ce4bgv12rcd13ifvqcp0","pricing_plan_id":"cebpf4jnsgd1na2vs0mg"},{"bike_id":"53253960-e3df-4b48-8186-b9736c131bbb","system_id":"levelo_inurba_marseille","lat":43.27325,"lon":5.39087,"is_reserved":false,"is_disabled":false,"rental_uris":{"android":"levelo://app?vid=53253960-e3df-4b48-8186-b9736c131bbb","ios":"levelo://app?vid=53253960-e3df-4b48-8186-b9736c131bbb"},"vehicle_type_id":"4","last_reported":1729289318,"current_range_meters":20800,"station_id":"ce4bhgp2rcd13ifvqfe0","pricing_plan_id":"cebpf4jnsgd1na2vs0mg"},{"bike_id":"2024b01b-a536-4f43-bb53-319f00880693","system_id":"levelo_inurba_marseille","lat":43.30803,"lon":5.38154,"is_reserved":false,"is_disabled":false,"rental_uris":{"android":"levelo://app?vid=2024b01b-a536-4f43-bb53-319f00880693","ios":"levelo://app?vid=2024b01b-a536-4f43-bb53-319f00880693"},"vehicle_type_id":"4","last_reported":1729289318,"current_range_meters":39200,"station_id":"ce4bgt12rcd13ifvqce0","pricing_plan_id":"cebpf4jnsgd1na2vs0mg"},{"bike_id":"8b10c252-b32b-40ef-b8da-9d1c9158f577","system_id":"levelo_inurba_marseille","lat":43.26045,"lon":5.3755,"is_reserved":false,"is_disabled":false,"rental_uris":{"android":"levelo://app?vid=8b10c252-b32b-40ef-b8da-9d1c9158f577","ios":"levelo://app?vid=8b10c252-b32b-40ef-b8da-9d1c9158f577"},"vehicle_type_id":"4","last_reported":1729289318,"current_range_meters":39200,"station_id":"ce4bhgh2rcd13ifvqfa0","pricing_plan_id":"cebpf4jnsgd1na2vs0mg"},{"bike_id":"2e24b2f7-04d9-4aa5-a803-56fcc770dc64","system_id":"levelo_inurba_marseille","lat":43.30799,"lon":5.38169,"is_reserved":false,"is_disabled":false,"rental_uris":{"android":"levelo://app?vid=2e24b2f7-04d9-4aa5-a803-56fcc770dc64","ios":"levelo://app?vid=2e24b2f7-04d9-4aa5-a803-56fcc770dc64"},"vehicle_type_id":"4","last_reported":1729289318,"current_range_meters":30800,"station_id":"ce4bgt12rcd13ifvqce0","pricing_plan_id":"cebpf4jnsgd1na2vs0mg"},{"bike_id":"2f4c75bc-9ecf-4e2e-93ab-ac8c46e217af","system_id":"levelo_inurba_marseille","lat":43.2744,"lon":5.39413,"is_reserved":false,"is_disabled":false,"rental_uris":{"android":"levelo://app?vid=2f4c75bc-9ecf-4e2e-93ab-ac8c46e217af","ios":"levelo://app?vid=2f4c75bc-9ecf-4e2e-93ab-ac8c46e217af"},"vehicle_type_id":"4","last_reported":1729289318,"current_range_meters":30800,"station_id":"ce4bhdp2rcd13ifvqf20","pricing_plan_id":"cebpf4jnsgd1na2vs0mg"},{"bike_id":"90b7df2b-2805-4913-a745-07d80216980c","system_id":"levelo_inurba_marseille","lat":43.30799,"lon":5.43522,"is_reserved":false,"is_disabled":false,"rental_uris":{"android":"levelo://app?vid=90b7df2b-2805-4913-a745-07d80216980c","ios":"levelo://app?vid=90b7df2b-2805-4913-a745-07d80216980c"},"vehicle_type_id":"4","last_reported":1729289318,"current_range_meters":9200,"station_id":"ce4bhph2rcd13ifvqheg","pricing_plan_id":"cebpf4jnsgd1na2vs0mg"},{"bike_id":"32ce68a3-3fc7-4257-974f-ab657619c295","system_id":"levelo_inurba_marseille","lat":43.33735,"lon":5.37451,"is_reserved":false,"is_disabled":false,"rental_uris":{"android":"levelo://app?vid=32ce68a3-3fc7-4257-974f-ab657619c295","ios":"levelo://app?vid=32ce68a3-3fc7-4257-974f-ab657619c295"},"vehicle_type_id":"4","last_reported":1729289318,"current_range_meters":8800,"station_id":"","pricing_plan_id":"cebpf4jnsgd1na2vs0mg"},{"bike_id":"c4cc6d39-ca2d-4756-9269-eb88ed03f6f8","system_id":"levelo_inurba_marseille","lat":43.34148,"lon":5.40901,"is_reserved":false,"is_disabled":false,"rental_uris":{"android":"levelo://app?vid=c4cc6d39-ca2d-4756-9269-eb88ed03f6f8","ios":"levelo://app?vid=c4cc6d39-ca2d-4756-9269-eb88ed03f6f8"},"vehicle_type_id":"4","last_reported":1729289318,"current_range_meters":11600,"station_id":"ce4bhqh2rcd13ifvqhlg","pricing_plan_id":"cebpf4jnsgd1na2vs0mg"},{"bike_id":"e5dab1ea-a810-41a0-a6cd-403085d8bf13","system_id":"levelo_inurba_marseille","lat":43.27367,"lon":5.36259,"is_reserved":false,"is_disabled":false,"rental_uris":{"android":"levelo://app?vid=e5dab1ea-a810-41a0-a6cd-403085d8bf13","ios":"levelo://app?vid=e5dab1ea-a810-41a0-a6cd-403085d8bf13"},"vehicle_type_id":"4","last_reported":1729289318,"current_range_meters":34000,"station_id":"ce4bhbh2rcd13ifvqeo0","pricing_plan_id":"cebpf4jnsgd1na2vs0mg"},{"bike_id":"0c1ea11a-f23d-45af-a7b2-baa9bbda0ed3","system_id":"levelo_inurba_marseille","lat":43.25084,"lon":5.39512,"is_reserved":false,"is_disabled":false,"rental_uris":{"android":"levelo://app?vid=0c1ea11a-f23d-45af-a7b2-baa9bbda0ed3","ios":"levelo://app?vid=0c1ea11a-f23d-45af-a7b2-baa9bbda0ed3"},"vehicle_type_id":"4","last_reported":1729289318,"current_range_meters":38000,"station_id":"ce4bhm12rcd13ifvqgkg","pricing_plan_id":"cebpf4jnsgd1na2vs0mg"},{"bike_id":"b64362e2-b043-4f67-8e42-f68524e828ed","system_id":"levelo_inurba_marseille","lat":43.24178,"lon":5.39708,"is_reserved":false,"is_disabled":false,"rental_uris":{"android":"levelo://app?vid=b64362e2-b043-4f67-8e42-f68524e828ed","ios":"levelo://app?vid=b64362e2-b043-4f67-8e42-f68524e828ed"},"vehicle_type_id":"4","last_reported":1729289318,"current_range_meters":23200,"station_id":"ce4bhn12rcd13ifvqgpg","pricing_plan_id":"cebpf4jnsgd1na2vs0mg"},{"bike_id":"1b1613ca-55b3-41c0-bc8c-bdb057af993a","system_id":"levelo_inurba_marseille","lat":43.27939,"lon":5.41046,"is_reserved":false,"is_disabled":false,"rental_uris":{"android":"levelo://app?vid=1b1613ca-55b3-41c0-bc8c-bdb057af993a","ios":"levelo://app?vid=1b1613ca-55b3-41c0-bc8c-bdb057af993a"},"vehicle_type_id":"4","last_reported":1729289318,"current_range_meters":16400,"station_id":"ce4bhnp2rcd13ifvqh0g","pricing_plan_id":"cebpf4jnsgd1na2vs0mg"},{"bike_id":"6aab2893-af67-4831-8628-b504bebca3db","system_id":"levelo_inurba_marseille","lat":43.29003,"lon":5.38818,"is_reserved":false,"is_disabled":false,"rental_uris":{"android":"levelo://app?vid=6aab2893-af67-4831-8628-b504bebca3db","ios":"levelo://app?vid=6aab2893-af67-4831-8628-b504bebca3db"},"vehicle_type_id":"4","last_reported":1729289318,"current_range_meters":6000,"station_id":"ce4bh612rcd13ifvqe6g","pricing_plan_id":"cebpf4jnsgd1na2vs0mg"},{"bike_id":"3ba906cb-82d0-435c-a63b-70d7743a9b06","system_id":"levelo_inurba_marseille","lat":43.28441,"lon":5.39185,"is_reserved":false,"is_disabled":false,"rental_uris":{"android":"levelo://app?vid=3ba906cb-82d0-435c-a63b-70d7743a9b06","ios":"levelo://app?vid=3ba906cb-82d0-435c-a63b-70d7743a9b06"},"vehicle_type_id":"4","last_reported":1729289318,"current_range_meters":28000,"station_id":"ce4bhoh2rcd13ifvqh5g","pricing_plan_id":"cebpf4jnsgd1na2vs0mg"},{"bike_id":"dfb160c5-111e-4fc3-88c2-fba8af64107f","system_id":"levelo_inurba_marseille","lat":43.32339,"lon":5.40624,"is_reserved":false,"is_disabled":false,"rental_uris":{"android":"levelo://app?vid=dfb160c5-111e-4fc3-88c2-fba8af64107f","ios":"levelo://app?vid=dfb160c5-111e-4fc3-88c2-fba8af64107f"},"vehicle_type_id":"4","last_reported":1729289318,"current_range_meters":39200,"station_id":"ce4bhq92rcd13ifvqhjg","pricing_plan_id":"cebpf4jnsgd1na2vs0mg"},{"bike_id":"e1a3d861-0d3c-462b-aabd-8c3081f4a2a0","system_id":"levelo_inurba_marseille","lat":43.29659,"lon":5.38133,"is_reserved":false,"is_disabled":false,"rental_uris":{"android":"levelo://app?vid=e1a3d861-0d3c-462b-aabd-8c3081f4a2a0","ios":"levelo://app?vid=e1a3d861-0d3c-462b-aabd-8c3081f4a2a0"},"vehicle_type_id":"4","last_reported":1729289318,"current_range_meters":25600,"station_id":"","pricing_plan_id":"cebpf4jnsgd1na2vs0mg"},{"bike_id":"1c170803-c512-427c-a113-e3f0a35819ca","system_id":"levelo_inurba_marseille","lat":43.24549,"lon":5.39521,"is_reserved":false,"is_disabled":false,"rental_uris":{"android":"levelo://app?vid=1c170803-c512-427c-a113-e3f0a35819ca","ios":"levelo://app?vid=1c170803-c512-427c-a113-e3f0a35819ca"},"vehicle_type_id":"4","last_reported":1729289318,"current_range_meters":37600,"station_id":"ce4bhlp2rcd13ifvqgjg","pricing_plan_id":"cebpf4jnsgd1na2vs0mg"},{"bike_id":"ddd62ba3-c050-46d2-a8ed-02c4b983589b","system_id":"levelo_inurba_marseille","lat":43.32492,"lon":5.36563,"is_reserved":false,"is_disabled":false,"rental_uris":{"android":"levelo://app?vid=ddd62ba3-c050-46d2-a8ed-02c4b983589b","ios":"levelo://app?vid=ddd62ba3-c050-46d2-a8ed-02c4b983589b"},"vehicle_type_id":"4","last_reported":1729289318,"current_range_meters":30400,"station_id":"ce4bhs12rcd13ifvqhvg","pricing_plan_id":"cebpf4jnsgd1na2vs0mg"},{"bike_id":"8c1ec6cb-2291-4814-837b-be8625c706f3","system_id":"levelo_inurba_marseille","lat":43.231951,"lon":5.355444,"is_reserved":false,"is_disabled":false,"rental_uris":{"android":"levelo://app?vid=8c1ec6cb-2291-4814-837b-be8625c706f3","ios":"levelo://app?vid=8c1ec6cb-2291-4814-837b-be8625c706f3"},"vehicle_type_id":"4","last_reported":1729289318,"current_range_meters":30400,"station_id":"ce4bhu92rcd13ifvqi70","pricing_plan_id":"cebpf4jnsgd1na2vs0mg"},{"bike_id":"24d51479-5034-4c6f-a657-09075865709c","system_id":"levelo_inurba_marseille","lat":43.3133,"lon":5.39682,"is_reserved":false,"is_disabled":false,"rental_uris":{"android":"levelo://app?vid=24d51479-5034-4c6f-a657-09075865709c","ios":"levelo://app?vid=24d51479-5034-4c6f-a657-09075865709c"},"vehicle_type_id":"4","last_reported":1729289318,"current_range_meters":39200,"station_id":"ce4bgvp2rcd13ifvqcu0","pricing_plan_id":"cebpf4jnsgd1na2vs0mg"},{"bike_id":"8429a31c-77f3-41b6-b710-38d8ca6d27dc","system_id":"levelo_inurba_marseille","lat":43.25084,"lon":5.39507,"is_reserved":false,"is_disabled":false,"rental_uris":{"android":"levelo://app?vid=8429a31c-77f3-41b6-b710-38d8ca6d27dc","ios":"levelo://app?vid=8429a31c-77f3-41b6-b710-38d8ca6d27dc"},"vehicle_type_id":"4","last_reported":1729289318,"current_range_meters":39200,"station_id":"ce4bhm12rcd13ifvqgkg","pricing_plan_id":"cebpf4jnsgd1na2vs0mg"},{"bike_id":"de3698b0-8ad1-478c-aec6-37ab5a680495","system_id":"levelo_inurba_marseille","lat":43.27431,"lon":5.39408,"is_reserved":false,"is_disabled":false,"rental_uris":{"android":"levelo://app?vid=de3698b0-8ad1-478c-aec6-37ab5a680495","ios":"levelo://app?vid=de3698b0-8ad1-478c-aec6-37ab5a680495"},"vehicle_type_id":"4","last_reported":1729289318,"current_range_meters":39200,"station_id":"ce4bhdp2rcd13ifvqf20","pricing_plan_id":"cebpf4jnsgd1na2vs0mg"},{"bike_id":"18361c49-bdac-4926-a222-92101c5ffc08","system_id":"levelo_inurba_marseille","lat":43.32488,"lon":5.36567,"is_reserved":false,"is_disabled":false,"rental_uris":{"android":"levelo://app?vid=18361c49-bdac-4926-a222-92101c5ffc08","ios":"levelo://app?vid=18361c49-bdac-4926-a222-92101c5ffc08"},"vehicle_type_id":"4","last_reported":1729289318,"current_range_meters":35600,"station_id":"ce4bhs12rcd13ifvqhvg","pricing_plan_id":"cebpf4jnsgd1na2vs0mg"},{"bike_id":"9f6f86b4-798e-4075-859a-e1e34f084eef","system_id":"levelo_inurba_marseille","lat":43.28459,"lon":5.35891,"is_reserved":false,"is_disabled":false,"rental_uris":{"android":"levelo://app?vid=9f6f86b4-798e-4075-859a-e1e34f084eef","ios":"levelo://app?vid=9f6f86b4-798e-4075-859a-e1e34f084eef"},"vehicle_type_id":"4","last_reported":1729289318,"current_range_meters":16800,"station_id":"ce4bhah2rcd13ifvqei0","pricing_plan_id":"cebpf4jnsgd1na2vs0mg"},{"bike_id":"8e9c6055-8067-43c8-b7e5-0ce9b2b9299f","system_id":"levelo_inurba_marseille","lat":43.28074,"lon":5.39661,"is_reserved":false,"is_disabled":false,"rental_uris":{"android":"levelo://app?vid=8e9c6055-8067-43c8-b7e5-0ce9b2b9299f","ios":"levelo://app?vid=8e9c6055-8067-43c8-b7e5-0ce9b2b9299f"},"vehicle_type_id":"4","last_reported":1729289318,"current_range_meters":39200,"station_id":"ce4bho12rcd13ifvqh2g","pricing_plan_id":"cebpf4jnsgd1na2vs0mg"},{"bike_id":"cfe78fd2-5ebc-40fb-858b-89aa9fc29771","system_id":"levelo_inurba_marseille","lat":43.2942,"lon":5.37883,"is_reserved":false,"is_disabled":false,"rental_uris":{"android":"levelo://app?vid=cfe78fd2-5ebc-40fb-858b-89aa9fc29771","ios":"levelo://app?vid=cfe78fd2-5ebc-40fb-858b-89aa9fc29771"},"vehicle_type_id":"4","last_reported":1729289318,"current_range_meters":24800,"station_id":"","pricing_plan_id":"cebpf4jnsgd1na2vs0mg"},{"bike_id":"dd2b4f0c-6344-4a16-bdd5-9a39e0be809c","system_id":"levelo_inurba_marseille","lat":43.27996,"lon":5.41654,"is_reserved":false,"is_disabled":false,"rental_uris":{"android":"levelo://app?vid=dd2b4f0c-6344-4a16-bdd5-9a39e0be809c","ios":"levelo://app?vid=dd2b4f0c-6344-4a16-bdd5-9a39e0be809c"},"vehicle_type_id":"4","last_reported":1729289318,"current_range_meters":36800,"station_id":"ce4bho12rcd13ifvqh1g","pricing_plan_id":"cebpf4jnsgd1na2vs0mg"},{"bike_id":"c28dcc41-e290-4ac5-920f-78c8b4b9a18e","system_id":"levelo_inurba_marseille","lat":43.27616,"lon":5.36116,"is_reserved":false,"is_disabled":false,"rental_uris":{"android":"levelo://app?vid=c28dcc41-e290-4ac5-920f-78c8b4b9a18e","ios":"levelo://app?vid=c28dcc41-e290-4ac5-920f-78c8b4b9a18e"},"vehicle_type_id":"4","last_reported":1729289318,"current_range_meters":35600,"station_id":"ce4bgj92rcd13ifvqbe0","pricing_plan_id":"cebpf4jnsgd1na2vs0mg"},{"bike_id":"4ce82a4a-83c0-4545-b012-7447fd0c0c13","system_id":"levelo_inurba_marseille","lat":43.23186,"lon":5.39985,"is_reserved":false,"is_disabled":false,"rental_uris":{"android":"levelo://app?vid=4ce82a4a-83c0-4545-b012-7447fd0c0c13","ios":"levelo://app?vid=4ce82a4a-83c0-4545-b012-7447fd0c0c13"},"vehicle_type_id":"4","last_reported":1729289318,"current_range_meters":35600,"station_id":"ce4bhn12rcd13ifvqgqg","pricing_plan_id":"cebpf4jnsgd1na2vs0mg"},{"bike_id":"72c90053-fb55-4e2b-a742-47956ffb76a6","system_id":"levelo_inurba_marseille","lat":43.30797,"lon":5.38147,"is_reserved":false,"is_disabled":false,"rental_uris":{"android":"levelo://app?vid=72c90053-fb55-4e2b-a742-47956ffb76a6","ios":"levelo://app?vid=72c90053-fb55-4e2b-a742-47956ffb76a6"},"vehicle_type_id":"4","last_reported":1729289318,"current_range_meters":19600,"station_id":"ce4bgt12rcd13ifvqce0","pricing_plan_id":"cebpf4jnsgd1na2vs0mg"},{"bike_id":"a0e6ba81-e00d-4158-9d93-6c4a1299c688","system_id":"levelo_inurba_marseille","lat":43.28699,"lon":5.39983,"is_reserved":false,"is_disabled":false,"rental_uris":{"android":"levelo://app?vid=a0e6ba81-e00d-4158-9d93-6c4a1299c688","ios":"levelo://app?vid=a0e6ba81-e00d-4158-9d93-6c4a1299c688"},"vehicle_type_id":"4","last_reported":1729289318,"current_range_meters":32400,"station_id":"ce4bho92rcd13ifvqh3g","pricing_plan_id":"cebpf4jnsgd1na2vs0mg"},{"bike_id":"38d67d90-2d95-4f6e-9a9f-a5ffab1fba2c","system_id":"levelo_inurba_marseille","lat":43.29901,"lon":5.43666,"is_reserved":false,"is_disabled":false,"rental_uris":{"android":"levelo://app?vid=38d67d90-2d95-4f6e-9a9f-a5ffab1fba2c","ios":"levelo://app?vid=38d67d90-2d95-4f6e-9a9f-a5ffab1fba2c"},"vehicle_type_id":"4","last_reported":1729289318,"current_range_meters":25200,"station_id":"ce4bhpp2rcd13ifvqhfg","pricing_plan_id":"cebpf4jnsgd1na2vs0mg"},{"bike_id":"a161b12f-0743-4c3d-a761-3c139c5bf60b","system_id":"levelo_inurba_marseille","lat":43.30142,"lon":5.37416,"is_reserved":false,"is_disabled":false,"rental_uris":{"android":"levelo://app?vid=a161b12f-0743-4c3d-a761-3c139c5bf60b","ios":"levelo://app?vid=a161b12f-0743-4c3d-a761-3c139c5bf60b"},"vehicle_type_id":"4","last_reported":1729289318,"current_range_meters":39200,"station_id":"ce4bgs92rcd13ifvqcc0","pricing_plan_id":"cebpf4jnsgd1na2vs0mg"},{"bike_id":"043ef7a5-cd29-493a-9552-d950803a7229","system_id":"levelo_inurba_marseille","lat":43.28855,"lon":5.358497,"is_reserved":false,"is_disabled":false,"rental_uris":{"android":"levelo://app?vid=043ef7a5-cd29-493a-9552-d950803a7229","ios":"levelo://app?vid=043ef7a5-cd29-493a-9552-d950803a7229"},"vehicle_type_id":"4","last_reported":1729289318,"current_range_meters":3200,"station_id":"ce4bhb12rcd13ifvqem0","pricing_plan_id":"cebpf4jnsgd1na2vs0mg"},{"bike_id":"7bc23e55-0cb5-4e2e-8439-3972f0a178dc","system_id":"levelo_inurba_marseille","lat":43.32367,"lon":5.38886,"is_reserved":false,"is_disabled":false,"rental_uris":{"android":"levelo://app?vid=7bc23e55-0cb5-4e2e-8439-3972f0a178dc","ios":"levelo://app?vid=7bc23e55-0cb5-4e2e-8439-3972f0a178dc"},"vehicle_type_id":"4","last_reported":1729289318,"current_range_meters":14000,"station_id":"ce4bhqp2rcd13ifvqhog","pricing_plan_id":"cebpf4jnsgd1na2vs0mg"},{"bike_id":"8b33911e-5d42-46bd-b00d-c1d5ce72f577","system_id":"levelo_inurba_marseille","lat":43.23186,"lon":5.3998,"is_reserved":false,"is_disabled":false,"rental_uris":{"android":"levelo://app?vid=8b33911e-5d42-46bd-b00d-c1d5ce72f577","ios":"levelo://app?vid=8b33911e-5d42-46bd-b00d-c1d5ce72f577"},"vehicle_type_id":"4","last_reported":1729289318,"current_range_meters":40000,"station_id":"ce4bhn12rcd13ifvqgqg","pricing_plan_id":"cebpf4jnsgd1na2vs0mg"},{"bike_id":"296ffdda-7909-4ac7-a901-f96d7dc1d70e","system_id":"levelo_inurba_marseille","lat":43.30886,"lon":5.39636,"is_reserved":false,"is_disabled":false,"rental_uris":{"android":"levelo://app?vid=296ffdda-7909-4ac7-a901-f96d7dc1d70e","ios":"levelo://app?vid=296ffdda-7909-4ac7-a901-f96d7dc1d70e"},"vehicle_type_id":"4","last_reported":1729289318,"current_range_meters":25200,"station_id":"ce4bh012rcd13ifvqcv0","pricing_plan_id":"cebpf4jnsgd1na2vs0mg"},{"bike_id":"127b39da-5a41-410c-b941-95e91fb64c1a","system_id":"levelo_inurba_marseille","lat":43.28078,"lon":5.39656,"is_reserved":false,"is_disabled":false,"rental_uris":{"android":"levelo://app?vid=127b39da-5a41-410c-b941-95e91fb64c1a","ios":"levelo://app?vid=127b39da-5a41-410c-b941-95e91fb64c1a"},"vehicle_type_id":"4","last_reported":1729289318,"current_range_meters":39200,"station_id":"ce4bho12rcd13ifvqh2g","pricing_plan_id":"cebpf4jnsgd1na2vs0mg"},{"bike_id":"7533d508-1628-4f99-8d54-19a0e47be266","system_id":"levelo_inurba_marseille","lat":43.2903,"lon":5.39966,"is_reserved":false,"is_disabled":false,"rental_uris":{"android":"levelo://app?vid=7533d508-1628-4f99-8d54-19a0e47be266","ios":"levelo://app?vid=7533d508-1628-4f99-8d54-19a0e47be266"},"vehicle_type_id":"4","last_reported":1729289318,"current_range_meters":31200,"station_id":"ce4bh392rcd13ifvqdm0","pricing_plan_id":"cebpf4jnsgd1na2vs0mg"},{"bike_id":"0994d7f0-fa2e-480f-b967-2b1e1b476b78","system_id":"levelo_inurba_marseille","lat":43.23187,"lon":5.35549,"is_reserved":false,"is_disabled":false,"rental_uris":{"android":"levelo://app?vid=0994d7f0-fa2e-480f-b967-2b1e1b476b78","ios":"levelo://app?vid=0994d7f0-fa2e-480f-b967-2b1e1b476b78"},"vehicle_type_id":"4","last_reported":1729289318,"current_range_meters":6800,"station_id":"ce4bhu92rcd13ifvqi70","pricing_plan_id":"cebpf4jnsgd1na2vs0mg"},{"bike_id":"41352ecd-ccf7-4501-b52c-c09f6f495c10","system_id":"levelo_inurba_marseille","lat":43.27176,"lon":5.40983,"is_reserved":false,"is_disabled":false,"rental_uris":{"android":"levelo://app?vid=41352ecd-ccf7-4501-b52c-c09f6f495c10","ios":"levelo://app?vid=41352ecd-ccf7-4501-b52c-c09f6f495c10"},"vehicle_type_id":"4","last_reported":1729289318,"current_range_meters":24400,"station_id":"ce4bhl12rcd13ifvqgf0","pricing_plan_id":"cebpf4jnsgd1na2vs0mg"},{"bike_id":"9afb42f5-3b0e-4c91-8c7a-f1d6d8c9b1c2","system_id":"levelo_inurba_marseille","lat":43.28033,"lon":5.3695,"is_reserved":false,"is_disabled":false,"rental_uris":{"android":"levelo://app?vid=9afb42f5-3b0e-4c91-8c7a-f1d6d8c9b1c2","ios":"levelo://app?vid=9afb42f5-3b0e-4c91-8c7a-f1d6d8c9b1c2"},"vehicle_type_id":"4","last_reported":1729289318,"current_range_meters":17200,"station_id":"ce4bha12rcd13ifvqef0","pricing_plan_id":"cebpf4jnsgd1na2vs0mg"},{"bike_id":"66ccc46d-618e-4760-b09c-27382152bdab","system_id":"levelo_inurba_marseille","lat":43.23193,"lon":5.35547,"is_reserved":false,"is_disabled":false,"rental_uris":{"android":"levelo://app?vid=66ccc46d-618e-4760-b09c-27382152bdab","ios":"levelo://app?vid=66ccc46d-618e-4760-b09c-27382152bdab"},"vehicle_type_id":"4","last_reported":1729289318,"current_range_meters":26800,"station_id":"ce4bhu92rcd13ifvqi70","pricing_plan_id":"cebpf4jnsgd1na2vs0mg"},{"bike_id":"1860d57b-1c18-4f47-82b0-bfd50055f289","system_id":"levelo_inurba_marseille","lat":43.3112,"lon":5.37767,"is_reserved":false,"is_disabled":false,"rental_uris":{"android":"levelo://app?vid=1860d57b-1c18-4f47-82b0-bfd50055f289","ios":"levelo://app?vid=1860d57b-1c18-4f47-82b0-bfd50055f289"},"vehicle_type_id":"4","last_reported":1729289318,"current_range_meters":33600,"station_id":"ce4bgt92rcd13ifvqcg0","pricing_plan_id":"cebpf4jnsgd1na2vs0mg"},{"bike_id":"cef018dd-bd38-4d1c-a68f-1ff97d712d7d","system_id":"levelo_inurba_marseille","lat":43.30322,"lon":5.40433,"is_reserved":false,"is_disabled":false,"rental_uris":{"android":"levelo://app?vid=cef018dd-bd38-4d1c-a68f-1ff97d712d7d","ios":"levelo://app?vid=cef018dd-bd38-4d1c-a68f-1ff97d712d7d"},"vehicle_type_id":"4","last_reported":1729289318,"current_range_meters":35600,"station_id":"ce4bh012rcd13ifvqd10","pricing_plan_id":"cebpf4jnsgd1na2vs0mg"},{"bike_id":"87b27491-5215-4140-9db2-06195f6f5368","system_id":"levelo_inurba_marseille","lat":43.28456,"lon":5.35892,"is_reserved":false,"is_disabled":false,"rental_uris":{"android":"levelo://app?vid=87b27491-5215-4140-9db2-06195f6f5368","ios":"levelo://app?vid=87b27491-5215-4140-9db2-06195f6f5368"},"vehicle_type_id":"4","last_reported":1729289318,"current_range_meters":4000,"station_id":"ce4bhah2rcd13ifvqei0","pricing_plan_id":"cebpf4jnsgd1na2vs0mg"},{"bike_id":"419a9d7d-2a1b-40b7-a37f-e4605d93d1f7","system_id":"levelo_inurba_marseille","lat":43.23186,"lon":5.39995,"is_reserved":false,"is_disabled":false,"rental_uris":{"android":"levelo://app?vid=419a9d7d-2a1b-40b7-a37f-e4605d93d1f7","ios":"levelo://app?vid=419a9d7d-2a1b-40b7-a37f-e4605d93d1f7"},"vehicle_type_id":"4","last_reported":1729289318,"current_range_meters":38800,"station_id":"ce4bhn12rcd13ifvqgqg","pricing_plan_id":"cebpf4jnsgd1na2vs0mg"},{"bike_id":"fbcdd40a-223e-4740-bca1-d5de715a7938","system_id":"levelo_inurba_marseille","lat":43.26195,"lon":5.37446,"is_reserved":false,"is_disabled":false,"rental_uris":{"android":"levelo://app?vid=fbcdd40a-223e-4740-bca1-d5de715a7938","ios":"levelo://app?vid=fbcdd40a-223e-4740-bca1-d5de715a7938"},"vehicle_type_id":"4","last_reported":1729289318,"current_range_meters":30400,"station_id":"ce4bhgp2rcd13ifvqfc0","pricing_plan_id":"cebpf4jnsgd1na2vs0mg"},{"bike_id":"ae435b78-7482-436d-bcc5-db6941735961","system_id":"levelo_inurba_marseille","lat":43.3211,"lon":5.36777,"is_reserved":false,"is_disabled":false,"rental_uris":{"android":"levelo://app?vid=ae435b78-7482-436d-bcc5-db6941735961","ios":"levelo://app?vid=ae435b78-7482-436d-bcc5-db6941735961"},"vehicle_type_id":"4","last_reported":1729289318,"current_range_meters":36800,"station_id":"ce4bhrh2rcd13ifvqhug","pricing_plan_id":"cebpf4jnsgd1na2vs0mg"},{"bike_id":"a30002c2-320c-4186-887b-941308b39268","system_id":"levelo_inurba_marseille","lat":43.27952,"lon":5.4104,"is_reserved":false,"is_disabled":false,"rental_uris":{"android":"levelo://app?vid=a30002c2-320c-4186-887b-941308b39268","ios":"levelo://app?vid=a30002c2-320c-4186-887b-941308b39268"},"vehicle_type_id":"4","last_reported":1729289318,"current_range_meters":6400,"station_id":"ce4bhnp2rcd13ifvqh0g","pricing_plan_id":"cebpf4jnsgd1na2vs0mg"},{"bike_id":"de5310a4-8b40-4f34-b743-4a8de13f7bbd","system_id":"levelo_inurba_marseille","lat":43.25004,"lon":5.38919,"is_reserved":false,"is_disabled":false,"rental_uris":{"android":"levelo://app?vid=de5310a4-8b40-4f34-b743-4a8de13f7bbd","ios":"levelo://app?vid=de5310a4-8b40-4f34-b743-4a8de13f7bbd"},"vehicle_type_id":"4","last_reported":1729289318,"current_range_meters":11600,"station_id":"ce4bhgp2rcd13ifvqfd0","pricing_plan_id":"cebpf4jnsgd1na2vs0mg"},{"bike_id":"2416bf3c-f3b1-4a53-b130-133f9ffa03f1","system_id":"levelo_inurba_marseille","lat":43.33609,"lon":5.4103,"is_reserved":false,"is_disabled":false,"rental_uris":{"android":"levelo://app?vid=2416bf3c-f3b1-4a53-b130-133f9ffa03f1","ios":"levelo://app?vid=2416bf3c-f3b1-4a53-b130-133f9ffa03f1"},"vehicle_type_id":"4","last_reported":1729289318,"current_range_meters":14000,"station_id":"ce4bhqh2rcd13ifvqhmg","pricing_plan_id":"cebpf4jnsgd1na2vs0mg"},{"bike_id":"907d90e2-7e08-4846-bbc2-01977b54a9bd","system_id":"levelo_inurba_marseille","lat":43.24169,"lon":5.36393,"is_reserved":false,"is_disabled":false,"rental_uris":{"android":"levelo://app?vid=907d90e2-7e08-4846-bbc2-01977b54a9bd","ios":"levelo://app?vid=907d90e2-7e08-4846-bbc2-01977b54a9bd"},"vehicle_type_id":"4","last_reported":1729289318,"current_range_meters":16000,"station_id":"cpo36qri1sfpv3e86is0","pricing_plan_id":"cebpf4jnsgd1na2vs0mg"},{"bike_id":"eb6d1ebd-084f-4340-b44b-2c28d5719fea","system_id":"levelo_inurba_marseille","lat":43.32336,"lon":5.40617,"is_reserved":false,"is_disabled":false,"rental_uris":{"android":"levelo://app?vid=eb6d1ebd-084f-4340-b44b-2c28d5719fea","ios":"levelo://app?vid=eb6d1ebd-084f-4340-b44b-2c28d5719fea"},"vehicle_type_id":"4","last_reported":1729289318,"current_range_meters":17200,"station_id":"ce4bhq92rcd13ifvqhjg","pricing_plan_id":"cebpf4jnsgd1na2vs0mg"},{"bike_id":"201f79f6-c111-4f3f-94da-99e40f68cb56","system_id":"levelo_inurba_marseille","lat":43.3078,"lon":5.37644,"is_reserved":false,"is_disabled":false,"rental_uris":{"android":"levelo://app?vid=201f79f6-c111-4f3f-94da-99e40f68cb56","ios":"levelo://app?vid=201f79f6-c111-4f3f-94da-99e40f68cb56"},"vehicle_type_id":"4","last_reported":1729289318,"current_range_meters":38000,"station_id":"ce4bgv92rcd13ifvqcq0","pricing_plan_id":"cebpf4jnsgd1na2vs0mg"},{"bike_id":"4d80fb48-c61f-42d7-b582-7c14ec4827d3","system_id":"levelo_inurba_marseille","lat":43.30798,"lon":5.38156,"is_reserved":false,"is_disabled":false,"rental_uris":{"android":"levelo://app?vid=4d80fb48-c61f-42d7-b582-7c14ec4827d3","ios":"levelo://app?vid=4d80fb48-c61f-42d7-b582-7c14ec4827d3"},"vehicle_type_id":"4","last_reported":1729289318,"current_range_meters":34800,"station_id":"ce4bgt12rcd13ifvqce0","pricing_plan_id":"cebpf4jnsgd1na2vs0mg"},{"bike_id":"4bb7c27b-b8d2-4db3-a2b5-d80f72cddae9","system_id":"levelo_inurba_marseille","lat":43.30784,"lon":5.37653,"is_reserved":false,"is_disabled":false,"rental_uris":{"android":"levelo://app?vid=4bb7c27b-b8d2-4db3-a2b5-d80f72cddae9","ios":"levelo://app?vid=4bb7c27b-b8d2-4db3-a2b5-d80f72cddae9"},"vehicle_type_id":"4","last_reported":1729289318,"current_range_meters":22800,"station_id":"ce4bgv92rcd13ifvqcq0","pricing_plan_id":"cebpf4jnsgd1na2vs0mg"},{"bike_id":"ed913017-0c45-4c1c-b4ff-feacb7ef44ac","system_id":"levelo_inurba_marseille","lat":43.31333,"lon":5.39685,"is_reserved":false,"is_disabled":false,"rental_uris":{"android":"levelo://app?vid=ed913017-0c45-4c1c-b4ff-feacb7ef44ac","ios":"levelo://app?vid=ed913017-0c45-4c1c-b4ff-feacb7ef44ac"},"vehicle_type_id":"4","last_reported":1729289318,"current_range_meters":32400,"station_id":"ce4bgvp2rcd13ifvqcu0","pricing_plan_id":"cebpf4jnsgd1na2vs0mg"},{"bike_id":"2c9239f6-536e-46f1-91f2-9cd7a2645cd3","system_id":"levelo_inurba_marseille","lat":43.31279,"lon":5.40155,"is_reserved":false,"is_disabled":false,"rental_uris":{"android":"levelo://app?vid=2c9239f6-536e-46f1-91f2-9cd7a2645cd3","ios":"levelo://app?vid=2c9239f6-536e-46f1-91f2-9cd7a2645cd3"},"vehicle_type_id":"4","last_reported":1729289318,"current_range_meters":40000,"station_id":"ce4bh092rcd13ifvqd30","pricing_plan_id":"cebpf4jnsgd1na2vs0mg"},{"bike_id":"9b697ce4-04b2-4aeb-ad1d-d9c602b75937","system_id":"levelo_inurba_marseille","lat":43.31693,"lon":5.37754,"is_reserved":false,"is_disabled":false,"rental_uris":{"android":"levelo://app?vid=9b697ce4-04b2-4aeb-ad1d-d9c602b75937","ios":"levelo://app?vid=9b697ce4-04b2-4aeb-ad1d-d9c602b75937"},"vehicle_type_id":"4","last_reported":1729289318,"current_range_meters":35600,"station_id":"ce4bgth2rcd13ifvqch0","pricing_plan_id":"cebpf4jnsgd1na2vs0mg"},{"bike_id":"94dad7f8-6585-4b37-b691-74420d23ef13","system_id":"levelo_inurba_marseille","lat":43.30797,"lon":5.43519,"is_reserved":false,"is_disabled":false,"rental_uris":{"android":"levelo://app?vid=94dad7f8-6585-4b37-b691-74420d23ef13","ios":"levelo://app?vid=94dad7f8-6585-4b37-b691-74420d23ef13"},"vehicle_type_id":"4","last_reported":1729289318,"current_range_meters":34000,"station_id":"ce4bhph2rcd13ifvqheg","pricing_plan_id":"cebpf4jnsgd1na2vs0mg"},{"bike_id":"f29550ff-1877-4bb4-b489-7cee18d5a9e9","system_id":"levelo_inurba_marseille","lat":43.28702,"lon":5.37397,"is_reserved":false,"is_disabled":false,"rental_uris":{"android":"levelo://app?vid=f29550ff-1877-4bb4-b489-7cee18d5a9e9","ios":"levelo://app?vid=f29550ff-1877-4bb4-b489-7cee18d5a9e9"},"vehicle_type_id":"4","last_reported":1729289318,"current_range_meters":20400,"station_id":"ce4bh3p2rcd13ifvqdq0","pricing_plan_id":"cebpf4jnsgd1na2vs0mg"},{"bike_id":"4562e9bb-7c1e-4e0e-95e1-858d0f8d86d1","system_id":"levelo_inurba_marseille","lat":43.2319,"lon":5.35563,"is_reserved":false,"is_disabled":false,"rental_uris":{"android":"levelo://app?vid=4562e9bb-7c1e-4e0e-95e1-858d0f8d86d1","ios":"levelo://app?vid=4562e9bb-7c1e-4e0e-95e1-858d0f8d86d1"},"vehicle_type_id":"4","last_reported":1729289318,"current_range_meters":30400,"station_id":"ce4bhu92rcd13ifvqi70","pricing_plan_id":"cebpf4jnsgd1na2vs0mg"},{"bike_id":"251d1e7f-8f9a-4fc2-9c26-e8756ab4b7e9","system_id":"levelo_inurba_marseille","lat":43.30796,"lon":5.38159,"is_reserved":false,"is_disabled":false,"rental_uris":{"android":"levelo://app?vid=251d1e7f-8f9a-4fc2-9c26-e8756ab4b7e9","ios":"levelo://app?vid=251d1e7f-8f9a-4fc2-9c26-e8756ab4b7e9"},"vehicle_type_id":"4","last_reported":1729289318,"current_range_meters":20000,"station_id":"ce4bgt12rcd13ifvqce0","pricing_plan_id":"cebpf4jnsgd1na2vs0mg"},{"bike_id":"6837ac97-30a8-4145-8047-b6d6df61ac48","system_id":"levelo_inurba_marseille","lat":43.23185,"lon":5.39993,"is_reserved":false,"is_disabled":false,"rental_uris":{"android":"levelo://app?vid=6837ac97-30a8-4145-8047-b6d6df61ac48","ios":"levelo://app?vid=6837ac97-30a8-4145-8047-b6d6df61ac48"},"vehicle_type_id":"4","last_reported":1729289318,"current_range_meters":38800,"station_id":"ce4bhn12rcd13ifvqgqg","pricing_plan_id":"cebpf4jnsgd1na2vs0mg"},{"bike_id":"2140b6a3-5118-4150-823e-9225aeb56201","system_id":"levelo_inurba_marseille","lat":43.23189,"lon":5.35552,"is_reserved":false,"is_disabled":false,"rental_uris":{"android":"levelo://app?vid=2140b6a3-5118-4150-823e-9225aeb56201","ios":"levelo://app?vid=2140b6a3-5118-4150-823e-9225aeb56201"},"vehicle_type_id":"4","last_reported":1729289318,"current_range_meters":30000,"station_id":"ce4bhu92rcd13ifvqi70","pricing_plan_id":"cebpf4jnsgd1na2vs0mg"},{"bike_id":"8490b55c-3dcc-4359-9967-9846f85b31f1","system_id":"levelo_inurba_marseille","lat":43.30181,"lon":5.36619,"is_reserved":false,"is_disabled":false,"rental_uris":{"android":"levelo://app?vid=8490b55c-3dcc-4359-9967-9846f85b31f1","ios":"levelo://app?vid=8490b55c-3dcc-4359-9967-9846f85b31f1"},"vehicle_type_id":"4","last_reported":1729289318,"current_range_meters":12800,"station_id":"ce4bgrh2rcd13ifvqc8g","pricing_plan_id":"cebpf4jnsgd1na2vs0mg"},{"bike_id":"e3a2b592-9639-4b84-97c9-7a44d36de99a","system_id":"levelo_inurba_marseille","lat":43.248056,"lon":5.374589,"is_reserved":false,"is_disabled":false,"rental_uris":{"android":"levelo://app?vid=e3a2b592-9639-4b84-97c9-7a44d36de99a","ios":"levelo://app?vid=e3a2b592-9639-4b84-97c9-7a44d36de99a"},"vehicle_type_id":"4","last_reported":1729289318,"current_range_meters":6400,"station_id":"ce4bhgh2rcd13ifvqfb0","pricing_plan_id":"cebpf4jnsgd1na2vs0mg"},{"bike_id":"1dce3448-7aaa-4b2f-94f9-f73190d2fc94","system_id":"levelo_inurba_marseille","lat":43.29843,"lon":5.36266,"is_reserved":false,"is_disabled":false,"rental_uris":{"android":"levelo://app?vid=1dce3448-7aaa-4b2f-94f9-f73190d2fc94","ios":"levelo://app?vid=1dce3448-7aaa-4b2f-94f9-f73190d2fc94"},"vehicle_type_id":"4","last_reported":1729289318,"current_range_meters":39200,"station_id":"ce4bgpp2rcd13ifvqc3g","pricing_plan_id":"cebpf4jnsgd1na2vs0mg"},{"bike_id":"d116ab63-54e5-422b-8ef9-2c8c31901cde","system_id":"levelo_inurba_marseille","lat":43.26035,"lon":5.37549,"is_reserved":false,"is_disabled":false,"rental_uris":{"android":"levelo://app?vid=d116ab63-54e5-422b-8ef9-2c8c31901cde","ios":"levelo://app?vid=d116ab63-54e5-422b-8ef9-2c8c31901cde"},"vehicle_type_id":"4","last_reported":1729289318,"current_range_meters":15200,"station_id":"ce4bhgh2rcd13ifvqfa0","pricing_plan_id":"cebpf4jnsgd1na2vs0mg"},{"bike_id":"5fcafa2e-9de4-4b9a-bba5-451af068b69e","system_id":"levelo_inurba_marseille","lat":43.27997,"lon":5.41656,"is_reserved":false,"is_disabled":false,"rental_uris":{"android":"levelo://app?vid=5fcafa2e-9de4-4b9a-bba5-451af068b69e","ios":"levelo://app?vid=5fcafa2e-9de4-4b9a-bba5-451af068b69e"},"vehicle_type_id":"4","last_reported":1729289318,"current_range_meters":30000,"station_id":"ce4bho12rcd13ifvqh1g","pricing_plan_id":"cebpf4jnsgd1na2vs0mg"},{"bike_id":"1601a383-f0c6-479d-8219-594013c0df01","system_id":"levelo_inurba_marseille","lat":43.284618,"lon":5.358882,"is_reserved":false,"is_disabled":false,"rental_uris":{"android":"levelo://app?vid=1601a383-f0c6-479d-8219-594013c0df01","ios":"levelo://app?vid=1601a383-f0c6-479d-8219-594013c0df01"},"vehicle_type_id":"4","last_reported":1729289318,"current_range_meters":8800,"station_id":"ce4bhah2rcd13ifvqei0","pricing_plan_id":"cebpf4jnsgd1na2vs0mg"},{"bike_id":"a4f08faf-2572-4042-aecc-791347203ffc","system_id":"levelo_inurba_marseille","lat":43.25098,"lon":5.40322,"is_reserved":false,"is_disabled":false,"rental_uris":{"android":"levelo://app?vid=a4f08faf-2572-4042-aecc-791347203ffc","ios":"levelo://app?vid=a4f08faf-2572-4042-aecc-791347203ffc"},"vehicle_type_id":"4","last_reported":1729289318,"current_range_meters":12400,"station_id":"ce4bhlh2rcd13ifvqgig","pricing_plan_id":"cebpf4jnsgd1na2vs0mg"},{"bike_id":"71ff7bf5-519f-4879-804f-e6ebaab58e8f","system_id":"levelo_inurba_marseille","lat":43.28442,"lon":5.39192,"is_reserved":false,"is_disabled":false,"rental_uris":{"android":"levelo://app?vid=71ff7bf5-519f-4879-804f-e6ebaab58e8f","ios":"levelo://app?vid=71ff7bf5-519f-4879-804f-e6ebaab58e8f"},"vehicle_type_id":"4","last_reported":1729289318,"current_range_meters":36400,"station_id":"ce4bhoh2rcd13ifvqh5g","pricing_plan_id":"cebpf4jnsgd1na2vs0mg"},{"bike_id":"68ee4ef7-329c-4223-8263-a5b8d725c2b4","system_id":"levelo_inurba_marseille","lat":43.28107,"lon":5.37843,"is_reserved":false,"is_disabled":false,"rental_uris":{"android":"levelo://app?vid=68ee4ef7-329c-4223-8263-a5b8d725c2b4","ios":"levelo://app?vid=68ee4ef7-329c-4223-8263-a5b8d725c2b4"},"vehicle_type_id":"4","last_reported":1729289318,"current_range_meters":9600,"station_id":"ce4bha12rcd13ifvqee0","pricing_plan_id":"cebpf4jnsgd1na2vs0mg"},{"bike_id":"9a54bdf2-c459-4c1c-8ed0-1de6fb699d45","system_id":"levelo_inurba_marseille","lat":43.32454,"lon":5.36704,"is_reserved":false,"is_disabled":false,"rental_uris":{"android":"levelo://app?vid=9a54bdf2-c459-4c1c-8ed0-1de6fb699d45","ios":"levelo://app?vid=9a54bdf2-c459-4c1c-8ed0-1de6fb699d45"},"vehicle_type_id":"4","last_reported":1729289318,"current_range_meters":14800,"station_id":"ce4bhs12rcd13ifvqhvg","pricing_plan_id":"cebpf4jnsgd1na2vs0mg"},{"bike_id":"041391a2-fc6a-4cef-8d1c-2dfe1f010100","system_id":"levelo_inurba_marseille","lat":43.31363,"lon":5.38497,"is_reserved":false,"is_disabled":false,"rental_uris":{"android":"levelo://app?vid=041391a2-fc6a-4cef-8d1c-2dfe1f010100","ios":"levelo://app?vid=041391a2-fc6a-4cef-8d1c-2dfe1f010100"},"vehicle_type_id":"4","last_reported":1729289318,"current_range_meters":30400,"station_id":"ce4bgt92rcd13ifvqcf0","pricing_plan_id":"cebpf4jnsgd1na2vs0mg"},{"bike_id":"ab49cb35-2101-457d-97ab-33a97c5a4bee","system_id":"levelo_inurba_marseille","lat":43.32656,"lon":5.40987,"is_reserved":false,"is_disabled":false,"rental_uris":{"android":"levelo://app?vid=ab49cb35-2101-457d-97ab-33a97c5a4bee","ios":"levelo://app?vid=ab49cb35-2101-457d-97ab-33a97c5a4bee"},"vehicle_type_id":"4","last_reported":1729289318,"current_range_meters":12800,"station_id":"ce4bhpp2rcd13ifvqhgg","pricing_plan_id":"cebpf4jnsgd1na2vs0mg"},{"bike_id":"7772d39f-5e28-445c-af91-069b0cf63793","system_id":"levelo_inurba_marseille","lat":43.33765,"lon":5.37438,"is_reserved":false,"is_disabled":false,"rental_uris":{"android":"levelo://app?vid=7772d39f-5e28-445c-af91-069b0cf63793","ios":"levelo://app?vid=7772d39f-5e28-445c-af91-069b0cf63793"},"vehicle_type_id":"4","last_reported":1729289318,"current_range_meters":11600,"station_id":"","pricing_plan_id":"cebpf4jnsgd1na2vs0mg"},{"bike_id":"8ef90d9e-d794-4233-be5e-295a9c0725bd","system_id":"levelo_inurba_marseille","lat":43.31361,"lon":5.38489,"is_reserved":false,"is_disabled":false,"rental_uris":{"android":"levelo://app?vid=8ef90d9e-d794-4233-be5e-295a9c0725bd","ios":"levelo://app?vid=8ef90d9e-d794-4233-be5e-295a9c0725bd"},"vehicle_type_id":"4","last_reported":1729289318,"current_range_meters":39200,"station_id":"ce4bgt92rcd13ifvqcf0","pricing_plan_id":"cebpf4jnsgd1na2vs0mg"},{"bike_id":"3213665e-989c-4d22-9f5a-31c8522597dd","system_id":"levelo_inurba_marseille","lat":43.296,"lon":5.36142,"is_reserved":false,"is_disabled":false,"rental_uris":{"android":"levelo://app?vid=3213665e-989c-4d22-9f5a-31c8522597dd","ios":"levelo://app?vid=3213665e-989c-4d22-9f5a-31c8522597dd"},"vehicle_type_id":"4","last_reported":1729289318,"current_range_meters":22400,"station_id":"","pricing_plan_id":"cebpf4jnsgd1na2vs0mg"},{"bike_id":"bdf1047c-8ef8-41ce-b78c-21ae649f5046","system_id":"levelo_inurba_marseille","lat":43.28004,"lon":5.40916,"is_reserved":false,"is_disabled":false,"rental_uris":{"android":"levelo://app?vid=bdf1047c-8ef8-41ce-b78c-21ae649f5046","ios":"levelo://app?vid=bdf1047c-8ef8-41ce-b78c-21ae649f5046"},"vehicle_type_id":"4","last_reported":1729289318,"current_range_meters":35600,"station_id":"","pricing_plan_id":"cebpf4jnsgd1na2vs0mg"},{"bike_id":"cddb2538-acdb-46a5-bc95-6e0a8d74ef0c","system_id":"levelo_inurba_marseille","lat":43.30795,"lon":5.43529,"is_reserved":false,"is_disabled":false,"rental_uris":{"android":"levelo://app?vid=cddb2538-acdb-46a5-bc95-6e0a8d74ef0c","ios":"levelo://app?vid=cddb2538-acdb-46a5-bc95-6e0a8d74ef0c"},"vehicle_type_id":"4","last_reported":1729289318,"current_range_meters":29600,"station_id":"ce4bhph2rcd13ifvqheg","pricing_plan_id":"cebpf4jnsgd1na2vs0mg"},{"bike_id":"0b800deb-d8de-4017-9625-270fd2e8f5e0","system_id":"levelo_inurba_marseille","lat":43.28725,"lon":5.36083,"is_reserved":false,"is_disabled":false,"rental_uris":{"android":"levelo://app?vid=0b800deb-d8de-4017-9625-270fd2e8f5e0","ios":"levelo://app?vid=0b800deb-d8de-4017-9625-270fd2e8f5e0"},"vehicle_type_id":"4","last_reported":1729289318,"current_range_meters":20800,"station_id":"cki0cbj6b192h4jlfktg","pricing_plan_id":"cebpf4jnsgd1na2vs0mg"},{"bike_id":"85978b2d-96a1-4496-a15d-3917a97b0613","system_id":"levelo_inurba_marseille","lat":43.32366,"lon":5.38889,"is_reserved":false,"is_disabled":false,"rental_uris":{"android":"levelo://app?vid=85978b2d-96a1-4496-a15d-3917a97b0613","ios":"levelo://app?vid=85978b2d-96a1-4496-a15d-3917a97b0613"},"vehicle_type_id":"4","last_reported":1729289318,"current_range_meters":38800,"station_id":"ce4bhqp2rcd13ifvqhog","pricing_plan_id":"cebpf4jnsgd1na2vs0mg"},{"bike_id":"89211ee2-076f-4df3-92bd-cd8885f2e76d","system_id":"levelo_inurba_marseille","lat":43.23194,"lon":5.35556,"is_reserved":false,"is_disabled":false,"rental_uris":{"android":"levelo://app?vid=89211ee2-076f-4df3-92bd-cd8885f2e76d","ios":"levelo://app?vid=89211ee2-076f-4df3-92bd-cd8885f2e76d"},"vehicle_type_id":"4","last_reported":1729289318,"current_range_meters":26800,"station_id":"ce4bhu92rcd13ifvqi70","pricing_plan_id":"cebpf4jnsgd1na2vs0mg"},{"bike_id":"35a4a067-6724-4af6-9ac7-d2fc1a807c6b","system_id":"levelo_inurba_marseille","lat":43.23148,"lon":5.43714,"is_reserved":false,"is_disabled":false,"rental_uris":{"android":"levelo://app?vid=35a4a067-6724-4af6-9ac7-d2fc1a807c6b","ios":"levelo://app?vid=35a4a067-6724-4af6-9ac7-d2fc1a807c6b"},"vehicle_type_id":"4","last_reported":1729289318,"current_range_meters":4000,"station_id":"ce4bhmp2rcd13ifvqgog","pricing_plan_id":"cebpf4jnsgd1na2vs0mg"},{"bike_id":"a42d053b-efc3-4d04-88dc-06d3f1dc7ac8","system_id":"levelo_inurba_marseille","lat":43.30419,"lon":5.41274,"is_reserved":false,"is_disabled":false,"rental_uris":{"android":"levelo://app?vid=a42d053b-efc3-4d04-88dc-06d3f1dc7ac8","ios":"levelo://app?vid=a42d053b-efc3-4d04-88dc-06d3f1dc7ac8"},"vehicle_type_id":"4","last_reported":1729289318,"current_range_meters":24400,"station_id":"ce4bhop2rcd13ifvqh8g","pricing_plan_id":"cebpf4jnsgd1na2vs0mg"},{"bike_id":"f24120c7-c2ab-42ad-819c-69eda8577965","system_id":"levelo_inurba_marseille","lat":43.29525,"lon":5.394,"is_reserved":false,"is_disabled":false,"rental_uris":{"android":"levelo://app?vid=f24120c7-c2ab-42ad-819c-69eda8577965","ios":"levelo://app?vid=f24120c7-c2ab-42ad-819c-69eda8577965"},"vehicle_type_id":"4","last_reported":1729289318,"current_range_meters":20400,"station_id":"ce4bh292rcd13ifvqdf0","pricing_plan_id":"cebpf4jnsgd1na2vs0mg"},{"bike_id":"720f32bc-f057-41f4-aebc-3fd98c4f7d49","system_id":"levelo_inurba_marseille","lat":43.30399,"lon":5.36758,"is_reserved":false,"is_disabled":false,"rental_uris":{"android":"levelo://app?vid=720f32bc-f057-41f4-aebc-3fd98c4f7d49","ios":"levelo://app?vid=720f32bc-f057-41f4-aebc-3fd98c4f7d49"},"vehicle_type_id":"4","last_reported":1729289318,"current_range_meters":9600,"station_id":"","pricing_plan_id":"cebpf4jnsgd1na2vs0mg"},{"bike_id":"ec856568-8217-4dcd-acd9-cbc0c1bd9ea0","system_id":"levelo_inurba_marseille","lat":43.31063,"lon":5.38341,"is_reserved":false,"is_disabled":false,"rental_uris":{"android":"levelo://app?vid=ec856568-8217-4dcd-acd9-cbc0c1bd9ea0","ios":"levelo://app?vid=ec856568-8217-4dcd-acd9-cbc0c1bd9ea0"},"vehicle_type_id":"4","last_reported":1729289318,"current_range_meters":34000,"station_id":"ce4bgv92rcd13ifvqcr0","pricing_plan_id":"cebpf4jnsgd1na2vs0mg"},{"bike_id":"48f2469d-4594-4ecb-a7ea-698cf7713650","system_id":"levelo_inurba_marseille","lat":43.33021,"lon":5.39038,"is_reserved":false,"is_disabled":false,"rental_uris":{"android":"levelo://app?vid=48f2469d-4594-4ecb-a7ea-698cf7713650","ios":"levelo://app?vid=48f2469d-4594-4ecb-a7ea-698cf7713650"},"vehicle_type_id":"4","last_reported":1729289318,"current_range_meters":27600,"station_id":"ce4bhr92rcd13ifvqhrg","pricing_plan_id":"cebpf4jnsgd1na2vs0mg"},{"bike_id":"c0dc725d-5e20-4586-8223-efe444023ca5","system_id":"levelo_inurba_marseille","lat":43.2985,"lon":5.36285,"is_reserved":false,"is_disabled":false,"rental_uris":{"android":"levelo://app?vid=c0dc725d-5e20-4586-8223-efe444023ca5","ios":"levelo://app?vid=c0dc725d-5e20-4586-8223-efe444023ca5"},"vehicle_type_id":"4","last_reported":1729289318,"current_range_meters":38000,"station_id":"ce4bgpp2rcd13ifvqc3g","pricing_plan_id":"cebpf4jnsgd1na2vs0mg"},{"bike_id":"7bf4a3ad-38e1-46a8-a695-b03fae202205","system_id":"levelo_inurba_marseille","lat":43.31164,"lon":5.38724,"is_reserved":false,"is_disabled":false,"rental_uris":{"android":"levelo://app?vid=7bf4a3ad-38e1-46a8-a695-b03fae202205","ios":"levelo://app?vid=7bf4a3ad-38e1-46a8-a695-b03fae202205"},"vehicle_type_id":"4","last_reported":1729289318,"current_range_meters":5600,"station_id":"ce4bgv12rcd13ifvqcp0","pricing_plan_id":"cebpf4jnsgd1na2vs0mg"},{"bike_id":"11a21bb0-f15a-49f4-8d19-d7ea309cb0d1","system_id":"levelo_inurba_marseille","lat":43.31759,"lon":5.39009,"is_reserved":false,"is_disabled":false,"rental_uris":{"android":"levelo://app?vid=11a21bb0-f15a-49f4-8d19-d7ea309cb0d1","ios":"levelo://app?vid=11a21bb0-f15a-49f4-8d19-d7ea309cb0d1"},"vehicle_type_id":"4","last_reported":1729289318,"current_range_meters":11600,"station_id":"ce4bhqp2rcd13ifvqhng","pricing_plan_id":"cebpf4jnsgd1na2vs0mg"},{"bike_id":"77beba7d-a141-4422-8ee2-04dbcdb74b98","system_id":"levelo_inurba_marseille","lat":43.2846,"lon":5.35881,"is_reserved":false,"is_disabled":false,"rental_uris":{"android":"levelo://app?vid=77beba7d-a141-4422-8ee2-04dbcdb74b98","ios":"levelo://app?vid=77beba7d-a141-4422-8ee2-04dbcdb74b98"},"vehicle_type_id":"4","last_reported":1729289318,"current_range_meters":11200,"station_id":"ce4bhah2rcd13ifvqei0","pricing_plan_id":"cebpf4jnsgd1na2vs0mg"},{"bike_id":"1c340638-b9fb-4429-a87e-5b04fa3962a9","system_id":"levelo_inurba_marseille","lat":43.30299,"lon":5.39212,"is_reserved":false,"is_disabled":false,"rental_uris":{"android":"levelo://app?vid=1c340638-b9fb-4429-a87e-5b04fa3962a9","ios":"levelo://app?vid=1c340638-b9fb-4429-a87e-5b04fa3962a9"},"vehicle_type_id":"4","last_reported":1729289318,"current_range_meters":18000,"station_id":"ce4bgkh2rcd13ifvqbk0","pricing_plan_id":"cebpf4jnsgd1na2vs0mg"},{"bike_id":"717a8e4c-4f2a-40ca-9b97-5909c033b2ff","system_id":"levelo_inurba_marseille","lat":43.28461,"lon":5.35893,"is_reserved":false,"is_disabled":false,"rental_uris":{"android":"levelo://app?vid=717a8e4c-4f2a-40ca-9b97-5909c033b2ff","ios":"levelo://app?vid=717a8e4c-4f2a-40ca-9b97-5909c033b2ff"},"vehicle_type_id":"4","last_reported":1729289318,"current_range_meters":28400,"station_id":"ce4bhah2rcd13ifvqei0","pricing_plan_id":"cebpf4jnsgd1na2vs0mg"},{"bike_id":"87440bd7-4730-412f-b52f-03b263c3d6ba","system_id":"levelo_inurba_marseille","lat":43.23191,"lon":5.35557,"is_reserved":false,"is_disabled":false,"rental_uris":{"android":"levelo://app?vid=87440bd7-4730-412f-b52f-03b263c3d6ba","ios":"levelo://app?vid=87440bd7-4730-412f-b52f-03b263c3d6ba"},"vehicle_type_id":"4","last_reported":1729289318,"current_range_meters":10800,"station_id":"ce4bhu92rcd13ifvqi70","pricing_plan_id":"cebpf4jnsgd1na2vs0mg"},{"bike_id":"f0294458-901d-435a-8204-8df56bc577f6","system_id":"levelo_inurba_marseille","lat":43.2844,"lon":5.3919,"is_reserved":false,"is_disabled":false,"rental_uris":{"android":"levelo://app?vid=f0294458-901d-435a-8204-8df56bc577f6","ios":"levelo://app?vid=f0294458-901d-435a-8204-8df56bc577f6"},"vehicle_type_id":"4","last_reported":1729289318,"current_range_meters":17600,"station_id":"ce4bhoh2rcd13ifvqh5g","pricing_plan_id":"cebpf4jnsgd1na2vs0mg"},{"bike_id":"648c1249-510e-4ccd-9a00-d9def5dad220","system_id":"levelo_inurba_marseille","lat":43.31992,"lon":5.38152,"is_reserved":false,"is_disabled":false,"rental_uris":{"android":"levelo://app?vid=648c1249-510e-4ccd-9a00-d9def5dad220","ios":"levelo://app?vid=648c1249-510e-4ccd-9a00-d9def5dad220"},"vehicle_type_id":"4","last_reported":1729289318,"current_range_meters":40000,"station_id":"ce4bhr12rcd13ifvqhpg","pricing_plan_id":"cebpf4jnsgd1na2vs0mg"},{"bike_id":"d93090a8-8a22-4afb-9995-47d63a45dc37","system_id":"levelo_inurba_marseille","lat":43.31173,"lon":5.3871,"is_reserved":false,"is_disabled":false,"rental_uris":{"android":"levelo://app?vid=d93090a8-8a22-4afb-9995-47d63a45dc37","ios":"levelo://app?vid=d93090a8-8a22-4afb-9995-47d63a45dc37"},"vehicle_type_id":"4","last_reported":1729289318,"current_range_meters":24800,"station_id":"ce4bgv12rcd13ifvqcp0","pricing_plan_id":"cebpf4jnsgd1na2vs0mg"},{"bike_id":"85859a4f-db12-4035-8929-59004e1f9569","system_id":"levelo_inurba_marseille","lat":43.25822,"lon":5.39438,"is_reserved":false,"is_disabled":false,"rental_uris":{"android":"levelo://app?vid=85859a4f-db12-4035-8929-59004e1f9569","ios":"levelo://app?vid=85859a4f-db12-4035-8929-59004e1f9569"},"vehicle_type_id":"4","last_reported":1729289318,"current_range_meters":28800,"station_id":"ce4bhip2rcd13ifvqft0","pricing_plan_id":"cebpf4jnsgd1na2vs0mg"},{"bike_id":"273580dc-ee52-4981-9bd0-5e702b71db02","system_id":"levelo_inurba_marseille","lat":43.28154,"lon":5.4264,"is_reserved":false,"is_disabled":false,"rental_uris":{"android":"levelo://app?vid=273580dc-ee52-4981-9bd0-5e702b71db02","ios":"levelo://app?vid=273580dc-ee52-4981-9bd0-5e702b71db02"},"vehicle_type_id":"4","last_reported":1729289318,"current_range_meters":34800,"station_id":"ce4bhnh2rcd13ifvqgug","pricing_plan_id":"cebpf4jnsgd1na2vs0mg"},{"bike_id":"7a862e57-1df3-48b1-82b6-f5a2da84d2f6","system_id":"levelo_inurba_marseille","lat":43.27909,"lon":5.39582,"is_reserved":false,"is_disabled":false,"rental_uris":{"android":"levelo://app?vid=7a862e57-1df3-48b1-82b6-f5a2da84d2f6","ios":"levelo://app?vid=7a862e57-1df3-48b1-82b6-f5a2da84d2f6"},"vehicle_type_id":"4","last_reported":1729289318,"current_range_meters":34000,"station_id":"ce4bhf92rcd13ifvqf40","pricing_plan_id":"cebpf4jnsgd1na2vs0mg"},{"bike_id":"26ca8e9c-fd08-490e-a1d1-e62261ceceee","system_id":"levelo_inurba_marseille","lat":43.29418,"lon":5.38625,"is_reserved":false,"is_disabled":false,"rental_uris":{"android":"levelo://app?vid=26ca8e9c-fd08-490e-a1d1-e62261ceceee","ios":"levelo://app?vid=26ca8e9c-fd08-490e-a1d1-e62261ceceee"},"vehicle_type_id":"4","last_reported":1729289318,"current_range_meters":24000,"station_id":"ce4bh2h2rcd13ifvqdh0","pricing_plan_id":"cebpf4jnsgd1na2vs0mg"},{"bike_id":"0b4b408b-0e1b-41ef-9396-f416e28a2088","system_id":"levelo_inurba_marseille","lat":43.27945,"lon":5.41038,"is_reserved":false,"is_disabled":false,"rental_uris":{"android":"levelo://app?vid=0b4b408b-0e1b-41ef-9396-f416e28a2088","ios":"levelo://app?vid=0b4b408b-0e1b-41ef-9396-f416e28a2088"},"vehicle_type_id":"4","last_reported":1729289318,"current_range_meters":28000,"station_id":"ce4bhnp2rcd13ifvqh0g","pricing_plan_id":"cebpf4jnsgd1na2vs0mg"},{"bike_id":"e8876da4-9ddc-4279-854b-97dbd3681c0b","system_id":"levelo_inurba_marseille","lat":43.319942,"lon":5.381442,"is_reserved":false,"is_disabled":false,"rental_uris":{"android":"levelo://app?vid=e8876da4-9ddc-4279-854b-97dbd3681c0b","ios":"levelo://app?vid=e8876da4-9ddc-4279-854b-97dbd3681c0b"},"vehicle_type_id":"4","last_reported":1729289318,"current_range_meters":20400,"station_id":"ce4bhr12rcd13ifvqhpg","pricing_plan_id":"cebpf4jnsgd1na2vs0mg"},{"bike_id":"1f8fe77f-c28a-493e-8046-17ab0ea5d03a","system_id":"levelo_inurba_marseille","lat":43.28733,"lon":5.36082,"is_reserved":false,"is_disabled":false,"rental_uris":{"android":"levelo://app?vid=1f8fe77f-c28a-493e-8046-17ab0ea5d03a","ios":"levelo://app?vid=1f8fe77f-c28a-493e-8046-17ab0ea5d03a"},"vehicle_type_id":"4","last_reported":1729289318,"current_range_meters":23200,"station_id":"cki0cbj6b192h4jlfktg","pricing_plan_id":"cebpf4jnsgd1na2vs0mg"},{"bike_id":"e445c19a-69b3-4427-a681-19f4a04e6978","system_id":"levelo_inurba_marseille","lat":43.32363,"lon":5.38884,"is_reserved":false,"is_disabled":false,"rental_uris":{"android":"levelo://app?vid=e445c19a-69b3-4427-a681-19f4a04e6978","ios":"levelo://app?vid=e445c19a-69b3-4427-a681-19f4a04e6978"},"vehicle_type_id":"4","last_reported":1729289318,"current_range_meters":38800,"station_id":"ce4bhqp2rcd13ifvqhog","pricing_plan_id":"cebpf4jnsgd1na2vs0mg"},{"bike_id":"3d49ded6-e985-487f-a70d-256ce187fd35","system_id":"levelo_inurba_marseille","lat":43.31228,"lon":5.36874,"is_reserved":false,"is_disabled":false,"rental_uris":{"android":"levelo://app?vid=3d49ded6-e985-487f-a70d-256ce187fd35","ios":"levelo://app?vid=3d49ded6-e985-487f-a70d-256ce187fd35"},"vehicle_type_id":"4","last_reported":1729289318,"current_range_meters":39200,"station_id":"ce4bgl92rcd13ifvqbq0","pricing_plan_id":"cebpf4jnsgd1na2vs0mg"},{"bike_id":"e8da62c6-bbec-48e4-86d2-9e1bf2d17e6b","system_id":"levelo_inurba_marseille","lat":43.32489,"lon":5.36563,"is_reserved":false,"is_disabled":false,"rental_uris":{"android":"levelo://app?vid=e8da62c6-bbec-48e4-86d2-9e1bf2d17e6b","ios":"levelo://app?vid=e8da62c6-bbec-48e4-86d2-9e1bf2d17e6b"},"vehicle_type_id":"4","last_reported":1729289318,"current_range_meters":39200,"station_id":"ce4bhs12rcd13ifvqhvg","pricing_plan_id":"cebpf4jnsgd1na2vs0mg"},{"bike_id":"c92c83ca-5649-482c-94db-74e585c302ac","system_id":"levelo_inurba_marseille","lat":43.23184,"lon":5.3998,"is_reserved":false,"is_disabled":false,"rental_uris":{"android":"levelo://app?vid=c92c83ca-5649-482c-94db-74e585c302ac","ios":"levelo://app?vid=c92c83ca-5649-482c-94db-74e585c302ac"},"vehicle_type_id":"4","last_reported":1729289318,"current_range_meters":38800,"station_id":"ce4bhn12rcd13ifvqgqg","pricing_plan_id":"cebpf4jnsgd1na2vs0mg"},{"bike_id":"57a29661-d459-4558-8e60-4ac808772410","system_id":"levelo_inurba_marseille","lat":43.3048,"lon":5.37903,"is_reserved":false,"is_disabled":false,"rental_uris":{"android":"levelo://app?vid=57a29661-d459-4558-8e60-4ac808772410","ios":"levelo://app?vid=57a29661-d459-4558-8e60-4ac808772410"},"vehicle_type_id":"4","last_reported":1729289318,"current_range_meters":38800,"station_id":"ce4bgup2rcd13ifvqcn0","pricing_plan_id":"cebpf4jnsgd1na2vs0mg"},{"bike_id":"b7a6992c-7545-4261-bc24-c69999037398","system_id":"levelo_inurba_marseille","lat":43.27939,"lon":5.41037,"is_reserved":false,"is_disabled":false,"rental_uris":{"android":"levelo://app?vid=b7a6992c-7545-4261-bc24-c69999037398","ios":"levelo://app?vid=b7a6992c-7545-4261-bc24-c69999037398"},"vehicle_type_id":"4","last_reported":1729289318,"current_range_meters":19200,"station_id":"ce4bhnp2rcd13ifvqh0g","pricing_plan_id":"cebpf4jnsgd1na2vs0mg"},{"bike_id":"8c855307-dbbc-4f48-a60f-f0bb82449d14","system_id":"levelo_inurba_marseille","lat":43.27818,"lon":5.40706,"is_reserved":false,"is_disabled":false,"rental_uris":{"android":"levelo://app?vid=8c855307-dbbc-4f48-a60f-f0bb82449d14","ios":"levelo://app?vid=8c855307-dbbc-4f48-a60f-f0bb82449d14"},"vehicle_type_id":"4","last_reported":1729289318,"current_range_meters":33600,"station_id":"ce4bhnh2rcd13ifvqgtg","pricing_plan_id":"cebpf4jnsgd1na2vs0mg"},{"bike_id":"635e2dc9-03ed-42d3-81fd-968f5dc138d7","system_id":"levelo_inurba_marseille","lat":43.28705,"lon":5.37395,"is_reserved":false,"is_disabled":false,"rental_uris":{"android":"levelo://app?vid=635e2dc9-03ed-42d3-81fd-968f5dc138d7","ios":"levelo://app?vid=635e2dc9-03ed-42d3-81fd-968f5dc138d7"},"vehicle_type_id":"4","last_reported":1729289318,"current_range_meters":24800,"station_id":"ce4bh3p2rcd13ifvqdq0","pricing_plan_id":"cebpf4jnsgd1na2vs0mg"},{"bike_id":"05838322-0ba0-4409-8314-8d55d36c1fa2","system_id":"levelo_inurba_marseille","lat":43.26931,"lon":5.38915,"is_reserved":false,"is_disabled":false,"rental_uris":{"android":"levelo://app?vid=05838322-0ba0-4409-8314-8d55d36c1fa2","ios":"levelo://app?vid=05838322-0ba0-4409-8314-8d55d36c1fa2"},"vehicle_type_id":"4","last_reported":1729289318,"current_range_meters":16400,"station_id":"ce4bhhh2rcd13ifvqfl0","pricing_plan_id":"cebpf4jnsgd1na2vs0mg"},{"bike_id":"3a9de80a-7d96-474b-9a25-5deaf3f8324c","system_id":"levelo_inurba_marseille","lat":43.30784,"lon":5.37661,"is_reserved":false,"is_disabled":false,"rental_uris":{"android":"levelo://app?vid=3a9de80a-7d96-474b-9a25-5deaf3f8324c","ios":"levelo://app?vid=3a9de80a-7d96-474b-9a25-5deaf3f8324c"},"vehicle_type_id":"4","last_reported":1729289318,"current_range_meters":19600,"station_id":"","pricing_plan_id":"cebpf4jnsgd1na2vs0mg"},{"bike_id":"a4b68ade-3015-4e5f-9f20-2b9cf9653466","system_id":"levelo_inurba_marseille","lat":43.30804,"lon":5.38152,"is_reserved":false,"is_disabled":false,"rental_uris":{"android":"levelo://app?vid=a4b68ade-3015-4e5f-9f20-2b9cf9653466","ios":"levelo://app?vid=a4b68ade-3015-4e5f-9f20-2b9cf9653466"},"vehicle_type_id":"4","last_reported":1729289318,"current_range_meters":7200,"station_id":"ce4bgt12rcd13ifvqce0","pricing_plan_id":"cebpf4jnsgd1na2vs0mg"},{"bike_id":"5b033739-1b95-49da-9b8d-294c3cabbf99","system_id":"levelo_inurba_marseille","lat":43.24178,"lon":5.39728,"is_reserved":false,"is_disabled":false,"rental_uris":{"android":"levelo://app?vid=5b033739-1b95-49da-9b8d-294c3cabbf99","ios":"levelo://app?vid=5b033739-1b95-49da-9b8d-294c3cabbf99"},"vehicle_type_id":"4","last_reported":1729289318,"current_range_meters":29600,"station_id":"ce4bhn12rcd13ifvqgpg","pricing_plan_id":"cebpf4jnsgd1na2vs0mg"},{"bike_id":"70fdf4f3-a2d2-4b24-82e3-7dafda0548d5","system_id":"levelo_inurba_marseille","lat":43.28846,"lon":5.35849,"is_reserved":false,"is_disabled":false,"rental_uris":{"android":"levelo://app?vid=70fdf4f3-a2d2-4b24-82e3-7dafda0548d5","ios":"levelo://app?vid=70fdf4f3-a2d2-4b24-82e3-7dafda0548d5"},"vehicle_type_id":"4","last_reported":1729289318,"current_range_meters":28400,"station_id":"ce4bhb12rcd13ifvqem0","pricing_plan_id":"cebpf4jnsgd1na2vs0mg"},{"bike_id":"99cff6e0-5957-4fc4-9dff-04e1de1af5de","system_id":"levelo_inurba_marseille","lat":43.31995,"lon":5.38146,"is_reserved":false,"is_disabled":false,"rental_uris":{"android":"levelo://app?vid=99cff6e0-5957-4fc4-9dff-04e1de1af5de","ios":"levelo://app?vid=99cff6e0-5957-4fc4-9dff-04e1de1af5de"},"vehicle_type_id":"4","last_reported":1729289318,"current_range_meters":30400,"station_id":"ce4bhr12rcd13ifvqhpg","pricing_plan_id":"cebpf4jnsgd1na2vs0mg"},{"bike_id":"bc4eaace-07e3-4135-a09d-514e428a2759","system_id":"levelo_inurba_marseille","lat":43.26929,"lon":5.38922,"is_reserved":false,"is_disabled":false,"rental_uris":{"android":"levelo://app?vid=bc4eaace-07e3-4135-a09d-514e428a2759","ios":"levelo://app?vid=bc4eaace-07e3-4135-a09d-514e428a2759"},"vehicle_type_id":"4","last_reported":1729289318,"current_range_meters":16400,"station_id":"ce4bhhh2rcd13ifvqfl0","pricing_plan_id":"cebpf4jnsgd1na2vs0mg"},{"bike_id":"e6140c63-7406-474b-8836-021c5f5fbda9","system_id":"levelo_inurba_marseille","lat":43.30207,"lon":5.39467,"is_reserved":false,"is_disabled":false,"rental_uris":{"android":"levelo://app?vid=e6140c63-7406-474b-8836-021c5f5fbda9","ios":"levelo://app?vid=e6140c63-7406-474b-8836-021c5f5fbda9"},"vehicle_type_id":"4","last_reported":1729289318,"current_range_meters":8400,"station_id":"ce4bh0p2rcd13ifvqd70","pricing_plan_id":"cebpf4jnsgd1na2vs0mg"},{"bike_id":"b4441754-416e-44b7-8231-faaedd0d7a67","system_id":"levelo_inurba_marseille","lat":43.27317,"lon":5.39072,"is_reserved":false,"is_disabled":false,"rental_uris":{"android":"levelo://app?vid=b4441754-416e-44b7-8231-faaedd0d7a67","ios":"levelo://app?vid=b4441754-416e-44b7-8231-faaedd0d7a67"},"vehicle_type_id":"4","last_reported":1729289318,"current_range_meters":27200,"station_id":"ce4bhgp2rcd13ifvqfe0","pricing_plan_id":"cebpf4jnsgd1na2vs0mg"},{"bike_id":"a4b68d83-e5a3-486e-a921-b7a81ceaf128","system_id":"levelo_inurba_marseille","lat":43.25496,"lon":5.37648,"is_reserved":false,"is_disabled":false,"rental_uris":{"android":"levelo://app?vid=a4b68d83-e5a3-486e-a921-b7a81ceaf128","ios":"levelo://app?vid=a4b68d83-e5a3-486e-a921-b7a81ceaf128"},"vehicle_type_id":"4","last_reported":1729289318,"current_range_meters":12800,"station_id":"ce4bhh12rcd13ifvqff0","pricing_plan_id":"cebpf4jnsgd1na2vs0mg"},{"bike_id":"5715e832-098d-4c62-8619-ea0204aa01d5","system_id":"levelo_inurba_marseille","lat":43.27067,"lon":5.4228,"is_reserved":false,"is_disabled":false,"rental_uris":{"android":"levelo://app?vid=5715e832-098d-4c62-8619-ea0204aa01d5","ios":"levelo://app?vid=5715e832-098d-4c62-8619-ea0204aa01d5"},"vehicle_type_id":"4","last_reported":1729289318,"current_range_meters":34800,"station_id":"ce4bhk92rcd13ifvqgb0","pricing_plan_id":"cebpf4jnsgd1na2vs0mg"},{"bike_id":"8ad407a0-b30e-4c09-bfd9-5504975db036","system_id":"levelo_inurba_marseille","lat":43.2695,"lon":5.3864,"is_reserved":false,"is_disabled":false,"rental_uris":{"android":"levelo://app?vid=8ad407a0-b30e-4c09-bfd9-5504975db036","ios":"levelo://app?vid=8ad407a0-b30e-4c09-bfd9-5504975db036"},"vehicle_type_id":"4","last_reported":1729289318,"current_range_meters":26000,"station_id":"ce4bhh92rcd13ifvqfh0","pricing_plan_id":"cebpf4jnsgd1na2vs0mg"},{"bike_id":"dfc0de9c-bd71-4744-b351-7e3ef8e12efd","system_id":"levelo_inurba_marseille","lat":43.293243,"lon":5.374578,"is_reserved":false,"is_disabled":false,"rental_uris":{"android":"levelo://app?vid=dfc0de9c-bd71-4744-b351-7e3ef8e12efd","ios":"levelo://app?vid=dfc0de9c-bd71-4744-b351-7e3ef8e12efd"},"vehicle_type_id":"4","last_reported":1729289318,"current_range_meters":38000,"station_id":"ce4bgi12rcd13ifvqb70","pricing_plan_id":"cebpf4jnsgd1na2vs0mg"},{"bike_id":"f327aa78-9d4a-4842-afe3-0b0531d3a72f","system_id":"levelo_inurba_marseille","lat":43.31988,"lon":5.38147,"is_reserved":false,"is_disabled":false,"rental_uris":{"android":"levelo://app?vid=f327aa78-9d4a-4842-afe3-0b0531d3a72f","ios":"levelo://app?vid=f327aa78-9d4a-4842-afe3-0b0531d3a72f"},"vehicle_type_id":"4","last_reported":1729289318,"current_range_meters":33200,"station_id":"ce4bhr12rcd13ifvqhpg","pricing_plan_id":"cebpf4jnsgd1na2vs0mg"},{"bike_id":"8cf62544-4188-4864-b4e2-c2d575bd1d0a","system_id":"levelo_inurba_marseille","lat":43.284424,"lon":5.392006,"is_reserved":false,"is_disabled":false,"rental_uris":{"android":"levelo://app?vid=8cf62544-4188-4864-b4e2-c2d575bd1d0a","ios":"levelo://app?vid=8cf62544-4188-4864-b4e2-c2d575bd1d0a"},"vehicle_type_id":"4","last_reported":1729289318,"current_range_meters":36400,"station_id":"ce4bhoh2rcd13ifvqh5g","pricing_plan_id":"cebpf4jnsgd1na2vs0mg"},{"bike_id":"2dffce44-7cfd-4d42-813e-c4b2870080b3","system_id":"levelo_inurba_marseille","lat":43.2807,"lon":5.3965,"is_reserved":false,"is_disabled":false,"rental_uris":{"android":"levelo://app?vid=2dffce44-7cfd-4d42-813e-c4b2870080b3","ios":"levelo://app?vid=2dffce44-7cfd-4d42-813e-c4b2870080b3"},"vehicle_type_id":"4","last_reported":1729289318,"current_range_meters":36400,"station_id":"ce4bho12rcd13ifvqh2g","pricing_plan_id":"cebpf4jnsgd1na2vs0mg"},{"bike_id":"57d95bb9-5aea-449d-ac8f-97d1f56cd6e3","system_id":"levelo_inurba_marseille","lat":43.27998,"lon":5.41666,"is_reserved":false,"is_disabled":false,"rental_uris":{"android":"levelo://app?vid=57d95bb9-5aea-449d-ac8f-97d1f56cd6e3","ios":"levelo://app?vid=57d95bb9-5aea-449d-ac8f-97d1f56cd6e3"},"vehicle_type_id":"4","last_reported":1729289318,"current_range_meters":30000,"station_id":"ce4bho12rcd13ifvqh1g","pricing_plan_id":"cebpf4jnsgd1na2vs0mg"},{"bike_id":"3664398f-378f-46f2-bd12-30042ad8db9d","system_id":"levelo_inurba_marseille","lat":43.23182,"lon":5.39981,"is_reserved":false,"is_disabled":false,"rental_uris":{"android":"levelo://app?vid=3664398f-378f-46f2-bd12-30042ad8db9d","ios":"levelo://app?vid=3664398f-378f-46f2-bd12-30042ad8db9d"},"vehicle_type_id":"4","last_reported":1729289318,"current_range_meters":28000,"station_id":"ce4bhn12rcd13ifvqgqg","pricing_plan_id":"cebpf4jnsgd1na2vs0mg"},{"bike_id":"be39ade3-7666-4dea-8a63-39ffe58e8c0f","system_id":"levelo_inurba_marseille","lat":43.2991,"lon":5.3814,"is_reserved":false,"is_disabled":false,"rental_uris":{"android":"levelo://app?vid=be39ade3-7666-4dea-8a63-39ffe58e8c0f","ios":"levelo://app?vid=be39ade3-7666-4dea-8a63-39ffe58e8c0f"},"vehicle_type_id":"4","last_reported":1729289318,"current_range_meters":28400,"station_id":"ce4bgj12rcd13ifvqbc0","pricing_plan_id":"cebpf4jnsgd1na2vs0mg"},{"bike_id":"a9d80141-cb04-4f88-bcc5-9763572e3517","system_id":"levelo_inurba_marseille","lat":43.23199,"lon":5.35542,"is_reserved":false,"is_disabled":false,"rental_uris":{"android":"levelo://app?vid=a9d80141-cb04-4f88-bcc5-9763572e3517","ios":"levelo://app?vid=a9d80141-cb04-4f88-bcc5-9763572e3517"},"vehicle_type_id":"4","last_reported":1729289318,"current_range_meters":27200,"station_id":"ce4bhu92rcd13ifvqi70","pricing_plan_id":"cebpf4jnsgd1na2vs0mg"},{"bike_id":"9d1709d3-17b9-4ba9-8d2b-6d72b9f5b2c8","system_id":"levelo_inurba_marseille","lat":43.30352,"lon":5.41874,"is_reserved":false,"is_disabled":false,"rental_uris":{"android":"levelo://app?vid=9d1709d3-17b9-4ba9-8d2b-6d72b9f5b2c8","ios":"levelo://app?vid=9d1709d3-17b9-4ba9-8d2b-6d72b9f5b2c8"},"vehicle_type_id":"4","last_reported":1729289318,"current_range_meters":39200,"station_id":"ce4bhop2rcd13ifvqh7g","pricing_plan_id":"cebpf4jnsgd1na2vs0mg"},{"bike_id":"25047a17-3ec6-414e-9b3c-cf1d6583afad","system_id":"levelo_inurba_marseille","lat":43.27175,"lon":5.40979,"is_reserved":false,"is_disabled":false,"rental_uris":{"android":"levelo://app?vid=25047a17-3ec6-414e-9b3c-cf1d6583afad","ios":"levelo://app?vid=25047a17-3ec6-414e-9b3c-cf1d6583afad"},"vehicle_type_id":"4","last_reported":1729289318,"current_range_meters":14800,"station_id":"ce4bhl12rcd13ifvqgf0","pricing_plan_id":"cebpf4jnsgd1na2vs0mg"},{"bike_id":"b4d9309a-78db-459c-ad1b-8b2f2af3dc6b","system_id":"levelo_inurba_marseille","lat":43.31999,"lon":5.38152,"is_reserved":false,"is_disabled":false,"rental_uris":{"android":"levelo://app?vid=b4d9309a-78db-459c-ad1b-8b2f2af3dc6b","ios":"levelo://app?vid=b4d9309a-78db-459c-ad1b-8b2f2af3dc6b"},"vehicle_type_id":"4","last_reported":1729289318,"current_range_meters":39200,"station_id":"ce4bhr12rcd13ifvqhpg","pricing_plan_id":"cebpf4jnsgd1na2vs0mg"},{"bike_id":"fa226629-d76c-453a-95f5-b71863fd0cdf","system_id":"levelo_inurba_marseille","lat":43.28707,"lon":5.37397,"is_reserved":false,"is_disabled":false,"rental_uris":{"android":"levelo://app?vid=fa226629-d76c-453a-95f5-b71863fd0cdf","ios":"levelo://app?vid=fa226629-d76c-453a-95f5-b71863fd0cdf"},"vehicle_type_id":"4","last_reported":1729289318,"current_range_meters":8800,"station_id":"ce4bh3p2rcd13ifvqdq0","pricing_plan_id":"cebpf4jnsgd1na2vs0mg"},{"bike_id":"4494673c-ebac-42b3-884d-4d7420fce07c","system_id":"levelo_inurba_marseille","lat":43.23955,"lon":5.36624,"is_reserved":false,"is_disabled":false,"rental_uris":{"android":"levelo://app?vid=4494673c-ebac-42b3-884d-4d7420fce07c","ios":"levelo://app?vid=4494673c-ebac-42b3-884d-4d7420fce07c"},"vehicle_type_id":"4","last_reported":1729289318,"current_range_meters":3200,"station_id":"ce4bhi12rcd13ifvqfp0","pricing_plan_id":"cebpf4jnsgd1na2vs0mg"},{"bike_id":"edbcaac5-2dee-4bfa-82c3-c3d8f8e78681","system_id":"levelo_inurba_marseille","lat":43.28846,"lon":5.35853,"is_reserved":false,"is_disabled":false,"rental_uris":{"android":"levelo://app?vid=edbcaac5-2dee-4bfa-82c3-c3d8f8e78681","ios":"levelo://app?vid=edbcaac5-2dee-4bfa-82c3-c3d8f8e78681"},"vehicle_type_id":"4","last_reported":1729289318,"current_range_meters":2000,"station_id":"ce4bhb12rcd13ifvqem0","pricing_plan_id":"cebpf4jnsgd1na2vs0mg"},{"bike_id":"4a9c5136-102b-41cb-94fc-f5175f170593","system_id":"levelo_inurba_marseille","lat":43.2586,"lon":5.39904,"is_reserved":false,"is_disabled":false,"rental_uris":{"android":"levelo://app?vid=4a9c5136-102b-41cb-94fc-f5175f170593","ios":"levelo://app?vid=4a9c5136-102b-41cb-94fc-f5175f170593"},"vehicle_type_id":"4","last_reported":1729289318,"current_range_meters":18800,"station_id":"ce4bhl92rcd13ifvqghg","pricing_plan_id":"cebpf4jnsgd1na2vs0mg"},{"bike_id":"09e2914a-0fcc-451a-823e-320bb77c1789","system_id":"levelo_inurba_marseille","lat":43.2795,"lon":5.4104,"is_reserved":false,"is_disabled":false,"rental_uris":{"android":"levelo://app?vid=09e2914a-0fcc-451a-823e-320bb77c1789","ios":"levelo://app?vid=09e2914a-0fcc-451a-823e-320bb77c1789"},"vehicle_type_id":"4","last_reported":1729289318,"current_range_meters":23200,"station_id":"ce4bhnp2rcd13ifvqh0g","pricing_plan_id":"cebpf4jnsgd1na2vs0mg"},{"bike_id":"d79964e7-2bc4-4004-a6e3-b60a3c0a934d","system_id":"levelo_inurba_marseille","lat":43.33022,"lon":5.39046,"is_reserved":false,"is_disabled":false,"rental_uris":{"android":"levelo://app?vid=d79964e7-2bc4-4004-a6e3-b60a3c0a934d","ios":"levelo://app?vid=d79964e7-2bc4-4004-a6e3-b60a3c0a934d"},"vehicle_type_id":"4","last_reported":1729289318,"current_range_meters":39200,"station_id":"ce4bhr92rcd13ifvqhrg","pricing_plan_id":"cebpf4jnsgd1na2vs0mg"},{"bike_id":"d41309ab-1a1f-4395-acaa-455483c3f8e1","system_id":"levelo_inurba_marseille","lat":43.2319,"lon":5.35561,"is_reserved":false,"is_disabled":false,"rental_uris":{"android":"levelo://app?vid=d41309ab-1a1f-4395-acaa-455483c3f8e1","ios":"levelo://app?vid=d41309ab-1a1f-4395-acaa-455483c3f8e1"},"vehicle_type_id":"4","last_reported":1729289318,"current_range_meters":28800,"station_id":"ce4bhu92rcd13ifvqi70","pricing_plan_id":"cebpf4jnsgd1na2vs0mg"},{"bike_id":"6ce9101f-f5ea-4bfb-bcc1-022f5abead85","system_id":"levelo_inurba_marseille","lat":43.2962,"lon":5.37147,"is_reserved":false,"is_disabled":false,"rental_uris":{"android":"levelo://app?vid=6ce9101f-f5ea-4bfb-bcc1-022f5abead85","ios":"levelo://app?vid=6ce9101f-f5ea-4bfb-bcc1-022f5abead85"},"vehicle_type_id":"4","last_reported":1729289318,"current_range_meters":38000,"station_id":"ce4bgnh2rcd13ifvqc0g","pricing_plan_id":"cebpf4jnsgd1na2vs0mg"},{"bike_id":"9071e408-bbca-4803-8059-532d91968060","system_id":"levelo_inurba_marseille","lat":43.30471,"lon":5.37901,"is_reserved":false,"is_disabled":false,"rental_uris":{"android":"levelo://app?vid=9071e408-bbca-4803-8059-532d91968060","ios":"levelo://app?vid=9071e408-bbca-4803-8059-532d91968060"},"vehicle_type_id":"4","last_reported":1729289318,"current_range_meters":39200,"station_id":"ce4bgup2rcd13ifvqcn0","pricing_plan_id":"cebpf4jnsgd1na2vs0mg"},{"bike_id":"ce77bac5-d72a-4879-bb9f-e8999156173a","system_id":"levelo_inurba_marseille","lat":43.29794,"lon":5.381,"is_reserved":false,"is_disabled":false,"rental_uris":{"android":"levelo://app?vid=ce77bac5-d72a-4879-bb9f-e8999156173a","ios":"levelo://app?vid=ce77bac5-d72a-4879-bb9f-e8999156173a"},"vehicle_type_id":"4","last_reported":1729289318,"current_range_meters":11200,"station_id":"ce4bgip2rcd13ifvqbb0","pricing_plan_id":"cebpf4jnsgd1na2vs0mg"},{"bike_id":"0b51970e-59ca-4863-880f-bf9f416d9e60","system_id":"levelo_inurba_marseille","lat":43.32659,"lon":5.40992,"is_reserved":false,"is_disabled":false,"rental_uris":{"android":"levelo://app?vid=0b51970e-59ca-4863-880f-bf9f416d9e60","ios":"levelo://app?vid=0b51970e-59ca-4863-880f-bf9f416d9e60"},"vehicle_type_id":"4","last_reported":1729289318,"current_range_meters":22800,"station_id":"ce4bhpp2rcd13ifvqhgg","pricing_plan_id":"cebpf4jnsgd1na2vs0mg"},{"bike_id":"f3a96a4d-bc6d-460f-a415-db98973047b8","system_id":"levelo_inurba_marseille","lat":43.29895,"lon":5.43662,"is_reserved":false,"is_disabled":false,"rental_uris":{"android":"levelo://app?vid=f3a96a4d-bc6d-460f-a415-db98973047b8","ios":"levelo://app?vid=f3a96a4d-bc6d-460f-a415-db98973047b8"},"vehicle_type_id":"4","last_reported":1729289318,"current_range_meters":6000,"station_id":"ce4bhpp2rcd13ifvqhfg","pricing_plan_id":"cebpf4jnsgd1na2vs0mg"},{"bike_id":"8c46528e-f982-4833-8dc3-683de7e457dd","system_id":"levelo_inurba_marseille","lat":43.26487,"lon":5.39551,"is_reserved":false,"is_disabled":false,"rental_uris":{"android":"levelo://app?vid=8c46528e-f982-4833-8dc3-683de7e457dd","ios":"levelo://app?vid=8c46528e-f982-4833-8dc3-683de7e457dd"},"vehicle_type_id":"4","last_reported":1729289318,"current_range_meters":28000,"station_id":"ce4bhi12rcd13ifvqfq0","pricing_plan_id":"cebpf4jnsgd1na2vs0mg"},{"bike_id":"f3f1665d-4061-4989-a63f-5b4bd1dd31ee","system_id":"levelo_inurba_marseille","lat":43.28411,"lon":5.37532,"is_reserved":false,"is_disabled":false,"rental_uris":{"android":"levelo://app?vid=f3f1665d-4061-4989-a63f-5b4bd1dd31ee","ios":"levelo://app?vid=f3f1665d-4061-4989-a63f-5b4bd1dd31ee"},"vehicle_type_id":"4","last_reported":1729289318,"current_range_meters":8000,"station_id":"ce4bh412rcd13ifvqds0","pricing_plan_id":"cebpf4jnsgd1na2vs0mg"},{"bike_id":"112f5af7-d8d7-49ca-9d5b-2b1b1ee7c6a0","system_id":"levelo_inurba_marseille","lat":43.23189,"lon":5.35534,"is_reserved":false,"is_disabled":false,"rental_uris":{"android":"levelo://app?vid=112f5af7-d8d7-49ca-9d5b-2b1b1ee7c6a0","ios":"levelo://app?vid=112f5af7-d8d7-49ca-9d5b-2b1b1ee7c6a0"},"vehicle_type_id":"4","last_reported":1729289318,"current_range_meters":38800,"station_id":"ce4bhu92rcd13ifvqi70","pricing_plan_id":"cebpf4jnsgd1na2vs0mg"},{"bike_id":"adcc82c1-50b8-4350-bb82-7e178c902d33","system_id":"levelo_inurba_marseille","lat":43.28072,"lon":5.39629,"is_reserved":false,"is_disabled":false,"rental_uris":{"android":"levelo://app?vid=adcc82c1-50b8-4350-bb82-7e178c902d33","ios":"levelo://app?vid=adcc82c1-50b8-4350-bb82-7e178c902d33"},"vehicle_type_id":"4","last_reported":1729289318,"current_range_meters":36000,"station_id":"ce4bho12rcd13ifvqh2g","pricing_plan_id":"cebpf4jnsgd1na2vs0mg"},{"bike_id":"cf80c6ec-66a9-4ae0-9773-96a1058e567b","system_id":"levelo_inurba_marseille","lat":43.29254,"lon":5.40902,"is_reserved":false,"is_disabled":false,"rental_uris":{"android":"levelo://app?vid=cf80c6ec-66a9-4ae0-9773-96a1058e567b","ios":"levelo://app?vid=cf80c6ec-66a9-4ae0-9773-96a1058e567b"},"vehicle_type_id":"4","last_reported":1729289318,"current_range_meters":24800,"station_id":"ce4bh192rcd13ifvqdc0","pricing_plan_id":"cebpf4jnsgd1na2vs0mg"},{"bike_id":"602eba83-e98b-4daf-8507-a38b4f9a588e","system_id":"levelo_inurba_marseille","lat":43.32478,"lon":5.36551,"is_reserved":false,"is_disabled":false,"rental_uris":{"android":"levelo://app?vid=602eba83-e98b-4daf-8507-a38b4f9a588e","ios":"levelo://app?vid=602eba83-e98b-4daf-8507-a38b4f9a588e"},"vehicle_type_id":"4","last_reported":1729289318,"current_range_meters":14000,"station_id":"ce4bhs12rcd13ifvqhvg","pricing_plan_id":"cebpf4jnsgd1na2vs0mg"},{"bike_id":"a417ea90-2677-4128-ad80-9d6526661d0d","system_id":"levelo_inurba_marseille","lat":43.23962,"lon":5.36626,"is_reserved":false,"is_disabled":false,"rental_uris":{"android":"levelo://app?vid=a417ea90-2677-4128-ad80-9d6526661d0d","ios":"levelo://app?vid=a417ea90-2677-4128-ad80-9d6526661d0d"},"vehicle_type_id":"4","last_reported":1729289318,"current_range_meters":19600,"station_id":"ce4bhi12rcd13ifvqfp0","pricing_plan_id":"cebpf4jnsgd1na2vs0mg"},{"bike_id":"aa20f911-9a2b-433c-bcdc-ffc1f2149bd4","system_id":"levelo_inurba_marseille","lat":43.30797,"lon":5.38155,"is_reserved":false,"is_disabled":false,"rental_uris":{"android":"levelo://app?vid=aa20f911-9a2b-433c-bcdc-ffc1f2149bd4","ios":"levelo://app?vid=aa20f911-9a2b-433c-bcdc-ffc1f2149bd4"},"vehicle_type_id":"4","last_reported":1729289318,"current_range_meters":11200,"station_id":"ce4bgt12rcd13ifvqce0","pricing_plan_id":"cebpf4jnsgd1na2vs0mg"},{"bike_id":"117ee8b3-b5e2-4e87-a5f7-420c68bf7509","system_id":"levelo_inurba_marseille","lat":43.25858,"lon":5.39908,"is_reserved":false,"is_disabled":false,"rental_uris":{"android":"levelo://app?vid=117ee8b3-b5e2-4e87-a5f7-420c68bf7509","ios":"levelo://app?vid=117ee8b3-b5e2-4e87-a5f7-420c68bf7509"},"vehicle_type_id":"4","last_reported":1729289318,"current_range_meters":38800,"station_id":"ce4bhl92rcd13ifvqghg","pricing_plan_id":"cebpf4jnsgd1na2vs0mg"},{"bike_id":"f93454e1-a669-4c63-a4ca-b572042c7971","system_id":"levelo_inurba_marseille","lat":43.23194,"lon":5.35554,"is_reserved":false,"is_disabled":false,"rental_uris":{"android":"levelo://app?vid=f93454e1-a669-4c63-a4ca-b572042c7971","ios":"levelo://app?vid=f93454e1-a669-4c63-a4ca-b572042c7971"},"vehicle_type_id":"4","last_reported":1729289318,"current_range_meters":6800,"station_id":"ce4bhu92rcd13ifvqi70","pricing_plan_id":"cebpf4jnsgd1na2vs0mg"},