{"last_updated":1738170508,"ttl":60,"version":"2.2","data":{"bikes":[{"bike_id":"ceb31866-0641-473a-b561-fed2264ee0d1","system_id":"levelo_inurba_marseille","lat":43.28266,"lon":5.35061,"is_reserved":false,"is_disabled":false,"rental_uris":{"android":"levelo://app?vid=ceb31866-0641-473a-b561-fed2264ee0d1","ios":"levelo://app?vid=ceb31866-0641-473a-b561-fed2264ee0d1"},"vehicle_type_id":"4","last_reported":1738170508,"current_range_meters":14400,"station_id":"ce4bhbp2rcd13ifvqerg","pricing_plan_id":"cebpf4jnsgd1na2vs0mg"},{"bike_id":"041686b5-fe9c-4b96-a9ce-907665db98ab","system_id":"levelo_inurba_marseille","lat":43.29539,"lon":5.39043,"is_reserved":false,"is_disabled":false,"rental_uris":{"android":"levelo://app?vid=041686b5-fe9c-4b96-a9ce-907665db98ab","ios":"levelo://app?vid=041686b5-fe9c-4b96-a9ce-907665db98ab"},"vehicle_type_id":"4","last_reported":1738170508,"current_range_meters":35600,"station_id":"ce4bh3p2rcd13ifvqdp0","pricing_plan_id":"cebpf4jnsgd1na2vs0mg"},{"bike_id":"9fd73913-dbae-4c44-9a9b-e393df78b1e9","system_id":"levelo_inurba_marseille","lat":43.25581,"lon":5.38239,"is_reserved":false,"is_disabled":false,"rental_uris":{"android":"levelo://app?vid=9fd73913-dbae-4c44-9a9b-e393df78b1e9","ios":"levelo://app?vid=9fd73913-dbae-4c44-9a9b-e393df78b1e9"},"vehicle_type_id":"4","last_reported":1738170508,"current_range_meters":2800,"station_id":"ce4bhih2rcd13ifvqfs0","pricing_plan_id":"cebpf4jnsgd1na2vs0mg"},{"bike_id":"a8dcf4d3-0fa3-476c-92e6-d0d14581a95b","system_id":"levelo_inurba_marseille","lat":43.26219,"lon":5.37439,"is_reserved":false,"is_disabled":false,"rental_uris":{"android":"levelo://app?vid=a8dcf4d3-0fa3-476c-92e6-d0d14581a95b","ios":"levelo://app?vid=a8dcf4d3-0fa3-476c-92e6-d0d14581a95b"},"vehicle_type_id":"4","last_reported":1738170508,"current_range_meters":37600,"station_id":"ce4bhgp2rcd13ifvqfc0","pricing_plan_id":"cebpf4jnsgd1na2vs0mg"},{"bike_id":"56f49f8b-4bf2-4d84-97ce-54c8a66ab5f7","system_id":"levelo_inurba_marseille","lat":43.29985,"lon":5.37156,"is_reserved":false,"is_disabled":false,"rental_uris":{"android":"levelo://app?vid=56f49f8b-4bf2-4d84-97ce-54c8a66ab5f7","ios":"levelo://app?vid=56f49f8b-4bf2-4d84-97ce-54c8a66ab5f7"},"vehicle_type_id":"4","last_reported":1738170508,"current_range_meters":38800,"station_id":"ce4bgr92rcd13ifvqc7g","pricing_plan_id":"cebpf4jnsgd1na2vs0mg"},{"bike_id":"4adad3b6-e869-41dd-b253-1d8e9ebbc59a","system_id":"levelo_inurba_marseille","lat":43.28651,"lon":5.38572,"is_reserved":false,"is_disabled":false,"rental_uris":{"android":"levelo://app?vid=4adad3b6-e869-41dd-b253-1d8e9ebbc59a","ios":"levelo://app?vid=4adad3b6-e869-41dd-b253-1d8e9ebbc59a"},"vehicle_type_id":"4","last_reported":1738170508,"current_range_meters":12400,"station_id":"ce4bh192rcd13ifvqdd0","pricing_plan_id":"cebpf4jnsgd1na2vs0mg"},{"bike_id":"f7f8117f-03ef-415e-85c6-2eeaf165e4f2","system_id":"levelo_inurba_marseille","lat":43.26248,"lon":5.40477,"is_reserved":false,"is_disabled":true,"rental_uris":{"android":"levelo://app?vid=f7f8117f-03ef-415e-85c6-2eeaf165e4f2","ios":"levelo://app?vid=f7f8117f-03ef-415e-85c6-2eeaf165e4f2"},"vehicle_type_id":"4","last_reported":1738170508,"current_range_meters":28400,"station_id":"ce4bhmh2rcd13ifvqgmg","pricing_plan_id":"cebpf4jnsgd1na2vs0mg"},{"bike_id":"0a0c1efe-cc50-4fe6-91d4-6df98fc10a24","system_id":"levelo_inurba_marseille","lat":43.28932,"lon":5.36403,"is_reserved":false,"is_disabled":false,"rental_uris":{"android":"levelo://app?vid=0a0c1efe-cc50-4fe6-91d4-6df98fc10a24","ios":"levelo://app?vid=0a0c1efe-cc50-4fe6-91d4-6df98fc10a24"},"vehicle_type_id":"4","last_reported":1738170508,"current_range_meters":20800,"station_id":"ce4bhc92rcd13ifvqetg","pricing_plan_id":"cebpf4jnsgd1na2vs0mg"},{"bike_id":"74c2e97f-99a9-4ddf-af35-1c4ab8ca0edb","system_id":"levelo_inurba_marseille","lat":43.30786,"lon":5.37656,"is_reserved":false,"is_disabled":false,"rental_uris":{"android":"levelo://app?vid=74c2e97f-99a9-4ddf-af35-1c4ab8ca0edb","ios":"levelo://app?vid=74c2e97f-99a9-4ddf-af35-1c4ab8ca0edb"},"vehicle_type_id":"4","last_reported":1738170508,"current_range_meters":28800,"station_id":"ce4bgv92rcd13ifvqcq0","pricing_plan_id":"cebpf4jnsgd1na2vs0mg"},{"bike_id":"2f441f54-89b7-4d48-9a7f-eb84a954d143","system_id":"levelo_inurba_marseille","lat":43.28961,"lon":5.37836,"is_reserved":false,"is_disabled":false,"rental_uris":{"android":"levelo://app?vid=2f441f54-89b7-4d48-9a7f-eb84a954d143","ios":"levelo://app?vid=2f441f54-89b7-4d48-9a7f-eb84a954d143"},"vehicle_type_id":"4","last_reported":1738170508,"current_range_meters":36000,"station_id":"ce4bh9p2rcd13ifvqed0","pricing_plan_id":"cebpf4jnsgd1na2vs0mg"},{"bike_id":"f93041b9-b8e0-42d2-8838-ad70483b616d","system_id":"levelo_inurba_marseille","lat":43.26774,"lon":5.39466,"is_reserved":false,"is_disabled":false,"rental_uris":{"android":"levelo://app?vid=f93041b9-b8e0-42d2-8838-ad70483b616d","ios":"levelo://app?vid=f93041b9-b8e0-42d2-8838-ad70483b616d"},"vehicle_type_id":"4","last_reported":1738170508,"current_range_meters":16800,"station_id":"ce4bhh12rcd13ifvqfg0","pricing_plan_id":"cebpf4jnsgd1na2vs0mg"},{"bike_id":"adc2855c-ce96-4ab1-9132-d4c82e18f627","system_id":"levelo_inurba_marseille","lat":43.26488,"lon":5.39564,"is_reserved":false,"is_disabled":false,"rental_uris":{"android":"levelo://app?vid=adc2855c-ce96-4ab1-9132-d4c82e18f627","ios":"levelo://app?vid=adc2855c-ce96-4ab1-9132-d4c82e18f627"},"vehicle_type_id":"4","last_reported":1738170508,"current_range_meters":32000,"station_id":"ce4bhi12rcd13ifvqfq0","pricing_plan_id":"cebpf4jnsgd1na2vs0mg"},{"bike_id":"df517269-7978-40e7-92b9-aba0b6440d0d","system_id":"levelo_inurba_marseille","lat":43.27373,"lon":5.36258,"is_reserved":false,"is_disabled":false,"rental_uris":{"android":"levelo://app?vid=df517269-7978-40e7-92b9-aba0b6440d0d","ios":"levelo://app?vid=df517269-7978-40e7-92b9-aba0b6440d0d"},"vehicle_type_id":"4","last_reported":1738170508,"current_range_meters":27200,"station_id":"ce4bhbh2rcd13ifvqeo0","pricing_plan_id":"cebpf4jnsgd1na2vs0mg"},{"bike_id":"19f00171-96bd-42bf-8bb8-0b0846e9a944","system_id":"levelo_inurba_marseille","lat":43.2894,"lon":5.36643,"is_reserved":false,"is_disabled":false,"rental_uris":{"android":"levelo://app?vid=19f00171-96bd-42bf-8bb8-0b0846e9a944","ios":"levelo://app?vid=19f00171-96bd-42bf-8bb8-0b0846e9a944"},"vehicle_type_id":"4","last_reported":1738170508,"current_range_meters":25200,"station_id":"ce4bhap2rcd13ifvqek0","pricing_plan_id":"cebpf4jnsgd1na2vs0mg"},{"bike_id":"9d927d19-5355-4b50-b34c-afbdb86cc1c9","system_id":"levelo_inurba_marseille","lat":43.28117,"lon":5.40545,"is_reserved":false,"is_disabled":false,"rental_uris":{"android":"levelo://app?vid=9d927d19-5355-4b50-b34c-afbdb86cc1c9","ios":"levelo://app?vid=9d927d19-5355-4b50-b34c-afbdb86cc1c9"},"vehicle_type_id":"4","last_reported":1738170508,"current_range_meters":24400,"station_id":"","pricing_plan_id":"cebpf4jnsgd1na2vs0mg"},{"bike_id":"79b7a714-6899-43f0-a0e6-1e9b5234e282","system_id":"levelo_inurba_marseille","lat":43.29549,"lon":5.42295,"is_reserved":false,"is_disabled":true,"rental_uris":{"android":"levelo://app?vid=79b7a714-6899-43f0-a0e6-1e9b5234e282","ios":"levelo://app?vid=79b7a714-6899-43f0-a0e6-1e9b5234e282"},"vehicle_type_id":"4","last_reported":1738170508,"current_range_meters":0,"station_id":"ce4bhph2rcd13ifvqhdg","pricing_plan_id":"cebpf4jnsgd1na2vs0mg"},{"bike_id":"69899191-e293-497b-a27d-18f1e8ac236e","system_id":"levelo_inurba_marseille","lat":43.30062,"lon":5.39082,"is_reserved":false,"is_disabled":false,"rental_uris":{"android":"levelo://app?vid=69899191-e293-497b-a27d-18f1e8ac236e","ios":"levelo://app?vid=69899191-e293-497b-a27d-18f1e8ac236e"},"vehicle_type_id":"4","last_reported":1738170508,"current_range_meters":36400,"station_id":"ce4bh192rcd13ifvqdb0","pricing_plan_id":"cebpf4jnsgd1na2vs0mg"},{"bike_id":"e05d3339-457c-46fa-9827-97d4d0e79dfd","system_id":"levelo_inurba_marseille","lat":43.25875,"lon":5.39895,"is_reserved":false,"is_disabled":false,"rental_uris":{"android":"levelo://app?vid=e05d3339-457c-46fa-9827-97d4d0e79dfd","ios":"levelo://app?vid=e05d3339-457c-46fa-9827-97d4d0e79dfd"},"vehicle_type_id":"4","last_reported":1738170508,"current_range_meters":39200,"station_id":"ce4bhl92rcd13ifvqghg","pricing_plan_id":"cebpf4jnsgd1na2vs0mg"},{"bike_id":"cd3eef2e-d1dd-424b-9bb5-5925a977c26f","system_id":"levelo_inurba_marseille","lat":43.29168,"lon":5.37156,"is_reserved":false,"is_disabled":false,"rental_uris":{"android":"levelo://app?vid=cd3eef2e-d1dd-424b-9bb5-5925a977c26f","ios":"levelo://app?vid=cd3eef2e-d1dd-424b-9bb5-5925a977c26f"},"vehicle_type_id":"4","last_reported":1738170508,"current_range_meters":8000,"station_id":"ce4bha92rcd13ifvqeh0","pricing_plan_id":"cebpf4jnsgd1na2vs0mg"},{"bike_id":"9bd21267-26f6-4122-9567-2f0b5d4f790f","system_id":"levelo_inurba_marseille","lat":43.32366,"lon":5.38877,"is_reserved":false,"is_disabled":false,"rental_uris":{"android":"levelo://app?vid=9bd21267-26f6-4122-9567-2f0b5d4f790f","ios":"levelo://app?vid=9bd21267-26f6-4122-9567-2f0b5d4f790f"},"vehicle_type_id":"4","last_reported":1738170508,"current_range_meters":8000,"station_id":"ce4bhqp2rcd13ifvqhog","pricing_plan_id":"cebpf4jnsgd1na2vs0mg"},{"bike_id":"3197f913-edfa-40e7-9c5a-9be71bfe0dc8","system_id":"levelo_inurba_marseille","lat":43.28937,"lon":5.36641,"is_reserved":false,"is_disabled":false,"rental_uris":{"android":"levelo://app?vid=3197f913-edfa-40e7-9c5a-9be71bfe0dc8","ios":"levelo://app?vid=3197f913-edfa-40e7-9c5a-9be71bfe0dc8"},"vehicle_type_id":"4","last_reported":1738170508,"current_range_meters":32800,"station_id":"ce4bhap2rcd13ifvqek0","pricing_plan_id":"cebpf4jnsgd1na2vs0mg"},{"bike_id":"68ac8b4d-c443-49a8-a262-9b5d383fef9c","system_id":"levelo_inurba_marseille","lat":43.28348,"lon":5.38094,"is_reserved":false,"is_disabled":false,"rental_uris":{"android":"levelo://app?vid=68ac8b4d-c443-49a8-a262-9b5d383fef9c","ios":"levelo://app?vid=68ac8b4d-c443-49a8-a262-9b5d383fef9c"},"vehicle_type_id":"4","last_reported":1738170508,"current_range_meters":4400,"station_id":"ce4bh412rcd13ifvqdr0","pricing_plan_id":"cebpf4jnsgd1na2vs0mg"},{"bike_id":"1c63fa7b-8bb3-4da5-8267-9c40ab75cc0b","system_id":"levelo_inurba_marseille","lat":43.33738,"lon":5.39161,"is_reserved":false,"is_disabled":false,"rental_uris":{"android":"levelo://app?vid=1c63fa7b-8bb3-4da5-8267-9c40ab75cc0b","ios":"levelo://app?vid=1c63fa7b-8bb3-4da5-8267-9c40ab75cc0b"},"vehicle_type_id":"4","last_reported":1738170508,"current_range_meters":39200,"station_id":"ce4bhr92rcd13ifvqhsg","pricing_plan_id":"cebpf4jnsgd1na2vs0mg"},{"bike_id":"94bb3991-259c-43fd-904a-01982a3ce8ed","system_id":"levelo_inurba_marseille","lat":43.27998,"lon":5.4166,"is_reserved":false,"is_disabled":false,"rental_uris":{"android":"levelo://app?vid=94bb3991-259c-43fd-904a-01982a3ce8ed","ios":"levelo://app?vid=94bb3991-259c-43fd-904a-01982a3ce8ed"},"vehicle_type_id":"4","last_reported":1738170508,"current_range_meters":12000,"station_id":"ce4bho12rcd13ifvqh1g","pricing_plan_id":"cebpf4jnsgd1na2vs0mg"},{"bike_id":"fb57aee5-301b-407c-a9d0-c23dec2dfbec","system_id":"levelo_inurba_marseille","lat":43.27367,"lon":5.36253,"is_reserved":false,"is_disabled":false,"rental_uris":{"android":"levelo://app?vid=fb57aee5-301b-407c-a9d0-c23dec2dfbec","ios":"levelo://app?vid=fb57aee5-301b-407c-a9d0-c23dec2dfbec"},"vehicle_type_id":"4","last_reported":1738170508,"current_range_meters":30000,"station_id":"ce4bhbh2rcd13ifvqeo0","pricing_plan_id":"cebpf4jnsgd1na2vs0mg"},{"bike_id":"5d4915e0-4a9f-4c36-821a-8bde58abc3cd","system_id":"levelo_inurba_marseille","lat":43.25119,"lon":5.40313,"is_reserved":false,"is_disabled":true,"rental_uris":{"android":"levelo://app?vid=5d4915e0-4a9f-4c36-821a-8bde58abc3cd","ios":"levelo://app?vid=5d4915e0-4a9f-4c36-821a-8bde58abc3cd"},"vehicle_type_id":"4","last_reported":1738170508,"current_range_meters":38800,"station_id":"ce4bhlh2rcd13ifvqgig","pricing_plan_id":"cebpf4jnsgd1na2vs0mg"},{"bike_id":"76c9fbd1-5621-4249-9275-c8387a9310a4","system_id":"levelo_inurba_marseille","lat":43.31372,"lon":5.36675,"is_reserved":false,"is_disabled":false,"rental_uris":{"android":"levelo://app?vid=76c9fbd1-5621-4249-9275-c8387a9310a4","ios":"levelo://app?vid=76c9fbd1-5621-4249-9275-c8387a9310a4"},"vehicle_type_id":"4","last_reported":1738170508,"current_range_meters":38800,"station_id":"ce4bgr92rcd13ifvqc6g","pricing_plan_id":"cebpf4jnsgd1na2vs0mg"},{"bike_id":"6325b2e4-1145-482e-a98b-ea9ba7994f1b","system_id":"levelo_inurba_marseille","lat":43.25923,"lon":5.40917,"is_reserved":false,"is_disabled":false,"rental_uris":{"android":"levelo://app?vid=6325b2e4-1145-482e-a98b-ea9ba7994f1b","ios":"levelo://app?vid=6325b2e4-1145-482e-a98b-ea9ba7994f1b"},"vehicle_type_id":"4","last_reported":1738170508,"current_range_meters":30400,"station_id":"ce4bhm92rcd13ifvqglg","pricing_plan_id":"cebpf4jnsgd1na2vs0mg"},{"bike_id":"08434c67-ea8e-455c-b5dc-8484bed053de","system_id":"levelo_inurba_marseille","lat":43.30538,"lon":5.36554,"is_reserved":false,"is_disabled":false,"rental_uris":{"android":"levelo://app?vid=08434c67-ea8e-455c-b5dc-8484bed053de","ios":"levelo://app?vid=08434c67-ea8e-455c-b5dc-8484bed053de"},"vehicle_type_id":"4","last_reported":1738170508,"current_range_meters":33600,"station_id":"ce4bgs12rcd13ifvqcag","pricing_plan_id":"cebpf4jnsgd1na2vs0mg"},{"bike_id":"726bcb46-e9b6-4da3-8b76-bba3f7627889","system_id":"levelo_inurba_marseille","lat":43.31525,"lon":5.38033,"is_reserved":false,"is_disabled":false,"rental_uris":{"android":"levelo://app?vid=726bcb46-e9b6-4da3-8b76-bba3f7627889","ios":"levelo://app?vid=726bcb46-e9b6-4da3-8b76-bba3f7627889"},"vehicle_type_id":"4","last_reported":1738170508,"current_range_meters":23200,"station_id":"ce4bhsp2rcd13ifvqi50","pricing_plan_id":"cebpf4jnsgd1na2vs0mg"},{"bike_id":"a799fe20-6a35-4a2f-855f-af0affa3ad26","system_id":"levelo_inurba_marseille","lat":43.28598,"lon":5.37076,"is_reserved":false,"is_disabled":false,"rental_uris":{"android":"levelo://app?vid=a799fe20-6a35-4a2f-855f-af0affa3ad26","ios":"levelo://app?vid=a799fe20-6a35-4a2f-855f-af0affa3ad26"},"vehicle_type_id":"4","last_reported":1738170508,"current_range_meters":34000,"station_id":"ce4bht12rcd13ifvqi60","pricing_plan_id":"cebpf4jnsgd1na2vs0mg"},{"bike_id":"dd5c5c45-05d7-435f-b329-97ebdf5c921f","system_id":"levelo_inurba_marseille","lat":43.25103,"lon":5.4033,"is_reserved":false,"is_disabled":true,"rental_uris":{"android":"levelo://app?vid=dd5c5c45-05d7-435f-b329-97ebdf5c921f","ios":"levelo://app?vid=dd5c5c45-05d7-435f-b329-97ebdf5c921f"},"vehicle_type_id":"4","last_reported":1738170508,"current_range_meters":0,"station_id":"ce4bhlh2rcd13ifvqgig","pricing_plan_id":"cebpf4jnsgd1na2vs0mg"},{"bike_id":"c7bdc074-3c4f-4d2d-8b38-3436f976868d","system_id":"levelo_inurba_marseille","lat":43.30406,"lon":5.4128,"is_reserved":false,"is_disabled":true,"rental_uris":{"android":"levelo://app?vid=c7bdc074-3c4f-4d2d-8b38-3436f976868d","ios":"levelo://app?vid=c7bdc074-3c4f-4d2d-8b38-3436f976868d"},"vehicle_type_id":"4","last_reported":1738170508,"current_range_meters":400,"station_id":"ce4bhop2rcd13ifvqh8g","pricing_plan_id":"cebpf4jnsgd1na2vs0mg"},{"bike_id":"722ce177-0c4a-4ce3-80ae-b0fd2c692aab","system_id":"levelo_inurba_marseille","lat":43.27221,"lon":5.3918,"is_reserved":false,"is_disabled":false,"rental_uris":{"android":"levelo://app?vid=722ce177-0c4a-4ce3-80ae-b0fd2c692aab","ios":"levelo://app?vid=722ce177-0c4a-4ce3-80ae-b0fd2c692aab"},"vehicle_type_id":"4","last_reported":1738170508,"current_range_meters":24800,"station_id":"ce4bhhp2rcd13ifvqfm0","pricing_plan_id":"cebpf4jnsgd1na2vs0mg"},{"bike_id":"417ab0f8-8e2c-4e79-a191-928cd37dbe28","system_id":"levelo_inurba_marseille","lat":43.29877,"lon":5.3974,"is_reserved":false,"is_disabled":false,"rental_uris":{"android":"levelo://app?vid=417ab0f8-8e2c-4e79-a191-928cd37dbe28","ios":"levelo://app?vid=417ab0f8-8e2c-4e79-a191-928cd37dbe28"},"vehicle_type_id":"4","last_reported":1738170508,"current_range_meters":17200,"station_id":"ce4bh0h2rcd13ifvqd50","pricing_plan_id":"cebpf4jnsgd1na2vs0mg"},{"bike_id":"9f7cbc3c-6e0b-4442-8c70-64c0b2a1452e","system_id":"levelo_inurba_marseille","lat":43.23053,"lon":5.35495,"is_reserved":false,"is_disabled":false,"rental_uris":{"android":"levelo://app?vid=9f7cbc3c-6e0b-4442-8c70-64c0b2a1452e","ios":"levelo://app?vid=9f7cbc3c-6e0b-4442-8c70-64c0b2a1452e"},"vehicle_type_id":"4","last_reported":1738170508,"current_range_meters":16800,"station_id":"cpo3342slgdg3j2ifvpg","pricing_plan_id":"cebpf4jnsgd1na2vs0mg"},{"bike_id":"c8a3a0ed-dff2-4f3c-87dc-2e6b47b1ad28","system_id":"levelo_inurba_marseille","lat":43.337444,"lon":5.374475,"is_reserved":false,"is_disabled":true,"rental_uris":{"android":"levelo://app?vid=c8a3a0ed-dff2-4f3c-87dc-2e6b47b1ad28","ios":"levelo://app?vid=c8a3a0ed-dff2-4f3c-87dc-2e6b47b1ad28"},"vehicle_type_id":"4","last_reported":1738170508,"current_range_meters":400,"station_id":"","pricing_plan_id":"cebpf4jnsgd1na2vs0mg"},{"bike_id":"76009bdf-fe47-4c7b-b848-7fc36b4f5990","system_id":"levelo_inurba_marseille","lat":43.2756,"lon":5.38417,"is_reserved":false,"is_disabled":false,"rental_uris":{"android":"levelo://app?vid=76009bdf-fe47-4c7b-b848-7fc36b4f5990","ios":"levelo://app?vid=76009bdf-fe47-4c7b-b848-7fc36b4f5990"},"vehicle_type_id":"4","last_reported":1738170508,"current_range_meters":37600,"station_id":"ce4bhh92rcd13ifvqfi0","pricing_plan_id":"cebpf4jnsgd1na2vs0mg"},{"bike_id":"2ab65341-7acf-46a4-93dd-c67c33a885bc","system_id":"levelo_inurba_marseille","lat":43.23152,"lon":5.43721,"is_reserved":false,"is_disabled":false,"rental_uris":{"android":"levelo://app?vid=2ab65341-7acf-46a4-93dd-c67c33a885bc","ios":"levelo://app?vid=2ab65341-7acf-46a4-93dd-c67c33a885bc"},"vehicle_type_id":"4","last_reported":1738170508,"current_range_meters":28000,"station_id":"ce4bhmp2rcd13ifvqgog","pricing_plan_id":"cebpf4jnsgd1na2vs0mg"},{"bike_id":"e10e9408-d6dc-414f-bc56-fcb3b1a2c3d6","system_id":"levelo_inurba_marseille","lat":43.29716,"lon":5.36611,"is_reserved":false,"is_disabled":false,"rental_uris":{"android":"levelo://app?vid=e10e9408-d6dc-414f-bc56-fcb3b1a2c3d6","ios":"levelo://app?vid=e10e9408-d6dc-414f-bc56-fcb3b1a2c3d6"},"vehicle_type_id":"4","last_reported":1738170508,"current_range_meters":22800,"station_id":"ce4bgn12rcd13ifvqbt0","pricing_plan_id":"cebpf4jnsgd1na2vs0mg"},{"bike_id":"c4a2d3d7-d541-4952-9db2-68e429e697e1","system_id":"levelo_inurba_marseille","lat":43.286102,"lon":5.37071,"is_reserved":false,"is_disabled":false,"rental_uris":{"android":"levelo://app?vid=c4a2d3d7-d541-4952-9db2-68e429e697e1","ios":"levelo://app?vid=c4a2d3d7-d541-4952-9db2-68e429e697e1"},"vehicle_type_id":"4","last_reported":1738170508,"current_range_meters":23200,"station_id":"ce4bht12rcd13ifvqi60","pricing_plan_id":"cebpf4jnsgd1na2vs0mg"},{"bike_id":"de06faba-f49e-45f3-bd58-c62092488794","system_id":"levelo_inurba_marseille","lat":43.31116,"lon":5.37767,"is_reserved":false,"is_disabled":false,"rental_uris":{"android":"levelo://app?vid=de06faba-f49e-45f3-bd58-c62092488794","ios":"levelo://app?vid=de06faba-f49e-45f3-bd58-c62092488794"},"vehicle_type_id":"4","last_reported":1738170508,"current_range_meters":38800,"station_id":"ce4bgt92rcd13ifvqcg0","pricing_plan_id":"cebpf4jnsgd1na2vs0mg"},{"bike_id":"ec184f57-30aa-4661-b2e8-f42d89a139eb","system_id":"levelo_inurba_marseille","lat":43.23185,"lon":5.39993,"is_reserved":false,"is_disabled":false,"rental_uris":{"android":"levelo://app?vid=ec184f57-30aa-4661-b2e8-f42d89a139eb","ios":"levelo://app?vid=ec184f57-30aa-4661-b2e8-f42d89a139eb"},"vehicle_type_id":"4","last_reported":1738170508,"current_range_meters":14000,"station_id":"ce4bhn12rcd13ifvqgqg","pricing_plan_id":"cebpf4jnsgd1na2vs0mg"},{"bike_id":"693267d0-0c3a-4d7f-8254-487806157f56","system_id":"levelo_inurba_marseille","lat":43.27322,"lon":5.390932,"is_reserved":false,"is_disabled":false,"rental_uris":{"android":"levelo://app?vid=693267d0-0c3a-4d7f-8254-487806157f56","ios":"levelo://app?vid=693267d0-0c3a-4d7f-8254-487806157f56"},"vehicle_type_id":"4","last_reported":1738170508,"current_range_meters":4400,"station_id":"ce4bhgp2rcd13ifvqfe0","pricing_plan_id":"cebpf4jnsgd1na2vs0mg"},{"bike_id":"6811fcdd-0dd6-46b0-93c3-921932e8f90c","system_id":"levelo_inurba_marseille","lat":43.32536,"lon":5.41444,"is_reserved":false,"is_disabled":true,"rental_uris":{"android":"levelo://app?vid=6811fcdd-0dd6-46b0-93c3-921932e8f90c","ios":"levelo://app?vid=6811fcdd-0dd6-46b0-93c3-921932e8f90c"},"vehicle_type_id":"4","last_reported":1738170508,"current_range_meters":38800,"station_id":"ce4bhq12rcd13ifvqhhg","pricing_plan_id":"cebpf4jnsgd1na2vs0mg"},{"bike_id":"a99754b0-533c-4b68-ad89-42118685fbc7","system_id":"levelo_inurba_marseille","lat":43.27999,"lon":5.41668,"is_reserved":false,"is_disabled":false,"rental_uris":{"android":"levelo://app?vid=a99754b0-533c-4b68-ad89-42118685fbc7","ios":"levelo://app?vid=a99754b0-533c-4b68-ad89-42118685fbc7"},"vehicle_type_id":"4","last_reported":1738170508,"current_range_meters":24000,"station_id":"ce4bho12rcd13ifvqh1g","pricing_plan_id":"cebpf4jnsgd1na2vs0mg"},{"bike_id":"95b0a1eb-b8bb-43ba-96c6-4eac2349b0e8","system_id":"levelo_inurba_marseille","lat":43.27941,"lon":5.41047,"is_reserved":false,"is_disabled":false,"rental_uris":{"android":"levelo://app?vid=95b0a1eb-b8bb-43ba-96c6-4eac2349b0e8","ios":"levelo://app?vid=95b0a1eb-b8bb-43ba-96c6-4eac2349b0e8"},"vehicle_type_id":"4","last_reported":1738170508,"current_range_meters":14800,"station_id":"ce4bhnp2rcd13ifvqh0g","pricing_plan_id":"cebpf4jnsgd1na2vs0mg"},{"bike_id":"9ca9db42-432b-4e8a-b654-a147500769bd","system_id":"levelo_inurba_marseille","lat":43.29078,"lon":5.37171,"is_reserved":false,"is_disabled":false,"rental_uris":{"android":"levelo://app?vid=9ca9db42-432b-4e8a-b654-a147500769bd","ios":"levelo://app?vid=9ca9db42-432b-4e8a-b654-a147500769bd"},"vehicle_type_id":"4","last_reported":1738170508,"current_range_meters":38400,"station_id":"ce4bh5p2rcd13ifvqe4g","pricing_plan_id":"cebpf4jnsgd1na2vs0mg"},{"bike_id":"ebb62ccf-3b30-4887-8c47-8865caf0c2fb","system_id":"levelo_inurba_marseille","lat":43.29872,"lon":5.38905,"is_reserved":false,"is_disabled":true,"rental_uris":{"android":"levelo://app?vid=ebb62ccf-3b30-4887-8c47-8865caf0c2fb","ios":"levelo://app?vid=ebb62ccf-3b30-4887-8c47-8865caf0c2fb"},"vehicle_type_id":"4","last_reported":1738170508,"current_range_meters":0,"station_id":"ce4bh392rcd13ifvqdl0","pricing_plan_id":"cebpf4jnsgd1na2vs0mg"},{"bike_id":"96111419-020e-4b85-8005-96ab906d2273","system_id":"levelo_inurba_marseille","lat":43.28165,"lon":5.42655,"is_reserved":false,"is_disabled":true,"rental_uris":{"android":"levelo://app?vid=96111419-020e-4b85-8005-96ab906d2273","ios":"levelo://app?vid=96111419-020e-4b85-8005-96ab906d2273"},"vehicle_type_id":"4","last_reported":1738170508,"current_range_meters":0,"station_id":"ce4bhnh2rcd13ifvqgug","pricing_plan_id":"cebpf4jnsgd1na2vs0mg"},{"bike_id":"6154358a-439a-46b5-9df8-fc726363e491","system_id":"levelo_inurba_marseille","lat":43.28882,"lon":5.38432,"is_reserved":false,"is_disabled":false,"rental_uris":{"android":"levelo://app?vid=6154358a-439a-46b5-9df8-fc726363e491","ios":"levelo://app?vid=6154358a-439a-46b5-9df8-fc726363e491"},"vehicle_type_id":"4","last_reported":1738170508,"current_range_meters":7200,"station_id":"","pricing_plan_id":"cebpf4jnsgd1na2vs0mg"},{"bike_id":"9838cc78-2b53-49d3-ae13-82df62c4fd64","system_id":"levelo_inurba_marseille","lat":43.28412,"lon":5.40934,"is_reserved":false,"is_disabled":true,"rental_uris":{"android":"levelo://app?vid=9838cc78-2b53-49d3-ae13-82df62c4fd64","ios":"levelo://app?vid=9838cc78-2b53-49d3-ae13-82df62c4fd64"},"vehicle_type_id":"4","last_reported":1738170508,"current_range_meters":0,"station_id":"","pricing_plan_id":"cebpf4jnsgd1na2vs0mg"},{"bike_id":"a765fe06-018c-4a73-898c-2082c09f528c","system_id":"levelo_inurba_marseille","lat":43.27188,"lon":5.40986,"is_reserved":false,"is_disabled":false,"rental_uris":{"android":"levelo://app?vid=a765fe06-018c-4a73-898c-2082c09f528c","ios":"levelo://app?vid=a765fe06-018c-4a73-898c-2082c09f528c"},"vehicle_type_id":"4","last_reported":1738170508,"current_range_meters":27200,"station_id":"ce4bhl12rcd13ifvqgf0","pricing_plan_id":"cebpf4jnsgd1na2vs0mg"},{"bike_id":"c01c3492-3b23-45a3-8aa8-ecd597d43db6","system_id":"levelo_inurba_marseille","lat":43.33024,"lon":5.3904,"is_reserved":false,"is_disabled":false,"rental_uris":{"android":"levelo://app?vid=c01c3492-3b23-45a3-8aa8-ecd597d43db6","ios":"levelo://app?vid=c01c3492-3b23-45a3-8aa8-ecd597d43db6"},"vehicle_type_id":"4","last_reported":1738170508,"current_range_meters":19200,"station_id":"ce4bhr92rcd13ifvqhrg","pricing_plan_id":"cebpf4jnsgd1na2vs0mg"},{"bike_id":"60897c11-30b1-4f9d-8ae9-0cd745775b7f","system_id":"levelo_inurba_marseille","lat":43.27563,"lon":5.38428,"is_reserved":false,"is_disabled":false,"rental_uris":{"android":"levelo://app?vid=60897c11-30b1-4f9d-8ae9-0cd745775b7f","ios":"levelo://app?vid=60897c11-30b1-4f9d-8ae9-0cd745775b7f"},"vehicle_type_id":"4","last_reported":1738170508,"current_range_meters":35600,"station_id":"ce4bhh92rcd13ifvqfi0","pricing_plan_id":"cebpf4jnsgd1na2vs0mg"},{"bike_id":"c4b612cf-bd83-4c1a-9a6d-5ad5ed4741f9","system_id":"levelo_inurba_marseille","lat":43.2718,"lon":5.40986,"is_reserved":false,"is_disabled":false,"rental_uris":{"android":"levelo://app?vid=c4b612cf-bd83-4c1a-9a6d-5ad5ed4741f9","ios":"levelo://app?vid=c4b612cf-bd83-4c1a-9a6d-5ad5ed4741f9"},"vehicle_type_id":"4","last_reported":1738170508,"current_range_meters":39200,"station_id":"ce4bhl12rcd13ifvqgf0","pricing_plan_id":"cebpf4jnsgd1na2vs0mg"},{"bike_id":"cebc1cc3-2475-48cb-aa41-05d47858d44e","system_id":"levelo_inurba_marseille","lat":43.29905,"lon":5.43669,"is_reserved":false,"is_disabled":false,"rental_uris":{"android":"levelo://app?vid=cebc1cc3-2475-48cb-aa41-05d47858d44e","ios":"levelo://app?vid=cebc1cc3-2475-48cb-aa41-05d47858d44e"},"vehicle_type_id":"4","last_reported":1738170508,"current_range_meters":26800,"station_id":"ce4bhpp2rcd13ifvqhfg","pricing_plan_id":"cebpf4jnsgd1na2vs0mg"},{"bike_id":"d09fbc8b-1664-4bee-b0d4-ddf0f6322931","system_id":"levelo_inurba_marseille","lat":43.30538,"lon":5.36524,"is_reserved":false,"is_disabled":false,"rental_uris":{"android":"levelo://app?vid=d09fbc8b-1664-4bee-b0d4-ddf0f6322931","ios":"levelo://app?vid=d09fbc8b-1664-4bee-b0d4-ddf0f6322931"},"vehicle_type_id":"4","last_reported":1738170508,"current_range_meters":28800,"station_id":"ce4bgs12rcd13ifvqcag","pricing_plan_id":"cebpf4jnsgd1na2vs0mg"},{"bike_id":"ff5fd589-9930-4c8e-b978-2a6477df7932","system_id":"levelo_inurba_marseille","lat":43.26546,"lon":5.37312,"is_reserved":false,"is_disabled":false,"rental_uris":{"android":"levelo://app?vid=ff5fd589-9930-4c8e-b978-2a6477df7932","ios":"levelo://app?vid=ff5fd589-9930-4c8e-b978-2a6477df7932"},"vehicle_type_id":"4","last_reported":1738170508,"current_range_meters":3200,"station_id":"ce4bhg12rcd13ifvqf70","pricing_plan_id":"cebpf4jnsgd1na2vs0mg"},{"bike_id":"30d1c8f3-5300-4043-9503-c4ce7894e403","system_id":"levelo_inurba_marseille","lat":43.24173,"lon":5.39718,"is_reserved":false,"is_disabled":false,"rental_uris":{"android":"levelo://app?vid=30d1c8f3-5300-4043-9503-c4ce7894e403","ios":"levelo://app?vid=30d1c8f3-5300-4043-9503-c4ce7894e403"},"vehicle_type_id":"4","last_reported":1738170508,"current_range_meters":8000,"station_id":"ce4bhn12rcd13ifvqgpg","pricing_plan_id":"cebpf4jnsgd1na2vs0mg"},{"bike_id":"3e02ef35-1b4b-47b5-b370-196df4b36dc7","system_id":"levelo_inurba_marseille","lat":43.29304,"lon":5.37174,"is_reserved":false,"is_disabled":false,"rental_uris":{"android":"levelo://app?vid=3e02ef35-1b4b-47b5-b370-196df4b36dc7","ios":"levelo://app?vid=3e02ef35-1b4b-47b5-b370-196df4b36dc7"},"vehicle_type_id":"4","last_reported":1738170508,"current_range_meters":27200,"station_id":"ce4bgh92rcd13ifvqb40","pricing_plan_id":"cebpf4jnsgd1na2vs0mg"},{"bike_id":"e616b313-df38-422a-b95a-06db009f6756","system_id":"levelo_inurba_marseille","lat":43.27191,"lon":5.40995,"is_reserved":false,"is_disabled":false,"rental_uris":{"android":"levelo://app?vid=e616b313-df38-422a-b95a-06db009f6756","ios":"levelo://app?vid=e616b313-df38-422a-b95a-06db009f6756"},"vehicle_type_id":"4","last_reported":1738170508,"current_range_meters":22800,"station_id":"ce4bhl12rcd13ifvqgf0","pricing_plan_id":"cebpf4jnsgd1na2vs0mg"},{"bike_id":"d979d8d2-ec65-47af-9229-e4270aab279a","system_id":"levelo_inurba_marseille","lat":43.23065,"lon":5.35471,"is_reserved":false,"is_disabled":false,"rental_uris":{"android":"levelo://app?vid=d979d8d2-ec65-47af-9229-e4270aab279a","ios":"levelo://app?vid=d979d8d2-ec65-47af-9229-e4270aab279a"},"vehicle_type_id":"4","last_reported":1738170508,"current_range_meters":18000,"station_id":"cpo3342slgdg3j2ifvpg","pricing_plan_id":"cebpf4jnsgd1na2vs0mg"},{"bike_id":"4022c348-0a12-4ca9-b1a7-9ff470eab2bf","system_id":"levelo_inurba_marseille","lat":43.28458,"lon":5.38081,"is_reserved":false,"is_disabled":true,"rental_uris":{"android":"levelo://app?vid=4022c348-0a12-4ca9-b1a7-9ff470eab2bf","ios":"levelo://app?vid=4022c348-0a12-4ca9-b1a7-9ff470eab2bf"},"vehicle_type_id":"4","last_reported":1738170508,"current_range_meters":0,"station_id":"ce4bh412rcd13ifvqdr0","pricing_plan_id":"cebpf4jnsgd1na2vs0mg"},{"bike_id":"8401c82e-2c7e-4101-98a2-b12f578674b6","system_id":"levelo_inurba_marseille","lat":43.28442,"lon":5.39207,"is_reserved":false,"is_disabled":true,"rental_uris":{"android":"levelo://app?vid=8401c82e-2c7e-4101-98a2-b12f578674b6","ios":"levelo://app?vid=8401c82e-2c7e-4101-98a2-b12f578674b6"},"vehicle_type_id":"4","last_reported":1738170508,"current_range_meters":400,"station_id":"ce4bhoh2rcd13ifvqh5g","pricing_plan_id":"cebpf4jnsgd1na2vs0mg"},{"bike_id":"b797b71a-478c-4747-818e-e73ff6142643","system_id":"levelo_inurba_marseille","lat":43.28074,"lon":5.39652,"is_reserved":false,"is_disabled":false,"rental_uris":{"android":"levelo://app?vid=b797b71a-478c-4747-818e-e73ff6142643","ios":"levelo://app?vid=b797b71a-478c-4747-818e-e73ff6142643"},"vehicle_type_id":"4","last_reported":1738170508,"current_range_meters":32400,"station_id":"ce4bho12rcd13ifvqh2g","pricing_plan_id":"cebpf4jnsgd1na2vs0mg"},{"bike_id":"73f5f323-7a92-4193-90e1-bdec8817858b","system_id":"levelo_inurba_marseille","lat":43.28351,"lon":5.38091,"is_reserved":false,"is_disabled":true,"rental_uris":{"android":"levelo://app?vid=73f5f323-7a92-4193-90e1-bdec8817858b","ios":"levelo://app?vid=73f5f323-7a92-4193-90e1-bdec8817858b"},"vehicle_type_id":"4","last_reported":1738170508,"current_range_meters":400,"station_id":"ce4bh412rcd13ifvqdr0","pricing_plan_id":"cebpf4jnsgd1na2vs0mg"},{"bike_id":"f6a71536-dbef-48bb-a172-bcb02a715dfe","system_id":"levelo_inurba_marseille","lat":43.27949,"lon":5.41047,"is_reserved":false,"is_disabled":false,"rental_uris":{"android":"levelo://app?vid=f6a71536-dbef-48bb-a172-bcb02a715dfe","ios":"levelo://app?vid=f6a71536-dbef-48bb-a172-bcb02a715dfe"},"vehicle_type_id":"4","last_reported":1738170508,"current_range_meters":33200,"station_id":"ce4bhnp2rcd13ifvqh0g","pricing_plan_id":"cebpf4jnsgd1na2vs0mg"},{"bike_id":"ffe39f18-a394-4120-9196-75e8de965bbb","system_id":"levelo_inurba_marseille","lat":43.30249,"lon":5.40051,"is_reserved":false,"is_disabled":false,"rental_uris":{"android":"levelo://app?vid=ffe39f18-a394-4120-9196-75e8de965bbb","ios":"levelo://app?vid=ffe39f18-a394-4120-9196-75e8de965bbb"},"vehicle_type_id":"4","last_reported":1738170508,"current_range_meters":5600,"station_id":"ce4bgvh2rcd13ifvqcs0","pricing_plan_id":"cebpf4jnsgd1na2vs0mg"},{"bike_id":"a7fa174b-9e7a-480f-96ea-d7b68ff91040","system_id":"levelo_inurba_marseille","lat":43.29974,"lon":5.38493,"is_reserved":false,"is_disabled":true,"rental_uris":{"android":"levelo://app?vid=a7fa174b-9e7a-480f-96ea-d7b68ff91040","ios":"levelo://app?vid=a7fa174b-9e7a-480f-96ea-d7b68ff91040"},"vehicle_type_id":"4","last_reported":1738170508,"current_range_meters":33600,"station_id":"ce4bgj92rcd13ifvqbd0","pricing_plan_id":"cebpf4jnsgd1na2vs0mg"},{"bike_id":"d8b1c3f9-ff6e-4179-8423-4ba0d2a2af0e","system_id":"levelo_inurba_marseille","lat":43.33728,"lon":5.39178,"is_reserved":false,"is_disabled":false,"rental_uris":{"android":"levelo://app?vid=d8b1c3f9-ff6e-4179-8423-4ba0d2a2af0e","ios":"levelo://app?vid=d8b1c3f9-ff6e-4179-8423-4ba0d2a2af0e"},"vehicle_type_id":"4","last_reported":1738170508,"current_range_meters":38800,"station_id":"ce4bhr92rcd13ifvqhsg","pricing_plan_id":"cebpf4jnsgd1na2vs0mg"},{"bike_id":"8e3bde4b-c541-4bb8-bc57-103bd8f8ff69","system_id":"levelo_inurba_marseille","lat":43.30138,"lon":5.39864,"is_reserved":false,"is_disabled":false,"rental_uris":{"android":"levelo://app?vid=8e3bde4b-c541-4bb8-bc57-103bd8f8ff69","ios":"levelo://app?vid=8e3bde4b-c541-4bb8-bc57-103bd8f8ff69"},"vehicle_type_id":"4","last_reported":1738170508,"current_range_meters":6800,"station_id":"ce4bh0h2rcd13ifvqd40","pricing_plan_id":"cebpf4jnsgd1na2vs0mg"},{"bike_id":"24c3f57e-10bf-40fd-9d10-f14144e314b3","system_id":"levelo_inurba_marseille","lat":43.33009,"lon":5.39055,"is_reserved":false,"is_disabled":false,"rental_uris":{"android":"levelo://app?vid=24c3f57e-10bf-40fd-9d10-f14144e314b3","ios":"levelo://app?vid=24c3f57e-10bf-40fd-9d10-f14144e314b3"},"vehicle_type_id":"4","last_reported":1738170508,"current_range_meters":38800,"station_id":"ce4bhr92rcd13ifvqhrg","pricing_plan_id":"cebpf4jnsgd1na2vs0mg"},{"bike_id":"91394c05-5d2c-4802-8f5f-6f60929bbe7d","system_id":"levelo_inurba_marseille","lat":43.26775,"lon":5.39435,"is_reserved":false,"is_disabled":false,"rental_uris":{"android":"levelo://app?vid=91394c05-5d2c-4802-8f5f-6f60929bbe7d","ios":"levelo://app?vid=91394c05-5d2c-4802-8f5f-6f60929bbe7d"},"vehicle_type_id":"4","last_reported":1738170508,"current_range_meters":36800,"station_id":"ce4bhh12rcd13ifvqfg0","pricing_plan_id":"cebpf4jnsgd1na2vs0mg"},{"bike_id":"d63a3e4a-8da1-4381-af7b-b70a2b1e88dc","system_id":"levelo_inurba_marseille","lat":43.32482,"lon":5.36569,"is_reserved":false,"is_disabled":false,"rental_uris":{"android":"levelo://app?vid=d63a3e4a-8da1-4381-af7b-b70a2b1e88dc","ios":"levelo://app?vid=d63a3e4a-8da1-4381-af7b-b70a2b1e88dc"},"vehicle_type_id":"4","last_reported":1738170508,"current_range_meters":16000,"station_id":"ce4bhs12rcd13ifvqhvg","pricing_plan_id":"cebpf4jnsgd1na2vs0mg"},{"bike_id":"3c9c9088-9c27-4609-bc62-8218c0dc2be8","system_id":"levelo_inurba_marseille","lat":43.23197,"lon":5.35569,"is_reserved":false,"is_disabled":false,"rental_uris":{"android":"levelo://app?vid=3c9c9088-9c27-4609-bc62-8218c0dc2be8","ios":"levelo://app?vid=3c9c9088-9c27-4609-bc62-8218c0dc2be8"},"vehicle_type_id":"4","last_reported":1738170508,"current_range_meters":39200,"station_id":"ce4bhu92rcd13ifvqi70","pricing_plan_id":"cebpf4jnsgd1na2vs0mg"},{"bike_id":"65c22d16-0d7c-48ff-a902-c9b423eb9b6e","system_id":"levelo_inurba_marseille","lat":43.25871,"lon":5.39887,"is_reserved":false,"is_disabled":false,"rental_uris":{"android":"levelo://app?vid=65c22d16-0d7c-48ff-a902-c9b423eb9b6e","ios":"levelo://app?vid=65c22d16-0d7c-48ff-a902-c9b423eb9b6e"},"vehicle_type_id":"4","last_reported":1738170508,"current_range_meters":20000,"station_id":"ce4bhl92rcd13ifvqghg","pricing_plan_id":"cebpf4jnsgd1na2vs0mg"},{"bike_id":"93c099cf-b51e-4356-b98b-9baefe90a739","system_id":"levelo_inurba_marseille","lat":43.29571,"lon":5.39979,"is_reserved":false,"is_disabled":false,"rental_uris":{"android":"levelo://app?vid=93c099cf-b51e-4356-b98b-9baefe90a739","ios":"levelo://app?vid=93c099cf-b51e-4356-b98b-9baefe90a739"},"vehicle_type_id":"4","last_reported":1738170508,"current_range_meters":2000,"station_id":"ce4bh312rcd13ifvqdj0","pricing_plan_id":"cebpf4jnsgd1na2vs0mg"},{"bike_id":"53fa82d1-eb43-4e19-8ac1-1347a372b80a","system_id":"levelo_inurba_marseille","lat":43.25871,"lon":5.39894,"is_reserved":false,"is_disabled":false,"rental_uris":{"android":"levelo://app?vid=53fa82d1-eb43-4e19-8ac1-1347a372b80a","ios":"levelo://app?vid=53fa82d1-eb43-4e19-8ac1-1347a372b80a"},"vehicle_type_id":"4","last_reported":1738170508,"current_range_meters":33600,"station_id":"ce4bhl92rcd13ifvqghg","pricing_plan_id":"cebpf4jnsgd1na2vs0mg"},{"bike_id":"684d9683-ae51-473c-b687-84d92f8716cd","system_id":"levelo_inurba_marseille","lat":43.33725,"lon":5.39182,"is_reserved":false,"is_disabled":false,"rental_uris":{"android":"levelo://app?vid=684d9683-ae51-473c-b687-84d92f8716cd","ios":"levelo://app?vid=684d9683-ae51-473c-b687-84d92f8716cd"},"vehicle_type_id":"4","last_reported":1738170508,"current_range_meters":38000,"station_id":"ce4bhr92rcd13ifvqhsg","pricing_plan_id":"cebpf4jnsgd1na2vs0mg"},{"bike_id":"c07c591e-d0f6-4c56-8abf-02a4f4f42b52","system_id":"levelo_inurba_marseille","lat":43.243848,"lon":5.370872,"is_reserved":false,"is_disabled":false,"rental_uris":{"android":"levelo://app?vid=c07c591e-d0f6-4c56-8abf-02a4f4f42b52","ios":"levelo://app?vid=c07c591e-d0f6-4c56-8abf-02a4f4f42b52"},"vehicle_type_id":"4","last_reported":1738170508,"current_range_meters":34800,"station_id":"ce4bhhh2rcd13ifvqfk0","pricing_plan_id":"cebpf4jnsgd1na2vs0mg"},{"bike_id":"3ee38696-ae73-42eb-bc23-4bfc0b18183a","system_id":"levelo_inurba_marseille","lat":43.28486,"lon":5.38416,"is_reserved":false,"is_disabled":false,"rental_uris":{"android":"levelo://app?vid=3ee38696-ae73-42eb-bc23-4bfc0b18183a","ios":"levelo://app?vid=3ee38696-ae73-42eb-bc23-4bfc0b18183a"},"vehicle_type_id":"4","last_reported":1738170508,"current_range_meters":12800,"station_id":"ce4bh512rcd13ifvqe3g","pricing_plan_id":"cebpf4jnsgd1na2vs0mg"},{"bike_id":"250b549b-e17a-442f-a648-ab990a585288","system_id":"levelo_inurba_marseille","lat":43.29961,"lon":5.41327,"is_reserved":false,"is_disabled":false,"rental_uris":{"android":"levelo://app?vid=250b549b-e17a-442f-a648-ab990a585288","ios":"levelo://app?vid=250b549b-e17a-442f-a648-ab990a585288"},"vehicle_type_id":"4","last_reported":1738170508,"current_range_meters":38800,"station_id":"ce4bhp12rcd13ifvqh9g","pricing_plan_id":"cebpf4jnsgd1na2vs0mg"},{"bike_id":"7b6ee604-b953-4786-bbf4-99ca44bf0fc5","system_id":"levelo_inurba_marseille","lat":43.28701,"lon":5.39986,"is_reserved":false,"is_disabled":false,"rental_uris":{"android":"levelo://app?vid=7b6ee604-b953-4786-bbf4-99ca44bf0fc5","ios":"levelo://app?vid=7b6ee604-b953-4786-bbf4-99ca44bf0fc5"},"vehicle_type_id":"4","last_reported":1738170508,"current_range_meters":12800,"station_id":"ce4bho92rcd13ifvqh3g","pricing_plan_id":"cebpf4jnsgd1na2vs0mg"},{"bike_id":"aac2d971-8bd1-4c3a-8cf1-653402c81c6d","system_id":"levelo_inurba_marseille","lat":43.27611,"lon":5.36116,"is_reserved":false,"is_disabled":false,"rental_uris":{"android":"levelo://app?vid=aac2d971-8bd1-4c3a-8cf1-653402c81c6d","ios":"levelo://app?vid=aac2d971-8bd1-4c3a-8cf1-653402c81c6d"},"vehicle_type_id":"4","last_reported":1738170508,"current_range_meters":38800,"station_id":"ce4bgj92rcd13ifvqbe0","pricing_plan_id":"cebpf4jnsgd1na2vs0mg"},{"bike_id":"f13d5aa8-c024-4fbb-8216-a7ef6ab1eff4","system_id":"levelo_inurba_marseille","lat":43.31892,"lon":5.40745,"is_reserved":false,"is_disabled":false,"rental_uris":{"android":"levelo://app?vid=f13d5aa8-c024-4fbb-8216-a7ef6ab1eff4","ios":"levelo://app?vid=f13d5aa8-c024-4fbb-8216-a7ef6ab1eff4"},"vehicle_type_id":"4","last_reported":1738170508,"current_range_meters":38400,"station_id":"ce4bhq12rcd13ifvqhig","pricing_plan_id":"cebpf4jnsgd1na2vs0mg"},{"bike_id":"39bd9e28-59f1-42e3-98fa-8269cd3a779a","system_id":"levelo_inurba_marseille","lat":43.28076,"lon":5.39657,"is_reserved":false,"is_disabled":true,"rental_uris":{"android":"levelo://app?vid=39bd9e28-59f1-42e3-98fa-8269cd3a779a","ios":"levelo://app?vid=39bd9e28-59f1-42e3-98fa-8269cd3a779a"},"vehicle_type_id":"4","last_reported":1738170508,"current_range_meters":800,"station_id":"ce4bho12rcd13ifvqh2g","pricing_plan_id":"cebpf4jnsgd1na2vs0mg"},{"bike_id":"ab2c796a-c23b-4a3a-9534-777b873d6a05","system_id":"levelo_inurba_marseille","lat":43.24166,"lon":5.36401,"is_reserved":false,"is_disabled":false,"rental_uris":{"android":"levelo://app?vid=ab2c796a-c23b-4a3a-9534-777b873d6a05","ios":"levelo://app?vid=ab2c796a-c23b-4a3a-9534-777b873d6a05"},"vehicle_type_id":"4","last_reported":1738170508,"current_range_meters":15200,"station_id":"cpo36qri1sfpv3e86is0","pricing_plan_id":"cebpf4jnsgd1na2vs0mg"},{"bike_id":"eca914c1-5c29-44d5-b3d0-f7b51a76a49b","system_id":"levelo_inurba_marseille","lat":43.26032,"lon":5.3755,"is_reserved":false,"is_disabled":false,"rental_uris":{"android":"levelo://app?vid=eca914c1-5c29-44d5-b3d0-f7b51a76a49b","ios":"levelo://app?vid=eca914c1-5c29-44d5-b3d0-f7b51a76a49b"},"vehicle_type_id":"4","last_reported":1738170508,"current_range_meters":21600,"station_id":"ce4bhgh2rcd13ifvqfa0","pricing_plan_id":"cebpf4jnsgd1na2vs0mg"},{"bike_id":"d92844ec-1bbd-411f-bba6-ef4232857418","system_id":"levelo_inurba_marseille","lat":43.29521,"lon":5.38528,"is_reserved":false,"is_disabled":false,"rental_uris":{"android":"levelo://app?vid=d92844ec-1bbd-411f-bba6-ef4232857418","ios":"levelo://app?vid=d92844ec-1bbd-411f-bba6-ef4232857418"},"vehicle_type_id":"4","last_reported":1738170508,"current_range_meters":34800,"station_id":"ce4bgih2rcd13ifvqba0","pricing_plan_id":"cebpf4jnsgd1na2vs0mg"},{"bike_id":"fa910578-4caa-4210-aa45-ea80af27e609","system_id":"levelo_inurba_marseille","lat":43.31722,"lon":5.42409,"is_reserved":false,"is_disabled":false,"rental_uris":{"android":"levelo://app?vid=fa910578-4caa-4210-aa45-ea80af27e609","ios":"levelo://app?vid=fa910578-4caa-4210-aa45-ea80af27e609"},"vehicle_type_id":"4","last_reported":1738170508,"current_range_meters":37600,"station_id":"ce4bhp92rcd13ifvqhbg","pricing_plan_id":"cebpf4jnsgd1na2vs0mg"},{"bike_id":"e8a4ec34-c161-49af-8f0e-6a425cb9189a","system_id":"levelo_inurba_marseille","lat":43.27425,"lon":5.39415,"is_reserved":false,"is_disabled":false,"rental_uris":{"android":"levelo://app?vid=e8a4ec34-c161-49af-8f0e-6a425cb9189a","ios":"levelo://app?vid=e8a4ec34-c161-49af-8f0e-6a425cb9189a"},"vehicle_type_id":"4","last_reported":1738170508,"current_range_meters":4400,"station_id":"ce4bhdp2rcd13ifvqf20","pricing_plan_id":"cebpf4jnsgd1na2vs0mg"},{"bike_id":"ea7e3290-da4f-48fe-b2ef-2fd8a95e7c15","system_id":"levelo_inurba_marseille","lat":43.30879,"lon":5.39635,"is_reserved":false,"is_disabled":false,"rental_uris":{"android":"levelo://app?vid=ea7e3290-da4f-48fe-b2ef-2fd8a95e7c15","ios":"levelo://app?vid=ea7e3290-da4f-48fe-b2ef-2fd8a95e7c15"},"vehicle_type_id":"4","last_reported":1738170508,"current_range_meters":36800,"station_id":"ce4bh012rcd13ifvqcv0","pricing_plan_id":"cebpf4jnsgd1na2vs0mg"},{"bike_id":"f0f07e84-01c4-443b-852b-4e00b882c1d8","system_id":"levelo_inurba_marseille","lat":43.30799,"lon":5.43539,"is_reserved":false,"is_disabled":false,"rental_uris":{"android":"levelo://app?vid=f0f07e84-01c4-443b-852b-4e00b882c1d8","ios":"levelo://app?vid=f0f07e84-01c4-443b-852b-4e00b882c1d8"},"vehicle_type_id":"4","last_reported":1738170508,"current_range_meters":38800,"station_id":"ce4bhph2rcd13ifvqheg","pricing_plan_id":"cebpf4jnsgd1na2vs0mg"},{"bike_id":"46b7ca4e-5ebb-4782-aafc-3512392391be","system_id":"levelo_inurba_marseille","lat":43.28865,"lon":5.39327,"is_reserved":false,"is_disabled":false,"rental_uris":{"android":"levelo://app?vid=46b7ca4e-5ebb-4782-aafc-3512392391be","ios":"levelo://app?vid=46b7ca4e-5ebb-4782-aafc-3512392391be"},"vehicle_type_id":"4","last_reported":1738170508,"current_range_meters":15200,"station_id":"ce4bh2p2rcd13ifvqdi0","pricing_plan_id":"cebpf4jnsgd1na2vs0mg"},{"bike_id":"615a0747-8d06-4fbf-b735-2ce44cc12594","system_id":"levelo_inurba_marseille","lat":43.32353,"lon":5.38881,"is_reserved":false,"is_disabled":false,"rental_uris":{"android":"levelo://app?vid=615a0747-8d06-4fbf-b735-2ce44cc12594","ios":"levelo://app?vid=615a0747-8d06-4fbf-b735-2ce44cc12594"},"vehicle_type_id":"4","last_reported":1738170508,"current_range_meters":20000,"station_id":"ce4bhqp2rcd13ifvqhog","pricing_plan_id":"cebpf4jnsgd1na2vs0mg"},{"bike_id":"4e331cde-9b58-436f-9288-d266e9017c62","system_id":"levelo_inurba_marseille","lat":43.24176,"lon":5.39728,"is_reserved":false,"is_disabled":false,"rental_uris":{"android":"levelo://app?vid=4e331cde-9b58-436f-9288-d266e9017c62","ios":"levelo://app?vid=4e331cde-9b58-436f-9288-d266e9017c62"},"vehicle_type_id":"4","last_reported":1738170508,"current_range_meters":10800,"station_id":"ce4bhn12rcd13ifvqgpg","pricing_plan_id":"cebpf4jnsgd1na2vs0mg"},{"bike_id":"469f2a72-012c-48a8-afc5-929e999ec7f8","system_id":"levelo_inurba_marseille","lat":43.27892,"lon":5.37991,"is_reserved":false,"is_disabled":false,"rental_uris":{"android":"levelo://app?vid=469f2a72-012c-48a8-afc5-929e999ec7f8","ios":"levelo://app?vid=469f2a72-012c-48a8-afc5-929e999ec7f8"},"vehicle_type_id":"4","last_reported":1738170508,"current_range_meters":36400,"station_id":"ce4bhf92rcd13ifvqf50","pricing_plan_id":"cebpf4jnsgd1na2vs0mg"},{"bike_id":"3afe2907-14fe-40b0-8ce8-247215ed16c8","system_id":"levelo_inurba_marseille","lat":43.26938,"lon":5.38928,"is_reserved":false,"is_disabled":true,"rental_uris":{"android":"levelo://app?vid=3afe2907-14fe-40b0-8ce8-247215ed16c8","ios":"levelo://app?vid=3afe2907-14fe-40b0-8ce8-247215ed16c8"},"vehicle_type_id":"4","last_reported":1738170508,"current_range_meters":3600,"station_id":"ce4bhhh2rcd13ifvqfl0","pricing_plan_id":"cebpf4jnsgd1na2vs0mg"},{"bike_id":"e8e1f7c6-d773-4c38-bfcc-4a6d773355ce","system_id":"levelo_inurba_marseille","lat":43.229332,"lon":5.353831,"is_reserved":false,"is_disabled":false,"rental_uris":{"android":"levelo://app?vid=e8e1f7c6-d773-4c38-bfcc-4a6d773355ce","ios":"levelo://app?vid=e8e1f7c6-d773-4c38-bfcc-4a6d773355ce"},"vehicle_type_id":"4","last_reported":1738170508,"current_range_meters":38800,"station_id":"cpo3532slgdg3j2ikp40","pricing_plan_id":"cebpf4jnsgd1na2vs0mg"},{"bike_id":"f0ed3e26-8dad-4678-bee9-f6903412b754","system_id":"levelo_inurba_marseille","lat":43.281113,"lon":5.37837,"is_reserved":false,"is_disabled":false,"rental_uris":{"android":"levelo://app?vid=f0ed3e26-8dad-4678-bee9-f6903412b754","ios":"levelo://app?vid=f0ed3e26-8dad-4678-bee9-f6903412b754"},"vehicle_type_id":"4","last_reported":1738170508,"current_range_meters":37600,"station_id":"ce4bha12rcd13ifvqee0","pricing_plan_id":"cebpf4jnsgd1na2vs0mg"},{"bike_id":"118d1b93-b16a-4167-9926-b334a4855b6d","system_id":"levelo_inurba_marseille","lat":43.28576,"lon":5.39511,"is_reserved":false,"is_disabled":false,"rental_uris":{"android":"levelo://app?vid=118d1b93-b16a-4167-9926-b334a4855b6d","ios":"levelo://app?vid=118d1b93-b16a-4167-9926-b334a4855b6d"},"vehicle_type_id":"4","last_reported":1738170508,"current_range_meters":24400,"station_id":"ce4bh292rcd13ifvqdg0","pricing_plan_id":"cebpf4jnsgd1na2vs0mg"},{"bike_id":"b9c67b31-5b70-486d-ab63-ac678ea85199","system_id":"levelo_inurba_marseille","lat":43.26185,"lon":5.37459,"is_reserved":false,"is_disabled":false,"rental_uris":{"android":"levelo://app?vid=b9c67b31-5b70-486d-ab63-ac678ea85199","ios":"levelo://app?vid=b9c67b31-5b70-486d-ab63-ac678ea85199"},"vehicle_type_id":"4","last_reported":1738170508,"current_range_meters":23200,"station_id":"ce4bhgp2rcd13ifvqfc0","pricing_plan_id":"cebpf4jnsgd1na2vs0mg"},{"bike_id":"13da3b75-536b-4260-bc06-acbd5c63dff9","system_id":"levelo_inurba_marseille","lat":43.2318,"lon":5.39992,"is_reserved":false,"is_disabled":false,"rental_uris":{"android":"levelo://app?vid=13da3b75-536b-4260-bc06-acbd5c63dff9","ios":"levelo://app?vid=13da3b75-536b-4260-bc06-acbd5c63dff9"},"vehicle_type_id":"4","last_reported":1738170508,"current_range_meters":31200,"station_id":"ce4bhn12rcd13ifvqgqg","pricing_plan_id":"cebpf4jnsgd1na2vs0mg"},{"bike_id":"d04321c3-3631-4563-bc20-3c030cd79faf","system_id":"levelo_inurba_marseille","lat":43.27174,"lon":5.40994,"is_reserved":false,"is_disabled":false,"rental_uris":{"android":"levelo://app?vid=d04321c3-3631-4563-bc20-3c030cd79faf","ios":"levelo://app?vid=d04321c3-3631-4563-bc20-3c030cd79faf"},"vehicle_type_id":"4","last_reported":1738170508,"current_range_meters":32000,"station_id":"ce4bhl12rcd13ifvqgf0","pricing_plan_id":"cebpf4jnsgd1na2vs0mg"},{"bike_id":"2ca14663-e89e-470f-a13b-8c9ad8cc8b27","system_id":"levelo_inurba_marseille","lat":43.24386,"lon":5.37053,"is_reserved":false,"is_disabled":false,"rental_uris":{"android":"levelo://app?vid=2ca14663-e89e-470f-a13b-8c9ad8cc8b27","ios":"levelo://app?vid=2ca14663-e89e-470f-a13b-8c9ad8cc8b27"},"vehicle_type_id":"4","last_reported":1738170508,"current_range_meters":37600,"station_id":"ce4bhhh2rcd13ifvqfk0","pricing_plan_id":"cebpf4jnsgd1na2vs0mg"},{"bike_id":"e96aadec-f5ef-46c5-90c8-1e50487f40dd","system_id":"levelo_inurba_marseille","lat":43.30132,"lon":5.39868,"is_reserved":false,"is_disabled":false,"rental_uris":{"android":"levelo://app?vid=e96aadec-f5ef-46c5-90c8-1e50487f40dd","ios":"levelo://app?vid=e96aadec-f5ef-46c5-90c8-1e50487f40dd"},"vehicle_type_id":"4","last_reported":1738170508,"current_range_meters":8800,"station_id":"ce4bh0h2rcd13ifvqd40","pricing_plan_id":"cebpf4jnsgd1na2vs0mg"},{"bike_id":"18d9b7d3-9c81-4b0a-a26e-55d43d740588","system_id":"levelo_inurba_marseille","lat":43.28937,"lon":5.36638,"is_reserved":false,"is_disabled":false,"rental_uris":{"android":"levelo://app?vid=18d9b7d3-9c81-4b0a-a26e-55d43d740588","ios":"levelo://app?vid=18d9b7d3-9c81-4b0a-a26e-55d43d740588"},"vehicle_type_id":"4","last_reported":1738170508,"current_range_meters":25600,"station_id":"ce4bhap2rcd13ifvqek0","pricing_plan_id":"cebpf4jnsgd1na2vs0mg"},{"bike_id":"dd195832-ff3f-4763-a260-74003ef7ff4c","system_id":"levelo_inurba_marseille","lat":43.29232,"lon":5.3606,"is_reserved":false,"is_disabled":false,"rental_uris":{"android":"levelo://app?vid=dd195832-ff3f-4763-a260-74003ef7ff4c","ios":"levelo://app?vid=dd195832-ff3f-4763-a260-74003ef7ff4c"},"vehicle_type_id":"4","last_reported":1738170508,"current_range_meters":33200,"station_id":"ce4bhbh2rcd13ifvqeqg","pricing_plan_id":"cebpf4jnsgd1na2vs0mg"},{"bike_id":"90e4f7fe-f8df-48d8-a322-dceedd2c6521","system_id":"levelo_inurba_marseille","lat":43.28718,"lon":5.37384,"is_reserved":false,"is_disabled":false,"rental_uris":{"android":"levelo://app?vid=90e4f7fe-f8df-48d8-a322-dceedd2c6521","ios":"levelo://app?vid=90e4f7fe-f8df-48d8-a322-dceedd2c6521"},"vehicle_type_id":"4","last_reported":1738170508,"current_range_meters":38400,"station_id":"ce4bh3p2rcd13ifvqdq0","pricing_plan_id":"cebpf4jnsgd1na2vs0mg"},{"bike_id":"ee757b3c-1b66-4688-957f-c178b479b260","system_id":"levelo_inurba_marseille","lat":43.28427,"lon":5.39182,"is_reserved":false,"is_disabled":false,"rental_uris":{"android":"levelo://app?vid=ee757b3c-1b66-4688-957f-c178b479b260","ios":"levelo://app?vid=ee757b3c-1b66-4688-957f-c178b479b260"},"vehicle_type_id":"4","last_reported":1738170508,"current_range_meters":30800,"station_id":"ce4bhoh2rcd13ifvqh5g","pricing_plan_id":"cebpf4jnsgd1na2vs0mg"},{"bike_id":"7cbfc840-8be9-451b-83cd-cd2511b7a3d1","system_id":"levelo_inurba_marseille","lat":43.27568,"lon":5.38407,"is_reserved":false,"is_disabled":false,"rental_uris":{"android":"levelo://app?vid=7cbfc840-8be9-451b-83cd-cd2511b7a3d1","ios":"levelo://app?vid=7cbfc840-8be9-451b-83cd-cd2511b7a3d1"},"vehicle_type_id":"4","last_reported":1738170508,"current_range_meters":16000,"station_id":"ce4bhh92rcd13ifvqfi0","pricing_plan_id":"cebpf4jnsgd1na2vs0mg"},{"bike_id":"c1d1ce73-8f8f-42c4-8303-66858ad4f592","system_id":"levelo_inurba_marseille","lat":43.274931,"lon":5.424565,"is_reserved":false,"is_disabled":true,"rental_uris":{"android":"levelo://app?vid=c1d1ce73-8f8f-42c4-8303-66858ad4f592","ios":"levelo://app?vid=c1d1ce73-8f8f-42c4-8303-66858ad4f592"},"vehicle_type_id":"4","last_reported":1738170508,"current_range_meters":27200,"station_id":"ce4bhn92rcd13ifvqgrg","pricing_plan_id":"cebpf4jnsgd1na2vs0mg"},{"bike_id":"71f34f72-d3b7-46a5-9bd4-1fe057b3152f","system_id":"levelo_inurba_marseille","lat":43.22933,"lon":5.35391,"is_reserved":false,"is_disabled":false,"rental_uris":{"android":"levelo://app?vid=71f34f72-d3b7-46a5-9bd4-1fe057b3152f","ios":"levelo://app?vid=71f34f72-d3b7-46a5-9bd4-1fe057b3152f"},"vehicle_type_id":"4","last_reported":1738170508,"current_range_meters":39200,"station_id":"cpo3532slgdg3j2ikp40","pricing_plan_id":"cebpf4jnsgd1na2vs0mg"},{"bike_id":"20029bdd-9f9c-4ff9-86e4-5ba6ed30f46a","system_id":"levelo_inurba_marseille","lat":43.23161,"lon":5.4372,"is_reserved":false,"is_disabled":true,"rental_uris":{"android":"levelo://app?vid=20029bdd-9f9c-4ff9-86e4-5ba6ed30f46a","ios":"levelo://app?vid=20029bdd-9f9c-4ff9-86e4-5ba6ed30f46a"},"vehicle_type_id":"4","last_reported":1738170508,"current_range_meters":0,"station_id":"ce4bhmp2rcd13ifvqgog","pricing_plan_id":"cebpf4jnsgd1na2vs0mg"},{"bike_id":"5171e352-52c4-4c19-9741-3b300343bc7b","system_id":"levelo_inurba_marseille","lat":43.29525,"lon":5.3903,"is_reserved":false,"is_disabled":false,"rental_uris":{"android":"levelo://app?vid=5171e352-52c4-4c19-9741-3b300343bc7b","ios":"levelo://app?vid=5171e352-52c4-4c19-9741-3b300343bc7b"},"vehicle_type_id":"4","last_reported":1738170508,"current_range_meters":38400,"station_id":"ce4bh3p2rcd13ifvqdp0","pricing_plan_id":"cebpf4jnsgd1na2vs0mg"},{"bike_id":"ecf6e76f-5faa-4cd6-aaac-ee69b01d2a2c","system_id":"levelo_inurba_marseille","lat":43.26191,"lon":5.37467,"is_reserved":false,"is_disabled":false,"rental_uris":{"android":"levelo://app?vid=ecf6e76f-5faa-4cd6-aaac-ee69b01d2a2c","ios":"levelo://app?vid=ecf6e76f-5faa-4cd6-aaac-ee69b01d2a2c"},"vehicle_type_id":"4","last_reported":1738170508,"current_range_meters":38800,"station_id":"ce4bhgp2rcd13ifvqfc0","pricing_plan_id":"cebpf4jnsgd1na2vs0mg"},{"bike_id":"46f1f77e-98b6-4ba2-a396-1e36c4b255d1","system_id":"levelo_inurba_marseille","lat":43.28112,"lon":5.3783,"is_reserved":false,"is_disabled":false,"rental_uris":{"android":"levelo://app?vid=46f1f77e-98b6-4ba2-a396-1e36c4b255d1","ios":"levelo://app?vid=46f1f77e-98b6-4ba2-a396-1e36c4b255d1"},"vehicle_type_id":"4","last_reported":1738170508,"current_range_meters":18000,"station_id":"ce4bha12rcd13ifvqee0","pricing_plan_id":"cebpf4jnsgd1na2vs0mg"},{"bike_id":"58eb6d43-a65f-4cf9-b3d0-d3c85bb963eb","system_id":"levelo_inurba_marseille","lat":43.28103,"lon":5.37839,"is_reserved":false,"is_disabled":false,"rental_uris":{"android":"levelo://app?vid=58eb6d43-a65f-4cf9-b3d0-d3c85bb963eb","ios":"levelo://app?vid=58eb6d43-a65f-4cf9-b3d0-d3c85bb963eb"},"vehicle_type_id":"4","last_reported":1738170508,"current_range_meters":18800,"station_id":"ce4bha12rcd13ifvqee0","pricing_plan_id":"cebpf4jnsgd1na2vs0mg"},{"bike_id":"67010c49-4067-40f8-abbe-e9abaf8588d1","system_id":"levelo_inurba_marseille","lat":43.26029,"lon":5.37549,"is_reserved":false,"is_disabled":false,"rental_uris":{"android":"levelo://app?vid=67010c49-4067-40f8-abbe-e9abaf8588d1","ios":"levelo://app?vid=67010c49-4067-40f8-abbe-e9abaf8588d1"},"vehicle_type_id":"4","last_reported":1738170508,"current_range_meters":39200,"station_id":"ce4bhgh2rcd13ifvqfa0","pricing_plan_id":"cebpf4jnsgd1na2vs0mg"},{"bike_id":"bee89fe1-75de-4aa4-8834-a29197d70af2","system_id":"levelo_inurba_marseille","lat":43.28919,"lon":5.39231,"is_reserved":false,"is_disabled":false,"rental_uris":{"android":"levelo://app?vid=bee89fe1-75de-4aa4-8834-a29197d70af2","ios":"levelo://app?vid=bee89fe1-75de-4aa4-8834-a29197d70af2"},"vehicle_type_id":"4","last_reported":1738170508,"current_range_meters":16000,"station_id":"","pricing_plan_id":"cebpf4jnsgd1na2vs0mg"},{"bike_id":"2ec84c22-8666-467b-b9ab-b38e4ac8ff9f","system_id":"levelo_inurba_marseille","lat":43.29898,"lon":5.43663,"is_reserved":false,"is_disabled":true,"rental_uris":{"android":"levelo://app?vid=2ec84c22-8666-467b-b9ab-b38e4ac8ff9f","ios":"levelo://app?vid=2ec84c22-8666-467b-b9ab-b38e4ac8ff9f"},"vehicle_type_id":"4","last_reported":1738170508,"current_range_meters":32800,"station_id":"ce4bhpp2rcd13ifvqhfg","pricing_plan_id":"cebpf4jnsgd1na2vs0mg"},{"bike_id":"6168012a-0aa5-4e91-a32c-2e506aac2f21","system_id":"levelo_inurba_marseille","lat":43.28417,"lon":5.37508,"is_reserved":false,"is_disabled":false,"rental_uris":{"android":"levelo://app?vid=6168012a-0aa5-4e91-a32c-2e506aac2f21","ios":"levelo://app?vid=6168012a-0aa5-4e91-a32c-2e506aac2f21"},"vehicle_type_id":"4","last_reported":1738170508,"current_range_meters":9600,"station_id":"ce4bh412rcd13ifvqds0","pricing_plan_id":"cebpf4jnsgd1na2vs0mg"},{"bike_id":"9ea78203-8f98-4ce9-a46f-06802a5df390","system_id":"levelo_inurba_marseille","lat":43.23179,"lon":5.39984,"is_reserved":false,"is_disabled":false,"rental_uris":{"android":"levelo://app?vid=9ea78203-8f98-4ce9-a46f-06802a5df390","ios":"levelo://app?vid=9ea78203-8f98-4ce9-a46f-06802a5df390"},"vehicle_type_id":"4","last_reported":1738170508,"current_range_meters":12000,"station_id":"ce4bhn12rcd13ifvqgqg","pricing_plan_id":"cebpf4jnsgd1na2vs0mg"},{"bike_id":"a9eaae4d-3875-4425-8362-4de13abed7b5","system_id":"levelo_inurba_marseille","lat":43.24655,"lon":5.38879,"is_reserved":false,"is_disabled":false,"rental_uris":{"android":"levelo://app?vid=a9eaae4d-3875-4425-8362-4de13abed7b5","ios":"levelo://app?vid=a9eaae4d-3875-4425-8362-4de13abed7b5"},"vehicle_type_id":"4","last_reported":1738170508,"current_range_meters":36400,"station_id":"ce4bhg12rcd13ifvqf60","pricing_plan_id":"cebpf4jnsgd1na2vs0mg"},{"bike_id":"296acca2-a355-4830-bc97-a6939a85f573","system_id":"levelo_inurba_marseille","lat":43.25592,"lon":5.38229,"is_reserved":false,"is_disabled":false,"rental_uris":{"android":"levelo://app?vid=296acca2-a355-4830-bc97-a6939a85f573","ios":"levelo://app?vid=296acca2-a355-4830-bc97-a6939a85f573"},"vehicle_type_id":"4","last_reported":1738170508,"current_range_meters":23200,"station_id":"ce4bhih2rcd13ifvqfs0","pricing_plan_id":"cebpf4jnsgd1na2vs0mg"},{"bike_id":"89173a0f-95d8-48c0-90bb-d27d4518452d","system_id":"levelo_inurba_marseille","lat":43.29513,"lon":5.39043,"is_reserved":false,"is_disabled":false,"rental_uris":{"android":"levelo://app?vid=89173a0f-95d8-48c0-90bb-d27d4518452d","ios":"levelo://app?vid=89173a0f-95d8-48c0-90bb-d27d4518452d"},"vehicle_type_id":"4","last_reported":1738170508,"current_range_meters":38800,"station_id":"ce4bh3p2rcd13ifvqdp0","pricing_plan_id":"cebpf4jnsgd1na2vs0mg"},{"bike_id":"13a87548-5b5f-4b7f-b8a6-a138896356bf","system_id":"levelo_inurba_marseille","lat":43.31528,"lon":5.38026,"is_reserved":false,"is_disabled":false,"rental_uris":{"android":"levelo://app?vid=13a87548-5b5f-4b7f-b8a6-a138896356bf","ios":"levelo://app?vid=13a87548-5b5f-4b7f-b8a6-a138896356bf"},"vehicle_type_id":"4","last_reported":1738170508,"current_range_meters":12000,"station_id":"ce4bhsp2rcd13ifvqi50","pricing_plan_id":"cebpf4jnsgd1na2vs0mg"},{"bike_id":"0002070e-3794-4cb5-9dfa-5e512fa72331","system_id":"levelo_inurba_marseille","lat":43.27923,"lon":5.39583,"is_reserved":false,"is_disabled":true,"rental_uris":{"android":"levelo://app?vid=0002070e-3794-4cb5-9dfa-5e512fa72331","ios":"levelo://app?vid=0002070e-3794-4cb5-9dfa-5e512fa72331"},"vehicle_type_id":"4","last_reported":1738170508,"current_range_meters":0,"station_id":"ce4bhf92rcd13ifvqf40","pricing_plan_id":"cebpf4jnsgd1na2vs0mg"},{"bike_id":"1e72bf70-f1e2-4d23-890a-cffd77e2e51b","system_id":"levelo_inurba_marseille","lat":43.27915,"lon":5.39579,"is_reserved":false,"is_disabled":false,"rental_uris":{"android":"levelo://app?vid=1e72bf70-f1e2-4d23-890a-cffd77e2e51b","ios":"levelo://app?vid=1e72bf70-f1e2-4d23-890a-cffd77e2e51b"},"vehicle_type_id":"4","last_reported":1738170508,"current_range_meters":22000,"station_id":"ce4bhf92rcd13ifvqf40","pricing_plan_id":"cebpf4jnsgd1na2vs0mg"},{"bike_id":"89b04d62-af5f-4dc0-9e50-a2f69beb51a8","system_id":"levelo_inurba_marseille","lat":43.30142,"lon":5.39862,"is_reserved":false,"is_disabled":false,"rental_uris":{"android":"levelo://app?vid=89b04d62-af5f-4dc0-9e50-a2f69beb51a8","ios":"levelo://app?vid=89b04d62-af5f-4dc0-9e50-a2f69beb51a8"},"vehicle_type_id":"4","last_reported":1738170508,"current_range_meters":38400,"station_id":"ce4bh0h2rcd13ifvqd40","pricing_plan_id":"cebpf4jnsgd1na2vs0mg"},{"bike_id":"11234ddd-d2e5-453c-b8fe-87ad8236788c","system_id":"levelo_inurba_marseille","lat":43.251282,"lon":5.375405,"is_reserved":false,"is_disabled":false,"rental_uris":{"android":"levelo://app?vid=11234ddd-d2e5-453c-b8fe-87ad8236788c","ios":"levelo://app?vid=11234ddd-d2e5-453c-b8fe-87ad8236788c"},"vehicle_type_id":"4","last_reported":1738170508,"current_range_meters":9200,"station_id":"ce4bhgh2rcd13ifvqfb0","pricing_plan_id":"cebpf4jnsgd1na2vs0mg"},{"bike_id":"35a5c402-13ca-468f-8a93-76197813b571","system_id":"levelo_inurba_marseille","lat":43.25934,"lon":5.40913,"is_reserved":false,"is_disabled":true,"rental_uris":{"android":"levelo://app?vid=35a5c402-13ca-468f-8a93-76197813b571","ios":"levelo://app?vid=35a5c402-13ca-468f-8a93-76197813b571"},"vehicle_type_id":"4","last_reported":1738170508,"current_range_meters":1200,"station_id":"ce4bhm92rcd13ifvqglg","pricing_plan_id":"cebpf4jnsgd1na2vs0mg"},{"bike_id":"b25ecd20-6597-4932-9038-93bb6ac07c3d","system_id":"levelo_inurba_marseille","lat":43.29195,"lon":5.35815,"is_reserved":false,"is_disabled":false,"rental_uris":{"android":"levelo://app?vid=b25ecd20-6597-4932-9038-93bb6ac07c3d","ios":"levelo://app?vid=b25ecd20-6597-4932-9038-93bb6ac07c3d"},"vehicle_type_id":"4","last_reported":1738170508,"current_range_meters":31200,"station_id":"ce4bhb12rcd13ifvqel0","pricing_plan_id":"cebpf4jnsgd1na2vs0mg"},{"bike_id":"e3c5a10e-948d-477c-91ce-8c835a7fe362","system_id":"levelo_inurba_marseille","lat":43.28071,"lon":5.39651,"is_reserved":false,"is_disabled":true,"rental_uris":{"android":"levelo://app?vid=e3c5a10e-948d-477c-91ce-8c835a7fe362","ios":"levelo://app?vid=e3c5a10e-948d-477c-91ce-8c835a7fe362"},"vehicle_type_id":"4","last_reported":1738170508,"current_range_meters":0,"station_id":"ce4bho12rcd13ifvqh2g","pricing_plan_id":"cebpf4jnsgd1na2vs0mg"},{"bike_id":"f9d35a32-65b2-4842-bd83-8cbe10324274","system_id":"levelo_inurba_marseille","lat":43.28612,"lon":5.35101,"is_reserved":false,"is_disabled":false,"rental_uris":{"android":"levelo://app?vid=f9d35a32-65b2-4842-bd83-8cbe10324274","ios":"levelo://app?vid=f9d35a32-65b2-4842-bd83-8cbe10324274"},"vehicle_type_id":"4","last_reported":1738170508,"current_range_meters":22400,"station_id":"ce4bhch2rcd13ifvqeug","pricing_plan_id":"cebpf4jnsgd1na2vs0mg"},{"bike_id":"734c1759-6970-4f27-952b-4b9b3c2afe16","system_id":"levelo_inurba_marseille","lat":43.26953,"lon":5.38633,"is_reserved":false,"is_disabled":false,"rental_uris":{"android":"levelo://app?vid=734c1759-6970-4f27-952b-4b9b3c2afe16","ios":"levelo://app?vid=734c1759-6970-4f27-952b-4b9b3c2afe16"},"vehicle_type_id":"4","last_reported":1738170508,"current_range_meters":6800,"station_id":"ce4bhh92rcd13ifvqfh0","pricing_plan_id":"cebpf4jnsgd1na2vs0mg"},{"bike_id":"79e99809-e2d5-467c-aa72-b4d7c9afae9f","system_id":"levelo_inurba_marseille","lat":43.28077,"lon":5.39664,"is_reserved":false,"is_disabled":false,"rental_uris":{"android":"levelo://app?vid=79e99809-e2d5-467c-aa72-b4d7c9afae9f","ios":"levelo://app?vid=79e99809-e2d5-467c-aa72-b4d7c9afae9f"},"vehicle_type_id":"4","last_reported":1738170508,"current_range_meters":31200,"station_id":"ce4bho12rcd13ifvqh2g","pricing_plan_id":"cebpf4jnsgd1na2vs0mg"},{"bike_id":"1e7882da-a016-4654-9a16-4361fd531dc2","system_id":"levelo_inurba_marseille","lat":43.27189,"lon":5.40996,"is_reserved":false,"is_disabled":false,"rental_uris":{"android":"levelo://app?vid=1e7882da-a016-4654-9a16-4361fd531dc2","ios":"levelo://app?vid=1e7882da-a016-4654-9a16-4361fd531dc2"},"vehicle_type_id":"4","last_reported":1738170508,"current_range_meters":23200,"station_id":"ce4bhl12rcd13ifvqgf0","pricing_plan_id":"cebpf4jnsgd1na2vs0mg"},{"bike_id":"cee12bdc-4e1f-4f55-ade6-819cc4947d1a","system_id":"levelo_inurba_marseille","lat":43.29976,"lon":5.371674,"is_reserved":false,"is_disabled":false,"rental_uris":{"android":"levelo://app?vid=cee12bdc-4e1f-4f55-ade6-819cc4947d1a","ios":"levelo://app?vid=cee12bdc-4e1f-4f55-ade6-819cc4947d1a"},"vehicle_type_id":"4","last_reported":1738170508,"current_range_meters":38000,"station_id":"ce4bgr92rcd13ifvqc7g","pricing_plan_id":"cebpf4jnsgd1na2vs0mg"},{"bike_id":"0528a8e0-bc90-4885-82ff-1f025b1bce6b","system_id":"levelo_inurba_marseille","lat":43.30269,"lon":5.40061,"is_reserved":false,"is_disabled":false,"rental_uris":{"android":"levelo://app?vid=0528a8e0-bc90-4885-82ff-1f025b1bce6b","ios":"levelo://app?vid=0528a8e0-bc90-4885-82ff-1f025b1bce6b"},"vehicle_type_id":"4","last_reported":1738170508,"current_range_meters":31200,"station_id":"ce4bgvh2rcd13ifvqcs0","pricing_plan_id":"cebpf4jnsgd1na2vs0mg"},{"bike_id":"89d3bc6d-4810-499a-b8bf-76661e044337","system_id":"levelo_inurba_marseille","lat":43.28939,"lon":5.36646,"is_reserved":false,"is_disabled":false,"rental_uris":{"android":"levelo://app?vid=89d3bc6d-4810-499a-b8bf-76661e044337","ios":"levelo://app?vid=89d3bc6d-4810-499a-b8bf-76661e044337"},"vehicle_type_id":"4","last_reported":1738170508,"current_range_meters":30400,"station_id":"ce4bhap2rcd13ifvqek0","pricing_plan_id":"cebpf4jnsgd1na2vs0mg"},{"bike_id":"2cee5789-c7c6-49a6-9a8a-3084956c1b16","system_id":"levelo_inurba_marseille","lat":43.28941,"lon":5.36645,"is_reserved":false,"is_disabled":false,"rental_uris":{"android":"levelo://app?vid=2cee5789-c7c6-49a6-9a8a-3084956c1b16","ios":"levelo://app?vid=2cee5789-c7c6-49a6-9a8a-3084956c1b16"},"vehicle_type_id":"4","last_reported":1738170508,"current_range_meters":24400,"station_id":"ce4bhap2rcd13ifvqek0","pricing_plan_id":"cebpf4jnsgd1na2vs0mg"},{"bike_id":"3ad10b32-c1b1-4c7a-9f3c-30dcc350bc0c","system_id":"levelo_inurba_marseille","lat":43.27958,"lon":5.41042,"is_reserved":false,"is_disabled":false,"rental_uris":{"android":"levelo://app?vid=3ad10b32-c1b1-4c7a-9f3c-30dcc350bc0c","ios":"levelo://app?vid=3ad10b32-c1b1-4c7a-9f3c-30dcc350bc0c"},"vehicle_type_id":"4","last_reported":1738170508,"current_range_meters":10800,"station_id":"ce4bhnp2rcd13ifvqh0g","pricing_plan_id":"cebpf4jnsgd1na2vs0mg"},{"bike_id":"908fb01a-e43a-4d47-ab10-c023fb7ca441","system_id":"levelo_inurba_marseille","lat":43.27997,"lon":5.40003,"is_reserved":false,"is_disabled":false,"rental_uris":{"android":"levelo://app?vid=908fb01a-e43a-4d47-ab10-c023fb7ca441","ios":"levelo://app?vid=908fb01a-e43a-4d47-ab10-c023fb7ca441"},"vehicle_type_id":"4","last_reported":1738170508,"current_range_meters":25600,"station_id":"ce4bho92rcd13ifvqh4g","pricing_plan_id":"cebpf4jnsgd1na2vs0mg"},{"bike_id":"8382186f-0d25-40e6-beca-2632cc8590f2","system_id":"levelo_inurba_marseille","lat":43.29554,"lon":5.42297,"is_reserved":false,"is_disabled":true,"rental_uris":{"android":"levelo://app?vid=8382186f-0d25-40e6-beca-2632cc8590f2","ios":"levelo://app?vid=8382186f-0d25-40e6-beca-2632cc8590f2"},"vehicle_type_id":"4","last_reported":1738170508,"current_range_meters":12000,"station_id":"ce4bhph2rcd13ifvqhdg","pricing_plan_id":"cebpf4jnsgd1na2vs0mg"},{"bike_id":"3bc30e29-a2db-484c-81fa-e28d5a9e79f5","system_id":"levelo_inurba_marseille","lat":43.2989,"lon":5.38902,"is_reserved":false,"is_disabled":false,"rental_uris":{"android":"levelo://app?vid=3bc30e29-a2db-484c-81fa-e28d5a9e79f5","ios":"levelo://app?vid=3bc30e29-a2db-484c-81fa-e28d5a9e79f5"},"vehicle_type_id":"4","last_reported":1738170508,"current_range_meters":22400,"station_id":"ce4bh392rcd13ifvqdl0","pricing_plan_id":"cebpf4jnsgd1na2vs0mg"},{"bike_id":"70f0c963-8c36-418f-a110-4edb8ff73131","system_id":"levelo_inurba_marseille","lat":43.29515,"lon":5.39384,"is_reserved":false,"is_disabled":true,"rental_uris":{"android":"levelo://app?vid=70f0c963-8c36-418f-a110-4edb8ff73131","ios":"levelo://app?vid=70f0c963-8c36-418f-a110-4edb8ff73131"},"vehicle_type_id":"4","last_reported":1738170508,"current_range_meters":36800,"station_id":"ce4bh292rcd13ifvqdf0","pricing_plan_id":"cebpf4jnsgd1na2vs0mg"},{"bike_id":"b6a6b106-c0a9-4afa-ad24-a5822ef23f96","system_id":"levelo_inurba_marseille","lat":43.2827,"lon":5.35083,"is_reserved":false,"is_disabled":false,"rental_uris":{"android":"levelo://app?vid=b6a6b106-c0a9-4afa-ad24-a5822ef23f96","ios":"levelo://app?vid=b6a6b106-c0a9-4afa-ad24-a5822ef23f96"},"vehicle_type_id":"4","last_reported":1738170508,"current_range_meters":38800,"station_id":"ce4bhbp2rcd13ifvqerg","pricing_plan_id":"cebpf4jnsgd1na2vs0mg"},{"bike_id":"436a3df5-b33f-4049-a0f7-d4be6d43ee82","system_id":"levelo_inurba_marseille","lat":43.28042,"lon":5.36956,"is_reserved":false,"is_disabled":false,"rental_uris":{"android":"levelo://app?vid=436a3df5-b33f-4049-a0f7-d4be6d43ee82","ios":"levelo://app?vid=436a3df5-b33f-4049-a0f7-d4be6d43ee82"},"vehicle_type_id":"4","last_reported":1738170508,"current_range_meters":12400,"station_id":"ce4bha12rcd13ifvqef0","pricing_plan_id":"cebpf4jnsgd1na2vs0mg"},{"bike_id":"ab02933c-5cd6-4ae1-9e72-b1f026ecedc0","system_id":"levelo_inurba_marseille","lat":43.2696,"lon":5.38642,"is_reserved":false,"is_disabled":false,"rental_uris":{"android":"levelo://app?vid=ab02933c-5cd6-4ae1-9e72-b1f026ecedc0","ios":"levelo://app?vid=ab02933c-5cd6-4ae1-9e72-b1f026ecedc0"},"vehicle_type_id":"4","last_reported":1738170508,"current_range_meters":5600,"station_id":"ce4bhh92rcd13ifvqfh0","pricing_plan_id":"cebpf4jnsgd1na2vs0mg"},{"bike_id":"4e25d392-4200-41fa-9bdc-7fd393881cbd","system_id":"levelo_inurba_marseille","lat":43.28408,"lon":5.37506,"is_reserved":false,"is_disabled":false,"rental_uris":{"android":"levelo://app?vid=4e25d392-4200-41fa-9bdc-7fd393881cbd","ios":"levelo://app?vid=4e25d392-4200-41fa-9bdc-7fd393881cbd"},"vehicle_type_id":"4","last_reported":1738170508,"current_range_meters":9600,"station_id":"ce4bh412rcd13ifvqds0","pricing_plan_id":"cebpf4jnsgd1na2vs0mg"},{"bike_id":"732e0f21-9776-437d-9e9c-e54f5beff5db","system_id":"levelo_inurba_marseille","lat":43.28004,"lon":5.4002,"is_reserved":false,"is_disabled":false,"rental_uris":{"android":"levelo://app?vid=732e0f21-9776-437d-9e9c-e54f5beff5db","ios":"levelo://app?vid=732e0f21-9776-437d-9e9c-e54f5beff5db"},"vehicle_type_id":"4","last_reported":1738170508,"current_range_meters":11600,"station_id":"ce4bho92rcd13ifvqh4g","pricing_plan_id":"cebpf4jnsgd1na2vs0mg"},{"bike_id":"f41a1e34-accd-406d-829e-29c2eebefd57","system_id":"levelo_inurba_marseille","lat":43.27665,"lon":5.38918,"is_reserved":false,"is_disabled":false,"rental_uris":{"android":"levelo://app?vid=f41a1e34-accd-406d-829e-29c2eebefd57","ios":"levelo://app?vid=f41a1e34-accd-406d-829e-29c2eebefd57"},"vehicle_type_id":"4","last_reported":1738170508,"current_range_meters":22800,"station_id":"ce4bhi12rcd13ifvqfo0","pricing_plan_id":"cebpf4jnsgd1na2vs0mg"},{"bike_id":"8b19f642-e16c-49a5-ab46-6c1c5629eaa1","system_id":"levelo_inurba_marseille","lat":43.28408,"lon":5.37512,"is_reserved":false,"is_disabled":true,"rental_uris":{"android":"levelo://app?vid=8b19f642-e16c-49a5-ab46-6c1c5629eaa1","ios":"levelo://app?vid=8b19f642-e16c-49a5-ab46-6c1c5629eaa1"},"vehicle_type_id":"4","last_reported":1738170508,"current_range_meters":0,"station_id":"ce4bh412rcd13ifvqds0","pricing_plan_id":"cebpf4jnsgd1na2vs0mg"},{"bike_id":"e3e26aee-15e1-425c-a48f-db58aa520742","system_id":"levelo_inurba_marseille","lat":43.23071,"lon":5.35499,"is_reserved":false,"is_disabled":false,"rental_uris":{"android":"levelo://app?vid=e3e26aee-15e1-425c-a48f-db58aa520742","ios":"levelo://app?vid=e3e26aee-15e1-425c-a48f-db58aa520742"},"vehicle_type_id":"4","last_reported":1738170508,"current_range_meters":32800,"station_id":"cpo3342slgdg3j2ifvpg","pricing_plan_id":"cebpf4jnsgd1na2vs0mg"},{"bike_id":"0a2fd205-d616-4064-aa75-d4d529957d90","system_id":"levelo_inurba_marseille","lat":43.23061,"lon":5.35494,"is_reserved":false,"is_disabled":false,"rental_uris":{"android":"levelo://app?vid=0a2fd205-d616-4064-aa75-d4d529957d90","ios":"levelo://app?vid=0a2fd205-d616-4064-aa75-d4d529957d90"},"vehicle_type_id":"4","last_reported":1738170508,"current_range_meters":27600,"station_id":"cpo3342slgdg3j2ifvpg","pricing_plan_id":"cebpf4jnsgd1na2vs0mg"},{"bike_id":"61c8f8f1-26d0-4d44-97a7-563a66fd42ee","system_id":"levelo_inurba_marseille","lat":43.29735,"lon":5.37686,"is_reserved":false,"is_disabled":false,"rental_uris":{"android":"levelo://app?vid=61c8f8f1-26d0-4d44-97a7-563a66fd42ee","ios":"levelo://app?vid=61c8f8f1-26d0-4d44-97a7-563a66fd42ee"},"vehicle_type_id":"4","last_reported":1738170508,"current_range_meters":38800,"station_id":"ce4bgkh2rcd13ifvqbl0","pricing_plan_id":"cebpf4jnsgd1na2vs0mg"},{"bike_id":"999b0b1c-2aaf-4617-a2f1-cda4dfce9580","system_id":"levelo_inurba_marseille","lat":43.29257,"lon":5.40913,"is_reserved":false,"is_disabled":false,"rental_uris":{"android":"levelo://app?vid=999b0b1c-2aaf-4617-a2f1-cda4dfce9580","ios":"levelo://app?vid=999b0b1c-2aaf-4617-a2f1-cda4dfce9580"},"vehicle_type_id":"4","last_reported":1738170508,"current_range_meters":38400,"station_id":"ce4bh192rcd13ifvqdc0","pricing_plan_id":"cebpf4jnsgd1na2vs0mg"},{"bike_id":"a02e7897-f701-4298-b4bd-75a438821c2f","system_id":"levelo_inurba_marseille","lat":43.3303,"lon":5.39049,"is_reserved":false,"is_disabled":false,"rental_uris":{"android":"levelo://app?vid=a02e7897-f701-4298-b4bd-75a438821c2f","ios":"levelo://app?vid=a02e7897-f701-4298-b4bd-75a438821c2f"},"vehicle_type_id":"4","last_reported":1738170508,"current_range_meters":28800,"station_id":"ce4bhr92rcd13ifvqhrg","pricing_plan_id":"cebpf4jnsgd1na2vs0mg"},{"bike_id":"7c78a755-c7f5-4f07-a96b-621451d47948","system_id":"levelo_inurba_marseille","lat":43.29895,"lon":5.43661,"is_reserved":false,"is_disabled":false,"rental_uris":{"android":"levelo://app?vid=7c78a755-c7f5-4f07-a96b-621451d47948","ios":"levelo://app?vid=7c78a755-c7f5-4f07-a96b-621451d47948"},"vehicle_type_id":"4","last_reported":1738170508,"current_range_meters":17600,"station_id":"ce4bhpp2rcd13ifvqhfg","pricing_plan_id":"cebpf4jnsgd1na2vs0mg"},{"bike_id":"39b50b68-6608-41ef-91eb-7f4fe9f16a10","system_id":"levelo_inurba_marseille","lat":43.29532,"lon":5.3904,"is_reserved":false,"is_disabled":false,"rental_uris":{"android":"levelo://app?vid=39b50b68-6608-41ef-91eb-7f4fe9f16a10","ios":"levelo://app?vid=39b50b68-6608-41ef-91eb-7f4fe9f16a10"},"vehicle_type_id":"4","last_reported":1738170508,"current_range_meters":19600,"station_id":"ce4bh3p2rcd13ifvqdp0","pricing_plan_id":"cebpf4jnsgd1na2vs0mg"},{"bike_id":"03135703-6a56-4293-958d-f57e43bb9ef9","system_id":"levelo_inurba_marseille","lat":43.29287,"lon":5.37169,"is_reserved":false,"is_disabled":false,"rental_uris":{"android":"levelo://app?vid=03135703-6a56-4293-958d-f57e43bb9ef9","ios":"levelo://app?vid=03135703-6a56-4293-958d-f57e43bb9ef9"},"vehicle_type_id":"4","last_reported":1738170508,"current_range_meters":36400,"station_id":"ce4bgh92rcd13ifvqb40","pricing_plan_id":"cebpf4jnsgd1na2vs0mg"},{"bike_id":"6e939ffe-89fb-412e-845b-951c386438ff","system_id":"levelo_inurba_marseille","lat":43.27937,"lon":5.41035,"is_reserved":false,"is_disabled":false,"rental_uris":{"android":"levelo://app?vid=6e939ffe-89fb-412e-845b-951c386438ff","ios":"levelo://app?vid=6e939ffe-89fb-412e-845b-951c386438ff"},"vehicle_type_id":"4","last_reported":1738170508,"current_range_meters":30800,"station_id":"ce4bhnp2rcd13ifvqh0g","pricing_plan_id":"cebpf4jnsgd1na2vs0mg"},{"bike_id":"803e03d8-7d2e-4feb-ac46-774902d16dee","system_id":"levelo_inurba_marseille","lat":43.33731,"lon":5.37442,"is_reserved":false,"is_disabled":true,"rental_uris":{"android":"levelo://app?vid=803e03d8-7d2e-4feb-ac46-774902d16dee","ios":"levelo://app?vid=803e03d8-7d2e-4feb-ac46-774902d16dee"},"vehicle_type_id":"4","last_reported":1738170508,"current_range_meters":32800,"station_id":"","pricing_plan_id":"cebpf4jnsgd1na2vs0mg"},{"bike_id":"72da52e5-f9d6-4be0-86bb-ad65ebadd0b9","system_id":"levelo_inurba_marseille","lat":43.27195,"lon":5.40977,"is_reserved":false,"is_disabled":false,"rental_uris":{"android":"levelo://app?vid=72da52e5-f9d6-4be0-86bb-ad65ebadd0b9","ios":"levelo://app?vid=72da52e5-f9d6-4be0-86bb-ad65ebadd0b9"},"vehicle_type_id":"4","last_reported":1738170508,"current_range_meters":28000,"station_id":"ce4bhl12rcd13ifvqgf0","pricing_plan_id":"cebpf4jnsgd1na2vs0mg"},{"bike_id":"f31c551d-29fa-475f-bfa9-b35af3cee390","system_id":"levelo_inurba_marseille","lat":43.28105,"lon":5.37832,"is_reserved":false,"is_disabled":false,"rental_uris":{"android":"levelo://app?vid=f31c551d-29fa-475f-bfa9-b35af3cee390","ios":"levelo://app?vid=f31c551d-29fa-475f-bfa9-b35af3cee390"},"vehicle_type_id":"4","last_reported":1738170508,"current_range_meters":33200,"station_id":"ce4bha12rcd13ifvqee0","pricing_plan_id":"cebpf4jnsgd1na2vs0mg"},{"bike_id":"667cbf4b-8c90-4ac3-8c0a-b71356d6ac3d","system_id":"levelo_inurba_marseille","lat":43.24661,"lon":5.38171,"is_reserved":false,"is_disabled":false,"rental_uris":{"android":"levelo://app?vid=667cbf4b-8c90-4ac3-8c0a-b71356d6ac3d","ios":"levelo://app?vid=667cbf4b-8c90-4ac3-8c0a-b71356d6ac3d"},"vehicle_type_id":"4","last_reported":1738170508,"current_range_meters":6000,"station_id":"ce4bhih2rcd13ifvqfr0","pricing_plan_id":"cebpf4jnsgd1na2vs0mg"},{"bike_id":"ffb734b8-7db7-4cb5-b01f-f45e4a8d065c","system_id":"levelo_inurba_marseille","lat":43.28001,"lon":5.40008,"is_reserved":false,"is_disabled":false,"rental_uris":{"android":"levelo://app?vid=ffb734b8-7db7-4cb5-b01f-f45e4a8d065c","ios":"levelo://app?vid=ffb734b8-7db7-4cb5-b01f-f45e4a8d065c"},"vehicle_type_id":"4","last_reported":1738170508,"current_range_meters":4400,"station_id":"ce4bho92rcd13ifvqh4g","pricing_plan_id":"cebpf4jnsgd1na2vs0mg"},{"bike_id":"dbf25fa3-51e4-49b6-bcc1-2a0810f6f06f","system_id":"levelo_inurba_marseille","lat":43.26652,"lon":5.3837,"is_reserved":false,"is_disabled":false,"rental_uris":{"android":"levelo://app?vid=dbf25fa3-51e4-49b6-bcc1-2a0810f6f06f","ios":"levelo://app?vid=dbf25fa3-51e4-49b6-bcc1-2a0810f6f06f"},"vehicle_type_id":"4","last_reported":1738170508,"current_range_meters":38800,"station_id":"ce4bhg92rcd13ifvqf90","pricing_plan_id":"cebpf4jnsgd1na2vs0mg"},{"bike_id":"dd8504be-b7fa-4b6e-b65d-a5c8fed31c73","system_id":"levelo_inurba_marseille","lat":43.3302,"lon":5.390378,"is_reserved":false,"is_disabled":false,"rental_uris":{"android":"levelo://app?vid=dd8504be-b7fa-4b6e-b65d-a5c8fed31c73","ios":"levelo://app?vid=dd8504be-b7fa-4b6e-b65d-a5c8fed31c73"},"vehicle_type_id":"4","last_reported":1738170508,"current_range_meters":34800,"station_id":"ce4bhr92rcd13ifvqhrg","pricing_plan_id":"cebpf4jnsgd1na2vs0mg"},{"bike_id":"5c63cecd-793b-4725-b080-6a9766a63411","system_id":"levelo_inurba_marseille","lat":43.29023,"lon":5.38645,"is_reserved":false,"is_disabled":false,"rental_uris":{"android":"levelo://app?vid=5c63cecd-793b-4725-b080-6a9766a63411","ios":"levelo://app?vid=5c63cecd-793b-4725-b080-6a9766a63411"},"vehicle_type_id":"4","last_reported":1738170508,"current_range_meters":37600,"station_id":"ce4bh4p2rcd13ifvqe0g","pricing_plan_id":"cebpf4jnsgd1na2vs0mg"},{"bike_id":"8ac3b338-1b70-4a81-b620-cba67c74d913","system_id":"levelo_inurba_marseille","lat":43.30894,"lon":5.37185,"is_reserved":false,"is_disabled":false,"rental_uris":{"android":"levelo://app?vid=8ac3b338-1b70-4a81-b620-cba67c74d913","ios":"levelo://app?vid=8ac3b338-1b70-4a81-b620-cba67c74d913"},"vehicle_type_id":"4","last_reported":1738170508,"current_range_meters":35200,"station_id":"ce4bguh2rcd13ifvqckg","pricing_plan_id":"cebpf4jnsgd1na2vs0mg"},{"bike_id":"117f9456-afb9-4fbd-9a4e-ab99ae8c9263","system_id":"levelo_inurba_marseille","lat":43.30791,"lon":5.38157,"is_reserved":false,"is_disabled":false,"rental_uris":{"android":"levelo://app?vid=117f9456-afb9-4fbd-9a4e-ab99ae8c9263","ios":"levelo://app?vid=117f9456-afb9-4fbd-9a4e-ab99ae8c9263"},"vehicle_type_id":"4","last_reported":1738170508,"current_range_meters":17200,"station_id":"ce4bgt12rcd13ifvqce0","pricing_plan_id":"cebpf4jnsgd1na2vs0mg"},{"bike_id":"3cab5ce9-fa36-4f37-a4fd-aa59591df4d1","system_id":"levelo_inurba_marseille","lat":43.28417,"lon":5.3498,"is_reserved":false,"is_disabled":true,"rental_uris":{"android":"levelo://app?vid=3cab5ce9-fa36-4f37-a4fd-aa59591df4d1","ios":"levelo://app?vid=3cab5ce9-fa36-4f37-a4fd-aa59591df4d1"},"vehicle_type_id":"4","last_reported":1738170508,"current_range_meters":29600,"station_id":"ce4bhbh2rcd13ifvqepg","pricing_plan_id":"cebpf4jnsgd1na2vs0mg"},{"bike_id":"85af6c92-372c-4cd2-84da-c4ec61fa470d","system_id":"levelo_inurba_marseille","lat":43.25696,"lon":5.4112,"is_reserved":false,"is_disabled":true,"rental_uris":{"android":"levelo://app?vid=85af6c92-372c-4cd2-84da-c4ec61fa470d","ios":"levelo://app?vid=85af6c92-372c-4cd2-84da-c4ec61fa470d"},"vehicle_type_id":"4","last_reported":1738170508,"current_range_meters":36000,"station_id":"ce4bhkp2rcd13ifvqgd0","pricing_plan_id":"cebpf4jnsgd1na2vs0mg"},{"bike_id":"911d971a-0124-498e-bf11-e1e6c7698135","system_id":"levelo_inurba_marseille","lat":43.29203,"lon":5.35792,"is_reserved":false,"is_disabled":false,"rental_uris":{"android":"levelo://app?vid=911d971a-0124-498e-bf11-e1e6c7698135","ios":"levelo://app?vid=911d971a-0124-498e-bf11-e1e6c7698135"},"vehicle_type_id":"4","last_reported":1738170508,"current_range_meters":30000,"station_id":"ce4bhb12rcd13ifvqel0","pricing_plan_id":"cebpf4jnsgd1na2vs0mg"},{"bike_id":"d3faf502-e441-48d3-a6e4-f2f9f38746ca","system_id":"levelo_inurba_marseille","lat":43.29027,"lon":5.38647,"is_reserved":false,"is_disabled":false,"rental_uris":{"android":"levelo://app?vid=d3faf502-e441-48d3-a6e4-f2f9f38746ca","ios":"levelo://app?vid=d3faf502-e441-48d3-a6e4-f2f9f38746ca"},"vehicle_type_id":"4","last_reported":1738170508,"current_range_meters":14400,"station_id":"ce4bh4p2rcd13ifvqe0g","pricing_plan_id":"cebpf4jnsgd1na2vs0mg"},{"bike_id":"00b17125-f7c1-4bec-b7aa-cb03fbebb28d","system_id":"levelo_inurba_marseille","lat":43.29419,"lon":5.38555,"is_reserved":false,"is_disabled":false,"rental_uris":{"android":"levelo://app?vid=00b17125-f7c1-4bec-b7aa-cb03fbebb28d","ios":"levelo://app?vid=00b17125-f7c1-4bec-b7aa-cb03fbebb28d"},"vehicle_type_id":"4","last_reported":1738170508,"current_range_meters":22800,"station_id":"ce4bgih2rcd13ifvqba0","pricing_plan_id":"cebpf4jnsgd1na2vs0mg"},{"bike_id":"0d3f46ad-475b-45ab-bba3-a9b43b092108","system_id":"levelo_inurba_marseille","lat":43.27615,"lon":5.3611,"is_reserved":false,"is_disabled":false,"rental_uris":{"android":"levelo://app?vid=0d3f46ad-475b-45ab-bba3-a9b43b092108","ios":"levelo://app?vid=0d3f46ad-475b-45ab-bba3-a9b43b092108"},"vehicle_type_id":"4","last_reported":1738170508,"current_range_meters":38800,"station_id":"ce4bgj92rcd13ifvqbe0","pricing_plan_id":"cebpf4jnsgd1na2vs0mg"},{"bike_id":"51c3a29b-c194-48f3-9f84-db0e5d6dde50","system_id":"levelo_inurba_marseille","lat":43.2804,"lon":5.36943,"is_reserved":false,"is_disabled":false,"rental_uris":{"android":"levelo://app?vid=51c3a29b-c194-48f3-9f84-db0e5d6dde50","ios":"levelo://app?vid=51c3a29b-c194-48f3-9f84-db0e5d6dde50"},"vehicle_type_id":"4","last_reported":1738170508,"current_range_meters":39200,"station_id":"ce4bha12rcd13ifvqef0","pricing_plan_id":"cebpf4jnsgd1na2vs0mg"},{"bike_id":"9b8fb88b-11f7-42ff-8cbf-06b8768c6862","system_id":"levelo_inurba_marseille","lat":43.29784,"lon":5.37107,"is_reserved":false,"is_disabled":false,"rental_uris":{"android":"levelo://app?vid=9b8fb88b-11f7-42ff-8cbf-06b8768c6862","ios":"levelo://app?vid=9b8fb88b-11f7-42ff-8cbf-06b8768c6862"},"vehicle_type_id":"4","last_reported":1738170508,"current_range_meters":3200,"station_id":"ce4bgop2rcd13ifvqc1g","pricing_plan_id":"cebpf4jnsgd1na2vs0mg"},{"bike_id":"3d98c6ce-e80d-46e8-b577-648cd8c28632","system_id":"levelo_inurba_marseille","lat":43.34699,"lon":5.34741,"is_reserved":false,"is_disabled":true,"rental_uris":{"android":"levelo://app?vid=3d98c6ce-e80d-46e8-b577-648cd8c28632","ios":"levelo://app?vid=3d98c6ce-e80d-46e8-b577-648cd8c28632"},"vehicle_type_id":"4","last_reported":1738170508,"current_range_meters":0,"station_id":"","pricing_plan_id":"cebpf4jnsgd1na2vs0mg"},{"bike_id":"af3e09bb-09af-4e64-bd2b-a45aa094d272","system_id":"levelo_inurba_marseille","lat":43.25494,"lon":5.37655,"is_reserved":false,"is_disabled":false,"rental_uris":{"android":"levelo://app?vid=af3e09bb-09af-4e64-bd2b-a45aa094d272","ios":"levelo://app?vid=af3e09bb-09af-4e64-bd2b-a45aa094d272"},"vehicle_type_id":"4","last_reported":1738170508,"current_range_meters":38000,"station_id":"ce4bhh12rcd13ifvqff0","pricing_plan_id":"cebpf4jnsgd1na2vs0mg"},{"bike_id":"7313dec2-5949-49e8-85f7-d76938192ea4","system_id":"levelo_inurba_marseille","lat":43.29906,"lon":5.37472,"is_reserved":false,"is_disabled":false,"rental_uris":{"android":"levelo://app?vid=7313dec2-5949-49e8-85f7-d76938192ea4","ios":"levelo://app?vid=7313dec2-5949-49e8-85f7-d76938192ea4"},"vehicle_type_id":"4","last_reported":1738170508,"current_range_meters":18000,"station_id":"ce4bgjh2rcd13ifvqbg0","pricing_plan_id":"cebpf4jnsgd1na2vs0mg"},{"bike_id":"f1c59e12-3aa8-43c6-9ec3-afe08f7421c5","system_id":"levelo_inurba_marseille","lat":43.2657,"lon":5.39012,"is_reserved":false,"is_disabled":false,"rental_uris":{"android":"levelo://app?vid=f1c59e12-3aa8-43c6-9ec3-afe08f7421c5","ios":"levelo://app?vid=f1c59e12-3aa8-43c6-9ec3-afe08f7421c5"},"vehicle_type_id":"4","last_reported":1738170508,"current_range_meters":38000,"station_id":"ce4bhe12rcd13ifvqf30","pricing_plan_id":"cebpf4jnsgd1na2vs0mg"},{"bike_id":"4cb57573-19b8-44b0-b556-66b13f757585","system_id":"levelo_inurba_marseille","lat":43.2862,"lon":5.3511,"is_reserved":false,"is_disabled":false,"rental_uris":{"android":"levelo://app?vid=4cb57573-19b8-44b0-b556-66b13f757585","ios":"levelo://app?vid=4cb57573-19b8-44b0-b556-66b13f757585"},"vehicle_type_id":"4","last_reported":1738170508,"current_range_meters":36800,"station_id":"ce4bhch2rcd13ifvqeug","pricing_plan_id":"cebpf4jnsgd1na2vs0mg"},{"bike_id":"4bd4c6a0-1bec-414e-b2de-aa68efd4272f","system_id":"levelo_inurba_marseille","lat":43.23191,"lon":5.35554,"is_reserved":false,"is_disabled":false,"rental_uris":{"android":"levelo://app?vid=4bd4c6a0-1bec-414e-b2de-aa68efd4272f","ios":"levelo://app?vid=4bd4c6a0-1bec-414e-b2de-aa68efd4272f"},"vehicle_type_id":"4","last_reported":1738170508,"current_range_meters":32400,"station_id":"ce4bhu92rcd13ifvqi70","pricing_plan_id":"cebpf4jnsgd1na2vs0mg"},{"bike_id":"11311801-7b96-4f90-86ff-d6e1c97da4a5","system_id":"levelo_inurba_marseille","lat":43.303,"lon":5.39223,"is_reserved":false,"is_disabled":false,"rental_uris":{"android":"levelo://app?vid=11311801-7b96-4f90-86ff-d6e1c97da4a5","ios":"levelo://app?vid=11311801-7b96-4f90-86ff-d6e1c97da4a5"},"vehicle_type_id":"4","last_reported":1738170508,"current_range_meters":27600,"station_id":"ce4bgkh2rcd13ifvqbk0","pricing_plan_id":"cebpf4jnsgd1na2vs0mg"},{"bike_id":"1cc72904-73db-4690-8d8d-9db3a2e22526","system_id":"levelo_inurba_marseille","lat":43.31093,"lon":5.42463,"is_reserved":false,"is_disabled":false,"rental_uris":{"android":"levelo://app?vid=1cc72904-73db-4690-8d8d-9db3a2e22526","ios":"levelo://app?vid=1cc72904-73db-4690-8d8d-9db3a2e22526"},"vehicle_type_id":"4","last_reported":1738170508,"current_range_meters":37600,"station_id":"ce4bhp92rcd13ifvqhag","pricing_plan_id":"cebpf4jnsgd1na2vs0mg"},{"bike_id":"4ba7a956-b2d2-4c49-a7e7-66b484f64d09","system_id":"levelo_inurba_marseille","lat":43.28945,"lon":5.36407,"is_reserved":false,"is_disabled":false,"rental_uris":{"android":"levelo://app?vid=4ba7a956-b2d2-4c49-a7e7-66b484f64d09","ios":"levelo://app?vid=4ba7a956-b2d2-4c49-a7e7-66b484f64d09"},"vehicle_type_id":"4","last_reported":1738170508,"current_range_meters":7200,"station_id":"ce4bhc92rcd13ifvqetg","pricing_plan_id":"cebpf4jnsgd1na2vs0mg"},{"bike_id":"0e98f950-ac1a-4c44-a2d4-ea3cb1af2f8d","system_id":"levelo_inurba_marseille","lat":43.26198,"lon":5.37466,"is_reserved":false,"is_disabled":false,"rental_uris":{"android":"levelo://app?vid=0e98f950-ac1a-4c44-a2d4-ea3cb1af2f8d","ios":"levelo://app?vid=0e98f950-ac1a-4c44-a2d4-ea3cb1af2f8d"},"vehicle_type_id":"4","last_reported":1738170508,"current_range_meters":38400,"station_id":"ce4bhgp2rcd13ifvqfc0","pricing_plan_id":"cebpf4jnsgd1na2vs0mg"},{"bike_id":"7819426f-3454-485d-8683-987d783b6cb1","system_id":"levelo_inurba_marseille","lat":43.30252,"lon":5.40085,"is_reserved":false,"is_disabled":false,"rental_uris":{"android":"levelo://app?vid=7819426f-3454-485d-8683-987d783b6cb1","ios":"levelo://app?vid=7819426f-3454-485d-8683-987d783b6cb1"},"vehicle_type_id":"4","last_reported":1738170508,"current_range_meters":38800,"station_id":"ce4bgvh2rcd13ifvqcs0","pricing_plan_id":"cebpf4jnsgd1na2vs0mg"},{"bike_id":"9e64d5cd-1a11-4ef6-9c8c-efdc21139dc8","system_id":"levelo_inurba_marseille","lat":43.31885,"lon":5.40739,"is_reserved":false,"is_disabled":false,"rental_uris":{"android":"levelo://app?vid=9e64d5cd-1a11-4ef6-9c8c-efdc21139dc8","ios":"levelo://app?vid=9e64d5cd-1a11-4ef6-9c8c-efdc21139dc8"},"vehicle_type_id":"4","last_reported":1738170508,"current_range_meters":28400,"station_id":"ce4bhq12rcd13ifvqhig","pricing_plan_id":"cebpf4jnsgd1na2vs0mg"},{"bike_id":"4b87ad4f-2032-4fdf-b7ec-dce70703fcf1","system_id":"levelo_inurba_marseille","lat":43.28675,"lon":5.38661,"is_reserved":false,"is_disabled":false,"rental_uris":{"android":"levelo://app?vid=4b87ad4f-2032-4fdf-b7ec-dce70703fcf1","ios":"levelo://app?vid=4b87ad4f-2032-4fdf-b7ec-dce70703fcf1"},"vehicle_type_id":"4","last_reported":1738170508,"current_range_meters":14000,"station_id":"ce4bh492rcd13ifvqdug","pricing_plan_id":"cebpf4jnsgd1na2vs0mg"},{"bike_id":"2ca19cb5-cb06-4260-b3cb-7f07f04bf081","system_id":"levelo_inurba_marseille","lat":43.29263,"lon":5.40906,"is_reserved":false,"is_disabled":false,"rental_uris":{"android":"levelo://app?vid=2ca19cb5-cb06-4260-b3cb-7f07f04bf081","ios":"levelo://app?vid=2ca19cb5-cb06-4260-b3cb-7f07f04bf081"},"vehicle_type_id":"4","last_reported":1738170508,"current_range_meters":36000,"station_id":"ce4bh192rcd13ifvqdc0","pricing_plan_id":"cebpf4jnsgd1na2vs0mg"},{"bike_id":"c000ef97-6cbe-4ca0-869e-e045f7952fdb","system_id":"levelo_inurba_marseille","lat":43.279382,"lon":5.410344,"is_reserved":false,"is_disabled":false,"rental_uris":{"android":"levelo://app?vid=c000ef97-6cbe-4ca0-869e-e045f7952fdb","ios":"levelo://app?vid=c000ef97-6cbe-4ca0-869e-e045f7952fdb"},"vehicle_type_id":"4","last_reported":1738170508,"current_range_meters":8000,"station_id":"ce4bhnp2rcd13ifvqh0g","pricing_plan_id":"cebpf4jnsgd1na2vs0mg"},{"bike_id":"a190b74c-a68c-4f2c-bf93-c824060b68dc","system_id":"levelo_inurba_marseille","lat":43.31079,"lon":5.4244,"is_reserved":false,"is_disabled":false,"rental_uris":{"android":"levelo://app?vid=a190b74c-a68c-4f2c-bf93-c824060b68dc","ios":"levelo://app?vid=a190b74c-a68c-4f2c-bf93-c824060b68dc"},"vehicle_type_id":"4","last_reported":1738170508,"current_range_meters":19200,"station_id":"ce4bhp92rcd13ifvqhag","pricing_plan_id":"cebpf4jnsgd1na2vs0mg"},{"bike_id":"4008c5d4-accb-4981-8933-9e85f4cde128","system_id":"levelo_inurba_marseille","lat":43.2319,"lon":5.3556,"is_reserved":false,"is_disabled":false,"rental_uris":{"android":"levelo://app?vid=4008c5d4-accb-4981-8933-9e85f4cde128","ios":"levelo://app?vid=4008c5d4-accb-4981-8933-9e85f4cde128"},"vehicle_type_id":"4","last_reported":1738170508,"current_range_meters":38800,"station_id":"ce4bhu92rcd13ifvqi70","pricing_plan_id":"cebpf4jnsgd1na2vs0mg"},{"bike_id":"7e2a8852-e12e-4ba8-ad9d-79a94d73d16b","system_id":"levelo_inurba_marseille","lat":43.29853,"lon":5.36276,"is_reserved":false,"is_disabled":false,"rental_uris":{"android":"levelo://app?vid=7e2a8852-e12e-4ba8-ad9d-79a94d73d16b","ios":"levelo://app?vid=7e2a8852-e12e-4ba8-ad9d-79a94d73d16b"},"vehicle_type_id":"4","last_reported":1738170508,"current_range_meters":39200,"station_id":"ce4bgpp2rcd13ifvqc3g","pricing_plan_id":"cebpf4jnsgd1na2vs0mg"},{"bike_id":"0f4be29a-a56f-4442-bda5-7c6c96935d19","system_id":"levelo_inurba_marseille","lat":43.2903,"lon":5.37528,"is_reserved":false,"is_disabled":true,"rental_uris":{"android":"levelo://app?vid=0f4be29a-a56f-4442-bda5-7c6c96935d19","ios":"levelo://app?vid=0f4be29a-a56f-4442-bda5-7c6c96935d19"},"vehicle_type_id":"4","last_reported":1738170508,"current_range_meters":22800,"station_id":"ce4bh692rcd13ifvqe90","pricing_plan_id":"cebpf4jnsgd1na2vs0mg"},{"bike_id":"b35a3a9d-9039-4058-9299-00a1e7ec526d","system_id":"levelo_inurba_marseille","lat":43.30535,"lon":5.36548,"is_reserved":false,"is_disabled":false,"rental_uris":{"android":"levelo://app?vid=b35a3a9d-9039-4058-9299-00a1e7ec526d","ios":"levelo://app?vid=b35a3a9d-9039-4058-9299-00a1e7ec526d"},"vehicle_type_id":"4","last_reported":1738170508,"current_range_meters":38400,"station_id":"ce4bgs12rcd13ifvqcag","pricing_plan_id":"cebpf4jnsgd1na2vs0mg"},{"bike_id":"3ce86b8a-94a8-4940-8335-0e6f5dadaa22","system_id":"levelo_inurba_marseille","lat":43.26928,"lon":5.38912,"is_reserved":false,"is_disabled":false,"rental_uris":{"android":"levelo://app?vid=3ce86b8a-94a8-4940-8335-0e6f5dadaa22","ios":"levelo://app?vid=3ce86b8a-94a8-4940-8335-0e6f5dadaa22"},"vehicle_type_id":"4","last_reported":1738170508,"current_range_meters":30000,"station_id":"ce4bhhh2rcd13ifvqfl0","pricing_plan_id":"cebpf4jnsgd1na2vs0mg"},{"bike_id":"a00ba4d0-8ef2-4580-b284-03bedf171795","system_id":"levelo_inurba_marseille","lat":43.296858,"lon":5.36604,"is_reserved":false,"is_disabled":false,"rental_uris":{"android":"levelo://app?vid=a00ba4d0-8ef2-4580-b284-03bedf171795","ios":"levelo://app?vid=a00ba4d0-8ef2-4580-b284-03bedf171795"},"vehicle_type_id":"4","last_reported":1738170508,"current_range_meters":38800,"station_id":"ce4bgn12rcd13ifvqbt0","pricing_plan_id":"cebpf4jnsgd1na2vs0mg"},{"bike_id":"79995485-5bca-4225-969f-fb2062896406","system_id":"levelo_inurba_marseille","lat":43.27916,"lon":5.39581,"is_reserved":false,"is_disabled":false,"rental_uris":{"android":"levelo://app?vid=79995485-5bca-4225-969f-fb2062896406","ios":"levelo://app?vid=79995485-5bca-4225-969f-fb2062896406"},"vehicle_type_id":"4","last_reported":1738170508,"current_range_meters":24800,"station_id":"ce4bhf92rcd13ifvqf40","pricing_plan_id":"cebpf4jnsgd1na2vs0mg"},{"bike_id":"b4de0ab9-7e49-42b6-9196-d68d8f89669a","system_id":"levelo_inurba_marseille","lat":43.25114,"lon":5.40334,"is_reserved":false,"is_disabled":false,"rental_uris":{"android":"levelo://app?vid=b4de0ab9-7e49-42b6-9196-d68d8f89669a","ios":"levelo://app?vid=b4de0ab9-7e49-42b6-9196-d68d8f89669a"},"vehicle_type_id":"4","last_reported":1738170508,"current_range_meters":16800,"station_id":"ce4bhlh2rcd13ifvqgig","pricing_plan_id":"cebpf4jnsgd1na2vs0mg"},{"bike_id":"c9f6d9f8-2570-45c3-aa55-71f7ddd24ebd","system_id":"levelo_inurba_marseille","lat":43.25775,"lon":5.39442,"is_reserved":false,"is_disabled":false,"rental_uris":{"android":"levelo://app?vid=c9f6d9f8-2570-45c3-aa55-71f7ddd24ebd","ios":"levelo://app?vid=c9f6d9f8-2570-45c3-aa55-71f7ddd24ebd"},"vehicle_type_id":"4","last_reported":1738170508,"current_range_meters":11600,"station_id":"ce4bhn12rcd13ifvqgqg","pricing_plan_id":"cebpf4jnsgd1na2vs0mg"},{"bike_id":"6e9401a2-3f77-410b-9222-01b76ab6d8d8","system_id":"levelo_inurba_marseille","lat":43.29166,"lon":5.37154,"is_reserved":false,"is_disabled":false,"rental_uris":{"android":"levelo://app?vid=6e9401a2-3f77-410b-9222-01b76ab6d8d8","ios":"levelo://app?vid=6e9401a2-3f77-410b-9222-01b76ab6d8d8"},"vehicle_type_id":"4","last_reported":1738170508,"current_range_meters":38400,"station_id":"ce4bha92rcd13ifvqeh0","pricing_plan_id":"cebpf4jnsgd1na2vs0mg"},{"bike_id":"b8aaad74-d8ee-44c8-a6ec-50ab1e220cb9","system_id":"levelo_inurba_marseille","lat":43.30661,"lon":5.36845,"is_reserved":false,"is_disabled":false,"rental_uris":{"android":"levelo://app?vid=b8aaad74-d8ee-44c8-a6ec-50ab1e220cb9","ios":"levelo://app?vid=b8aaad74-d8ee-44c8-a6ec-50ab1e220cb9"},"vehicle_type_id":"4","last_reported":1738170508,"current_range_meters":36400,"station_id":"","pricing_plan_id":"cebpf4jnsgd1na2vs0mg"},{"bike_id":"0149f8c0-d241-405c-9d52-3d839e80a0f6","system_id":"levelo_inurba_marseille","lat":43.29221,"lon":5.36046,"is_reserved":false,"is_disabled":true,"rental_uris":{"android":"levelo://app?vid=0149f8c0-d241-405c-9d52-3d839e80a0f6","ios":"levelo://app?vid=0149f8c0-d241-405c-9d52-3d839e80a0f6"},"vehicle_type_id":"4","last_reported":1738170508,"current_range_meters":0,"station_id":"ce4bhbh2rcd13ifvqeqg","pricing_plan_id":"cebpf4jnsgd1na2vs0mg"},{"bike_id":"3f4dff0b-e66d-45e1-b635-b8c3a301efb3","system_id":"levelo_inurba_marseille","lat":43.30326,"lon":5.40437,"is_reserved":false,"is_disabled":false,"rental_uris":{"android":"levelo://app?vid=3f4dff0b-e66d-45e1-b635-b8c3a301efb3","ios":"levelo://app?vid=3f4dff0b-e66d-45e1-b635-b8c3a301efb3"},"vehicle_type_id":"4","last_reported":1738170508,"current_range_meters":24000,"station_id":"ce4bh012rcd13ifvqd10","pricing_plan_id":"cebpf4jnsgd1na2vs0mg"},{"bike_id":"26b39368-5d98-4cb3-910a-49f1019f8413","system_id":"levelo_inurba_marseille","lat":43.293002,"lon":5.371545,"is_reserved":false,"is_disabled":false,"rental_uris":{"android":"levelo://app?vid=26b39368-5d98-4cb3-910a-49f1019f8413","ios":"levelo://app?vid=26b39368-5d98-4cb3-910a-49f1019f8413"},"vehicle_type_id":"4","last_reported":1738170508,"current_range_meters":37600,"station_id":"","pricing_plan_id":"cebpf4jnsgd1na2vs0mg"},{"bike_id":"3fee8afb-f8f3-49eb-938c-1004961a292d","system_id":"levelo_inurba_marseille","lat":43.29994,"lon":5.38484,"is_reserved":false,"is_disabled":true,"rental_uris":{"android":"levelo://app?vid=3fee8afb-f8f3-49eb-938c-1004961a292d","ios":"levelo://app?vid=3fee8afb-f8f3-49eb-938c-1004961a292d"},"vehicle_type_id":"4","last_reported":1738170508,"current_range_meters":18000,"station_id":"ce4bgj92rcd13ifvqbd0","pricing_plan_id":"cebpf4jnsgd1na2vs0mg"},{"bike_id":"c88a8972-a497-41be-b9ed-a94d05e055eb","system_id":"levelo_inurba_marseille","lat":43.29531,"lon":5.39391,"is_reserved":false,"is_disabled":false,"rental_uris":{"android":"levelo://app?vid=c88a8972-a497-41be-b9ed-a94d05e055eb","ios":"levelo://app?vid=c88a8972-a497-41be-b9ed-a94d05e055eb"},"vehicle_type_id":"4","last_reported":1738170508,"current_range_meters":39200,"station_id":"ce4bh292rcd13ifvqdf0","pricing_plan_id":"cebpf4jnsgd1na2vs0mg"},{"bike_id":"536eca9d-7342-4be3-a146-01b7a91d7af7","system_id":"levelo_inurba_marseille","lat":43.27183,"lon":5.4099,"is_reserved":false,"is_disabled":false,"rental_uris":{"android":"levelo://app?vid=536eca9d-7342-4be3-a146-01b7a91d7af7","ios":"levelo://app?vid=536eca9d-7342-4be3-a146-01b7a91d7af7"},"vehicle_type_id":"4","last_reported":1738170508,"current_range_meters":8000,"station_id":"ce4bhl12rcd13ifvqgf0","pricing_plan_id":"cebpf4jnsgd1na2vs0mg"},{"bike_id":"529d9e10-ef47-413c-816b-504bd70c41a0","system_id":"levelo_inurba_marseille","lat":43.27069,"lon":5.42276,"is_reserved":false,"is_disabled":false,"rental_uris":{"android":"levelo://app?vid=529d9e10-ef47-413c-816b-504bd70c41a0","ios":"levelo://app?vid=529d9e10-ef47-413c-816b-504bd70c41a0"},"vehicle_type_id":"4","last_reported":1738170508,"current_range_meters":30800,"station_id":"ce4bhk92rcd13ifvqgb0","pricing_plan_id":"cebpf4jnsgd1na2vs0mg"},{"bike_id":"62610229-b40c-4cb5-a0be-84aab8a7beee","system_id":"levelo_inurba_marseille","lat":43.28644,"lon":5.38685,"is_reserved":false,"is_disabled":false,"rental_uris":{"android":"levelo://app?vid=62610229-b40c-4cb5-a0be-84aab8a7beee","ios":"levelo://app?vid=62610229-b40c-4cb5-a0be-84aab8a7beee"},"vehicle_type_id":"4","last_reported":1738170508,"current_range_meters":27600,"station_id":"ce4bh492rcd13ifvqdug","pricing_plan_id":"cebpf4jnsgd1na2vs0mg"},{"bike_id":"f636a8d5-1432-42a7-8a69-2ff336064423","system_id":"levelo_inurba_marseille","lat":43.28345,"lon":5.38107,"is_reserved":false,"is_disabled":false,"rental_uris":{"android":"levelo://app?vid=f636a8d5-1432-42a7-8a69-2ff336064423","ios":"levelo://app?vid=f636a8d5-1432-42a7-8a69-2ff336064423"},"vehicle_type_id":"4","last_reported":1738170508,"current_range_meters":20000,"station_id":"ce4bh412rcd13ifvqdr0","pricing_plan_id":"cebpf4jnsgd1na2vs0mg"},{"bike_id":"04afa210-3e19-45ec-af29-85d18fa9d1ba","system_id":"levelo_inurba_marseille","lat":43.28076,"lon":5.39659,"is_reserved":false,"is_disabled":false,"rental_uris":{"android":"levelo://app?vid=04afa210-3e19-45ec-af29-85d18fa9d1ba","ios":"levelo://app?vid=04afa210-3e19-45ec-af29-85d18fa9d1ba"},"vehicle_type_id":"4","last_reported":1738170508,"current_range_meters":36800,"station_id":"ce4bho12rcd13ifvqh2g","pricing_plan_id":"cebpf4jnsgd1na2vs0mg"},