{"last_updated":1751901009,"ttl":60,"version":"2.2","data":{"bikes":[{"bike_id":"3da29fb8-fc97-44c6-b9ac-31dd456b2fd4","system_id":"levelo_inurba_marseille","lat":43.33771,"lon":5.37424,"is_reserved":false,"is_disabled":true,"rental_uris":{"android":"levelo://app?vid=3da29fb8-fc97-44c6-b9ac-31dd456b2fd4","ios":"levelo://app?vid=3da29fb8-fc97-44c6-b9ac-31dd456b2fd4"},"vehicle_type_id":"4","last_reported":1751901009,"current_range_meters":0,"station_id":"","pricing_plan_id":"cebpf4jnsgd1na2vs0mg"},{"bike_id":"01861ad8-a8d7-4be6-816e-651927c87584","system_id":"levelo_inurba_marseille","lat":43.33751,"lon":5.37456,"is_reserved":false,"is_disabled":true,"rental_uris":{"android":"levelo://app?vid=01861ad8-a8d7-4be6-816e-651927c87584","ios":"levelo://app?vid=01861ad8-a8d7-4be6-816e-651927c87584"},"vehicle_type_id":"4","last_reported":1751901009,"current_range_meters":0,"station_id":"","pricing_plan_id":"cebpf4jnsgd1na2vs0mg"},{"bike_id":"95c194a9-5cae-4867-bc56-f8781828dc70","system_id":"levelo_inurba_marseille","lat":43.337444,"lon":5.374475,"is_reserved":false,"is_disabled":true,"rental_uris":{"android":"levelo://app?vid=95c194a9-5cae-4867-bc56-f8781828dc70","ios":"levelo://app?vid=95c194a9-5cae-4867-bc56-f8781828dc70"},"vehicle_type_id":"4","last_reported":1751901009,"current_range_meters":0,"station_id":"","pricing_plan_id":"cebpf4jnsgd1na2vs0mg"},{"bike_id":"8b8deb88-cb03-4b78-badc-62d3207432c0","system_id":"levelo_inurba_marseille","lat":43.240006,"lon":5.366455,"is_reserved":false,"is_disabled":true,"rental_uris":{"android":"levelo://app?vid=8b8deb88-cb03-4b78-badc-62d3207432c0","ios":"levelo://app?vid=8b8deb88-cb03-4b78-badc-62d3207432c0"},"vehicle_type_id":"4","last_reported":1751901009,"current_range_meters":0,"station_id":"","pricing_plan_id":"cebpf4jnsgd1na2vs0mg"},{"bike_id":"4578829c-b88a-415b-baf2-3122ffb9ef86","system_id":"levelo_inurba_marseille","lat":43.29376,"lon":5.37854,"is_reserved":false,"is_disabled":true,"rental_uris":{"android":"levelo://app?vid=4578829c-b88a-415b-baf2-3122ffb9ef86","ios":"levelo://app?vid=4578829c-b88a-415b-baf2-3122ffb9ef86"},"vehicle_type_id":"4","last_reported":1751901009,"current_range_meters":0,"station_id":"ce4bgjh2rcd13ifvqbf0","pricing_plan_id":"cebpf4jnsgd1na2vs0mg"},{"bike_id":"5f71c619-fd4a-4c5b-bdee-a753bf911c65","system_id":"levelo_inurba_marseille","lat":43.30192,"lon":5.36604,"is_reserved":false,"is_disabled":true,"rental_uris":{"android":"levelo://app?vid=5f71c619-fd4a-4c5b-bdee-a753bf911c65","ios":"levelo://app?vid=5f71c619-fd4a-4c5b-bdee-a753bf911c65"},"vehicle_type_id":"4","last_reported":1751901009,"current_range_meters":0,"station_id":"ce4bgrh2rcd13ifvqc8g","pricing_plan_id":"cebpf4jnsgd1na2vs0mg"},{"bike_id":"b00bf1e6-e9b1-4857-bcff-51458c22b143","system_id":"levelo_inurba_marseille","lat":43.28411,"lon":5.37501,"is_reserved":false,"is_disabled":true,"rental_uris":{"android":"levelo://app?vid=b00bf1e6-e9b1-4857-bcff-51458c22b143","ios":"levelo://app?vid=b00bf1e6-e9b1-4857-bcff-51458c22b143"},"vehicle_type_id":"4","last_reported":1751901009,"current_range_meters":0,"station_id":"ce4bh412rcd13ifvqds0","pricing_plan_id":"cebpf4jnsgd1na2vs0mg"},{"bike_id":"fc11f1e3-fd7d-492a-8c42-2fb8faf16c6a","system_id":"levelo_inurba_marseille","lat":43.30378,"lon":5.42467,"is_reserved":false,"is_disabled":true,"rental_uris":{"android":"levelo://app?vid=fc11f1e3-fd7d-492a-8c42-2fb8faf16c6a","ios":"levelo://app?vid=fc11f1e3-fd7d-492a-8c42-2fb8faf16c6a"},"vehicle_type_id":"4","last_reported":1751901009,"current_range_meters":0,"station_id":"ce4bhoh2rcd13ifvqh6g","pricing_plan_id":"cebpf4jnsgd1na2vs0mg"},{"bike_id":"b4b7eb6f-5d24-4d35-87d8-f90bab30d04c","system_id":"levelo_inurba_marseille","lat":43.32284,"lon":5.38297,"is_reserved":false,"is_disabled":true,"rental_uris":{"android":"levelo://app?vid=b4b7eb6f-5d24-4d35-87d8-f90bab30d04c","ios":"levelo://app?vid=b4b7eb6f-5d24-4d35-87d8-f90bab30d04c"},"vehicle_type_id":"4","last_reported":1751901009,"current_range_meters":0,"station_id":"ce4bhr12rcd13ifvqhqg","pricing_plan_id":"cebpf4jnsgd1na2vs0mg"},{"bike_id":"3d508917-55ee-42b6-894b-89c2a444dc06","system_id":"levelo_inurba_marseille","lat":43.22524,"lon":5.34762,"is_reserved":false,"is_disabled":true,"rental_uris":{"android":"levelo://app?vid=3d508917-55ee-42b6-894b-89c2a444dc06","ios":"levelo://app?vid=3d508917-55ee-42b6-894b-89c2a444dc06"},"vehicle_type_id":"4","last_reported":1751901009,"current_range_meters":0,"station_id":"st_cvj5dfep6f1abm77gieg","pricing_plan_id":"cebpf4jnsgd1na2vs0mg"},{"bike_id":"e86ba8c9-208d-482c-a826-4c100938472a","system_id":"levelo_inurba_marseille","lat":43.211896,"lon":5.350719,"is_reserved":false,"is_disabled":true,"rental_uris":{"android":"levelo://app?vid=e86ba8c9-208d-482c-a826-4c100938472a","ios":"levelo://app?vid=e86ba8c9-208d-482c-a826-4c100938472a"},"vehicle_type_id":"4","last_reported":1751901009,"current_range_meters":0,"station_id":"st_cvj6sg6p6f1abm77japg","pricing_plan_id":"cebpf4jnsgd1na2vs0mg"},{"bike_id":"93bce5b5-d39e-472e-81e3-fe83a741efc8","system_id":"levelo_inurba_marseille","lat":43.29307,"lon":5.37177,"is_reserved":false,"is_disabled":true,"rental_uris":{"android":"levelo://app?vid=93bce5b5-d39e-472e-81e3-fe83a741efc8","ios":"levelo://app?vid=93bce5b5-d39e-472e-81e3-fe83a741efc8"},"vehicle_type_id":"4","last_reported":1751901009,"current_range_meters":400,"station_id":"ce4bgh92rcd13ifvqb40","pricing_plan_id":"cebpf4jnsgd1na2vs0mg"},{"bike_id":"8e0aa5e0-3c23-4654-98a2-6e1b12d69702","system_id":"levelo_inurba_marseille","lat":43.29537,"lon":5.38535,"is_reserved":false,"is_disabled":true,"rental_uris":{"android":"levelo://app?vid=8e0aa5e0-3c23-4654-98a2-6e1b12d69702","ios":"levelo://app?vid=8e0aa5e0-3c23-4654-98a2-6e1b12d69702"},"vehicle_type_id":"4","last_reported":1751901009,"current_range_meters":400,"station_id":"ce4bgih2rcd13ifvqba0","pricing_plan_id":"cebpf4jnsgd1na2vs0mg"},{"bike_id":"0d984181-3891-41be-a781-fcd31a0d1323","system_id":"levelo_inurba_marseille","lat":43.3026,"lon":5.40083,"is_reserved":false,"is_disabled":true,"rental_uris":{"android":"levelo://app?vid=0d984181-3891-41be-a781-fcd31a0d1323","ios":"levelo://app?vid=0d984181-3891-41be-a781-fcd31a0d1323"},"vehicle_type_id":"4","last_reported":1751901009,"current_range_meters":400,"station_id":"ce4bgvh2rcd13ifvqcs0","pricing_plan_id":"cebpf4jnsgd1na2vs0mg"},{"bike_id":"f0a19a9e-f150-4c1e-bcc6-db3195370cac","system_id":"levelo_inurba_marseille","lat":43.327,"lon":5.43137,"is_reserved":false,"is_disabled":true,"rental_uris":{"android":"levelo://app?vid=f0a19a9e-f150-4c1e-bcc6-db3195370cac","ios":"levelo://app?vid=f0a19a9e-f150-4c1e-bcc6-db3195370cac"},"vehicle_type_id":"4","last_reported":1751901009,"current_range_meters":800,"station_id":"","pricing_plan_id":"cebpf4jnsgd1na2vs0mg"},{"bike_id":"a19bedc0-d173-423f-8a36-686eb2450542","system_id":"levelo_inurba_marseille","lat":43.31106,"lon":5.39338,"is_reserved":false,"is_disabled":true,"rental_uris":{"android":"levelo://app?vid=a19bedc0-d173-423f-8a36-686eb2450542","ios":"levelo://app?vid=a19bedc0-d173-423f-8a36-686eb2450542"},"vehicle_type_id":"4","last_reported":1751901009,"current_range_meters":800,"station_id":"","pricing_plan_id":"cebpf4jnsgd1na2vs0mg"},{"bike_id":"3cb3c224-2f0d-46bd-938e-564e1c4f48ff","system_id":"levelo_inurba_marseille","lat":43.30931,"lon":5.40146,"is_reserved":false,"is_disabled":true,"rental_uris":{"android":"levelo://app?vid=3cb3c224-2f0d-46bd-938e-564e1c4f48ff","ios":"levelo://app?vid=3cb3c224-2f0d-46bd-938e-564e1c4f48ff"},"vehicle_type_id":"4","last_reported":1751901009,"current_range_meters":1600,"station_id":"ce4bgvp2rcd13ifvqct0","pricing_plan_id":"cebpf4jnsgd1na2vs0mg"},{"bike_id":"e1267214-a2b4-401f-8759-633df83440de","system_id":"levelo_inurba_marseille","lat":43.28698,"lon":5.37382,"is_reserved":false,"is_disabled":true,"rental_uris":{"android":"levelo://app?vid=e1267214-a2b4-401f-8759-633df83440de","ios":"levelo://app?vid=e1267214-a2b4-401f-8759-633df83440de"},"vehicle_type_id":"4","last_reported":1751901009,"current_range_meters":1600,"station_id":"ce4bh3p2rcd13ifvqdq0","pricing_plan_id":"cebpf4jnsgd1na2vs0mg"},{"bike_id":"248242c0-2688-4f61-9aff-c52dbac81da7","system_id":"levelo_inurba_marseille","lat":43.258623,"lon":5.398945,"is_reserved":false,"is_disabled":true,"rental_uris":{"android":"levelo://app?vid=248242c0-2688-4f61-9aff-c52dbac81da7","ios":"levelo://app?vid=248242c0-2688-4f61-9aff-c52dbac81da7"},"vehicle_type_id":"4","last_reported":1751901009,"current_range_meters":1600,"station_id":"ce4bhl92rcd13ifvqghg","pricing_plan_id":"cebpf4jnsgd1na2vs0mg"},{"bike_id":"9ebdb16c-f2e9-42d0-b38a-ed19d39d883d","system_id":"levelo_inurba_marseille","lat":43.3014,"lon":5.39876,"is_reserved":false,"is_disabled":true,"rental_uris":{"android":"levelo://app?vid=9ebdb16c-f2e9-42d0-b38a-ed19d39d883d","ios":"levelo://app?vid=9ebdb16c-f2e9-42d0-b38a-ed19d39d883d"},"vehicle_type_id":"4","last_reported":1751901009,"current_range_meters":2000,"station_id":"ce4bh0h2rcd13ifvqd40","pricing_plan_id":"cebpf4jnsgd1na2vs0mg"},{"bike_id":"3ce6a50b-17f3-4662-a33c-37ae99343c7b","system_id":"levelo_inurba_marseille","lat":43.28478,"lon":5.38421,"is_reserved":false,"is_disabled":true,"rental_uris":{"android":"levelo://app?vid=3ce6a50b-17f3-4662-a33c-37ae99343c7b","ios":"levelo://app?vid=3ce6a50b-17f3-4662-a33c-37ae99343c7b"},"vehicle_type_id":"4","last_reported":1751901009,"current_range_meters":2000,"station_id":"ce4bh512rcd13ifvqe3g","pricing_plan_id":"cebpf4jnsgd1na2vs0mg"},{"bike_id":"c59a14be-2b34-4d1d-aa45-64218d4b9aed","system_id":"levelo_inurba_marseille","lat":43.32287,"lon":5.38268,"is_reserved":false,"is_disabled":true,"rental_uris":{"android":"levelo://app?vid=c59a14be-2b34-4d1d-aa45-64218d4b9aed","ios":"levelo://app?vid=c59a14be-2b34-4d1d-aa45-64218d4b9aed"},"vehicle_type_id":"4","last_reported":1751901009,"current_range_meters":2000,"station_id":"ce4bhr12rcd13ifvqhqg","pricing_plan_id":"cebpf4jnsgd1na2vs0mg"},{"bike_id":"c32a44ab-b078-4729-9be5-e0735978229d","system_id":"levelo_inurba_marseille","lat":43.21192,"lon":5.35079,"is_reserved":false,"is_disabled":true,"rental_uris":{"android":"levelo://app?vid=c32a44ab-b078-4729-9be5-e0735978229d","ios":"levelo://app?vid=c32a44ab-b078-4729-9be5-e0735978229d"},"vehicle_type_id":"4","last_reported":1751901009,"current_range_meters":2000,"station_id":"st_cvj6sg6p6f1abm77japg","pricing_plan_id":"cebpf4jnsgd1na2vs0mg"},{"bike_id":"1191a6e9-d246-4c7e-abdd-c0a3d0d6895c","system_id":"levelo_inurba_marseille","lat":43.28348,"lon":5.38116,"is_reserved":false,"is_disabled":false,"rental_uris":{"android":"levelo://app?vid=1191a6e9-d246-4c7e-abdd-c0a3d0d6895c","ios":"levelo://app?vid=1191a6e9-d246-4c7e-abdd-c0a3d0d6895c"},"vehicle_type_id":"4","last_reported":1751901009,"current_range_meters":2800,"station_id":"ce4bh412rcd13ifvqdr0","pricing_plan_id":"cebpf4jnsgd1na2vs0mg"},{"bike_id":"9ee818c6-d352-484e-873c-6ba3e6e7ff3f","system_id":"levelo_inurba_marseille","lat":43.28862,"lon":5.35846,"is_reserved":false,"is_disabled":false,"rental_uris":{"android":"levelo://app?vid=9ee818c6-d352-484e-873c-6ba3e6e7ff3f","ios":"levelo://app?vid=9ee818c6-d352-484e-873c-6ba3e6e7ff3f"},"vehicle_type_id":"4","last_reported":1751901009,"current_range_meters":3600,"station_id":"ce4bhb12rcd13ifvqem0","pricing_plan_id":"cebpf4jnsgd1na2vs0mg"},{"bike_id":"37feb3af-b370-467d-957b-63c8efa70350","system_id":"levelo_inurba_marseille","lat":43.24664,"lon":5.38167,"is_reserved":false,"is_disabled":false,"rental_uris":{"android":"levelo://app?vid=37feb3af-b370-467d-957b-63c8efa70350","ios":"levelo://app?vid=37feb3af-b370-467d-957b-63c8efa70350"},"vehicle_type_id":"4","last_reported":1751901009,"current_range_meters":3600,"station_id":"ce4bhih2rcd13ifvqfr0","pricing_plan_id":"cebpf4jnsgd1na2vs0mg"},{"bike_id":"b810229e-78a9-46b7-82df-5529f8930b43","system_id":"levelo_inurba_marseille","lat":43.28716,"lon":5.36109,"is_reserved":false,"is_disabled":false,"rental_uris":{"android":"levelo://app?vid=b810229e-78a9-46b7-82df-5529f8930b43","ios":"levelo://app?vid=b810229e-78a9-46b7-82df-5529f8930b43"},"vehicle_type_id":"4","last_reported":1751901009,"current_range_meters":3600,"station_id":"cki0cbj6b192h4jlfktg","pricing_plan_id":"cebpf4jnsgd1na2vs0mg"},{"bike_id":"744af789-912a-44be-8c22-6fcdf6ed4a2a","system_id":"levelo_inurba_marseille","lat":43.239686,"lon":5.366349,"is_reserved":false,"is_disabled":false,"rental_uris":{"android":"levelo://app?vid=744af789-912a-44be-8c22-6fcdf6ed4a2a","ios":"levelo://app?vid=744af789-912a-44be-8c22-6fcdf6ed4a2a"},"vehicle_type_id":"4","last_reported":1751901009,"current_range_meters":4400,"station_id":"ce4bhi12rcd13ifvqfp0","pricing_plan_id":"cebpf4jnsgd1na2vs0mg"},{"bike_id":"41c59b7d-554a-42cc-8e11-2a9c18678ca9","system_id":"levelo_inurba_marseille","lat":43.27174,"lon":5.40997,"is_reserved":false,"is_disabled":false,"rental_uris":{"android":"levelo://app?vid=41c59b7d-554a-42cc-8e11-2a9c18678ca9","ios":"levelo://app?vid=41c59b7d-554a-42cc-8e11-2a9c18678ca9"},"vehicle_type_id":"4","last_reported":1751901009,"current_range_meters":4400,"station_id":"ce4bhl12rcd13ifvqgf0","pricing_plan_id":"cebpf4jnsgd1na2vs0mg"},{"bike_id":"f0f8eceb-631a-4204-a147-40a2b0878501","system_id":"levelo_inurba_marseille","lat":43.30144,"lon":5.37417,"is_reserved":false,"is_disabled":false,"rental_uris":{"android":"levelo://app?vid=f0f8eceb-631a-4204-a147-40a2b0878501","ios":"levelo://app?vid=f0f8eceb-631a-4204-a147-40a2b0878501"},"vehicle_type_id":"4","last_reported":1751901009,"current_range_meters":4800,"station_id":"ce4bgs92rcd13ifvqcc0","pricing_plan_id":"cebpf4jnsgd1na2vs0mg"},{"bike_id":"0e9fac8a-19f6-49d1-81be-75ca440b1010","system_id":"levelo_inurba_marseille","lat":43.26567,"lon":5.39009,"is_reserved":false,"is_disabled":false,"rental_uris":{"android":"levelo://app?vid=0e9fac8a-19f6-49d1-81be-75ca440b1010","ios":"levelo://app?vid=0e9fac8a-19f6-49d1-81be-75ca440b1010"},"vehicle_type_id":"4","last_reported":1751901009,"current_range_meters":4800,"station_id":"ce4bhe12rcd13ifvqf30","pricing_plan_id":"cebpf4jnsgd1na2vs0mg"},{"bike_id":"86c92dc1-b4da-49d9-acb8-ba390f939865","system_id":"levelo_inurba_marseille","lat":43.3304,"lon":5.39216,"is_reserved":false,"is_disabled":false,"rental_uris":{"android":"levelo://app?vid=86c92dc1-b4da-49d9-acb8-ba390f939865","ios":"levelo://app?vid=86c92dc1-b4da-49d9-acb8-ba390f939865"},"vehicle_type_id":"4","last_reported":1751901009,"current_range_meters":5600,"station_id":"","pricing_plan_id":"cebpf4jnsgd1na2vs0mg"},{"bike_id":"9ac1625b-597e-49c8-b5a6-ce53b2e851d1","system_id":"levelo_inurba_marseille","lat":43.29631,"lon":5.40596,"is_reserved":false,"is_disabled":false,"rental_uris":{"android":"levelo://app?vid=9ac1625b-597e-49c8-b5a6-ce53b2e851d1","ios":"levelo://app?vid=9ac1625b-597e-49c8-b5a6-ce53b2e851d1"},"vehicle_type_id":"4","last_reported":1751901009,"current_range_meters":5600,"station_id":"ce4bh0h2rcd13ifvqd60","pricing_plan_id":"cebpf4jnsgd1na2vs0mg"},{"bike_id":"55ff4a01-70fd-4817-8485-d33cbb88d83c","system_id":"levelo_inurba_marseille","lat":43.30309,"lon":5.39197,"is_reserved":false,"is_disabled":false,"rental_uris":{"android":"levelo://app?vid=55ff4a01-70fd-4817-8485-d33cbb88d83c","ios":"levelo://app?vid=55ff4a01-70fd-4817-8485-d33cbb88d83c"},"vehicle_type_id":"4","last_reported":1751901009,"current_range_meters":6400,"station_id":"ce4bgkh2rcd13ifvqbk0","pricing_plan_id":"cebpf4jnsgd1na2vs0mg"},{"bike_id":"7e1a5d45-995a-4187-a2e8-92e64bf8196e","system_id":"levelo_inurba_marseille","lat":43.28662,"lon":5.38684,"is_reserved":false,"is_disabled":false,"rental_uris":{"android":"levelo://app?vid=7e1a5d45-995a-4187-a2e8-92e64bf8196e","ios":"levelo://app?vid=7e1a5d45-995a-4187-a2e8-92e64bf8196e"},"vehicle_type_id":"4","last_reported":1751901009,"current_range_meters":6400,"station_id":"ce4bh492rcd13ifvqdug","pricing_plan_id":"cebpf4jnsgd1na2vs0mg"},{"bike_id":"0fab0e54-4e50-4390-9ebc-942da49b052e","system_id":"levelo_inurba_marseille","lat":43.26222,"lon":5.40467,"is_reserved":false,"is_disabled":false,"rental_uris":{"android":"levelo://app?vid=0fab0e54-4e50-4390-9ebc-942da49b052e","ios":"levelo://app?vid=0fab0e54-4e50-4390-9ebc-942da49b052e"},"vehicle_type_id":"4","last_reported":1751901009,"current_range_meters":6400,"station_id":"ce4bhmh2rcd13ifvqgmg","pricing_plan_id":"cebpf4jnsgd1na2vs0mg"},{"bike_id":"ed290504-6948-4f69-8584-2e2b0286febf","system_id":"levelo_inurba_marseille","lat":43.21208,"lon":5.35067,"is_reserved":false,"is_disabled":false,"rental_uris":{"android":"levelo://app?vid=ed290504-6948-4f69-8584-2e2b0286febf","ios":"levelo://app?vid=ed290504-6948-4f69-8584-2e2b0286febf"},"vehicle_type_id":"4","last_reported":1751901009,"current_range_meters":6400,"station_id":"st_cvj6sg6p6f1abm77japg","pricing_plan_id":"cebpf4jnsgd1na2vs0mg"},{"bike_id":"853298ee-09b5-482c-b9ad-50536e654d99","system_id":"levelo_inurba_marseille","lat":43.25109,"lon":5.40321,"is_reserved":false,"is_disabled":false,"rental_uris":{"android":"levelo://app?vid=853298ee-09b5-482c-b9ad-50536e654d99","ios":"levelo://app?vid=853298ee-09b5-482c-b9ad-50536e654d99"},"vehicle_type_id":"4","last_reported":1751901009,"current_range_meters":6800,"station_id":"ce4bhlh2rcd13ifvqgig","pricing_plan_id":"cebpf4jnsgd1na2vs0mg"},{"bike_id":"a808b0d2-bfda-4acc-9d2a-31619ccfe593","system_id":"levelo_inurba_marseille","lat":43.29865,"lon":5.39739,"is_reserved":false,"is_disabled":false,"rental_uris":{"android":"levelo://app?vid=a808b0d2-bfda-4acc-9d2a-31619ccfe593","ios":"levelo://app?vid=a808b0d2-bfda-4acc-9d2a-31619ccfe593"},"vehicle_type_id":"4","last_reported":1751901009,"current_range_meters":7200,"station_id":"ce4bh0h2rcd13ifvqd50","pricing_plan_id":"cebpf4jnsgd1na2vs0mg"},{"bike_id":"357468eb-9e69-4e62-a631-8f419fba1ea7","system_id":"levelo_inurba_marseille","lat":43.286135,"lon":5.370682,"is_reserved":false,"is_disabled":false,"rental_uris":{"android":"levelo://app?vid=357468eb-9e69-4e62-a631-8f419fba1ea7","ios":"levelo://app?vid=357468eb-9e69-4e62-a631-8f419fba1ea7"},"vehicle_type_id":"4","last_reported":1751901009,"current_range_meters":7200,"station_id":"ce4bh292rcd13ifvqdf0","pricing_plan_id":"cebpf4jnsgd1na2vs0mg"},{"bike_id":"bb1bf3f7-d113-4257-9183-d03a2760f733","system_id":"levelo_inurba_marseille","lat":43.28662,"lon":5.38669,"is_reserved":false,"is_disabled":false,"rental_uris":{"android":"levelo://app?vid=bb1bf3f7-d113-4257-9183-d03a2760f733","ios":"levelo://app?vid=bb1bf3f7-d113-4257-9183-d03a2760f733"},"vehicle_type_id":"4","last_reported":1751901009,"current_range_meters":7200,"station_id":"ce4bh492rcd13ifvqdug","pricing_plan_id":"cebpf4jnsgd1na2vs0mg"},{"bike_id":"627b2b06-da8a-466f-9608-3cef29636059","system_id":"levelo_inurba_marseille","lat":43.21741,"lon":5.34605,"is_reserved":false,"is_disabled":false,"rental_uris":{"android":"levelo://app?vid=627b2b06-da8a-466f-9608-3cef29636059","ios":"levelo://app?vid=627b2b06-da8a-466f-9608-3cef29636059"},"vehicle_type_id":"4","last_reported":1751901009,"current_range_meters":7200,"station_id":"st_cvj6r9ubvosntc0bgbag","pricing_plan_id":"cebpf4jnsgd1na2vs0mg"},{"bike_id":"2a0f6a51-9e8e-4f14-beb4-27ac7d22c764","system_id":"levelo_inurba_marseille","lat":43.2985,"lon":5.3629,"is_reserved":false,"is_disabled":false,"rental_uris":{"android":"levelo://app?vid=2a0f6a51-9e8e-4f14-beb4-27ac7d22c764","ios":"levelo://app?vid=2a0f6a51-9e8e-4f14-beb4-27ac7d22c764"},"vehicle_type_id":"4","last_reported":1751901009,"current_range_meters":8000,"station_id":"ce4bgpp2rcd13ifvqc3g","pricing_plan_id":"cebpf4jnsgd1na2vs0mg"},{"bike_id":"a9a156a1-3fed-4752-910e-426aa23a8716","system_id":"levelo_inurba_marseille","lat":43.30932,"lon":5.40145,"is_reserved":false,"is_disabled":false,"rental_uris":{"android":"levelo://app?vid=a9a156a1-3fed-4752-910e-426aa23a8716","ios":"levelo://app?vid=a9a156a1-3fed-4752-910e-426aa23a8716"},"vehicle_type_id":"4","last_reported":1751901009,"current_range_meters":8000,"station_id":"ce4bgvp2rcd13ifvqct0","pricing_plan_id":"cebpf4jnsgd1na2vs0mg"},{"bike_id":"025590bc-a810-40c1-b05d-9b873a675244","system_id":"levelo_inurba_marseille","lat":43.26055,"lon":5.39401,"is_reserved":false,"is_disabled":false,"rental_uris":{"android":"levelo://app?vid=025590bc-a810-40c1-b05d-9b873a675244","ios":"levelo://app?vid=025590bc-a810-40c1-b05d-9b873a675244"},"vehicle_type_id":"4","last_reported":1751901009,"current_range_meters":8000,"station_id":"ce4bhh92rcd13ifvqfj0","pricing_plan_id":"cebpf4jnsgd1na2vs0mg"},{"bike_id":"fe44924c-dcf0-4048-a1ad-9e680cc9c00c","system_id":"levelo_inurba_marseille","lat":43.260214,"lon":5.417444,"is_reserved":false,"is_disabled":false,"rental_uris":{"android":"levelo://app?vid=fe44924c-dcf0-4048-a1ad-9e680cc9c00c","ios":"levelo://app?vid=fe44924c-dcf0-4048-a1ad-9e680cc9c00c"},"vehicle_type_id":"4","last_reported":1751901009,"current_range_meters":8400,"station_id":"","pricing_plan_id":"cebpf4jnsgd1na2vs0mg"},{"bike_id":"59422fbe-70f9-4fb5-85e0-9f435afd043f","system_id":"levelo_inurba_marseille","lat":43.30559,"lon":5.36534,"is_reserved":false,"is_disabled":false,"rental_uris":{"android":"levelo://app?vid=59422fbe-70f9-4fb5-85e0-9f435afd043f","ios":"levelo://app?vid=59422fbe-70f9-4fb5-85e0-9f435afd043f"},"vehicle_type_id":"4","last_reported":1751901009,"current_range_meters":8400,"station_id":"ce4bgs12rcd13ifvqcag","pricing_plan_id":"cebpf4jnsgd1na2vs0mg"},{"bike_id":"10d2874a-6003-40dc-a934-9fd7ff9f39c4","system_id":"levelo_inurba_marseille","lat":43.307904,"lon":5.38162,"is_reserved":false,"is_disabled":false,"rental_uris":{"android":"levelo://app?vid=10d2874a-6003-40dc-a934-9fd7ff9f39c4","ios":"levelo://app?vid=10d2874a-6003-40dc-a934-9fd7ff9f39c4"},"vehicle_type_id":"4","last_reported":1751901009,"current_range_meters":8400,"station_id":"ce4bgt12rcd13ifvqce0","pricing_plan_id":"cebpf4jnsgd1na2vs0mg"},{"bike_id":"4e983553-2ad2-4758-9710-a872ed110300","system_id":"levelo_inurba_marseille","lat":43.27835,"lon":5.39212,"is_reserved":false,"is_disabled":false,"rental_uris":{"android":"levelo://app?vid=4e983553-2ad2-4758-9710-a872ed110300","ios":"levelo://app?vid=4e983553-2ad2-4758-9710-a872ed110300"},"vehicle_type_id":"4","last_reported":1751901009,"current_range_meters":8400,"station_id":"ce4bhjp2rcd13ifvqga0","pricing_plan_id":"cebpf4jnsgd1na2vs0mg"},{"bike_id":"4688e21b-c03e-4fd5-925e-061b7b76e6ed","system_id":"levelo_inurba_marseille","lat":43.32279,"lon":5.38277,"is_reserved":false,"is_disabled":false,"rental_uris":{"android":"levelo://app?vid=4688e21b-c03e-4fd5-925e-061b7b76e6ed","ios":"levelo://app?vid=4688e21b-c03e-4fd5-925e-061b7b76e6ed"},"vehicle_type_id":"4","last_reported":1751901009,"current_range_meters":8400,"station_id":"ce4bhr12rcd13ifvqhqg","pricing_plan_id":"cebpf4jnsgd1na2vs0mg"},{"bike_id":"d6c5e041-56d5-44d3-8767-93bb0abd1776","system_id":"levelo_inurba_marseille","lat":43.21783,"lon":5.34587,"is_reserved":false,"is_disabled":false,"rental_uris":{"android":"levelo://app?vid=d6c5e041-56d5-44d3-8767-93bb0abd1776","ios":"levelo://app?vid=d6c5e041-56d5-44d3-8767-93bb0abd1776"},"vehicle_type_id":"4","last_reported":1751901009,"current_range_meters":8800,"station_id":"","pricing_plan_id":"cebpf4jnsgd1na2vs0mg"},{"bike_id":"aee72c8c-c273-4df8-9617-d6a9028d3a39","system_id":"levelo_inurba_marseille","lat":43.296185,"lon":5.371685,"is_reserved":false,"is_disabled":false,"rental_uris":{"android":"levelo://app?vid=aee72c8c-c273-4df8-9617-d6a9028d3a39","ios":"levelo://app?vid=aee72c8c-c273-4df8-9617-d6a9028d3a39"},"vehicle_type_id":"4","last_reported":1751901009,"current_range_meters":8800,"station_id":"ce4bgnh2rcd13ifvqc0g","pricing_plan_id":"cebpf4jnsgd1na2vs0mg"},{"bike_id":"61e725ea-5fb8-48d6-be67-2345ca7067b9","system_id":"levelo_inurba_marseille","lat":43.3053,"lon":5.36554,"is_reserved":false,"is_disabled":false,"rental_uris":{"android":"levelo://app?vid=61e725ea-5fb8-48d6-be67-2345ca7067b9","ios":"levelo://app?vid=61e725ea-5fb8-48d6-be67-2345ca7067b9"},"vehicle_type_id":"4","last_reported":1751901009,"current_range_meters":8800,"station_id":"ce4bgs12rcd13ifvqcag","pricing_plan_id":"cebpf4jnsgd1na2vs0mg"},{"bike_id":"78bf7c05-c084-4bb2-bb4f-7b5b6ed631d9","system_id":"levelo_inurba_marseille","lat":43.32292,"lon":5.38266,"is_reserved":false,"is_disabled":false,"rental_uris":{"android":"levelo://app?vid=78bf7c05-c084-4bb2-bb4f-7b5b6ed631d9","ios":"levelo://app?vid=78bf7c05-c084-4bb2-bb4f-7b5b6ed631d9"},"vehicle_type_id":"4","last_reported":1751901009,"current_range_meters":8800,"station_id":"ce4bhr12rcd13ifvqhqg","pricing_plan_id":"cebpf4jnsgd1na2vs0mg"},{"bike_id":"653697c4-c439-4a6d-869a-0ee928b604f9","system_id":"levelo_inurba_marseille","lat":43.26066,"lon":5.41716,"is_reserved":false,"is_disabled":false,"rental_uris":{"android":"levelo://app?vid=653697c4-c439-4a6d-869a-0ee928b604f9","ios":"levelo://app?vid=653697c4-c439-4a6d-869a-0ee928b604f9"},"vehicle_type_id":"4","last_reported":1751901009,"current_range_meters":9200,"station_id":"","pricing_plan_id":"cebpf4jnsgd1na2vs0mg"},{"bike_id":"a07b7ab0-67b6-482f-905b-1183d9ff28af","system_id":"levelo_inurba_marseille","lat":43.30268,"lon":5.37698,"is_reserved":false,"is_disabled":false,"rental_uris":{"android":"levelo://app?vid=a07b7ab0-67b6-482f-905b-1183d9ff28af","ios":"levelo://app?vid=a07b7ab0-67b6-482f-905b-1183d9ff28af"},"vehicle_type_id":"4","last_reported":1751901009,"current_range_meters":9200,"station_id":"ce4bguh2rcd13ifvqcj0","pricing_plan_id":"cebpf4jnsgd1na2vs0mg"},{"bike_id":"94add758-2002-4c40-881c-d3fe45161db7","system_id":"levelo_inurba_marseille","lat":43.30519,"lon":5.36554,"is_reserved":false,"is_disabled":false,"rental_uris":{"android":"levelo://app?vid=94add758-2002-4c40-881c-d3fe45161db7","ios":"levelo://app?vid=94add758-2002-4c40-881c-d3fe45161db7"},"vehicle_type_id":"4","last_reported":1751901009,"current_range_meters":9600,"station_id":"ce4bgs12rcd13ifvqcag","pricing_plan_id":"cebpf4jnsgd1na2vs0mg"},{"bike_id":"5f7e0ec9-7e3e-489a-90bf-e0cdfb2566ad","system_id":"levelo_inurba_marseille","lat":43.28719,"lon":5.37915,"is_reserved":false,"is_disabled":false,"rental_uris":{"android":"levelo://app?vid=5f7e0ec9-7e3e-489a-90bf-e0cdfb2566ad","ios":"levelo://app?vid=5f7e0ec9-7e3e-489a-90bf-e0cdfb2566ad"},"vehicle_type_id":"4","last_reported":1751901009,"current_range_meters":9600,"station_id":"ce4bh9p2rcd13ifvqec0","pricing_plan_id":"cebpf4jnsgd1na2vs0mg"},{"bike_id":"90c0f61b-8a4c-4daf-b913-acbc3fa7ef2c","system_id":"levelo_inurba_marseille","lat":43.278102,"lon":5.407135,"is_reserved":false,"is_disabled":false,"rental_uris":{"android":"levelo://app?vid=90c0f61b-8a4c-4daf-b913-acbc3fa7ef2c","ios":"levelo://app?vid=90c0f61b-8a4c-4daf-b913-acbc3fa7ef2c"},"vehicle_type_id":"4","last_reported":1751901009,"current_range_meters":9600,"station_id":"ce4bhf92rcd13ifvqf40","pricing_plan_id":"cebpf4jnsgd1na2vs0mg"},{"bike_id":"73eab00a-c8d1-43b0-b3d6-3ffdd4d18a5c","system_id":"levelo_inurba_marseille","lat":43.337444,"lon":5.374475,"is_reserved":false,"is_disabled":false,"rental_uris":{"android":"levelo://app?vid=73eab00a-c8d1-43b0-b3d6-3ffdd4d18a5c","ios":"levelo://app?vid=73eab00a-c8d1-43b0-b3d6-3ffdd4d18a5c"},"vehicle_type_id":"4","last_reported":1751901009,"current_range_meters":10000,"station_id":"","pricing_plan_id":"cebpf4jnsgd1na2vs0mg"},{"bike_id":"88ea42cb-cf0f-4e4a-8442-732645bc4ba5","system_id":"levelo_inurba_marseille","lat":43.31116,"lon":5.3671,"is_reserved":false,"is_disabled":false,"rental_uris":{"android":"levelo://app?vid=88ea42cb-cf0f-4e4a-8442-732645bc4ba5","ios":"levelo://app?vid=88ea42cb-cf0f-4e4a-8442-732645bc4ba5"},"vehicle_type_id":"4","last_reported":1751901009,"current_range_meters":10000,"station_id":"","pricing_plan_id":"cebpf4jnsgd1na2vs0mg"},{"bike_id":"ffde4abe-143d-4da9-8705-0486eac461ed","system_id":"levelo_inurba_marseille","lat":43.28369,"lon":5.38627,"is_reserved":false,"is_disabled":false,"rental_uris":{"android":"levelo://app?vid=ffde4abe-143d-4da9-8705-0486eac461ed","ios":"levelo://app?vid=ffde4abe-143d-4da9-8705-0486eac461ed"},"vehicle_type_id":"4","last_reported":1751901009,"current_range_meters":10000,"station_id":"ce4bh492rcd13ifvqdvg","pricing_plan_id":"cebpf4jnsgd1na2vs0mg"},{"bike_id":"3949db6c-7e23-4fda-8f94-e6b8c5fef172","system_id":"levelo_inurba_marseille","lat":43.32337,"lon":5.40621,"is_reserved":false,"is_disabled":false,"rental_uris":{"android":"levelo://app?vid=3949db6c-7e23-4fda-8f94-e6b8c5fef172","ios":"levelo://app?vid=3949db6c-7e23-4fda-8f94-e6b8c5fef172"},"vehicle_type_id":"4","last_reported":1751901009,"current_range_meters":10000,"station_id":"ce4bhq92rcd13ifvqhjg","pricing_plan_id":"cebpf4jnsgd1na2vs0mg"},{"bike_id":"7b527f00-f6ea-4963-b59d-8da04a2feedb","system_id":"levelo_inurba_marseille","lat":43.32092,"lon":5.40112,"is_reserved":false,"is_disabled":false,"rental_uris":{"android":"levelo://app?vid=7b527f00-f6ea-4963-b59d-8da04a2feedb","ios":"levelo://app?vid=7b527f00-f6ea-4963-b59d-8da04a2feedb"},"vehicle_type_id":"4","last_reported":1751901009,"current_range_meters":10800,"station_id":"","pricing_plan_id":"cebpf4jnsgd1na2vs0mg"},{"bike_id":"d69b89c9-b35c-49f9-b5ed-17f47d4bf984","system_id":"levelo_inurba_marseille","lat":43.30935,"lon":5.40151,"is_reserved":false,"is_disabled":false,"rental_uris":{"android":"levelo://app?vid=d69b89c9-b35c-49f9-b5ed-17f47d4bf984","ios":"levelo://app?vid=d69b89c9-b35c-49f9-b5ed-17f47d4bf984"},"vehicle_type_id":"4","last_reported":1751901009,"current_range_meters":10800,"station_id":"ce4bgvp2rcd13ifvqct0","pricing_plan_id":"cebpf4jnsgd1na2vs0mg"},{"bike_id":"80955d0f-8669-4c02-b90f-c6fe20790c37","system_id":"levelo_inurba_marseille","lat":43.23202,"lon":5.35047,"is_reserved":false,"is_disabled":false,"rental_uris":{"android":"levelo://app?vid=80955d0f-8669-4c02-b90f-c6fe20790c37","ios":"levelo://app?vid=80955d0f-8669-4c02-b90f-c6fe20790c37"},"vehicle_type_id":"4","last_reported":1751901009,"current_range_meters":11200,"station_id":"","pricing_plan_id":"cebpf4jnsgd1na2vs0mg"},{"bike_id":"3b22f952-d0bc-4c00-8fd3-7e27b88aea23","system_id":"levelo_inurba_marseille","lat":43.29659,"lon":5.36245,"is_reserved":false,"is_disabled":false,"rental_uris":{"android":"levelo://app?vid=3b22f952-d0bc-4c00-8fd3-7e27b88aea23","ios":"levelo://app?vid=3b22f952-d0bc-4c00-8fd3-7e27b88aea23"},"vehicle_type_id":"4","last_reported":1751901009,"current_range_meters":11200,"station_id":"","pricing_plan_id":"cebpf4jnsgd1na2vs0mg"},{"bike_id":"5f8d468e-83b4-489c-b439-4105772dbd9d","system_id":"levelo_inurba_marseille","lat":43.30646,"lon":5.40103,"is_reserved":false,"is_disabled":false,"rental_uris":{"android":"levelo://app?vid=5f8d468e-83b4-489c-b439-4105772dbd9d","ios":"levelo://app?vid=5f8d468e-83b4-489c-b439-4105772dbd9d"},"vehicle_type_id":"4","last_reported":1751901009,"current_range_meters":11200,"station_id":"ce4bh112rcd13ifvqda0","pricing_plan_id":"cebpf4jnsgd1na2vs0mg"},{"bike_id":"794e01f1-64d6-4462-854f-e6ea91f17ed4","system_id":"levelo_inurba_marseille","lat":43.29531,"lon":5.38549,"is_reserved":false,"is_disabled":false,"rental_uris":{"android":"levelo://app?vid=794e01f1-64d6-4462-854f-e6ea91f17ed4","ios":"levelo://app?vid=794e01f1-64d6-4462-854f-e6ea91f17ed4"},"vehicle_type_id":"4","last_reported":1751901009,"current_range_meters":11600,"station_id":"ce4bgih2rcd13ifvqba0","pricing_plan_id":"cebpf4jnsgd1na2vs0mg"},{"bike_id":"9e9e0b5e-0d45-400f-b781-430fdc4129c5","system_id":"levelo_inurba_marseille","lat":43.30523,"lon":5.36712,"is_reserved":false,"is_disabled":false,"rental_uris":{"android":"levelo://app?vid=9e9e0b5e-0d45-400f-b781-430fdc4129c5","ios":"levelo://app?vid=9e9e0b5e-0d45-400f-b781-430fdc4129c5"},"vehicle_type_id":"4","last_reported":1751901009,"current_range_meters":11600,"station_id":"ce4bgrp2rcd13ifvqc9g","pricing_plan_id":"cebpf4jnsgd1na2vs0mg"},{"bike_id":"37f2becd-23f9-4f13-a711-38b8024eeec7","system_id":"levelo_inurba_marseille","lat":43.33768,"lon":5.37516,"is_reserved":false,"is_disabled":false,"rental_uris":{"android":"levelo://app?vid=37f2becd-23f9-4f13-a711-38b8024eeec7","ios":"levelo://app?vid=37f2becd-23f9-4f13-a711-38b8024eeec7"},"vehicle_type_id":"4","last_reported":1751901009,"current_range_meters":12000,"station_id":"","pricing_plan_id":"cebpf4jnsgd1na2vs0mg"},{"bike_id":"ef7592ee-0d40-403f-a2ac-2b19ba786c7a","system_id":"levelo_inurba_marseille","lat":43.29798,"lon":5.38102,"is_reserved":false,"is_disabled":false,"rental_uris":{"android":"levelo://app?vid=ef7592ee-0d40-403f-a2ac-2b19ba786c7a","ios":"levelo://app?vid=ef7592ee-0d40-403f-a2ac-2b19ba786c7a"},"vehicle_type_id":"4","last_reported":1751901009,"current_range_meters":12000,"station_id":"ce4bgip2rcd13ifvqbb0","pricing_plan_id":"cebpf4jnsgd1na2vs0mg"},{"bike_id":"abcdfac5-fe00-4da2-b177-13430b577d14","system_id":"levelo_inurba_marseille","lat":43.30539,"lon":5.36525,"is_reserved":false,"is_disabled":false,"rental_uris":{"android":"levelo://app?vid=abcdfac5-fe00-4da2-b177-13430b577d14","ios":"levelo://app?vid=abcdfac5-fe00-4da2-b177-13430b577d14"},"vehicle_type_id":"4","last_reported":1751901009,"current_range_meters":12400,"station_id":"ce4bgs12rcd13ifvqcag","pricing_plan_id":"cebpf4jnsgd1na2vs0mg"},{"bike_id":"d5a229d5-0179-4719-a4b5-c6d27eae9d69","system_id":"levelo_inurba_marseille","lat":43.30637,"lon":5.40098,"is_reserved":false,"is_disabled":false,"rental_uris":{"android":"levelo://app?vid=d5a229d5-0179-4719-a4b5-c6d27eae9d69","ios":"levelo://app?vid=d5a229d5-0179-4719-a4b5-c6d27eae9d69"},"vehicle_type_id":"4","last_reported":1751901009,"current_range_meters":12400,"station_id":"ce4bh112rcd13ifvqda0","pricing_plan_id":"cebpf4jnsgd1na2vs0mg"},{"bike_id":"58a7b761-ba09-4c51-8c1d-6293615e5add","system_id":"levelo_inurba_marseille","lat":43.28664,"lon":5.36354,"is_reserved":false,"is_disabled":false,"rental_uris":{"android":"levelo://app?vid=58a7b761-ba09-4c51-8c1d-6293615e5add","ios":"levelo://app?vid=58a7b761-ba09-4c51-8c1d-6293615e5add"},"vehicle_type_id":"4","last_reported":1751901009,"current_range_meters":12400,"station_id":"ce4bhah2rcd13ifvqej0","pricing_plan_id":"cebpf4jnsgd1na2vs0mg"},{"bike_id":"7f9e9d35-792f-4a76-9f28-b1b01be953ff","system_id":"levelo_inurba_marseille","lat":43.27999,"lon":5.41672,"is_reserved":false,"is_disabled":false,"rental_uris":{"android":"levelo://app?vid=7f9e9d35-792f-4a76-9f28-b1b01be953ff","ios":"levelo://app?vid=7f9e9d35-792f-4a76-9f28-b1b01be953ff"},"vehicle_type_id":"4","last_reported":1751901009,"current_range_meters":12400,"station_id":"ce4bho12rcd13ifvqh1g","pricing_plan_id":"cebpf4jnsgd1na2vs0mg"},{"bike_id":"a31d7b1d-f875-4f27-b8f6-640a4ac62493","system_id":"levelo_inurba_marseille","lat":43.337189,"lon":5.391903,"is_reserved":false,"is_disabled":false,"rental_uris":{"android":"levelo://app?vid=a31d7b1d-f875-4f27-b8f6-640a4ac62493","ios":"levelo://app?vid=a31d7b1d-f875-4f27-b8f6-640a4ac62493"},"vehicle_type_id":"4","last_reported":1751901009,"current_range_meters":12400,"station_id":"ce4bhr92rcd13ifvqhsg","pricing_plan_id":"cebpf4jnsgd1na2vs0mg"},{"bike_id":"ccc29df5-1113-42b5-b8de-771b9f206409","system_id":"levelo_inurba_marseille","lat":43.26313,"lon":5.37308,"is_reserved":false,"is_disabled":false,"rental_uris":{"android":"levelo://app?vid=ccc29df5-1113-42b5-b8de-771b9f206409","ios":"levelo://app?vid=ccc29df5-1113-42b5-b8de-771b9f206409"},"vehicle_type_id":"4","last_reported":1751901009,"current_range_meters":12800,"station_id":"","pricing_plan_id":"cebpf4jnsgd1na2vs0mg"},{"bike_id":"29102da4-02a2-4f9c-99ed-89cdef887179","system_id":"levelo_inurba_marseille","lat":43.22508,"lon":5.34778,"is_reserved":false,"is_disabled":false,"rental_uris":{"android":"levelo://app?vid=29102da4-02a2-4f9c-99ed-89cdef887179","ios":"levelo://app?vid=29102da4-02a2-4f9c-99ed-89cdef887179"},"vehicle_type_id":"4","last_reported":1751901009,"current_range_meters":12800,"station_id":"st_cvj5dfep6f1abm77gieg","pricing_plan_id":"cebpf4jnsgd1na2vs0mg"},{"bike_id":"78c65a7f-d308-40b5-accc-8e6897ac9f8a","system_id":"levelo_inurba_marseille","lat":43.300828,"lon":5.377935,"is_reserved":false,"is_disabled":false,"rental_uris":{"android":"levelo://app?vid=78c65a7f-d308-40b5-accc-8e6897ac9f8a","ios":"levelo://app?vid=78c65a7f-d308-40b5-accc-8e6897ac9f8a"},"vehicle_type_id":"4","last_reported":1751901009,"current_range_meters":13600,"station_id":"","pricing_plan_id":"cebpf4jnsgd1na2vs0mg"},{"bike_id":"9def8b07-8521-4023-8fea-449215b8264b","system_id":"levelo_inurba_marseille","lat":43.243886,"lon":5.370612,"is_reserved":false,"is_disabled":false,"rental_uris":{"android":"levelo://app?vid=9def8b07-8521-4023-8fea-449215b8264b","ios":"levelo://app?vid=9def8b07-8521-4023-8fea-449215b8264b"},"vehicle_type_id":"4","last_reported":1751901009,"current_range_meters":13600,"station_id":"ce4bhhh2rcd13ifvqfk0","pricing_plan_id":"cebpf4jnsgd1na2vs0mg"},{"bike_id":"949188bf-6148-425e-828f-98a1d9650134","system_id":"levelo_inurba_marseille","lat":43.32477,"lon":5.36568,"is_reserved":false,"is_disabled":false,"rental_uris":{"android":"levelo://app?vid=949188bf-6148-425e-828f-98a1d9650134","ios":"levelo://app?vid=949188bf-6148-425e-828f-98a1d9650134"},"vehicle_type_id":"4","last_reported":1751901009,"current_range_meters":13600,"station_id":"ce4bhs12rcd13ifvqhvg","pricing_plan_id":"cebpf4jnsgd1na2vs0mg"},{"bike_id":"a70cfab5-f447-4d61-b80a-343a49825360","system_id":"levelo_inurba_marseille","lat":43.31524,"lon":5.3911,"is_reserved":false,"is_disabled":false,"rental_uris":{"android":"levelo://app?vid=a70cfab5-f447-4d61-b80a-343a49825360","ios":"levelo://app?vid=a70cfab5-f447-4d61-b80a-343a49825360"},"vehicle_type_id":"4","last_reported":1751901009,"current_range_meters":14000,"station_id":"","pricing_plan_id":"cebpf4jnsgd1na2vs0mg"},{"bike_id":"d23ff5eb-dc32-46e8-a11a-2ae72fe24931","system_id":"levelo_inurba_marseille","lat":43.298402,"lon":5.362852,"is_reserved":false,"is_disabled":false,"rental_uris":{"android":"levelo://app?vid=d23ff5eb-dc32-46e8-a11a-2ae72fe24931","ios":"levelo://app?vid=d23ff5eb-dc32-46e8-a11a-2ae72fe24931"},"vehicle_type_id":"4","last_reported":1751901009,"current_range_meters":14000,"station_id":"ce4bgpp2rcd13ifvqc3g","pricing_plan_id":"cebpf4jnsgd1na2vs0mg"},{"bike_id":"fc0652ae-2ba9-4539-abe3-0a798d35709c","system_id":"levelo_inurba_marseille","lat":43.27708,"lon":5.38913,"is_reserved":false,"is_disabled":false,"rental_uris":{"android":"levelo://app?vid=fc0652ae-2ba9-4539-abe3-0a798d35709c","ios":"levelo://app?vid=fc0652ae-2ba9-4539-abe3-0a798d35709c"},"vehicle_type_id":"4","last_reported":1751901009,"current_range_meters":14000,"station_id":"ce4bhi12rcd13ifvqfo0","pricing_plan_id":"cebpf4jnsgd1na2vs0mg"},{"bike_id":"5ec4874c-03c6-4a0e-89ff-0413efb1d60d","system_id":"levelo_inurba_marseille","lat":43.31992,"lon":5.36752,"is_reserved":false,"is_disabled":false,"rental_uris":{"android":"levelo://app?vid=5ec4874c-03c6-4a0e-89ff-0413efb1d60d","ios":"levelo://app?vid=5ec4874c-03c6-4a0e-89ff-0413efb1d60d"},"vehicle_type_id":"4","last_reported":1751901009,"current_range_meters":14000,"station_id":"ce4bhrh2rcd13ifvqhug","pricing_plan_id":"cebpf4jnsgd1na2vs0mg"},{"bike_id":"37e4c435-1bb5-4de1-ab2e-317aea989aaa","system_id":"levelo_inurba_marseille","lat":43.31261,"lon":5.4017,"is_reserved":false,"is_disabled":false,"rental_uris":{"android":"levelo://app?vid=37e4c435-1bb5-4de1-ab2e-317aea989aaa","ios":"levelo://app?vid=37e4c435-1bb5-4de1-ab2e-317aea989aaa"},"vehicle_type_id":"4","last_reported":1751901009,"current_range_meters":14400,"station_id":"ce4bh092rcd13ifvqd30","pricing_plan_id":"cebpf4jnsgd1na2vs0mg"},{"bike_id":"d7988964-28c6-4fac-b7a3-c9a2ca519892","system_id":"levelo_inurba_marseille","lat":43.28621,"lon":5.35102,"is_reserved":false,"is_disabled":false,"rental_uris":{"android":"levelo://app?vid=d7988964-28c6-4fac-b7a3-c9a2ca519892","ios":"levelo://app?vid=d7988964-28c6-4fac-b7a3-c9a2ca519892"},"vehicle_type_id":"4","last_reported":1751901009,"current_range_meters":14400,"station_id":"ce4bhch2rcd13ifvqeug","pricing_plan_id":"cebpf4jnsgd1na2vs0mg"},{"bike_id":"c92a5559-46f4-4948-802e-ec1dd322c81c","system_id":"levelo_inurba_marseille","lat":43.2602,"lon":5.37544,"is_reserved":false,"is_disabled":false,"rental_uris":{"android":"levelo://app?vid=c92a5559-46f4-4948-802e-ec1dd322c81c","ios":"levelo://app?vid=c92a5559-46f4-4948-802e-ec1dd322c81c"},"vehicle_type_id":"4","last_reported":1751901009,"current_range_meters":14400,"station_id":"ce4bhgh2rcd13ifvqfa0","pricing_plan_id":"cebpf4jnsgd1na2vs0mg"},{"bike_id":"522babc5-1b83-4bde-8ab6-ebfde9bd04b2","system_id":"levelo_inurba_marseille","lat":43.25441,"lon":5.37665,"is_reserved":false,"is_disabled":false,"rental_uris":{"android":"levelo://app?vid=522babc5-1b83-4bde-8ab6-ebfde9bd04b2","ios":"levelo://app?vid=522babc5-1b83-4bde-8ab6-ebfde9bd04b2"},"vehicle_type_id":"4","last_reported":1751901009,"current_range_meters":14800,"station_id":"","pricing_plan_id":"cebpf4jnsgd1na2vs0mg"},{"bike_id":"c26098e3-b765-467a-8173-e2d037828b22","system_id":"levelo_inurba_marseille","lat":43.28665,"lon":5.38655,"is_reserved":false,"is_disabled":false,"rental_uris":{"android":"levelo://app?vid=c26098e3-b765-467a-8173-e2d037828b22","ios":"levelo://app?vid=c26098e3-b765-467a-8173-e2d037828b22"},"vehicle_type_id":"4","last_reported":1751901009,"current_range_meters":14800,"station_id":"ce4bh492rcd13ifvqdug","pricing_plan_id":"cebpf4jnsgd1na2vs0mg"},{"bike_id":"784f3097-ac07-42bf-be48-70a684b49310","system_id":"levelo_inurba_marseille","lat":43.30946,"lon":5.40153,"is_reserved":false,"is_disabled":false,"rental_uris":{"android":"levelo://app?vid=784f3097-ac07-42bf-be48-70a684b49310","ios":"levelo://app?vid=784f3097-ac07-42bf-be48-70a684b49310"},"vehicle_type_id":"4","last_reported":1751901009,"current_range_meters":15200,"station_id":"ce4bgvp2rcd13ifvqct0","pricing_plan_id":"cebpf4jnsgd1na2vs0mg"},{"bike_id":"2ddd6815-6193-4bc9-bd9f-34f36bc7c904","system_id":"levelo_inurba_marseille","lat":43.2842,"lon":5.35002,"is_reserved":false,"is_disabled":false,"rental_uris":{"android":"levelo://app?vid=2ddd6815-6193-4bc9-bd9f-34f36bc7c904","ios":"levelo://app?vid=2ddd6815-6193-4bc9-bd9f-34f36bc7c904"},"vehicle_type_id":"4","last_reported":1751901009,"current_range_meters":15200,"station_id":"ce4bhbh2rcd13ifvqepg","pricing_plan_id":"cebpf4jnsgd1na2vs0mg"},{"bike_id":"74ffcfa0-eae9-4944-8108-493f2ded3428","system_id":"levelo_inurba_marseille","lat":43.255829,"lon":5.382366,"is_reserved":false,"is_disabled":false,"rental_uris":{"android":"levelo://app?vid=74ffcfa0-eae9-4944-8108-493f2ded3428","ios":"levelo://app?vid=74ffcfa0-eae9-4944-8108-493f2ded3428"},"vehicle_type_id":"4","last_reported":1751901009,"current_range_meters":15200,"station_id":"ce4bhih2rcd13ifvqfs0","pricing_plan_id":"cebpf4jnsgd1na2vs0mg"},{"bike_id":"a7c39d59-40bd-4f7b-a228-ff2080b9cf69","system_id":"levelo_inurba_marseille","lat":43.26957,"lon":5.40247,"is_reserved":false,"is_disabled":false,"rental_uris":{"android":"levelo://app?vid=a7c39d59-40bd-4f7b-a228-ff2080b9cf69","ios":"levelo://app?vid=a7c39d59-40bd-4f7b-a228-ff2080b9cf69"},"vehicle_type_id":"4","last_reported":1751901009,"current_range_meters":15200,"station_id":"cjm6bp8fraef2m0cb0m0","pricing_plan_id":"cebpf4jnsgd1na2vs0mg"},{"bike_id":"ebd51b2b-ef1d-4679-83f8-06b8c2bf8dcc","system_id":"levelo_inurba_marseille","lat":43.290823,"lon":5.381367,"is_reserved":false,"is_disabled":false,"rental_uris":{"android":"levelo://app?vid=ebd51b2b-ef1d-4679-83f8-06b8c2bf8dcc","ios":"levelo://app?vid=ebd51b2b-ef1d-4679-83f8-06b8c2bf8dcc"},"vehicle_type_id":"4","last_reported":1751901009,"current_range_meters":16000,"station_id":"ce4bhbh2rcd13ifvqepg","pricing_plan_id":"cebpf4jnsgd1na2vs0mg"},{"bike_id":"7f189570-d86b-4e22-b750-cde58fa14537","system_id":"levelo_inurba_marseille","lat":43.28414,"lon":5.34991,"is_reserved":false,"is_disabled":false,"rental_uris":{"android":"levelo://app?vid=7f189570-d86b-4e22-b750-cde58fa14537","ios":"levelo://app?vid=7f189570-d86b-4e22-b750-cde58fa14537"},"vehicle_type_id":"4","last_reported":1751901009,"current_range_meters":16000,"station_id":"ce4bhbh2rcd13ifvqepg","pricing_plan_id":"cebpf4jnsgd1na2vs0mg"},{"bike_id":"e79346c8-86fc-4daa-86ef-e1e68b65043e","system_id":"levelo_inurba_marseille","lat":43.24079,"lon":5.37759,"is_reserved":false,"is_disabled":false,"rental_uris":{"android":"levelo://app?vid=e79346c8-86fc-4daa-86ef-e1e68b65043e","ios":"levelo://app?vid=e79346c8-86fc-4daa-86ef-e1e68b65043e"},"vehicle_type_id":"4","last_reported":1751901009,"current_range_meters":16000,"station_id":"ce4bhnp2rcd13ifvqgvg","pricing_plan_id":"cebpf4jnsgd1na2vs0mg"},{"bike_id":"e5bc0dad-fdd4-4533-8af4-0b353ac73f82","system_id":"levelo_inurba_marseille","lat":43.28725,"lon":5.3609,"is_reserved":false,"is_disabled":false,"rental_uris":{"android":"levelo://app?vid=e5bc0dad-fdd4-4533-8af4-0b353ac73f82","ios":"levelo://app?vid=e5bc0dad-fdd4-4533-8af4-0b353ac73f82"},"vehicle_type_id":"4","last_reported":1751901009,"current_range_meters":16000,"station_id":"cki0cbj6b192h4jlfktg","pricing_plan_id":"cebpf4jnsgd1na2vs0mg"},{"bike_id":"59ca8657-462d-4998-bc2e-0a27d112c1f0","system_id":"levelo_inurba_marseille","lat":43.24152,"lon":5.36423,"is_reserved":false,"is_disabled":false,"rental_uris":{"android":"levelo://app?vid=59ca8657-462d-4998-bc2e-0a27d112c1f0","ios":"levelo://app?vid=59ca8657-462d-4998-bc2e-0a27d112c1f0"},"vehicle_type_id":"4","last_reported":1751901009,"current_range_meters":16000,"station_id":"cpo36qri1sfpv3e86is0","pricing_plan_id":"cebpf4jnsgd1na2vs0mg"},{"bike_id":"e6815f9b-504c-4f64-b90f-7e22d9f15b32","system_id":"levelo_inurba_marseille","lat":43.2971,"lon":5.36584,"is_reserved":false,"is_disabled":false,"rental_uris":{"android":"levelo://app?vid=e6815f9b-504c-4f64-b90f-7e22d9f15b32","ios":"levelo://app?vid=e6815f9b-504c-4f64-b90f-7e22d9f15b32"},"vehicle_type_id":"4","last_reported":1751901009,"current_range_meters":16400,"station_id":"ce4bgn12rcd13ifvqbt0","pricing_plan_id":"cebpf4jnsgd1na2vs0mg"},{"bike_id":"450e874d-b836-491e-9449-b0948ecd6f9a","system_id":"levelo_inurba_marseille","lat":43.30564,"lon":5.36544,"is_reserved":false,"is_disabled":false,"rental_uris":{"android":"levelo://app?vid=450e874d-b836-491e-9449-b0948ecd6f9a","ios":"levelo://app?vid=450e874d-b836-491e-9449-b0948ecd6f9a"},"vehicle_type_id":"4","last_reported":1751901009,"current_range_meters":16400,"station_id":"ce4bgs12rcd13ifvqcag","pricing_plan_id":"cebpf4jnsgd1na2vs0mg"},{"bike_id":"3dbabc86-8629-449e-b89a-dd8b9b607ed6","system_id":"levelo_inurba_marseille","lat":43.29628,"lon":5.40599,"is_reserved":false,"is_disabled":false,"rental_uris":{"android":"levelo://app?vid=3dbabc86-8629-449e-b89a-dd8b9b607ed6","ios":"levelo://app?vid=3dbabc86-8629-449e-b89a-dd8b9b607ed6"},"vehicle_type_id":"4","last_reported":1751901009,"current_range_meters":16400,"station_id":"ce4bh0h2rcd13ifvqd60","pricing_plan_id":"cebpf4jnsgd1na2vs0mg"},{"bike_id":"0c73aa57-f8f2-49ab-8446-4b8e27d9bdb1","system_id":"levelo_inurba_marseille","lat":43.28659,"lon":5.38662,"is_reserved":false,"is_disabled":false,"rental_uris":{"android":"levelo://app?vid=0c73aa57-f8f2-49ab-8446-4b8e27d9bdb1","ios":"levelo://app?vid=0c73aa57-f8f2-49ab-8446-4b8e27d9bdb1"},"vehicle_type_id":"4","last_reported":1751901009,"current_range_meters":16400,"station_id":"ce4bh492rcd13ifvqdug","pricing_plan_id":"cebpf4jnsgd1na2vs0mg"},{"bike_id":"dfaf4a9e-bdd4-4f14-8367-18ba3fc2193c","system_id":"levelo_inurba_marseille","lat":43.26193,"lon":5.37449,"is_reserved":false,"is_disabled":false,"rental_uris":{"android":"levelo://app?vid=dfaf4a9e-bdd4-4f14-8367-18ba3fc2193c","ios":"levelo://app?vid=dfaf4a9e-bdd4-4f14-8367-18ba3fc2193c"},"vehicle_type_id":"4","last_reported":1751901009,"current_range_meters":16400,"station_id":"ce4bhgp2rcd13ifvqfc0","pricing_plan_id":"cebpf4jnsgd1na2vs0mg"},{"bike_id":"23ab4f7c-e083-49a2-9c80-093b5c3e70f6","system_id":"levelo_inurba_marseille","lat":43.27319,"lon":5.39125,"is_reserved":false,"is_disabled":false,"rental_uris":{"android":"levelo://app?vid=23ab4f7c-e083-49a2-9c80-093b5c3e70f6","ios":"levelo://app?vid=23ab4f7c-e083-49a2-9c80-093b5c3e70f6"},"vehicle_type_id":"4","last_reported":1751901009,"current_range_meters":16400,"station_id":"ce4bhgp2rcd13ifvqfe0","pricing_plan_id":"cebpf4jnsgd1na2vs0mg"},{"bike_id":"942a983a-7094-47d3-97b7-ba4ab853d965","system_id":"levelo_inurba_marseille","lat":43.27061,"lon":5.42282,"is_reserved":false,"is_disabled":false,"rental_uris":{"android":"levelo://app?vid=942a983a-7094-47d3-97b7-ba4ab853d965","ios":"levelo://app?vid=942a983a-7094-47d3-97b7-ba4ab853d965"},"vehicle_type_id":"4","last_reported":1751901009,"current_range_meters":16400,"station_id":"ce4bhk92rcd13ifvqgb0","pricing_plan_id":"cebpf4jnsgd1na2vs0mg"},{"bike_id":"88448def-5dd0-4785-bf46-b6c2e5cfe176","system_id":"levelo_inurba_marseille","lat":43.22505,"lon":5.34767,"is_reserved":false,"is_disabled":false,"rental_uris":{"android":"levelo://app?vid=88448def-5dd0-4785-bf46-b6c2e5cfe176","ios":"levelo://app?vid=88448def-5dd0-4785-bf46-b6c2e5cfe176"},"vehicle_type_id":"4","last_reported":1751901009,"current_range_meters":16400,"station_id":"st_cvj5dfep6f1abm77gieg","pricing_plan_id":"cebpf4jnsgd1na2vs0mg"},{"bike_id":"6ffc31bf-be63-440b-8353-4ff83386083b","system_id":"levelo_inurba_marseille","lat":43.29842,"lon":5.36402,"is_reserved":false,"is_disabled":false,"rental_uris":{"android":"levelo://app?vid=6ffc31bf-be63-440b-8353-4ff83386083b","ios":"levelo://app?vid=6ffc31bf-be63-440b-8353-4ff83386083b"},"vehicle_type_id":"4","last_reported":1751901009,"current_range_meters":16800,"station_id":"","pricing_plan_id":"cebpf4jnsgd1na2vs0mg"},{"bike_id":"c4d80167-db70-4f18-b0d8-7c35c6b724a0","system_id":"levelo_inurba_marseille","lat":43.29861,"lon":5.36286,"is_reserved":false,"is_disabled":false,"rental_uris":{"android":"levelo://app?vid=c4d80167-db70-4f18-b0d8-7c35c6b724a0","ios":"levelo://app?vid=c4d80167-db70-4f18-b0d8-7c35c6b724a0"},"vehicle_type_id":"4","last_reported":1751901009,"current_range_meters":16800,"station_id":"ce4bgpp2rcd13ifvqc3g","pricing_plan_id":"cebpf4jnsgd1na2vs0mg"},{"bike_id":"869426ca-2edf-448e-a40f-b5b7fafdd2c2","system_id":"levelo_inurba_marseille","lat":43.27035,"lon":5.40271,"is_reserved":false,"is_disabled":false,"rental_uris":{"android":"levelo://app?vid=869426ca-2edf-448e-a40f-b5b7fafdd2c2","ios":"levelo://app?vid=869426ca-2edf-448e-a40f-b5b7fafdd2c2"},"vehicle_type_id":"4","last_reported":1751901009,"current_range_meters":16800,"station_id":"ce4bhk92rcd13ifvqgc0","pricing_plan_id":"cebpf4jnsgd1na2vs0mg"},{"bike_id":"2090512e-543d-4a55-b888-2423e2f84234","system_id":"levelo_inurba_marseille","lat":43.24084,"lon":5.37735,"is_reserved":false,"is_disabled":false,"rental_uris":{"android":"levelo://app?vid=2090512e-543d-4a55-b888-2423e2f84234","ios":"levelo://app?vid=2090512e-543d-4a55-b888-2423e2f84234"},"vehicle_type_id":"4","last_reported":1751901009,"current_range_meters":16800,"station_id":"ce4bhnp2rcd13ifvqgvg","pricing_plan_id":"cebpf4jnsgd1na2vs0mg"},{"bike_id":"762784bc-76e0-4220-961c-3afad064fde2","system_id":"levelo_inurba_marseille","lat":43.320917,"lon":5.367641,"is_reserved":false,"is_disabled":false,"rental_uris":{"android":"levelo://app?vid=762784bc-76e0-4220-961c-3afad064fde2","ios":"levelo://app?vid=762784bc-76e0-4220-961c-3afad064fde2"},"vehicle_type_id":"4","last_reported":1751901009,"current_range_meters":16800,"station_id":"ce4bhrh2rcd13ifvqhug","pricing_plan_id":"cebpf4jnsgd1na2vs0mg"},{"bike_id":"9bfc7d3d-4e60-4f8a-9c32-ef3d0e77ec5b","system_id":"levelo_inurba_marseille","lat":43.21208,"lon":5.35067,"is_reserved":false,"is_disabled":false,"rental_uris":{"android":"levelo://app?vid=9bfc7d3d-4e60-4f8a-9c32-ef3d0e77ec5b","ios":"levelo://app?vid=9bfc7d3d-4e60-4f8a-9c32-ef3d0e77ec5b"},"vehicle_type_id":"4","last_reported":1751901009,"current_range_meters":16800,"station_id":"st_cvj6sg6p6f1abm77japg","pricing_plan_id":"cebpf4jnsgd1na2vs0mg"},{"bike_id":"40bca77d-fa57-4cdf-bbcf-4b046d4dd543","system_id":"levelo_inurba_marseille","lat":43.29258,"lon":5.38441,"is_reserved":false,"is_disabled":false,"rental_uris":{"android":"levelo://app?vid=40bca77d-fa57-4cdf-bbcf-4b046d4dd543","ios":"levelo://app?vid=40bca77d-fa57-4cdf-bbcf-4b046d4dd543"},"vehicle_type_id":"4","last_reported":1751901009,"current_range_meters":17200,"station_id":"ce4bh692rcd13ifvqea0","pricing_plan_id":"cebpf4jnsgd1na2vs0mg"},{"bike_id":"7a23839a-f7cf-4c2f-a369-6cffa98b0c1c","system_id":"levelo_inurba_marseille","lat":43.27812,"lon":5.40721,"is_reserved":false,"is_disabled":false,"rental_uris":{"android":"levelo://app?vid=7a23839a-f7cf-4c2f-a369-6cffa98b0c1c","ios":"levelo://app?vid=7a23839a-f7cf-4c2f-a369-6cffa98b0c1c"},"vehicle_type_id":"4","last_reported":1751901009,"current_range_meters":17200,"station_id":"ce4bhnh2rcd13ifvqgtg","pricing_plan_id":"cebpf4jnsgd1na2vs0mg"},{"bike_id":"89aed59f-866e-4768-b8b5-54548cd7d320","system_id":"levelo_inurba_marseille","lat":43.22519,"lon":5.3478,"is_reserved":false,"is_disabled":false,"rental_uris":{"android":"levelo://app?vid=89aed59f-866e-4768-b8b5-54548cd7d320","ios":"levelo://app?vid=89aed59f-866e-4768-b8b5-54548cd7d320"},"vehicle_type_id":"4","last_reported":1751901009,"current_range_meters":17200,"station_id":"st_cvj5dfep6f1abm77gieg","pricing_plan_id":"cebpf4jnsgd1na2vs0mg"},{"bike_id":"43d0a216-171e-45fe-88be-8650fec68cf8","system_id":"levelo_inurba_marseille","lat":43.21182,"lon":5.35081,"is_reserved":false,"is_disabled":false,"rental_uris":{"android":"levelo://app?vid=43d0a216-171e-45fe-88be-8650fec68cf8","ios":"levelo://app?vid=43d0a216-171e-45fe-88be-8650fec68cf8"},"vehicle_type_id":"4","last_reported":1751901009,"current_range_meters":17200,"station_id":"st_cvj6sg6p6f1abm77japg","pricing_plan_id":"cebpf4jnsgd1na2vs0mg"},{"bike_id":"6a3a3e65-1839-43d5-b574-3a73e4e32dac","system_id":"levelo_inurba_marseille","lat":43.32321,"lon":5.3887,"is_reserved":false,"is_disabled":false,"rental_uris":{"android":"levelo://app?vid=6a3a3e65-1839-43d5-b574-3a73e4e32dac","ios":"levelo://app?vid=6a3a3e65-1839-43d5-b574-3a73e4e32dac"},"vehicle_type_id":"4","last_reported":1751901009,"current_range_meters":17600,"station_id":"","pricing_plan_id":"cebpf4jnsgd1na2vs0mg"},{"bike_id":"888522e3-39b6-4ff3-ad74-ff6c6f771157","system_id":"levelo_inurba_marseille","lat":43.29483,"lon":5.40291,"is_reserved":false,"is_disabled":false,"rental_uris":{"android":"levelo://app?vid=888522e3-39b6-4ff3-ad74-ff6c6f771157","ios":"levelo://app?vid=888522e3-39b6-4ff3-ad74-ff6c6f771157"},"vehicle_type_id":"4","last_reported":1751901009,"current_range_meters":17600,"station_id":"","pricing_plan_id":"cebpf4jnsgd1na2vs0mg"},{"bike_id":"8646fc02-2545-4bf1-a1af-b2761b5cce35","system_id":"levelo_inurba_marseille","lat":43.299713,"lon":5.385078,"is_reserved":false,"is_disabled":false,"rental_uris":{"android":"levelo://app?vid=8646fc02-2545-4bf1-a1af-b2761b5cce35","ios":"levelo://app?vid=8646fc02-2545-4bf1-a1af-b2761b5cce35"},"vehicle_type_id":"4","last_reported":1751901009,"current_range_meters":17600,"station_id":"ce4bgj92rcd13ifvqbd0","pricing_plan_id":"cebpf4jnsgd1na2vs0mg"},{"bike_id":"c8810e8f-2a78-4a6d-8cb6-3d76e1b529a8","system_id":"levelo_inurba_marseille","lat":43.30521,"lon":5.36692,"is_reserved":false,"is_disabled":false,"rental_uris":{"android":"levelo://app?vid=c8810e8f-2a78-4a6d-8cb6-3d76e1b529a8","ios":"levelo://app?vid=c8810e8f-2a78-4a6d-8cb6-3d76e1b529a8"},"vehicle_type_id":"4","last_reported":1751901009,"current_range_meters":17600,"station_id":"ce4bgrp2rcd13ifvqc9g","pricing_plan_id":"cebpf4jnsgd1na2vs0mg"},{"bike_id":"af9b831d-ac66-4200-a236-e03a3856e197","system_id":"levelo_inurba_marseille","lat":43.30949,"lon":5.39028,"is_reserved":false,"is_disabled":false,"rental_uris":{"android":"levelo://app?vid=af9b831d-ac66-4200-a236-e03a3856e197","ios":"levelo://app?vid=af9b831d-ac66-4200-a236-e03a3856e197"},"vehicle_type_id":"4","last_reported":1751901009,"current_range_meters":17600,"station_id":"ce4bgup2rcd13ifvqco0","pricing_plan_id":"cebpf4jnsgd1na2vs0mg"},{"bike_id":"a19af955-9f5f-4ebf-9657-f7a0141cb78d","system_id":"levelo_inurba_marseille","lat":43.28401,"lon":5.35013,"is_reserved":false,"is_disabled":false,"rental_uris":{"android":"levelo://app?vid=a19af955-9f5f-4ebf-9657-f7a0141cb78d","ios":"levelo://app?vid=a19af955-9f5f-4ebf-9657-f7a0141cb78d"},"vehicle_type_id":"4","last_reported":1751901009,"current_range_meters":17600,"station_id":"ce4bhbh2rcd13ifvqepg","pricing_plan_id":"cebpf4jnsgd1na2vs0mg"},{"bike_id":"58919c01-b5a4-4295-a07b-2bd2527adb0f","system_id":"levelo_inurba_marseille","lat":43.24806,"lon":5.37455,"is_reserved":false,"is_disabled":false,"rental_uris":{"android":"levelo://app?vid=58919c01-b5a4-4295-a07b-2bd2527adb0f","ios":"levelo://app?vid=58919c01-b5a4-4295-a07b-2bd2527adb0f"},"vehicle_type_id":"4","last_reported":1751901009,"current_range_meters":17600,"station_id":"ce4bhgh2rcd13ifvqfb0","pricing_plan_id":"cebpf4jnsgd1na2vs0mg"},{"bike_id":"13d47dd2-c6ed-4ec0-8711-f7be504eed68","system_id":"levelo_inurba_marseille","lat":43.25492,"lon":5.3765,"is_reserved":false,"is_disabled":false,"rental_uris":{"android":"levelo://app?vid=13d47dd2-c6ed-4ec0-8711-f7be504eed68","ios":"levelo://app?vid=13d47dd2-c6ed-4ec0-8711-f7be504eed68"},"vehicle_type_id":"4","last_reported":1751901009,"current_range_meters":17600,"station_id":"ce4bhh12rcd13ifvqff0","pricing_plan_id":"cebpf4jnsgd1na2vs0mg"},{"bike_id":"712e01ee-603e-4052-888c-c9e080734058","system_id":"levelo_inurba_marseille","lat":43.27807,"lon":5.40706,"is_reserved":false,"is_disabled":false,"rental_uris":{"android":"levelo://app?vid=712e01ee-603e-4052-888c-c9e080734058","ios":"levelo://app?vid=712e01ee-603e-4052-888c-c9e080734058"},"vehicle_type_id":"4","last_reported":1751901009,"current_range_meters":17600,"station_id":"ce4bhnh2rcd13ifvqgtg","pricing_plan_id":"cebpf4jnsgd1na2vs0mg"},{"bike_id":"d5ef770d-9759-47e3-b3a5-7d2785ef76db","system_id":"levelo_inurba_marseille","lat":43.32929,"lon":5.39031,"is_reserved":false,"is_disabled":false,"rental_uris":{"android":"levelo://app?vid=d5ef770d-9759-47e3-b3a5-7d2785ef76db","ios":"levelo://app?vid=d5ef770d-9759-47e3-b3a5-7d2785ef76db"},"vehicle_type_id":"4","last_reported":1751901009,"current_range_meters":18000,"station_id":"","pricing_plan_id":"cebpf4jnsgd1na2vs0mg"},{"bike_id":"afd2c671-b274-4716-95f7-9abfdfc6dc55","system_id":"levelo_inurba_marseille","lat":43.314,"lon":5.37543,"is_reserved":false,"is_disabled":false,"rental_uris":{"android":"levelo://app?vid=afd2c671-b274-4716-95f7-9abfdfc6dc55","ios":"levelo://app?vid=afd2c671-b274-4716-95f7-9abfdfc6dc55"},"vehicle_type_id":"4","last_reported":1751901009,"current_range_meters":18000,"station_id":"","pricing_plan_id":"cebpf4jnsgd1na2vs0mg"},{"bike_id":"0df513a5-66af-4575-9c13-0844e112b6d9","system_id":"levelo_inurba_marseille","lat":43.30183,"lon":5.38113,"is_reserved":false,"is_disabled":false,"rental_uris":{"android":"levelo://app?vid=0df513a5-66af-4575-9c13-0844e112b6d9","ios":"levelo://app?vid=0df513a5-66af-4575-9c13-0844e112b6d9"},"vehicle_type_id":"4","last_reported":1751901009,"current_range_meters":18000,"station_id":"ce4bgjp2rcd13ifvqbh0","pricing_plan_id":"cebpf4jnsgd1na2vs0mg"},{"bike_id":"e92b287d-d096-41e8-a8dc-5a20d4e20f73","system_id":"levelo_inurba_marseille","lat":43.28849,"lon":5.35846,"is_reserved":false,"is_disabled":false,"rental_uris":{"android":"levelo://app?vid=e92b287d-d096-41e8-a8dc-5a20d4e20f73","ios":"levelo://app?vid=e92b287d-d096-41e8-a8dc-5a20d4e20f73"},"vehicle_type_id":"4","last_reported":1751901009,"current_range_meters":18000,"station_id":"ce4bhb12rcd13ifvqem0","pricing_plan_id":"cebpf4jnsgd1na2vs0mg"},{"bike_id":"5f663f1f-def5-40cc-9abe-924bd04570e3","system_id":"levelo_inurba_marseille","lat":43.28423,"lon":5.34984,"is_reserved":false,"is_disabled":false,"rental_uris":{"android":"levelo://app?vid=5f663f1f-def5-40cc-9abe-924bd04570e3","ios":"levelo://app?vid=5f663f1f-def5-40cc-9abe-924bd04570e3"},"vehicle_type_id":"4","last_reported":1751901009,"current_range_meters":18000,"station_id":"ce4bhbh2rcd13ifvqepg","pricing_plan_id":"cebpf4jnsgd1na2vs0mg"},{"bike_id":"711f76fd-915e-4a5e-add7-3bebf4653905","system_id":"levelo_inurba_marseille","lat":43.28283,"lon":5.35072,"is_reserved":false,"is_disabled":false,"rental_uris":{"android":"levelo://app?vid=711f76fd-915e-4a5e-add7-3bebf4653905","ios":"levelo://app?vid=711f76fd-915e-4a5e-add7-3bebf4653905"},"vehicle_type_id":"4","last_reported":1751901009,"current_range_meters":18000,"station_id":"ce4bhbp2rcd13ifvqerg","pricing_plan_id":"cebpf4jnsgd1na2vs0mg"},{"bike_id":"5f0cb5fa-5d79-44ba-96b7-1fc05932b63e","system_id":"levelo_inurba_marseille","lat":43.282497,"lon":5.350719,"is_reserved":false,"is_disabled":false,"rental_uris":{"android":"levelo://app?vid=5f0cb5fa-5d79-44ba-96b7-1fc05932b63e","ios":"levelo://app?vid=5f0cb5fa-5d79-44ba-96b7-1fc05932b63e"},"vehicle_type_id":"4","last_reported":1751901009,"current_range_meters":18000,"station_id":"ce4bhbp2rcd13ifvqerg","pricing_plan_id":"cebpf4jnsgd1na2vs0mg"},{"bike_id":"4aac4324-1577-40ed-816f-92c6a9b0cce1","system_id":"levelo_inurba_marseille","lat":43.28418,"lon":5.392,"is_reserved":false,"is_disabled":false,"rental_uris":{"android":"levelo://app?vid=4aac4324-1577-40ed-816f-92c6a9b0cce1","ios":"levelo://app?vid=4aac4324-1577-40ed-816f-92c6a9b0cce1"},"vehicle_type_id":"4","last_reported":1751901009,"current_range_meters":18000,"station_id":"ce4bhoh2rcd13ifvqh5g","pricing_plan_id":"cebpf4jnsgd1na2vs0mg"},{"bike_id":"dfc26081-69aa-435b-b372-39f14b00e6fb","system_id":"levelo_inurba_marseille","lat":43.3173,"lon":5.43694,"is_reserved":false,"is_disabled":false,"rental_uris":{"android":"levelo://app?vid=dfc26081-69aa-435b-b372-39f14b00e6fb","ios":"levelo://app?vid=dfc26081-69aa-435b-b372-39f14b00e6fb"},"vehicle_type_id":"4","last_reported":1751901009,"current_range_meters":18000,"station_id":"ce4bhp92rcd13ifvqhcg","pricing_plan_id":"cebpf4jnsgd1na2vs0mg"},{"bike_id":"084f14d4-0bc9-446c-902e-a4f3b90135fe","system_id":"levelo_inurba_marseille","lat":43.32419,"lon":5.42911,"is_reserved":false,"is_disabled":false,"rental_uris":{"android":"levelo://app?vid=084f14d4-0bc9-446c-902e-a4f3b90135fe","ios":"levelo://app?vid=084f14d4-0bc9-446c-902e-a4f3b90135fe"},"vehicle_type_id":"4","last_reported":1751901009,"current_range_meters":18800,"station_id":"","pricing_plan_id":"cebpf4jnsgd1na2vs0mg"},{"bike_id":"9db15efa-62b5-43dc-beab-14a16c0840b9","system_id":"levelo_inurba_marseille","lat":43.304524,"lon":5.415534,"is_reserved":false,"is_disabled":false,"rental_uris":{"android":"levelo://app?vid=9db15efa-62b5-43dc-beab-14a16c0840b9","ios":"levelo://app?vid=9db15efa-62b5-43dc-beab-14a16c0840b9"},"vehicle_type_id":"4","last_reported":1751901009,"current_range_meters":18800,"station_id":"","pricing_plan_id":"cebpf4jnsgd1na2vs0mg"},{"bike_id":"d2855e0b-d67b-4b9e-8627-2397f7815067","system_id":"levelo_inurba_marseille","lat":43.30548,"lon":5.36554,"is_reserved":false,"is_disabled":false,"rental_uris":{"android":"levelo://app?vid=d2855e0b-d67b-4b9e-8627-2397f7815067","ios":"levelo://app?vid=d2855e0b-d67b-4b9e-8627-2397f7815067"},"vehicle_type_id":"4","last_reported":1751901009,"current_range_meters":18800,"station_id":"ce4bgs12rcd13ifvqcag","pricing_plan_id":"cebpf4jnsgd1na2vs0mg"},{"bike_id":"a12b7085-fa59-4623-92a6-43642bb30b0f","system_id":"levelo_inurba_marseille","lat":43.30647,"lon":5.401,"is_reserved":false,"is_disabled":false,"rental_uris":{"android":"levelo://app?vid=a12b7085-fa59-4623-92a6-43642bb30b0f","ios":"levelo://app?vid=a12b7085-fa59-4623-92a6-43642bb30b0f"},"vehicle_type_id":"4","last_reported":1751901009,"current_range_meters":18800,"station_id":"ce4bh112rcd13ifvqda0","pricing_plan_id":"cebpf4jnsgd1na2vs0mg"},{"bike_id":"8b4cd8f1-0be1-4344-9139-da701a0d6f7d","system_id":"levelo_inurba_marseille","lat":43.28721,"lon":5.37944,"is_reserved":false,"is_disabled":false,"rental_uris":{"android":"levelo://app?vid=8b4cd8f1-0be1-4344-9139-da701a0d6f7d","ios":"levelo://app?vid=8b4cd8f1-0be1-4344-9139-da701a0d6f7d"},"vehicle_type_id":"4","last_reported":1751901009,"current_range_meters":18800,"station_id":"ce4bh9p2rcd13ifvqec0","pricing_plan_id":"cebpf4jnsgd1na2vs0mg"},{"bike_id":"94bcf33e-82ca-43a2-8282-77d86a0f06b7","system_id":"levelo_inurba_marseille","lat":43.260589,"lon":5.393964,"is_reserved":false,"is_disabled":false,"rental_uris":{"android":"levelo://app?vid=94bcf33e-82ca-43a2-8282-77d86a0f06b7","ios":"levelo://app?vid=94bcf33e-82ca-43a2-8282-77d86a0f06b7"},"vehicle_type_id":"4","last_reported":1751901009,"current_range_meters":18800,"station_id":"ce4bhh92rcd13ifvqfj0","pricing_plan_id":"cebpf4jnsgd1na2vs0mg"},{"bike_id":"a53c7279-83a0-4c8b-888f-e8653560d40f","system_id":"levelo_inurba_marseille","lat":43.21756,"lon":5.34612,"is_reserved":false,"is_disabled":false,"rental_uris":{"android":"levelo://app?vid=a53c7279-83a0-4c8b-888f-e8653560d40f","ios":"levelo://app?vid=a53c7279-83a0-4c8b-888f-e8653560d40f"},"vehicle_type_id":"4","last_reported":1751901009,"current_range_meters":18800,"station_id":"st_cvj6r9ubvosntc0bgbag","pricing_plan_id":"cebpf4jnsgd1na2vs0mg"},{"bike_id":"51890362-46b0-4ee7-9f02-afbf036d064e","system_id":"levelo_inurba_marseille","lat":43.212166,"lon":5.350731,"is_reserved":false,"is_disabled":false,"rental_uris":{"android":"levelo://app?vid=51890362-46b0-4ee7-9f02-afbf036d064e","ios":"levelo://app?vid=51890362-46b0-4ee7-9f02-afbf036d064e"},"vehicle_type_id":"4","last_reported":1751901009,"current_range_meters":18800,"station_id":"st_cvj6sg6p6f1abm77japg","pricing_plan_id":"cebpf4jnsgd1na2vs0mg"},{"bike_id":"87c2d236-4978-4760-be77-27d7f5a212e4","system_id":"levelo_inurba_marseille","lat":43.29644,"lon":5.36205,"is_reserved":false,"is_disabled":false,"rental_uris":{"android":"levelo://app?vid=87c2d236-4978-4760-be77-27d7f5a212e4","ios":"levelo://app?vid=87c2d236-4978-4760-be77-27d7f5a212e4"},"vehicle_type_id":"4","last_reported":1751901009,"current_range_meters":19200,"station_id":"","pricing_plan_id":"cebpf4jnsgd1na2vs0mg"},{"bike_id":"3c35c1cb-c3a7-4f8d-81dc-c78b3d7ef6f7","system_id":"levelo_inurba_marseille","lat":43.31193,"lon":5.37265,"is_reserved":false,"is_disabled":false,"rental_uris":{"android":"levelo://app?vid=3c35c1cb-c3a7-4f8d-81dc-c78b3d7ef6f7","ios":"levelo://app?vid=3c35c1cb-c3a7-4f8d-81dc-c78b3d7ef6f7"},"vehicle_type_id":"4","last_reported":1751901009,"current_range_meters":19200,"station_id":"","pricing_plan_id":"cebpf4jnsgd1na2vs0mg"},{"bike_id":"cd921873-e060-4800-a6eb-05ae1b62a4cb","system_id":"levelo_inurba_marseille","lat":43.312279,"lon":5.369112,"is_reserved":false,"is_disabled":false,"rental_uris":{"android":"levelo://app?vid=cd921873-e060-4800-a6eb-05ae1b62a4cb","ios":"levelo://app?vid=cd921873-e060-4800-a6eb-05ae1b62a4cb"},"vehicle_type_id":"4","last_reported":1751901009,"current_range_meters":19200,"station_id":"ce4bgl92rcd13ifvqbq0","pricing_plan_id":"cebpf4jnsgd1na2vs0mg"},{"bike_id":"801010f3-3933-4c1e-b9e2-ddb04e16be7c","system_id":"levelo_inurba_marseille","lat":43.29933,"lon":5.36555,"is_reserved":false,"is_disabled":false,"rental_uris":{"android":"levelo://app?vid=801010f3-3933-4c1e-b9e2-ddb04e16be7c","ios":"levelo://app?vid=801010f3-3933-4c1e-b9e2-ddb04e16be7c"},"vehicle_type_id":"4","last_reported":1751901009,"current_range_meters":19200,"station_id":"ce4bgm92rcd13ifvqbr0","pricing_plan_id":"cebpf4jnsgd1na2vs0mg"},{"bike_id":"74d1dd5c-9f07-4c49-948a-3ae0ce476859","system_id":"levelo_inurba_marseille","lat":43.3057,"lon":5.36713,"is_reserved":false,"is_disabled":false,"rental_uris":{"android":"levelo://app?vid=74d1dd5c-9f07-4c49-948a-3ae0ce476859","ios":"levelo://app?vid=74d1dd5c-9f07-4c49-948a-3ae0ce476859"},"vehicle_type_id":"4","last_reported":1751901009,"current_range_meters":19200,"station_id":"ce4bgrp2rcd13ifvqc9g","pricing_plan_id":"cebpf4jnsgd1na2vs0mg"},{"bike_id":"3a0111ed-bfea-4506-9089-de60cab9bbc9","system_id":"levelo_inurba_marseille","lat":43.30565,"lon":5.36533,"is_reserved":false,"is_disabled":false,"rental_uris":{"android":"levelo://app?vid=3a0111ed-bfea-4506-9089-de60cab9bbc9","ios":"levelo://app?vid=3a0111ed-bfea-4506-9089-de60cab9bbc9"},"vehicle_type_id":"4","last_reported":1751901009,"current_range_meters":19200,"station_id":"ce4bgs12rcd13ifvqcag","pricing_plan_id":"cebpf4jnsgd1na2vs0mg"},{"bike_id":"f29e2acb-16bc-417b-b07b-e0cdcfa35a04","system_id":"levelo_inurba_marseille","lat":43.292949,"lon":5.385434,"is_reserved":false,"is_disabled":false,"rental_uris":{"android":"levelo://app?vid=f29e2acb-16bc-417b-b07b-e0cdcfa35a04","ios":"levelo://app?vid=f29e2acb-16bc-417b-b07b-e0cdcfa35a04"},"vehicle_type_id":"4","last_reported":1751901009,"current_range_meters":19200,"station_id":"ce4bh312rcd13ifvqdj0","pricing_plan_id":"cebpf4jnsgd1na2vs0mg"},{"bike_id":"83a73923-c5ac-405f-81fe-76599055ac84","system_id":"levelo_inurba_marseille","lat":43.28712,"lon":5.36098,"is_reserved":false,"is_disabled":false,"rental_uris":{"android":"levelo://app?vid=83a73923-c5ac-405f-81fe-76599055ac84","ios":"levelo://app?vid=83a73923-c5ac-405f-81fe-76599055ac84"},"vehicle_type_id":"4","last_reported":1751901009,"current_range_meters":19200,"station_id":"cki0cbj6b192h4jlfktg","pricing_plan_id":"cebpf4jnsgd1na2vs0mg"},{"bike_id":"24fc3018-ddad-4b4f-8536-a83df26e6ce6","system_id":"levelo_inurba_marseille","lat":43.22505,"lon":5.34781,"is_reserved":false,"is_disabled":false,"rental_uris":{"android":"levelo://app?vid=24fc3018-ddad-4b4f-8536-a83df26e6ce6","ios":"levelo://app?vid=24fc3018-ddad-4b4f-8536-a83df26e6ce6"},"vehicle_type_id":"4","last_reported":1751901009,"current_range_meters":19200,"station_id":"st_cvj5dfep6f1abm77gieg","pricing_plan_id":"cebpf4jnsgd1na2vs0mg"},{"bike_id":"786ba7b8-ab7e-4386-b568-0367c772d553","system_id":"levelo_inurba_marseille","lat":43.29724,"lon":5.36629,"is_reserved":false,"is_disabled":false,"rental_uris":{"android":"levelo://app?vid=786ba7b8-ab7e-4386-b568-0367c772d553","ios":"levelo://app?vid=786ba7b8-ab7e-4386-b568-0367c772d553"},"vehicle_type_id":"4","last_reported":1751901009,"current_range_meters":19600,"station_id":"ce4bgn12rcd13ifvqbt0","pricing_plan_id":"cebpf4jnsgd1na2vs0mg"},{"bike_id":"52688825-f4d7-4e9a-827f-efecf9584e95","system_id":"levelo_inurba_marseille","lat":43.23966,"lon":5.36632,"is_reserved":false,"is_disabled":false,"rental_uris":{"android":"levelo://app?vid=52688825-f4d7-4e9a-827f-efecf9584e95","ios":"levelo://app?vid=52688825-f4d7-4e9a-827f-efecf9584e95"},"vehicle_type_id":"4","last_reported":1751901009,"current_range_meters":19600,"station_id":"ce4bhi12rcd13ifvqfp0","pricing_plan_id":"cebpf4jnsgd1na2vs0mg"},{"bike_id":"d2a7da96-9e7d-4ea9-920f-6c15d592fbc0","system_id":"levelo_inurba_marseille","lat":43.27998,"lon":5.40008,"is_reserved":false,"is_disabled":false,"rental_uris":{"android":"levelo://app?vid=d2a7da96-9e7d-4ea9-920f-6c15d592fbc0","ios":"levelo://app?vid=d2a7da96-9e7d-4ea9-920f-6c15d592fbc0"},"vehicle_type_id":"4","last_reported":1751901009,"current_range_meters":19600,"station_id":"ce4bho92rcd13ifvqh4g","pricing_plan_id":"cebpf4jnsgd1na2vs0mg"},{"bike_id":"769c6a18-ecc4-4300-88c9-e25207dcf366","system_id":"levelo_inurba_marseille","lat":43.31991,"lon":5.38172,"is_reserved":false,"is_disabled":false,"rental_uris":{"android":"levelo://app?vid=769c6a18-ecc4-4300-88c9-e25207dcf366","ios":"levelo://app?vid=769c6a18-ecc4-4300-88c9-e25207dcf366"},"vehicle_type_id":"4","last_reported":1751901009,"current_range_meters":19600,"station_id":"ce4bhr12rcd13ifvqhpg","pricing_plan_id":"cebpf4jnsgd1na2vs0mg"},{"bike_id":"70ab24e6-8b5b-41e9-948d-483273272777","system_id":"levelo_inurba_marseille","lat":43.29711,"lon":5.36574,"is_reserved":false,"is_disabled":false,"rental_uris":{"android":"levelo://app?vid=70ab24e6-8b5b-41e9-948d-483273272777","ios":"levelo://app?vid=70ab24e6-8b5b-41e9-948d-483273272777"},"vehicle_type_id":"4","last_reported":1751901009,"current_range_meters":20000,"station_id":"ce4bgn12rcd13ifvqbt0","pricing_plan_id":"cebpf4jnsgd1na2vs0mg"},{"bike_id":"9509211c-1f4c-4c0e-a99f-eb624ca0357a","system_id":"levelo_inurba_marseille","lat":43.26213,"lon":5.37451,"is_reserved":false,"is_disabled":false,"rental_uris":{"android":"levelo://app?vid=9509211c-1f4c-4c0e-a99f-eb624ca0357a","ios":"levelo://app?vid=9509211c-1f4c-4c0e-a99f-eb624ca0357a"},"vehicle_type_id":"4","last_reported":1751901009,"current_range_meters":20000,"station_id":"ce4bhgp2rcd13ifvqfc0","pricing_plan_id":"cebpf4jnsgd1na2vs0mg"},{"bike_id":"d61f5336-9ae0-4cfe-a617-7e271f85a0da","system_id":"levelo_inurba_marseille","lat":43.25105,"lon":5.40321,"is_reserved":false,"is_disabled":false,"rental_uris":{"android":"levelo://app?vid=d61f5336-9ae0-4cfe-a617-7e271f85a0da","ios":"levelo://app?vid=d61f5336-9ae0-4cfe-a617-7e271f85a0da"},"vehicle_type_id":"4","last_reported":1751901009,"current_range_meters":20000,"station_id":"ce4bhlh2rcd13ifvqgig","pricing_plan_id":"cebpf4jnsgd1na2vs0mg"},{"bike_id":"5959f819-01d5-46f4-8020-5607ae97d978","system_id":"levelo_inurba_marseille","lat":43.24168,"lon":5.36381,"is_reserved":false,"is_disabled":false,"rental_uris":{"android":"levelo://app?vid=5959f819-01d5-46f4-8020-5607ae97d978","ios":"levelo://app?vid=5959f819-01d5-46f4-8020-5607ae97d978"},"vehicle_type_id":"4","last_reported":1751901009,"current_range_meters":20000,"station_id":"cpo36qri1sfpv3e86is0","pricing_plan_id":"cebpf4jnsgd1na2vs0mg"},{"bike_id":"a7c9f70f-9a0d-416c-b8fd-c3c4e2af0fcb","system_id":"levelo_inurba_marseille","lat":43.21761,"lon":5.34603,"is_reserved":false,"is_disabled":false,"rental_uris":{"android":"levelo://app?vid=a7c9f70f-9a0d-416c-b8fd-c3c4e2af0fcb","ios":"levelo://app?vid=a7c9f70f-9a0d-416c-b8fd-c3c4e2af0fcb"},"vehicle_type_id":"4","last_reported":1751901009,"current_range_meters":20000,"station_id":"st_cvj6r9ubvosntc0bgbag","pricing_plan_id":"cebpf4jnsgd1na2vs0mg"},{"bike_id":"07b9aff5-08a0-469c-bcbc-1cf07d0dfc7c","system_id":"levelo_inurba_marseille","lat":43.29533,"lon":5.38546,"is_reserved":false,"is_disabled":false,"rental_uris":{"android":"levelo://app?vid=07b9aff5-08a0-469c-bcbc-1cf07d0dfc7c","ios":"levelo://app?vid=07b9aff5-08a0-469c-bcbc-1cf07d0dfc7c"},"vehicle_type_id":"4","last_reported":1751901009,"current_range_meters":20400,"station_id":"ce4bgih2rcd13ifvqba0","pricing_plan_id":"cebpf4jnsgd1na2vs0mg"},{"bike_id":"80180366-3fea-4ccd-8101-a3858d53d3f4","system_id":"levelo_inurba_marseille","lat":43.29437,"lon":5.39749,"is_reserved":false,"is_disabled":false,"rental_uris":{"android":"levelo://app?vid=80180366-3fea-4ccd-8101-a3858d53d3f4","ios":"levelo://app?vid=80180366-3fea-4ccd-8101-a3858d53d3f4"},"vehicle_type_id":"4","last_reported":1751901009,"current_range_meters":20400,"station_id":"ce4bh3h2rcd13ifvqdo0","pricing_plan_id":"cebpf4jnsgd1na2vs0mg"},{"bike_id":"0cc3231e-ffee-4111-bbf5-1fd80b1e8f64","system_id":"levelo_inurba_marseille","lat":43.28855,"lon":5.35848,"is_reserved":false,"is_disabled":false,"rental_uris":{"android":"levelo://app?vid=0cc3231e-ffee-4111-bbf5-1fd80b1e8f64","ios":"levelo://app?vid=0cc3231e-ffee-4111-bbf5-1fd80b1e8f64"},"vehicle_type_id":"4","last_reported":1751901009,"current_range_meters":20400,"station_id":"ce4bhb12rcd13ifvqem0","pricing_plan_id":"cebpf4jnsgd1na2vs0mg"},{"bike_id":"2695c39e-6304-4770-aa91-558309af57af","system_id":"levelo_inurba_marseille","lat":43.28,"lon":5.40005,"is_reserved":false,"is_disabled":false,"rental_uris":{"android":"levelo://app?vid=2695c39e-6304-4770-aa91-558309af57af","ios":"levelo://app?vid=2695c39e-6304-4770-aa91-558309af57af"},"vehicle_type_id":"4","last_reported":1751901009,"current_range_meters":20400,"station_id":"ce4bho92rcd13ifvqh4g","pricing_plan_id":"cebpf4jnsgd1na2vs0mg"},{"bike_id":"35d41f41-e942-42c5-97f1-40ccdd96f7a4","system_id":"levelo_inurba_marseille","lat":43.21187,"lon":5.35087,"is_reserved":false,"is_disabled":false,"rental_uris":{"android":"levelo://app?vid=35d41f41-e942-42c5-97f1-40ccdd96f7a4","ios":"levelo://app?vid=35d41f41-e942-42c5-97f1-40ccdd96f7a4"},"vehicle_type_id":"4","last_reported":1751901009,"current_range_meters":20400,"station_id":"st_cvj6sg6p6f1abm77japg","pricing_plan_id":"cebpf4jnsgd1na2vs0mg"},{"bike_id":"07eb0c0b-76b8-4586-976a-21fc215d5e74","system_id":"levelo_inurba_marseille","lat":43.29603,"lon":5.38102,"is_reserved":false,"is_disabled":false,"rental_uris":{"android":"levelo://app?vid=07eb0c0b-76b8-4586-976a-21fc215d5e74","ios":"levelo://app?vid=07eb0c0b-76b8-4586-976a-21fc215d5e74"},"vehicle_type_id":"4","last_reported":1751901009,"current_range_meters":20800,"station_id":"ce4bgl12rcd13ifvqbo0","pricing_plan_id":"cebpf4jnsgd1na2vs0mg"},{"bike_id":"a8186e13-8322-472a-8a33-490343db9ddd","system_id":"levelo_inurba_marseille","lat":43.308855,"lon":5.37218,"is_reserved":false,"is_disabled":false,"rental_uris":{"android":"levelo://app?vid=a8186e13-8322-472a-8a33-490343db9ddd","ios":"levelo://app?vid=a8186e13-8322-472a-8a33-490343db9ddd"},"vehicle_type_id":"4","last_reported":1751901009,"current_range_meters":20800,"station_id":"ce4bguh2rcd13ifvqckg","pricing_plan_id":"cebpf4jnsgd1na2vs0mg"},{"bike_id":"a1a03eeb-7606-41cf-aec8-db5f2d145441","system_id":"levelo_inurba_marseille","lat":43.2738,"lon":5.36257,"is_reserved":false,"is_disabled":false,"rental_uris":{"android":"levelo://app?vid=a1a03eeb-7606-41cf-aec8-db5f2d145441","ios":"levelo://app?vid=a1a03eeb-7606-41cf-aec8-db5f2d145441"},"vehicle_type_id":"4","last_reported":1751901009,"current_range_meters":20800,"station_id":"ce4bhbh2rcd13ifvqeo0","pricing_plan_id":"cebpf4jnsgd1na2vs0mg"},{"bike_id":"ea7df389-5dc0-4c58-88fe-80a5af035925","system_id":"levelo_inurba_marseille","lat":43.29884,"lon":5.36435,"is_reserved":false,"is_disabled":false,"rental_uris":{"android":"levelo://app?vid=ea7df389-5dc0-4c58-88fe-80a5af035925","ios":"levelo://app?vid=ea7df389-5dc0-4c58-88fe-80a5af035925"},"vehicle_type_id":"4","last_reported":1751901009,"current_range_meters":21600,"station_id":"","pricing_plan_id":"cebpf4jnsgd1na2vs0mg"},{"bike_id":"58a0fa41-623f-4946-87d3-e4fa1ae90c9b","system_id":"levelo_inurba_marseille","lat":43.29505,"lon":5.39407,"is_reserved":false,"is_disabled":false,"rental_uris":{"android":"levelo://app?vid=58a0fa41-623f-4946-87d3-e4fa1ae90c9b","ios":"levelo://app?vid=58a0fa41-623f-4946-87d3-e4fa1ae90c9b"},"vehicle_type_id":"4","last_reported":1751901009,"current_range_meters":21600,"station_id":"ce4bh292rcd13ifvqdf0","pricing_plan_id":"cebpf4jnsgd1na2vs0mg"},{"bike_id":"aae0d726-557c-4828-aa4f-42721fe0ee57","system_id":"levelo_inurba_marseille","lat":43.29427,"lon":5.39766,"is_reserved":false,"is_disabled":false,"rental_uris":{"android":"levelo://app?vid=aae0d726-557c-4828-aa4f-42721fe0ee57","ios":"levelo://app?vid=aae0d726-557c-4828-aa4f-42721fe0ee57"},"vehicle_type_id":"4","last_reported":1751901009,"current_range_meters":21600,"station_id":"ce4bh3h2rcd13ifvqdo0","pricing_plan_id":"cebpf4jnsgd1na2vs0mg"},{"bike_id":"b0ac3c78-5e7c-409d-be77-709231f5a2f2","system_id":"levelo_inurba_marseille","lat":43.28027,"lon":5.36949,"is_reserved":false,"is_disabled":false,"rental_uris":{"android":"levelo://app?vid=b0ac3c78-5e7c-409d-be77-709231f5a2f2","ios":"levelo://app?vid=b0ac3c78-5e7c-409d-be77-709231f5a2f2"},"vehicle_type_id":"4","last_reported":1751901009,"current_range_meters":21600,"station_id":"ce4bha12rcd13ifvqef0","pricing_plan_id":"cebpf4jnsgd1na2vs0mg"},{"bike_id":"4e93327e-5a5d-4239-8efe-dba9a7098506","system_id":"levelo_inurba_marseille","lat":43.2737,"lon":5.36258,"is_reserved":false,"is_disabled":false,"rental_uris":{"android":"levelo://app?vid=4e93327e-5a5d-4239-8efe-dba9a7098506","ios":"levelo://app?vid=4e93327e-5a5d-4239-8efe-dba9a7098506"},"vehicle_type_id":"4","last_reported":1751901009,"current_range_meters":21600,"station_id":"ce4bhbh2rcd13ifvqeo0","pricing_plan_id":"cebpf4jnsgd1na2vs0mg"},{"bike_id":"f773ebc2-8912-4539-9156-9719f3ff1e1d","system_id":"levelo_inurba_marseille","lat":43.284087,"lon":5.349957,"is_reserved":false,"is_disabled":false,"rental_uris":{"android":"levelo://app?vid=f773ebc2-8912-4539-9156-9719f3ff1e1d","ios":"levelo://app?vid=f773ebc2-8912-4539-9156-9719f3ff1e1d"},"vehicle_type_id":"4","last_reported":1751901009,"current_range_meters":21600,"station_id":"ce4bhbh2rcd13ifvqepg","pricing_plan_id":"cebpf4jnsgd1na2vs0mg"},{"bike_id":"da3c16a7-1722-44ec-a60c-bdcaac1fbdad","system_id":"levelo_inurba_marseille","lat":43.28619,"lon":5.35109,"is_reserved":false,"is_disabled":false,"rental_uris":{"android":"levelo://app?vid=da3c16a7-1722-44ec-a60c-bdcaac1fbdad","ios":"levelo://app?vid=da3c16a7-1722-44ec-a60c-bdcaac1fbdad"},"vehicle_type_id":"4","last_reported":1751901009,"current_range_meters":21600,"station_id":"ce4bhch2rcd13ifvqeug","pricing_plan_id":"cebpf4jnsgd1na2vs0mg"},{"bike_id":"dd104168-e5e9-4ed4-8d0a-20b4d0369d3d","system_id":"levelo_inurba_marseille","lat":43.255403,"lon":5.376361,"is_reserved":false,"is_disabled":false,"rental_uris":{"android":"levelo://app?vid=dd104168-e5e9-4ed4-8d0a-20b4d0369d3d","ios":"levelo://app?vid=dd104168-e5e9-4ed4-8d0a-20b4d0369d3d"},"vehicle_type_id":"4","last_reported":1751901009,"current_range_meters":21600,"station_id":"ce4bhh12rcd13ifvqff0","pricing_plan_id":"cebpf4jnsgd1na2vs0mg"},{"bike_id":"49ed7bda-465b-47ad-8f5e-76769a5d169c","system_id":"levelo_inurba_marseille","lat":43.24072,"lon":5.37753,"is_reserved":false,"is_disabled":false,"rental_uris":{"android":"levelo://app?vid=49ed7bda-465b-47ad-8f5e-76769a5d169c","ios":"levelo://app?vid=49ed7bda-465b-47ad-8f5e-76769a5d169c"},"vehicle_type_id":"4","last_reported":1751901009,"current_range_meters":21600,"station_id":"ce4bhnp2rcd13ifvqgvg","pricing_plan_id":"cebpf4jnsgd1na2vs0mg"},{"bike_id":"b287377f-3d0b-47ac-86fe-9e0dfc1563de","system_id":"levelo_inurba_marseille","lat":43.22509,"lon":5.34764,"is_reserved":false,"is_disabled":false,"rental_uris":{"android":"levelo://app?vid=b287377f-3d0b-47ac-86fe-9e0dfc1563de","ios":"levelo://app?vid=b287377f-3d0b-47ac-86fe-9e0dfc1563de"},"vehicle_type_id":"4","last_reported":1751901009,"current_range_meters":21600,"station_id":"st_cvj5dfep6f1abm77gieg","pricing_plan_id":"cebpf4jnsgd1na2vs0mg"},{"bike_id":"881123ab-e562-4bad-b7a8-75524d1a1bc7","system_id":"levelo_inurba_marseille","lat":43.31114,"lon":5.37772,"is_reserved":false,"is_disabled":false,"rental_uris":{"android":"levelo://app?vid=881123ab-e562-4bad-b7a8-75524d1a1bc7","ios":"levelo://app?vid=881123ab-e562-4bad-b7a8-75524d1a1bc7"},"vehicle_type_id":"4","last_reported":1751901009,"current_range_meters":22000,"station_id":"ce4bgt92rcd13ifvqcg0","pricing_plan_id":"cebpf4jnsgd1na2vs0mg"},{"bike_id":"a9c59747-c17d-455b-9dd9-df579fd010f9","system_id":"levelo_inurba_marseille","lat":43.29419,"lon":5.38614,"is_reserved":false,"is_disabled":false,"rental_uris":{"android":"levelo://app?vid=a9c59747-c17d-455b-9dd9-df579fd010f9","ios":"levelo://app?vid=a9c59747-c17d-455b-9dd9-df579fd010f9"},"vehicle_type_id":"4","last_reported":1751901009,"current_range_meters":22000,"station_id":"ce4bh2h2rcd13ifvqdh0","pricing_plan_id":"cebpf4jnsgd1na2vs0mg"},{"bike_id":"1497346e-0c8c-4d09-bf59-c8a6560e1a35","system_id":"levelo_inurba_marseille","lat":43.29004,"lon":5.35618,"is_reserved":false,"is_disabled":false,"rental_uris":{"android":"levelo://app?vid=1497346e-0c8c-4d09-bf59-c8a6560e1a35","ios":"levelo://app?vid=1497346e-0c8c-4d09-bf59-c8a6560e1a35"},"vehicle_type_id":"4","last_reported":1751901009,"current_range_meters":22000,"station_id":"ce4bhb92rcd13ifvqen0","pricing_plan_id":"cebpf4jnsgd1na2vs0mg"},{"bike_id":"6ec6d991-05db-4193-a8b3-dcfd8f81ab5a","system_id":"levelo_inurba_marseille","lat":43.30172,"lon":5.37627,"is_reserved":false,"is_disabled":false,"rental_uris":{"android":"levelo://app?vid=6ec6d991-05db-4193-a8b3-dcfd8f81ab5a","ios":"levelo://app?vid=6ec6d991-05db-4193-a8b3-dcfd8f81ab5a"},"vehicle_type_id":"4","last_reported":1751901009,"current_range_meters":22400,"station_id":"","pricing_plan_id":"cebpf4jnsgd1na2vs0mg"},{"bike_id":"a7a8967f-93b9-4f42-b088-18dbeb0e24b8","system_id":"levelo_inurba_marseille","lat":43.29534,"lon":5.38537,"is_reserved":false,"is_disabled":false,"rental_uris":{"android":"levelo://app?vid=a7a8967f-93b9-4f42-b088-18dbeb0e24b8","ios":"levelo://app?vid=a7a8967f-93b9-4f42-b088-18dbeb0e24b8"},"vehicle_type_id":"4","last_reported":1751901009,"current_range_meters":22400,"station_id":"ce4bgih2rcd13ifvqba0","pricing_plan_id":"cebpf4jnsgd1na2vs0mg"},{"bike_id":"603eaf1d-1ed2-49c6-9deb-f86f99ae1e08","system_id":"levelo_inurba_marseille","lat":43.30433,"lon":5.38885,"is_reserved":false,"is_disabled":false,"rental_uris":{"android":"levelo://app?vid=603eaf1d-1ed2-49c6-9deb-f86f99ae1e08","ios":"levelo://app?vid=603eaf1d-1ed2-49c6-9deb-f86f99ae1e08"},"vehicle_type_id":"4","last_reported":1751901009,"current_range_meters":22400,"station_id":"ce4bgk12rcd13ifvqbi0","pricing_plan_id":"cebpf4jnsgd1na2vs0mg"},{"bike_id":"a3e60d66-e458-4c1e-a184-d76f676481b3","system_id":"levelo_inurba_marseille","lat":43.30929,"lon":5.40144,"is_reserved":false,"is_disabled":false,"rental_uris":{"android":"levelo://app?vid=a3e60d66-e458-4c1e-a184-d76f676481b3","ios":"levelo://app?vid=a3e60d66-e458-4c1e-a184-d76f676481b3"},"vehicle_type_id":"4","last_reported":1751901009,"current_range_meters":22400,"station_id":"ce4bgvp2rcd13ifvqct0","pricing_plan_id":"cebpf4jnsgd1na2vs0mg"},{"bike_id":"9c96e7bd-399e-45c9-bfe0-ece45047b4ac","system_id":"levelo_inurba_marseille","lat":43.28663,"lon":5.36343,"is_reserved":false,"is_disabled":false,"rental_uris":{"android":"levelo://app?vid=9c96e7bd-399e-45c9-bfe0-ece45047b4ac","ios":"levelo://app?vid=9c96e7bd-399e-45c9-bfe0-ece45047b4ac"},"vehicle_type_id":"4","last_reported":1751901009,"current_range_meters":22400,"station_id":"ce4bhah2rcd13ifvqej0","pricing_plan_id":"cebpf4jnsgd1na2vs0mg"},{"bike_id":"4302d792-8722-42b0-b61f-224824faa414","system_id":"levelo_inurba_marseille","lat":43.28903,"lon":5.35822,"is_reserved":false,"is_disabled":false,"rental_uris":{"android":"levelo://app?vid=4302d792-8722-42b0-b61f-224824faa414","ios":"levelo://app?vid=4302d792-8722-42b0-b61f-224824faa414"},"vehicle_type_id":"4","last_reported":1751901009,"current_range_meters":22400,"station_id":"ce4bhb12rcd13ifvqem0","pricing_plan_id":"cebpf4jnsgd1na2vs0mg"},{"bike_id":"6788087a-e118-4ea8-90b8-9e79c5020cbd","system_id":"levelo_inurba_marseille","lat":43.2587,"lon":5.399,"is_reserved":false,"is_disabled":false,"rental_uris":{"android":"levelo://app?vid=6788087a-e118-4ea8-90b8-9e79c5020cbd","ios":"levelo://app?vid=6788087a-e118-4ea8-90b8-9e79c5020cbd"},"vehicle_type_id":"4","last_reported":1751901009,"current_range_meters":22400,"station_id":"ce4bhl92rcd13ifvqghg","pricing_plan_id":"cebpf4jnsgd1na2vs0mg"},{"bike_id":"df167326-3628-4fc0-ab69-159619671f79","system_id":"levelo_inurba_marseille","lat":43.24692,"lon":5.38917,"is_reserved":false,"is_disabled":false,"rental_uris":{"android":"levelo://app?vid=df167326-3628-4fc0-ab69-159619671f79","ios":"levelo://app?vid=df167326-3628-4fc0-ab69-159619671f79"},"vehicle_type_id":"4","last_reported":1751901009,"current_range_meters":22800,"station_id":"","pricing_plan_id":"cebpf4jnsgd1na2vs0mg"},{"bike_id":"f5c16f07-bc6f-4121-91a7-5ad90eec4f34","system_id":"levelo_inurba_marseille","lat":43.312093,"lon":5.373201,"is_reserved":false,"is_disabled":false,"rental_uris":{"android":"levelo://app?vid=f5c16f07-bc6f-4121-91a7-5ad90eec4f34","ios":"levelo://app?vid=f5c16f07-bc6f-4121-91a7-5ad90eec4f34"},"vehicle_type_id":"4","last_reported":1751901009,"current_range_meters":22800,"station_id":"","pricing_plan_id":"cebpf4jnsgd1na2vs0mg"},{"bike_id":"cc1b2903-dac3-4bba-a0d6-c28034bf4a29","system_id":"levelo_inurba_marseille","lat":43.2843,"lon":5.34989,"is_reserved":false,"is_disabled":false,"rental_uris":{"android":"levelo://app?vid=cc1b2903-dac3-4bba-a0d6-c28034bf4a29","ios":"levelo://app?vid=cc1b2903-dac3-4bba-a0d6-c28034bf4a29"},"vehicle_type_id":"4","last_reported":1751901009,"current_range_meters":22800,"station_id":"ce4bhbh2rcd13ifvqepg","pricing_plan_id":"cebpf4jnsgd1na2vs0mg"},{"bike_id":"a97200b5-1476-4b36-93cf-5e275f32ebf6","system_id":"levelo_inurba_marseille","lat":43.24528,"lon":5.39528,"is_reserved":false,"is_disabled":false,"rental_uris":{"android":"levelo://app?vid=a97200b5-1476-4b36-93cf-5e275f32ebf6","ios":"levelo://app?vid=a97200b5-1476-4b36-93cf-5e275f32ebf6"},"vehicle_type_id":"4","last_reported":1751901009,"current_range_meters":22800,"station_id":"ce4bhlp2rcd13ifvqgjg","pricing_plan_id":"cebpf4jnsgd1na2vs0mg"},{"bike_id":"18ada8ec-1676-4f33-9f1c-e7b13948f3ee","system_id":"levelo_inurba_marseille","lat":43.217539,"lon":5.346009,"is_reserved":false,"is_disabled":false,"rental_uris":{"android":"levelo://app?vid=18ada8ec-1676-4f33-9f1c-e7b13948f3ee","ios":"levelo://app?vid=18ada8ec-1676-4f33-9f1c-e7b13948f3ee"},"vehicle_type_id":"4","last_reported":1751901009,"current_range_meters":22800,"station_id":"st_cvj6r9ubvosntc0bgbag","pricing_plan_id":"cebpf4jnsgd1na2vs0mg"},{"bike_id":"9ced161e-3397-4ef7-87bd-1b22305f26da","system_id":"levelo_inurba_marseille","lat":43.28653,"lon":5.35061,"is_reserved":false,"is_disabled":false,"rental_uris":{"android":"levelo://app?vid=9ced161e-3397-4ef7-87bd-1b22305f26da","ios":"levelo://app?vid=9ced161e-3397-4ef7-87bd-1b22305f26da"},"vehicle_type_id":"4","last_reported":1751901009,"current_range_meters":23200,"station_id":"","pricing_plan_id":"cebpf4jnsgd1na2vs0mg"},{"bike_id":"e4793d5e-b4cd-4c12-b9d4-446cb97752b9","system_id":"levelo_inurba_marseille","lat":43.292745,"lon":5.39054,"is_reserved":false,"is_disabled":false,"rental_uris":{"android":"levelo://app?vid=e4793d5e-b4cd-4c12-b9d4-446cb97752b9","ios":"levelo://app?vid=e4793d5e-b4cd-4c12-b9d4-446cb97752b9"},"vehicle_type_id":"4","last_reported":1751901009,"current_range_meters":23200,"station_id":"","pricing_plan_id":"cebpf4jnsgd1na2vs0mg"},{"bike_id":"7d189fb6-c2de-46be-aa41-a048bc00b4f1","system_id":"levelo_inurba_marseille","lat":43.29646,"lon":5.37373,"is_reserved":false,"is_disabled":false,"rental_uris":{"android":"levelo://app?vid=7d189fb6-c2de-46be-aa41-a048bc00b4f1","ios":"levelo://app?vid=7d189fb6-c2de-46be-aa41-a048bc00b4f1"},"vehicle_type_id":"4","last_reported":1751901009,"current_range_meters":23200,"station_id":"","pricing_plan_id":"cebpf4jnsgd1na2vs0mg"},{"bike_id":"06feb6af-5eb5-49ba-8d41-8d2f4dbe1ee1","system_id":"levelo_inurba_marseille","lat":43.2994,"lon":5.36562,"is_reserved":false,"is_disabled":false,"rental_uris":{"android":"levelo://app?vid=06feb6af-5eb5-49ba-8d41-8d2f4dbe1ee1","ios":"levelo://app?vid=06feb6af-5eb5-49ba-8d41-8d2f4dbe1ee1"},"vehicle_type_id":"4","last_reported":1751901009,"current_range_meters":23200,"station_id":"","pricing_plan_id":"cebpf4jnsgd1na2vs0mg"},{"bike_id":"86b3d048-1221-4210-845e-5cedcf68b48a","system_id":"levelo_inurba_marseille","lat":43.29906,"lon":5.37485,"is_reserved":false,"is_disabled":false,"rental_uris":{"android":"levelo://app?vid=86b3d048-1221-4210-845e-5cedcf68b48a","ios":"levelo://app?vid=86b3d048-1221-4210-845e-5cedcf68b48a"},"vehicle_type_id":"4","last_reported":1751901009,"current_range_meters":23200,"station_id":"ce4bgjh2rcd13ifvqbg0","pricing_plan_id":"cebpf4jnsgd1na2vs0mg"},{"bike_id":"c2b72fe0-bae6-4c7b-ad48-9e771b203dc8","system_id":"levelo_inurba_marseille","lat":43.31353,"lon":5.3848,"is_reserved":false,"is_disabled":false,"rental_uris":{"android":"levelo://app?vid=c2b72fe0-bae6-4c7b-ad48-9e771b203dc8","ios":"levelo://app?vid=c2b72fe0-bae6-4c7b-ad48-9e771b203dc8"},"vehicle_type_id":"4","last_reported":1751901009,"current_range_meters":23200,"station_id":"ce4bgt92rcd13ifvqcf0","pricing_plan_id":"cebpf4jnsgd1na2vs0mg"},{"bike_id":"6c955a9e-4c9b-4e2b-8c6b-f925482b824d","system_id":"levelo_inurba_marseille","lat":43.292758,"lon":5.368366,"is_reserved":false,"is_disabled":false,"rental_uris":{"android":"levelo://app?vid=6c955a9e-4c9b-4e2b-8c6b-f925482b824d","ios":"levelo://app?vid=6c955a9e-4c9b-4e2b-8c6b-f925482b824d"},"vehicle_type_id":"4","last_reported":1751901009,"current_range_meters":23200,"station_id":"ce4bhbp2rcd13ifvqesg","pricing_plan_id":"cebpf4jnsgd1na2vs0mg"},{"bike_id":"56eb3fdf-ea87-4fcf-85df-3680fa66363e","system_id":"levelo_inurba_marseille","lat":43.225,"lon":5.34787,"is_reserved":false,"is_disabled":false,"rental_uris":{"android":"levelo://app?vid=56eb3fdf-ea87-4fcf-85df-3680fa66363e","ios":"levelo://app?vid=56eb3fdf-ea87-4fcf-85df-3680fa66363e"},"vehicle_type_id":"4","last_reported":1751901009,"current_range_meters":23200,"station_id":"st_cvj5dfep6f1abm77gieg","pricing_plan_id":"cebpf4jnsgd1na2vs0mg"},{"bike_id":"1e91cee9-7d4a-458c-9805-68ef6c30eb40","system_id":"levelo_inurba_marseille","lat":43.2175,"lon":5.3461,"is_reserved":false,"is_disabled":false,"rental_uris":{"android":"levelo://app?vid=1e91cee9-7d4a-458c-9805-68ef6c30eb40","ios":"levelo://app?vid=1e91cee9-7d4a-458c-9805-68ef6c30eb40"},"vehicle_type_id":"4","last_reported":1751901009,"current_range_meters":23200,"station_id":"st_cvj6r9ubvosntc0bgbag","pricing_plan_id":"cebpf4jnsgd1na2vs0mg"},{"bike_id":"dd424475-1b09-4cb5-b79b-f20728299dd6","system_id":"levelo_inurba_marseille","lat":43.21219,"lon":5.35066,"is_reserved":false,"is_disabled":false,"rental_uris":{"android":"levelo://app?vid=dd424475-1b09-4cb5-b79b-f20728299dd6","ios":"levelo://app?vid=dd424475-1b09-4cb5-b79b-f20728299dd6"},"vehicle_type_id":"4","last_reported":1751901009,"current_range_meters":23200,"station_id":"st_cvj6sg6p6f1abm77japg","pricing_plan_id":"cebpf4jnsgd1na2vs0mg"},{"bike_id":"d0f90c24-dd03-411b-9731-55305f76b7c8","system_id":"levelo_inurba_marseille","lat":43.211996,"lon":5.350896,"is_reserved":false,"is_disabled":false,"rental_uris":{"android":"levelo://app?vid=d0f90c24-dd03-411b-9731-55305f76b7c8","ios":"levelo://app?vid=d0f90c24-dd03-411b-9731-55305f76b7c8"},"vehicle_type_id":"4","last_reported":1751901009,"current_range_meters":23200,"station_id":"st_cvj6sg6p6f1abm77japg","pricing_plan_id":"cebpf4jnsgd1na2vs0mg"},{"bike_id":"22f37564-570e-4bff-95ff-ca85e8c20191","system_id":"levelo_inurba_marseille","lat":43.2942,"lon":5.38617,"is_reserved":false,"is_disabled":false,"rental_uris":{"android":"levelo://app?vid=22f37564-570e-4bff-95ff-ca85e8c20191","ios":"levelo://app?vid=22f37564-570e-4bff-95ff-ca85e8c20191"},"vehicle_type_id":"4","last_reported":1751901009,"current_range_meters":24000,"station_id":"ce4bh2h2rcd13ifvqdh0","pricing_plan_id":"cebpf4jnsgd1na2vs0mg"},{"bike_id":"56fdd575-a8a7-4294-af09-890d867223c1","system_id":"levelo_inurba_marseille","lat":43.29189,"lon":5.358,"is_reserved":false,"is_disabled":false,"rental_uris":{"android":"levelo://app?vid=56fdd575-a8a7-4294-af09-890d867223c1","ios":"levelo://app?vid=56fdd575-a8a7-4294-af09-890d867223c1"},"vehicle_type_id":"4","last_reported":1751901009,"current_range_meters":24000,"station_id":"ce4bhb12rcd13ifvqel0","pricing_plan_id":"cebpf4jnsgd1na2vs0mg"},{"bike_id":"b6d9b946-f66a-4c6f-96e5-5d23e176360c","system_id":"levelo_inurba_marseille","lat":43.313006,"lon":5.381718,"is_reserved":false,"is_disabled":false,"rental_uris":{"android":"levelo://app?vid=b6d9b946-f66a-4c6f-96e5-5d23e176360c","ios":"levelo://app?vid=b6d9b946-f66a-4c6f-96e5-5d23e176360c"},"vehicle_type_id":"4","last_reported":1751901009,"current_range_meters":24400,"station_id":"","pricing_plan_id":"cebpf4jnsgd1na2vs0mg"},{"bike_id":"b2caa530-bb19-4cc6-a6bd-61e3e1d7432e","system_id":"levelo_inurba_marseille","lat":43.33763,"lon":5.37461,"is_reserved":false,"is_disabled":false,"rental_uris":{"android":"levelo://app?vid=b2caa530-bb19-4cc6-a6bd-61e3e1d7432e","ios":"levelo://app?vid=b2caa530-bb19-4cc6-a6bd-61e3e1d7432e"},"vehicle_type_id":"4","last_reported":1751901009,"current_range_meters":24400,"station_id":"","pricing_plan_id":"cebpf4jnsgd1na2vs0mg"},{"bike_id":"294e769e-16f1-4fb7-992c-b7b823f97168","system_id":"levelo_inurba_marseille","lat":43.303204,"lon":5.369125,"is_reserved":false,"is_disabled":false,"rental_uris":{"android":"levelo://app?vid=294e769e-16f1-4fb7-992c-b7b823f97168","ios":"levelo://app?vid=294e769e-16f1-4fb7-992c-b7b823f97168"},"vehicle_type_id":"4","last_reported":1751901009,"current_range_meters":24400,"station_id":"ce4bgqh2rcd13ifvqc5g","pricing_plan_id":"cebpf4jnsgd1na2vs0mg"},{"bike_id":"6a50911a-1cb5-49fc-8d5d-a2e4f97d8bed","system_id":"levelo_inurba_marseille","lat":43.30296,"lon":5.36906,"is_reserved":false,"is_disabled":false,"rental_uris":{"android":"levelo://app?vid=6a50911a-1cb5-49fc-8d5d-a2e4f97d8bed","ios":"levelo://app?vid=6a50911a-1cb5-49fc-8d5d-a2e4f97d8bed"},"vehicle_type_id":"4","last_reported":1751901009,"current_range_meters":24400,"station_id":"ce4bgqh2rcd13ifvqc5g","pricing_plan_id":"cebpf4jnsgd1na2vs0mg"},{"bike_id":"72e27085-cc72-45ca-871d-ef5e1c80038a","system_id":"levelo_inurba_marseille","lat":43.30573,"lon":5.36708,"is_reserved":false,"is_disabled":false,"rental_uris":{"android":"levelo://app?vid=72e27085-cc72-45ca-871d-ef5e1c80038a","ios":"levelo://app?vid=72e27085-cc72-45ca-871d-ef5e1c80038a"},"vehicle_type_id":"4","last_reported":1751901009,"current_range_meters":24400,"station_id":"ce4bgrp2rcd13ifvqc9g","pricing_plan_id":"cebpf4jnsgd1na2vs0mg"},{"bike_id":"86e71926-6a24-4ff9-a187-1b131f9498af","system_id":"levelo_inurba_marseille","lat":43.30883,"lon":5.37202,"is_reserved":false,"is_disabled":false,"rental_uris":{"android":"levelo://app?vid=86e71926-6a24-4ff9-a187-1b131f9498af","ios":"levelo://app?vid=86e71926-6a24-4ff9-a187-1b131f9498af"},"vehicle_type_id":"4","last_reported":1751901009,"current_range_meters":24400,"station_id":"ce4bguh2rcd13ifvqckg","pricing_plan_id":"cebpf4jnsgd1na2vs0mg"},{"bike_id":"4d204027-e58f-4770-9c2e-43b395582ed1","system_id":"levelo_inurba_marseille","lat":43.30924,"lon":5.40149,"is_reserved":false,"is_disabled":false,"rental_uris":{"android":"levelo://app?vid=4d204027-e58f-4770-9c2e-43b395582ed1","ios":"levelo://app?vid=4d204027-e58f-4770-9c2e-43b395582ed1"},"vehicle_type_id":"4","last_reported":1751901009,"current_range_meters":24400,"station_id":"ce4bgvp2rcd13ifvqct0","pricing_plan_id":"cebpf4jnsgd1na2vs0mg"},{"bike_id":"feca2d6d-b899-4717-9012-d4abe61c93fa","system_id":"levelo_inurba_marseille","lat":43.29873,"lon":5.39739,"is_reserved":false,"is_disabled":false,"rental_uris":{"android":"levelo://app?vid=feca2d6d-b899-4717-9012-d4abe61c93fa","ios":"levelo://app?vid=feca2d6d-b899-4717-9012-d4abe61c93fa"},"vehicle_type_id":"4","last_reported":1751901009,"current_range_meters":24400,"station_id":"ce4bh0h2rcd13ifvqd50","pricing_plan_id":"cebpf4jnsgd1na2vs0mg"},{"bike_id":"82948aa7-312e-4408-a775-badb1fcbf314","system_id":"levelo_inurba_marseille","lat":43.29192,"lon":5.39315,"is_reserved":false,"is_disabled":false,"rental_uris":{"android":"levelo://app?vid=82948aa7-312e-4408-a775-badb1fcbf314","ios":"levelo://app?vid=82948aa7-312e-4408-a775-badb1fcbf314"},"vehicle_type_id":"4","last_reported":1751901009,"current_range_meters":24400,"station_id":"ce4bh192rcd13ifvqdd0","pricing_plan_id":"cebpf4jnsgd1na2vs0mg"},{"bike_id":"63aa2076-491d-4ca1-a400-335b7dfe060f","system_id":"levelo_inurba_marseille","lat":43.23183,"lon":5.39993,"is_reserved":false,"is_disabled":false,"rental_uris":{"android":"levelo://app?vid=63aa2076-491d-4ca1-a400-335b7dfe060f","ios":"levelo://app?vid=63aa2076-491d-4ca1-a400-335b7dfe060f"},"vehicle_type_id":"4","last_reported":1751901009,"current_range_meters":24400,"station_id":"ce4bhn12rcd13ifvqgqg","pricing_plan_id":"cebpf4jnsgd1na2vs0mg"},{"bike_id":"697d5fc4-b988-4a4e-8323-c1ce5ed61a61","system_id":"levelo_inurba_marseille","lat":43.21202,"lon":5.35066,"is_reserved":false,"is_disabled":false,"rental_uris":{"android":"levelo://app?vid=697d5fc4-b988-4a4e-8323-c1ce5ed61a61","ios":"levelo://app?vid=697d5fc4-b988-4a4e-8323-c1ce5ed61a61"},"vehicle_type_id":"4","last_reported":1751901009,"current_range_meters":24400,"station_id":"st_cvj6sg6p6f1abm77japg","pricing_plan_id":"cebpf4jnsgd1na2vs0mg"},{"bike_id":"320f2a33-deaa-4e0a-a3d5-c39ce8ad680a","system_id":"levelo_inurba_marseille","lat":43.31558,"lon":5.37452,"is_reserved":false,"is_disabled":false,"rental_uris":{"android":"levelo://app?vid=320f2a33-deaa-4e0a-a3d5-c39ce8ad680a","ios":"levelo://app?vid=320f2a33-deaa-4e0a-a3d5-c39ce8ad680a"},"vehicle_type_id":"4","last_reported":1751901009,"current_range_meters":24800,"station_id":"","pricing_plan_id":"cebpf4jnsgd1na2vs0mg"},