{"last_updated":1729292883,"ttl":60,"version":"2.2","data":{"bikes":[{"bike_id":"db4383d6-f896-4410-93d4-69edb57a1dc7","system_id":"levelo_inurba_marseille","lat":43.27993,"lon":5.41659,"is_reserved":false,"is_disabled":false,"rental_uris":{"android":"levelo://app?vid=db4383d6-f896-4410-93d4-69edb57a1dc7","ios":"levelo://app?vid=db4383d6-f896-4410-93d4-69edb57a1dc7"},"vehicle_type_id":"4","last_reported":1729292883,"current_range_meters":34800,"station_id":"ce4bho12rcd13ifvqh1g","pricing_plan_id":"cebpf4jnsgd1na2vs0mg"},{"bike_id":"7c215bb1-a727-4569-986d-c8f6cf1e676e","system_id":"levelo_inurba_marseille","lat":43.31711,"lon":5.43712,"is_reserved":false,"is_disabled":false,"rental_uris":{"android":"levelo://app?vid=7c215bb1-a727-4569-986d-c8f6cf1e676e","ios":"levelo://app?vid=7c215bb1-a727-4569-986d-c8f6cf1e676e"},"vehicle_type_id":"4","last_reported":1729292883,"current_range_meters":36800,"station_id":"ce4bhp92rcd13ifvqhcg","pricing_plan_id":"cebpf4jnsgd1na2vs0mg"},{"bike_id":"ef47d04a-d623-4923-9ac4-d8403fc9a216","system_id":"levelo_inurba_marseille","lat":43.33719,"lon":5.39185,"is_reserved":false,"is_disabled":false,"rental_uris":{"android":"levelo://app?vid=ef47d04a-d623-4923-9ac4-d8403fc9a216","ios":"levelo://app?vid=ef47d04a-d623-4923-9ac4-d8403fc9a216"},"vehicle_type_id":"4","last_reported":1729292883,"current_range_meters":38800,"station_id":"ce4bhr92rcd13ifvqhsg","pricing_plan_id":"cebpf4jnsgd1na2vs0mg"},{"bike_id":"10a9ece6-ff34-482d-8185-60ac6265c523","system_id":"levelo_inurba_marseille","lat":43.3167,"lon":5.38238,"is_reserved":false,"is_disabled":false,"rental_uris":{"android":"levelo://app?vid=10a9ece6-ff34-482d-8185-60ac6265c523","ios":"levelo://app?vid=10a9ece6-ff34-482d-8185-60ac6265c523"},"vehicle_type_id":"4","last_reported":1729292883,"current_range_meters":22800,"station_id":"ce4bgth2rcd13ifvqch0","pricing_plan_id":"cebpf4jnsgd1na2vs0mg"},{"bike_id":"676ec6c4-6b42-43e0-81fe-327782965da5","system_id":"levelo_inurba_marseille","lat":43.33765,"lon":5.37484,"is_reserved":false,"is_disabled":false,"rental_uris":{"android":"levelo://app?vid=676ec6c4-6b42-43e0-81fe-327782965da5","ios":"levelo://app?vid=676ec6c4-6b42-43e0-81fe-327782965da5"},"vehicle_type_id":"4","last_reported":1729292883,"current_range_meters":16400,"station_id":"","pricing_plan_id":"cebpf4jnsgd1na2vs0mg"},{"bike_id":"7c211f13-8b61-4402-8ed3-420ceb6cdf6a","system_id":"levelo_inurba_marseille","lat":43.28447,"lon":5.39185,"is_reserved":false,"is_disabled":false,"rental_uris":{"android":"levelo://app?vid=7c211f13-8b61-4402-8ed3-420ceb6cdf6a","ios":"levelo://app?vid=7c211f13-8b61-4402-8ed3-420ceb6cdf6a"},"vehicle_type_id":"4","last_reported":1729292883,"current_range_meters":38800,"station_id":"ce4bhoh2rcd13ifvqh5g","pricing_plan_id":"cebpf4jnsgd1na2vs0mg"},{"bike_id":"966f251d-4412-4e77-82b7-c125675614ef","system_id":"levelo_inurba_marseille","lat":43.337444,"lon":5.374475,"is_reserved":false,"is_disabled":false,"rental_uris":{"android":"levelo://app?vid=966f251d-4412-4e77-82b7-c125675614ef","ios":"levelo://app?vid=966f251d-4412-4e77-82b7-c125675614ef"},"vehicle_type_id":"4","last_reported":1729292883,"current_range_meters":6000,"station_id":"","pricing_plan_id":"cebpf4jnsgd1na2vs0mg"},{"bike_id":"9e23534c-3873-44a5-b32e-f42e453f7851","system_id":"levelo_inurba_marseille","lat":43.31081,"lon":5.4243,"is_reserved":false,"is_disabled":false,"rental_uris":{"android":"levelo://app?vid=9e23534c-3873-44a5-b32e-f42e453f7851","ios":"levelo://app?vid=9e23534c-3873-44a5-b32e-f42e453f7851"},"vehicle_type_id":"4","last_reported":1729292883,"current_range_meters":38800,"station_id":"ce4bhp92rcd13ifvqhag","pricing_plan_id":"cebpf4jnsgd1na2vs0mg"},{"bike_id":"bdac7045-6822-4f98-8d23-075c35d4893f","system_id":"levelo_inurba_marseille","lat":43.29347,"lon":5.42831,"is_reserved":false,"is_disabled":false,"rental_uris":{"android":"levelo://app?vid=bdac7045-6822-4f98-8d23-075c35d4893f","ios":"levelo://app?vid=bdac7045-6822-4f98-8d23-075c35d4893f"},"vehicle_type_id":"4","last_reported":1729292883,"current_range_meters":8400,"station_id":"","pricing_plan_id":"cebpf4jnsgd1na2vs0mg"},{"bike_id":"8026e345-ee5f-499a-a48f-cdcd6de8dba0","system_id":"levelo_inurba_marseille","lat":43.32365,"lon":5.38887,"is_reserved":false,"is_disabled":false,"rental_uris":{"android":"levelo://app?vid=8026e345-ee5f-499a-a48f-cdcd6de8dba0","ios":"levelo://app?vid=8026e345-ee5f-499a-a48f-cdcd6de8dba0"},"vehicle_type_id":"4","last_reported":1729292883,"current_range_meters":16000,"station_id":"ce4bhqp2rcd13ifvqhog","pricing_plan_id":"cebpf4jnsgd1na2vs0mg"},{"bike_id":"a94a90cf-4975-4f69-8ba1-73130188f59c","system_id":"levelo_inurba_marseille","lat":43.27961,"lon":5.38713,"is_reserved":false,"is_disabled":false,"rental_uris":{"android":"levelo://app?vid=a94a90cf-4975-4f69-8ba1-73130188f59c","ios":"levelo://app?vid=a94a90cf-4975-4f69-8ba1-73130188f59c"},"vehicle_type_id":"4","last_reported":1729292883,"current_range_meters":37600,"station_id":"ce4bhg12rcd13ifvqf80","pricing_plan_id":"cebpf4jnsgd1na2vs0mg"},{"bike_id":"8536bdf8-a581-4680-941a-442b5d864722","system_id":"levelo_inurba_marseille","lat":43.30938,"lon":5.4014,"is_reserved":false,"is_disabled":false,"rental_uris":{"android":"levelo://app?vid=8536bdf8-a581-4680-941a-442b5d864722","ios":"levelo://app?vid=8536bdf8-a581-4680-941a-442b5d864722"},"vehicle_type_id":"4","last_reported":1729292883,"current_range_meters":25200,"station_id":"ce4bgvp2rcd13ifvqct0","pricing_plan_id":"cebpf4jnsgd1na2vs0mg"},{"bike_id":"b11a0b35-9a35-4c12-b0cc-c7e5e4279566","system_id":"levelo_inurba_marseille","lat":43.23964,"lon":5.3663,"is_reserved":false,"is_disabled":false,"rental_uris":{"android":"levelo://app?vid=b11a0b35-9a35-4c12-b0cc-c7e5e4279566","ios":"levelo://app?vid=b11a0b35-9a35-4c12-b0cc-c7e5e4279566"},"vehicle_type_id":"4","last_reported":1729292883,"current_range_meters":6400,"station_id":"ce4bhi12rcd13ifvqfp0","pricing_plan_id":"cebpf4jnsgd1na2vs0mg"},{"bike_id":"ead18ffd-ff4d-42d6-84be-3ac0202bb1f1","system_id":"levelo_inurba_marseille","lat":43.31895,"lon":5.40731,"is_reserved":false,"is_disabled":false,"rental_uris":{"android":"levelo://app?vid=ead18ffd-ff4d-42d6-84be-3ac0202bb1f1","ios":"levelo://app?vid=ead18ffd-ff4d-42d6-84be-3ac0202bb1f1"},"vehicle_type_id":"4","last_reported":1729292883,"current_range_meters":39200,"station_id":"ce4bhq12rcd13ifvqhig","pricing_plan_id":"cebpf4jnsgd1na2vs0mg"},{"bike_id":"40302e19-028a-44eb-9abb-29a38b86aa5e","system_id":"levelo_inurba_marseille","lat":43.31172,"lon":5.38703,"is_reserved":false,"is_disabled":false,"rental_uris":{"android":"levelo://app?vid=40302e19-028a-44eb-9abb-29a38b86aa5e","ios":"levelo://app?vid=40302e19-028a-44eb-9abb-29a38b86aa5e"},"vehicle_type_id":"4","last_reported":1729292883,"current_range_meters":36400,"station_id":"ce4bgv12rcd13ifvqcp0","pricing_plan_id":"cebpf4jnsgd1na2vs0mg"},{"bike_id":"83729cb6-71ab-4370-8190-3d8c8681e30a","system_id":"levelo_inurba_marseille","lat":43.30786,"lon":5.37659,"is_reserved":false,"is_disabled":false,"rental_uris":{"android":"levelo://app?vid=83729cb6-71ab-4370-8190-3d8c8681e30a","ios":"levelo://app?vid=83729cb6-71ab-4370-8190-3d8c8681e30a"},"vehicle_type_id":"4","last_reported":1729292883,"current_range_meters":39200,"station_id":"ce4bgv92rcd13ifvqcq0","pricing_plan_id":"cebpf4jnsgd1na2vs0mg"},{"bike_id":"c9df7be6-3ec5-4763-987a-e5182f17ad36","system_id":"levelo_inurba_marseille","lat":43.31078,"lon":5.38349,"is_reserved":false,"is_disabled":false,"rental_uris":{"android":"levelo://app?vid=c9df7be6-3ec5-4763-987a-e5182f17ad36","ios":"levelo://app?vid=c9df7be6-3ec5-4763-987a-e5182f17ad36"},"vehicle_type_id":"4","last_reported":1729292883,"current_range_meters":31200,"station_id":"ce4bgv92rcd13ifvqcr0","pricing_plan_id":"cebpf4jnsgd1na2vs0mg"},{"bike_id":"545fb0d0-a50d-45be-bcd4-eb452aa3b4ed","system_id":"levelo_inurba_marseille","lat":43.29255,"lon":5.40901,"is_reserved":false,"is_disabled":false,"rental_uris":{"android":"levelo://app?vid=545fb0d0-a50d-45be-bcd4-eb452aa3b4ed","ios":"levelo://app?vid=545fb0d0-a50d-45be-bcd4-eb452aa3b4ed"},"vehicle_type_id":"4","last_reported":1729292883,"current_range_meters":19600,"station_id":"ce4bh192rcd13ifvqdc0","pricing_plan_id":"cebpf4jnsgd1na2vs0mg"},{"bike_id":"006ddbf4-82cb-41c3-a643-0f3a1c8bb945","system_id":"levelo_inurba_marseille","lat":43.2707,"lon":5.42277,"is_reserved":false,"is_disabled":false,"rental_uris":{"android":"levelo://app?vid=006ddbf4-82cb-41c3-a643-0f3a1c8bb945","ios":"levelo://app?vid=006ddbf4-82cb-41c3-a643-0f3a1c8bb945"},"vehicle_type_id":"4","last_reported":1729292883,"current_range_meters":19600,"station_id":"ce4bhk92rcd13ifvqgb0","pricing_plan_id":"cebpf4jnsgd1na2vs0mg"},{"bike_id":"ed530baf-b0da-4e81-869e-bd0b3169e111","system_id":"levelo_inurba_marseille","lat":43.302185,"lon":5.39464,"is_reserved":false,"is_disabled":false,"rental_uris":{"android":"levelo://app?vid=ed530baf-b0da-4e81-869e-bd0b3169e111","ios":"levelo://app?vid=ed530baf-b0da-4e81-869e-bd0b3169e111"},"vehicle_type_id":"4","last_reported":1729292883,"current_range_meters":30000,"station_id":"ce4bh3p2rcd13ifvqdq0","pricing_plan_id":"cebpf4jnsgd1na2vs0mg"},{"bike_id":"1d69c307-f86f-4364-9252-9eb649c5538f","system_id":"levelo_inurba_marseille","lat":43.29004,"lon":5.35615,"is_reserved":false,"is_disabled":false,"rental_uris":{"android":"levelo://app?vid=1d69c307-f86f-4364-9252-9eb649c5538f","ios":"levelo://app?vid=1d69c307-f86f-4364-9252-9eb649c5538f"},"vehicle_type_id":"4","last_reported":1729292883,"current_range_meters":28400,"station_id":"ce4bhb92rcd13ifvqen0","pricing_plan_id":"cebpf4jnsgd1na2vs0mg"},{"bike_id":"6bdbce30-67da-48e8-a8d3-9b4e5a2be0be","system_id":"levelo_inurba_marseille","lat":43.29008,"lon":5.37896,"is_reserved":false,"is_disabled":false,"rental_uris":{"android":"levelo://app?vid=6bdbce30-67da-48e8-a8d3-9b4e5a2be0be","ios":"levelo://app?vid=6bdbce30-67da-48e8-a8d3-9b4e5a2be0be"},"vehicle_type_id":"4","last_reported":1729292883,"current_range_meters":10000,"station_id":"","pricing_plan_id":"cebpf4jnsgd1na2vs0mg"},{"bike_id":"5e33b90d-98d9-41b3-8108-e8738a0803e6","system_id":"levelo_inurba_marseille","lat":43.30643,"lon":5.40079,"is_reserved":false,"is_disabled":false,"rental_uris":{"android":"levelo://app?vid=5e33b90d-98d9-41b3-8108-e8738a0803e6","ios":"levelo://app?vid=5e33b90d-98d9-41b3-8108-e8738a0803e6"},"vehicle_type_id":"4","last_reported":1729292883,"current_range_meters":38800,"station_id":"ce4bh112rcd13ifvqda0","pricing_plan_id":"cebpf4jnsgd1na2vs0mg"},{"bike_id":"9e833968-4b5b-4a32-a96b-8431979de98c","system_id":"levelo_inurba_marseille","lat":43.25726,"lon":5.41103,"is_reserved":false,"is_disabled":false,"rental_uris":{"android":"levelo://app?vid=9e833968-4b5b-4a32-a96b-8431979de98c","ios":"levelo://app?vid=9e833968-4b5b-4a32-a96b-8431979de98c"},"vehicle_type_id":"4","last_reported":1729292883,"current_range_meters":16000,"station_id":"ce4bhkp2rcd13ifvqgd0","pricing_plan_id":"cebpf4jnsgd1na2vs0mg"},{"bike_id":"84a71244-fc5a-453f-b683-69ed4c14244f","system_id":"levelo_inurba_marseille","lat":43.279988,"lon":5.416485,"is_reserved":false,"is_disabled":false,"rental_uris":{"android":"levelo://app?vid=84a71244-fc5a-453f-b683-69ed4c14244f","ios":"levelo://app?vid=84a71244-fc5a-453f-b683-69ed4c14244f"},"vehicle_type_id":"4","last_reported":1729292883,"current_range_meters":12000,"station_id":"ce4bho12rcd13ifvqh1g","pricing_plan_id":"cebpf4jnsgd1na2vs0mg"},{"bike_id":"2aa30074-a798-4517-9910-408fe840d5c0","system_id":"levelo_inurba_marseille","lat":43.23192,"lon":5.35555,"is_reserved":false,"is_disabled":false,"rental_uris":{"android":"levelo://app?vid=2aa30074-a798-4517-9910-408fe840d5c0","ios":"levelo://app?vid=2aa30074-a798-4517-9910-408fe840d5c0"},"vehicle_type_id":"4","last_reported":1729292883,"current_range_meters":27600,"station_id":"ce4bhu92rcd13ifvqi70","pricing_plan_id":"cebpf4jnsgd1na2vs0mg"},{"bike_id":"a8d63640-6480-41dd-8e5a-6707bc030b14","system_id":"levelo_inurba_marseille","lat":43.31159,"lon":5.38717,"is_reserved":false,"is_disabled":false,"rental_uris":{"android":"levelo://app?vid=a8d63640-6480-41dd-8e5a-6707bc030b14","ios":"levelo://app?vid=a8d63640-6480-41dd-8e5a-6707bc030b14"},"vehicle_type_id":"4","last_reported":1729292883,"current_range_meters":7200,"station_id":"ce4bgv12rcd13ifvqcp0","pricing_plan_id":"cebpf4jnsgd1na2vs0mg"},{"bike_id":"62fd95d1-82c7-465e-856f-97f8526406fb","system_id":"levelo_inurba_marseille","lat":43.27835,"lon":5.39204,"is_reserved":false,"is_disabled":false,"rental_uris":{"android":"levelo://app?vid=62fd95d1-82c7-465e-856f-97f8526406fb","ios":"levelo://app?vid=62fd95d1-82c7-465e-856f-97f8526406fb"},"vehicle_type_id":"4","last_reported":1729292883,"current_range_meters":38800,"station_id":"ce4bhjp2rcd13ifvqga0","pricing_plan_id":"cebpf4jnsgd1na2vs0mg"},{"bike_id":"b8be9637-1596-480b-9b66-d74595d15a54","system_id":"levelo_inurba_marseille","lat":43.3078,"lon":5.37653,"is_reserved":false,"is_disabled":false,"rental_uris":{"android":"levelo://app?vid=b8be9637-1596-480b-9b66-d74595d15a54","ios":"levelo://app?vid=b8be9637-1596-480b-9b66-d74595d15a54"},"vehicle_type_id":"4","last_reported":1729292883,"current_range_meters":30800,"station_id":"ce4bgv92rcd13ifvqcq0","pricing_plan_id":"cebpf4jnsgd1na2vs0mg"},{"bike_id":"373210b2-2cc1-443d-a96a-3ff505892909","system_id":"levelo_inurba_marseille","lat":43.31271,"lon":5.40179,"is_reserved":false,"is_disabled":false,"rental_uris":{"android":"levelo://app?vid=373210b2-2cc1-443d-a96a-3ff505892909","ios":"levelo://app?vid=373210b2-2cc1-443d-a96a-3ff505892909"},"vehicle_type_id":"4","last_reported":1729292883,"current_range_meters":37600,"station_id":"ce4bh092rcd13ifvqd30","pricing_plan_id":"cebpf4jnsgd1na2vs0mg"},{"bike_id":"729179c8-7a5b-4dd4-9b70-b7cfb266c4ae","system_id":"levelo_inurba_marseille","lat":43.27569,"lon":5.38413,"is_reserved":false,"is_disabled":false,"rental_uris":{"android":"levelo://app?vid=729179c8-7a5b-4dd4-9b70-b7cfb266c4ae","ios":"levelo://app?vid=729179c8-7a5b-4dd4-9b70-b7cfb266c4ae"},"vehicle_type_id":"4","last_reported":1729292883,"current_range_meters":34800,"station_id":"ce4bhh92rcd13ifvqfi0","pricing_plan_id":"cebpf4jnsgd1na2vs0mg"},{"bike_id":"bc4dfd71-cdf3-45e3-8aa3-c5528379f96a","system_id":"levelo_inurba_marseille","lat":43.27609,"lon":5.36109,"is_reserved":false,"is_disabled":false,"rental_uris":{"android":"levelo://app?vid=bc4dfd71-cdf3-45e3-8aa3-c5528379f96a","ios":"levelo://app?vid=bc4dfd71-cdf3-45e3-8aa3-c5528379f96a"},"vehicle_type_id":"4","last_reported":1729292883,"current_range_meters":23200,"station_id":"ce4bgj92rcd13ifvqbe0","pricing_plan_id":"cebpf4jnsgd1na2vs0mg"},{"bike_id":"5d81cc75-3e41-4ea6-b6f5-6d48a00959b9","system_id":"levelo_inurba_marseille","lat":43.27971,"lon":5.38755,"is_reserved":false,"is_disabled":false,"rental_uris":{"android":"levelo://app?vid=5d81cc75-3e41-4ea6-b6f5-6d48a00959b9","ios":"levelo://app?vid=5d81cc75-3e41-4ea6-b6f5-6d48a00959b9"},"vehicle_type_id":"4","last_reported":1729292883,"current_range_meters":29600,"station_id":"ce4bhg12rcd13ifvqf80","pricing_plan_id":"cebpf4jnsgd1na2vs0mg"},{"bike_id":"c746da30-0175-4c63-8cc4-f4d0284e8127","system_id":"levelo_inurba_marseille","lat":43.23965,"lon":5.36631,"is_reserved":false,"is_disabled":false,"rental_uris":{"android":"levelo://app?vid=c746da30-0175-4c63-8cc4-f4d0284e8127","ios":"levelo://app?vid=c746da30-0175-4c63-8cc4-f4d0284e8127"},"vehicle_type_id":"4","last_reported":1729292883,"current_range_meters":18800,"station_id":"ce4bhi12rcd13ifvqfp0","pricing_plan_id":"cebpf4jnsgd1na2vs0mg"},{"bike_id":"40f75165-ee2e-4400-84ee-ecf38a03666a","system_id":"levelo_inurba_marseille","lat":43.28846,"lon":5.39304,"is_reserved":false,"is_disabled":false,"rental_uris":{"android":"levelo://app?vid=40f75165-ee2e-4400-84ee-ecf38a03666a","ios":"levelo://app?vid=40f75165-ee2e-4400-84ee-ecf38a03666a"},"vehicle_type_id":"4","last_reported":1729292883,"current_range_meters":16000,"station_id":"ce4bh2p2rcd13ifvqdi0","pricing_plan_id":"cebpf4jnsgd1na2vs0mg"},{"bike_id":"08d21f8b-535b-43a3-b6ad-c36201ffe75a","system_id":"levelo_inurba_marseille","lat":43.28453,"lon":5.35882,"is_reserved":false,"is_disabled":false,"rental_uris":{"android":"levelo://app?vid=08d21f8b-535b-43a3-b6ad-c36201ffe75a","ios":"levelo://app?vid=08d21f8b-535b-43a3-b6ad-c36201ffe75a"},"vehicle_type_id":"4","last_reported":1729292883,"current_range_meters":8800,"station_id":"ce4bhah2rcd13ifvqei0","pricing_plan_id":"cebpf4jnsgd1na2vs0mg"},{"bike_id":"9a599b5d-59bf-42c3-816b-5825872f1844","system_id":"levelo_inurba_marseille","lat":43.28438,"lon":5.39191,"is_reserved":false,"is_disabled":false,"rental_uris":{"android":"levelo://app?vid=9a599b5d-59bf-42c3-816b-5825872f1844","ios":"levelo://app?vid=9a599b5d-59bf-42c3-816b-5825872f1844"},"vehicle_type_id":"4","last_reported":1729292883,"current_range_meters":33600,"station_id":"ce4bhoh2rcd13ifvqh5g","pricing_plan_id":"cebpf4jnsgd1na2vs0mg"},{"bike_id":"28e3118e-6c8f-4a75-a996-b10c34037a75","system_id":"levelo_inurba_marseille","lat":43.27495,"lon":5.42452,"is_reserved":false,"is_disabled":false,"rental_uris":{"android":"levelo://app?vid=28e3118e-6c8f-4a75-a996-b10c34037a75","ios":"levelo://app?vid=28e3118e-6c8f-4a75-a996-b10c34037a75"},"vehicle_type_id":"4","last_reported":1729292883,"current_range_meters":30000,"station_id":"ce4bhn92rcd13ifvqgrg","pricing_plan_id":"cebpf4jnsgd1na2vs0mg"},{"bike_id":"1dc42c89-5aa7-41d8-bc93-1f8f11dcaf4d","system_id":"levelo_inurba_marseille","lat":43.31165,"lon":5.38721,"is_reserved":false,"is_disabled":false,"rental_uris":{"android":"levelo://app?vid=1dc42c89-5aa7-41d8-bc93-1f8f11dcaf4d","ios":"levelo://app?vid=1dc42c89-5aa7-41d8-bc93-1f8f11dcaf4d"},"vehicle_type_id":"4","last_reported":1729292883,"current_range_meters":24800,"station_id":"ce4bgv12rcd13ifvqcp0","pricing_plan_id":"cebpf4jnsgd1na2vs0mg"},{"bike_id":"6f034070-ee6f-4e30-853e-ccd43834685f","system_id":"levelo_inurba_marseille","lat":43.28002,"lon":5.41654,"is_reserved":false,"is_disabled":false,"rental_uris":{"android":"levelo://app?vid=6f034070-ee6f-4e30-853e-ccd43834685f","ios":"levelo://app?vid=6f034070-ee6f-4e30-853e-ccd43834685f"},"vehicle_type_id":"4","last_reported":1729292883,"current_range_meters":14400,"station_id":"ce4bho12rcd13ifvqh1g","pricing_plan_id":"cebpf4jnsgd1na2vs0mg"},{"bike_id":"eca218d1-7119-492a-ba62-cb52d239834b","system_id":"levelo_inurba_marseille","lat":43.27809,"lon":5.40714,"is_reserved":false,"is_disabled":false,"rental_uris":{"android":"levelo://app?vid=eca218d1-7119-492a-ba62-cb52d239834b","ios":"levelo://app?vid=eca218d1-7119-492a-ba62-cb52d239834b"},"vehicle_type_id":"4","last_reported":1729292883,"current_range_meters":36000,"station_id":"ce4bhnh2rcd13ifvqgtg","pricing_plan_id":"cebpf4jnsgd1na2vs0mg"},{"bike_id":"4f8bd11b-a06a-4d2a-bee0-a05a0caa7df3","system_id":"levelo_inurba_marseille","lat":43.23186,"lon":5.39984,"is_reserved":false,"is_disabled":false,"rental_uris":{"android":"levelo://app?vid=4f8bd11b-a06a-4d2a-bee0-a05a0caa7df3","ios":"levelo://app?vid=4f8bd11b-a06a-4d2a-bee0-a05a0caa7df3"},"vehicle_type_id":"4","last_reported":1729292883,"current_range_meters":22800,"station_id":"ce4bhn12rcd13ifvqgqg","pricing_plan_id":"cebpf4jnsgd1na2vs0mg"},{"bike_id":"996fe878-5b5d-4603-a6c3-9fb689e4747b","system_id":"levelo_inurba_marseille","lat":43.27494,"lon":5.42453,"is_reserved":false,"is_disabled":false,"rental_uris":{"android":"levelo://app?vid=996fe878-5b5d-4603-a6c3-9fb689e4747b","ios":"levelo://app?vid=996fe878-5b5d-4603-a6c3-9fb689e4747b"},"vehicle_type_id":"4","last_reported":1729292883,"current_range_meters":16000,"station_id":"ce4bhn92rcd13ifvqgrg","pricing_plan_id":"cebpf4jnsgd1na2vs0mg"},{"bike_id":"fc6e513b-da81-4d34-a427-493e42edd768","system_id":"levelo_inurba_marseille","lat":43.285771,"lon":5.396868,"is_reserved":false,"is_disabled":false,"rental_uris":{"android":"levelo://app?vid=fc6e513b-da81-4d34-a427-493e42edd768","ios":"levelo://app?vid=fc6e513b-da81-4d34-a427-493e42edd768"},"vehicle_type_id":"4","last_reported":1729292883,"current_range_meters":25600,"station_id":"","pricing_plan_id":"cebpf4jnsgd1na2vs0mg"},{"bike_id":"0092393c-5fa7-4d7e-96ae-1d3cba232a3c","system_id":"levelo_inurba_marseille","lat":43.23182,"lon":5.39984,"is_reserved":false,"is_disabled":false,"rental_uris":{"android":"levelo://app?vid=0092393c-5fa7-4d7e-96ae-1d3cba232a3c","ios":"levelo://app?vid=0092393c-5fa7-4d7e-96ae-1d3cba232a3c"},"vehicle_type_id":"4","last_reported":1729292883,"current_range_meters":38400,"station_id":"ce4bhn12rcd13ifvqgqg","pricing_plan_id":"cebpf4jnsgd1na2vs0mg"},{"bike_id":"5c2b49b8-0a44-4153-9d13-506053d1148e","system_id":"levelo_inurba_marseille","lat":43.31707,"lon":5.37742,"is_reserved":false,"is_disabled":false,"rental_uris":{"android":"levelo://app?vid=5c2b49b8-0a44-4153-9d13-506053d1148e","ios":"levelo://app?vid=5c2b49b8-0a44-4153-9d13-506053d1148e"},"vehicle_type_id":"4","last_reported":1729292883,"current_range_meters":36800,"station_id":"ce4bgth2rcd13ifvqch0","pricing_plan_id":"cebpf4jnsgd1na2vs0mg"},{"bike_id":"586c3761-8b32-493f-b466-fecd8a579e02","system_id":"levelo_inurba_marseille","lat":43.30804,"lon":5.38157,"is_reserved":false,"is_disabled":false,"rental_uris":{"android":"levelo://app?vid=586c3761-8b32-493f-b466-fecd8a579e02","ios":"levelo://app?vid=586c3761-8b32-493f-b466-fecd8a579e02"},"vehicle_type_id":"4","last_reported":1729292883,"current_range_meters":22400,"station_id":"ce4bgt12rcd13ifvqce0","pricing_plan_id":"cebpf4jnsgd1na2vs0mg"},{"bike_id":"9d9cfb07-0d17-4606-aa8c-54dd14c07f4d","system_id":"levelo_inurba_marseille","lat":43.28703,"lon":5.3739,"is_reserved":false,"is_disabled":false,"rental_uris":{"android":"levelo://app?vid=9d9cfb07-0d17-4606-aa8c-54dd14c07f4d","ios":"levelo://app?vid=9d9cfb07-0d17-4606-aa8c-54dd14c07f4d"},"vehicle_type_id":"4","last_reported":1729292883,"current_range_meters":16000,"station_id":"ce4bh3p2rcd13ifvqdq0","pricing_plan_id":"cebpf4jnsgd1na2vs0mg"},{"bike_id":"aac282ef-7d0d-4cf6-a738-a10a76319aa8","system_id":"levelo_inurba_marseille","lat":43.25085,"lon":5.39518,"is_reserved":false,"is_disabled":false,"rental_uris":{"android":"levelo://app?vid=aac282ef-7d0d-4cf6-a738-a10a76319aa8","ios":"levelo://app?vid=aac282ef-7d0d-4cf6-a738-a10a76319aa8"},"vehicle_type_id":"4","last_reported":1729292883,"current_range_meters":32400,"station_id":"ce4bhm12rcd13ifvqgkg","pricing_plan_id":"cebpf4jnsgd1na2vs0mg"},{"bike_id":"cbce7855-7029-46df-bde7-de9922dc69fb","system_id":"levelo_inurba_marseille","lat":43.29716,"lon":5.36614,"is_reserved":false,"is_disabled":false,"rental_uris":{"android":"levelo://app?vid=cbce7855-7029-46df-bde7-de9922dc69fb","ios":"levelo://app?vid=cbce7855-7029-46df-bde7-de9922dc69fb"},"vehicle_type_id":"4","last_reported":1729292883,"current_range_meters":19200,"station_id":"ce4bgn12rcd13ifvqbt0","pricing_plan_id":"cebpf4jnsgd1na2vs0mg"},{"bike_id":"65a67f11-6e2e-4b06-8422-bf4f01279b58","system_id":"levelo_inurba_marseille","lat":43.32655,"lon":5.40995,"is_reserved":false,"is_disabled":false,"rental_uris":{"android":"levelo://app?vid=65a67f11-6e2e-4b06-8422-bf4f01279b58","ios":"levelo://app?vid=65a67f11-6e2e-4b06-8422-bf4f01279b58"},"vehicle_type_id":"4","last_reported":1729292883,"current_range_meters":38800,"station_id":"ce4bhpp2rcd13ifvqhgg","pricing_plan_id":"cebpf4jnsgd1na2vs0mg"},{"bike_id":"6a17560c-e982-4f70-afa6-b4ec03264eaa","system_id":"levelo_inurba_marseille","lat":43.28433,"lon":5.3919,"is_reserved":false,"is_disabled":false,"rental_uris":{"android":"levelo://app?vid=6a17560c-e982-4f70-afa6-b4ec03264eaa","ios":"levelo://app?vid=6a17560c-e982-4f70-afa6-b4ec03264eaa"},"vehicle_type_id":"4","last_reported":1729292883,"current_range_meters":39200,"station_id":"ce4bhoh2rcd13ifvqh5g","pricing_plan_id":"cebpf4jnsgd1na2vs0mg"},{"bike_id":"60b7beea-fbe1-4945-994d-4b03c2f21db8","system_id":"levelo_inurba_marseille","lat":43.308848,"lon":5.37191,"is_reserved":false,"is_disabled":false,"rental_uris":{"android":"levelo://app?vid=60b7beea-fbe1-4945-994d-4b03c2f21db8","ios":"levelo://app?vid=60b7beea-fbe1-4945-994d-4b03c2f21db8"},"vehicle_type_id":"4","last_reported":1729292883,"current_range_meters":38400,"station_id":"ce4bguh2rcd13ifvqckg","pricing_plan_id":"cebpf4jnsgd1na2vs0mg"},{"bike_id":"43bf3f09-3b44-40db-9b4f-30b53b0a8904","system_id":"levelo_inurba_marseille","lat":43.28437,"lon":5.39182,"is_reserved":false,"is_disabled":false,"rental_uris":{"android":"levelo://app?vid=43bf3f09-3b44-40db-9b4f-30b53b0a8904","ios":"levelo://app?vid=43bf3f09-3b44-40db-9b4f-30b53b0a8904"},"vehicle_type_id":"4","last_reported":1729292883,"current_range_meters":28800,"station_id":"ce4bhoh2rcd13ifvqh5g","pricing_plan_id":"cebpf4jnsgd1na2vs0mg"},{"bike_id":"3d7546d0-4dba-4212-88c9-dfe9a2032237","system_id":"levelo_inurba_marseille","lat":43.24171,"lon":5.36394,"is_reserved":false,"is_disabled":false,"rental_uris":{"android":"levelo://app?vid=3d7546d0-4dba-4212-88c9-dfe9a2032237","ios":"levelo://app?vid=3d7546d0-4dba-4212-88c9-dfe9a2032237"},"vehicle_type_id":"4","last_reported":1729292883,"current_range_meters":36400,"station_id":"cpo36qri1sfpv3e86is0","pricing_plan_id":"cebpf4jnsgd1na2vs0mg"},{"bike_id":"8de21701-f0da-4ad6-a0a8-a05d0969b2d4","system_id":"levelo_inurba_marseille","lat":43.31178,"lon":5.38713,"is_reserved":false,"is_disabled":false,"rental_uris":{"android":"levelo://app?vid=8de21701-f0da-4ad6-a0a8-a05d0969b2d4","ios":"levelo://app?vid=8de21701-f0da-4ad6-a0a8-a05d0969b2d4"},"vehicle_type_id":"4","last_reported":1729292883,"current_range_meters":28000,"station_id":"ce4bgv12rcd13ifvqcp0","pricing_plan_id":"cebpf4jnsgd1na2vs0mg"},{"bike_id":"0a878904-b259-4c17-b202-380e2ca7c5f1","system_id":"levelo_inurba_marseille","lat":43.302612,"lon":5.400856,"is_reserved":false,"is_disabled":false,"rental_uris":{"android":"levelo://app?vid=0a878904-b259-4c17-b202-380e2ca7c5f1","ios":"levelo://app?vid=0a878904-b259-4c17-b202-380e2ca7c5f1"},"vehicle_type_id":"4","last_reported":1729292883,"current_range_meters":20400,"station_id":"","pricing_plan_id":"cebpf4jnsgd1na2vs0mg"},{"bike_id":"2024b01b-a536-4f43-bb53-319f00880693","system_id":"levelo_inurba_marseille","lat":43.30797,"lon":5.38157,"is_reserved":false,"is_disabled":false,"rental_uris":{"android":"levelo://app?vid=2024b01b-a536-4f43-bb53-319f00880693","ios":"levelo://app?vid=2024b01b-a536-4f43-bb53-319f00880693"},"vehicle_type_id":"4","last_reported":1729292883,"current_range_meters":38400,"station_id":"ce4bgt12rcd13ifvqce0","pricing_plan_id":"cebpf4jnsgd1na2vs0mg"},{"bike_id":"8b10c252-b32b-40ef-b8da-9d1c9158f577","system_id":"levelo_inurba_marseille","lat":43.26036,"lon":5.37547,"is_reserved":false,"is_disabled":false,"rental_uris":{"android":"levelo://app?vid=8b10c252-b32b-40ef-b8da-9d1c9158f577","ios":"levelo://app?vid=8b10c252-b32b-40ef-b8da-9d1c9158f577"},"vehicle_type_id":"4","last_reported":1729292883,"current_range_meters":39200,"station_id":"ce4bhgh2rcd13ifvqfa0","pricing_plan_id":"cebpf4jnsgd1na2vs0mg"},{"bike_id":"2e24b2f7-04d9-4aa5-a803-56fcc770dc64","system_id":"levelo_inurba_marseille","lat":43.30801,"lon":5.38167,"is_reserved":false,"is_disabled":false,"rental_uris":{"android":"levelo://app?vid=2e24b2f7-04d9-4aa5-a803-56fcc770dc64","ios":"levelo://app?vid=2e24b2f7-04d9-4aa5-a803-56fcc770dc64"},"vehicle_type_id":"4","last_reported":1729292883,"current_range_meters":30400,"station_id":"ce4bgt12rcd13ifvqce0","pricing_plan_id":"cebpf4jnsgd1na2vs0mg"},{"bike_id":"ec4b27f4-1f33-4e93-ba08-7796dfb9a476","system_id":"levelo_inurba_marseille","lat":43.24806,"lon":5.37458,"is_reserved":false,"is_disabled":false,"rental_uris":{"android":"levelo://app?vid=ec4b27f4-1f33-4e93-ba08-7796dfb9a476","ios":"levelo://app?vid=ec4b27f4-1f33-4e93-ba08-7796dfb9a476"},"vehicle_type_id":"4","last_reported":1729292883,"current_range_meters":22400,"station_id":"ce4bhgh2rcd13ifvqfb0","pricing_plan_id":"cebpf4jnsgd1na2vs0mg"},{"bike_id":"90b7df2b-2805-4913-a745-07d80216980c","system_id":"levelo_inurba_marseille","lat":43.30799,"lon":5.43522,"is_reserved":false,"is_disabled":false,"rental_uris":{"android":"levelo://app?vid=90b7df2b-2805-4913-a745-07d80216980c","ios":"levelo://app?vid=90b7df2b-2805-4913-a745-07d80216980c"},"vehicle_type_id":"4","last_reported":1729292883,"current_range_meters":9200,"station_id":"ce4bhph2rcd13ifvqheg","pricing_plan_id":"cebpf4jnsgd1na2vs0mg"},{"bike_id":"32ce68a3-3fc7-4257-974f-ab657619c295","system_id":"levelo_inurba_marseille","lat":43.33759,"lon":5.3748,"is_reserved":false,"is_disabled":false,"rental_uris":{"android":"levelo://app?vid=32ce68a3-3fc7-4257-974f-ab657619c295","ios":"levelo://app?vid=32ce68a3-3fc7-4257-974f-ab657619c295"},"vehicle_type_id":"4","last_reported":1729292883,"current_range_meters":8400,"station_id":"","pricing_plan_id":"cebpf4jnsgd1na2vs0mg"},{"bike_id":"c4cc6d39-ca2d-4756-9269-eb88ed03f6f8","system_id":"levelo_inurba_marseille","lat":43.34148,"lon":5.40901,"is_reserved":false,"is_disabled":false,"rental_uris":{"android":"levelo://app?vid=c4cc6d39-ca2d-4756-9269-eb88ed03f6f8","ios":"levelo://app?vid=c4cc6d39-ca2d-4756-9269-eb88ed03f6f8"},"vehicle_type_id":"4","last_reported":1729292883,"current_range_meters":11600,"station_id":"ce4bhqh2rcd13ifvqhlg","pricing_plan_id":"cebpf4jnsgd1na2vs0mg"},{"bike_id":"e5dab1ea-a810-41a0-a6cd-403085d8bf13","system_id":"levelo_inurba_marseille","lat":43.27367,"lon":5.36259,"is_reserved":false,"is_disabled":false,"rental_uris":{"android":"levelo://app?vid=e5dab1ea-a810-41a0-a6cd-403085d8bf13","ios":"levelo://app?vid=e5dab1ea-a810-41a0-a6cd-403085d8bf13"},"vehicle_type_id":"4","last_reported":1729292883,"current_range_meters":38400,"station_id":"ce4bhbh2rcd13ifvqeo0","pricing_plan_id":"cebpf4jnsgd1na2vs0mg"},{"bike_id":"0c1ea11a-f23d-45af-a7b2-baa9bbda0ed3","system_id":"levelo_inurba_marseille","lat":43.25084,"lon":5.39512,"is_reserved":false,"is_disabled":false,"rental_uris":{"android":"levelo://app?vid=0c1ea11a-f23d-45af-a7b2-baa9bbda0ed3","ios":"levelo://app?vid=0c1ea11a-f23d-45af-a7b2-baa9bbda0ed3"},"vehicle_type_id":"4","last_reported":1729292883,"current_range_meters":36800,"station_id":"ce4bhm12rcd13ifvqgkg","pricing_plan_id":"cebpf4jnsgd1na2vs0mg"},{"bike_id":"b64362e2-b043-4f67-8e42-f68524e828ed","system_id":"levelo_inurba_marseille","lat":43.24181,"lon":5.3972,"is_reserved":false,"is_disabled":false,"rental_uris":{"android":"levelo://app?vid=b64362e2-b043-4f67-8e42-f68524e828ed","ios":"levelo://app?vid=b64362e2-b043-4f67-8e42-f68524e828ed"},"vehicle_type_id":"4","last_reported":1729292883,"current_range_meters":23200,"station_id":"ce4bhn12rcd13ifvqgpg","pricing_plan_id":"cebpf4jnsgd1na2vs0mg"},{"bike_id":"1b1613ca-55b3-41c0-bc8c-bdb057af993a","system_id":"levelo_inurba_marseille","lat":43.27939,"lon":5.41046,"is_reserved":false,"is_disabled":false,"rental_uris":{"android":"levelo://app?vid=1b1613ca-55b3-41c0-bc8c-bdb057af993a","ios":"levelo://app?vid=1b1613ca-55b3-41c0-bc8c-bdb057af993a"},"vehicle_type_id":"4","last_reported":1729292883,"current_range_meters":16400,"station_id":"ce4bhnp2rcd13ifvqh0g","pricing_plan_id":"cebpf4jnsgd1na2vs0mg"},{"bike_id":"e57b250b-42f7-46e8-8306-7e26a41b20c4","system_id":"levelo_inurba_marseille","lat":43.289353,"lon":5.383963,"is_reserved":false,"is_disabled":false,"rental_uris":{"android":"levelo://app?vid=e57b250b-42f7-46e8-8306-7e26a41b20c4","ios":"levelo://app?vid=e57b250b-42f7-46e8-8306-7e26a41b20c4"},"vehicle_type_id":"4","last_reported":1729292883,"current_range_meters":12000,"station_id":"ce4bh612rcd13ifvqe6g","pricing_plan_id":"cebpf4jnsgd1na2vs0mg"},{"bike_id":"3ba906cb-82d0-435c-a63b-70d7743a9b06","system_id":"levelo_inurba_marseille","lat":43.28441,"lon":5.39185,"is_reserved":false,"is_disabled":false,"rental_uris":{"android":"levelo://app?vid=3ba906cb-82d0-435c-a63b-70d7743a9b06","ios":"levelo://app?vid=3ba906cb-82d0-435c-a63b-70d7743a9b06"},"vehicle_type_id":"4","last_reported":1729292883,"current_range_meters":28000,"station_id":"ce4bhoh2rcd13ifvqh5g","pricing_plan_id":"cebpf4jnsgd1na2vs0mg"},{"bike_id":"dfb160c5-111e-4fc3-88c2-fba8af64107f","system_id":"levelo_inurba_marseille","lat":43.32339,"lon":5.40624,"is_reserved":false,"is_disabled":false,"rental_uris":{"android":"levelo://app?vid=dfb160c5-111e-4fc3-88c2-fba8af64107f","ios":"levelo://app?vid=dfb160c5-111e-4fc3-88c2-fba8af64107f"},"vehicle_type_id":"4","last_reported":1729292883,"current_range_meters":38800,"station_id":"ce4bhq92rcd13ifvqhjg","pricing_plan_id":"cebpf4jnsgd1na2vs0mg"},{"bike_id":"4971773f-ee45-4bd5-86ca-70eb50779266","system_id":"levelo_inurba_marseille","lat":43.29597,"lon":5.38103,"is_reserved":false,"is_disabled":false,"rental_uris":{"android":"levelo://app?vid=4971773f-ee45-4bd5-86ca-70eb50779266","ios":"levelo://app?vid=4971773f-ee45-4bd5-86ca-70eb50779266"},"vehicle_type_id":"4","last_reported":1729292883,"current_range_meters":27600,"station_id":"ce4bgl12rcd13ifvqbo0","pricing_plan_id":"cebpf4jnsgd1na2vs0mg"},{"bike_id":"1c170803-c512-427c-a113-e3f0a35819ca","system_id":"levelo_inurba_marseille","lat":43.24544,"lon":5.39532,"is_reserved":false,"is_disabled":false,"rental_uris":{"android":"levelo://app?vid=1c170803-c512-427c-a113-e3f0a35819ca","ios":"levelo://app?vid=1c170803-c512-427c-a113-e3f0a35819ca"},"vehicle_type_id":"4","last_reported":1729292883,"current_range_meters":36800,"station_id":"ce4bhlp2rcd13ifvqgjg","pricing_plan_id":"cebpf4jnsgd1na2vs0mg"},{"bike_id":"ddd62ba3-c050-46d2-a8ed-02c4b983589b","system_id":"levelo_inurba_marseille","lat":43.32485,"lon":5.36556,"is_reserved":false,"is_disabled":false,"rental_uris":{"android":"levelo://app?vid=ddd62ba3-c050-46d2-a8ed-02c4b983589b","ios":"levelo://app?vid=ddd62ba3-c050-46d2-a8ed-02c4b983589b"},"vehicle_type_id":"4","last_reported":1729292883,"current_range_meters":30000,"station_id":"ce4bhs12rcd13ifvqhvg","pricing_plan_id":"cebpf4jnsgd1na2vs0mg"},{"bike_id":"8c1ec6cb-2291-4814-837b-be8625c706f3","system_id":"levelo_inurba_marseille","lat":43.23198,"lon":5.35543,"is_reserved":false,"is_disabled":false,"rental_uris":{"android":"levelo://app?vid=8c1ec6cb-2291-4814-837b-be8625c706f3","ios":"levelo://app?vid=8c1ec6cb-2291-4814-837b-be8625c706f3"},"vehicle_type_id":"4","last_reported":1729292883,"current_range_meters":30400,"station_id":"ce4bhu92rcd13ifvqi70","pricing_plan_id":"cebpf4jnsgd1na2vs0mg"},{"bike_id":"24d51479-5034-4c6f-a657-09075865709c","system_id":"levelo_inurba_marseille","lat":43.31335,"lon":5.39692,"is_reserved":false,"is_disabled":false,"rental_uris":{"android":"levelo://app?vid=24d51479-5034-4c6f-a657-09075865709c","ios":"levelo://app?vid=24d51479-5034-4c6f-a657-09075865709c"},"vehicle_type_id":"4","last_reported":1729292883,"current_range_meters":38800,"station_id":"ce4bgvp2rcd13ifvqcu0","pricing_plan_id":"cebpf4jnsgd1na2vs0mg"},{"bike_id":"8429a31c-77f3-41b6-b710-38d8ca6d27dc","system_id":"levelo_inurba_marseille","lat":43.25083,"lon":5.39519,"is_reserved":false,"is_disabled":false,"rental_uris":{"android":"levelo://app?vid=8429a31c-77f3-41b6-b710-38d8ca6d27dc","ios":"levelo://app?vid=8429a31c-77f3-41b6-b710-38d8ca6d27dc"},"vehicle_type_id":"4","last_reported":1729292883,"current_range_meters":38800,"station_id":"ce4bhm12rcd13ifvqgkg","pricing_plan_id":"cebpf4jnsgd1na2vs0mg"},{"bike_id":"de3698b0-8ad1-478c-aec6-37ab5a680495","system_id":"levelo_inurba_marseille","lat":43.27435,"lon":5.39397,"is_reserved":false,"is_disabled":false,"rental_uris":{"android":"levelo://app?vid=de3698b0-8ad1-478c-aec6-37ab5a680495","ios":"levelo://app?vid=de3698b0-8ad1-478c-aec6-37ab5a680495"},"vehicle_type_id":"4","last_reported":1729292883,"current_range_meters":38800,"station_id":"ce4bhdp2rcd13ifvqf20","pricing_plan_id":"cebpf4jnsgd1na2vs0mg"},{"bike_id":"18361c49-bdac-4926-a222-92101c5ffc08","system_id":"levelo_inurba_marseille","lat":43.32483,"lon":5.36557,"is_reserved":false,"is_disabled":false,"rental_uris":{"android":"levelo://app?vid=18361c49-bdac-4926-a222-92101c5ffc08","ios":"levelo://app?vid=18361c49-bdac-4926-a222-92101c5ffc08"},"vehicle_type_id":"4","last_reported":1729292883,"current_range_meters":35200,"station_id":"ce4bhs12rcd13ifvqhvg","pricing_plan_id":"cebpf4jnsgd1na2vs0mg"},{"bike_id":"9f6f86b4-798e-4075-859a-e1e34f084eef","system_id":"levelo_inurba_marseille","lat":43.28463,"lon":5.3589,"is_reserved":false,"is_disabled":false,"rental_uris":{"android":"levelo://app?vid=9f6f86b4-798e-4075-859a-e1e34f084eef","ios":"levelo://app?vid=9f6f86b4-798e-4075-859a-e1e34f084eef"},"vehicle_type_id":"4","last_reported":1729292883,"current_range_meters":16400,"station_id":"ce4bhah2rcd13ifvqei0","pricing_plan_id":"cebpf4jnsgd1na2vs0mg"},{"bike_id":"8e9c6055-8067-43c8-b7e5-0ce9b2b9299f","system_id":"levelo_inurba_marseille","lat":43.28073,"lon":5.39645,"is_reserved":false,"is_disabled":false,"rental_uris":{"android":"levelo://app?vid=8e9c6055-8067-43c8-b7e5-0ce9b2b9299f","ios":"levelo://app?vid=8e9c6055-8067-43c8-b7e5-0ce9b2b9299f"},"vehicle_type_id":"4","last_reported":1729292883,"current_range_meters":38800,"station_id":"ce4bho12rcd13ifvqh2g","pricing_plan_id":"cebpf4jnsgd1na2vs0mg"},{"bike_id":"cfe78fd2-5ebc-40fb-858b-89aa9fc29771","system_id":"levelo_inurba_marseille","lat":43.29408,"lon":5.37809,"is_reserved":false,"is_disabled":false,"rental_uris":{"android":"levelo://app?vid=cfe78fd2-5ebc-40fb-858b-89aa9fc29771","ios":"levelo://app?vid=cfe78fd2-5ebc-40fb-858b-89aa9fc29771"},"vehicle_type_id":"4","last_reported":1729292883,"current_range_meters":24000,"station_id":"","pricing_plan_id":"cebpf4jnsgd1na2vs0mg"},{"bike_id":"dd2b4f0c-6344-4a16-bdd5-9a39e0be809c","system_id":"levelo_inurba_marseille","lat":43.279939,"lon":5.4166,"is_reserved":false,"is_disabled":false,"rental_uris":{"android":"levelo://app?vid=dd2b4f0c-6344-4a16-bdd5-9a39e0be809c","ios":"levelo://app?vid=dd2b4f0c-6344-4a16-bdd5-9a39e0be809c"},"vehicle_type_id":"4","last_reported":1729292883,"current_range_meters":36800,"station_id":"ce4bho12rcd13ifvqh1g","pricing_plan_id":"cebpf4jnsgd1na2vs0mg"},{"bike_id":"c28dcc41-e290-4ac5-920f-78c8b4b9a18e","system_id":"levelo_inurba_marseille","lat":43.27616,"lon":5.36116,"is_reserved":false,"is_disabled":false,"rental_uris":{"android":"levelo://app?vid=c28dcc41-e290-4ac5-920f-78c8b4b9a18e","ios":"levelo://app?vid=c28dcc41-e290-4ac5-920f-78c8b4b9a18e"},"vehicle_type_id":"4","last_reported":1729292883,"current_range_meters":35600,"station_id":"ce4bgj92rcd13ifvqbe0","pricing_plan_id":"cebpf4jnsgd1na2vs0mg"},{"bike_id":"4ce82a4a-83c0-4545-b012-7447fd0c0c13","system_id":"levelo_inurba_marseille","lat":43.23186,"lon":5.39985,"is_reserved":false,"is_disabled":false,"rental_uris":{"android":"levelo://app?vid=4ce82a4a-83c0-4545-b012-7447fd0c0c13","ios":"levelo://app?vid=4ce82a4a-83c0-4545-b012-7447fd0c0c13"},"vehicle_type_id":"4","last_reported":1729292883,"current_range_meters":35600,"station_id":"ce4bhn12rcd13ifvqgqg","pricing_plan_id":"cebpf4jnsgd1na2vs0mg"},{"bike_id":"72c90053-fb55-4e2b-a742-47956ffb76a6","system_id":"levelo_inurba_marseille","lat":43.30798,"lon":5.3816,"is_reserved":false,"is_disabled":false,"rental_uris":{"android":"levelo://app?vid=72c90053-fb55-4e2b-a742-47956ffb76a6","ios":"levelo://app?vid=72c90053-fb55-4e2b-a742-47956ffb76a6"},"vehicle_type_id":"4","last_reported":1729292883,"current_range_meters":19200,"station_id":"ce4bgt12rcd13ifvqce0","pricing_plan_id":"cebpf4jnsgd1na2vs0mg"},{"bike_id":"d9384299-89f4-4a8e-80cc-9de225b16f8d","system_id":"levelo_inurba_marseille","lat":43.28706,"lon":5.39979,"is_reserved":false,"is_disabled":false,"rental_uris":{"android":"levelo://app?vid=d9384299-89f4-4a8e-80cc-9de225b16f8d","ios":"levelo://app?vid=d9384299-89f4-4a8e-80cc-9de225b16f8d"},"vehicle_type_id":"4","last_reported":1729292883,"current_range_meters":32000,"station_id":"ce4bho92rcd13ifvqh3g","pricing_plan_id":"cebpf4jnsgd1na2vs0mg"},{"bike_id":"38d67d90-2d95-4f6e-9a9f-a5ffab1fba2c","system_id":"levelo_inurba_marseille","lat":43.29901,"lon":5.43666,"is_reserved":false,"is_disabled":false,"rental_uris":{"android":"levelo://app?vid=38d67d90-2d95-4f6e-9a9f-a5ffab1fba2c","ios":"levelo://app?vid=38d67d90-2d95-4f6e-9a9f-a5ffab1fba2c"},"vehicle_type_id":"4","last_reported":1729292883,"current_range_meters":24800,"station_id":"ce4bhpp2rcd13ifvqhfg","pricing_plan_id":"cebpf4jnsgd1na2vs0mg"},{"bike_id":"a161b12f-0743-4c3d-a761-3c139c5bf60b","system_id":"levelo_inurba_marseille","lat":43.30134,"lon":5.37423,"is_reserved":false,"is_disabled":false,"rental_uris":{"android":"levelo://app?vid=a161b12f-0743-4c3d-a761-3c139c5bf60b","ios":"levelo://app?vid=a161b12f-0743-4c3d-a761-3c139c5bf60b"},"vehicle_type_id":"4","last_reported":1729292883,"current_range_meters":38800,"station_id":"ce4bgs92rcd13ifvqcc0","pricing_plan_id":"cebpf4jnsgd1na2vs0mg"},{"bike_id":"043ef7a5-cd29-493a-9552-d950803a7229","system_id":"levelo_inurba_marseille","lat":43.28857,"lon":5.35841,"is_reserved":false,"is_disabled":false,"rental_uris":{"android":"levelo://app?vid=043ef7a5-cd29-493a-9552-d950803a7229","ios":"levelo://app?vid=043ef7a5-cd29-493a-9552-d950803a7229"},"vehicle_type_id":"4","last_reported":1729292883,"current_range_meters":2800,"station_id":"ce4bhb12rcd13ifvqem0","pricing_plan_id":"cebpf4jnsgd1na2vs0mg"},{"bike_id":"7bc23e55-0cb5-4e2e-8439-3972f0a178dc","system_id":"levelo_inurba_marseille","lat":43.32367,"lon":5.38886,"is_reserved":false,"is_disabled":false,"rental_uris":{"android":"levelo://app?vid=7bc23e55-0cb5-4e2e-8439-3972f0a178dc","ios":"levelo://app?vid=7bc23e55-0cb5-4e2e-8439-3972f0a178dc"},"vehicle_type_id":"4","last_reported":1729292883,"current_range_meters":13600,"station_id":"ce4bhqp2rcd13ifvqhog","pricing_plan_id":"cebpf4jnsgd1na2vs0mg"},{"bike_id":"d8b6aae6-0385-4b47-8ef5-41883b3602da","system_id":"levelo_inurba_marseille","lat":43.27364,"lon":5.36241,"is_reserved":false,"is_disabled":false,"rental_uris":{"android":"levelo://app?vid=d8b6aae6-0385-4b47-8ef5-41883b3602da","ios":"levelo://app?vid=d8b6aae6-0385-4b47-8ef5-41883b3602da"},"vehicle_type_id":"4","last_reported":1729292883,"current_range_meters":25200,"station_id":"ce4bhbh2rcd13ifvqeo0","pricing_plan_id":"cebpf4jnsgd1na2vs0mg"},{"bike_id":"8b33911e-5d42-46bd-b00d-c1d5ce72f577","system_id":"levelo_inurba_marseille","lat":43.23186,"lon":5.3998,"is_reserved":false,"is_disabled":false,"rental_uris":{"android":"levelo://app?vid=8b33911e-5d42-46bd-b00d-c1d5ce72f577","ios":"levelo://app?vid=8b33911e-5d42-46bd-b00d-c1d5ce72f577"},"vehicle_type_id":"4","last_reported":1729292883,"current_range_meters":38800,"station_id":"ce4bhn12rcd13ifvqgqg","pricing_plan_id":"cebpf4jnsgd1na2vs0mg"},{"bike_id":"296ffdda-7909-4ac7-a901-f96d7dc1d70e","system_id":"levelo_inurba_marseille","lat":43.30889,"lon":5.396472,"is_reserved":false,"is_disabled":false,"rental_uris":{"android":"levelo://app?vid=296ffdda-7909-4ac7-a901-f96d7dc1d70e","ios":"levelo://app?vid=296ffdda-7909-4ac7-a901-f96d7dc1d70e"},"vehicle_type_id":"4","last_reported":1729292883,"current_range_meters":24800,"station_id":"ce4bh012rcd13ifvqcv0","pricing_plan_id":"cebpf4jnsgd1na2vs0mg"},{"bike_id":"127b39da-5a41-410c-b941-95e91fb64c1a","system_id":"levelo_inurba_marseille","lat":43.28078,"lon":5.39656,"is_reserved":false,"is_disabled":false,"rental_uris":{"android":"levelo://app?vid=127b39da-5a41-410c-b941-95e91fb64c1a","ios":"levelo://app?vid=127b39da-5a41-410c-b941-95e91fb64c1a"},"vehicle_type_id":"4","last_reported":1729292883,"current_range_meters":38400,"station_id":"ce4bho12rcd13ifvqh2g","pricing_plan_id":"cebpf4jnsgd1na2vs0mg"},{"bike_id":"530b3e6a-6ea3-4d2b-a2e5-ee614161872a","system_id":"levelo_inurba_marseille","lat":43.28699,"lon":5.39982,"is_reserved":false,"is_disabled":false,"rental_uris":{"android":"levelo://app?vid=530b3e6a-6ea3-4d2b-a2e5-ee614161872a","ios":"levelo://app?vid=530b3e6a-6ea3-4d2b-a2e5-ee614161872a"},"vehicle_type_id":"4","last_reported":1729292883,"current_range_meters":30400,"station_id":"ce4bho92rcd13ifvqh3g","pricing_plan_id":"cebpf4jnsgd1na2vs0mg"},{"bike_id":"0994d7f0-fa2e-480f-b967-2b1e1b476b78","system_id":"levelo_inurba_marseille","lat":43.23192,"lon":5.35547,"is_reserved":false,"is_disabled":false,"rental_uris":{"android":"levelo://app?vid=0994d7f0-fa2e-480f-b967-2b1e1b476b78","ios":"levelo://app?vid=0994d7f0-fa2e-480f-b967-2b1e1b476b78"},"vehicle_type_id":"4","last_reported":1729292883,"current_range_meters":6800,"station_id":"ce4bhu92rcd13ifvqi70","pricing_plan_id":"cebpf4jnsgd1na2vs0mg"},{"bike_id":"e6789174-ca29-4f3e-b4c1-26a6f6f7478b","system_id":"levelo_inurba_marseille","lat":43.25718,"lon":5.41114,"is_reserved":false,"is_disabled":false,"rental_uris":{"android":"levelo://app?vid=e6789174-ca29-4f3e-b4c1-26a6f6f7478b","ios":"levelo://app?vid=e6789174-ca29-4f3e-b4c1-26a6f6f7478b"},"vehicle_type_id":"4","last_reported":1729292883,"current_range_meters":22800,"station_id":"ce4bhkp2rcd13ifvqgd0","pricing_plan_id":"cebpf4jnsgd1na2vs0mg"},{"bike_id":"41352ecd-ccf7-4501-b52c-c09f6f495c10","system_id":"levelo_inurba_marseille","lat":43.27176,"lon":5.40983,"is_reserved":false,"is_disabled":false,"rental_uris":{"android":"levelo://app?vid=41352ecd-ccf7-4501-b52c-c09f6f495c10","ios":"levelo://app?vid=41352ecd-ccf7-4501-b52c-c09f6f495c10"},"vehicle_type_id":"4","last_reported":1729292883,"current_range_meters":28000,"station_id":"ce4bhl12rcd13ifvqgf0","pricing_plan_id":"cebpf4jnsgd1na2vs0mg"},{"bike_id":"9afb42f5-3b0e-4c91-8c7a-f1d6d8c9b1c2","system_id":"levelo_inurba_marseille","lat":43.28033,"lon":5.3695,"is_reserved":false,"is_disabled":false,"rental_uris":{"android":"levelo://app?vid=9afb42f5-3b0e-4c91-8c7a-f1d6d8c9b1c2","ios":"levelo://app?vid=9afb42f5-3b0e-4c91-8c7a-f1d6d8c9b1c2"},"vehicle_type_id":"4","last_reported":1729292883,"current_range_meters":30400,"station_id":"ce4bha12rcd13ifvqef0","pricing_plan_id":"cebpf4jnsgd1na2vs0mg"},{"bike_id":"66ccc46d-618e-4760-b09c-27382152bdab","system_id":"levelo_inurba_marseille","lat":43.23193,"lon":5.35547,"is_reserved":false,"is_disabled":false,"rental_uris":{"android":"levelo://app?vid=66ccc46d-618e-4760-b09c-27382152bdab","ios":"levelo://app?vid=66ccc46d-618e-4760-b09c-27382152bdab"},"vehicle_type_id":"4","last_reported":1729292883,"current_range_meters":26800,"station_id":"ce4bhu92rcd13ifvqi70","pricing_plan_id":"cebpf4jnsgd1na2vs0mg"},{"bike_id":"47b0677d-f1ea-44b9-ad27-95f55e4f3816","system_id":"levelo_inurba_marseille","lat":43.23953,"lon":5.36636,"is_reserved":false,"is_disabled":false,"rental_uris":{"android":"levelo://app?vid=47b0677d-f1ea-44b9-ad27-95f55e4f3816","ios":"levelo://app?vid=47b0677d-f1ea-44b9-ad27-95f55e4f3816"},"vehicle_type_id":"4","last_reported":1729292883,"current_range_meters":20800,"station_id":"ce4bhi12rcd13ifvqfp0","pricing_plan_id":"cebpf4jnsgd1na2vs0mg"},{"bike_id":"1860d57b-1c18-4f47-82b0-bfd50055f289","system_id":"levelo_inurba_marseille","lat":43.3112,"lon":5.37767,"is_reserved":false,"is_disabled":false,"rental_uris":{"android":"levelo://app?vid=1860d57b-1c18-4f47-82b0-bfd50055f289","ios":"levelo://app?vid=1860d57b-1c18-4f47-82b0-bfd50055f289"},"vehicle_type_id":"4","last_reported":1729292883,"current_range_meters":33600,"station_id":"ce4bgt92rcd13ifvqcg0","pricing_plan_id":"cebpf4jnsgd1na2vs0mg"},{"bike_id":"cef018dd-bd38-4d1c-a68f-1ff97d712d7d","system_id":"levelo_inurba_marseille","lat":43.30317,"lon":5.40446,"is_reserved":false,"is_disabled":false,"rental_uris":{"android":"levelo://app?vid=cef018dd-bd38-4d1c-a68f-1ff97d712d7d","ios":"levelo://app?vid=cef018dd-bd38-4d1c-a68f-1ff97d712d7d"},"vehicle_type_id":"4","last_reported":1729292883,"current_range_meters":35600,"station_id":"ce4bh012rcd13ifvqd10","pricing_plan_id":"cebpf4jnsgd1na2vs0mg"},{"bike_id":"87b27491-5215-4140-9db2-06195f6f5368","system_id":"levelo_inurba_marseille","lat":43.28456,"lon":5.35892,"is_reserved":false,"is_disabled":false,"rental_uris":{"android":"levelo://app?vid=87b27491-5215-4140-9db2-06195f6f5368","ios":"levelo://app?vid=87b27491-5215-4140-9db2-06195f6f5368"},"vehicle_type_id":"4","last_reported":1729292883,"current_range_meters":4000,"station_id":"ce4bhah2rcd13ifvqei0","pricing_plan_id":"cebpf4jnsgd1na2vs0mg"},{"bike_id":"419a9d7d-2a1b-40b7-a37f-e4605d93d1f7","system_id":"levelo_inurba_marseille","lat":43.23186,"lon":5.39995,"is_reserved":false,"is_disabled":false,"rental_uris":{"android":"levelo://app?vid=419a9d7d-2a1b-40b7-a37f-e4605d93d1f7","ios":"levelo://app?vid=419a9d7d-2a1b-40b7-a37f-e4605d93d1f7"},"vehicle_type_id":"4","last_reported":1729292883,"current_range_meters":38800,"station_id":"ce4bhn12rcd13ifvqgqg","pricing_plan_id":"cebpf4jnsgd1na2vs0mg"},{"bike_id":"fbcdd40a-223e-4740-bca1-d5de715a7938","system_id":"levelo_inurba_marseille","lat":43.26195,"lon":5.37446,"is_reserved":false,"is_disabled":false,"rental_uris":{"android":"levelo://app?vid=fbcdd40a-223e-4740-bca1-d5de715a7938","ios":"levelo://app?vid=fbcdd40a-223e-4740-bca1-d5de715a7938"},"vehicle_type_id":"4","last_reported":1729292883,"current_range_meters":30400,"station_id":"ce4bhgp2rcd13ifvqfc0","pricing_plan_id":"cebpf4jnsgd1na2vs0mg"},{"bike_id":"ae435b78-7482-436d-bcc5-db6941735961","system_id":"levelo_inurba_marseille","lat":43.3211,"lon":5.36777,"is_reserved":false,"is_disabled":false,"rental_uris":{"android":"levelo://app?vid=ae435b78-7482-436d-bcc5-db6941735961","ios":"levelo://app?vid=ae435b78-7482-436d-bcc5-db6941735961"},"vehicle_type_id":"4","last_reported":1729292883,"current_range_meters":36400,"station_id":"ce4bhrh2rcd13ifvqhug","pricing_plan_id":"cebpf4jnsgd1na2vs0mg"},{"bike_id":"a30002c2-320c-4186-887b-941308b39268","system_id":"levelo_inurba_marseille","lat":43.27952,"lon":5.4104,"is_reserved":false,"is_disabled":false,"rental_uris":{"android":"levelo://app?vid=a30002c2-320c-4186-887b-941308b39268","ios":"levelo://app?vid=a30002c2-320c-4186-887b-941308b39268"},"vehicle_type_id":"4","last_reported":1729292883,"current_range_meters":6400,"station_id":"ce4bhnp2rcd13ifvqh0g","pricing_plan_id":"cebpf4jnsgd1na2vs0mg"},{"bike_id":"802c3928-97cc-44c8-a177-8b622a90a969","system_id":"levelo_inurba_marseille","lat":43.23194,"lon":5.39984,"is_reserved":false,"is_disabled":false,"rental_uris":{"android":"levelo://app?vid=802c3928-97cc-44c8-a177-8b622a90a969","ios":"levelo://app?vid=802c3928-97cc-44c8-a177-8b622a90a969"},"vehicle_type_id":"4","last_reported":1729292883,"current_range_meters":4800,"station_id":"ce4bhn12rcd13ifvqgqg","pricing_plan_id":"cebpf4jnsgd1na2vs0mg"},{"bike_id":"2416bf3c-f3b1-4a53-b130-133f9ffa03f1","system_id":"levelo_inurba_marseille","lat":43.33609,"lon":5.4103,"is_reserved":false,"is_disabled":false,"rental_uris":{"android":"levelo://app?vid=2416bf3c-f3b1-4a53-b130-133f9ffa03f1","ios":"levelo://app?vid=2416bf3c-f3b1-4a53-b130-133f9ffa03f1"},"vehicle_type_id":"4","last_reported":1729292883,"current_range_meters":25600,"station_id":"ce4bhqh2rcd13ifvqhmg","pricing_plan_id":"cebpf4jnsgd1na2vs0mg"},{"bike_id":"907d90e2-7e08-4846-bbc2-01977b54a9bd","system_id":"levelo_inurba_marseille","lat":43.24169,"lon":5.36393,"is_reserved":false,"is_disabled":false,"rental_uris":{"android":"levelo://app?vid=907d90e2-7e08-4846-bbc2-01977b54a9bd","ios":"levelo://app?vid=907d90e2-7e08-4846-bbc2-01977b54a9bd"},"vehicle_type_id":"4","last_reported":1729292883,"current_range_meters":15200,"station_id":"cpo36qri1sfpv3e86is0","pricing_plan_id":"cebpf4jnsgd1na2vs0mg"},{"bike_id":"48836f4d-12e6-41c1-a5c7-c5ab40f084cd","system_id":"levelo_inurba_marseille","lat":43.25583,"lon":5.38236,"is_reserved":false,"is_disabled":false,"rental_uris":{"android":"levelo://app?vid=48836f4d-12e6-41c1-a5c7-c5ab40f084cd","ios":"levelo://app?vid=48836f4d-12e6-41c1-a5c7-c5ab40f084cd"},"vehicle_type_id":"4","last_reported":1729292883,"current_range_meters":21600,"station_id":"ce4bhih2rcd13ifvqfs0","pricing_plan_id":"cebpf4jnsgd1na2vs0mg"},{"bike_id":"eb6d1ebd-084f-4340-b44b-2c28d5719fea","system_id":"levelo_inurba_marseille","lat":43.32341,"lon":5.40622,"is_reserved":false,"is_disabled":false,"rental_uris":{"android":"levelo://app?vid=eb6d1ebd-084f-4340-b44b-2c28d5719fea","ios":"levelo://app?vid=eb6d1ebd-084f-4340-b44b-2c28d5719fea"},"vehicle_type_id":"4","last_reported":1729292883,"current_range_meters":16400,"station_id":"ce4bhq92rcd13ifvqhjg","pricing_plan_id":"cebpf4jnsgd1na2vs0mg"},{"bike_id":"8e6024a9-65e4-4bf9-b89c-45ae5cc5e602","system_id":"levelo_inurba_marseille","lat":43.30797,"lon":5.38159,"is_reserved":false,"is_disabled":false,"rental_uris":{"android":"levelo://app?vid=8e6024a9-65e4-4bf9-b89c-45ae5cc5e602","ios":"levelo://app?vid=8e6024a9-65e4-4bf9-b89c-45ae5cc5e602"},"vehicle_type_id":"4","last_reported":1729292883,"current_range_meters":29600,"station_id":"ce4bgt12rcd13ifvqce0","pricing_plan_id":"cebpf4jnsgd1na2vs0mg"},{"bike_id":"e3940e77-42c5-4df3-8e72-52811b0c857b","system_id":"levelo_inurba_marseille","lat":43.31361,"lon":5.38491,"is_reserved":false,"is_disabled":false,"rental_uris":{"android":"levelo://app?vid=e3940e77-42c5-4df3-8e72-52811b0c857b","ios":"levelo://app?vid=e3940e77-42c5-4df3-8e72-52811b0c857b"},"vehicle_type_id":"4","last_reported":1729292883,"current_range_meters":17600,"station_id":"ce4bgt92rcd13ifvqcf0","pricing_plan_id":"cebpf4jnsgd1na2vs0mg"},{"bike_id":"ed913017-0c45-4c1c-b4ff-feacb7ef44ac","system_id":"levelo_inurba_marseille","lat":43.31333,"lon":5.39697,"is_reserved":false,"is_disabled":false,"rental_uris":{"android":"levelo://app?vid=ed913017-0c45-4c1c-b4ff-feacb7ef44ac","ios":"levelo://app?vid=ed913017-0c45-4c1c-b4ff-feacb7ef44ac"},"vehicle_type_id":"4","last_reported":1729292883,"current_range_meters":38400,"station_id":"ce4bgvp2rcd13ifvqcu0","pricing_plan_id":"cebpf4jnsgd1na2vs0mg"},{"bike_id":"1cabbdc9-dc41-45af-857a-2dd3849f5472","system_id":"levelo_inurba_marseille","lat":43.25502,"lon":5.37652,"is_reserved":false,"is_disabled":false,"rental_uris":{"android":"levelo://app?vid=1cabbdc9-dc41-45af-857a-2dd3849f5472","ios":"levelo://app?vid=1cabbdc9-dc41-45af-857a-2dd3849f5472"},"vehicle_type_id":"4","last_reported":1729292883,"current_range_meters":23200,"station_id":"ce4bhh12rcd13ifvqff0","pricing_plan_id":"cebpf4jnsgd1na2vs0mg"},{"bike_id":"30b33eb0-74bb-4628-9ed5-599c2ab46a26","system_id":"levelo_inurba_marseille","lat":43.25496,"lon":5.37652,"is_reserved":false,"is_disabled":false,"rental_uris":{"android":"levelo://app?vid=30b33eb0-74bb-4628-9ed5-599c2ab46a26","ios":"levelo://app?vid=30b33eb0-74bb-4628-9ed5-599c2ab46a26"},"vehicle_type_id":"4","last_reported":1729292883,"current_range_meters":22400,"station_id":"ce4bhh12rcd13ifvqff0","pricing_plan_id":"cebpf4jnsgd1na2vs0mg"},{"bike_id":"2c9239f6-536e-46f1-91f2-9cd7a2645cd3","system_id":"levelo_inurba_marseille","lat":43.31282,"lon":5.40168,"is_reserved":false,"is_disabled":false,"rental_uris":{"android":"levelo://app?vid=2c9239f6-536e-46f1-91f2-9cd7a2645cd3","ios":"levelo://app?vid=2c9239f6-536e-46f1-91f2-9cd7a2645cd3"},"vehicle_type_id":"4","last_reported":1729292883,"current_range_meters":38800,"station_id":"ce4bh092rcd13ifvqd30","pricing_plan_id":"cebpf4jnsgd1na2vs0mg"},{"bike_id":"9b697ce4-04b2-4aeb-ad1d-d9c602b75937","system_id":"levelo_inurba_marseille","lat":43.317,"lon":5.3775,"is_reserved":false,"is_disabled":false,"rental_uris":{"android":"levelo://app?vid=9b697ce4-04b2-4aeb-ad1d-d9c602b75937","ios":"levelo://app?vid=9b697ce4-04b2-4aeb-ad1d-d9c602b75937"},"vehicle_type_id":"4","last_reported":1729292883,"current_range_meters":35600,"station_id":"ce4bgth2rcd13ifvqch0","pricing_plan_id":"cebpf4jnsgd1na2vs0mg"},{"bike_id":"94dad7f8-6585-4b37-b691-74420d23ef13","system_id":"levelo_inurba_marseille","lat":43.30797,"lon":5.43519,"is_reserved":false,"is_disabled":false,"rental_uris":{"android":"levelo://app?vid=94dad7f8-6585-4b37-b691-74420d23ef13","ios":"levelo://app?vid=94dad7f8-6585-4b37-b691-74420d23ef13"},"vehicle_type_id":"4","last_reported":1729292883,"current_range_meters":34000,"station_id":"ce4bhph2rcd13ifvqheg","pricing_plan_id":"cebpf4jnsgd1na2vs0mg"},{"bike_id":"1f4c251b-7bde-4fb0-bd57-78d4494bd0f0","system_id":"levelo_inurba_marseille","lat":43.26935,"lon":5.38918,"is_reserved":false,"is_disabled":false,"rental_uris":{"android":"levelo://app?vid=1f4c251b-7bde-4fb0-bd57-78d4494bd0f0","ios":"levelo://app?vid=1f4c251b-7bde-4fb0-bd57-78d4494bd0f0"},"vehicle_type_id":"4","last_reported":1729292883,"current_range_meters":18000,"station_id":"ce4bhhh2rcd13ifvqfl0","pricing_plan_id":"cebpf4jnsgd1na2vs0mg"},{"bike_id":"4562e9bb-7c1e-4e0e-95e1-858d0f8d86d1","system_id":"levelo_inurba_marseille","lat":43.2319,"lon":5.35563,"is_reserved":false,"is_disabled":false,"rental_uris":{"android":"levelo://app?vid=4562e9bb-7c1e-4e0e-95e1-858d0f8d86d1","ios":"levelo://app?vid=4562e9bb-7c1e-4e0e-95e1-858d0f8d86d1"},"vehicle_type_id":"4","last_reported":1729292883,"current_range_meters":30400,"station_id":"ce4bhu92rcd13ifvqi70","pricing_plan_id":"cebpf4jnsgd1na2vs0mg"},{"bike_id":"251d1e7f-8f9a-4fc2-9c26-e8756ab4b7e9","system_id":"levelo_inurba_marseille","lat":43.308,"lon":5.38143,"is_reserved":false,"is_disabled":false,"rental_uris":{"android":"levelo://app?vid=251d1e7f-8f9a-4fc2-9c26-e8756ab4b7e9","ios":"levelo://app?vid=251d1e7f-8f9a-4fc2-9c26-e8756ab4b7e9"},"vehicle_type_id":"4","last_reported":1729292883,"current_range_meters":17200,"station_id":"ce4bgt12rcd13ifvqce0","pricing_plan_id":"cebpf4jnsgd1na2vs0mg"},{"bike_id":"cd6f88bd-b8aa-4a7d-9cc5-06b3a290aed5","system_id":"levelo_inurba_marseille","lat":43.24548,"lon":5.39525,"is_reserved":false,"is_disabled":false,"rental_uris":{"android":"levelo://app?vid=cd6f88bd-b8aa-4a7d-9cc5-06b3a290aed5","ios":"levelo://app?vid=cd6f88bd-b8aa-4a7d-9cc5-06b3a290aed5"},"vehicle_type_id":"4","last_reported":1729292883,"current_range_meters":39200,"station_id":"ce4bhlp2rcd13ifvqgjg","pricing_plan_id":"cebpf4jnsgd1na2vs0mg"},{"bike_id":"2140b6a3-5118-4150-823e-9225aeb56201","system_id":"levelo_inurba_marseille","lat":43.23196,"lon":5.35545,"is_reserved":false,"is_disabled":false,"rental_uris":{"android":"levelo://app?vid=2140b6a3-5118-4150-823e-9225aeb56201","ios":"levelo://app?vid=2140b6a3-5118-4150-823e-9225aeb56201"},"vehicle_type_id":"4","last_reported":1729292883,"current_range_meters":29600,"station_id":"ce4bhu92rcd13ifvqi70","pricing_plan_id":"cebpf4jnsgd1na2vs0mg"},{"bike_id":"f2522823-27ea-43cf-8234-ee5a9dcca0a3","system_id":"levelo_inurba_marseille","lat":43.3236,"lon":5.389019,"is_reserved":false,"is_disabled":false,"rental_uris":{"android":"levelo://app?vid=f2522823-27ea-43cf-8234-ee5a9dcca0a3","ios":"levelo://app?vid=f2522823-27ea-43cf-8234-ee5a9dcca0a3"},"vehicle_type_id":"4","last_reported":1729292883,"current_range_meters":28000,"station_id":"ce4bhqp2rcd13ifvqhog","pricing_plan_id":"cebpf4jnsgd1na2vs0mg"},{"bike_id":"40589edc-baeb-4043-9212-ab10116ce0d0","system_id":"levelo_inurba_marseille","lat":43.28462,"lon":5.35889,"is_reserved":false,"is_disabled":false,"rental_uris":{"android":"levelo://app?vid=40589edc-baeb-4043-9212-ab10116ce0d0","ios":"levelo://app?vid=40589edc-baeb-4043-9212-ab10116ce0d0"},"vehicle_type_id":"4","last_reported":1729292883,"current_range_meters":25200,"station_id":"ce4bhah2rcd13ifvqei0","pricing_plan_id":"cebpf4jnsgd1na2vs0mg"},{"bike_id":"d116ab63-54e5-422b-8ef9-2c8c31901cde","system_id":"levelo_inurba_marseille","lat":43.26035,"lon":5.37549,"is_reserved":false,"is_disabled":false,"rental_uris":{"android":"levelo://app?vid=d116ab63-54e5-422b-8ef9-2c8c31901cde","ios":"levelo://app?vid=d116ab63-54e5-422b-8ef9-2c8c31901cde"},"vehicle_type_id":"4","last_reported":1729292883,"current_range_meters":25600,"station_id":"ce4bhgh2rcd13ifvqfa0","pricing_plan_id":"cebpf4jnsgd1na2vs0mg"},{"bike_id":"5fcafa2e-9de4-4b9a-bba5-451af068b69e","system_id":"levelo_inurba_marseille","lat":43.27994,"lon":5.41658,"is_reserved":false,"is_disabled":false,"rental_uris":{"android":"levelo://app?vid=5fcafa2e-9de4-4b9a-bba5-451af068b69e","ios":"levelo://app?vid=5fcafa2e-9de4-4b9a-bba5-451af068b69e"},"vehicle_type_id":"4","last_reported":1729292883,"current_range_meters":30000,"station_id":"ce4bho12rcd13ifvqh1g","pricing_plan_id":"cebpf4jnsgd1na2vs0mg"},{"bike_id":"1601a383-f0c6-479d-8219-594013c0df01","system_id":"levelo_inurba_marseille","lat":43.28455,"lon":5.35886,"is_reserved":false,"is_disabled":false,"rental_uris":{"android":"levelo://app?vid=1601a383-f0c6-479d-8219-594013c0df01","ios":"levelo://app?vid=1601a383-f0c6-479d-8219-594013c0df01"},"vehicle_type_id":"4","last_reported":1729292883,"current_range_meters":8400,"station_id":"ce4bhah2rcd13ifvqei0","pricing_plan_id":"cebpf4jnsgd1na2vs0mg"},{"bike_id":"41086fee-693b-42f4-87db-3ee8b69c646e","system_id":"levelo_inurba_marseille","lat":43.26807,"lon":5.40267,"is_reserved":false,"is_disabled":false,"rental_uris":{"android":"levelo://app?vid=41086fee-693b-42f4-87db-3ee8b69c646e","ios":"levelo://app?vid=41086fee-693b-42f4-87db-3ee8b69c646e"},"vehicle_type_id":"4","last_reported":1729292883,"current_range_meters":6000,"station_id":"ce501612rcd8frsf0b60","pricing_plan_id":"cebpf4jnsgd1na2vs0mg"},{"bike_id":"71ff7bf5-519f-4879-804f-e6ebaab58e8f","system_id":"levelo_inurba_marseille","lat":43.28437,"lon":5.39181,"is_reserved":false,"is_disabled":false,"rental_uris":{"android":"levelo://app?vid=71ff7bf5-519f-4879-804f-e6ebaab58e8f","ios":"levelo://app?vid=71ff7bf5-519f-4879-804f-e6ebaab58e8f"},"vehicle_type_id":"4","last_reported":1729292883,"current_range_meters":38800,"station_id":"ce4bhoh2rcd13ifvqh5g","pricing_plan_id":"cebpf4jnsgd1na2vs0mg"},{"bike_id":"d61fce85-3c3c-46ad-be13-4371b5ff55af","system_id":"levelo_inurba_marseille","lat":43.30211,"lon":5.39452,"is_reserved":false,"is_disabled":false,"rental_uris":{"android":"levelo://app?vid=d61fce85-3c3c-46ad-be13-4371b5ff55af","ios":"levelo://app?vid=d61fce85-3c3c-46ad-be13-4371b5ff55af"},"vehicle_type_id":"4","last_reported":1729292883,"current_range_meters":9600,"station_id":"ce4bh0p2rcd13ifvqd70","pricing_plan_id":"cebpf4jnsgd1na2vs0mg"},{"bike_id":"9a54bdf2-c459-4c1c-8ed0-1de6fb699d45","system_id":"levelo_inurba_marseille","lat":43.32454,"lon":5.36704,"is_reserved":false,"is_disabled":false,"rental_uris":{"android":"levelo://app?vid=9a54bdf2-c459-4c1c-8ed0-1de6fb699d45","ios":"levelo://app?vid=9a54bdf2-c459-4c1c-8ed0-1de6fb699d45"},"vehicle_type_id":"4","last_reported":1729292883,"current_range_meters":14800,"station_id":"ce4bhs12rcd13ifvqhvg","pricing_plan_id":"cebpf4jnsgd1na2vs0mg"},{"bike_id":"041391a2-fc6a-4cef-8d1c-2dfe1f010100","system_id":"levelo_inurba_marseille","lat":43.31363,"lon":5.38497,"is_reserved":false,"is_disabled":false,"rental_uris":{"android":"levelo://app?vid=041391a2-fc6a-4cef-8d1c-2dfe1f010100","ios":"levelo://app?vid=041391a2-fc6a-4cef-8d1c-2dfe1f010100"},"vehicle_type_id":"4","last_reported":1729292883,"current_range_meters":30000,"station_id":"ce4bgt92rcd13ifvqcf0","pricing_plan_id":"cebpf4jnsgd1na2vs0mg"},{"bike_id":"ab49cb35-2101-457d-97ab-33a97c5a4bee","system_id":"levelo_inurba_marseille","lat":43.32656,"lon":5.40987,"is_reserved":false,"is_disabled":false,"rental_uris":{"android":"levelo://app?vid=ab49cb35-2101-457d-97ab-33a97c5a4bee","ios":"levelo://app?vid=ab49cb35-2101-457d-97ab-33a97c5a4bee"},"vehicle_type_id":"4","last_reported":1729292883,"current_range_meters":18000,"station_id":"ce4bhpp2rcd13ifvqhgg","pricing_plan_id":"cebpf4jnsgd1na2vs0mg"},{"bike_id":"7772d39f-5e28-445c-af91-069b0cf63793","system_id":"levelo_inurba_marseille","lat":43.33765,"lon":5.37438,"is_reserved":false,"is_disabled":false,"rental_uris":{"android":"levelo://app?vid=7772d39f-5e28-445c-af91-069b0cf63793","ios":"levelo://app?vid=7772d39f-5e28-445c-af91-069b0cf63793"},"vehicle_type_id":"4","last_reported":1729292883,"current_range_meters":11600,"station_id":"","pricing_plan_id":"cebpf4jnsgd1na2vs0mg"},{"bike_id":"8ef90d9e-d794-4233-be5e-295a9c0725bd","system_id":"levelo_inurba_marseille","lat":43.31366,"lon":5.38499,"is_reserved":false,"is_disabled":false,"rental_uris":{"android":"levelo://app?vid=8ef90d9e-d794-4233-be5e-295a9c0725bd","ios":"levelo://app?vid=8ef90d9e-d794-4233-be5e-295a9c0725bd"},"vehicle_type_id":"4","last_reported":1729292883,"current_range_meters":38800,"station_id":"ce4bgt92rcd13ifvqcf0","pricing_plan_id":"cebpf4jnsgd1na2vs0mg"},{"bike_id":"3213665e-989c-4d22-9f5a-31c8522597dd","system_id":"levelo_inurba_marseille","lat":43.296,"lon":5.36142,"is_reserved":false,"is_disabled":false,"rental_uris":{"android":"levelo://app?vid=3213665e-989c-4d22-9f5a-31c8522597dd","ios":"levelo://app?vid=3213665e-989c-4d22-9f5a-31c8522597dd"},"vehicle_type_id":"4","last_reported":1729292883,"current_range_meters":22000,"station_id":"","pricing_plan_id":"cebpf4jnsgd1na2vs0mg"},{"bike_id":"a4115a63-1609-4834-be11-0c1a60ce541a","system_id":"levelo_inurba_marseille","lat":43.31075,"lon":5.38357,"is_reserved":false,"is_disabled":false,"rental_uris":{"android":"levelo://app?vid=a4115a63-1609-4834-be11-0c1a60ce541a","ios":"levelo://app?vid=a4115a63-1609-4834-be11-0c1a60ce541a"},"vehicle_type_id":"4","last_reported":1729292883,"current_range_meters":30000,"station_id":"ce4bgv92rcd13ifvqcr0","pricing_plan_id":"cebpf4jnsgd1na2vs0mg"},{"bike_id":"cddb2538-acdb-46a5-bc95-6e0a8d74ef0c","system_id":"levelo_inurba_marseille","lat":43.30795,"lon":5.43529,"is_reserved":false,"is_disabled":false,"rental_uris":{"android":"levelo://app?vid=cddb2538-acdb-46a5-bc95-6e0a8d74ef0c","ios":"levelo://app?vid=cddb2538-acdb-46a5-bc95-6e0a8d74ef0c"},"vehicle_type_id":"4","last_reported":1729292883,"current_range_meters":29600,"station_id":"ce4bhph2rcd13ifvqheg","pricing_plan_id":"cebpf4jnsgd1na2vs0mg"},{"bike_id":"0b800deb-d8de-4017-9625-270fd2e8f5e0","system_id":"levelo_inurba_marseille","lat":43.28725,"lon":5.36083,"is_reserved":false,"is_disabled":false,"rental_uris":{"android":"levelo://app?vid=0b800deb-d8de-4017-9625-270fd2e8f5e0","ios":"levelo://app?vid=0b800deb-d8de-4017-9625-270fd2e8f5e0"},"vehicle_type_id":"4","last_reported":1729292883,"current_range_meters":21600,"station_id":"cki0cbj6b192h4jlfktg","pricing_plan_id":"cebpf4jnsgd1na2vs0mg"},{"bike_id":"85978b2d-96a1-4496-a15d-3917a97b0613","system_id":"levelo_inurba_marseille","lat":43.32366,"lon":5.38889,"is_reserved":false,"is_disabled":false,"rental_uris":{"android":"levelo://app?vid=85978b2d-96a1-4496-a15d-3917a97b0613","ios":"levelo://app?vid=85978b2d-96a1-4496-a15d-3917a97b0613"},"vehicle_type_id":"4","last_reported":1729292883,"current_range_meters":38800,"station_id":"ce4bhqp2rcd13ifvqhog","pricing_plan_id":"cebpf4jnsgd1na2vs0mg"},{"bike_id":"89211ee2-076f-4df3-92bd-cd8885f2e76d","system_id":"levelo_inurba_marseille","lat":43.23194,"lon":5.35556,"is_reserved":false,"is_disabled":false,"rental_uris":{"android":"levelo://app?vid=89211ee2-076f-4df3-92bd-cd8885f2e76d","ios":"levelo://app?vid=89211ee2-076f-4df3-92bd-cd8885f2e76d"},"vehicle_type_id":"4","last_reported":1729292883,"current_range_meters":26800,"station_id":"ce4bhu92rcd13ifvqi70","pricing_plan_id":"cebpf4jnsgd1na2vs0mg"},{"bike_id":"35a4a067-6724-4af6-9ac7-d2fc1a807c6b","system_id":"levelo_inurba_marseille","lat":43.23156,"lon":5.43716,"is_reserved":false,"is_disabled":false,"rental_uris":{"android":"levelo://app?vid=35a4a067-6724-4af6-9ac7-d2fc1a807c6b","ios":"levelo://app?vid=35a4a067-6724-4af6-9ac7-d2fc1a807c6b"},"vehicle_type_id":"4","last_reported":1729292883,"current_range_meters":3600,"station_id":"ce4bhmp2rcd13ifvqgog","pricing_plan_id":"cebpf4jnsgd1na2vs0mg"},{"bike_id":"a42d053b-efc3-4d04-88dc-06d3f1dc7ac8","system_id":"levelo_inurba_marseille","lat":43.30414,"lon":5.41285,"is_reserved":false,"is_disabled":false,"rental_uris":{"android":"levelo://app?vid=a42d053b-efc3-4d04-88dc-06d3f1dc7ac8","ios":"levelo://app?vid=a42d053b-efc3-4d04-88dc-06d3f1dc7ac8"},"vehicle_type_id":"4","last_reported":1729292883,"current_range_meters":28000,"station_id":"ce4bhop2rcd13ifvqh8g","pricing_plan_id":"cebpf4jnsgd1na2vs0mg"},{"bike_id":"c172a46f-712d-4dd6-b001-1af5715fefae","system_id":"levelo_inurba_marseille","lat":43.29525,"lon":5.394,"is_reserved":false,"is_disabled":false,"rental_uris":{"android":"levelo://app?vid=c172a46f-712d-4dd6-b001-1af5715fefae","ios":"levelo://app?vid=c172a46f-712d-4dd6-b001-1af5715fefae"},"vehicle_type_id":"4","last_reported":1729292883,"current_range_meters":20800,"station_id":"ce4bh292rcd13ifvqdf0","pricing_plan_id":"cebpf4jnsgd1na2vs0mg"},{"bike_id":"720f32bc-f057-41f4-aebc-3fd98c4f7d49","system_id":"levelo_inurba_marseille","lat":43.3039,"lon":5.36756,"is_reserved":false,"is_disabled":false,"rental_uris":{"android":"levelo://app?vid=720f32bc-f057-41f4-aebc-3fd98c4f7d49","ios":"levelo://app?vid=720f32bc-f057-41f4-aebc-3fd98c4f7d49"},"vehicle_type_id":"4","last_reported":1729292883,"current_range_meters":9600,"station_id":"","pricing_plan_id":"cebpf4jnsgd1na2vs0mg"},{"bike_id":"e187053f-8652-47c0-b30c-5eceeadb8962","system_id":"levelo_inurba_marseille","lat":43.27374,"lon":5.36248,"is_reserved":false,"is_disabled":false,"rental_uris":{"android":"levelo://app?vid=e187053f-8652-47c0-b30c-5eceeadb8962","ios":"levelo://app?vid=e187053f-8652-47c0-b30c-5eceeadb8962"},"vehicle_type_id":"4","last_reported":1729292883,"current_range_meters":22800,"station_id":"ce4bhbh2rcd13ifvqeo0","pricing_plan_id":"cebpf4jnsgd1na2vs0mg"},{"bike_id":"ec856568-8217-4dcd-acd9-cbc0c1bd9ea0","system_id":"levelo_inurba_marseille","lat":43.31065,"lon":5.38349,"is_reserved":false,"is_disabled":false,"rental_uris":{"android":"levelo://app?vid=ec856568-8217-4dcd-acd9-cbc0c1bd9ea0","ios":"levelo://app?vid=ec856568-8217-4dcd-acd9-cbc0c1bd9ea0"},"vehicle_type_id":"4","last_reported":1729292883,"current_range_meters":33600,"station_id":"ce4bgv92rcd13ifvqcr0","pricing_plan_id":"cebpf4jnsgd1na2vs0mg"},{"bike_id":"48f2469d-4594-4ecb-a7ea-698cf7713650","system_id":"levelo_inurba_marseille","lat":43.33021,"lon":5.39038,"is_reserved":false,"is_disabled":false,"rental_uris":{"android":"levelo://app?vid=48f2469d-4594-4ecb-a7ea-698cf7713650","ios":"levelo://app?vid=48f2469d-4594-4ecb-a7ea-698cf7713650"},"vehicle_type_id":"4","last_reported":1729292883,"current_range_meters":27200,"station_id":"ce4bhr92rcd13ifvqhrg","pricing_plan_id":"cebpf4jnsgd1na2vs0mg"},{"bike_id":"2c81d88a-0d30-4f4d-a873-7d5197d088f1","system_id":"levelo_inurba_marseille","lat":43.29846,"lon":5.36281,"is_reserved":false,"is_disabled":false,"rental_uris":{"android":"levelo://app?vid=2c81d88a-0d30-4f4d-a873-7d5197d088f1","ios":"levelo://app?vid=2c81d88a-0d30-4f4d-a873-7d5197d088f1"},"vehicle_type_id":"4","last_reported":1729292883,"current_range_meters":38000,"station_id":"ce4bgpp2rcd13ifvqc3g","pricing_plan_id":"cebpf4jnsgd1na2vs0mg"},{"bike_id":"7bf4a3ad-38e1-46a8-a695-b03fae202205","system_id":"levelo_inurba_marseille","lat":43.31164,"lon":5.38724,"is_reserved":false,"is_disabled":false,"rental_uris":{"android":"levelo://app?vid=7bf4a3ad-38e1-46a8-a695-b03fae202205","ios":"levelo://app?vid=7bf4a3ad-38e1-46a8-a695-b03fae202205"},"vehicle_type_id":"4","last_reported":1729292883,"current_range_meters":5600,"station_id":"ce4bgv12rcd13ifvqcp0","pricing_plan_id":"cebpf4jnsgd1na2vs0mg"},{"bike_id":"11a21bb0-f15a-49f4-8d19-d7ea309cb0d1","system_id":"levelo_inurba_marseille","lat":43.31759,"lon":5.39009,"is_reserved":false,"is_disabled":false,"rental_uris":{"android":"levelo://app?vid=11a21bb0-f15a-49f4-8d19-d7ea309cb0d1","ios":"levelo://app?vid=11a21bb0-f15a-49f4-8d19-d7ea309cb0d1"},"vehicle_type_id":"4","last_reported":1729292883,"current_range_meters":11200,"station_id":"ce4bhqp2rcd13ifvqhng","pricing_plan_id":"cebpf4jnsgd1na2vs0mg"},{"bike_id":"77beba7d-a141-4422-8ee2-04dbcdb74b98","system_id":"levelo_inurba_marseille","lat":43.2846,"lon":5.35881,"is_reserved":false,"is_disabled":false,"rental_uris":{"android":"levelo://app?vid=77beba7d-a141-4422-8ee2-04dbcdb74b98","ios":"levelo://app?vid=77beba7d-a141-4422-8ee2-04dbcdb74b98"},"vehicle_type_id":"4","last_reported":1729292883,"current_range_meters":10000,"station_id":"ce4bhah2rcd13ifvqei0","pricing_plan_id":"cebpf4jnsgd1na2vs0mg"},{"bike_id":"349d02b4-9b44-4c01-b73c-982963eba25c","system_id":"levelo_inurba_marseille","lat":43.3233,"lon":5.40622,"is_reserved":false,"is_disabled":false,"rental_uris":{"android":"levelo://app?vid=349d02b4-9b44-4c01-b73c-982963eba25c","ios":"levelo://app?vid=349d02b4-9b44-4c01-b73c-982963eba25c"},"vehicle_type_id":"4","last_reported":1729292883,"current_range_meters":6400,"station_id":"ce4bhq92rcd13ifvqhjg","pricing_plan_id":"cebpf4jnsgd1na2vs0mg"},{"bike_id":"717a8e4c-4f2a-40ca-9b97-5909c033b2ff","system_id":"levelo_inurba_marseille","lat":43.28461,"lon":5.35893,"is_reserved":false,"is_disabled":false,"rental_uris":{"android":"levelo://app?vid=717a8e4c-4f2a-40ca-9b97-5909c033b2ff","ios":"levelo://app?vid=717a8e4c-4f2a-40ca-9b97-5909c033b2ff"},"vehicle_type_id":"4","last_reported":1729292883,"current_range_meters":28400,"station_id":"ce4bhah2rcd13ifvqei0","pricing_plan_id":"cebpf4jnsgd1na2vs0mg"},{"bike_id":"87440bd7-4730-412f-b52f-03b263c3d6ba","system_id":"levelo_inurba_marseille","lat":43.23191,"lon":5.35557,"is_reserved":false,"is_disabled":false,"rental_uris":{"android":"levelo://app?vid=87440bd7-4730-412f-b52f-03b263c3d6ba","ios":"levelo://app?vid=87440bd7-4730-412f-b52f-03b263c3d6ba"},"vehicle_type_id":"4","last_reported":1729292883,"current_range_meters":10000,"station_id":"ce4bhu92rcd13ifvqi70","pricing_plan_id":"cebpf4jnsgd1na2vs0mg"},{"bike_id":"f0294458-901d-435a-8204-8df56bc577f6","system_id":"levelo_inurba_marseille","lat":43.2844,"lon":5.3919,"is_reserved":false,"is_disabled":false,"rental_uris":{"android":"levelo://app?vid=f0294458-901d-435a-8204-8df56bc577f6","ios":"levelo://app?vid=f0294458-901d-435a-8204-8df56bc577f6"},"vehicle_type_id":"4","last_reported":1729292883,"current_range_meters":21600,"station_id":"ce4bhoh2rcd13ifvqh5g","pricing_plan_id":"cebpf4jnsgd1na2vs0mg"},{"bike_id":"59d7c87c-bb70-40e9-83fb-b3973e5ad25f","system_id":"levelo_inurba_marseille","lat":43.31354,"lon":5.38491,"is_reserved":false,"is_disabled":false,"rental_uris":{"android":"levelo://app?vid=59d7c87c-bb70-40e9-83fb-b3973e5ad25f","ios":"levelo://app?vid=59d7c87c-bb70-40e9-83fb-b3973e5ad25f"},"vehicle_type_id":"4","last_reported":1729292883,"current_range_meters":38800,"station_id":"ce4bgt92rcd13ifvqcf0","pricing_plan_id":"cebpf4jnsgd1na2vs0mg"},{"bike_id":"d93090a8-8a22-4afb-9995-47d63a45dc37","system_id":"levelo_inurba_marseille","lat":43.31173,"lon":5.3871,"is_reserved":false,"is_disabled":false,"rental_uris":{"android":"levelo://app?vid=d93090a8-8a22-4afb-9995-47d63a45dc37","ios":"levelo://app?vid=d93090a8-8a22-4afb-9995-47d63a45dc37"},"vehicle_type_id":"4","last_reported":1729292883,"current_range_meters":24800,"station_id":"ce4bgv12rcd13ifvqcp0","pricing_plan_id":"cebpf4jnsgd1na2vs0mg"},{"bike_id":"85859a4f-db12-4035-8929-59004e1f9569","system_id":"levelo_inurba_marseille","lat":43.25822,"lon":5.39425,"is_reserved":false,"is_disabled":false,"rental_uris":{"android":"levelo://app?vid=85859a4f-db12-4035-8929-59004e1f9569","ios":"levelo://app?vid=85859a4f-db12-4035-8929-59004e1f9569"},"vehicle_type_id":"4","last_reported":1729292883,"current_range_meters":33200,"station_id":"ce4bhip2rcd13ifvqft0","pricing_plan_id":"cebpf4jnsgd1na2vs0mg"},{"bike_id":"432f972e-b892-4f71-b9dd-af05c6c16d05","system_id":"levelo_inurba_marseille","lat":43.28151,"lon":5.42649,"is_reserved":false,"is_disabled":false,"rental_uris":{"android":"levelo://app?vid=432f972e-b892-4f71-b9dd-af05c6c16d05","ios":"levelo://app?vid=432f972e-b892-4f71-b9dd-af05c6c16d05"},"vehicle_type_id":"4","last_reported":1729292883,"current_range_meters":31200,"station_id":"ce4bhnh2rcd13ifvqgug","pricing_plan_id":"cebpf4jnsgd1na2vs0mg"},{"bike_id":"f54a6788-34a3-4b1e-94af-30c754533eb3","system_id":"levelo_inurba_marseille","lat":43.2866,"lon":5.36347,"is_reserved":false,"is_disabled":false,"rental_uris":{"android":"levelo://app?vid=f54a6788-34a3-4b1e-94af-30c754533eb3","ios":"levelo://app?vid=f54a6788-34a3-4b1e-94af-30c754533eb3"},"vehicle_type_id":"4","last_reported":1729292883,"current_range_meters":32000,"station_id":"ce4bhah2rcd13ifvqej0","pricing_plan_id":"cebpf4jnsgd1na2vs0mg"},{"bike_id":"6eb96c6f-4ec4-4b7c-a2da-134687997edd","system_id":"levelo_inurba_marseille","lat":43.27424,"lon":5.39412,"is_reserved":false,"is_disabled":false,"rental_uris":{"android":"levelo://app?vid=6eb96c6f-4ec4-4b7c-a2da-134687997edd","ios":"levelo://app?vid=6eb96c6f-4ec4-4b7c-a2da-134687997edd"},"vehicle_type_id":"4","last_reported":1729292883,"current_range_meters":30800,"station_id":"ce4bhdp2rcd13ifvqf20","pricing_plan_id":"cebpf4jnsgd1na2vs0mg"},{"bike_id":"0b4b408b-0e1b-41ef-9396-f416e28a2088","system_id":"levelo_inurba_marseille","lat":43.27945,"lon":5.41038,"is_reserved":false,"is_disabled":false,"rental_uris":{"android":"levelo://app?vid=0b4b408b-0e1b-41ef-9396-f416e28a2088","ios":"levelo://app?vid=0b4b408b-0e1b-41ef-9396-f416e28a2088"},"vehicle_type_id":"4","last_reported":1729292883,"current_range_meters":28000,"station_id":"ce4bhnp2rcd13ifvqh0g","pricing_plan_id":"cebpf4jnsgd1na2vs0mg"},{"bike_id":"1cdfed0b-9cc0-4f1d-8b9f-0fbd48d86cf3","system_id":"levelo_inurba_marseille","lat":43.26561,"lon":5.37293,"is_reserved":false,"is_disabled":false,"rental_uris":{"android":"levelo://app?vid=1cdfed0b-9cc0-4f1d-8b9f-0fbd48d86cf3","ios":"levelo://app?vid=1cdfed0b-9cc0-4f1d-8b9f-0fbd48d86cf3"},"vehicle_type_id":"4","last_reported":1729292883,"current_range_meters":24800,"station_id":"ce4bhg12rcd13ifvqf70","pricing_plan_id":"cebpf4jnsgd1na2vs0mg"},{"bike_id":"1f8fe77f-c28a-493e-8046-17ab0ea5d03a","system_id":"levelo_inurba_marseille","lat":43.28733,"lon":5.36082,"is_reserved":false,"is_disabled":false,"rental_uris":{"android":"levelo://app?vid=1f8fe77f-c28a-493e-8046-17ab0ea5d03a","ios":"levelo://app?vid=1f8fe77f-c28a-493e-8046-17ab0ea5d03a"},"vehicle_type_id":"4","last_reported":1729292883,"current_range_meters":36800,"station_id":"cki0cbj6b192h4jlfktg","pricing_plan_id":"cebpf4jnsgd1na2vs0mg"},{"bike_id":"87c019bf-c20e-487f-8ad1-be0fc5d90c65","system_id":"levelo_inurba_marseille","lat":43.31536,"lon":5.38027,"is_reserved":false,"is_disabled":false,"rental_uris":{"android":"levelo://app?vid=87c019bf-c20e-487f-8ad1-be0fc5d90c65","ios":"levelo://app?vid=87c019bf-c20e-487f-8ad1-be0fc5d90c65"},"vehicle_type_id":"4","last_reported":1729292883,"current_range_meters":10800,"station_id":"ce4bhsp2rcd13ifvqi50","pricing_plan_id":"cebpf4jnsgd1na2vs0mg"},{"bike_id":"e445c19a-69b3-4427-a681-19f4a04e6978","system_id":"levelo_inurba_marseille","lat":43.32363,"lon":5.38884,"is_reserved":false,"is_disabled":false,"rental_uris":{"android":"levelo://app?vid=e445c19a-69b3-4427-a681-19f4a04e6978","ios":"levelo://app?vid=e445c19a-69b3-4427-a681-19f4a04e6978"},"vehicle_type_id":"4","last_reported":1729292883,"current_range_meters":28400,"station_id":"ce4bhqp2rcd13ifvqhog","pricing_plan_id":"cebpf4jnsgd1na2vs0mg"},{"bike_id":"e8da62c6-bbec-48e4-86d2-9e1bf2d17e6b","system_id":"levelo_inurba_marseille","lat":43.324818,"lon":5.365675,"is_reserved":false,"is_disabled":false,"rental_uris":{"android":"levelo://app?vid=e8da62c6-bbec-48e4-86d2-9e1bf2d17e6b","ios":"levelo://app?vid=e8da62c6-bbec-48e4-86d2-9e1bf2d17e6b"},"vehicle_type_id":"4","last_reported":1729292883,"current_range_meters":39200,"station_id":"ce4bhs12rcd13ifvqhvg","pricing_plan_id":"cebpf4jnsgd1na2vs0mg"},{"bike_id":"36f82f74-9693-4ae4-a73b-0eed97717c86","system_id":"levelo_inurba_marseille","lat":43.23184,"lon":5.3998,"is_reserved":false,"is_disabled":false,"rental_uris":{"android":"levelo://app?vid=36f82f74-9693-4ae4-a73b-0eed97717c86","ios":"levelo://app?vid=36f82f74-9693-4ae4-a73b-0eed97717c86"},"vehicle_type_id":"4","last_reported":1729292883,"current_range_meters":38800,"station_id":"ce4bhn12rcd13ifvqgqg","pricing_plan_id":"cebpf4jnsgd1na2vs0mg"},{"bike_id":"0d393c66-0a10-4772-a263-32b8165dfe8f","system_id":"levelo_inurba_marseille","lat":43.29294,"lon":5.37472,"is_reserved":false,"is_disabled":false,"rental_uris":{"android":"levelo://app?vid=0d393c66-0a10-4772-a263-32b8165dfe8f","ios":"levelo://app?vid=0d393c66-0a10-4772-a263-32b8165dfe8f"},"vehicle_type_id":"4","last_reported":1729292883,"current_range_meters":35600,"station_id":"ce4bgi12rcd13ifvqb70","pricing_plan_id":"cebpf4jnsgd1na2vs0mg"},{"bike_id":"b7a6992c-7545-4261-bc24-c69999037398","system_id":"levelo_inurba_marseille","lat":43.27945,"lon":5.41046,"is_reserved":false,"is_disabled":false,"rental_uris":{"android":"levelo://app?vid=b7a6992c-7545-4261-bc24-c69999037398","ios":"levelo://app?vid=b7a6992c-7545-4261-bc24-c69999037398"},"vehicle_type_id":"4","last_reported":1729292883,"current_range_meters":19200,"station_id":"ce4bhnp2rcd13ifvqh0g","pricing_plan_id":"cebpf4jnsgd1na2vs0mg"},{"bike_id":"8c855307-dbbc-4f48-a60f-f0bb82449d14","system_id":"levelo_inurba_marseille","lat":43.27818,"lon":5.40706,"is_reserved":false,"is_disabled":false,"rental_uris":{"android":"levelo://app?vid=8c855307-dbbc-4f48-a60f-f0bb82449d14","ios":"levelo://app?vid=8c855307-dbbc-4f48-a60f-f0bb82449d14"},"vehicle_type_id":"4","last_reported":1729292883,"current_range_meters":33200,"station_id":"ce4bhnh2rcd13ifvqgtg","pricing_plan_id":"cebpf4jnsgd1na2vs0mg"},{"bike_id":"635e2dc9-03ed-42d3-81fd-968f5dc138d7","system_id":"levelo_inurba_marseille","lat":43.287,"lon":5.37396,"is_reserved":false,"is_disabled":false,"rental_uris":{"android":"levelo://app?vid=635e2dc9-03ed-42d3-81fd-968f5dc138d7","ios":"levelo://app?vid=635e2dc9-03ed-42d3-81fd-968f5dc138d7"},"vehicle_type_id":"4","last_reported":1729292883,"current_range_meters":24400,"station_id":"ce4bh3p2rcd13ifvqdq0","pricing_plan_id":"cebpf4jnsgd1na2vs0mg"},{"bike_id":"05838322-0ba0-4409-8314-8d55d36c1fa2","system_id":"levelo_inurba_marseille","lat":43.26931,"lon":5.38915,"is_reserved":false,"is_disabled":false,"rental_uris":{"android":"levelo://app?vid=05838322-0ba0-4409-8314-8d55d36c1fa2","ios":"levelo://app?vid=05838322-0ba0-4409-8314-8d55d36c1fa2"},"vehicle_type_id":"4","last_reported":1729292883,"current_range_meters":16000,"station_id":"ce4bhhh2rcd13ifvqfl0","pricing_plan_id":"cebpf4jnsgd1na2vs0mg"},{"bike_id":"3a9de80a-7d96-474b-9a25-5deaf3f8324c","system_id":"levelo_inurba_marseille","lat":43.30784,"lon":5.37661,"is_reserved":false,"is_disabled":false,"rental_uris":{"android":"levelo://app?vid=3a9de80a-7d96-474b-9a25-5deaf3f8324c","ios":"levelo://app?vid=3a9de80a-7d96-474b-9a25-5deaf3f8324c"},"vehicle_type_id":"4","last_reported":1729292883,"current_range_meters":19200,"station_id":"","pricing_plan_id":"cebpf4jnsgd1na2vs0mg"},{"bike_id":"5727b5bc-cdf4-4279-81c5-4729f98a3095","system_id":"levelo_inurba_marseille","lat":43.30551,"lon":5.38437,"is_reserved":false,"is_disabled":false,"rental_uris":{"android":"levelo://app?vid=5727b5bc-cdf4-4279-81c5-4729f98a3095","ios":"levelo://app?vid=5727b5bc-cdf4-4279-81c5-4729f98a3095"},"vehicle_type_id":"4","last_reported":1729292883,"current_range_meters":25600,"station_id":"ce4bgg92rcd13ifvqb30","pricing_plan_id":"cebpf4jnsgd1na2vs0mg"},{"bike_id":"a4b68ade-3015-4e5f-9f20-2b9cf9653466","system_id":"levelo_inurba_marseille","lat":43.30804,"lon":5.38152,"is_reserved":false,"is_disabled":false,"rental_uris":{"android":"levelo://app?vid=a4b68ade-3015-4e5f-9f20-2b9cf9653466","ios":"levelo://app?vid=a4b68ade-3015-4e5f-9f20-2b9cf9653466"},"vehicle_type_id":"4","last_reported":1729292883,"current_range_meters":7200,"station_id":"ce4bgt12rcd13ifvqce0","pricing_plan_id":"cebpf4jnsgd1na2vs0mg"},{"bike_id":"5b033739-1b95-49da-9b8d-294c3cabbf99","system_id":"levelo_inurba_marseille","lat":43.24178,"lon":5.39728,"is_reserved":false,"is_disabled":false,"rental_uris":{"android":"levelo://app?vid=5b033739-1b95-49da-9b8d-294c3cabbf99","ios":"levelo://app?vid=5b033739-1b95-49da-9b8d-294c3cabbf99"},"vehicle_type_id":"4","last_reported":1729292883,"current_range_meters":29600,"station_id":"ce4bhn12rcd13ifvqgpg","pricing_plan_id":"cebpf4jnsgd1na2vs0mg"},{"bike_id":"70fdf4f3-a2d2-4b24-82e3-7dafda0548d5","system_id":"levelo_inurba_marseille","lat":43.28854,"lon":5.3584,"is_reserved":false,"is_disabled":false,"rental_uris":{"android":"levelo://app?vid=70fdf4f3-a2d2-4b24-82e3-7dafda0548d5","ios":"levelo://app?vid=70fdf4f3-a2d2-4b24-82e3-7dafda0548d5"},"vehicle_type_id":"4","last_reported":1729292883,"current_range_meters":28000,"station_id":"ce4bhb12rcd13ifvqem0","pricing_plan_id":"cebpf4jnsgd1na2vs0mg"},{"bike_id":"29615a04-fb63-48b4-9785-fb3b4d5d3173","system_id":"levelo_inurba_marseille","lat":43.29329,"lon":5.37672,"is_reserved":false,"is_disabled":false,"rental_uris":{"android":"levelo://app?vid=29615a04-fb63-48b4-9785-fb3b4d5d3173","ios":"levelo://app?vid=29615a04-fb63-48b4-9785-fb3b4d5d3173"},"vehicle_type_id":"4","last_reported":1729292883,"current_range_meters":38800,"station_id":"","pricing_plan_id":"cebpf4jnsgd1na2vs0mg"},{"bike_id":"ecf5cd40-9aad-4b30-9849-ba305daf63ca","system_id":"levelo_inurba_marseille","lat":43.3169,"lon":5.40462,"is_reserved":false,"is_disabled":false,"rental_uris":{"android":"levelo://app?vid=ecf5cd40-9aad-4b30-9849-ba305daf63ca","ios":"levelo://app?vid=ecf5cd40-9aad-4b30-9849-ba305daf63ca"},"vehicle_type_id":"4","last_reported":1729292883,"current_range_meters":27200,"station_id":"ce4bh012rcd13ifvqd00","pricing_plan_id":"cebpf4jnsgd1na2vs0mg"},{"bike_id":"bc4eaace-07e3-4135-a09d-514e428a2759","system_id":"levelo_inurba_marseille","lat":43.26929,"lon":5.38922,"is_reserved":false,"is_disabled":false,"rental_uris":{"android":"levelo://app?vid=bc4eaace-07e3-4135-a09d-514e428a2759","ios":"levelo://app?vid=bc4eaace-07e3-4135-a09d-514e428a2759"},"vehicle_type_id":"4","last_reported":1729292883,"current_range_meters":30400,"station_id":"ce4bhhh2rcd13ifvqfl0","pricing_plan_id":"cebpf4jnsgd1na2vs0mg"},{"bike_id":"e6140c63-7406-474b-8836-021c5f5fbda9","system_id":"levelo_inurba_marseille","lat":43.30215,"lon":5.39472,"is_reserved":false,"is_disabled":false,"rental_uris":{"android":"levelo://app?vid=e6140c63-7406-474b-8836-021c5f5fbda9","ios":"levelo://app?vid=e6140c63-7406-474b-8836-021c5f5fbda9"},"vehicle_type_id":"4","last_reported":1729292883,"current_range_meters":12800,"station_id":"ce4bh0p2rcd13ifvqd70","pricing_plan_id":"cebpf4jnsgd1na2vs0mg"},{"bike_id":"aaa3b657-a870-4cd4-93f3-ef945a787ae0","system_id":"levelo_inurba_marseille","lat":43.29037,"lon":5.38651,"is_reserved":false,"is_disabled":false,"rental_uris":{"android":"levelo://app?vid=aaa3b657-a870-4cd4-93f3-ef945a787ae0","ios":"levelo://app?vid=aaa3b657-a870-4cd4-93f3-ef945a787ae0"},"vehicle_type_id":"4","last_reported":1729292883,"current_range_meters":18000,"station_id":"ce4bh4p2rcd13ifvqe0g","pricing_plan_id":"cebpf4jnsgd1na2vs0mg"},{"bike_id":"be2bbaa1-f672-4dc8-a1c0-85466066b76d","system_id":"levelo_inurba_marseille","lat":43.23192,"lon":5.35555,"is_reserved":false,"is_disabled":false,"rental_uris":{"android":"levelo://app?vid=be2bbaa1-f672-4dc8-a1c0-85466066b76d","ios":"levelo://app?vid=be2bbaa1-f672-4dc8-a1c0-85466066b76d"},"vehicle_type_id":"4","last_reported":1729292883,"current_range_meters":0,"station_id":"ce4bhu92rcd13ifvqi70","pricing_plan_id":"cebpf4jnsgd1na2vs0mg"},{"bike_id":"a4b68d83-e5a3-486e-a921-b7a81ceaf128","system_id":"levelo_inurba_marseille","lat":43.25496,"lon":5.37648,"is_reserved":false,"is_disabled":false,"rental_uris":{"android":"levelo://app?vid=a4b68d83-e5a3-486e-a921-b7a81ceaf128","ios":"levelo://app?vid=a4b68d83-e5a3-486e-a921-b7a81ceaf128"},"vehicle_type_id":"4","last_reported":1729292883,"current_range_meters":12400,"station_id":"ce4bhh12rcd13ifvqff0","pricing_plan_id":"cebpf4jnsgd1na2vs0mg"},{"bike_id":"13c0e492-f9b8-4a11-ae61-82c5b16733b1","system_id":"levelo_inurba_marseille","lat":43.30794,"lon":5.38154,"is_reserved":false,"is_disabled":false,"rental_uris":{"android":"levelo://app?vid=13c0e492-f9b8-4a11-ae61-82c5b16733b1","ios":"levelo://app?vid=13c0e492-f9b8-4a11-ae61-82c5b16733b1"},"vehicle_type_id":"4","last_reported":1729292883,"current_range_meters":12400,"station_id":"ce4bgt12rcd13ifvqce0","pricing_plan_id":"cebpf4jnsgd1na2vs0mg"},{"bike_id":"5715e832-098d-4c62-8619-ea0204aa01d5","system_id":"levelo_inurba_marseille","lat":43.27067,"lon":5.4228,"is_reserved":false,"is_disabled":false,"rental_uris":{"android":"levelo://app?vid=5715e832-098d-4c62-8619-ea0204aa01d5","ios":"levelo://app?vid=5715e832-098d-4c62-8619-ea0204aa01d5"},"vehicle_type_id":"4","last_reported":1729292883,"current_range_meters":34000,"station_id":"ce4bhk92rcd13ifvqgb0","pricing_plan_id":"cebpf4jnsgd1na2vs0mg"},{"bike_id":"1dd375ee-1a6b-43f8-b861-00418032d00b","system_id":"levelo_inurba_marseille","lat":43.29539,"lon":5.39402,"is_reserved":false,"is_disabled":false,"rental_uris":{"android":"levelo://app?vid=1dd375ee-1a6b-43f8-b861-00418032d00b","ios":"levelo://app?vid=1dd375ee-1a6b-43f8-b861-00418032d00b"},"vehicle_type_id":"4","last_reported":1729292883,"current_range_meters":25600,"station_id":"ce4bh292rcd13ifvqdf0","pricing_plan_id":"cebpf4jnsgd1na2vs0mg"},{"bike_id":"465f0c39-dd1b-4b2f-ae9a-5c569cbd0b7e","system_id":"levelo_inurba_marseille","lat":43.30895,"lon":5.37214,"is_reserved":false,"is_disabled":false,"rental_uris":{"android":"levelo://app?vid=465f0c39-dd1b-4b2f-ae9a-5c569cbd0b7e","ios":"levelo://app?vid=465f0c39-dd1b-4b2f-ae9a-5c569cbd0b7e"},"vehicle_type_id":"4","last_reported":1729292883,"current_range_meters":35200,"station_id":"ce4bguh2rcd13ifvqckg","pricing_plan_id":"cebpf4jnsgd1na2vs0mg"},{"bike_id":"9cac2c97-6f0c-4ff7-99c2-4bdb39156e17","system_id":"levelo_inurba_marseille","lat":43.28722,"lon":5.37951,"is_reserved":false,"is_disabled":false,"rental_uris":{"android":"levelo://app?vid=9cac2c97-6f0c-4ff7-99c2-4bdb39156e17","ios":"levelo://app?vid=9cac2c97-6f0c-4ff7-99c2-4bdb39156e17"},"vehicle_type_id":"4","last_reported":1729292883,"current_range_meters":36400,"station_id":"ce4bh9p2rcd13ifvqec0","pricing_plan_id":"cebpf4jnsgd1na2vs0mg"},{"bike_id":"8cf62544-4188-4864-b4e2-c2d575bd1d0a","system_id":"levelo_inurba_marseille","lat":43.284424,"lon":5.392006,"is_reserved":false,"is_disabled":false,"rental_uris":{"android":"levelo://app?vid=8cf62544-4188-4864-b4e2-c2d575bd1d0a","ios":"levelo://app?vid=8cf62544-4188-4864-b4e2-c2d575bd1d0a"},"vehicle_type_id":"4","last_reported":1729292883,"current_range_meters":36400,"station_id":"ce4bhoh2rcd13ifvqh5g","pricing_plan_id":"cebpf4jnsgd1na2vs0mg"},{"bike_id":"2dffce44-7cfd-4d42-813e-c4b2870080b3","system_id":"levelo_inurba_marseille","lat":43.28075,"lon":5.3966,"is_reserved":false,"is_disabled":false,"rental_uris":{"android":"levelo://app?vid=2dffce44-7cfd-4d42-813e-c4b2870080b3","ios":"levelo://app?vid=2dffce44-7cfd-4d42-813e-c4b2870080b3"},"vehicle_type_id":"4","last_reported":1729292883,"current_range_meters":36000,"station_id":"ce4bho12rcd13ifvqh2g","pricing_plan_id":"cebpf4jnsgd1na2vs0mg"},{"bike_id":"57d95bb9-5aea-449d-ac8f-97d1f56cd6e3","system_id":"levelo_inurba_marseille","lat":43.27992,"lon":5.41655,"is_reserved":false,"is_disabled":false,"rental_uris":{"android":"levelo://app?vid=57d95bb9-5aea-449d-ac8f-97d1f56cd6e3","ios":"levelo://app?vid=57d95bb9-5aea-449d-ac8f-97d1f56cd6e3"},"vehicle_type_id":"4","last_reported":1729292883,"current_range_meters":24800,"station_id":"ce4bho12rcd13ifvqh1g","pricing_plan_id":"cebpf4jnsgd1na2vs0mg"},{"bike_id":"53796de0-839b-498d-9e37-2cfbf10ef9fb","system_id":"levelo_inurba_marseille","lat":43.301379,"lon":5.364341,"is_reserved":false,"is_disabled":false,"rental_uris":{"android":"levelo://app?vid=53796de0-839b-498d-9e37-2cfbf10ef9fb","ios":"levelo://app?vid=53796de0-839b-498d-9e37-2cfbf10ef9fb"},"vehicle_type_id":"4","last_reported":1729292883,"current_range_meters":36800,"station_id":"","pricing_plan_id":"cebpf4jnsgd1na2vs0mg"},{"bike_id":"3664398f-378f-46f2-bd12-30042ad8db9d","system_id":"levelo_inurba_marseille","lat":43.2319,"lon":5.39974,"is_reserved":false,"is_disabled":false,"rental_uris":{"android":"levelo://app?vid=3664398f-378f-46f2-bd12-30042ad8db9d","ios":"levelo://app?vid=3664398f-378f-46f2-bd12-30042ad8db9d"},"vehicle_type_id":"4","last_reported":1729292883,"current_range_meters":28000,"station_id":"ce4bhn12rcd13ifvqgqg","pricing_plan_id":"cebpf4jnsgd1na2vs0mg"},{"bike_id":"4b58d128-d9b9-454a-824e-47c64c8101d1","system_id":"levelo_inurba_marseille","lat":43.26195,"lon":5.37937,"is_reserved":false,"is_disabled":false,"rental_uris":{"android":"levelo://app?vid=4b58d128-d9b9-454a-824e-47c64c8101d1","ios":"levelo://app?vid=4b58d128-d9b9-454a-824e-47c64c8101d1"},"vehicle_type_id":"4","last_reported":1729292883,"current_range_meters":6400,"station_id":"ce4bhjp2rcd13ifvqg90","pricing_plan_id":"cebpf4jnsgd1na2vs0mg"},{"bike_id":"a9d80141-cb04-4f88-bcc5-9763572e3517","system_id":"levelo_inurba_marseille","lat":43.23196,"lon":5.35554,"is_reserved":false,"is_disabled":false,"rental_uris":{"android":"levelo://app?vid=a9d80141-cb04-4f88-bcc5-9763572e3517","ios":"levelo://app?vid=a9d80141-cb04-4f88-bcc5-9763572e3517"},"vehicle_type_id":"4","last_reported":1729292883,"current_range_meters":26800,"station_id":"ce4bhu92rcd13ifvqi70","pricing_plan_id":"cebpf4jnsgd1na2vs0mg"},{"bike_id":"3c48d176-0130-4a72-8d36-4cdb60d33261","system_id":"levelo_inurba_marseille","lat":43.31725,"lon":5.42394,"is_reserved":false,"is_disabled":false,"rental_uris":{"android":"levelo://app?vid=3c48d176-0130-4a72-8d36-4cdb60d33261","ios":"levelo://app?vid=3c48d176-0130-4a72-8d36-4cdb60d33261"},"vehicle_type_id":"4","last_reported":1729292883,"current_range_meters":37600,"station_id":"ce4bhp92rcd13ifvqhbg","pricing_plan_id":"cebpf4jnsgd1na2vs0mg"},{"bike_id":"03082247-abbc-45f2-90f4-24ab25933423","system_id":"levelo_inurba_marseille","lat":43.27989,"lon":5.41657,"is_reserved":false,"is_disabled":false,"rental_uris":{"android":"levelo://app?vid=03082247-abbc-45f2-90f4-24ab25933423","ios":"levelo://app?vid=03082247-abbc-45f2-90f4-24ab25933423"},"vehicle_type_id":"4","last_reported":1729292883,"current_range_meters":17200,"station_id":"ce4bho12rcd13ifvqh1g","pricing_plan_id":"cebpf4jnsgd1na2vs0mg"},{"bike_id":"25047a17-3ec6-414e-9b3c-cf1d6583afad","system_id":"levelo_inurba_marseille","lat":43.27181,"lon":5.40987,"is_reserved":false,"is_disabled":false,"rental_uris":{"android":"levelo://app?vid=25047a17-3ec6-414e-9b3c-cf1d6583afad","ios":"levelo://app?vid=25047a17-3ec6-414e-9b3c-cf1d6583afad"},"vehicle_type_id":"4","last_reported":1729292883,"current_range_meters":14000,"station_id":"ce4bhl12rcd13ifvqgf0","pricing_plan_id":"cebpf4jnsgd1na2vs0mg"},{"bike_id":"fa226629-d76c-453a-95f5-b71863fd0cdf","system_id":"levelo_inurba_marseille","lat":43.28698,"lon":5.3739,"is_reserved":false,"is_disabled":false,"rental_uris":{"android":"levelo://app?vid=fa226629-d76c-453a-95f5-b71863fd0cdf","ios":"levelo://app?vid=fa226629-d76c-453a-95f5-b71863fd0cdf"},"vehicle_type_id":"4","last_reported":1729292883,"current_range_meters":8400,"station_id":"ce4bh3p2rcd13ifvqdq0","pricing_plan_id":"cebpf4jnsgd1na2vs0mg"},{"bike_id":"4a9c5136-102b-41cb-94fc-f5175f170593","system_id":"levelo_inurba_marseille","lat":43.2586,"lon":5.39904,"is_reserved":false,"is_disabled":false,"rental_uris":{"android":"levelo://app?vid=4a9c5136-102b-41cb-94fc-f5175f170593","ios":"levelo://app?vid=4a9c5136-102b-41cb-94fc-f5175f170593"},"vehicle_type_id":"4","last_reported":1729292883,"current_range_meters":18000,"station_id":"ce4bhl92rcd13ifvqghg","pricing_plan_id":"cebpf4jnsgd1na2vs0mg"},{"bike_id":"25bca378-1392-440f-90b8-2ed867b5579c","system_id":"levelo_inurba_marseille","lat":43.30461,"lon":5.37911,"is_reserved":false,"is_disabled":false,"rental_uris":{"android":"levelo://app?vid=25bca378-1392-440f-90b8-2ed867b5579c","ios":"levelo://app?vid=25bca378-1392-440f-90b8-2ed867b5579c"},"vehicle_type_id":"4","last_reported":1729292883,"current_range_meters":20400,"station_id":"ce4bgup2rcd13ifvqcn0","pricing_plan_id":"cebpf4jnsgd1na2vs0mg"},{"bike_id":"09e2914a-0fcc-451a-823e-320bb77c1789","system_id":"levelo_inurba_marseille","lat":43.2795,"lon":5.4104,"is_reserved":false,"is_disabled":false,"rental_uris":{"android":"levelo://app?vid=09e2914a-0fcc-451a-823e-320bb77c1789","ios":"levelo://app?vid=09e2914a-0fcc-451a-823e-320bb77c1789"},"vehicle_type_id":"4","last_reported":1729292883,"current_range_meters":23200,"station_id":"ce4bhnp2rcd13ifvqh0g","pricing_plan_id":"cebpf4jnsgd1na2vs0mg"},{"bike_id":"d79964e7-2bc4-4004-a6e3-b60a3c0a934d","system_id":"levelo_inurba_marseille","lat":43.33022,"lon":5.39046,"is_reserved":false,"is_disabled":false,"rental_uris":{"android":"levelo://app?vid=d79964e7-2bc4-4004-a6e3-b60a3c0a934d","ios":"levelo://app?vid=d79964e7-2bc4-4004-a6e3-b60a3c0a934d"},"vehicle_type_id":"4","last_reported":1729292883,"current_range_meters":38800,"station_id":"ce4bhr92rcd13ifvqhrg","pricing_plan_id":"cebpf4jnsgd1na2vs0mg"},{"bike_id":"d41309ab-1a1f-4395-acaa-455483c3f8e1","system_id":"levelo_inurba_marseille","lat":43.23197,"lon":5.35554,"is_reserved":false,"is_disabled":false,"rental_uris":{"android":"levelo://app?vid=d41309ab-1a1f-4395-acaa-455483c3f8e1","ios":"levelo://app?vid=d41309ab-1a1f-4395-acaa-455483c3f8e1"},"vehicle_type_id":"4","last_reported":1729292883,"current_range_meters":28800,"station_id":"ce4bhu92rcd13ifvqi70","pricing_plan_id":"cebpf4jnsgd1na2vs0mg"},{"bike_id":"1653f2b8-26e6-4856-9b28-cc24006b31e7","system_id":"levelo_inurba_marseille","lat":43.30637,"lon":5.40104,"is_reserved":false,"is_disabled":false,"rental_uris":{"android":"levelo://app?vid=1653f2b8-26e6-4856-9b28-cc24006b31e7","ios":"levelo://app?vid=1653f2b8-26e6-4856-9b28-cc24006b31e7"},"vehicle_type_id":"4","last_reported":1729292883,"current_range_meters":10800,"station_id":"ce4bh112rcd13ifvqda0","pricing_plan_id":"cebpf4jnsgd1na2vs0mg"},{"bike_id":"0b51970e-59ca-4863-880f-bf9f416d9e60","system_id":"levelo_inurba_marseille","lat":43.32659,"lon":5.40992,"is_reserved":false,"is_disabled":false,"rental_uris":{"android":"levelo://app?vid=0b51970e-59ca-4863-880f-bf9f416d9e60","ios":"levelo://app?vid=0b51970e-59ca-4863-880f-bf9f416d9e60"},"vehicle_type_id":"4","last_reported":1729292883,"current_range_meters":22400,"station_id":"ce4bhpp2rcd13ifvqhgg","pricing_plan_id":"cebpf4jnsgd1na2vs0mg"},{"bike_id":"f3a96a4d-bc6d-460f-a415-db98973047b8","system_id":"levelo_inurba_marseille","lat":43.29895,"lon":5.43662,"is_reserved":false,"is_disabled":false,"rental_uris":{"android":"levelo://app?vid=f3a96a4d-bc6d-460f-a415-db98973047b8","ios":"levelo://app?vid=f3a96a4d-bc6d-460f-a415-db98973047b8"},"vehicle_type_id":"4","last_reported":1729292883,"current_range_meters":6000,"station_id":"ce4bhpp2rcd13ifvqhfg","pricing_plan_id":"cebpf4jnsgd1na2vs0mg"},{"bike_id":"daf7e128-4a87-4b8d-bdbc-97c73fea2e7d","system_id":"levelo_inurba_marseille","lat":43.26785,"lon":5.39412,"is_reserved":false,"is_disabled":false,"rental_uris":{"android":"levelo://app?vid=daf7e128-4a87-4b8d-bdbc-97c73fea2e7d","ios":"levelo://app?vid=daf7e128-4a87-4b8d-bdbc-97c73fea2e7d"},"vehicle_type_id":"4","last_reported":1729292883,"current_range_meters":35200,"station_id":"ce4bhh12rcd13ifvqfg0","pricing_plan_id":"cebpf4jnsgd1na2vs0mg"},{"bike_id":"f3f1665d-4061-4989-a63f-5b4bd1dd31ee","system_id":"levelo_inurba_marseille","lat":43.28402,"lon":5.37531,"is_reserved":false,"is_disabled":false,"rental_uris":{"android":"levelo://app?vid=f3f1665d-4061-4989-a63f-5b4bd1dd31ee","ios":"levelo://app?vid=f3f1665d-4061-4989-a63f-5b4bd1dd31ee"},"vehicle_type_id":"4","last_reported":1729292883,"current_range_meters":8000,"station_id":"ce4bh412rcd13ifvqds0","pricing_plan_id":"cebpf4jnsgd1na2vs0mg"},{"bike_id":"112f5af7-d8d7-49ca-9d5b-2b1b1ee7c6a0","system_id":"levelo_inurba_marseille","lat":43.23189,"lon":5.35534,"is_reserved":false,"is_disabled":false,"rental_uris":{"android":"levelo://app?vid=112f5af7-d8d7-49ca-9d5b-2b1b1ee7c6a0","ios":"levelo://app?vid=112f5af7-d8d7-49ca-9d5b-2b1b1ee7c6a0"},"vehicle_type_id":"4","last_reported":1729292883,"current_range_meters":38800,"station_id":"ce4bhu92rcd13ifvqi70","pricing_plan_id":"cebpf4jnsgd1na2vs0mg"},{"bike_id":"af744c00-bf90-4f55-bde3-4681777c214f","system_id":"levelo_inurba_marseille","lat":43.24811,"lon":5.37452,"is_reserved":false,"is_disabled":false,"rental_uris":{"android":"levelo://app?vid=af744c00-bf90-4f55-bde3-4681777c214f","ios":"levelo://app?vid=af744c00-bf90-4f55-bde3-4681777c214f"},"vehicle_type_id":"4","last_reported":1729292883,"current_range_meters":22800,"station_id":"ce4bhgh2rcd13ifvqfb0","pricing_plan_id":"cebpf4jnsgd1na2vs0mg"},