{"last_updated":1752873031,"ttl":60,"version":"2.2","data":{"bikes":[{"bike_id":"53b742a7-31ae-4272-9bba-7740339e2a2f","system_id":"levelo_inurba_marseille","lat":43.33747,"lon":5.37463,"is_reserved":false,"is_disabled":false,"rental_uris":{"android":"levelo://app?vid=53b742a7-31ae-4272-9bba-7740339e2a2f","ios":"levelo://app?vid=53b742a7-31ae-4272-9bba-7740339e2a2f"},"vehicle_type_id":"1","last_reported":1752873031,"current_range_meters":18000,"station_id":"","pricing_plan_id":"cebpf4jnsgd1na2vs0mg"},{"bike_id":"4e9a1499-b07d-43dc-b612-101c5c5f659b","system_id":"levelo_inurba_marseille","lat":43.31226,"lon":5.36859,"is_reserved":false,"is_disabled":false,"rental_uris":{"android":"levelo://app?vid=4e9a1499-b07d-43dc-b612-101c5c5f659b","ios":"levelo://app?vid=4e9a1499-b07d-43dc-b612-101c5c5f659b"},"vehicle_type_id":"4","last_reported":1752873031,"current_range_meters":3200,"station_id":"ce4bgl92rcd13ifvqbq0","pricing_plan_id":"cebpf4jnsgd1na2vs0mg"},{"bike_id":"6124c03b-0cfd-42c2-8a63-26cb368f81ca","system_id":"levelo_inurba_marseille","lat":43.28476,"lon":5.384176,"is_reserved":false,"is_disabled":false,"rental_uris":{"android":"levelo://app?vid=6124c03b-0cfd-42c2-8a63-26cb368f81ca","ios":"levelo://app?vid=6124c03b-0cfd-42c2-8a63-26cb368f81ca"},"vehicle_type_id":"4","last_reported":1752873031,"current_range_meters":3200,"station_id":"ce4bh512rcd13ifvqe3g","pricing_plan_id":"cebpf4jnsgd1na2vs0mg"},{"bike_id":"36df4ec4-52c3-4d4a-90b2-e65c24451f37","system_id":"levelo_inurba_marseille","lat":43.29536,"lon":5.39408,"is_reserved":false,"is_disabled":false,"rental_uris":{"android":"levelo://app?vid=36df4ec4-52c3-4d4a-90b2-e65c24451f37","ios":"levelo://app?vid=36df4ec4-52c3-4d4a-90b2-e65c24451f37"},"vehicle_type_id":"4","last_reported":1752873031,"current_range_meters":3200,"station_id":"ce4bh292rcd13ifvqdf0","pricing_plan_id":"cebpf4jnsgd1na2vs0mg"},{"bike_id":"411c9023-efd6-4473-aa82-a2dbf5dcc280","system_id":"levelo_inurba_marseille","lat":43.33835,"lon":5.38356,"is_reserved":false,"is_disabled":false,"rental_uris":{"android":"levelo://app?vid=411c9023-efd6-4473-aa82-a2dbf5dcc280","ios":"levelo://app?vid=411c9023-efd6-4473-aa82-a2dbf5dcc280"},"vehicle_type_id":"4","last_reported":1752873031,"current_range_meters":4000,"station_id":"","pricing_plan_id":"cebpf4jnsgd1na2vs0mg"},{"bike_id":"02c0c0e2-355a-49a0-b5af-6ee6a3cbfa92","system_id":"levelo_inurba_marseille","lat":43.30638,"lon":5.400963,"is_reserved":false,"is_disabled":false,"rental_uris":{"android":"levelo://app?vid=02c0c0e2-355a-49a0-b5af-6ee6a3cbfa92","ios":"levelo://app?vid=02c0c0e2-355a-49a0-b5af-6ee6a3cbfa92"},"vehicle_type_id":"4","last_reported":1752873031,"current_range_meters":4400,"station_id":"ce4bh112rcd13ifvqda0","pricing_plan_id":"cebpf4jnsgd1na2vs0mg"},{"bike_id":"21e1544c-b194-4b33-af3d-5a50f57e1845","system_id":"levelo_inurba_marseille","lat":43.27209,"lon":5.39187,"is_reserved":false,"is_disabled":false,"rental_uris":{"android":"levelo://app?vid=21e1544c-b194-4b33-af3d-5a50f57e1845","ios":"levelo://app?vid=21e1544c-b194-4b33-af3d-5a50f57e1845"},"vehicle_type_id":"4","last_reported":1752873031,"current_range_meters":4000,"station_id":"ce4bhhp2rcd13ifvqfm0","pricing_plan_id":"cebpf4jnsgd1na2vs0mg"},{"bike_id":"20e1cc30-ccbe-478e-bcb7-dc20e13576d1","system_id":"levelo_inurba_marseille","lat":43.28459,"lon":5.35033,"is_reserved":false,"is_disabled":true,"rental_uris":{"android":"levelo://app?vid=20e1cc30-ccbe-478e-bcb7-dc20e13576d1","ios":"levelo://app?vid=20e1cc30-ccbe-478e-bcb7-dc20e13576d1"},"vehicle_type_id":"4","last_reported":1752873031,"current_range_meters":4800,"station_id":"ce4bhbh2rcd13ifvqepg","pricing_plan_id":"cebpf4jnsgd1na2vs0mg"},{"bike_id":"200b9085-2b93-48be-9ca1-52d15b3d325c","system_id":"levelo_inurba_marseille","lat":43.34145,"lon":5.4439,"is_reserved":false,"is_disabled":false,"rental_uris":{"android":"levelo://app?vid=200b9085-2b93-48be-9ca1-52d15b3d325c","ios":"levelo://app?vid=200b9085-2b93-48be-9ca1-52d15b3d325c"},"vehicle_type_id":"4","last_reported":1752873031,"current_range_meters":6000,"station_id":"","pricing_plan_id":"cebpf4jnsgd1na2vs0mg"},{"bike_id":"55cb9d55-e23f-42ba-99d7-73f284dd1b58","system_id":"levelo_inurba_marseille","lat":43.30414,"lon":5.41292,"is_reserved":false,"is_disabled":false,"rental_uris":{"android":"levelo://app?vid=55cb9d55-e23f-42ba-99d7-73f284dd1b58","ios":"levelo://app?vid=55cb9d55-e23f-42ba-99d7-73f284dd1b58"},"vehicle_type_id":"4","last_reported":1752873031,"current_range_meters":6000,"station_id":"ce4bhop2rcd13ifvqh8g","pricing_plan_id":"cebpf4jnsgd1na2vs0mg"},{"bike_id":"c2c8060b-d9bb-4c85-a7b0-6bcdb0c98263","system_id":"levelo_inurba_marseille","lat":43.250875,"lon":5.395244,"is_reserved":false,"is_disabled":false,"rental_uris":{"android":"levelo://app?vid=c2c8060b-d9bb-4c85-a7b0-6bcdb0c98263","ios":"levelo://app?vid=c2c8060b-d9bb-4c85-a7b0-6bcdb0c98263"},"vehicle_type_id":"4","last_reported":1752873031,"current_range_meters":6000,"station_id":"ce4bhm12rcd13ifvqgkg","pricing_plan_id":"cebpf4jnsgd1na2vs0mg"},{"bike_id":"0552ea12-01c1-4fc3-9631-ab4df8c50dde","system_id":"levelo_inurba_marseille","lat":43.22506,"lon":5.34783,"is_reserved":false,"is_disabled":false,"rental_uris":{"android":"levelo://app?vid=0552ea12-01c1-4fc3-9631-ab4df8c50dde","ios":"levelo://app?vid=0552ea12-01c1-4fc3-9631-ab4df8c50dde"},"vehicle_type_id":"4","last_reported":1752873031,"current_range_meters":6000,"station_id":"st_cvj5dfep6f1abm77gieg","pricing_plan_id":"cebpf4jnsgd1na2vs0mg"},{"bike_id":"caa22e8f-7ac2-424c-a0ac-03fd6895f8e8","system_id":"levelo_inurba_marseille","lat":43.31321,"lon":5.39702,"is_reserved":false,"is_disabled":false,"rental_uris":{"android":"levelo://app?vid=caa22e8f-7ac2-424c-a0ac-03fd6895f8e8","ios":"levelo://app?vid=caa22e8f-7ac2-424c-a0ac-03fd6895f8e8"},"vehicle_type_id":"4","last_reported":1752873031,"current_range_meters":6400,"station_id":"ce4bgvp2rcd13ifvqcu0","pricing_plan_id":"cebpf4jnsgd1na2vs0mg"},{"bike_id":"83ad0abd-8943-4804-a515-02bf0fa6068a","system_id":"levelo_inurba_marseille","lat":43.29547,"lon":5.4227,"is_reserved":false,"is_disabled":false,"rental_uris":{"android":"levelo://app?vid=83ad0abd-8943-4804-a515-02bf0fa6068a","ios":"levelo://app?vid=83ad0abd-8943-4804-a515-02bf0fa6068a"},"vehicle_type_id":"4","last_reported":1752873031,"current_range_meters":6400,"station_id":"ce4bhph2rcd13ifvqhdg","pricing_plan_id":"cebpf4jnsgd1na2vs0mg"},{"bike_id":"e95b1477-33a1-48a7-a021-3878a6895222","system_id":"levelo_inurba_marseille","lat":43.2175,"lon":5.34598,"is_reserved":false,"is_disabled":false,"rental_uris":{"android":"levelo://app?vid=e95b1477-33a1-48a7-a021-3878a6895222","ios":"levelo://app?vid=e95b1477-33a1-48a7-a021-3878a6895222"},"vehicle_type_id":"4","last_reported":1752873031,"current_range_meters":6400,"station_id":"st_cvj6r9ubvosntc0bgbag","pricing_plan_id":"cebpf4jnsgd1na2vs0mg"},{"bike_id":"04d15a50-cb94-495c-969c-c09473f1fcda","system_id":"levelo_inurba_marseille","lat":43.296196,"lon":5.377039,"is_reserved":false,"is_disabled":true,"rental_uris":{"android":"levelo://app?vid=04d15a50-cb94-495c-969c-c09473f1fcda","ios":"levelo://app?vid=04d15a50-cb94-495c-969c-c09473f1fcda"},"vehicle_type_id":"4","last_reported":1752873031,"current_range_meters":6800,"station_id":"","pricing_plan_id":"cebpf4jnsgd1na2vs0mg"},{"bike_id":"3444bdc6-514a-4ba6-9650-f9073305e33d","system_id":"levelo_inurba_marseille","lat":43.29682,"lon":5.3698,"is_reserved":false,"is_disabled":false,"rental_uris":{"android":"levelo://app?vid=3444bdc6-514a-4ba6-9650-f9073305e33d","ios":"levelo://app?vid=3444bdc6-514a-4ba6-9650-f9073305e33d"},"vehicle_type_id":"4","last_reported":1752873031,"current_range_meters":6800,"station_id":"","pricing_plan_id":"cebpf4jnsgd1na2vs0mg"},{"bike_id":"37437322-8c8c-42de-b8fa-18f1317c54a8","system_id":"levelo_inurba_marseille","lat":43.23291,"lon":5.36842,"is_reserved":false,"is_disabled":false,"rental_uris":{"android":"levelo://app?vid=37437322-8c8c-42de-b8fa-18f1317c54a8","ios":"levelo://app?vid=37437322-8c8c-42de-b8fa-18f1317c54a8"},"vehicle_type_id":"4","last_reported":1752873031,"current_range_meters":6800,"station_id":"","pricing_plan_id":"cebpf4jnsgd1na2vs0mg"},{"bike_id":"f3a53544-b517-4f7c-8e48-c2c6581fefd6","system_id":"levelo_inurba_marseille","lat":43.27975,"lon":5.38733,"is_reserved":false,"is_disabled":false,"rental_uris":{"android":"levelo://app?vid=f3a53544-b517-4f7c-8e48-c2c6581fefd6","ios":"levelo://app?vid=f3a53544-b517-4f7c-8e48-c2c6581fefd6"},"vehicle_type_id":"4","last_reported":1752873031,"current_range_meters":6800,"station_id":"ce4bhg12rcd13ifvqf80","pricing_plan_id":"cebpf4jnsgd1na2vs0mg"},{"bike_id":"12d0e05d-93fb-44b3-bec3-b29e9cda17f2","system_id":"levelo_inurba_marseille","lat":43.27919,"lon":5.39582,"is_reserved":false,"is_disabled":false,"rental_uris":{"android":"levelo://app?vid=12d0e05d-93fb-44b3-bec3-b29e9cda17f2","ios":"levelo://app?vid=12d0e05d-93fb-44b3-bec3-b29e9cda17f2"},"vehicle_type_id":"4","last_reported":1752873031,"current_range_meters":6800,"station_id":"ce4bhf92rcd13ifvqf40","pricing_plan_id":"cebpf4jnsgd1na2vs0mg"},{"bike_id":"fcb43646-13dd-4cea-b3e4-460cae3cbed7","system_id":"levelo_inurba_marseille","lat":43.22476,"lon":5.34827,"is_reserved":false,"is_disabled":false,"rental_uris":{"android":"levelo://app?vid=fcb43646-13dd-4cea-b3e4-460cae3cbed7","ios":"levelo://app?vid=fcb43646-13dd-4cea-b3e4-460cae3cbed7"},"vehicle_type_id":"4","last_reported":1752873031,"current_range_meters":7200,"station_id":"st_cvj5dfep6f1abm77gieg","pricing_plan_id":"cebpf4jnsgd1na2vs0mg"},{"bike_id":"555bc53e-5286-4fb6-9154-af42b3fd9792","system_id":"levelo_inurba_marseille","lat":43.30075,"lon":5.37273,"is_reserved":false,"is_disabled":false,"rental_uris":{"android":"levelo://app?vid=555bc53e-5286-4fb6-9154-af42b3fd9792","ios":"levelo://app?vid=555bc53e-5286-4fb6-9154-af42b3fd9792"},"vehicle_type_id":"4","last_reported":1752873031,"current_range_meters":7200,"station_id":"","pricing_plan_id":"cebpf4jnsgd1na2vs0mg"},{"bike_id":"d1b1ae6f-562f-42f0-a958-cbc912a1619d","system_id":"levelo_inurba_marseille","lat":43.2762,"lon":5.36119,"is_reserved":false,"is_disabled":true,"rental_uris":{"android":"levelo://app?vid=d1b1ae6f-562f-42f0-a958-cbc912a1619d","ios":"levelo://app?vid=d1b1ae6f-562f-42f0-a958-cbc912a1619d"},"vehicle_type_id":"4","last_reported":1752873031,"current_range_meters":7200,"station_id":"ce4bgj92rcd13ifvqbe0","pricing_plan_id":"cebpf4jnsgd1na2vs0mg"},{"bike_id":"28d27c17-e6ca-4cec-aec9-f1f6696b8a12","system_id":"levelo_inurba_marseille","lat":43.29919,"lon":5.43675,"is_reserved":false,"is_disabled":true,"rental_uris":{"android":"levelo://app?vid=28d27c17-e6ca-4cec-aec9-f1f6696b8a12","ios":"levelo://app?vid=28d27c17-e6ca-4cec-aec9-f1f6696b8a12"},"vehicle_type_id":"4","last_reported":1752873031,"current_range_meters":7200,"station_id":"","pricing_plan_id":"cebpf4jnsgd1na2vs0mg"},{"bike_id":"2bcbc7a6-2795-434a-a9ef-bc603b741280","system_id":"levelo_inurba_marseille","lat":43.26212,"lon":5.37436,"is_reserved":false,"is_disabled":false,"rental_uris":{"android":"levelo://app?vid=2bcbc7a6-2795-434a-a9ef-bc603b741280","ios":"levelo://app?vid=2bcbc7a6-2795-434a-a9ef-bc603b741280"},"vehicle_type_id":"4","last_reported":1752873031,"current_range_meters":4800,"station_id":"ce4bhgp2rcd13ifvqfc0","pricing_plan_id":"cebpf4jnsgd1na2vs0mg"},{"bike_id":"f897316b-05ba-46b0-b0d4-12469937bce4","system_id":"levelo_inurba_marseille","lat":43.33026,"lon":5.3907,"is_reserved":false,"is_disabled":false,"rental_uris":{"android":"levelo://app?vid=f897316b-05ba-46b0-b0d4-12469937bce4","ios":"levelo://app?vid=f897316b-05ba-46b0-b0d4-12469937bce4"},"vehicle_type_id":"4","last_reported":1752873031,"current_range_meters":8000,"station_id":"ce4bhr92rcd13ifvqhrg","pricing_plan_id":"cebpf4jnsgd1na2vs0mg"},{"bike_id":"56d35fb4-c3fa-422a-a14b-9ed987a4f56f","system_id":"levelo_inurba_marseille","lat":43.24809,"lon":5.37457,"is_reserved":false,"is_disabled":true,"rental_uris":{"android":"levelo://app?vid=56d35fb4-c3fa-422a-a14b-9ed987a4f56f","ios":"levelo://app?vid=56d35fb4-c3fa-422a-a14b-9ed987a4f56f"},"vehicle_type_id":"4","last_reported":1752873031,"current_range_meters":8400,"station_id":"ce4bhgh2rcd13ifvqfb0","pricing_plan_id":"cebpf4jnsgd1na2vs0mg"},{"bike_id":"3c7ecff7-1bf7-4e32-9691-78b125fb1819","system_id":"levelo_inurba_marseille","lat":43.30795,"lon":5.38164,"is_reserved":false,"is_disabled":false,"rental_uris":{"android":"levelo://app?vid=3c7ecff7-1bf7-4e32-9691-78b125fb1819","ios":"levelo://app?vid=3c7ecff7-1bf7-4e32-9691-78b125fb1819"},"vehicle_type_id":"4","last_reported":1752873031,"current_range_meters":8000,"station_id":"ce4bgt12rcd13ifvqce0","pricing_plan_id":"cebpf4jnsgd1na2vs0mg"},{"bike_id":"6f0bdc77-0417-473d-bfb8-174ef49ff629","system_id":"levelo_inurba_marseille","lat":43.29794,"lon":5.40402,"is_reserved":false,"is_disabled":false,"rental_uris":{"android":"levelo://app?vid=6f0bdc77-0417-473d-bfb8-174ef49ff629","ios":"levelo://app?vid=6f0bdc77-0417-473d-bfb8-174ef49ff629"},"vehicle_type_id":"4","last_reported":1752873031,"current_range_meters":8400,"station_id":"ce4bh112rcd13ifvqd90","pricing_plan_id":"cebpf4jnsgd1na2vs0mg"},{"bike_id":"07f5ae19-0925-43ef-aab4-48ec58bc62b9","system_id":"levelo_inurba_marseille","lat":43.31454,"lon":5.37438,"is_reserved":false,"is_disabled":false,"rental_uris":{"android":"levelo://app?vid=07f5ae19-0925-43ef-aab4-48ec58bc62b9","ios":"levelo://app?vid=07f5ae19-0925-43ef-aab4-48ec58bc62b9"},"vehicle_type_id":"4","last_reported":1752873031,"current_range_meters":8400,"station_id":"","pricing_plan_id":"cebpf4jnsgd1na2vs0mg"},{"bike_id":"c27ced46-316b-4542-b79e-caf776aed47e","system_id":"levelo_inurba_marseille","lat":43.29152,"lon":5.3744,"is_reserved":false,"is_disabled":false,"rental_uris":{"android":"levelo://app?vid=c27ced46-316b-4542-b79e-caf776aed47e","ios":"levelo://app?vid=c27ced46-316b-4542-b79e-caf776aed47e"},"vehicle_type_id":"4","last_reported":1752873031,"current_range_meters":8800,"station_id":"","pricing_plan_id":"cebpf4jnsgd1na2vs0mg"},{"bike_id":"b29b4439-b50e-4dd9-8839-d0b59179f1e7","system_id":"levelo_inurba_marseille","lat":43.26961,"lon":5.38611,"is_reserved":false,"is_disabled":true,"rental_uris":{"android":"levelo://app?vid=b29b4439-b50e-4dd9-8839-d0b59179f1e7","ios":"levelo://app?vid=b29b4439-b50e-4dd9-8839-d0b59179f1e7"},"vehicle_type_id":"4","last_reported":1752873031,"current_range_meters":8800,"station_id":"ce4bhh92rcd13ifvqfh0","pricing_plan_id":"cebpf4jnsgd1na2vs0mg"},{"bike_id":"cceab106-0b0d-48e0-9b82-153fab3ab8ca","system_id":"levelo_inurba_marseille","lat":43.25501,"lon":5.37652,"is_reserved":false,"is_disabled":false,"rental_uris":{"android":"levelo://app?vid=cceab106-0b0d-48e0-9b82-153fab3ab8ca","ios":"levelo://app?vid=cceab106-0b0d-48e0-9b82-153fab3ab8ca"},"vehicle_type_id":"4","last_reported":1752873031,"current_range_meters":8800,"station_id":"ce4bhh12rcd13ifvqff0","pricing_plan_id":"cebpf4jnsgd1na2vs0mg"},{"bike_id":"79e00cba-979b-4370-b320-7e4857db9893","system_id":"levelo_inurba_marseille","lat":43.33794,"lon":5.37437,"is_reserved":false,"is_disabled":false,"rental_uris":{"android":"levelo://app?vid=79e00cba-979b-4370-b320-7e4857db9893","ios":"levelo://app?vid=79e00cba-979b-4370-b320-7e4857db9893"},"vehicle_type_id":"4","last_reported":1752873031,"current_range_meters":8800,"station_id":"","pricing_plan_id":"cebpf4jnsgd1na2vs0mg"},{"bike_id":"c48fb7cb-77d3-4c01-ab48-c83432d778b1","system_id":"levelo_inurba_marseille","lat":43.319895,"lon":5.381707,"is_reserved":false,"is_disabled":false,"rental_uris":{"android":"levelo://app?vid=c48fb7cb-77d3-4c01-ab48-c83432d778b1","ios":"levelo://app?vid=c48fb7cb-77d3-4c01-ab48-c83432d778b1"},"vehicle_type_id":"4","last_reported":1752873031,"current_range_meters":8800,"station_id":"ce4bhr12rcd13ifvqhpg","pricing_plan_id":"cebpf4jnsgd1na2vs0mg"},{"bike_id":"5c512656-cb55-4e17-89ea-c883f7f63553","system_id":"levelo_inurba_marseille","lat":43.2175,"lon":5.34606,"is_reserved":false,"is_disabled":true,"rental_uris":{"android":"levelo://app?vid=5c512656-cb55-4e17-89ea-c883f7f63553","ios":"levelo://app?vid=5c512656-cb55-4e17-89ea-c883f7f63553"},"vehicle_type_id":"4","last_reported":1752873031,"current_range_meters":8800,"station_id":"st_cvj6r9ubvosntc0bgbag","pricing_plan_id":"cebpf4jnsgd1na2vs0mg"},{"bike_id":"76333e37-bedf-456a-890c-e9fc5e8466fe","system_id":"levelo_inurba_marseille","lat":43.31326,"lon":5.39699,"is_reserved":false,"is_disabled":false,"rental_uris":{"android":"levelo://app?vid=76333e37-bedf-456a-890c-e9fc5e8466fe","ios":"levelo://app?vid=76333e37-bedf-456a-890c-e9fc5e8466fe"},"vehicle_type_id":"4","last_reported":1752873031,"current_range_meters":8800,"station_id":"ce4bgvp2rcd13ifvqcu0","pricing_plan_id":"cebpf4jnsgd1na2vs0mg"},{"bike_id":"24acb9a1-74ee-4907-b7e4-ab985796556b","system_id":"levelo_inurba_marseille","lat":43.311163,"lon":5.377687,"is_reserved":false,"is_disabled":false,"rental_uris":{"android":"levelo://app?vid=24acb9a1-74ee-4907-b7e4-ab985796556b","ios":"levelo://app?vid=24acb9a1-74ee-4907-b7e4-ab985796556b"},"vehicle_type_id":"4","last_reported":1752873031,"current_range_meters":9200,"station_id":"ce4bh0p2rcd13ifvqd80","pricing_plan_id":"cebpf4jnsgd1na2vs0mg"},{"bike_id":"255f63b3-d391-461e-9168-7b692342f2c5","system_id":"levelo_inurba_marseille","lat":43.21191,"lon":5.35094,"is_reserved":false,"is_disabled":false,"rental_uris":{"android":"levelo://app?vid=255f63b3-d391-461e-9168-7b692342f2c5","ios":"levelo://app?vid=255f63b3-d391-461e-9168-7b692342f2c5"},"vehicle_type_id":"4","last_reported":1752873031,"current_range_meters":9200,"station_id":"st_cvj6sg6p6f1abm77japg","pricing_plan_id":"cebpf4jnsgd1na2vs0mg"},{"bike_id":"2ac93549-5c94-4228-8eea-782a21384d10","system_id":"levelo_inurba_marseille","lat":43.29634,"lon":5.37793,"is_reserved":false,"is_disabled":false,"rental_uris":{"android":"levelo://app?vid=2ac93549-5c94-4228-8eea-782a21384d10","ios":"levelo://app?vid=2ac93549-5c94-4228-8eea-782a21384d10"},"vehicle_type_id":"4","last_reported":1752873031,"current_range_meters":9200,"station_id":"","pricing_plan_id":"cebpf4jnsgd1na2vs0mg"},{"bike_id":"89388cd0-57f4-44ac-a107-97aed21ad33d","system_id":"levelo_inurba_marseille","lat":43.28722,"lon":5.3794,"is_reserved":false,"is_disabled":false,"rental_uris":{"android":"levelo://app?vid=89388cd0-57f4-44ac-a107-97aed21ad33d","ios":"levelo://app?vid=89388cd0-57f4-44ac-a107-97aed21ad33d"},"vehicle_type_id":"4","last_reported":1752873031,"current_range_meters":9200,"station_id":"ce4bh9p2rcd13ifvqec0","pricing_plan_id":"cebpf4jnsgd1na2vs0mg"},{"bike_id":"00ecada3-8577-4c51-98e2-f760bc2bb718","system_id":"levelo_inurba_marseille","lat":43.29382,"lon":5.39854,"is_reserved":false,"is_disabled":false,"rental_uris":{"android":"levelo://app?vid=00ecada3-8577-4c51-98e2-f760bc2bb718","ios":"levelo://app?vid=00ecada3-8577-4c51-98e2-f760bc2bb718"},"vehicle_type_id":"4","last_reported":1752873031,"current_range_meters":9200,"station_id":"","pricing_plan_id":"cebpf4jnsgd1na2vs0mg"},{"bike_id":"d356f5f4-83ff-46d5-9416-6b3997b78c2a","system_id":"levelo_inurba_marseille","lat":43.29532,"lon":5.38543,"is_reserved":false,"is_disabled":false,"rental_uris":{"android":"levelo://app?vid=d356f5f4-83ff-46d5-9416-6b3997b78c2a","ios":"levelo://app?vid=d356f5f4-83ff-46d5-9416-6b3997b78c2a"},"vehicle_type_id":"4","last_reported":1752873031,"current_range_meters":9600,"station_id":"ce4bgih2rcd13ifvqba0","pricing_plan_id":"cebpf4jnsgd1na2vs0mg"},{"bike_id":"bd518e6e-194d-4927-be7d-5826845cbc8f","system_id":"levelo_inurba_marseille","lat":43.29025,"lon":5.38647,"is_reserved":false,"is_disabled":false,"rental_uris":{"android":"levelo://app?vid=bd518e6e-194d-4927-be7d-5826845cbc8f","ios":"levelo://app?vid=bd518e6e-194d-4927-be7d-5826845cbc8f"},"vehicle_type_id":"4","last_reported":1752873031,"current_range_meters":9600,"station_id":"ce4bh4p2rcd13ifvqe0g","pricing_plan_id":"cebpf4jnsgd1na2vs0mg"},{"bike_id":"da891840-0cec-4ccc-961c-48903736c6fa","system_id":"levelo_inurba_marseille","lat":43.31139,"lon":5.37692,"is_reserved":false,"is_disabled":false,"rental_uris":{"android":"levelo://app?vid=da891840-0cec-4ccc-961c-48903736c6fa","ios":"levelo://app?vid=da891840-0cec-4ccc-961c-48903736c6fa"},"vehicle_type_id":"4","last_reported":1752873031,"current_range_meters":9600,"station_id":"","pricing_plan_id":"cebpf4jnsgd1na2vs0mg"},{"bike_id":"542e1f13-cb55-4de3-8178-54f82074f6f2","system_id":"levelo_inurba_marseille","lat":43.30894,"lon":5.39651,"is_reserved":false,"is_disabled":false,"rental_uris":{"android":"levelo://app?vid=542e1f13-cb55-4de3-8178-54f82074f6f2","ios":"levelo://app?vid=542e1f13-cb55-4de3-8178-54f82074f6f2"},"vehicle_type_id":"4","last_reported":1752873031,"current_range_meters":9600,"station_id":"ce4bh012rcd13ifvqcv0","pricing_plan_id":"cebpf4jnsgd1na2vs0mg"},{"bike_id":"e555b545-304c-4dce-8496-1643c0f2600e","system_id":"levelo_inurba_marseille","lat":43.337444,"lon":5.374475,"is_reserved":false,"is_disabled":false,"rental_uris":{"android":"levelo://app?vid=e555b545-304c-4dce-8496-1643c0f2600e","ios":"levelo://app?vid=e555b545-304c-4dce-8496-1643c0f2600e"},"vehicle_type_id":"4","last_reported":1752873031,"current_range_meters":9600,"station_id":"","pricing_plan_id":"cebpf4jnsgd1na2vs0mg"},{"bike_id":"f3be861f-5e07-44a2-bf73-1fb0e68041e3","system_id":"levelo_inurba_marseille","lat":43.248037,"lon":5.374559,"is_reserved":false,"is_disabled":false,"rental_uris":{"android":"levelo://app?vid=f3be861f-5e07-44a2-bf73-1fb0e68041e3","ios":"levelo://app?vid=f3be861f-5e07-44a2-bf73-1fb0e68041e3"},"vehicle_type_id":"4","last_reported":1752873031,"current_range_meters":9600,"station_id":"","pricing_plan_id":"cebpf4jnsgd1na2vs0mg"},{"bike_id":"384d8e65-dfd1-49b1-a489-51e8d6b290dd","system_id":"levelo_inurba_marseille","lat":43.30952,"lon":5.3904,"is_reserved":false,"is_disabled":false,"rental_uris":{"android":"levelo://app?vid=384d8e65-dfd1-49b1-a489-51e8d6b290dd","ios":"levelo://app?vid=384d8e65-dfd1-49b1-a489-51e8d6b290dd"},"vehicle_type_id":"4","last_reported":1752873031,"current_range_meters":9600,"station_id":"ce4bgup2rcd13ifvqco0","pricing_plan_id":"cebpf4jnsgd1na2vs0mg"},{"bike_id":"935ccfe4-ee22-4376-a705-c5be2f8ec6a8","system_id":"levelo_inurba_marseille","lat":43.29525,"lon":5.38606,"is_reserved":false,"is_disabled":false,"rental_uris":{"android":"levelo://app?vid=935ccfe4-ee22-4376-a705-c5be2f8ec6a8","ios":"levelo://app?vid=935ccfe4-ee22-4376-a705-c5be2f8ec6a8"},"vehicle_type_id":"4","last_reported":1752873031,"current_range_meters":9600,"station_id":"ce4bgih2rcd13ifvqba0","pricing_plan_id":"cebpf4jnsgd1na2vs0mg"},{"bike_id":"34e8b169-75ed-45e1-b146-b20adbb47efe","system_id":"levelo_inurba_marseille","lat":43.29429,"lon":5.38591,"is_reserved":false,"is_disabled":false,"rental_uris":{"android":"levelo://app?vid=34e8b169-75ed-45e1-b146-b20adbb47efe","ios":"levelo://app?vid=34e8b169-75ed-45e1-b146-b20adbb47efe"},"vehicle_type_id":"4","last_reported":1752873031,"current_range_meters":10000,"station_id":"ce4bh2h2rcd13ifvqdh0","pricing_plan_id":"cebpf4jnsgd1na2vs0mg"},{"bike_id":"32f19c1a-13c7-4881-9690-86d43bf5a64a","system_id":"levelo_inurba_marseille","lat":43.28602,"lon":5.37058,"is_reserved":false,"is_disabled":false,"rental_uris":{"android":"levelo://app?vid=32f19c1a-13c7-4881-9690-86d43bf5a64a","ios":"levelo://app?vid=32f19c1a-13c7-4881-9690-86d43bf5a64a"},"vehicle_type_id":"4","last_reported":1752873031,"current_range_meters":10000,"station_id":"ce4bht12rcd13ifvqi60","pricing_plan_id":"cebpf4jnsgd1na2vs0mg"},{"bike_id":"42611c43-759d-4e21-8385-b04863f591dc","system_id":"levelo_inurba_marseille","lat":43.2943,"lon":5.38588,"is_reserved":false,"is_disabled":false,"rental_uris":{"android":"levelo://app?vid=42611c43-759d-4e21-8385-b04863f591dc","ios":"levelo://app?vid=42611c43-759d-4e21-8385-b04863f591dc"},"vehicle_type_id":"4","last_reported":1752873031,"current_range_meters":10000,"station_id":"ce4bh2h2rcd13ifvqdh0","pricing_plan_id":"cebpf4jnsgd1na2vs0mg"},{"bike_id":"537df271-1e3d-4ffc-ad70-ada379266803","system_id":"levelo_inurba_marseille","lat":43.21747,"lon":5.34602,"is_reserved":false,"is_disabled":false,"rental_uris":{"android":"levelo://app?vid=537df271-1e3d-4ffc-ad70-ada379266803","ios":"levelo://app?vid=537df271-1e3d-4ffc-ad70-ada379266803"},"vehicle_type_id":"4","last_reported":1752873031,"current_range_meters":10800,"station_id":"st_cvj6r9ubvosntc0bgbag","pricing_plan_id":"cebpf4jnsgd1na2vs0mg"},{"bike_id":"b18457b6-b744-4542-873e-ebb7266cf94f","system_id":"levelo_inurba_marseille","lat":43.28601,"lon":5.37062,"is_reserved":false,"is_disabled":false,"rental_uris":{"android":"levelo://app?vid=b18457b6-b744-4542-873e-ebb7266cf94f","ios":"levelo://app?vid=b18457b6-b744-4542-873e-ebb7266cf94f"},"vehicle_type_id":"4","last_reported":1752873031,"current_range_meters":10800,"station_id":"ce4bht12rcd13ifvqi60","pricing_plan_id":"cebpf4jnsgd1na2vs0mg"},{"bike_id":"b73efc86-7ada-42ae-a2b9-a0552c42b695","system_id":"levelo_inurba_marseille","lat":43.29567,"lon":5.37508,"is_reserved":false,"is_disabled":false,"rental_uris":{"android":"levelo://app?vid=b73efc86-7ada-42ae-a2b9-a0552c42b695","ios":"levelo://app?vid=b73efc86-7ada-42ae-a2b9-a0552c42b695"},"vehicle_type_id":"4","last_reported":1752873031,"current_range_meters":10800,"station_id":"ce4bgh92rcd13ifvqb50","pricing_plan_id":"cebpf4jnsgd1na2vs0mg"},{"bike_id":"c1581133-408d-41b8-baa8-5349a06a2518","system_id":"levelo_inurba_marseille","lat":43.25105,"lon":5.40353,"is_reserved":false,"is_disabled":false,"rental_uris":{"android":"levelo://app?vid=c1581133-408d-41b8-baa8-5349a06a2518","ios":"levelo://app?vid=c1581133-408d-41b8-baa8-5349a06a2518"},"vehicle_type_id":"4","last_reported":1752873031,"current_range_meters":10800,"station_id":"ce4bhlh2rcd13ifvqgig","pricing_plan_id":"cebpf4jnsgd1na2vs0mg"},{"bike_id":"ea81e9ae-750c-4d2e-a421-e630afb7dd18","system_id":"levelo_inurba_marseille","lat":43.28935,"lon":5.36642,"is_reserved":false,"is_disabled":false,"rental_uris":{"android":"levelo://app?vid=ea81e9ae-750c-4d2e-a421-e630afb7dd18","ios":"levelo://app?vid=ea81e9ae-750c-4d2e-a421-e630afb7dd18"},"vehicle_type_id":"4","last_reported":1752873031,"current_range_meters":10800,"station_id":"ce4bhap2rcd13ifvqek0","pricing_plan_id":"cebpf4jnsgd1na2vs0mg"},{"bike_id":"ade6b85c-6a6c-4230-abc0-6dc967d7d481","system_id":"levelo_inurba_marseille","lat":43.29282,"lon":5.40119,"is_reserved":false,"is_disabled":false,"rental_uris":{"android":"levelo://app?vid=ade6b85c-6a6c-4230-abc0-6dc967d7d481","ios":"levelo://app?vid=ade6b85c-6a6c-4230-abc0-6dc967d7d481"},"vehicle_type_id":"4","last_reported":1752873031,"current_range_meters":10800,"station_id":"ce4bh312rcd13ifvqdk0","pricing_plan_id":"cebpf4jnsgd1na2vs0mg"},{"bike_id":"792c6d19-d2aa-43d0-ba46-67942c12daaa","system_id":"levelo_inurba_marseille","lat":43.28613,"lon":5.37068,"is_reserved":false,"is_disabled":false,"rental_uris":{"android":"levelo://app?vid=792c6d19-d2aa-43d0-ba46-67942c12daaa","ios":"levelo://app?vid=792c6d19-d2aa-43d0-ba46-67942c12daaa"},"vehicle_type_id":"4","last_reported":1752873031,"current_range_meters":10800,"station_id":"ce4bht12rcd13ifvqi60","pricing_plan_id":"cebpf4jnsgd1na2vs0mg"},{"bike_id":"2d95b47d-d06f-40a4-bb6e-c13e954e3c8f","system_id":"levelo_inurba_marseille","lat":43.277221,"lon":5.414174,"is_reserved":false,"is_disabled":false,"rental_uris":{"android":"levelo://app?vid=2d95b47d-d06f-40a4-bb6e-c13e954e3c8f","ios":"levelo://app?vid=2d95b47d-d06f-40a4-bb6e-c13e954e3c8f"},"vehicle_type_id":"4","last_reported":1752873031,"current_range_meters":11600,"station_id":"","pricing_plan_id":"cebpf4jnsgd1na2vs0mg"},{"bike_id":"63387519-3281-4b86-a20e-163b20d7bf3e","system_id":"levelo_inurba_marseille","lat":43.29187,"lon":5.39323,"is_reserved":false,"is_disabled":false,"rental_uris":{"android":"levelo://app?vid=63387519-3281-4b86-a20e-163b20d7bf3e","ios":"levelo://app?vid=63387519-3281-4b86-a20e-163b20d7bf3e"},"vehicle_type_id":"4","last_reported":1752873031,"current_range_meters":11200,"station_id":"ce4bh192rcd13ifvqdd0","pricing_plan_id":"cebpf4jnsgd1na2vs0mg"},{"bike_id":"88c69b77-36ba-468d-a88a-44a1ce7d5517","system_id":"levelo_inurba_marseille","lat":43.27974,"lon":5.38739,"is_reserved":false,"is_disabled":false,"rental_uris":{"android":"levelo://app?vid=88c69b77-36ba-468d-a88a-44a1ce7d5517","ios":"levelo://app?vid=88c69b77-36ba-468d-a88a-44a1ce7d5517"},"vehicle_type_id":"4","last_reported":1752873031,"current_range_meters":11200,"station_id":"ce4bhg12rcd13ifvqf80","pricing_plan_id":"cebpf4jnsgd1na2vs0mg"},{"bike_id":"8333e135-74e5-42e9-b49a-4694a2ab0908","system_id":"levelo_inurba_marseille","lat":43.29739,"lon":5.39948,"is_reserved":false,"is_disabled":false,"rental_uris":{"android":"levelo://app?vid=8333e135-74e5-42e9-b49a-4694a2ab0908","ios":"levelo://app?vid=8333e135-74e5-42e9-b49a-4694a2ab0908"},"vehicle_type_id":"4","last_reported":1752873031,"current_range_meters":11200,"station_id":"","pricing_plan_id":"cebpf4jnsgd1na2vs0mg"},{"bike_id":"cc3f34ee-fa57-4e88-a4ff-47d444416ce9","system_id":"levelo_inurba_marseille","lat":43.295244,"lon":5.385416,"is_reserved":false,"is_disabled":false,"rental_uris":{"android":"levelo://app?vid=cc3f34ee-fa57-4e88-a4ff-47d444416ce9","ios":"levelo://app?vid=cc3f34ee-fa57-4e88-a4ff-47d444416ce9"},"vehicle_type_id":"4","last_reported":1752873031,"current_range_meters":11200,"station_id":"ce4bgih2rcd13ifvqba0","pricing_plan_id":"cebpf4jnsgd1na2vs0mg"},{"bike_id":"ae6a6df6-6253-4365-9f29-51ee020c4f27","system_id":"levelo_inurba_marseille","lat":43.30301,"lon":5.36891,"is_reserved":false,"is_disabled":false,"rental_uris":{"android":"levelo://app?vid=ae6a6df6-6253-4365-9f29-51ee020c4f27","ios":"levelo://app?vid=ae6a6df6-6253-4365-9f29-51ee020c4f27"},"vehicle_type_id":"4","last_reported":1752873031,"current_range_meters":11200,"station_id":"ce4bgqh2rcd13ifvqc5g","pricing_plan_id":"cebpf4jnsgd1na2vs0mg"},{"bike_id":"2b329a1d-d76c-4c27-9e3d-409d930af09e","system_id":"levelo_inurba_marseille","lat":43.2953,"lon":5.38539,"is_reserved":false,"is_disabled":false,"rental_uris":{"android":"levelo://app?vid=2b329a1d-d76c-4c27-9e3d-409d930af09e","ios":"levelo://app?vid=2b329a1d-d76c-4c27-9e3d-409d930af09e"},"vehicle_type_id":"4","last_reported":1752873031,"current_range_meters":11600,"station_id":"ce4bgih2rcd13ifvqba0","pricing_plan_id":"cebpf4jnsgd1na2vs0mg"},{"bike_id":"b004baab-db70-453e-84a5-9312df4bd1d6","system_id":"levelo_inurba_marseille","lat":43.22508,"lon":5.34777,"is_reserved":false,"is_disabled":false,"rental_uris":{"android":"levelo://app?vid=b004baab-db70-453e-84a5-9312df4bd1d6","ios":"levelo://app?vid=b004baab-db70-453e-84a5-9312df4bd1d6"},"vehicle_type_id":"4","last_reported":1752873031,"current_range_meters":11600,"station_id":"st_cvj5dfep6f1abm77gieg","pricing_plan_id":"cebpf4jnsgd1na2vs0mg"},{"bike_id":"02dc30e4-0fdb-4f4a-b234-855f526124f7","system_id":"levelo_inurba_marseille","lat":43.29705,"lon":5.37707,"is_reserved":false,"is_disabled":false,"rental_uris":{"android":"levelo://app?vid=02dc30e4-0fdb-4f4a-b234-855f526124f7","ios":"levelo://app?vid=02dc30e4-0fdb-4f4a-b234-855f526124f7"},"vehicle_type_id":"4","last_reported":1752873031,"current_range_meters":11600,"station_id":"ce4bgkh2rcd13ifvqbl0","pricing_plan_id":"cebpf4jnsgd1na2vs0mg"},{"bike_id":"69d4222f-0295-4a73-8f1e-8cfac61913ec","system_id":"levelo_inurba_marseille","lat":43.25109,"lon":5.4032,"is_reserved":false,"is_disabled":false,"rental_uris":{"android":"levelo://app?vid=69d4222f-0295-4a73-8f1e-8cfac61913ec","ios":"levelo://app?vid=69d4222f-0295-4a73-8f1e-8cfac61913ec"},"vehicle_type_id":"4","last_reported":1752873031,"current_range_meters":11600,"station_id":"ce4bhlh2rcd13ifvqgig","pricing_plan_id":"cebpf4jnsgd1na2vs0mg"},{"bike_id":"925b96b6-c323-4917-a3b9-15aadd396dd7","system_id":"levelo_inurba_marseille","lat":43.3118,"lon":5.38782,"is_reserved":false,"is_disabled":false,"rental_uris":{"android":"levelo://app?vid=925b96b6-c323-4917-a3b9-15aadd396dd7","ios":"levelo://app?vid=925b96b6-c323-4917-a3b9-15aadd396dd7"},"vehicle_type_id":"4","last_reported":1752873031,"current_range_meters":11600,"station_id":"ce4bgv12rcd13ifvqcp0","pricing_plan_id":"cebpf4jnsgd1na2vs0mg"},{"bike_id":"600ce411-a2cd-4cfb-b393-c3e72d5cd832","system_id":"levelo_inurba_marseille","lat":43.31707,"lon":5.40455,"is_reserved":false,"is_disabled":false,"rental_uris":{"android":"levelo://app?vid=600ce411-a2cd-4cfb-b393-c3e72d5cd832","ios":"levelo://app?vid=600ce411-a2cd-4cfb-b393-c3e72d5cd832"},"vehicle_type_id":"4","last_reported":1752873031,"current_range_meters":11600,"station_id":"ce4bh012rcd13ifvqd00","pricing_plan_id":"cebpf4jnsgd1na2vs0mg"},{"bike_id":"f258ff73-2a49-4a60-9ce6-6f7708c10850","system_id":"levelo_inurba_marseille","lat":43.31176,"lon":5.38721,"is_reserved":false,"is_disabled":false,"rental_uris":{"android":"levelo://app?vid=f258ff73-2a49-4a60-9ce6-6f7708c10850","ios":"levelo://app?vid=f258ff73-2a49-4a60-9ce6-6f7708c10850"},"vehicle_type_id":"4","last_reported":1752873031,"current_range_meters":11600,"station_id":"ce4bgv12rcd13ifvqcp0","pricing_plan_id":"cebpf4jnsgd1na2vs0mg"},{"bike_id":"ce7bd25b-5213-4881-a28b-f582e6a1d712","system_id":"levelo_inurba_marseille","lat":43.31342,"lon":5.36776,"is_reserved":false,"is_disabled":true,"rental_uris":{"android":"levelo://app?vid=ce7bd25b-5213-4881-a28b-f582e6a1d712","ios":"levelo://app?vid=ce7bd25b-5213-4881-a28b-f582e6a1d712"},"vehicle_type_id":"4","last_reported":1752873031,"current_range_meters":11600,"station_id":"ce4bgr92rcd13ifvqc6g","pricing_plan_id":"cebpf4jnsgd1na2vs0mg"},{"bike_id":"fd806d2f-27dc-49d1-a81b-d89193bc0b5b","system_id":"levelo_inurba_marseille","lat":43.2846,"lon":5.35893,"is_reserved":false,"is_disabled":false,"rental_uris":{"android":"levelo://app?vid=fd806d2f-27dc-49d1-a81b-d89193bc0b5b","ios":"levelo://app?vid=fd806d2f-27dc-49d1-a81b-d89193bc0b5b"},"vehicle_type_id":"4","last_reported":1752873031,"current_range_meters":11600,"station_id":"ce4bhah2rcd13ifvqei0","pricing_plan_id":"cebpf4jnsgd1na2vs0mg"},{"bike_id":"001afcfb-1937-4608-b62d-d5b1171dbb90","system_id":"levelo_inurba_marseille","lat":43.30795,"lon":5.38164,"is_reserved":false,"is_disabled":false,"rental_uris":{"android":"levelo://app?vid=001afcfb-1937-4608-b62d-d5b1171dbb90","ios":"levelo://app?vid=001afcfb-1937-4608-b62d-d5b1171dbb90"},"vehicle_type_id":"4","last_reported":1752873031,"current_range_meters":11600,"station_id":"ce4bgt12rcd13ifvqce0","pricing_plan_id":"cebpf4jnsgd1na2vs0mg"},{"bike_id":"ee5510ee-8e3d-4783-a4e9-9921b4c6b7c1","system_id":"levelo_inurba_marseille","lat":43.29575,"lon":5.37503,"is_reserved":false,"is_disabled":false,"rental_uris":{"android":"levelo://app?vid=ee5510ee-8e3d-4783-a4e9-9921b4c6b7c1","ios":"levelo://app?vid=ee5510ee-8e3d-4783-a4e9-9921b4c6b7c1"},"vehicle_type_id":"4","last_reported":1752873031,"current_range_meters":12000,"station_id":"ce4bgh92rcd13ifvqb50","pricing_plan_id":"cebpf4jnsgd1na2vs0mg"},{"bike_id":"29c44405-5852-4d48-a871-a9bc5e60ce4b","system_id":"levelo_inurba_marseille","lat":43.28668,"lon":5.38664,"is_reserved":false,"is_disabled":true,"rental_uris":{"android":"levelo://app?vid=29c44405-5852-4d48-a871-a9bc5e60ce4b","ios":"levelo://app?vid=29c44405-5852-4d48-a871-a9bc5e60ce4b"},"vehicle_type_id":"4","last_reported":1752873031,"current_range_meters":12000,"station_id":"ce4bh492rcd13ifvqdug","pricing_plan_id":"cebpf4jnsgd1na2vs0mg"},{"bike_id":"f369b8bb-41e0-449b-9d6b-37a5a10270d3","system_id":"levelo_inurba_marseille","lat":43.30151,"lon":5.37402,"is_reserved":false,"is_disabled":false,"rental_uris":{"android":"levelo://app?vid=f369b8bb-41e0-449b-9d6b-37a5a10270d3","ios":"levelo://app?vid=f369b8bb-41e0-449b-9d6b-37a5a10270d3"},"vehicle_type_id":"4","last_reported":1752873031,"current_range_meters":11600,"station_id":"ce4bgs92rcd13ifvqcc0","pricing_plan_id":"cebpf4jnsgd1na2vs0mg"},{"bike_id":"e571b882-1b31-481a-9f98-8ab8eeeef29c","system_id":"levelo_inurba_marseille","lat":43.28693,"lon":5.37383,"is_reserved":false,"is_disabled":false,"rental_uris":{"android":"levelo://app?vid=e571b882-1b31-481a-9f98-8ab8eeeef29c","ios":"levelo://app?vid=e571b882-1b31-481a-9f98-8ab8eeeef29c"},"vehicle_type_id":"4","last_reported":1752873031,"current_range_meters":12000,"station_id":"ce4bh3p2rcd13ifvqdq0","pricing_plan_id":"cebpf4jnsgd1na2vs0mg"},{"bike_id":"5ec65e48-3733-4266-b88b-9d505d258d58","system_id":"levelo_inurba_marseille","lat":43.33605,"lon":5.41034,"is_reserved":false,"is_disabled":false,"rental_uris":{"android":"levelo://app?vid=5ec65e48-3733-4266-b88b-9d505d258d58","ios":"levelo://app?vid=5ec65e48-3733-4266-b88b-9d505d258d58"},"vehicle_type_id":"4","last_reported":1752873031,"current_range_meters":12000,"station_id":"ce4bhqh2rcd13ifvqhmg","pricing_plan_id":"cebpf4jnsgd1na2vs0mg"},{"bike_id":"9e46aa88-7b19-47c3-b789-71b8902b53cb","system_id":"levelo_inurba_marseille","lat":43.2816,"lon":5.42645,"is_reserved":false,"is_disabled":false,"rental_uris":{"android":"levelo://app?vid=9e46aa88-7b19-47c3-b789-71b8902b53cb","ios":"levelo://app?vid=9e46aa88-7b19-47c3-b789-71b8902b53cb"},"vehicle_type_id":"4","last_reported":1752873031,"current_range_meters":12400,"station_id":"ce4bhnh2rcd13ifvqgug","pricing_plan_id":"cebpf4jnsgd1na2vs0mg"},{"bike_id":"7232080a-0ab9-449d-8847-765fcd2dad4f","system_id":"levelo_inurba_marseille","lat":43.31196,"lon":5.3874,"is_reserved":false,"is_disabled":false,"rental_uris":{"android":"levelo://app?vid=7232080a-0ab9-449d-8847-765fcd2dad4f","ios":"levelo://app?vid=7232080a-0ab9-449d-8847-765fcd2dad4f"},"vehicle_type_id":"4","last_reported":1752873031,"current_range_meters":12000,"station_id":"ce4bgv12rcd13ifvqcp0","pricing_plan_id":"cebpf4jnsgd1na2vs0mg"},{"bike_id":"5ac93e7c-286a-4c1e-b6c0-4e9963e5a9f8","system_id":"levelo_inurba_marseille","lat":43.21181,"lon":5.35083,"is_reserved":false,"is_disabled":false,"rental_uris":{"android":"levelo://app?vid=5ac93e7c-286a-4c1e-b6c0-4e9963e5a9f8","ios":"levelo://app?vid=5ac93e7c-286a-4c1e-b6c0-4e9963e5a9f8"},"vehicle_type_id":"4","last_reported":1752873031,"current_range_meters":12000,"station_id":"st_cvj6sg6p6f1abm77japg","pricing_plan_id":"cebpf4jnsgd1na2vs0mg"},{"bike_id":"42e4c88f-c0dd-45fa-93ab-484073841545","system_id":"levelo_inurba_marseille","lat":43.29305,"lon":5.37462,"is_reserved":false,"is_disabled":false,"rental_uris":{"android":"levelo://app?vid=42e4c88f-c0dd-45fa-93ab-484073841545","ios":"levelo://app?vid=42e4c88f-c0dd-45fa-93ab-484073841545"},"vehicle_type_id":"4","last_reported":1752873031,"current_range_meters":12000,"station_id":"ce4bgi12rcd13ifvqb70","pricing_plan_id":"cebpf4jnsgd1na2vs0mg"},{"bike_id":"c6db0f6a-96fe-4e1d-8ded-c2ef38c9bab4","system_id":"levelo_inurba_marseille","lat":43.304183,"lon":5.412838,"is_reserved":false,"is_disabled":true,"rental_uris":{"android":"levelo://app?vid=c6db0f6a-96fe-4e1d-8ded-c2ef38c9bab4","ios":"levelo://app?vid=c6db0f6a-96fe-4e1d-8ded-c2ef38c9bab4"},"vehicle_type_id":"4","last_reported":1752873031,"current_range_meters":12400,"station_id":"ce4bhop2rcd13ifvqh8g","pricing_plan_id":"cebpf4jnsgd1na2vs0mg"},{"bike_id":"ca8c6aa6-b746-4d50-9cc1-13b1f831b9f4","system_id":"levelo_inurba_marseille","lat":43.29433,"lon":5.38591,"is_reserved":false,"is_disabled":false,"rental_uris":{"android":"levelo://app?vid=ca8c6aa6-b746-4d50-9cc1-13b1f831b9f4","ios":"levelo://app?vid=ca8c6aa6-b746-4d50-9cc1-13b1f831b9f4"},"vehicle_type_id":"4","last_reported":1752873031,"current_range_meters":12400,"station_id":"ce4bh2h2rcd13ifvqdh0","pricing_plan_id":"cebpf4jnsgd1na2vs0mg"},{"bike_id":"3d4242c2-6e9c-4cbe-8867-5080cdc433e6","system_id":"levelo_inurba_marseille","lat":43.30963,"lon":5.39043,"is_reserved":false,"is_disabled":false,"rental_uris":{"android":"levelo://app?vid=3d4242c2-6e9c-4cbe-8867-5080cdc433e6","ios":"levelo://app?vid=3d4242c2-6e9c-4cbe-8867-5080cdc433e6"},"vehicle_type_id":"4","last_reported":1752873031,"current_range_meters":12400,"station_id":"ce4bgup2rcd13ifvqco0","pricing_plan_id":"cebpf4jnsgd1na2vs0mg"},{"bike_id":"0f50f91d-b1a4-4c34-9f38-624326b8c320","system_id":"levelo_inurba_marseille","lat":43.26201,"lon":5.3745,"is_reserved":false,"is_disabled":false,"rental_uris":{"android":"levelo://app?vid=0f50f91d-b1a4-4c34-9f38-624326b8c320","ios":"levelo://app?vid=0f50f91d-b1a4-4c34-9f38-624326b8c320"},"vehicle_type_id":"4","last_reported":1752873031,"current_range_meters":12400,"station_id":"ce4bhgp2rcd13ifvqfc0","pricing_plan_id":"cebpf4jnsgd1na2vs0mg"},{"bike_id":"059308f0-5a9d-457d-8f74-87ce05e765e9","system_id":"levelo_inurba_marseille","lat":43.30136,"lon":5.38776,"is_reserved":false,"is_disabled":false,"rental_uris":{"android":"levelo://app?vid=059308f0-5a9d-457d-8f74-87ce05e765e9","ios":"levelo://app?vid=059308f0-5a9d-457d-8f74-87ce05e765e9"},"vehicle_type_id":"4","last_reported":1752873031,"current_range_meters":12400,"station_id":"ce4bghh2rcd13ifvqb60","pricing_plan_id":"cebpf4jnsgd1na2vs0mg"},{"bike_id":"4607398c-5481-406b-ba58-548c4b76f331","system_id":"levelo_inurba_marseille","lat":43.271854,"lon":5.362776,"is_reserved":false,"is_disabled":false,"rental_uris":{"android":"levelo://app?vid=4607398c-5481-406b-ba58-548c4b76f331","ios":"levelo://app?vid=4607398c-5481-406b-ba58-548c4b76f331"},"vehicle_type_id":"4","last_reported":1752873031,"current_range_meters":12400,"station_id":"","pricing_plan_id":"cebpf4jnsgd1na2vs0mg"},{"bike_id":"35965273-4af4-457c-87a3-4f7523a4ce80","system_id":"levelo_inurba_marseille","lat":43.28983,"lon":5.35669,"is_reserved":false,"is_disabled":true,"rental_uris":{"android":"levelo://app?vid=35965273-4af4-457c-87a3-4f7523a4ce80","ios":"levelo://app?vid=35965273-4af4-457c-87a3-4f7523a4ce80"},"vehicle_type_id":"4","last_reported":1752873031,"current_range_meters":12400,"station_id":"","pricing_plan_id":"cebpf4jnsgd1na2vs0mg"},{"bike_id":"080658b4-b5e1-44cb-998e-db35fde16c5c","system_id":"levelo_inurba_marseille","lat":43.29089,"lon":5.38132,"is_reserved":false,"is_disabled":false,"rental_uris":{"android":"levelo://app?vid=080658b4-b5e1-44cb-998e-db35fde16c5c","ios":"levelo://app?vid=080658b4-b5e1-44cb-998e-db35fde16c5c"},"vehicle_type_id":"4","last_reported":1752873031,"current_range_meters":12400,"station_id":"ce4bh512rcd13ifvqe2g","pricing_plan_id":"cebpf4jnsgd1na2vs0mg"},{"bike_id":"be60c88c-1453-4626-be80-200258f79626","system_id":"levelo_inurba_marseille","lat":43.23194,"lon":5.35551,"is_reserved":false,"is_disabled":false,"rental_uris":{"android":"levelo://app?vid=be60c88c-1453-4626-be80-200258f79626","ios":"levelo://app?vid=be60c88c-1453-4626-be80-200258f79626"},"vehicle_type_id":"4","last_reported":1752873031,"current_range_meters":12400,"station_id":"ce4bhu92rcd13ifvqi70","pricing_plan_id":"cebpf4jnsgd1na2vs0mg"},{"bike_id":"923af1f5-96c3-4bb7-b358-e542c430560e","system_id":"levelo_inurba_marseille","lat":43.27947,"lon":5.41049,"is_reserved":false,"is_disabled":false,"rental_uris":{"android":"levelo://app?vid=923af1f5-96c3-4bb7-b358-e542c430560e","ios":"levelo://app?vid=923af1f5-96c3-4bb7-b358-e542c430560e"},"vehicle_type_id":"4","last_reported":1752873031,"current_range_meters":12400,"station_id":"ce4bhnp2rcd13ifvqh0g","pricing_plan_id":"cebpf4jnsgd1na2vs0mg"},{"bike_id":"f491512d-ae98-4079-90b8-e206121e26d9","system_id":"levelo_inurba_marseille","lat":43.309443,"lon":5.390533,"is_reserved":false,"is_disabled":false,"rental_uris":{"android":"levelo://app?vid=f491512d-ae98-4079-90b8-e206121e26d9","ios":"levelo://app?vid=f491512d-ae98-4079-90b8-e206121e26d9"},"vehicle_type_id":"4","last_reported":1752873031,"current_range_meters":12400,"station_id":"ce4bgup2rcd13ifvqco0","pricing_plan_id":"cebpf4jnsgd1na2vs0mg"},{"bike_id":"60321e00-4d0f-4862-ba5c-7981eabb302e","system_id":"levelo_inurba_marseille","lat":43.29256,"lon":5.38443,"is_reserved":false,"is_disabled":false,"rental_uris":{"android":"levelo://app?vid=60321e00-4d0f-4862-ba5c-7981eabb302e","ios":"levelo://app?vid=60321e00-4d0f-4862-ba5c-7981eabb302e"},"vehicle_type_id":"4","last_reported":1752873031,"current_range_meters":12400,"station_id":"ce4bh692rcd13ifvqea0","pricing_plan_id":"cebpf4jnsgd1na2vs0mg"},{"bike_id":"ec1495b3-102c-429f-9a52-ecae5f806bfb","system_id":"levelo_inurba_marseille","lat":43.3042,"lon":5.41284,"is_reserved":false,"is_disabled":false,"rental_uris":{"android":"levelo://app?vid=ec1495b3-102c-429f-9a52-ecae5f806bfb","ios":"levelo://app?vid=ec1495b3-102c-429f-9a52-ecae5f806bfb"},"vehicle_type_id":"4","last_reported":1752873031,"current_range_meters":12400,"station_id":"ce4bhop2rcd13ifvqh8g","pricing_plan_id":"cebpf4jnsgd1na2vs0mg"},{"bike_id":"f800f272-2096-43d2-9adb-f69df8c17de1","system_id":"levelo_inurba_marseille","lat":43.30948,"lon":5.39055,"is_reserved":false,"is_disabled":false,"rental_uris":{"android":"levelo://app?vid=f800f272-2096-43d2-9adb-f69df8c17de1","ios":"levelo://app?vid=f800f272-2096-43d2-9adb-f69df8c17de1"},"vehicle_type_id":"4","last_reported":1752873031,"current_range_meters":12800,"station_id":"ce4bgup2rcd13ifvqco0","pricing_plan_id":"cebpf4jnsgd1na2vs0mg"},{"bike_id":"313426e1-aa4c-41c0-81e3-4fb604910541","system_id":"levelo_inurba_marseille","lat":43.30297,"lon":5.39206,"is_reserved":false,"is_disabled":false,"rental_uris":{"android":"levelo://app?vid=313426e1-aa4c-41c0-81e3-4fb604910541","ios":"levelo://app?vid=313426e1-aa4c-41c0-81e3-4fb604910541"},"vehicle_type_id":"4","last_reported":1752873031,"current_range_meters":12800,"station_id":"ce4bgkh2rcd13ifvqbk0","pricing_plan_id":"cebpf4jnsgd1na2vs0mg"},{"bike_id":"cfb52d04-9134-4c86-8269-771716b20f27","system_id":"levelo_inurba_marseille","lat":43.21194,"lon":5.35073,"is_reserved":false,"is_disabled":false,"rental_uris":{"android":"levelo://app?vid=cfb52d04-9134-4c86-8269-771716b20f27","ios":"levelo://app?vid=cfb52d04-9134-4c86-8269-771716b20f27"},"vehicle_type_id":"4","last_reported":1752873031,"current_range_meters":12800,"station_id":"st_cvj6sg6p6f1abm77japg","pricing_plan_id":"cebpf4jnsgd1na2vs0mg"},{"bike_id":"bc977b0f-983a-4d9d-9324-cb3136b41199","system_id":"levelo_inurba_marseille","lat":43.29429,"lon":5.38594,"is_reserved":false,"is_disabled":false,"rental_uris":{"android":"levelo://app?vid=bc977b0f-983a-4d9d-9324-cb3136b41199","ios":"levelo://app?vid=bc977b0f-983a-4d9d-9324-cb3136b41199"},"vehicle_type_id":"4","last_reported":1752873031,"current_range_meters":13600,"station_id":"ce4bh2h2rcd13ifvqdh0","pricing_plan_id":"cebpf4jnsgd1na2vs0mg"},{"bike_id":"c3ac509c-e93b-452a-bc2a-82079aaa6a85","system_id":"levelo_inurba_marseille","lat":43.30602,"lon":5.40473,"is_reserved":false,"is_disabled":false,"rental_uris":{"android":"levelo://app?vid=c3ac509c-e93b-452a-bc2a-82079aaa6a85","ios":"levelo://app?vid=c3ac509c-e93b-452a-bc2a-82079aaa6a85"},"vehicle_type_id":"4","last_reported":1752873031,"current_range_meters":13600,"station_id":"","pricing_plan_id":"cebpf4jnsgd1na2vs0mg"},{"bike_id":"0b250332-c99a-4726-ac2a-74deb04ffed3","system_id":"levelo_inurba_marseille","lat":43.27932,"lon":5.39567,"is_reserved":false,"is_disabled":true,"rental_uris":{"android":"levelo://app?vid=0b250332-c99a-4726-ac2a-74deb04ffed3","ios":"levelo://app?vid=0b250332-c99a-4726-ac2a-74deb04ffed3"},"vehicle_type_id":"4","last_reported":1752873031,"current_range_meters":13600,"station_id":"ce4bhf92rcd13ifvqf40","pricing_plan_id":"cebpf4jnsgd1na2vs0mg"},{"bike_id":"797e03c8-9856-46a2-bf76-6e379de6361f","system_id":"levelo_inurba_marseille","lat":43.24812,"lon":5.37459,"is_reserved":false,"is_disabled":true,"rental_uris":{"android":"levelo://app?vid=797e03c8-9856-46a2-bf76-6e379de6361f","ios":"levelo://app?vid=797e03c8-9856-46a2-bf76-6e379de6361f"},"vehicle_type_id":"4","last_reported":1752873031,"current_range_meters":13600,"station_id":"ce4bhgh2rcd13ifvqfb0","pricing_plan_id":"cebpf4jnsgd1na2vs0mg"},{"bike_id":"3b7ff080-0be8-47ab-82a0-832e827976b9","system_id":"levelo_inurba_marseille","lat":43.292556,"lon":5.391336,"is_reserved":false,"is_disabled":false,"rental_uris":{"android":"levelo://app?vid=3b7ff080-0be8-47ab-82a0-832e827976b9","ios":"levelo://app?vid=3b7ff080-0be8-47ab-82a0-832e827976b9"},"vehicle_type_id":"4","last_reported":1752873031,"current_range_meters":12800,"station_id":"ce4bh192rcd13ifvqdd0","pricing_plan_id":"cebpf4jnsgd1na2vs0mg"},{"bike_id":"514c4593-bc57-420e-a7ce-5cf7ea5131d4","system_id":"levelo_inurba_marseille","lat":43.28108,"lon":5.3784,"is_reserved":false,"is_disabled":false,"rental_uris":{"android":"levelo://app?vid=514c4593-bc57-420e-a7ce-5cf7ea5131d4","ios":"levelo://app?vid=514c4593-bc57-420e-a7ce-5cf7ea5131d4"},"vehicle_type_id":"4","last_reported":1752873031,"current_range_meters":12800,"station_id":"ce4bha12rcd13ifvqee0","pricing_plan_id":"cebpf4jnsgd1na2vs0mg"},{"bike_id":"e99b7f11-7256-4f7b-ab4b-8ab888f22522","system_id":"levelo_inurba_marseille","lat":43.30953,"lon":5.39055,"is_reserved":false,"is_disabled":false,"rental_uris":{"android":"levelo://app?vid=e99b7f11-7256-4f7b-ab4b-8ab888f22522","ios":"levelo://app?vid=e99b7f11-7256-4f7b-ab4b-8ab888f22522"},"vehicle_type_id":"4","last_reported":1752873031,"current_range_meters":13600,"station_id":"ce4bgup2rcd13ifvqco0","pricing_plan_id":"cebpf4jnsgd1na2vs0mg"},{"bike_id":"b7fe52dd-f025-4212-9e78-19e7f6f09593","system_id":"levelo_inurba_marseille","lat":43.21192,"lon":5.35157,"is_reserved":false,"is_disabled":false,"rental_uris":{"android":"levelo://app?vid=b7fe52dd-f025-4212-9e78-19e7f6f09593","ios":"levelo://app?vid=b7fe52dd-f025-4212-9e78-19e7f6f09593"},"vehicle_type_id":"4","last_reported":1752873031,"current_range_meters":13600,"station_id":"","pricing_plan_id":"cebpf4jnsgd1na2vs0mg"},{"bike_id":"4c41e195-b949-425e-9e7f-a71e3d92996c","system_id":"levelo_inurba_marseille","lat":43.2622,"lon":5.37447,"is_reserved":false,"is_disabled":false,"rental_uris":{"android":"levelo://app?vid=4c41e195-b949-425e-9e7f-a71e3d92996c","ios":"levelo://app?vid=4c41e195-b949-425e-9e7f-a71e3d92996c"},"vehicle_type_id":"4","last_reported":1752873031,"current_range_meters":13600,"station_id":"ce4bhgp2rcd13ifvqfc0","pricing_plan_id":"cebpf4jnsgd1na2vs0mg"},{"bike_id":"70a3940c-c40a-4ef4-8e48-8b68d4968bc7","system_id":"levelo_inurba_marseille","lat":43.23961,"lon":5.36638,"is_reserved":false,"is_disabled":true,"rental_uris":{"android":"levelo://app?vid=70a3940c-c40a-4ef4-8e48-8b68d4968bc7","ios":"levelo://app?vid=70a3940c-c40a-4ef4-8e48-8b68d4968bc7"},"vehicle_type_id":"4","last_reported":1752873031,"current_range_meters":14000,"station_id":"ce4bhi12rcd13ifvqfp0","pricing_plan_id":"cebpf4jnsgd1na2vs0mg"},{"bike_id":"2608aaf4-ac47-4856-8340-977493812515","system_id":"levelo_inurba_marseille","lat":43.28848,"lon":5.39327,"is_reserved":false,"is_disabled":false,"rental_uris":{"android":"levelo://app?vid=2608aaf4-ac47-4856-8340-977493812515","ios":"levelo://app?vid=2608aaf4-ac47-4856-8340-977493812515"},"vehicle_type_id":"4","last_reported":1752873031,"current_range_meters":13600,"station_id":"ce4bh2p2rcd13ifvqdi0","pricing_plan_id":"cebpf4jnsgd1na2vs0mg"},{"bike_id":"b4eeee4e-4f58-4a29-8ee5-14750d4c39fd","system_id":"levelo_inurba_marseille","lat":43.2466,"lon":5.38171,"is_reserved":false,"is_disabled":false,"rental_uris":{"android":"levelo://app?vid=b4eeee4e-4f58-4a29-8ee5-14750d4c39fd","ios":"levelo://app?vid=b4eeee4e-4f58-4a29-8ee5-14750d4c39fd"},"vehicle_type_id":"4","last_reported":1752873031,"current_range_meters":13600,"station_id":"ce4bhih2rcd13ifvqfr0","pricing_plan_id":"cebpf4jnsgd1na2vs0mg"},{"bike_id":"0dae2f6b-f1bd-438b-8bb0-cdbd38ad2295","system_id":"levelo_inurba_marseille","lat":43.317649,"lon":5.426208,"is_reserved":false,"is_disabled":false,"rental_uris":{"android":"levelo://app?vid=0dae2f6b-f1bd-438b-8bb0-cdbd38ad2295","ios":"levelo://app?vid=0dae2f6b-f1bd-438b-8bb0-cdbd38ad2295"},"vehicle_type_id":"4","last_reported":1752873031,"current_range_meters":14000,"station_id":"ce4bhp92rcd13ifvqhbg","pricing_plan_id":"cebpf4jnsgd1na2vs0mg"},{"bike_id":"6f3c9ee1-98b1-435b-b0a8-952ce21de466","system_id":"levelo_inurba_marseille","lat":43.28481,"lon":5.38421,"is_reserved":false,"is_disabled":false,"rental_uris":{"android":"levelo://app?vid=6f3c9ee1-98b1-435b-b0a8-952ce21de466","ios":"levelo://app?vid=6f3c9ee1-98b1-435b-b0a8-952ce21de466"},"vehicle_type_id":"4","last_reported":1752873031,"current_range_meters":14000,"station_id":"ce4bh512rcd13ifvqe3g","pricing_plan_id":"cebpf4jnsgd1na2vs0mg"},{"bike_id":"a67156ae-789e-45f5-ab3f-ed7d95b24540","system_id":"levelo_inurba_marseille","lat":43.21195,"lon":5.35072,"is_reserved":false,"is_disabled":false,"rental_uris":{"android":"levelo://app?vid=a67156ae-789e-45f5-ab3f-ed7d95b24540","ios":"levelo://app?vid=a67156ae-789e-45f5-ab3f-ed7d95b24540"},"vehicle_type_id":"4","last_reported":1752873031,"current_range_meters":14000,"station_id":"st_cvj6sg6p6f1abm77japg","pricing_plan_id":"cebpf4jnsgd1na2vs0mg"},{"bike_id":"dba6d8b7-8475-41f4-a07a-cd105370fbfb","system_id":"levelo_inurba_marseille","lat":43.29529,"lon":5.38547,"is_reserved":false,"is_disabled":false,"rental_uris":{"android":"levelo://app?vid=dba6d8b7-8475-41f4-a07a-cd105370fbfb","ios":"levelo://app?vid=dba6d8b7-8475-41f4-a07a-cd105370fbfb"},"vehicle_type_id":"4","last_reported":1752873031,"current_range_meters":14400,"station_id":"ce4bgih2rcd13ifvqba0","pricing_plan_id":"cebpf4jnsgd1na2vs0mg"},{"bike_id":"58f4e3d1-9ab1-4135-bc2b-0f11e61bcdae","system_id":"levelo_inurba_marseille","lat":43.30292,"lon":5.39203,"is_reserved":false,"is_disabled":false,"rental_uris":{"android":"levelo://app?vid=58f4e3d1-9ab1-4135-bc2b-0f11e61bcdae","ios":"levelo://app?vid=58f4e3d1-9ab1-4135-bc2b-0f11e61bcdae"},"vehicle_type_id":"4","last_reported":1752873031,"current_range_meters":14400,"station_id":"ce4bgkh2rcd13ifvqbk0","pricing_plan_id":"cebpf4jnsgd1na2vs0mg"},{"bike_id":"03053d60-ecb2-42b4-b091-e8e15d1ac4c1","system_id":"levelo_inurba_marseille","lat":43.29572,"lon":5.39979,"is_reserved":false,"is_disabled":false,"rental_uris":{"android":"levelo://app?vid=03053d60-ecb2-42b4-b091-e8e15d1ac4c1","ios":"levelo://app?vid=03053d60-ecb2-42b4-b091-e8e15d1ac4c1"},"vehicle_type_id":"4","last_reported":1752873031,"current_range_meters":14000,"station_id":"ce4bh312rcd13ifvqdj0","pricing_plan_id":"cebpf4jnsgd1na2vs0mg"},{"bike_id":"ac0ed4be-466c-4caa-b855-3c6bbe5a11b5","system_id":"levelo_inurba_marseille","lat":43.267565,"lon":5.371774,"is_reserved":false,"is_disabled":false,"rental_uris":{"android":"levelo://app?vid=ac0ed4be-466c-4caa-b855-3c6bbe5a11b5","ios":"levelo://app?vid=ac0ed4be-466c-4caa-b855-3c6bbe5a11b5"},"vehicle_type_id":"4","last_reported":1752873031,"current_range_meters":14400,"station_id":"","pricing_plan_id":"cebpf4jnsgd1na2vs0mg"},{"bike_id":"29d87656-5c35-48e5-bad7-2af75076ba1a","system_id":"levelo_inurba_marseille","lat":43.29263,"lon":5.38441,"is_reserved":false,"is_disabled":false,"rental_uris":{"android":"levelo://app?vid=29d87656-5c35-48e5-bad7-2af75076ba1a","ios":"levelo://app?vid=29d87656-5c35-48e5-bad7-2af75076ba1a"},"vehicle_type_id":"4","last_reported":1752873031,"current_range_meters":14400,"station_id":"ce4bh692rcd13ifvqea0","pricing_plan_id":"cebpf4jnsgd1na2vs0mg"},{"bike_id":"edd0079d-996b-4ae3-9a31-d781f3a059ec","system_id":"levelo_inurba_marseille","lat":43.33786,"lon":5.37426,"is_reserved":false,"is_disabled":false,"rental_uris":{"android":"levelo://app?vid=edd0079d-996b-4ae3-9a31-d781f3a059ec","ios":"levelo://app?vid=edd0079d-996b-4ae3-9a31-d781f3a059ec"},"vehicle_type_id":"4","last_reported":1752873031,"current_range_meters":14400,"station_id":"","pricing_plan_id":"cebpf4jnsgd1na2vs0mg"},{"bike_id":"c6f3ff05-acb0-4554-9e0d-c20acadd38dc","system_id":"levelo_inurba_marseille","lat":43.26757,"lon":5.41285,"is_reserved":false,"is_disabled":false,"rental_uris":{"android":"levelo://app?vid=c6f3ff05-acb0-4554-9e0d-c20acadd38dc","ios":"levelo://app?vid=c6f3ff05-acb0-4554-9e0d-c20acadd38dc"},"vehicle_type_id":"4","last_reported":1752873031,"current_range_meters":14400,"station_id":"","pricing_plan_id":"cebpf4jnsgd1na2vs0mg"},{"bike_id":"0a433b10-49a9-42c2-975b-fe8f98fdc13a","system_id":"levelo_inurba_marseille","lat":43.29253,"lon":5.38436,"is_reserved":false,"is_disabled":false,"rental_uris":{"android":"levelo://app?vid=0a433b10-49a9-42c2-975b-fe8f98fdc13a","ios":"levelo://app?vid=0a433b10-49a9-42c2-975b-fe8f98fdc13a"},"vehicle_type_id":"4","last_reported":1752873031,"current_range_meters":14400,"station_id":"ce4bh692rcd13ifvqea0","pricing_plan_id":"cebpf4jnsgd1na2vs0mg"},{"bike_id":"782021d6-37ef-4fe1-8e48-2f487b2e357c","system_id":"levelo_inurba_marseille","lat":43.26571,"lon":5.39011,"is_reserved":false,"is_disabled":false,"rental_uris":{"android":"levelo://app?vid=782021d6-37ef-4fe1-8e48-2f487b2e357c","ios":"levelo://app?vid=782021d6-37ef-4fe1-8e48-2f487b2e357c"},"vehicle_type_id":"4","last_reported":1752873031,"current_range_meters":14400,"station_id":"ce4bhe12rcd13ifvqf30","pricing_plan_id":"cebpf4jnsgd1na2vs0mg"},{"bike_id":"1ec5a8b9-6c71-4d1e-95be-e71a3adc55d2","system_id":"levelo_inurba_marseille","lat":43.21752,"lon":5.34627,"is_reserved":false,"is_disabled":false,"rental_uris":{"android":"levelo://app?vid=1ec5a8b9-6c71-4d1e-95be-e71a3adc55d2","ios":"levelo://app?vid=1ec5a8b9-6c71-4d1e-95be-e71a3adc55d2"},"vehicle_type_id":"4","last_reported":1752873031,"current_range_meters":14800,"station_id":"st_cvj6r9ubvosntc0bgbag","pricing_plan_id":"cebpf4jnsgd1na2vs0mg"},{"bike_id":"5ed7e33c-75eb-4f80-9ced-f5eee5190af4","system_id":"levelo_inurba_marseille","lat":43.29561,"lon":5.42278,"is_reserved":false,"is_disabled":false,"rental_uris":{"android":"levelo://app?vid=5ed7e33c-75eb-4f80-9ced-f5eee5190af4","ios":"levelo://app?vid=5ed7e33c-75eb-4f80-9ced-f5eee5190af4"},"vehicle_type_id":"4","last_reported":1752873031,"current_range_meters":14800,"station_id":"ce4bhph2rcd13ifvqhdg","pricing_plan_id":"cebpf4jnsgd1na2vs0mg"},{"bike_id":"0ffec689-ea73-4886-a8a8-e9075fc0366f","system_id":"levelo_inurba_marseille","lat":43.30727,"lon":5.42452,"is_reserved":false,"is_disabled":true,"rental_uris":{"android":"levelo://app?vid=0ffec689-ea73-4886-a8a8-e9075fc0366f","ios":"levelo://app?vid=0ffec689-ea73-4886-a8a8-e9075fc0366f"},"vehicle_type_id":"4","last_reported":1752873031,"current_range_meters":14800,"station_id":"st_cvj6ca6bvosntc0bfgr0","pricing_plan_id":"cebpf4jnsgd1na2vs0mg"},{"bike_id":"b44630cd-3236-43d0-88ea-85f302772d0f","system_id":"levelo_inurba_marseille","lat":43.29714,"lon":5.37692,"is_reserved":false,"is_disabled":false,"rental_uris":{"android":"levelo://app?vid=b44630cd-3236-43d0-88ea-85f302772d0f","ios":"levelo://app?vid=b44630cd-3236-43d0-88ea-85f302772d0f"},"vehicle_type_id":"4","last_reported":1752873031,"current_range_meters":14400,"station_id":"ce4bgkh2rcd13ifvqbl0","pricing_plan_id":"cebpf4jnsgd1na2vs0mg"},{"bike_id":"21ba59b8-e450-4e88-b50d-1bf7684f5e42","system_id":"levelo_inurba_marseille","lat":43.27887,"lon":5.38015,"is_reserved":false,"is_disabled":false,"rental_uris":{"android":"levelo://app?vid=21ba59b8-e450-4e88-b50d-1bf7684f5e42","ios":"levelo://app?vid=21ba59b8-e450-4e88-b50d-1bf7684f5e42"},"vehicle_type_id":"4","last_reported":1752873031,"current_range_meters":14800,"station_id":"ce4bhf92rcd13ifvqf50","pricing_plan_id":"cebpf4jnsgd1na2vs0mg"},{"bike_id":"8e79a85b-71cd-44e2-9769-4ad285ff7c49","system_id":"levelo_inurba_marseille","lat":43.2175,"lon":5.34627,"is_reserved":false,"is_disabled":false,"rental_uris":{"android":"levelo://app?vid=8e79a85b-71cd-44e2-9769-4ad285ff7c49","ios":"levelo://app?vid=8e79a85b-71cd-44e2-9769-4ad285ff7c49"},"vehicle_type_id":"4","last_reported":1752873031,"current_range_meters":14800,"station_id":"st_cvj6r9ubvosntc0bgbag","pricing_plan_id":"cebpf4jnsgd1na2vs0mg"},{"bike_id":"52d726d2-f0a7-4269-8c97-4f3c30030782","system_id":"levelo_inurba_marseille","lat":43.3014,"lon":5.38083,"is_reserved":false,"is_disabled":false,"rental_uris":{"android":"levelo://app?vid=52d726d2-f0a7-4269-8c97-4f3c30030782","ios":"levelo://app?vid=52d726d2-f0a7-4269-8c97-4f3c30030782"},"vehicle_type_id":"4","last_reported":1752873031,"current_range_meters":14800,"station_id":"ce4bgjp2rcd13ifvqbh0","pricing_plan_id":"cebpf4jnsgd1na2vs0mg"},{"bike_id":"2fd3d782-24a7-42a3-b248-8e69e5a88f8a","system_id":"levelo_inurba_marseille","lat":43.31673,"lon":5.40471,"is_reserved":false,"is_disabled":false,"rental_uris":{"android":"levelo://app?vid=2fd3d782-24a7-42a3-b248-8e69e5a88f8a","ios":"levelo://app?vid=2fd3d782-24a7-42a3-b248-8e69e5a88f8a"},"vehicle_type_id":"4","last_reported":1752873031,"current_range_meters":14800,"station_id":"ce4bh012rcd13ifvqd00","pricing_plan_id":"cebpf4jnsgd1na2vs0mg"},{"bike_id":"a2e60430-2882-4a9a-84fb-3518d7d8ee90","system_id":"levelo_inurba_marseille","lat":43.29603,"lon":5.38114,"is_reserved":false,"is_disabled":false,"rental_uris":{"android":"levelo://app?vid=a2e60430-2882-4a9a-84fb-3518d7d8ee90","ios":"levelo://app?vid=a2e60430-2882-4a9a-84fb-3518d7d8ee90"},"vehicle_type_id":"4","last_reported":1752873031,"current_range_meters":15200,"station_id":"ce4bgl12rcd13ifvqbo0","pricing_plan_id":"cebpf4jnsgd1na2vs0mg"},{"bike_id":"e3a07c16-1459-476d-926e-4b7b0c49fbb9","system_id":"levelo_inurba_marseille","lat":43.26553,"lon":5.37291,"is_reserved":false,"is_disabled":false,"rental_uris":{"android":"levelo://app?vid=e3a07c16-1459-476d-926e-4b7b0c49fbb9","ios":"levelo://app?vid=e3a07c16-1459-476d-926e-4b7b0c49fbb9"},"vehicle_type_id":"4","last_reported":1752873031,"current_range_meters":15200,"station_id":"ce4bhg12rcd13ifvqf70","pricing_plan_id":"cebpf4jnsgd1na2vs0mg"},{"bike_id":"54c02b87-7cf8-46da-9dcb-321451bacfe1","system_id":"levelo_inurba_marseille","lat":43.29037,"lon":5.3996,"is_reserved":false,"is_disabled":false,"rental_uris":{"android":"levelo://app?vid=54c02b87-7cf8-46da-9dcb-321451bacfe1","ios":"levelo://app?vid=54c02b87-7cf8-46da-9dcb-321451bacfe1"},"vehicle_type_id":"4","last_reported":1752873031,"current_range_meters":15200,"station_id":"ce4bh392rcd13ifvqdm0","pricing_plan_id":"cebpf4jnsgd1na2vs0mg"},{"bike_id":"7f676a3e-1658-4195-869c-c9e020194432","system_id":"levelo_inurba_marseille","lat":43.25503,"lon":5.37651,"is_reserved":false,"is_disabled":false,"rental_uris":{"android":"levelo://app?vid=7f676a3e-1658-4195-869c-c9e020194432","ios":"levelo://app?vid=7f676a3e-1658-4195-869c-c9e020194432"},"vehicle_type_id":"4","last_reported":1752873031,"current_range_meters":15200,"station_id":"ce4bhh12rcd13ifvqff0","pricing_plan_id":"cebpf4jnsgd1na2vs0mg"},{"bike_id":"6c27f4e5-c060-463e-a687-5ab98ee77067","system_id":"levelo_inurba_marseille","lat":43.26211,"lon":5.3744,"is_reserved":false,"is_disabled":false,"rental_uris":{"android":"levelo://app?vid=6c27f4e5-c060-463e-a687-5ab98ee77067","ios":"levelo://app?vid=6c27f4e5-c060-463e-a687-5ab98ee77067"},"vehicle_type_id":"4","last_reported":1752873031,"current_range_meters":15200,"station_id":"ce4bhgp2rcd13ifvqfc0","pricing_plan_id":"cebpf4jnsgd1na2vs0mg"},{"bike_id":"43cff8a1-c3df-4ff5-a9f5-92f0afdae9b6","system_id":"levelo_inurba_marseille","lat":43.30318,"lon":5.4046,"is_reserved":false,"is_disabled":false,"rental_uris":{"android":"levelo://app?vid=43cff8a1-c3df-4ff5-a9f5-92f0afdae9b6","ios":"levelo://app?vid=43cff8a1-c3df-4ff5-a9f5-92f0afdae9b6"},"vehicle_type_id":"4","last_reported":1752873031,"current_range_meters":16000,"station_id":"ce4bh012rcd13ifvqd10","pricing_plan_id":"cebpf4jnsgd1na2vs0mg"},{"bike_id":"c0deaad6-7d5e-41cd-99f7-9ea73419c945","system_id":"levelo_inurba_marseille","lat":43.28073,"lon":5.39662,"is_reserved":false,"is_disabled":false,"rental_uris":{"android":"levelo://app?vid=c0deaad6-7d5e-41cd-99f7-9ea73419c945","ios":"levelo://app?vid=c0deaad6-7d5e-41cd-99f7-9ea73419c945"},"vehicle_type_id":"4","last_reported":1752873031,"current_range_meters":16000,"station_id":"ce4bho12rcd13ifvqh2g","pricing_plan_id":"cebpf4jnsgd1na2vs0mg"},{"bike_id":"c9575289-fdda-4c6f-b7e7-e9f6e4766fa3","system_id":"levelo_inurba_marseille","lat":43.27891,"lon":5.38004,"is_reserved":false,"is_disabled":false,"rental_uris":{"android":"levelo://app?vid=c9575289-fdda-4c6f-b7e7-e9f6e4766fa3","ios":"levelo://app?vid=c9575289-fdda-4c6f-b7e7-e9f6e4766fa3"},"vehicle_type_id":"4","last_reported":1752873031,"current_range_meters":15200,"station_id":"ce4bhf92rcd13ifvqf50","pricing_plan_id":"cebpf4jnsgd1na2vs0mg"},{"bike_id":"6e7fdf49-e424-46c1-b02b-628c0ea0e41b","system_id":"levelo_inurba_marseille","lat":43.26204,"lon":5.37461,"is_reserved":false,"is_disabled":false,"rental_uris":{"android":"levelo://app?vid=6e7fdf49-e424-46c1-b02b-628c0ea0e41b","ios":"levelo://app?vid=6e7fdf49-e424-46c1-b02b-628c0ea0e41b"},"vehicle_type_id":"4","last_reported":1752873031,"current_range_meters":16000,"station_id":"ce4bhgp2rcd13ifvqfc0","pricing_plan_id":"cebpf4jnsgd1na2vs0mg"},{"bike_id":"08a94e68-7279-4c26-9ca7-7cd2e2f2fe4c","system_id":"levelo_inurba_marseille","lat":43.24153,"lon":5.36395,"is_reserved":false,"is_disabled":true,"rental_uris":{"android":"levelo://app?vid=08a94e68-7279-4c26-9ca7-7cd2e2f2fe4c","ios":"levelo://app?vid=08a94e68-7279-4c26-9ca7-7cd2e2f2fe4c"},"vehicle_type_id":"4","last_reported":1752873031,"current_range_meters":16000,"station_id":"cpo36qri1sfpv3e86is0","pricing_plan_id":"cebpf4jnsgd1na2vs0mg"},{"bike_id":"262bba80-9a85-4074-97aa-225c3aedc3b7","system_id":"levelo_inurba_marseille","lat":43.30656,"lon":5.40089,"is_reserved":false,"is_disabled":true,"rental_uris":{"android":"levelo://app?vid=262bba80-9a85-4074-97aa-225c3aedc3b7","ios":"levelo://app?vid=262bba80-9a85-4074-97aa-225c3aedc3b7"},"vehicle_type_id":"4","last_reported":1752873031,"current_range_meters":16000,"station_id":"ce4bh112rcd13ifvqda0","pricing_plan_id":"cebpf4jnsgd1na2vs0mg"},{"bike_id":"1a794689-0399-4bd8-871c-778f85fe0438","system_id":"levelo_inurba_marseille","lat":43.27488,"lon":5.42473,"is_reserved":false,"is_disabled":false,"rental_uris":{"android":"levelo://app?vid=1a794689-0399-4bd8-871c-778f85fe0438","ios":"levelo://app?vid=1a794689-0399-4bd8-871c-778f85fe0438"},"vehicle_type_id":"4","last_reported":1752873031,"current_range_meters":16000,"station_id":"ce4bhn92rcd13ifvqgrg","pricing_plan_id":"cebpf4jnsgd1na2vs0mg"},{"bike_id":"7808e552-e227-406b-b291-4f472904be38","system_id":"levelo_inurba_marseille","lat":43.26217,"lon":5.37444,"is_reserved":false,"is_disabled":false,"rental_uris":{"android":"levelo://app?vid=7808e552-e227-406b-b291-4f472904be38","ios":"levelo://app?vid=7808e552-e227-406b-b291-4f472904be38"},"vehicle_type_id":"4","last_reported":1752873031,"current_range_meters":16000,"station_id":"ce4bhgp2rcd13ifvqfc0","pricing_plan_id":"cebpf4jnsgd1na2vs0mg"},{"bike_id":"9ff1fd3c-c920-4dba-94c3-c5ca49db834d","system_id":"levelo_inurba_marseille","lat":43.25573,"lon":5.38235,"is_reserved":false,"is_disabled":false,"rental_uris":{"android":"levelo://app?vid=9ff1fd3c-c920-4dba-94c3-c5ca49db834d","ios":"levelo://app?vid=9ff1fd3c-c920-4dba-94c3-c5ca49db834d"},"vehicle_type_id":"4","last_reported":1752873031,"current_range_meters":16400,"station_id":"ce4bhih2rcd13ifvqfs0","pricing_plan_id":"cebpf4jnsgd1na2vs0mg"},{"bike_id":"e6ed5a81-2a33-4c37-a36e-2bb390f1a720","system_id":"levelo_inurba_marseille","lat":43.27611,"lon":5.36117,"is_reserved":false,"is_disabled":false,"rental_uris":{"android":"levelo://app?vid=e6ed5a81-2a33-4c37-a36e-2bb390f1a720","ios":"levelo://app?vid=e6ed5a81-2a33-4c37-a36e-2bb390f1a720"},"vehicle_type_id":"4","last_reported":1752873031,"current_range_meters":16400,"station_id":"ce4bgj92rcd13ifvqbe0","pricing_plan_id":"cebpf4jnsgd1na2vs0mg"},{"bike_id":"a174f0db-aa47-413a-bb44-49315e04f60d","system_id":"levelo_inurba_marseille","lat":43.29265,"lon":5.38446,"is_reserved":false,"is_disabled":false,"rental_uris":{"android":"levelo://app?vid=a174f0db-aa47-413a-bb44-49315e04f60d","ios":"levelo://app?vid=a174f0db-aa47-413a-bb44-49315e04f60d"},"vehicle_type_id":"4","last_reported":1752873031,"current_range_meters":16400,"station_id":"ce4bh692rcd13ifvqea0","pricing_plan_id":"cebpf4jnsgd1na2vs0mg"},{"bike_id":"7f02cd16-abf2-40a4-97c2-19dc0dd97d66","system_id":"levelo_inurba_marseille","lat":43.26177,"lon":5.40445,"is_reserved":false,"is_disabled":false,"rental_uris":{"android":"levelo://app?vid=7f02cd16-abf2-40a4-97c2-19dc0dd97d66","ios":"levelo://app?vid=7f02cd16-abf2-40a4-97c2-19dc0dd97d66"},"vehicle_type_id":"4","last_reported":1752873031,"current_range_meters":16400,"station_id":"ce4bhmh2rcd13ifvqgmg","pricing_plan_id":"cebpf4jnsgd1na2vs0mg"},{"bike_id":"0e3e9a19-a32e-45e2-bce2-fa6c5fad95bf","system_id":"levelo_inurba_marseille","lat":43.31071,"lon":5.3835,"is_reserved":false,"is_disabled":false,"rental_uris":{"android":"levelo://app?vid=0e3e9a19-a32e-45e2-bce2-fa6c5fad95bf","ios":"levelo://app?vid=0e3e9a19-a32e-45e2-bce2-fa6c5fad95bf"},"vehicle_type_id":"4","last_reported":1752873031,"current_range_meters":16400,"station_id":"ce4bgv92rcd13ifvqcr0","pricing_plan_id":"cebpf4jnsgd1na2vs0mg"},{"bike_id":"1bd166b7-6860-40c2-a1b0-0bdd86093208","system_id":"levelo_inurba_marseille","lat":43.31165,"lon":5.38721,"is_reserved":false,"is_disabled":false,"rental_uris":{"android":"levelo://app?vid=1bd166b7-6860-40c2-a1b0-0bdd86093208","ios":"levelo://app?vid=1bd166b7-6860-40c2-a1b0-0bdd86093208"},"vehicle_type_id":"4","last_reported":1752873031,"current_range_meters":16400,"station_id":"ce4bgv12rcd13ifvqcp0","pricing_plan_id":"cebpf4jnsgd1na2vs0mg"},{"bike_id":"afc91c81-7042-4270-a28e-07e325ae83c9","system_id":"levelo_inurba_marseille","lat":43.21196,"lon":5.35083,"is_reserved":false,"is_disabled":false,"rental_uris":{"android":"levelo://app?vid=afc91c81-7042-4270-a28e-07e325ae83c9","ios":"levelo://app?vid=afc91c81-7042-4270-a28e-07e325ae83c9"},"vehicle_type_id":"4","last_reported":1752873031,"current_range_meters":16400,"station_id":"st_cvj6sg6p6f1abm77japg","pricing_plan_id":"cebpf4jnsgd1na2vs0mg"},{"bike_id":"90f1924f-336d-4405-b5b1-03dcfd5afe7c","system_id":"levelo_inurba_marseille","lat":43.27836,"lon":5.38516,"is_reserved":false,"is_disabled":false,"rental_uris":{"android":"levelo://app?vid=90f1924f-336d-4405-b5b1-03dcfd5afe7c","ios":"levelo://app?vid=90f1924f-336d-4405-b5b1-03dcfd5afe7c"},"vehicle_type_id":"4","last_reported":1752873031,"current_range_meters":16400,"station_id":"","pricing_plan_id":"cebpf4jnsgd1na2vs0mg"},{"bike_id":"0916292f-c60f-4ec2-a3c5-bb862cec8507","system_id":"levelo_inurba_marseille","lat":43.23192,"lon":5.35559,"is_reserved":false,"is_disabled":false,"rental_uris":{"android":"levelo://app?vid=0916292f-c60f-4ec2-a3c5-bb862cec8507","ios":"levelo://app?vid=0916292f-c60f-4ec2-a3c5-bb862cec8507"},"vehicle_type_id":"4","last_reported":1752873031,"current_range_meters":16400,"station_id":"ce4bhu92rcd13ifvqi70","pricing_plan_id":"cebpf4jnsgd1na2vs0mg"},{"bike_id":"e04643ac-8091-492e-84a0-a953a55c5725","system_id":"levelo_inurba_marseille","lat":43.309448,"lon":5.390299,"is_reserved":false,"is_disabled":false,"rental_uris":{"android":"levelo://app?vid=e04643ac-8091-492e-84a0-a953a55c5725","ios":"levelo://app?vid=e04643ac-8091-492e-84a0-a953a55c5725"},"vehicle_type_id":"4","last_reported":1752873031,"current_range_meters":16400,"station_id":"ce4bgup2rcd13ifvqco0","pricing_plan_id":"cebpf4jnsgd1na2vs0mg"},{"bike_id":"840d15da-ce07-4216-bc7e-2f3d01c3b30c","system_id":"levelo_inurba_marseille","lat":43.29427,"lon":5.38596,"is_reserved":false,"is_disabled":false,"rental_uris":{"android":"levelo://app?vid=840d15da-ce07-4216-bc7e-2f3d01c3b30c","ios":"levelo://app?vid=840d15da-ce07-4216-bc7e-2f3d01c3b30c"},"vehicle_type_id":"4","last_reported":1752873031,"current_range_meters":16400,"station_id":"ce4bh2h2rcd13ifvqdh0","pricing_plan_id":"cebpf4jnsgd1na2vs0mg"},{"bike_id":"94c07cb2-0943-4d24-99f2-97bdab47aa3f","system_id":"levelo_inurba_marseille","lat":43.337444,"lon":5.374475,"is_reserved":false,"is_disabled":false,"rental_uris":{"android":"levelo://app?vid=94c07cb2-0943-4d24-99f2-97bdab47aa3f","ios":"levelo://app?vid=94c07cb2-0943-4d24-99f2-97bdab47aa3f"},"vehicle_type_id":"4","last_reported":1752873031,"current_range_meters":16400,"station_id":"","pricing_plan_id":"cebpf4jnsgd1na2vs0mg"},{"bike_id":"a2c26071-6713-4df1-be09-dec8e0ac64cd","system_id":"levelo_inurba_marseille","lat":43.23969,"lon":5.36632,"is_reserved":false,"is_disabled":false,"rental_uris":{"android":"levelo://app?vid=a2c26071-6713-4df1-be09-dec8e0ac64cd","ios":"levelo://app?vid=a2c26071-6713-4df1-be09-dec8e0ac64cd"},"vehicle_type_id":"4","last_reported":1752873031,"current_range_meters":16400,"station_id":"ce4bhi12rcd13ifvqfp0","pricing_plan_id":"cebpf4jnsgd1na2vs0mg"},{"bike_id":"ef11996d-a2f9-4e95-84a5-6c999c11b24f","system_id":"levelo_inurba_marseille","lat":43.33604,"lon":5.41036,"is_reserved":false,"is_disabled":false,"rental_uris":{"android":"levelo://app?vid=ef11996d-a2f9-4e95-84a5-6c999c11b24f","ios":"levelo://app?vid=ef11996d-a2f9-4e95-84a5-6c999c11b24f"},"vehicle_type_id":"4","last_reported":1752873031,"current_range_meters":16800,"station_id":"ce4bhqh2rcd13ifvqhmg","pricing_plan_id":"cebpf4jnsgd1na2vs0mg"},{"bike_id":"221a8f03-67cb-485b-8573-9abcf816d5d5","system_id":"levelo_inurba_marseille","lat":43.29868,"lon":5.39734,"is_reserved":false,"is_disabled":false,"rental_uris":{"android":"levelo://app?vid=221a8f03-67cb-485b-8573-9abcf816d5d5","ios":"levelo://app?vid=221a8f03-67cb-485b-8573-9abcf816d5d5"},"vehicle_type_id":"4","last_reported":1752873031,"current_range_meters":16800,"station_id":"","pricing_plan_id":"cebpf4jnsgd1na2vs0mg"},{"bike_id":"9e944c0d-2dd7-4c1a-b131-d5121e0f348e","system_id":"levelo_inurba_marseille","lat":43.31069,"lon":5.38341,"is_reserved":false,"is_disabled":false,"rental_uris":{"android":"levelo://app?vid=9e944c0d-2dd7-4c1a-b131-d5121e0f348e","ios":"levelo://app?vid=9e944c0d-2dd7-4c1a-b131-d5121e0f348e"},"vehicle_type_id":"4","last_reported":1752873031,"current_range_meters":16800,"station_id":"ce4bgv92rcd13ifvqcr0","pricing_plan_id":"cebpf4jnsgd1na2vs0mg"},{"bike_id":"9d79822c-ba64-4798-8630-701a49bde2a9","system_id":"levelo_inurba_marseille","lat":43.29299,"lon":5.37455,"is_reserved":false,"is_disabled":false,"rental_uris":{"android":"levelo://app?vid=9d79822c-ba64-4798-8630-701a49bde2a9","ios":"levelo://app?vid=9d79822c-ba64-4798-8630-701a49bde2a9"},"vehicle_type_id":"4","last_reported":1752873031,"current_range_meters":16800,"station_id":"ce4bgi12rcd13ifvqb70","pricing_plan_id":"cebpf4jnsgd1na2vs0mg"},{"bike_id":"83a58fe8-eeff-4a92-856b-d25c4e809f7b","system_id":"levelo_inurba_marseille","lat":43.26019,"lon":5.3755,"is_reserved":false,"is_disabled":false,"rental_uris":{"android":"levelo://app?vid=83a58fe8-eeff-4a92-856b-d25c4e809f7b","ios":"levelo://app?vid=83a58fe8-eeff-4a92-856b-d25c4e809f7b"},"vehicle_type_id":"4","last_reported":1752873031,"current_range_meters":16800,"station_id":"ce4bhgh2rcd13ifvqfa0","pricing_plan_id":"cebpf4jnsgd1na2vs0mg"},{"bike_id":"cd5a9591-6e46-4776-8003-ff3824872e9f","system_id":"levelo_inurba_marseille","lat":43.28996,"lon":5.35612,"is_reserved":false,"is_disabled":true,"rental_uris":{"android":"levelo://app?vid=cd5a9591-6e46-4776-8003-ff3824872e9f","ios":"levelo://app?vid=cd5a9591-6e46-4776-8003-ff3824872e9f"},"vehicle_type_id":"4","last_reported":1752873031,"current_range_meters":16800,"station_id":"ce4bhb92rcd13ifvqen0","pricing_plan_id":"cebpf4jnsgd1na2vs0mg"},{"bike_id":"96579d04-b9e9-484c-9b9a-af500e5e8552","system_id":"levelo_inurba_marseille","lat":43.326767,"lon":5.363957,"is_reserved":false,"is_disabled":false,"rental_uris":{"android":"levelo://app?vid=96579d04-b9e9-484c-9b9a-af500e5e8552","ios":"levelo://app?vid=96579d04-b9e9-484c-9b9a-af500e5e8552"},"vehicle_type_id":"4","last_reported":1752873031,"current_range_meters":16800,"station_id":"","pricing_plan_id":"cebpf4jnsgd1na2vs0mg"},{"bike_id":"b7f96c45-a300-4f35-b4a9-3c09c88cf0cd","system_id":"levelo_inurba_marseille","lat":43.29505,"lon":5.39048,"is_reserved":false,"is_disabled":false,"rental_uris":{"android":"levelo://app?vid=b7f96c45-a300-4f35-b4a9-3c09c88cf0cd","ios":"levelo://app?vid=b7f96c45-a300-4f35-b4a9-3c09c88cf0cd"},"vehicle_type_id":"4","last_reported":1752873031,"current_range_meters":16800,"station_id":"ce4bh3p2rcd13ifvqdp0","pricing_plan_id":"cebpf4jnsgd1na2vs0mg"},{"bike_id":"86f85a13-331e-45f9-9efb-b247a4a4e103","system_id":"levelo_inurba_marseille","lat":43.31699,"lon":5.43737,"is_reserved":false,"is_disabled":false,"rental_uris":{"android":"levelo://app?vid=86f85a13-331e-45f9-9efb-b247a4a4e103","ios":"levelo://app?vid=86f85a13-331e-45f9-9efb-b247a4a4e103"},"vehicle_type_id":"4","last_reported":1752873031,"current_range_meters":16800,"station_id":"ce4bhp92rcd13ifvqhcg","pricing_plan_id":"cebpf4jnsgd1na2vs0mg"},{"bike_id":"d5cf0ddb-4301-4e01-9253-a4393d968d0a","system_id":"levelo_inurba_marseille","lat":43.22511,"lon":5.34814,"is_reserved":false,"is_disabled":false,"rental_uris":{"android":"levelo://app?vid=d5cf0ddb-4301-4e01-9253-a4393d968d0a","ios":"levelo://app?vid=d5cf0ddb-4301-4e01-9253-a4393d968d0a"},"vehicle_type_id":"4","last_reported":1752873031,"current_range_meters":17200,"station_id":"st_cvj5dfep6f1abm77gieg","pricing_plan_id":"cebpf4jnsgd1na2vs0mg"},{"bike_id":"4315c1ae-330f-4b26-8e9d-adb789b34de4","system_id":"levelo_inurba_marseille","lat":43.31175,"lon":5.38773,"is_reserved":false,"is_disabled":false,"rental_uris":{"android":"levelo://app?vid=4315c1ae-330f-4b26-8e9d-adb789b34de4","ios":"levelo://app?vid=4315c1ae-330f-4b26-8e9d-adb789b34de4"},"vehicle_type_id":"4","last_reported":1752873031,"current_range_meters":17200,"station_id":"ce4bgv12rcd13ifvqcp0","pricing_plan_id":"cebpf4jnsgd1na2vs0mg"},{"bike_id":"e1ee3b6b-e4c6-41cd-8fc6-59eeb0370b0b","system_id":"levelo_inurba_marseille","lat":43.30953,"lon":5.39022,"is_reserved":false,"is_disabled":false,"rental_uris":{"android":"levelo://app?vid=e1ee3b6b-e4c6-41cd-8fc6-59eeb0370b0b","ios":"levelo://app?vid=e1ee3b6b-e4c6-41cd-8fc6-59eeb0370b0b"},"vehicle_type_id":"4","last_reported":1752873031,"current_range_meters":17200,"station_id":"ce4bgup2rcd13ifvqco0","pricing_plan_id":"cebpf4jnsgd1na2vs0mg"},{"bike_id":"90bc8238-ff07-4cad-a4ea-2d97fe8e0889","system_id":"levelo_inurba_marseille","lat":43.28352,"lon":5.38108,"is_reserved":false,"is_disabled":false,"rental_uris":{"android":"levelo://app?vid=90bc8238-ff07-4cad-a4ea-2d97fe8e0889","ios":"levelo://app?vid=90bc8238-ff07-4cad-a4ea-2d97fe8e0889"},"vehicle_type_id":"4","last_reported":1752873031,"current_range_meters":17200,"station_id":"ce4bh412rcd13ifvqdr0","pricing_plan_id":"cebpf4jnsgd1na2vs0mg"},{"bike_id":"cb7b541b-4aa0-476b-ac1b-c83b6acaa65d","system_id":"levelo_inurba_marseille","lat":43.24171,"lon":5.36394,"is_reserved":false,"is_disabled":false,"rental_uris":{"android":"levelo://app?vid=cb7b541b-4aa0-476b-ac1b-c83b6acaa65d","ios":"levelo://app?vid=cb7b541b-4aa0-476b-ac1b-c83b6acaa65d"},"vehicle_type_id":"4","last_reported":1752873031,"current_range_meters":17200,"station_id":"cpo36qri1sfpv3e86is0","pricing_plan_id":"cebpf4jnsgd1na2vs0mg"},{"bike_id":"119d0da6-eac2-4ca1-b3dc-f8e84ebcab4b","system_id":"levelo_inurba_marseille","lat":43.281,"lon":5.3785,"is_reserved":false,"is_disabled":false,"rental_uris":{"android":"levelo://app?vid=119d0da6-eac2-4ca1-b3dc-f8e84ebcab4b","ios":"levelo://app?vid=119d0da6-eac2-4ca1-b3dc-f8e84ebcab4b"},"vehicle_type_id":"4","last_reported":1752873031,"current_range_meters":16800,"station_id":"ce4bha12rcd13ifvqee0","pricing_plan_id":"cebpf4jnsgd1na2vs0mg"},{"bike_id":"50c322ef-4f50-4369-86f2-9a35408319ff","system_id":"levelo_inurba_marseille","lat":43.303079,"lon":5.402415,"is_reserved":false,"is_disabled":false,"rental_uris":{"android":"levelo://app?vid=50c322ef-4f50-4369-86f2-9a35408319ff","ios":"levelo://app?vid=50c322ef-4f50-4369-86f2-9a35408319ff"},"vehicle_type_id":"4","last_reported":1752873031,"current_range_meters":17200,"station_id":"ce4bh012rcd13ifvqd10","pricing_plan_id":"cebpf4jnsgd1na2vs0mg"},{"bike_id":"15dbf7dd-b1ee-425a-918d-b01eaf722998","system_id":"levelo_inurba_marseille","lat":43.31176,"lon":5.38717,"is_reserved":false,"is_disabled":false,"rental_uris":{"android":"levelo://app?vid=15dbf7dd-b1ee-425a-918d-b01eaf722998","ios":"levelo://app?vid=15dbf7dd-b1ee-425a-918d-b01eaf722998"},"vehicle_type_id":"4","last_reported":1752873031,"current_range_meters":17200,"station_id":"ce4bgv12rcd13ifvqcp0","pricing_plan_id":"cebpf4jnsgd1na2vs0mg"},{"bike_id":"1503dbeb-f2aa-440b-95fc-353f66960f30","system_id":"levelo_inurba_marseille","lat":43.27928,"lon":5.41043,"is_reserved":false,"is_disabled":true,"rental_uris":{"android":"levelo://app?vid=1503dbeb-f2aa-440b-95fc-353f66960f30","ios":"levelo://app?vid=1503dbeb-f2aa-440b-95fc-353f66960f30"},"vehicle_type_id":"4","last_reported":1752873031,"current_range_meters":17200,"station_id":"ce4bhnp2rcd13ifvqh0g","pricing_plan_id":"cebpf4jnsgd1na2vs0mg"},{"bike_id":"681466f0-b3ed-4f33-8427-279f0d403529","system_id":"levelo_inurba_marseille","lat":43.25581,"lon":5.38239,"is_reserved":false,"is_disabled":false,"rental_uris":{"android":"levelo://app?vid=681466f0-b3ed-4f33-8427-279f0d403529","ios":"levelo://app?vid=681466f0-b3ed-4f33-8427-279f0d403529"},"vehicle_type_id":"4","last_reported":1752873031,"current_range_meters":17200,"station_id":"ce4bhih2rcd13ifvqfs0","pricing_plan_id":"cebpf4jnsgd1na2vs0mg"},{"bike_id":"339752ea-6383-4cf6-9120-463e0f3b5154","system_id":"levelo_inurba_marseille","lat":43.31113,"lon":5.3778,"is_reserved":false,"is_disabled":false,"rental_uris":{"android":"levelo://app?vid=339752ea-6383-4cf6-9120-463e0f3b5154","ios":"levelo://app?vid=339752ea-6383-4cf6-9120-463e0f3b5154"},"vehicle_type_id":"4","last_reported":1752873031,"current_range_meters":17600,"station_id":"ce4bgt92rcd13ifvqcg0","pricing_plan_id":"cebpf4jnsgd1na2vs0mg"},{"bike_id":"7360b2c1-827d-4a45-ba07-948ef7d2fc35","system_id":"levelo_inurba_marseille","lat":43.229295,"lon":5.353761,"is_reserved":false,"is_disabled":false,"rental_uris":{"android":"levelo://app?vid=7360b2c1-827d-4a45-ba07-948ef7d2fc35","ios":"levelo://app?vid=7360b2c1-827d-4a45-ba07-948ef7d2fc35"},"vehicle_type_id":"4","last_reported":1752873031,"current_range_meters":17200,"station_id":"","pricing_plan_id":"cebpf4jnsgd1na2vs0mg"},{"bike_id":"0bd1c369-58ad-4872-b48a-611756bac434","system_id":"levelo_inurba_marseille","lat":43.29529,"lon":5.38531,"is_reserved":false,"is_disabled":false,"rental_uris":{"android":"levelo://app?vid=0bd1c369-58ad-4872-b48a-611756bac434","ios":"levelo://app?vid=0bd1c369-58ad-4872-b48a-611756bac434"},"vehicle_type_id":"4","last_reported":1752873031,"current_range_meters":17200,"station_id":"ce4bgih2rcd13ifvqba0","pricing_plan_id":"cebpf4jnsgd1na2vs0mg"},{"bike_id":"3cf82b66-df6b-45cd-a7cd-6d969bd11522","system_id":"levelo_inurba_marseille","lat":43.31117,"lon":5.37774,"is_reserved":false,"is_disabled":false,"rental_uris":{"android":"levelo://app?vid=3cf82b66-df6b-45cd-a7cd-6d969bd11522","ios":"levelo://app?vid=3cf82b66-df6b-45cd-a7cd-6d969bd11522"},"vehicle_type_id":"4","last_reported":1752873031,"current_range_meters":17600,"station_id":"ce4bgt92rcd13ifvqcg0","pricing_plan_id":"cebpf4jnsgd1na2vs0mg"},{"bike_id":"e655df78-d5d4-4587-95d5-347d92d3b081","system_id":"levelo_inurba_marseille","lat":43.29028,"lon":5.38643,"is_reserved":false,"is_disabled":false,"rental_uris":{"android":"levelo://app?vid=e655df78-d5d4-4587-95d5-347d92d3b081","ios":"levelo://app?vid=e655df78-d5d4-4587-95d5-347d92d3b081"},"vehicle_type_id":"4","last_reported":1752873031,"current_range_meters":17600,"station_id":"ce4bh4p2rcd13ifvqe0g","pricing_plan_id":"cebpf4jnsgd1na2vs0mg"},{"bike_id":"02fa3617-370f-4a20-a30c-35439361fc4c","system_id":"levelo_inurba_marseille","lat":43.29255,"lon":5.38451,"is_reserved":false,"is_disabled":false,"rental_uris":{"android":"levelo://app?vid=02fa3617-370f-4a20-a30c-35439361fc4c","ios":"levelo://app?vid=02fa3617-370f-4a20-a30c-35439361fc4c"},"vehicle_type_id":"4","last_reported":1752873031,"current_range_meters":12800,"station_id":"ce4bh692rcd13ifvqea0","pricing_plan_id":"cebpf4jnsgd1na2vs0mg"},{"bike_id":"7b455fd6-8c35-47c2-801d-e7a917ea4ef3","system_id":"levelo_inurba_marseille","lat":43.29844,"lon":5.36292,"is_reserved":false,"is_disabled":false,"rental_uris":{"android":"levelo://app?vid=7b455fd6-8c35-47c2-801d-e7a917ea4ef3","ios":"levelo://app?vid=7b455fd6-8c35-47c2-801d-e7a917ea4ef3"},"vehicle_type_id":"4","last_reported":1752873031,"current_range_meters":17600,"station_id":"ce4bgpp2rcd13ifvqc3g","pricing_plan_id":"cebpf4jnsgd1na2vs0mg"},{"bike_id":"9eee562f-c74b-4c1a-8fa0-1792764207de","system_id":"levelo_inurba_marseille","lat":43.254867,"lon":5.376463,"is_reserved":false,"is_disabled":true,"rental_uris":{"android":"levelo://app?vid=9eee562f-c74b-4c1a-8fa0-1792764207de","ios":"levelo://app?vid=9eee562f-c74b-4c1a-8fa0-1792764207de"},"vehicle_type_id":"4","last_reported":1752873031,"current_range_meters":18000,"station_id":"ce4bhh12rcd13ifvqff0","pricing_plan_id":"cebpf4jnsgd1na2vs0mg"},{"bike_id":"11342935-5a92-4c88-b8f2-92ebce078e64","system_id":"levelo_inurba_marseille","lat":43.2953,"lon":5.38538,"is_reserved":false,"is_disabled":false,"rental_uris":{"android":"levelo://app?vid=11342935-5a92-4c88-b8f2-92ebce078e64","ios":"levelo://app?vid=11342935-5a92-4c88-b8f2-92ebce078e64"},"vehicle_type_id":"4","last_reported":1752873031,"current_range_meters":18000,"station_id":"ce4bgih2rcd13ifvqba0","pricing_plan_id":"cebpf4jnsgd1na2vs0mg"},{"bike_id":"372575c0-0b42-4a86-9937-9781291465e3","system_id":"levelo_inurba_marseille","lat":43.28716,"lon":5.37942,"is_reserved":false,"is_disabled":false,"rental_uris":{"android":"levelo://app?vid=372575c0-0b42-4a86-9937-9781291465e3","ios":"levelo://app?vid=372575c0-0b42-4a86-9937-9781291465e3"},"vehicle_type_id":"4","last_reported":1752873031,"current_range_meters":18000,"station_id":"ce4bh9p2rcd13ifvqec0","pricing_plan_id":"cebpf4jnsgd1na2vs0mg"},{"bike_id":"694dc0d0-51d8-43c6-b7f2-d43f35f7a518","system_id":"levelo_inurba_marseille","lat":43.31111,"lon":5.37774,"is_reserved":false,"is_disabled":false,"rental_uris":{"android":"levelo://app?vid=694dc0d0-51d8-43c6-b7f2-d43f35f7a518","ios":"levelo://app?vid=694dc0d0-51d8-43c6-b7f2-d43f35f7a518"},"vehicle_type_id":"4","last_reported":1752873031,"current_range_meters":18000,"station_id":"ce4bgt92rcd13ifvqcg0","pricing_plan_id":"cebpf4jnsgd1na2vs0mg"},{"bike_id":"b970126c-c1c3-439a-8880-44ad88bd90cf","system_id":"levelo_inurba_marseille","lat":43.32108,"lon":5.36767,"is_reserved":false,"is_disabled":false,"rental_uris":{"android":"levelo://app?vid=b970126c-c1c3-439a-8880-44ad88bd90cf","ios":"levelo://app?vid=b970126c-c1c3-439a-8880-44ad88bd90cf"},"vehicle_type_id":"4","last_reported":1752873031,"current_range_meters":18000,"station_id":"ce4bhrh2rcd13ifvqhug","pricing_plan_id":"cebpf4jnsgd1na2vs0mg"},{"bike_id":"85516a59-095f-4a02-8bfa-2164011e9076","system_id":"levelo_inurba_marseille","lat":43.31347,"lon":5.3673,"is_reserved":false,"is_disabled":false,"rental_uris":{"android":"levelo://app?vid=85516a59-095f-4a02-8bfa-2164011e9076","ios":"levelo://app?vid=85516a59-095f-4a02-8bfa-2164011e9076"},"vehicle_type_id":"4","last_reported":1752873031,"current_range_meters":17600,"station_id":"ce4bgr92rcd13ifvqc6g","pricing_plan_id":"cebpf4jnsgd1na2vs0mg"},{"bike_id":"d1e9c72e-7489-4052-b944-813b64bc55b4","system_id":"levelo_inurba_marseille","lat":43.31611,"lon":5.38986,"is_reserved":false,"is_disabled":false,"rental_uris":{"android":"levelo://app?vid=d1e9c72e-7489-4052-b944-813b64bc55b4","ios":"levelo://app?vid=d1e9c72e-7489-4052-b944-813b64bc55b4"},"vehicle_type_id":"4","last_reported":1752873031,"current_range_meters":18000,"station_id":"","pricing_plan_id":"cebpf4jnsgd1na2vs0mg"},{"bike_id":"45dea0eb-918d-49f1-8341-001e35c226f0","system_id":"levelo_inurba_marseille","lat":43.211934,"lon":5.350667,"is_reserved":false,"is_disabled":false,"rental_uris":{"android":"levelo://app?vid=45dea0eb-918d-49f1-8341-001e35c226f0","ios":"levelo://app?vid=45dea0eb-918d-49f1-8341-001e35c226f0"},"vehicle_type_id":"4","last_reported":1752873031,"current_range_meters":18800,"station_id":"st_cvj6sg6p6f1abm77japg","pricing_plan_id":"cebpf4jnsgd1na2vs0mg"},{"bike_id":"2e606d73-f62a-4853-aaff-b16661109f2a","system_id":"levelo_inurba_marseille","lat":43.31483,"lon":5.37293,"is_reserved":false,"is_disabled":false,"rental_uris":{"android":"levelo://app?vid=2e606d73-f62a-4853-aaff-b16661109f2a","ios":"levelo://app?vid=2e606d73-f62a-4853-aaff-b16661109f2a"},"vehicle_type_id":"4","last_reported":1752873031,"current_range_meters":18800,"station_id":"ce4bgt12rcd13ifvqcd0","pricing_plan_id":"cebpf4jnsgd1na2vs0mg"},{"bike_id":"5a9833a8-9f0e-4e3e-8898-600f8f4a7306","system_id":"levelo_inurba_marseille","lat":43.30923,"lon":5.4015,"is_reserved":false,"is_disabled":false,"rental_uris":{"android":"levelo://app?vid=5a9833a8-9f0e-4e3e-8898-600f8f4a7306","ios":"levelo://app?vid=5a9833a8-9f0e-4e3e-8898-600f8f4a7306"},"vehicle_type_id":"4","last_reported":1752873031,"current_range_meters":18800,"station_id":"ce4bgvp2rcd13ifvqct0","pricing_plan_id":"cebpf4jnsgd1na2vs0mg"},{"bike_id":"ae514fe1-85ea-4b12-b065-9e5a24663928","system_id":"levelo_inurba_marseille","lat":43.212,"lon":5.35081,"is_reserved":false,"is_disabled":false,"rental_uris":{"android":"levelo://app?vid=ae514fe1-85ea-4b12-b065-9e5a24663928","ios":"levelo://app?vid=ae514fe1-85ea-4b12-b065-9e5a24663928"},"vehicle_type_id":"4","last_reported":1752873031,"current_range_meters":18800,"station_id":"st_cvj6sg6p6f1abm77japg","pricing_plan_id":"cebpf4jnsgd1na2vs0mg"},{"bike_id":"fdbeb289-adb3-4e25-b0dd-c635efbe92b2","system_id":"levelo_inurba_marseille","lat":43.31704,"lon":5.40435,"is_reserved":false,"is_disabled":false,"rental_uris":{"android":"levelo://app?vid=fdbeb289-adb3-4e25-b0dd-c635efbe92b2","ios":"levelo://app?vid=fdbeb289-adb3-4e25-b0dd-c635efbe92b2"},"vehicle_type_id":"4","last_reported":1752873031,"current_range_meters":18800,"station_id":"ce4bh012rcd13ifvqd00","pricing_plan_id":"cebpf4jnsgd1na2vs0mg"},{"bike_id":"b22b912d-c2aa-4638-b821-9588263e410c","system_id":"levelo_inurba_marseille","lat":43.32378,"lon":5.38897,"is_reserved":false,"is_disabled":false,"rental_uris":{"android":"levelo://app?vid=b22b912d-c2aa-4638-b821-9588263e410c","ios":"levelo://app?vid=b22b912d-c2aa-4638-b821-9588263e410c"},"vehicle_type_id":"4","last_reported":1752873031,"current_range_meters":18800,"station_id":"ce4bhqp2rcd13ifvqhog","pricing_plan_id":"cebpf4jnsgd1na2vs0mg"},{"bike_id":"c563397a-8e95-43de-9482-c447bf9c775e","system_id":"levelo_inurba_marseille","lat":43.293296,"lon":5.411593,"is_reserved":false,"is_disabled":false,"rental_uris":{"android":"levelo://app?vid=c563397a-8e95-43de-9482-c447bf9c775e","ios":"levelo://app?vid=c563397a-8e95-43de-9482-c447bf9c775e"},"vehicle_type_id":"4","last_reported":1752873031,"current_range_meters":18800,"station_id":"","pricing_plan_id":"cebpf4jnsgd1na2vs0mg"},{"bike_id":"3bf43587-8766-497e-8058-d261079489c0","system_id":"levelo_inurba_marseille","lat":43.295526,"lon":5.422862,"is_reserved":false,"is_disabled":false,"rental_uris":{"android":"levelo://app?vid=3bf43587-8766-497e-8058-d261079489c0","ios":"levelo://app?vid=3bf43587-8766-497e-8058-d261079489c0"},"vehicle_type_id":"4","last_reported":1752873031,"current_range_meters":18800,"station_id":"ce4bhph2rcd13ifvqhdg","pricing_plan_id":"cebpf4jnsgd1na2vs0mg"},{"bike_id":"3b8fa8a7-26fc-4aab-bee1-b8a56cdc1d43","system_id":"levelo_inurba_marseille","lat":43.286967,"lon":5.399737,"is_reserved":false,"is_disabled":true,"rental_uris":{"android":"levelo://app?vid=3b8fa8a7-26fc-4aab-bee1-b8a56cdc1d43","ios":"levelo://app?vid=3b8fa8a7-26fc-4aab-bee1-b8a56cdc1d43"},"vehicle_type_id":"4","last_reported":1752873031,"current_range_meters":18800,"station_id":"ce4bho92rcd13ifvqh3g","pricing_plan_id":"cebpf4jnsgd1na2vs0mg"},{"bike_id":"33ab395a-ffc6-47bd-96a5-d8df1dd2d18e","system_id":"levelo_inurba_marseille","lat":43.21758,"lon":5.34638,"is_reserved":false,"is_disabled":false,"rental_uris":{"android":"levelo://app?vid=33ab395a-ffc6-47bd-96a5-d8df1dd2d18e","ios":"levelo://app?vid=33ab395a-ffc6-47bd-96a5-d8df1dd2d18e"},"vehicle_type_id":"4","last_reported":1752873031,"current_range_meters":19200,"station_id":"st_cvj6r9ubvosntc0bgbag","pricing_plan_id":"cebpf4jnsgd1na2vs0mg"},{"bike_id":"753bce3e-1126-432e-a329-935ae990d7d0","system_id":"levelo_inurba_marseille","lat":43.30602,"lon":5.37228,"is_reserved":false,"is_disabled":false,"rental_uris":{"android":"levelo://app?vid=753bce3e-1126-432e-a329-935ae990d7d0","ios":"levelo://app?vid=753bce3e-1126-432e-a329-935ae990d7d0"},"vehicle_type_id":"4","last_reported":1752873031,"current_range_meters":18800,"station_id":"ce4bgqh2rcd13ifvqc4g","pricing_plan_id":"cebpf4jnsgd1na2vs0mg"},{"bike_id":"13bc1bc0-0897-47ed-8bc2-4fd06aeda0d0","system_id":"levelo_inurba_marseille","lat":43.309516,"lon":5.390272,"is_reserved":false,"is_disabled":false,"rental_uris":{"android":"levelo://app?vid=13bc1bc0-0897-47ed-8bc2-4fd06aeda0d0","ios":"levelo://app?vid=13bc1bc0-0897-47ed-8bc2-4fd06aeda0d0"},"vehicle_type_id":"4","last_reported":1752873031,"current_range_meters":19200,"station_id":"ce4bgup2rcd13ifvqco0","pricing_plan_id":"cebpf4jnsgd1na2vs0mg"},{"bike_id":"4a2af6fb-f040-4dff-9ff5-d70c4f952e83","system_id":"levelo_inurba_marseille","lat":43.31511,"lon":5.37328,"is_reserved":false,"is_disabled":true,"rental_uris":{"android":"levelo://app?vid=4a2af6fb-f040-4dff-9ff5-d70c4f952e83","ios":"levelo://app?vid=4a2af6fb-f040-4dff-9ff5-d70c4f952e83"},"vehicle_type_id":"4","last_reported":1752873031,"current_range_meters":19200,"station_id":"ce4bgt12rcd13ifvqcd0","pricing_plan_id":"cebpf4jnsgd1na2vs0mg"},{"bike_id":"863ff14f-99c4-4119-81c8-9db5c196840c","system_id":"levelo_inurba_marseille","lat":43.280857,"lon":5.396801,"is_reserved":false,"is_disabled":false,"rental_uris":{"android":"levelo://app?vid=863ff14f-99c4-4119-81c8-9db5c196840c","ios":"levelo://app?vid=863ff14f-99c4-4119-81c8-9db5c196840c"},"vehicle_type_id":"4","last_reported":1752873031,"current_range_meters":19200,"station_id":"ce4bho12rcd13ifvqh2g","pricing_plan_id":"cebpf4jnsgd1na2vs0mg"},{"bike_id":"19294ff6-3995-4603-9d99-733afb04fb97","system_id":"levelo_inurba_marseille","lat":43.243938,"lon":5.370641,"is_reserved":false,"is_disabled":false,"rental_uris":{"android":"levelo://app?vid=19294ff6-3995-4603-9d99-733afb04fb97","ios":"levelo://app?vid=19294ff6-3995-4603-9d99-733afb04fb97"},"vehicle_type_id":"4","last_reported":1752873031,"current_range_meters":19200,"station_id":"ce4bhhh2rcd13ifvqfk0","pricing_plan_id":"cebpf4jnsgd1na2vs0mg"},{"bike_id":"385e53aa-1ccf-45ba-909b-5e61acd321d5","system_id":"levelo_inurba_marseille","lat":43.337444,"lon":5.374475,"is_reserved":false,"is_disabled":false,"rental_uris":{"android":"levelo://app?vid=385e53aa-1ccf-45ba-909b-5e61acd321d5","ios":"levelo://app?vid=385e53aa-1ccf-45ba-909b-5e61acd321d5"},"vehicle_type_id":"4","last_reported":1752873031,"current_range_meters":19200,"station_id":"","pricing_plan_id":"cebpf4jnsgd1na2vs0mg"},{"bike_id":"a168d389-ea1d-4756-ad9b-cf73a31ab442","system_id":"levelo_inurba_marseille","lat":43.288747,"lon":5.400098,"is_reserved":false,"is_disabled":false,"rental_uris":{"android":"levelo://app?vid=a168d389-ea1d-4756-ad9b-cf73a31ab442","ios":"levelo://app?vid=a168d389-ea1d-4756-ad9b-cf73a31ab442"},"vehicle_type_id":"4","last_reported":1752873031,"current_range_meters":19200,"station_id":"","pricing_plan_id":"cebpf4jnsgd1na2vs0mg"},{"bike_id":"5b269d21-5223-4c61-bf9b-7958d203a11d","system_id":"levelo_inurba_marseille","lat":43.30952,"lon":5.3903,"is_reserved":false,"is_disabled":false,"rental_uris":{"android":"levelo://app?vid=5b269d21-5223-4c61-bf9b-7958d203a11d","ios":"levelo://app?vid=5b269d21-5223-4c61-bf9b-7958d203a11d"},"vehicle_type_id":"4","last_reported":1752873031,"current_range_meters":19200,"station_id":"ce4bgup2rcd13ifvqco0","pricing_plan_id":"cebpf4jnsgd1na2vs0mg"},{"bike_id":"f4d50b9f-67c5-4a4e-82cd-5fb34bc9ddef","system_id":"levelo_inurba_marseille","lat":43.25454,"lon":5.38211,"is_reserved":false,"is_disabled":false,"rental_uris":{"android":"levelo://app?vid=f4d50b9f-67c5-4a4e-82cd-5fb34bc9ddef","ios":"levelo://app?vid=f4d50b9f-67c5-4a4e-82cd-5fb34bc9ddef"},"vehicle_type_id":"4","last_reported":1752873031,"current_range_meters":19200,"station_id":"","pricing_plan_id":"cebpf4jnsgd1na2vs0mg"},{"bike_id":"01a71c59-e3fd-4e9f-829f-078acec3bfc4","system_id":"levelo_inurba_marseille","lat":43.29036,"lon":5.37567,"is_reserved":false,"is_disabled":false,"rental_uris":{"android":"levelo://app?vid=01a71c59-e3fd-4e9f-829f-078acec3bfc4","ios":"levelo://app?vid=01a71c59-e3fd-4e9f-829f-078acec3bfc4"},"vehicle_type_id":"4","last_reported":1752873031,"current_range_meters":19200,"station_id":"ce4bh692rcd13ifvqe90","pricing_plan_id":"cebpf4jnsgd1na2vs0mg"},{"bike_id":"c53e03cc-7e5c-47fb-8e00-a44459efbbd9","system_id":"levelo_inurba_marseille","lat":43.30945,"lon":5.3903,"is_reserved":false,"is_disabled":false,"rental_uris":{"android":"levelo://app?vid=c53e03cc-7e5c-47fb-8e00-a44459efbbd9","ios":"levelo://app?vid=c53e03cc-7e5c-47fb-8e00-a44459efbbd9"},"vehicle_type_id":"4","last_reported":1752873031,"current_range_meters":19200,"station_id":"ce4bgup2rcd13ifvqco0","pricing_plan_id":"cebpf4jnsgd1na2vs0mg"},{"bike_id":"668fa18e-20ac-44c4-9571-3b16653927ca","system_id":"levelo_inurba_marseille","lat":43.295001,"lon":5.376015,"is_reserved":false,"is_disabled":false,"rental_uris":{"android":"levelo://app?vid=668fa18e-20ac-44c4-9571-3b16653927ca","ios":"levelo://app?vid=668fa18e-20ac-44c4-9571-3b16653927ca"},"vehicle_type_id":"4","last_reported":1752873031,"current_range_meters":19200,"station_id":"","pricing_plan_id":"cebpf4jnsgd1na2vs0mg"},{"bike_id":"a0e6de25-53a6-4e2c-ba56-d0c89144a59d","system_id":"levelo_inurba_marseille","lat":43.31119,"lon":5.3777,"is_reserved":false,"is_disabled":false,"rental_uris":{"android":"levelo://app?vid=a0e6de25-53a6-4e2c-ba56-d0c89144a59d","ios":"levelo://app?vid=a0e6de25-53a6-4e2c-ba56-d0c89144a59d"},"vehicle_type_id":"4","last_reported":1752873031,"current_range_meters":19200,"station_id":"ce4bgt92rcd13ifvqcg0","pricing_plan_id":"cebpf4jnsgd1na2vs0mg"},{"bike_id":"44e89ad7-16a2-4910-805f-061f2aee5ab7","system_id":"levelo_inurba_marseille","lat":43.23191,"lon":5.35566,"is_reserved":false,"is_disabled":false,"rental_uris":{"android":"levelo://app?vid=44e89ad7-16a2-4910-805f-061f2aee5ab7","ios":"levelo://app?vid=44e89ad7-16a2-4910-805f-061f2aee5ab7"},"vehicle_type_id":"4","last_reported":1752873031,"current_range_meters":19200,"station_id":"ce4bhu92rcd13ifvqi70","pricing_plan_id":"cebpf4jnsgd1na2vs0mg"},{"bike_id":"a575c179-17e6-4f0c-b8e8-85f0a987bb82","system_id":"levelo_inurba_marseille","lat":43.29565,"lon":5.37532,"is_reserved":false,"is_disabled":false,"rental_uris":{"android":"levelo://app?vid=a575c179-17e6-4f0c-b8e8-85f0a987bb82","ios":"levelo://app?vid=a575c179-17e6-4f0c-b8e8-85f0a987bb82"},"vehicle_type_id":"4","last_reported":1752873031,"current_range_meters":19200,"station_id":"ce4bgh92rcd13ifvqb50","pricing_plan_id":"cebpf4jnsgd1na2vs0mg"},{"bike_id":"f19e1191-a499-43e5-aa16-7ca6394ef18a","system_id":"levelo_inurba_marseille","lat":43.30293,"lon":5.36895,"is_reserved":false,"is_disabled":false,"rental_uris":{"android":"levelo://app?vid=f19e1191-a499-43e5-aa16-7ca6394ef18a","ios":"levelo://app?vid=f19e1191-a499-43e5-aa16-7ca6394ef18a"},"vehicle_type_id":"4","last_reported":1752873031,"current_range_meters":19200,"station_id":"ce4bgqh2rcd13ifvqc5g","pricing_plan_id":"cebpf4jnsgd1na2vs0mg"},{"bike_id":"a1ca4cca-fc7c-4ed8-88fc-78ed83b491b3","system_id":"levelo_inurba_marseille","lat":43.29907,"lon":5.3814,"is_reserved":false,"is_disabled":false,"rental_uris":{"android":"levelo://app?vid=a1ca4cca-fc7c-4ed8-88fc-78ed83b491b3","ios":"levelo://app?vid=a1ca4cca-fc7c-4ed8-88fc-78ed83b491b3"},"vehicle_type_id":"4","last_reported":1752873031,"current_range_meters":19200,"station_id":"ce4bgj12rcd13ifvqbc0","pricing_plan_id":"cebpf4jnsgd1na2vs0mg"},{"bike_id":"9eb19af1-3ac3-436d-805d-794abdcba832","system_id":"levelo_inurba_marseille","lat":43.23189,"lon":5.35546,"is_reserved":false,"is_disabled":false,"rental_uris":{"android":"levelo://app?vid=9eb19af1-3ac3-436d-805d-794abdcba832","ios":"levelo://app?vid=9eb19af1-3ac3-436d-805d-794abdcba832"},"vehicle_type_id":"4","last_reported":1752873031,"current_range_meters":19600,"station_id":"ce4bhu92rcd13ifvqi70","pricing_plan_id":"cebpf4jnsgd1na2vs0mg"},