{"last_updated":1726848663,"ttl":30,"version":"2.2","data":{"bikes":[{"bike_id":"0faf272a-fdc8-4442-914f-92f52b9bce91","system_id":"levelo_inurba_marseille","lat":43.27942,"lon":5.41048,"is_reserved":false,"is_disabled":false,"rental_uris":{"android":"levelo://app?vid=0faf272a-fdc8-4442-914f-92f52b9bce91","ios":"levelo://app?vid=0faf272a-fdc8-4442-914f-92f52b9bce91"},"vehicle_type_id":"4","last_reported":1726848663,"current_range_meters":12800,"station_id":"ce4bhnp2rcd13ifvqh0g","pricing_plan_id":"cebpf4jnsgd1na2vs0mg"},{"bike_id":"efdbf54c-ccb2-421d-b4ce-83de8f7cb158","system_id":"levelo_inurba_marseille","lat":43.284429,"lon":5.391958,"is_reserved":false,"is_disabled":false,"rental_uris":{"android":"levelo://app?vid=efdbf54c-ccb2-421d-b4ce-83de8f7cb158","ios":"levelo://app?vid=efdbf54c-ccb2-421d-b4ce-83de8f7cb158"},"vehicle_type_id":"4","last_reported":1726848663,"current_range_meters":20400,"station_id":"ce4bh4p2rcd13ifvqe0g","pricing_plan_id":"cebpf4jnsgd1na2vs0mg"},{"bike_id":"f662e825-9148-4a09-82cd-289cff82a6e2","system_id":"levelo_inurba_marseille","lat":43.27809,"lon":5.40716,"is_reserved":false,"is_disabled":false,"rental_uris":{"android":"levelo://app?vid=f662e825-9148-4a09-82cd-289cff82a6e2","ios":"levelo://app?vid=f662e825-9148-4a09-82cd-289cff82a6e2"},"vehicle_type_id":"4","last_reported":1726848663,"current_range_meters":9200,"station_id":"ce4bhnh2rcd13ifvqgtg","pricing_plan_id":"cebpf4jnsgd1na2vs0mg"},{"bike_id":"add14f9d-a6f7-4111-b4b7-c2e7e29a83d2","system_id":"levelo_inurba_marseille","lat":43.26208,"lon":5.3744,"is_reserved":false,"is_disabled":false,"rental_uris":{"android":"levelo://app?vid=add14f9d-a6f7-4111-b4b7-c2e7e29a83d2","ios":"levelo://app?vid=add14f9d-a6f7-4111-b4b7-c2e7e29a83d2"},"vehicle_type_id":"4","last_reported":1726848663,"current_range_meters":12400,"station_id":"ce4bhgp2rcd13ifvqfc0","pricing_plan_id":"cebpf4jnsgd1na2vs0mg"},{"bike_id":"2e5971d6-bfdf-468e-86eb-23b6c95b4ebe","system_id":"levelo_inurba_marseille","lat":43.305286,"lon":5.365456,"is_reserved":false,"is_disabled":false,"rental_uris":{"android":"levelo://app?vid=2e5971d6-bfdf-468e-86eb-23b6c95b4ebe","ios":"levelo://app?vid=2e5971d6-bfdf-468e-86eb-23b6c95b4ebe"},"vehicle_type_id":"4","last_reported":1726848663,"current_range_meters":4400,"station_id":"ce4bh3p2rcd13ifvqdq0","pricing_plan_id":"cebpf4jnsgd1na2vs0mg"},{"bike_id":"0f1095b0-dd0d-4817-9899-6631371d9838","system_id":"levelo_inurba_marseille","lat":43.3122,"lon":5.36858,"is_reserved":false,"is_disabled":false,"rental_uris":{"android":"levelo://app?vid=0f1095b0-dd0d-4817-9899-6631371d9838","ios":"levelo://app?vid=0f1095b0-dd0d-4817-9899-6631371d9838"},"vehicle_type_id":"4","last_reported":1726848663,"current_range_meters":38800,"station_id":"ce4bgl92rcd13ifvqbq0","pricing_plan_id":"cebpf4jnsgd1na2vs0mg"},{"bike_id":"22200897-3ea5-46a1-ade2-7a4b63217806","system_id":"levelo_inurba_marseille","lat":43.29529,"lon":5.38548,"is_reserved":false,"is_disabled":false,"rental_uris":{"android":"levelo://app?vid=22200897-3ea5-46a1-ade2-7a4b63217806","ios":"levelo://app?vid=22200897-3ea5-46a1-ade2-7a4b63217806"},"vehicle_type_id":"4","last_reported":1726848663,"current_range_meters":38000,"station_id":"ce4bgih2rcd13ifvqba0","pricing_plan_id":"cebpf4jnsgd1na2vs0mg"},{"bike_id":"51529061-99bb-4dcd-be2f-769b02aecd7e","system_id":"levelo_inurba_marseille","lat":43.31169,"lon":5.3872,"is_reserved":false,"is_disabled":false,"rental_uris":{"android":"levelo://app?vid=51529061-99bb-4dcd-be2f-769b02aecd7e","ios":"levelo://app?vid=51529061-99bb-4dcd-be2f-769b02aecd7e"},"vehicle_type_id":"4","last_reported":1726848663,"current_range_meters":38800,"station_id":"ce4bgv12rcd13ifvqcp0","pricing_plan_id":"cebpf4jnsgd1na2vs0mg"},{"bike_id":"69674b51-f6e2-4937-8b63-30a068887a45","system_id":"levelo_inurba_marseille","lat":43.30417,"lon":5.41284,"is_reserved":false,"is_disabled":false,"rental_uris":{"android":"levelo://app?vid=69674b51-f6e2-4937-8b63-30a068887a45","ios":"levelo://app?vid=69674b51-f6e2-4937-8b63-30a068887a45"},"vehicle_type_id":"4","last_reported":1726848663,"current_range_meters":19600,"station_id":"ce4bhop2rcd13ifvqh8g","pricing_plan_id":"cebpf4jnsgd1na2vs0mg"},{"bike_id":"5eb090ec-2b95-4c94-8161-eff4c8f0e709","system_id":"levelo_inurba_marseille","lat":43.3248,"lon":5.36562,"is_reserved":false,"is_disabled":false,"rental_uris":{"android":"levelo://app?vid=5eb090ec-2b95-4c94-8161-eff4c8f0e709","ios":"levelo://app?vid=5eb090ec-2b95-4c94-8161-eff4c8f0e709"},"vehicle_type_id":"4","last_reported":1726848663,"current_range_meters":12000,"station_id":"ce4bhs12rcd13ifvqhvg","pricing_plan_id":"cebpf4jnsgd1na2vs0mg"},{"bike_id":"3d6377da-8188-4b5e-8ab1-8b7384d8a82c","system_id":"levelo_inurba_marseille","lat":43.32053,"lon":5.41545,"is_reserved":false,"is_disabled":false,"rental_uris":{"android":"levelo://app?vid=3d6377da-8188-4b5e-8ab1-8b7384d8a82c","ios":"levelo://app?vid=3d6377da-8188-4b5e-8ab1-8b7384d8a82c"},"vehicle_type_id":"4","last_reported":1726848663,"current_range_meters":4400,"station_id":"ce4bhq92rcd13ifvqhkg","pricing_plan_id":"cebpf4jnsgd1na2vs0mg"},{"bike_id":"7adb6a9c-fc7c-4226-a40a-fdb37f7e5bd8","system_id":"levelo_inurba_marseille","lat":43.24666,"lon":5.38159,"is_reserved":false,"is_disabled":false,"rental_uris":{"android":"levelo://app?vid=7adb6a9c-fc7c-4226-a40a-fdb37f7e5bd8","ios":"levelo://app?vid=7adb6a9c-fc7c-4226-a40a-fdb37f7e5bd8"},"vehicle_type_id":"4","last_reported":1726848663,"current_range_meters":38800,"station_id":"ce4bhih2rcd13ifvqfr0","pricing_plan_id":"cebpf4jnsgd1na2vs0mg"},{"bike_id":"3d9367e7-4334-4398-8840-7e7fd729c93f","system_id":"levelo_inurba_marseille","lat":43.32486,"lon":5.36563,"is_reserved":false,"is_disabled":false,"rental_uris":{"android":"levelo://app?vid=3d9367e7-4334-4398-8840-7e7fd729c93f","ios":"levelo://app?vid=3d9367e7-4334-4398-8840-7e7fd729c93f"},"vehicle_type_id":"4","last_reported":1726848663,"current_range_meters":38800,"station_id":"ce4bhs12rcd13ifvqhvg","pricing_plan_id":"cebpf4jnsgd1na2vs0mg"},{"bike_id":"3710c39d-a1b6-44b3-b084-e0dc194bfb2c","system_id":"levelo_inurba_marseille","lat":43.29922,"lon":5.37474,"is_reserved":false,"is_disabled":false,"rental_uris":{"android":"levelo://app?vid=3710c39d-a1b6-44b3-b084-e0dc194bfb2c","ios":"levelo://app?vid=3710c39d-a1b6-44b3-b084-e0dc194bfb2c"},"vehicle_type_id":"4","last_reported":1726848663,"current_range_meters":37600,"station_id":"ce4bgjh2rcd13ifvqbg0","pricing_plan_id":"cebpf4jnsgd1na2vs0mg"},{"bike_id":"33e02209-9fac-4873-b833-9cb7e1209b75","system_id":"levelo_inurba_marseille","lat":43.29719,"lon":5.37695,"is_reserved":false,"is_disabled":false,"rental_uris":{"android":"levelo://app?vid=33e02209-9fac-4873-b833-9cb7e1209b75","ios":"levelo://app?vid=33e02209-9fac-4873-b833-9cb7e1209b75"},"vehicle_type_id":"4","last_reported":1726848663,"current_range_meters":14000,"station_id":"ce4bh0h2rcd13ifvqd40","pricing_plan_id":"cebpf4jnsgd1na2vs0mg"},{"bike_id":"4e2f9595-dace-44dd-b31e-741f4f49236c","system_id":"levelo_inurba_marseille","lat":43.31359,"lon":5.38487,"is_reserved":false,"is_disabled":false,"rental_uris":{"android":"levelo://app?vid=4e2f9595-dace-44dd-b31e-741f4f49236c","ios":"levelo://app?vid=4e2f9595-dace-44dd-b31e-741f4f49236c"},"vehicle_type_id":"4","last_reported":1726848663,"current_range_meters":28800,"station_id":"ce4bgt92rcd13ifvqcf0","pricing_plan_id":"cebpf4jnsgd1na2vs0mg"},{"bike_id":"a6ed4969-0556-414d-860c-5de0f6bbce5a","system_id":"levelo_inurba_marseille","lat":43.273732,"lon":5.36241,"is_reserved":false,"is_disabled":false,"rental_uris":{"android":"levelo://app?vid=a6ed4969-0556-414d-860c-5de0f6bbce5a","ios":"levelo://app?vid=a6ed4969-0556-414d-860c-5de0f6bbce5a"},"vehicle_type_id":"4","last_reported":1726848663,"current_range_meters":8400,"station_id":"ce4bhbh2rcd13ifvqeo0","pricing_plan_id":"cebpf4jnsgd1na2vs0mg"},{"bike_id":"3452e334-42a2-4e54-ae77-c3c163ed01e7","system_id":"levelo_inurba_marseille","lat":43.24662,"lon":5.38166,"is_reserved":false,"is_disabled":false,"rental_uris":{"android":"levelo://app?vid=3452e334-42a2-4e54-ae77-c3c163ed01e7","ios":"levelo://app?vid=3452e334-42a2-4e54-ae77-c3c163ed01e7"},"vehicle_type_id":"4","last_reported":1726848663,"current_range_meters":33200,"station_id":"ce4bhih2rcd13ifvqfr0","pricing_plan_id":"cebpf4jnsgd1na2vs0mg"},{"bike_id":"f52574f6-1cff-4c51-be4e-bcdfc5ded6a8","system_id":"levelo_inurba_marseille","lat":43.297972,"lon":5.380968,"is_reserved":false,"is_disabled":false,"rental_uris":{"android":"levelo://app?vid=f52574f6-1cff-4c51-be4e-bcdfc5ded6a8","ios":"levelo://app?vid=f52574f6-1cff-4c51-be4e-bcdfc5ded6a8"},"vehicle_type_id":"4","last_reported":1726848663,"current_range_meters":32800,"station_id":"ce4bhbp2rcd13ifvqerg","pricing_plan_id":"cebpf4jnsgd1na2vs0mg"},{"bike_id":"3488dc72-7cb1-4306-8cf4-5232f80cca65","system_id":"levelo_inurba_marseille","lat":43.30795,"lon":5.43513,"is_reserved":false,"is_disabled":false,"rental_uris":{"android":"levelo://app?vid=3488dc72-7cb1-4306-8cf4-5232f80cca65","ios":"levelo://app?vid=3488dc72-7cb1-4306-8cf4-5232f80cca65"},"vehicle_type_id":"4","last_reported":1726848663,"current_range_meters":2000,"station_id":"ce4bhph2rcd13ifvqheg","pricing_plan_id":"cebpf4jnsgd1na2vs0mg"},{"bike_id":"3f1884e8-ced9-45b5-bd8f-939513ef417e","system_id":"levelo_inurba_marseille","lat":43.2797,"lon":5.38737,"is_reserved":false,"is_disabled":false,"rental_uris":{"android":"levelo://app?vid=3f1884e8-ced9-45b5-bd8f-939513ef417e","ios":"levelo://app?vid=3f1884e8-ced9-45b5-bd8f-939513ef417e"},"vehicle_type_id":"4","last_reported":1726848663,"current_range_meters":3600,"station_id":"ce4bhg12rcd13ifvqf80","pricing_plan_id":"cebpf4jnsgd1na2vs0mg"},{"bike_id":"97caa522-5ce4-4999-aa5c-fb305a0f20b4","system_id":"levelo_inurba_marseille","lat":43.26788,"lon":5.3941,"is_reserved":false,"is_disabled":false,"rental_uris":{"android":"levelo://app?vid=97caa522-5ce4-4999-aa5c-fb305a0f20b4","ios":"levelo://app?vid=97caa522-5ce4-4999-aa5c-fb305a0f20b4"},"vehicle_type_id":"4","last_reported":1726848663,"current_range_meters":3600,"station_id":"ce4bhh12rcd13ifvqfg0","pricing_plan_id":"cebpf4jnsgd1na2vs0mg"},{"bike_id":"525d65ad-c68a-4bc7-81da-ac1570ffba9c","system_id":"levelo_inurba_marseille","lat":43.32365,"lon":5.38885,"is_reserved":false,"is_disabled":false,"rental_uris":{"android":"levelo://app?vid=525d65ad-c68a-4bc7-81da-ac1570ffba9c","ios":"levelo://app?vid=525d65ad-c68a-4bc7-81da-ac1570ffba9c"},"vehicle_type_id":"4","last_reported":1726848663,"current_range_meters":6400,"station_id":"ce4bhqp2rcd13ifvqhog","pricing_plan_id":"cebpf4jnsgd1na2vs0mg"},{"bike_id":"16116278-4ba4-4215-a8f4-4d5e6e977e2f","system_id":"levelo_inurba_marseille","lat":43.28472,"lon":5.38428,"is_reserved":false,"is_disabled":false,"rental_uris":{"android":"levelo://app?vid=16116278-4ba4-4215-a8f4-4d5e6e977e2f","ios":"levelo://app?vid=16116278-4ba4-4215-a8f4-4d5e6e977e2f"},"vehicle_type_id":"4","last_reported":1726848663,"current_range_meters":3600,"station_id":"ce4bh512rcd13ifvqe3g","pricing_plan_id":"cebpf4jnsgd1na2vs0mg"},{"bike_id":"4e5527ad-5879-4ec3-9535-accafdde70dc","system_id":"levelo_inurba_marseille","lat":43.295288,"lon":5.38534,"is_reserved":false,"is_disabled":false,"rental_uris":{"android":"levelo://app?vid=4e5527ad-5879-4ec3-9535-accafdde70dc","ios":"levelo://app?vid=4e5527ad-5879-4ec3-9535-accafdde70dc"},"vehicle_type_id":"4","last_reported":1726848663,"current_range_meters":12000,"station_id":"ce4bgih2rcd13ifvqba0","pricing_plan_id":"cebpf4jnsgd1na2vs0mg"},{"bike_id":"3f27fb53-bb89-45d3-bacf-fd5fdc8a134d","system_id":"levelo_inurba_marseille","lat":43.29248,"lon":5.384005,"is_reserved":false,"is_disabled":false,"rental_uris":{"android":"levelo://app?vid=3f27fb53-bb89-45d3-bacf-fd5fdc8a134d","ios":"levelo://app?vid=3f27fb53-bb89-45d3-bacf-fd5fdc8a134d"},"vehicle_type_id":"4","last_reported":1726848663,"current_range_meters":32000,"station_id":"ce4bh692rcd13ifvqea0","pricing_plan_id":"cebpf4jnsgd1na2vs0mg"},{"bike_id":"b64ac26d-5e89-4552-82ce-aafd6147be0e","system_id":"levelo_inurba_marseille","lat":43.292801,"lon":5.368436,"is_reserved":false,"is_disabled":false,"rental_uris":{"android":"levelo://app?vid=b64ac26d-5e89-4552-82ce-aafd6147be0e","ios":"levelo://app?vid=b64ac26d-5e89-4552-82ce-aafd6147be0e"},"vehicle_type_id":"4","last_reported":1726848663,"current_range_meters":28000,"station_id":"ce4bhbp2rcd13ifvqesg","pricing_plan_id":"cebpf4jnsgd1na2vs0mg"},{"bike_id":"26bce835-62f7-4dd1-a231-fbbcb21d493c","system_id":"levelo_inurba_marseille","lat":43.31755,"lon":5.39023,"is_reserved":false,"is_disabled":false,"rental_uris":{"android":"levelo://app?vid=26bce835-62f7-4dd1-a231-fbbcb21d493c","ios":"levelo://app?vid=26bce835-62f7-4dd1-a231-fbbcb21d493c"},"vehicle_type_id":"4","last_reported":1726848663,"current_range_meters":8000,"station_id":"ce4bhqp2rcd13ifvqhng","pricing_plan_id":"cebpf4jnsgd1na2vs0mg"},{"bike_id":"89c76a6d-eba4-4ae7-8bcc-718749874ddc","system_id":"levelo_inurba_marseille","lat":43.28384,"lon":5.3864,"is_reserved":false,"is_disabled":false,"rental_uris":{"android":"levelo://app?vid=89c76a6d-eba4-4ae7-8bcc-718749874ddc","ios":"levelo://app?vid=89c76a6d-eba4-4ae7-8bcc-718749874ddc"},"vehicle_type_id":"4","last_reported":1726848663,"current_range_meters":39200,"station_id":"ce4bh492rcd13ifvqdvg","pricing_plan_id":"cebpf4jnsgd1na2vs0mg"},{"bike_id":"4d506b80-bde9-4a70-b6a9-cc4fd936f249","system_id":"levelo_inurba_marseille","lat":43.32473,"lon":5.36556,"is_reserved":false,"is_disabled":false,"rental_uris":{"android":"levelo://app?vid=4d506b80-bde9-4a70-b6a9-cc4fd936f249","ios":"levelo://app?vid=4d506b80-bde9-4a70-b6a9-cc4fd936f249"},"vehicle_type_id":"4","last_reported":1726848663,"current_range_meters":38800,"station_id":"ce4bhs12rcd13ifvqhvg","pricing_plan_id":"cebpf4jnsgd1na2vs0mg"},{"bike_id":"9604f8fe-7940-4538-a860-e656b0c49305","system_id":"levelo_inurba_marseille","lat":43.31076,"lon":5.38361,"is_reserved":false,"is_disabled":false,"rental_uris":{"android":"levelo://app?vid=9604f8fe-7940-4538-a860-e656b0c49305","ios":"levelo://app?vid=9604f8fe-7940-4538-a860-e656b0c49305"},"vehicle_type_id":"4","last_reported":1726848663,"current_range_meters":22000,"station_id":"ce4bhg12rcd13ifvqf80","pricing_plan_id":"cebpf4jnsgd1na2vs0mg"},{"bike_id":"5eb691ae-0fd0-4739-a30d-fec0cf27e33a","system_id":"levelo_inurba_marseille","lat":43.3031,"lon":5.39214,"is_reserved":false,"is_disabled":false,"rental_uris":{"android":"levelo://app?vid=5eb691ae-0fd0-4739-a30d-fec0cf27e33a","ios":"levelo://app?vid=5eb691ae-0fd0-4739-a30d-fec0cf27e33a"},"vehicle_type_id":"4","last_reported":1726848663,"current_range_meters":25600,"station_id":"ce4bgkh2rcd13ifvqbk0","pricing_plan_id":"cebpf4jnsgd1na2vs0mg"},{"bike_id":"edfb1ff5-b81b-4225-8da9-100a9115b1e3","system_id":"levelo_inurba_marseille","lat":43.29735,"lon":5.36561,"is_reserved":false,"is_disabled":false,"rental_uris":{"android":"levelo://app?vid=edfb1ff5-b81b-4225-8da9-100a9115b1e3","ios":"levelo://app?vid=edfb1ff5-b81b-4225-8da9-100a9115b1e3"},"vehicle_type_id":"4","last_reported":1726848663,"current_range_meters":12000,"station_id":"","pricing_plan_id":"cebpf4jnsgd1na2vs0mg"},{"bike_id":"15e3060d-1cfb-481c-9f48-257a94bd2c2a","system_id":"levelo_inurba_marseille","lat":43.32477,"lon":5.40757,"is_reserved":false,"is_disabled":false,"rental_uris":{"android":"levelo://app?vid=15e3060d-1cfb-481c-9f48-257a94bd2c2a","ios":"levelo://app?vid=15e3060d-1cfb-481c-9f48-257a94bd2c2a"},"vehicle_type_id":"4","last_reported":1726848663,"current_range_meters":36400,"station_id":"","pricing_plan_id":"cebpf4jnsgd1na2vs0mg"},{"bike_id":"c8558a3e-0779-4454-9c3b-d1ee2706fdca","system_id":"levelo_inurba_marseille","lat":43.3171,"lon":5.43706,"is_reserved":false,"is_disabled":false,"rental_uris":{"android":"levelo://app?vid=c8558a3e-0779-4454-9c3b-d1ee2706fdca","ios":"levelo://app?vid=c8558a3e-0779-4454-9c3b-d1ee2706fdca"},"vehicle_type_id":"4","last_reported":1726848663,"current_range_meters":34000,"station_id":"ce4bhp92rcd13ifvqhcg","pricing_plan_id":"cebpf4jnsgd1na2vs0mg"},{"bike_id":"60a0fadb-b7ce-441c-8851-881cda24c50c","system_id":"levelo_inurba_marseille","lat":43.29579,"lon":5.36745,"is_reserved":false,"is_disabled":false,"rental_uris":{"android":"levelo://app?vid=60a0fadb-b7ce-441c-8851-881cda24c50c","ios":"levelo://app?vid=60a0fadb-b7ce-441c-8851-881cda24c50c"},"vehicle_type_id":"4","last_reported":1726848663,"current_range_meters":12000,"station_id":"ce4bgph2rcd13ifvqc2g","pricing_plan_id":"cebpf4jnsgd1na2vs0mg"},{"bike_id":"a915cd7c-7503-4ee4-9c82-ddd354a987eb","system_id":"levelo_inurba_marseille","lat":43.31528,"lon":5.38037,"is_reserved":false,"is_disabled":false,"rental_uris":{"android":"levelo://app?vid=a915cd7c-7503-4ee4-9c82-ddd354a987eb","ios":"levelo://app?vid=a915cd7c-7503-4ee4-9c82-ddd354a987eb"},"vehicle_type_id":"4","last_reported":1726848663,"current_range_meters":27200,"station_id":"ce4bhsp2rcd13ifvqi50","pricing_plan_id":"cebpf4jnsgd1na2vs0mg"},{"bike_id":"00585fe3-77b3-4634-a8d4-61c95b7ce7ef","system_id":"levelo_inurba_marseille","lat":43.29552,"lon":5.42293,"is_reserved":false,"is_disabled":false,"rental_uris":{"android":"levelo://app?vid=00585fe3-77b3-4634-a8d4-61c95b7ce7ef","ios":"levelo://app?vid=00585fe3-77b3-4634-a8d4-61c95b7ce7ef"},"vehicle_type_id":"4","last_reported":1726848663,"current_range_meters":25600,"station_id":"ce4bhph2rcd13ifvqhdg","pricing_plan_id":"cebpf4jnsgd1na2vs0mg"},{"bike_id":"bcfaceec-fb62-47a8-ad2f-d547fd82bb2b","system_id":"levelo_inurba_marseille","lat":43.31325,"lon":5.39689,"is_reserved":false,"is_disabled":false,"rental_uris":{"android":"levelo://app?vid=bcfaceec-fb62-47a8-ad2f-d547fd82bb2b","ios":"levelo://app?vid=bcfaceec-fb62-47a8-ad2f-d547fd82bb2b"},"vehicle_type_id":"4","last_reported":1726848663,"current_range_meters":4800,"station_id":"ce4bgvp2rcd13ifvqcu0","pricing_plan_id":"cebpf4jnsgd1na2vs0mg"},{"bike_id":"f135affe-327c-4f0e-932b-f321d3062cb2","system_id":"levelo_inurba_marseille","lat":43.27182,"lon":5.40987,"is_reserved":false,"is_disabled":false,"rental_uris":{"android":"levelo://app?vid=f135affe-327c-4f0e-932b-f321d3062cb2","ios":"levelo://app?vid=f135affe-327c-4f0e-932b-f321d3062cb2"},"vehicle_type_id":"4","last_reported":1726848663,"current_range_meters":39200,"station_id":"ce4bhl12rcd13ifvqgf0","pricing_plan_id":"cebpf4jnsgd1na2vs0mg"},{"bike_id":"e18c841e-7ba5-46d7-ada4-0b3b3c22d796","system_id":"levelo_inurba_marseille","lat":43.292603,"lon":5.409035,"is_reserved":false,"is_disabled":false,"rental_uris":{"android":"levelo://app?vid=e18c841e-7ba5-46d7-ada4-0b3b3c22d796","ios":"levelo://app?vid=e18c841e-7ba5-46d7-ada4-0b3b3c22d796"},"vehicle_type_id":"4","last_reported":1726848663,"current_range_meters":28400,"station_id":"ce4bh192rcd13ifvqdc0","pricing_plan_id":"cebpf4jnsgd1na2vs0mg"},{"bike_id":"e3aa606b-8d7e-4d8b-a929-0b391b2a9b22","system_id":"levelo_inurba_marseille","lat":43.269391,"lon":5.40264,"is_reserved":false,"is_disabled":false,"rental_uris":{"android":"levelo://app?vid=e3aa606b-8d7e-4d8b-a929-0b391b2a9b22","ios":"levelo://app?vid=e3aa606b-8d7e-4d8b-a929-0b391b2a9b22"},"vehicle_type_id":"4","last_reported":1726848663,"current_range_meters":14800,"station_id":"cjm6bp8fraef2m0cb0m0","pricing_plan_id":"cebpf4jnsgd1na2vs0mg"},{"bike_id":"678a6688-c7a9-49e1-9572-6e27ab34cf2d","system_id":"levelo_inurba_marseille","lat":43.26487,"lon":5.39539,"is_reserved":false,"is_disabled":false,"rental_uris":{"android":"levelo://app?vid=678a6688-c7a9-49e1-9572-6e27ab34cf2d","ios":"levelo://app?vid=678a6688-c7a9-49e1-9572-6e27ab34cf2d"},"vehicle_type_id":"4","last_reported":1726848663,"current_range_meters":9600,"station_id":"ce4bhi12rcd13ifvqfq0","pricing_plan_id":"cebpf4jnsgd1na2vs0mg"},{"bike_id":"1090fed4-aaa0-4791-92db-b1556b6be214","system_id":"levelo_inurba_marseille","lat":43.29882,"lon":5.38914,"is_reserved":false,"is_disabled":false,"rental_uris":{"android":"levelo://app?vid=1090fed4-aaa0-4791-92db-b1556b6be214","ios":"levelo://app?vid=1090fed4-aaa0-4791-92db-b1556b6be214"},"vehicle_type_id":"4","last_reported":1726848663,"current_range_meters":39200,"station_id":"ce4bh392rcd13ifvqdl0","pricing_plan_id":"cebpf4jnsgd1na2vs0mg"},{"bike_id":"a3a6b38f-5824-4d2e-a929-e72df2388fdc","system_id":"levelo_inurba_marseille","lat":43.29581,"lon":5.36741,"is_reserved":false,"is_disabled":false,"rental_uris":{"android":"levelo://app?vid=a3a6b38f-5824-4d2e-a929-e72df2388fdc","ios":"levelo://app?vid=a3a6b38f-5824-4d2e-a929-e72df2388fdc"},"vehicle_type_id":"4","last_reported":1726848663,"current_range_meters":30000,"station_id":"ce4bgph2rcd13ifvqc2g","pricing_plan_id":"cebpf4jnsgd1na2vs0mg"},{"bike_id":"5840a821-7b4a-4179-8856-92a74917e83c","system_id":"levelo_inurba_marseille","lat":43.25002,"lon":5.38925,"is_reserved":false,"is_disabled":false,"rental_uris":{"android":"levelo://app?vid=5840a821-7b4a-4179-8856-92a74917e83c","ios":"levelo://app?vid=5840a821-7b4a-4179-8856-92a74917e83c"},"vehicle_type_id":"4","last_reported":1726848663,"current_range_meters":25600,"station_id":"ce4bhgp2rcd13ifvqfd0","pricing_plan_id":"cebpf4jnsgd1na2vs0mg"},{"bike_id":"97d008e1-0c44-4d9c-aab1-e747c44595e9","system_id":"levelo_inurba_marseille","lat":43.2861,"lon":5.35105,"is_reserved":false,"is_disabled":false,"rental_uris":{"android":"levelo://app?vid=97d008e1-0c44-4d9c-aab1-e747c44595e9","ios":"levelo://app?vid=97d008e1-0c44-4d9c-aab1-e747c44595e9"},"vehicle_type_id":"4","last_reported":1726848663,"current_range_meters":12800,"station_id":"ce4bhch2rcd13ifvqeug","pricing_plan_id":"cebpf4jnsgd1na2vs0mg"},{"bike_id":"5419b1bf-d37c-4076-a34c-52ede101758e","system_id":"levelo_inurba_marseille","lat":43.337444,"lon":5.374475,"is_reserved":false,"is_disabled":false,"rental_uris":{"android":"levelo://app?vid=5419b1bf-d37c-4076-a34c-52ede101758e","ios":"levelo://app?vid=5419b1bf-d37c-4076-a34c-52ede101758e"},"vehicle_type_id":"4","last_reported":1726848663,"current_range_meters":36400,"station_id":"","pricing_plan_id":"cebpf4jnsgd1na2vs0mg"},{"bike_id":"930df229-a4fc-46c0-980c-29c1519b09ed","system_id":"levelo_inurba_marseille","lat":43.32366,"lon":5.38886,"is_reserved":false,"is_disabled":false,"rental_uris":{"android":"levelo://app?vid=930df229-a4fc-46c0-980c-29c1519b09ed","ios":"levelo://app?vid=930df229-a4fc-46c0-980c-29c1519b09ed"},"vehicle_type_id":"4","last_reported":1726848663,"current_range_meters":20000,"station_id":"ce4bhqp2rcd13ifvqhog","pricing_plan_id":"cebpf4jnsgd1na2vs0mg"},{"bike_id":"490c25c2-6e3d-4be3-98d6-ab5a372c3b72","system_id":"levelo_inurba_marseille","lat":43.27997,"lon":5.40017,"is_reserved":false,"is_disabled":false,"rental_uris":{"android":"levelo://app?vid=490c25c2-6e3d-4be3-98d6-ab5a372c3b72","ios":"levelo://app?vid=490c25c2-6e3d-4be3-98d6-ab5a372c3b72"},"vehicle_type_id":"4","last_reported":1726848663,"current_range_meters":24800,"station_id":"ce4bho92rcd13ifvqh4g","pricing_plan_id":"cebpf4jnsgd1na2vs0mg"},{"bike_id":"8bc82e49-3181-4b22-96c4-18e33755d2b8","system_id":"levelo_inurba_marseille","lat":43.2903,"lon":5.37563,"is_reserved":false,"is_disabled":false,"rental_uris":{"android":"levelo://app?vid=8bc82e49-3181-4b22-96c4-18e33755d2b8","ios":"levelo://app?vid=8bc82e49-3181-4b22-96c4-18e33755d2b8"},"vehicle_type_id":"4","last_reported":1726848663,"current_range_meters":20400,"station_id":"ce4bh692rcd13ifvqe90","pricing_plan_id":"cebpf4jnsgd1na2vs0mg"},{"bike_id":"6716c3d1-091d-47b2-aef1-1262452066fc","system_id":"levelo_inurba_marseille","lat":43.29897,"lon":5.43665,"is_reserved":false,"is_disabled":false,"rental_uris":{"android":"levelo://app?vid=6716c3d1-091d-47b2-aef1-1262452066fc","ios":"levelo://app?vid=6716c3d1-091d-47b2-aef1-1262452066fc"},"vehicle_type_id":"4","last_reported":1726848663,"current_range_meters":8000,"station_id":"ce4bhpp2rcd13ifvqhfg","pricing_plan_id":"cebpf4jnsgd1na2vs0mg"},{"bike_id":"5ac9aa09-4bbb-4984-a0a5-2259bcaa2082","system_id":"levelo_inurba_marseille","lat":43.29048,"lon":5.35909,"is_reserved":false,"is_disabled":false,"rental_uris":{"android":"levelo://app?vid=5ac9aa09-4bbb-4984-a0a5-2259bcaa2082","ios":"levelo://app?vid=5ac9aa09-4bbb-4984-a0a5-2259bcaa2082"},"vehicle_type_id":"4","last_reported":1726848663,"current_range_meters":33600,"station_id":"ce4bha92rcd13ifvqeg0","pricing_plan_id":"cebpf4jnsgd1na2vs0mg"},{"bike_id":"4d2bd7fd-dfdf-4515-be1e-c257ecc849e2","system_id":"levelo_inurba_marseille","lat":43.30775,"lon":5.37652,"is_reserved":false,"is_disabled":false,"rental_uris":{"android":"levelo://app?vid=4d2bd7fd-dfdf-4515-be1e-c257ecc849e2","ios":"levelo://app?vid=4d2bd7fd-dfdf-4515-be1e-c257ecc849e2"},"vehicle_type_id":"4","last_reported":1726848663,"current_range_meters":39200,"station_id":"ce4bgv92rcd13ifvqcq0","pricing_plan_id":"cebpf4jnsgd1na2vs0mg"},{"bike_id":"33dbeb15-daf7-477f-b502-e60cb41e6ca2","system_id":"levelo_inurba_marseille","lat":43.284576,"lon":5.35887,"is_reserved":false,"is_disabled":false,"rental_uris":{"android":"levelo://app?vid=33dbeb15-daf7-477f-b502-e60cb41e6ca2","ios":"levelo://app?vid=33dbeb15-daf7-477f-b502-e60cb41e6ca2"},"vehicle_type_id":"4","last_reported":1726848663,"current_range_meters":13600,"station_id":"ce4bhah2rcd13ifvqei0","pricing_plan_id":"cebpf4jnsgd1na2vs0mg"},{"bike_id":"762a32ea-a62f-4f27-8eb2-e4fddd92cc33","system_id":"levelo_inurba_marseille","lat":43.292899,"lon":5.408911,"is_reserved":false,"is_disabled":false,"rental_uris":{"android":"levelo://app?vid=762a32ea-a62f-4f27-8eb2-e4fddd92cc33","ios":"levelo://app?vid=762a32ea-a62f-4f27-8eb2-e4fddd92cc33"},"vehicle_type_id":"4","last_reported":1726848663,"current_range_meters":32400,"station_id":"ce4bh192rcd13ifvqdc0","pricing_plan_id":"cebpf4jnsgd1na2vs0mg"},{"bike_id":"ded1d8a6-8f1d-4a4b-8807-494f9947b8ab","system_id":"levelo_inurba_marseille","lat":43.28103,"lon":5.37833,"is_reserved":false,"is_disabled":false,"rental_uris":{"android":"levelo://app?vid=ded1d8a6-8f1d-4a4b-8807-494f9947b8ab","ios":"levelo://app?vid=ded1d8a6-8f1d-4a4b-8807-494f9947b8ab"},"vehicle_type_id":"4","last_reported":1726848663,"current_range_meters":28400,"station_id":"ce4bha12rcd13ifvqee0","pricing_plan_id":"cebpf4jnsgd1na2vs0mg"},{"bike_id":"af42f746-66d2-45b8-9e58-3721ab0e338d","system_id":"levelo_inurba_marseille","lat":43.23192,"lon":5.35553,"is_reserved":false,"is_disabled":false,"rental_uris":{"android":"levelo://app?vid=af42f746-66d2-45b8-9e58-3721ab0e338d","ios":"levelo://app?vid=af42f746-66d2-45b8-9e58-3721ab0e338d"},"vehicle_type_id":"4","last_reported":1726848663,"current_range_meters":7200,"station_id":"ce4bhu92rcd13ifvqi70","pricing_plan_id":"cebpf4jnsgd1na2vs0mg"},{"bike_id":"d06c8ab8-e81c-4035-ae61-9f66221f0cad","system_id":"levelo_inurba_marseille","lat":43.32361,"lon":5.38874,"is_reserved":false,"is_disabled":false,"rental_uris":{"android":"levelo://app?vid=d06c8ab8-e81c-4035-ae61-9f66221f0cad","ios":"levelo://app?vid=d06c8ab8-e81c-4035-ae61-9f66221f0cad"},"vehicle_type_id":"4","last_reported":1726848663,"current_range_meters":38800,"station_id":"ce4bhqp2rcd13ifvqhog","pricing_plan_id":"cebpf4jnsgd1na2vs0mg"},{"bike_id":"5f77dc99-f14f-4119-958e-fb463a3d4741","system_id":"levelo_inurba_marseille","lat":43.31419,"lon":5.3845,"is_reserved":false,"is_disabled":false,"rental_uris":{"android":"levelo://app?vid=5f77dc99-f14f-4119-958e-fb463a3d4741","ios":"levelo://app?vid=5f77dc99-f14f-4119-958e-fb463a3d4741"},"vehicle_type_id":"4","last_reported":1726848663,"current_range_meters":10000,"station_id":"ce4bgt92rcd13ifvqcf0","pricing_plan_id":"cebpf4jnsgd1na2vs0mg"},{"bike_id":"9c3dd745-c0e7-4c4a-a0b0-85e23c246a58","system_id":"levelo_inurba_marseille","lat":43.30137,"lon":5.39864,"is_reserved":false,"is_disabled":false,"rental_uris":{"android":"levelo://app?vid=9c3dd745-c0e7-4c4a-a0b0-85e23c246a58","ios":"levelo://app?vid=9c3dd745-c0e7-4c4a-a0b0-85e23c246a58"},"vehicle_type_id":"4","last_reported":1726848663,"current_range_meters":38800,"station_id":"ce4bh0h2rcd13ifvqd40","pricing_plan_id":"cebpf4jnsgd1na2vs0mg"},{"bike_id":"fc504e13-013d-44ed-aaad-9c2e80d24646","system_id":"levelo_inurba_marseille","lat":43.24389,"lon":5.37058,"is_reserved":false,"is_disabled":false,"rental_uris":{"android":"levelo://app?vid=fc504e13-013d-44ed-aaad-9c2e80d24646","ios":"levelo://app?vid=fc504e13-013d-44ed-aaad-9c2e80d24646"},"vehicle_type_id":"4","last_reported":1726848663,"current_range_meters":10000,"station_id":"ce4bhhh2rcd13ifvqfk0","pricing_plan_id":"cebpf4jnsgd1na2vs0mg"},{"bike_id":"cb4345f8-865b-4c53-aa5e-189e3f6e4ef5","system_id":"levelo_inurba_marseille","lat":43.31125,"lon":5.37775,"is_reserved":false,"is_disabled":false,"rental_uris":{"android":"levelo://app?vid=cb4345f8-865b-4c53-aa5e-189e3f6e4ef5","ios":"levelo://app?vid=cb4345f8-865b-4c53-aa5e-189e3f6e4ef5"},"vehicle_type_id":"4","last_reported":1726848663,"current_range_meters":38800,"station_id":"ce4bgt92rcd13ifvqcg0","pricing_plan_id":"cebpf4jnsgd1na2vs0mg"},{"bike_id":"326648cf-95f2-4bdc-855f-0211be83e2d9","system_id":"levelo_inurba_marseille","lat":43.30136,"lon":5.39869,"is_reserved":false,"is_disabled":false,"rental_uris":{"android":"levelo://app?vid=326648cf-95f2-4bdc-855f-0211be83e2d9","ios":"levelo://app?vid=326648cf-95f2-4bdc-855f-0211be83e2d9"},"vehicle_type_id":"4","last_reported":1726848663,"current_range_meters":38800,"station_id":"ce4bh0h2rcd13ifvqd40","pricing_plan_id":"cebpf4jnsgd1na2vs0mg"},{"bike_id":"ede8c470-684f-4eb8-adc0-77216376ebb3","system_id":"levelo_inurba_marseille","lat":43.301331,"lon":5.398528,"is_reserved":false,"is_disabled":false,"rental_uris":{"android":"levelo://app?vid=ede8c470-684f-4eb8-adc0-77216376ebb3","ios":"levelo://app?vid=ede8c470-684f-4eb8-adc0-77216376ebb3"},"vehicle_type_id":"4","last_reported":1726848663,"current_range_meters":16000,"station_id":"ce4bgjh2rcd13ifvqbg0","pricing_plan_id":"cebpf4jnsgd1na2vs0mg"},{"bike_id":"e0211f1e-d3d3-458b-bf8d-b39abb50b7f6","system_id":"levelo_inurba_marseille","lat":43.28945,"lon":5.36628,"is_reserved":false,"is_disabled":false,"rental_uris":{"android":"levelo://app?vid=e0211f1e-d3d3-458b-bf8d-b39abb50b7f6","ios":"levelo://app?vid=e0211f1e-d3d3-458b-bf8d-b39abb50b7f6"},"vehicle_type_id":"4","last_reported":1726848663,"current_range_meters":33600,"station_id":"ce4bhap2rcd13ifvqek0","pricing_plan_id":"cebpf4jnsgd1na2vs0mg"},{"bike_id":"80e6c3ca-e20e-4ad6-8ada-7798ddc6169b","system_id":"levelo_inurba_marseille","lat":43.23966,"lon":5.36629,"is_reserved":false,"is_disabled":false,"rental_uris":{"android":"levelo://app?vid=80e6c3ca-e20e-4ad6-8ada-7798ddc6169b","ios":"levelo://app?vid=80e6c3ca-e20e-4ad6-8ada-7798ddc6169b"},"vehicle_type_id":"4","last_reported":1726848663,"current_range_meters":32800,"station_id":"ce4bhi12rcd13ifvqfp0","pricing_plan_id":"cebpf4jnsgd1na2vs0mg"},{"bike_id":"bd248bc7-a1a6-4c83-92d3-231a636890e1","system_id":"levelo_inurba_marseille","lat":43.30802,"lon":5.43519,"is_reserved":false,"is_disabled":false,"rental_uris":{"android":"levelo://app?vid=bd248bc7-a1a6-4c83-92d3-231a636890e1","ios":"levelo://app?vid=bd248bc7-a1a6-4c83-92d3-231a636890e1"},"vehicle_type_id":"4","last_reported":1726848663,"current_range_meters":37600,"station_id":"ce4bhph2rcd13ifvqheg","pricing_plan_id":"cebpf4jnsgd1na2vs0mg"},{"bike_id":"f3601f05-13e3-4a7b-bf25-e638fd3db407","system_id":"levelo_inurba_marseille","lat":43.26557,"lon":5.37281,"is_reserved":false,"is_disabled":false,"rental_uris":{"android":"levelo://app?vid=f3601f05-13e3-4a7b-bf25-e638fd3db407","ios":"levelo://app?vid=f3601f05-13e3-4a7b-bf25-e638fd3db407"},"vehicle_type_id":"4","last_reported":1726848663,"current_range_meters":3600,"station_id":"ce4bhg12rcd13ifvqf70","pricing_plan_id":"cebpf4jnsgd1na2vs0mg"},{"bike_id":"85de5ce0-fd06-491a-ab95-5b9b87271201","system_id":"levelo_inurba_marseille","lat":43.28938,"lon":5.36634,"is_reserved":false,"is_disabled":false,"rental_uris":{"android":"levelo://app?vid=85de5ce0-fd06-491a-ab95-5b9b87271201","ios":"levelo://app?vid=85de5ce0-fd06-491a-ab95-5b9b87271201"},"vehicle_type_id":"4","last_reported":1726848663,"current_range_meters":24800,"station_id":"ce4bhap2rcd13ifvqek0","pricing_plan_id":"cebpf4jnsgd1na2vs0mg"},{"bike_id":"604c9531-be4f-4974-bfe2-bd7828d7386f","system_id":"levelo_inurba_marseille","lat":43.29895,"lon":5.43686,"is_reserved":false,"is_disabled":false,"rental_uris":{"android":"levelo://app?vid=604c9531-be4f-4974-bfe2-bd7828d7386f","ios":"levelo://app?vid=604c9531-be4f-4974-bfe2-bd7828d7386f"},"vehicle_type_id":"4","last_reported":1726848663,"current_range_meters":27600,"station_id":"ce4bhpp2rcd13ifvqhfg","pricing_plan_id":"cebpf4jnsgd1na2vs0mg"},{"bike_id":"3fca3dc8-2ad6-4426-ac2c-4336fe7ea757","system_id":"levelo_inurba_marseille","lat":43.30779,"lon":5.37653,"is_reserved":false,"is_disabled":false,"rental_uris":{"android":"levelo://app?vid=3fca3dc8-2ad6-4426-ac2c-4336fe7ea757","ios":"levelo://app?vid=3fca3dc8-2ad6-4426-ac2c-4336fe7ea757"},"vehicle_type_id":"4","last_reported":1726848663,"current_range_meters":34800,"station_id":"ce4bgv92rcd13ifvqcq0","pricing_plan_id":"cebpf4jnsgd1na2vs0mg"},{"bike_id":"af9ecf7b-215c-4f08-88c5-73633ce77dc9","system_id":"levelo_inurba_marseille","lat":43.231934,"lon":5.355567,"is_reserved":false,"is_disabled":false,"rental_uris":{"android":"levelo://app?vid=af9ecf7b-215c-4f08-88c5-73633ce77dc9","ios":"levelo://app?vid=af9ecf7b-215c-4f08-88c5-73633ce77dc9"},"vehicle_type_id":"4","last_reported":1726848663,"current_range_meters":18800,"station_id":"ce4bhu92rcd13ifvqi70","pricing_plan_id":"cebpf4jnsgd1na2vs0mg"},{"bike_id":"659890fd-6a72-4167-b006-24594050fcf5","system_id":"levelo_inurba_marseille","lat":43.29891,"lon":5.43663,"is_reserved":false,"is_disabled":false,"rental_uris":{"android":"levelo://app?vid=659890fd-6a72-4167-b006-24594050fcf5","ios":"levelo://app?vid=659890fd-6a72-4167-b006-24594050fcf5"},"vehicle_type_id":"4","last_reported":1726848663,"current_range_meters":32400,"station_id":"ce4bhpp2rcd13ifvqhfg","pricing_plan_id":"cebpf4jnsgd1na2vs0mg"},{"bike_id":"00df059c-97eb-4a8f-a640-daf135ea7705","system_id":"levelo_inurba_marseille","lat":43.26803,"lon":5.40271,"is_reserved":false,"is_disabled":false,"rental_uris":{"android":"levelo://app?vid=00df059c-97eb-4a8f-a640-daf135ea7705","ios":"levelo://app?vid=00df059c-97eb-4a8f-a640-daf135ea7705"},"vehicle_type_id":"4","last_reported":1726848663,"current_range_meters":18800,"station_id":"ce501612rcd8frsf0b60","pricing_plan_id":"cebpf4jnsgd1na2vs0mg"},{"bike_id":"3662d76a-c906-4ed9-8e96-0a1a57e50005","system_id":"levelo_inurba_marseille","lat":43.30126,"lon":5.39875,"is_reserved":false,"is_disabled":false,"rental_uris":{"android":"levelo://app?vid=3662d76a-c906-4ed9-8e96-0a1a57e50005","ios":"levelo://app?vid=3662d76a-c906-4ed9-8e96-0a1a57e50005"},"vehicle_type_id":"4","last_reported":1726848663,"current_range_meters":11200,"station_id":"ce4bh0h2rcd13ifvqd40","pricing_plan_id":"cebpf4jnsgd1na2vs0mg"},{"bike_id":"c7fdb6e7-0be7-4cec-809d-2dd794ade93e","system_id":"levelo_inurba_marseille","lat":43.3078,"lon":5.37656,"is_reserved":false,"is_disabled":false,"rental_uris":{"android":"levelo://app?vid=c7fdb6e7-0be7-4cec-809d-2dd794ade93e","ios":"levelo://app?vid=c7fdb6e7-0be7-4cec-809d-2dd794ade93e"},"vehicle_type_id":"4","last_reported":1726848663,"current_range_meters":23200,"station_id":"ce4bgv92rcd13ifvqcq0","pricing_plan_id":"cebpf4jnsgd1na2vs0mg"},{"bike_id":"da5bc7f8-6256-4e89-bb05-53b7ff3f9bc3","system_id":"levelo_inurba_marseille","lat":43.279743,"lon":5.387439,"is_reserved":false,"is_disabled":false,"rental_uris":{"android":"levelo://app?vid=da5bc7f8-6256-4e89-bb05-53b7ff3f9bc3","ios":"levelo://app?vid=da5bc7f8-6256-4e89-bb05-53b7ff3f9bc3"},"vehicle_type_id":"4","last_reported":1726848663,"current_range_meters":4800,"station_id":"ce4bhg12rcd13ifvqf80","pricing_plan_id":"cebpf4jnsgd1na2vs0mg"},{"bike_id":"2a2090c4-3893-4a58-ad77-c2199fdd4bc0","system_id":"levelo_inurba_marseille","lat":43.3127,"lon":5.40171,"is_reserved":false,"is_disabled":false,"rental_uris":{"android":"levelo://app?vid=2a2090c4-3893-4a58-ad77-c2199fdd4bc0","ios":"levelo://app?vid=2a2090c4-3893-4a58-ad77-c2199fdd4bc0"},"vehicle_type_id":"4","last_reported":1726848663,"current_range_meters":8800,"station_id":"ce4bh092rcd13ifvqd30","pricing_plan_id":"cebpf4jnsgd1na2vs0mg"},{"bike_id":"454a023b-286f-4225-aed7-2eaf5743017a","system_id":"levelo_inurba_marseille","lat":43.25826,"lon":5.39438,"is_reserved":false,"is_disabled":false,"rental_uris":{"android":"levelo://app?vid=454a023b-286f-4225-aed7-2eaf5743017a","ios":"levelo://app?vid=454a023b-286f-4225-aed7-2eaf5743017a"},"vehicle_type_id":"4","last_reported":1726848663,"current_range_meters":10000,"station_id":"ce4bhip2rcd13ifvqft0","pricing_plan_id":"cebpf4jnsgd1na2vs0mg"},{"bike_id":"137035c9-6696-4a26-a189-08aa5bb4ffe7","system_id":"levelo_inurba_marseille","lat":43.279164,"lon":5.395758,"is_reserved":false,"is_disabled":false,"rental_uris":{"android":"levelo://app?vid=137035c9-6696-4a26-a189-08aa5bb4ffe7","ios":"levelo://app?vid=137035c9-6696-4a26-a189-08aa5bb4ffe7"},"vehicle_type_id":"4","last_reported":1726848663,"current_range_meters":34000,"station_id":"ce4bhf92rcd13ifvqf40","pricing_plan_id":"cebpf4jnsgd1na2vs0mg"},{"bike_id":"d30b0384-0941-47ef-84b7-4ae297d9f13c","system_id":"levelo_inurba_marseille","lat":43.26797,"lon":5.40263,"is_reserved":false,"is_disabled":false,"rental_uris":{"android":"levelo://app?vid=d30b0384-0941-47ef-84b7-4ae297d9f13c","ios":"levelo://app?vid=d30b0384-0941-47ef-84b7-4ae297d9f13c"},"vehicle_type_id":"4","last_reported":1726848663,"current_range_meters":30400,"station_id":"ce501612rcd8frsf0b60","pricing_plan_id":"cebpf4jnsgd1na2vs0mg"},{"bike_id":"b6b92c35-f16a-4478-9f19-cf92cf98d7db","system_id":"levelo_inurba_marseille","lat":43.30775,"lon":5.37652,"is_reserved":false,"is_disabled":false,"rental_uris":{"android":"levelo://app?vid=b6b92c35-f16a-4478-9f19-cf92cf98d7db","ios":"levelo://app?vid=b6b92c35-f16a-4478-9f19-cf92cf98d7db"},"vehicle_type_id":"4","last_reported":1726848663,"current_range_meters":40000,"station_id":"ce4bgv92rcd13ifvqcq0","pricing_plan_id":"cebpf4jnsgd1na2vs0mg"},{"bike_id":"4fa0ca0d-342c-4cd6-990b-f5e4ae40db2b","system_id":"levelo_inurba_marseille","lat":43.29963,"lon":5.41325,"is_reserved":false,"is_disabled":false,"rental_uris":{"android":"levelo://app?vid=4fa0ca0d-342c-4cd6-990b-f5e4ae40db2b","ios":"levelo://app?vid=4fa0ca0d-342c-4cd6-990b-f5e4ae40db2b"},"vehicle_type_id":"4","last_reported":1726848663,"current_range_meters":36000,"station_id":"ce4bhp12rcd13ifvqh9g","pricing_plan_id":"cebpf4jnsgd1na2vs0mg"},{"bike_id":"6c5d5efe-c4e8-410a-94ea-b7182563cfba","system_id":"levelo_inurba_marseille","lat":43.318822,"lon":5.407329,"is_reserved":false,"is_disabled":false,"rental_uris":{"android":"levelo://app?vid=6c5d5efe-c4e8-410a-94ea-b7182563cfba","ios":"levelo://app?vid=6c5d5efe-c4e8-410a-94ea-b7182563cfba"},"vehicle_type_id":"4","last_reported":1726848663,"current_range_meters":10800,"station_id":"ce4bhq12rcd13ifvqhig","pricing_plan_id":"cebpf4jnsgd1na2vs0mg"},{"bike_id":"a03c3643-a843-40d4-8f14-70d245dd6c7c","system_id":"levelo_inurba_marseille","lat":43.27995,"lon":5.40007,"is_reserved":false,"is_disabled":false,"rental_uris":{"android":"levelo://app?vid=a03c3643-a843-40d4-8f14-70d245dd6c7c","ios":"levelo://app?vid=a03c3643-a843-40d4-8f14-70d245dd6c7c"},"vehicle_type_id":"4","last_reported":1726848663,"current_range_meters":17200,"station_id":"ce4bho92rcd13ifvqh4g","pricing_plan_id":"cebpf4jnsgd1na2vs0mg"},{"bike_id":"3b521565-9eae-4500-8230-b4825628c9c9","system_id":"levelo_inurba_marseille","lat":43.31993,"lon":5.38152,"is_reserved":false,"is_disabled":false,"rental_uris":{"android":"levelo://app?vid=3b521565-9eae-4500-8230-b4825628c9c9","ios":"levelo://app?vid=3b521565-9eae-4500-8230-b4825628c9c9"},"vehicle_type_id":"4","last_reported":1726848663,"current_range_meters":39200,"station_id":"ce4bhr12rcd13ifvqhpg","pricing_plan_id":"cebpf4jnsgd1na2vs0mg"},{"bike_id":"9224362d-d1eb-47f3-9a1e-b543a96fcfe9","system_id":"levelo_inurba_marseille","lat":43.28949,"lon":5.36397,"is_reserved":false,"is_disabled":false,"rental_uris":{"android":"levelo://app?vid=9224362d-d1eb-47f3-9a1e-b543a96fcfe9","ios":"levelo://app?vid=9224362d-d1eb-47f3-9a1e-b543a96fcfe9"},"vehicle_type_id":"4","last_reported":1726848663,"current_range_meters":30400,"station_id":"ce4bhc92rcd13ifvqetg","pricing_plan_id":"cebpf4jnsgd1na2vs0mg"},{"bike_id":"27333cbc-c719-4136-bd6e-92898c4ce881","system_id":"levelo_inurba_marseille","lat":43.301478,"lon":5.374243,"is_reserved":false,"is_disabled":false,"rental_uris":{"android":"levelo://app?vid=27333cbc-c719-4136-bd6e-92898c4ce881","ios":"levelo://app?vid=27333cbc-c719-4136-bd6e-92898c4ce881"},"vehicle_type_id":"4","last_reported":1726848663,"current_range_meters":38400,"station_id":"ce4bgs92rcd13ifvqcc0","pricing_plan_id":"cebpf4jnsgd1na2vs0mg"},{"bike_id":"5705acbc-d503-4f36-a9f5-13b5f18aa34d","system_id":"levelo_inurba_marseille","lat":43.23964,"lon":5.36616,"is_reserved":false,"is_disabled":false,"rental_uris":{"android":"levelo://app?vid=5705acbc-d503-4f36-a9f5-13b5f18aa34d","ios":"levelo://app?vid=5705acbc-d503-4f36-a9f5-13b5f18aa34d"},"vehicle_type_id":"4","last_reported":1726848663,"current_range_meters":35200,"station_id":"ce4bhi12rcd13ifvqfp0","pricing_plan_id":"cebpf4jnsgd1na2vs0mg"},{"bike_id":"8056aa53-c928-4d29-a223-1b6c6fd35978","system_id":"levelo_inurba_marseille","lat":43.31714,"lon":5.43694,"is_reserved":false,"is_disabled":false,"rental_uris":{"android":"levelo://app?vid=8056aa53-c928-4d29-a223-1b6c6fd35978","ios":"levelo://app?vid=8056aa53-c928-4d29-a223-1b6c6fd35978"},"vehicle_type_id":"4","last_reported":1726848663,"current_range_meters":12400,"station_id":"ce4bhp92rcd13ifvqhcg","pricing_plan_id":"cebpf4jnsgd1na2vs0mg"},{"bike_id":"7b9dd459-340b-4978-bfb0-6c163a5263e8","system_id":"levelo_inurba_marseille","lat":43.23191,"lon":5.35542,"is_reserved":false,"is_disabled":false,"rental_uris":{"android":"levelo://app?vid=7b9dd459-340b-4978-bfb0-6c163a5263e8","ios":"levelo://app?vid=7b9dd459-340b-4978-bfb0-6c163a5263e8"},"vehicle_type_id":"4","last_reported":1726848663,"current_range_meters":39200,"station_id":"ce4bhu92rcd13ifvqi70","pricing_plan_id":"cebpf4jnsgd1na2vs0mg"},{"bike_id":"76ddd6bb-7cea-4540-b9f0-1ed005133325","system_id":"levelo_inurba_marseille","lat":43.24999,"lon":5.38929,"is_reserved":false,"is_disabled":false,"rental_uris":{"android":"levelo://app?vid=76ddd6bb-7cea-4540-b9f0-1ed005133325","ios":"levelo://app?vid=76ddd6bb-7cea-4540-b9f0-1ed005133325"},"vehicle_type_id":"4","last_reported":1726848663,"current_range_meters":24400,"station_id":"ce4bhgp2rcd13ifvqfd0","pricing_plan_id":"cebpf4jnsgd1na2vs0mg"},{"bike_id":"1994ae29-88ef-4923-a87c-26bab23fe2c3","system_id":"levelo_inurba_marseille","lat":43.24664,"lon":5.38165,"is_reserved":false,"is_disabled":false,"rental_uris":{"android":"levelo://app?vid=1994ae29-88ef-4923-a87c-26bab23fe2c3","ios":"levelo://app?vid=1994ae29-88ef-4923-a87c-26bab23fe2c3"},"vehicle_type_id":"4","last_reported":1726848663,"current_range_meters":12800,"station_id":"ce4bhih2rcd13ifvqfr0","pricing_plan_id":"cebpf4jnsgd1na2vs0mg"},{"bike_id":"e9b8e590-3bc0-4c22-b946-0db314d5083d","system_id":"levelo_inurba_marseille","lat":43.25855,"lon":5.39903,"is_reserved":false,"is_disabled":false,"rental_uris":{"android":"levelo://app?vid=e9b8e590-3bc0-4c22-b946-0db314d5083d","ios":"levelo://app?vid=e9b8e590-3bc0-4c22-b946-0db314d5083d"},"vehicle_type_id":"4","last_reported":1726848663,"current_range_meters":6000,"station_id":"ce4bhl92rcd13ifvqghg","pricing_plan_id":"cebpf4jnsgd1na2vs0mg"},{"bike_id":"3740c6df-06cd-419b-9ae6-b8d9e5eff548","system_id":"levelo_inurba_marseille","lat":43.27538,"lon":5.4093,"is_reserved":false,"is_disabled":false,"rental_uris":{"android":"levelo://app?vid=3740c6df-06cd-419b-9ae6-b8d9e5eff548","ios":"levelo://app?vid=3740c6df-06cd-419b-9ae6-b8d9e5eff548"},"vehicle_type_id":"4","last_reported":1726848663,"current_range_meters":20800,"station_id":"","pricing_plan_id":"cebpf4jnsgd1na2vs0mg"},{"bike_id":"bbbc4f59-6187-4acb-9d25-bd3485437b32","system_id":"levelo_inurba_marseille","lat":43.290009,"lon":5.356045,"is_reserved":false,"is_disabled":false,"rental_uris":{"android":"levelo://app?vid=bbbc4f59-6187-4acb-9d25-bd3485437b32","ios":"levelo://app?vid=bbbc4f59-6187-4acb-9d25-bd3485437b32"},"vehicle_type_id":"4","last_reported":1726848663,"current_range_meters":4800,"station_id":"ce4bhb92rcd13ifvqen0","pricing_plan_id":"cebpf4jnsgd1na2vs0mg"},{"bike_id":"7e03ffce-214e-4760-84b4-f396d0f08157","system_id":"levelo_inurba_marseille","lat":43.293274,"lon":5.379387,"is_reserved":false,"is_disabled":false,"rental_uris":{"android":"levelo://app?vid=7e03ffce-214e-4760-84b4-f396d0f08157","ios":"levelo://app?vid=7e03ffce-214e-4760-84b4-f396d0f08157"},"vehicle_type_id":"4","last_reported":1726848663,"current_range_meters":7200,"station_id":"ce4bgjh2rcd13ifvqbf0","pricing_plan_id":"cebpf4jnsgd1na2vs0mg"},{"bike_id":"4fda4cab-1e87-4171-842e-d7eac6d843e4","system_id":"levelo_inurba_marseille","lat":43.28423,"lon":5.34988,"is_reserved":false,"is_disabled":false,"rental_uris":{"android":"levelo://app?vid=4fda4cab-1e87-4171-842e-d7eac6d843e4","ios":"levelo://app?vid=4fda4cab-1e87-4171-842e-d7eac6d843e4"},"vehicle_type_id":"4","last_reported":1726848663,"current_range_meters":36400,"station_id":"ce4bhbh2rcd13ifvqepg","pricing_plan_id":"cebpf4jnsgd1na2vs0mg"},{"bike_id":"d1aa10ef-e606-4c62-893c-fe3006772a50","system_id":"levelo_inurba_marseille","lat":43.27366,"lon":5.36247,"is_reserved":false,"is_disabled":false,"rental_uris":{"android":"levelo://app?vid=d1aa10ef-e606-4c62-893c-fe3006772a50","ios":"levelo://app?vid=d1aa10ef-e606-4c62-893c-fe3006772a50"},"vehicle_type_id":"4","last_reported":1726848663,"current_range_meters":35200,"station_id":"ce4bhbh2rcd13ifvqeo0","pricing_plan_id":"cebpf4jnsgd1na2vs0mg"},{"bike_id":"b31afb5c-119e-48fa-b73d-ee9be9487614","system_id":"levelo_inurba_marseille","lat":43.304376,"lon":5.388932,"is_reserved":false,"is_disabled":false,"rental_uris":{"android":"levelo://app?vid=b31afb5c-119e-48fa-b73d-ee9be9487614","ios":"levelo://app?vid=b31afb5c-119e-48fa-b73d-ee9be9487614"},"vehicle_type_id":"4","last_reported":1726848663,"current_range_meters":3600,"station_id":"ce4bgk12rcd13ifvqbi0","pricing_plan_id":"cebpf4jnsgd1na2vs0mg"},{"bike_id":"980daf17-3e1f-4451-9eb4-91d093984716","system_id":"levelo_inurba_marseille","lat":43.29571,"lon":5.39968,"is_reserved":false,"is_disabled":false,"rental_uris":{"android":"levelo://app?vid=980daf17-3e1f-4451-9eb4-91d093984716","ios":"levelo://app?vid=980daf17-3e1f-4451-9eb4-91d093984716"},"vehicle_type_id":"4","last_reported":1726848663,"current_range_meters":17200,"station_id":"ce4bh312rcd13ifvqdj0","pricing_plan_id":"cebpf4jnsgd1na2vs0mg"},{"bike_id":"c94946bf-811b-4a81-9c30-972efc4ff65c","system_id":"levelo_inurba_marseille","lat":43.278107,"lon":5.407124,"is_reserved":false,"is_disabled":false,"rental_uris":{"android":"levelo://app?vid=c94946bf-811b-4a81-9c30-972efc4ff65c","ios":"levelo://app?vid=c94946bf-811b-4a81-9c30-972efc4ff65c"},"vehicle_type_id":"4","last_reported":1726848663,"current_range_meters":2800,"station_id":"ce4bhnh2rcd13ifvqgtg","pricing_plan_id":"cebpf4jnsgd1na2vs0mg"},{"bike_id":"49b3cdf4-b341-458b-a40e-aa28524786ab","system_id":"levelo_inurba_marseille","lat":43.290283,"lon":5.356004,"is_reserved":false,"is_disabled":false,"rental_uris":{"android":"levelo://app?vid=49b3cdf4-b341-458b-a40e-aa28524786ab","ios":"levelo://app?vid=49b3cdf4-b341-458b-a40e-aa28524786ab"},"vehicle_type_id":"4","last_reported":1726848663,"current_range_meters":3200,"station_id":"ce4bhb92rcd13ifvqen0","pricing_plan_id":"cebpf4jnsgd1na2vs0mg"},{"bike_id":"3be7e612-869f-464b-b816-30948fa7ba99","system_id":"levelo_inurba_marseille","lat":43.24809,"lon":5.37456,"is_reserved":false,"is_disabled":false,"rental_uris":{"android":"levelo://app?vid=3be7e612-869f-464b-b816-30948fa7ba99","ios":"levelo://app?vid=3be7e612-869f-464b-b816-30948fa7ba99"},"vehicle_type_id":"4","last_reported":1726848663,"current_range_meters":38800,"station_id":"ce4bhgh2rcd13ifvqfb0","pricing_plan_id":"cebpf4jnsgd1na2vs0mg"},{"bike_id":"097af1c4-ccb6-4d08-a26d-a5d61034548f","system_id":"levelo_inurba_marseille","lat":43.28072,"lon":5.39651,"is_reserved":false,"is_disabled":false,"rental_uris":{"android":"levelo://app?vid=097af1c4-ccb6-4d08-a26d-a5d61034548f","ios":"levelo://app?vid=097af1c4-ccb6-4d08-a26d-a5d61034548f"},"vehicle_type_id":"4","last_reported":1726848663,"current_range_meters":11200,"station_id":"ce4bho12rcd13ifvqh2g","pricing_plan_id":"cebpf4jnsgd1na2vs0mg"},{"bike_id":"22107bf2-e319-4448-8894-d15f5c4ec80a","system_id":"levelo_inurba_marseille","lat":43.3089,"lon":5.37183,"is_reserved":false,"is_disabled":false,"rental_uris":{"android":"levelo://app?vid=22107bf2-e319-4448-8894-d15f5c4ec80a","ios":"levelo://app?vid=22107bf2-e319-4448-8894-d15f5c4ec80a"},"vehicle_type_id":"4","last_reported":1726848663,"current_range_meters":14000,"station_id":"ce4bguh2rcd13ifvqckg","pricing_plan_id":"cebpf4jnsgd1na2vs0mg"},{"bike_id":"9368a9a6-847c-45ac-875b-a7274130b6b9","system_id":"levelo_inurba_marseille","lat":43.31073,"lon":5.38353,"is_reserved":false,"is_disabled":false,"rental_uris":{"android":"levelo://app?vid=9368a9a6-847c-45ac-875b-a7274130b6b9","ios":"levelo://app?vid=9368a9a6-847c-45ac-875b-a7274130b6b9"},"vehicle_type_id":"4","last_reported":1726848663,"current_range_meters":35600,"station_id":"ce4bgv92rcd13ifvqcr0","pricing_plan_id":"cebpf4jnsgd1na2vs0mg"},{"bike_id":"144bb8d7-fb15-4844-9d2c-fba011c2e0de","system_id":"levelo_inurba_marseille","lat":43.27811,"lon":5.40708,"is_reserved":false,"is_disabled":false,"rental_uris":{"android":"levelo://app?vid=144bb8d7-fb15-4844-9d2c-fba011c2e0de","ios":"levelo://app?vid=144bb8d7-fb15-4844-9d2c-fba011c2e0de"},"vehicle_type_id":"4","last_reported":1726848663,"current_range_meters":21600,"station_id":"ce4bhnh2rcd13ifvqgtg","pricing_plan_id":"cebpf4jnsgd1na2vs0mg"},{"bike_id":"0e8a46d3-c897-4de7-87c2-de35c5974444","system_id":"levelo_inurba_marseille","lat":43.30602,"lon":5.3723,"is_reserved":false,"is_disabled":false,"rental_uris":{"android":"levelo://app?vid=0e8a46d3-c897-4de7-87c2-de35c5974444","ios":"levelo://app?vid=0e8a46d3-c897-4de7-87c2-de35c5974444"},"vehicle_type_id":"4","last_reported":1726848663,"current_range_meters":39200,"station_id":"ce4bgqh2rcd13ifvqc4g","pricing_plan_id":"cebpf4jnsgd1na2vs0mg"},{"bike_id":"09261a55-7dff-4fdb-b8d0-900669d9179c","system_id":"levelo_inurba_marseille","lat":43.28568,"lon":5.39491,"is_reserved":false,"is_disabled":false,"rental_uris":{"android":"levelo://app?vid=09261a55-7dff-4fdb-b8d0-900669d9179c","ios":"levelo://app?vid=09261a55-7dff-4fdb-b8d0-900669d9179c"},"vehicle_type_id":"4","last_reported":1726848663,"current_range_meters":10000,"station_id":"ce4bh292rcd13ifvqdg0","pricing_plan_id":"cebpf4jnsgd1na2vs0mg"},{"bike_id":"bdcec6f3-3241-4ca6-8a8a-6420b84ec757","system_id":"levelo_inurba_marseille","lat":43.27939,"lon":5.41045,"is_reserved":false,"is_disabled":false,"rental_uris":{"android":"levelo://app?vid=bdcec6f3-3241-4ca6-8a8a-6420b84ec757","ios":"levelo://app?vid=bdcec6f3-3241-4ca6-8a8a-6420b84ec757"},"vehicle_type_id":"4","last_reported":1726848663,"current_range_meters":35600,"station_id":"ce4bhnp2rcd13ifvqh0g","pricing_plan_id":"cebpf4jnsgd1na2vs0mg"},{"bike_id":"73510f97-993e-40d5-b44b-bd15841852c2","system_id":"levelo_inurba_marseille","lat":43.28428,"lon":5.34991,"is_reserved":false,"is_disabled":false,"rental_uris":{"android":"levelo://app?vid=73510f97-993e-40d5-b44b-bd15841852c2","ios":"levelo://app?vid=73510f97-993e-40d5-b44b-bd15841852c2"},"vehicle_type_id":"4","last_reported":1726848663,"current_range_meters":26800,"station_id":"ce4bhbh2rcd13ifvqepg","pricing_plan_id":"cebpf4jnsgd1na2vs0mg"},{"bike_id":"58d9630d-61df-498e-b8f4-400adcfce2ae","system_id":"levelo_inurba_marseille","lat":43.30251,"lon":5.40061,"is_reserved":false,"is_disabled":false,"rental_uris":{"android":"levelo://app?vid=58d9630d-61df-498e-b8f4-400adcfce2ae","ios":"levelo://app?vid=58d9630d-61df-498e-b8f4-400adcfce2ae"},"vehicle_type_id":"4","last_reported":1726848663,"current_range_meters":14000,"station_id":"ce4bgvh2rcd13ifvqcs0","pricing_plan_id":"cebpf4jnsgd1na2vs0mg"},{"bike_id":"5635431d-ac7a-4806-ab94-b1d1b4c73fdc","system_id":"levelo_inurba_marseille","lat":43.28035,"lon":5.36952,"is_reserved":false,"is_disabled":false,"rental_uris":{"android":"levelo://app?vid=5635431d-ac7a-4806-ab94-b1d1b4c73fdc","ios":"levelo://app?vid=5635431d-ac7a-4806-ab94-b1d1b4c73fdc"},"vehicle_type_id":"4","last_reported":1726848663,"current_range_meters":20800,"station_id":"ce4bha12rcd13ifvqef0","pricing_plan_id":"cebpf4jnsgd1na2vs0mg"},{"bike_id":"88adbf70-f006-4b7d-9b1b-3e3aeb339bac","system_id":"levelo_inurba_marseille","lat":43.31176,"lon":5.38712,"is_reserved":false,"is_disabled":false,"rental_uris":{"android":"levelo://app?vid=88adbf70-f006-4b7d-9b1b-3e3aeb339bac","ios":"levelo://app?vid=88adbf70-f006-4b7d-9b1b-3e3aeb339bac"},"vehicle_type_id":"4","last_reported":1726848663,"current_range_meters":9600,"station_id":"ce4bgv12rcd13ifvqcp0","pricing_plan_id":"cebpf4jnsgd1na2vs0mg"},{"bike_id":"679420e1-e5d5-4b33-abb3-d9b9f1db75a0","system_id":"levelo_inurba_marseille","lat":43.29877,"lon":5.39741,"is_reserved":false,"is_disabled":false,"rental_uris":{"android":"levelo://app?vid=679420e1-e5d5-4b33-abb3-d9b9f1db75a0","ios":"levelo://app?vid=679420e1-e5d5-4b33-abb3-d9b9f1db75a0"},"vehicle_type_id":"4","last_reported":1726848663,"current_range_meters":20800,"station_id":"ce4bh0h2rcd13ifvqd50","pricing_plan_id":"cebpf4jnsgd1na2vs0mg"},{"bike_id":"4f6cd953-65f5-4d4f-a052-70118d864e1d","system_id":"levelo_inurba_marseille","lat":43.29893,"lon":5.43669,"is_reserved":false,"is_disabled":false,"rental_uris":{"android":"levelo://app?vid=4f6cd953-65f5-4d4f-a052-70118d864e1d","ios":"levelo://app?vid=4f6cd953-65f5-4d4f-a052-70118d864e1d"},"vehicle_type_id":"4","last_reported":1726848663,"current_range_meters":12800,"station_id":"ce4bhpp2rcd13ifvqhfg","pricing_plan_id":"cebpf4jnsgd1na2vs0mg"},{"bike_id":"5bbca399-332a-48b9-860a-e1d3de395f86","system_id":"levelo_inurba_marseille","lat":43.30186,"lon":5.36621,"is_reserved":false,"is_disabled":false,"rental_uris":{"android":"levelo://app?vid=5bbca399-332a-48b9-860a-e1d3de395f86","ios":"levelo://app?vid=5bbca399-332a-48b9-860a-e1d3de395f86"},"vehicle_type_id":"4","last_reported":1726848663,"current_range_meters":18000,"station_id":"ce4bgrh2rcd13ifvqc8g","pricing_plan_id":"cebpf4jnsgd1na2vs0mg"},{"bike_id":"7dcb1b86-d747-4fde-97a9-e2759f3f4945","system_id":"levelo_inurba_marseille","lat":43.24815,"lon":5.37463,"is_reserved":false,"is_disabled":false,"rental_uris":{"android":"levelo://app?vid=7dcb1b86-d747-4fde-97a9-e2759f3f4945","ios":"levelo://app?vid=7dcb1b86-d747-4fde-97a9-e2759f3f4945"},"vehicle_type_id":"4","last_reported":1726848663,"current_range_meters":12000,"station_id":"ce4bhgh2rcd13ifvqfb0","pricing_plan_id":"cebpf4jnsgd1na2vs0mg"},{"bike_id":"78695a6e-a569-4abe-a2ed-cdba89f8af4f","system_id":"levelo_inurba_marseille","lat":43.261902,"lon":5.37446,"is_reserved":false,"is_disabled":false,"rental_uris":{"android":"levelo://app?vid=78695a6e-a569-4abe-a2ed-cdba89f8af4f","ios":"levelo://app?vid=78695a6e-a569-4abe-a2ed-cdba89f8af4f"},"vehicle_type_id":"4","last_reported":1726848663,"current_range_meters":34800,"station_id":"ce4bhgp2rcd13ifvqfc0","pricing_plan_id":"cebpf4jnsgd1na2vs0mg"},{"bike_id":"404f356b-fd3a-448f-bd89-df4fa0186cfb","system_id":"levelo_inurba_marseille","lat":43.31982,"lon":5.38143,"is_reserved":false,"is_disabled":false,"rental_uris":{"android":"levelo://app?vid=404f356b-fd3a-448f-bd89-df4fa0186cfb","ios":"levelo://app?vid=404f356b-fd3a-448f-bd89-df4fa0186cfb"},"vehicle_type_id":"4","last_reported":1726848663,"current_range_meters":39200,"station_id":"ce4bhr12rcd13ifvqhpg","pricing_plan_id":"cebpf4jnsgd1na2vs0mg"},{"bike_id":"779292d9-8b8d-4544-81a0-5bd5a831e019","system_id":"levelo_inurba_marseille","lat":43.30887,"lon":5.39656,"is_reserved":false,"is_disabled":false,"rental_uris":{"android":"levelo://app?vid=779292d9-8b8d-4544-81a0-5bd5a831e019","ios":"levelo://app?vid=779292d9-8b8d-4544-81a0-5bd5a831e019"},"vehicle_type_id":"4","last_reported":1726848663,"current_range_meters":30800,"station_id":"ce4bh012rcd13ifvqcv0","pricing_plan_id":"cebpf4jnsgd1na2vs0mg"},{"bike_id":"58014cc6-4f39-4119-a8a0-cdc0e2507820","system_id":"levelo_inurba_marseille","lat":43.32288,"lon":5.38274,"is_reserved":false,"is_disabled":false,"rental_uris":{"android":"levelo://app?vid=58014cc6-4f39-4119-a8a0-cdc0e2507820","ios":"levelo://app?vid=58014cc6-4f39-4119-a8a0-cdc0e2507820"},"vehicle_type_id":"4","last_reported":1726848663,"current_range_meters":40000,"station_id":"ce4bhr12rcd13ifvqhqg","pricing_plan_id":"cebpf4jnsgd1na2vs0mg"},{"bike_id":"b878f081-3676-47e5-ae8f-82bdb739ba63","system_id":"levelo_inurba_marseille","lat":43.28941,"lon":5.3963,"is_reserved":false,"is_disabled":false,"rental_uris":{"android":"levelo://app?vid=b878f081-3676-47e5-ae8f-82bdb739ba63","ios":"levelo://app?vid=b878f081-3676-47e5-ae8f-82bdb739ba63"},"vehicle_type_id":"4","last_reported":1726848663,"current_range_meters":39200,"station_id":"ce4bh3h2rcd13ifvqdn0","pricing_plan_id":"cebpf4jnsgd1na2vs0mg"},{"bike_id":"741016d5-0e91-44ec-861e-cc59a9a3c87b","system_id":"levelo_inurba_marseille","lat":43.3153,"lon":5.38037,"is_reserved":false,"is_disabled":false,"rental_uris":{"android":"levelo://app?vid=741016d5-0e91-44ec-861e-cc59a9a3c87b","ios":"levelo://app?vid=741016d5-0e91-44ec-861e-cc59a9a3c87b"},"vehicle_type_id":"4","last_reported":1726848663,"current_range_meters":34800,"station_id":"ce4bhsp2rcd13ifvqi50","pricing_plan_id":"cebpf4jnsgd1na2vs0mg"},{"bike_id":"bce83964-771d-421d-a795-c2b376c5b9dc","system_id":"levelo_inurba_marseille","lat":43.23194,"lon":5.35558,"is_reserved":false,"is_disabled":false,"rental_uris":{"android":"levelo://app?vid=bce83964-771d-421d-a795-c2b376c5b9dc","ios":"levelo://app?vid=bce83964-771d-421d-a795-c2b376c5b9dc"},"vehicle_type_id":"4","last_reported":1726848663,"current_range_meters":18800,"station_id":"ce4bhu92rcd13ifvqi70","pricing_plan_id":"cebpf4jnsgd1na2vs0mg"},{"bike_id":"08e40e6f-d360-4c12-bfad-71d1d9c3ea66","system_id":"levelo_inurba_marseille","lat":43.30934,"lon":5.40142,"is_reserved":false,"is_disabled":false,"rental_uris":{"android":"levelo://app?vid=08e40e6f-d360-4c12-bfad-71d1d9c3ea66","ios":"levelo://app?vid=08e40e6f-d360-4c12-bfad-71d1d9c3ea66"},"vehicle_type_id":"4","last_reported":1726848663,"current_range_meters":0,"station_id":"ce4bgvp2rcd13ifvqct0","pricing_plan_id":"cebpf4jnsgd1na2vs0mg"},{"bike_id":"d172236c-f6ee-4500-9327-0849b4ffea55","system_id":"levelo_inurba_marseille","lat":43.29418,"lon":5.38609,"is_reserved":false,"is_disabled":false,"rental_uris":{"android":"levelo://app?vid=d172236c-f6ee-4500-9327-0849b4ffea55","ios":"levelo://app?vid=d172236c-f6ee-4500-9327-0849b4ffea55"},"vehicle_type_id":"4","last_reported":1726848663,"current_range_meters":7200,"station_id":"ce4bh2h2rcd13ifvqdh0","pricing_plan_id":"cebpf4jnsgd1na2vs0mg"},{"bike_id":"5c4bffed-0019-4b39-a45e-d1fccf257ffb","system_id":"levelo_inurba_marseille","lat":43.31327,"lon":5.39698,"is_reserved":false,"is_disabled":false,"rental_uris":{"android":"levelo://app?vid=5c4bffed-0019-4b39-a45e-d1fccf257ffb","ios":"levelo://app?vid=5c4bffed-0019-4b39-a45e-d1fccf257ffb"},"vehicle_type_id":"4","last_reported":1726848663,"current_range_meters":30800,"station_id":"ce4bgvp2rcd13ifvqcu0","pricing_plan_id":"cebpf4jnsgd1na2vs0mg"},{"bike_id":"c84450f4-852e-4f76-afaf-f8036e08b849","system_id":"levelo_inurba_marseille","lat":43.29935,"lon":5.36556,"is_reserved":false,"is_disabled":false,"rental_uris":{"android":"levelo://app?vid=c84450f4-852e-4f76-afaf-f8036e08b849","ios":"levelo://app?vid=c84450f4-852e-4f76-afaf-f8036e08b849"},"vehicle_type_id":"4","last_reported":1726848663,"current_range_meters":24000,"station_id":"ce4bgm92rcd13ifvqbr0","pricing_plan_id":"cebpf4jnsgd1na2vs0mg"},{"bike_id":"2718691f-677b-497e-85f1-cbd0cdb0b568","system_id":"levelo_inurba_marseille","lat":43.31328,"lon":5.39695,"is_reserved":false,"is_disabled":false,"rental_uris":{"android":"levelo://app?vid=2718691f-677b-497e-85f1-cbd0cdb0b568","ios":"levelo://app?vid=2718691f-677b-497e-85f1-cbd0cdb0b568"},"vehicle_type_id":"4","last_reported":1726848663,"current_range_meters":24800,"station_id":"ce4bgvp2rcd13ifvqcu0","pricing_plan_id":"cebpf4jnsgd1na2vs0mg"},{"bike_id":"e186148d-5a6d-4e86-9210-67558c73fc77","system_id":"levelo_inurba_marseille","lat":43.32363,"lon":5.38882,"is_reserved":false,"is_disabled":false,"rental_uris":{"android":"levelo://app?vid=e186148d-5a6d-4e86-9210-67558c73fc77","ios":"levelo://app?vid=e186148d-5a6d-4e86-9210-67558c73fc77"},"vehicle_type_id":"4","last_reported":1726848663,"current_range_meters":38800,"station_id":"ce4bhqp2rcd13ifvqhog","pricing_plan_id":"cebpf4jnsgd1na2vs0mg"},{"bike_id":"72a65385-bba8-48c4-b297-b93a02006969","system_id":"levelo_inurba_marseille","lat":43.25428,"lon":5.41294,"is_reserved":false,"is_disabled":false,"rental_uris":{"android":"levelo://app?vid=72a65385-bba8-48c4-b297-b93a02006969","ios":"levelo://app?vid=72a65385-bba8-48c4-b297-b93a02006969"},"vehicle_type_id":"4","last_reported":1726848663,"current_range_meters":12800,"station_id":"","pricing_plan_id":"cebpf4jnsgd1na2vs0mg"},{"bike_id":"58029bbd-f39b-465d-b9fe-8efc623f24ea","system_id":"levelo_inurba_marseille","lat":43.31069,"lon":5.38359,"is_reserved":false,"is_disabled":false,"rental_uris":{"android":"levelo://app?vid=58029bbd-f39b-465d-b9fe-8efc623f24ea","ios":"levelo://app?vid=58029bbd-f39b-465d-b9fe-8efc623f24ea"},"vehicle_type_id":"4","last_reported":1726848663,"current_range_meters":16000,"station_id":"ce4bgv92rcd13ifvqcr0","pricing_plan_id":"cebpf4jnsgd1na2vs0mg"},{"bike_id":"cc7319a7-e3a5-4272-a760-924a2dc535ef","system_id":"levelo_inurba_marseille","lat":43.30785,"lon":5.37655,"is_reserved":false,"is_disabled":false,"rental_uris":{"android":"levelo://app?vid=cc7319a7-e3a5-4272-a760-924a2dc535ef","ios":"levelo://app?vid=cc7319a7-e3a5-4272-a760-924a2dc535ef"},"vehicle_type_id":"4","last_reported":1726848663,"current_range_meters":40000,"station_id":"ce4bgv92rcd13ifvqcq0","pricing_plan_id":"cebpf4jnsgd1na2vs0mg"},{"bike_id":"5fd696fc-9eb8-4c93-b1b2-ac819a662521","system_id":"levelo_inurba_marseille","lat":43.24995,"lon":5.38936,"is_reserved":false,"is_disabled":false,"rental_uris":{"android":"levelo://app?vid=5fd696fc-9eb8-4c93-b1b2-ac819a662521","ios":"levelo://app?vid=5fd696fc-9eb8-4c93-b1b2-ac819a662521"},"vehicle_type_id":"4","last_reported":1726848663,"current_range_meters":8800,"station_id":"ce4bhgp2rcd13ifvqfd0","pricing_plan_id":"cebpf4jnsgd1na2vs0mg"},{"bike_id":"d259b605-348b-48df-9800-4515845c6c07","system_id":"levelo_inurba_marseille","lat":43.29219,"lon":5.36072,"is_reserved":false,"is_disabled":false,"rental_uris":{"android":"levelo://app?vid=d259b605-348b-48df-9800-4515845c6c07","ios":"levelo://app?vid=d259b605-348b-48df-9800-4515845c6c07"},"vehicle_type_id":"4","last_reported":1726848663,"current_range_meters":30000,"station_id":"ce4bhbh2rcd13ifvqeqg","pricing_plan_id":"cebpf4jnsgd1na2vs0mg"},{"bike_id":"c806e55f-9a5b-4c90-b688-72828ccbca8d","system_id":"levelo_inurba_marseille","lat":43.24649,"lon":5.38889,"is_reserved":false,"is_disabled":false,"rental_uris":{"android":"levelo://app?vid=c806e55f-9a5b-4c90-b688-72828ccbca8d","ios":"levelo://app?vid=c806e55f-9a5b-4c90-b688-72828ccbca8d"},"vehicle_type_id":"4","last_reported":1726848663,"current_range_meters":28000,"station_id":"ce4bhg12rcd13ifvqf60","pricing_plan_id":"cebpf4jnsgd1na2vs0mg"},{"bike_id":"fa2e946d-01fe-4bb4-a2b0-55af60a0bcec","system_id":"levelo_inurba_marseille","lat":43.33715,"lon":5.39181,"is_reserved":false,"is_disabled":false,"rental_uris":{"android":"levelo://app?vid=fa2e946d-01fe-4bb4-a2b0-55af60a0bcec","ios":"levelo://app?vid=fa2e946d-01fe-4bb4-a2b0-55af60a0bcec"},"vehicle_type_id":"4","last_reported":1726848663,"current_range_meters":36000,"station_id":"ce4bhr92rcd13ifvqhsg","pricing_plan_id":"cebpf4jnsgd1na2vs0mg"},{"bike_id":"3126cddd-59c0-495f-a7f4-d2d01cfc1ec4","system_id":"levelo_inurba_marseille","lat":43.285522,"lon":5.384079,"is_reserved":false,"is_disabled":false,"rental_uris":{"android":"levelo://app?vid=3126cddd-59c0-495f-a7f4-d2d01cfc1ec4","ios":"levelo://app?vid=3126cddd-59c0-495f-a7f4-d2d01cfc1ec4"},"vehicle_type_id":"4","last_reported":1726848663,"current_range_meters":16000,"station_id":"ce4bgjh2rcd13ifvqbf0","pricing_plan_id":"cebpf4jnsgd1na2vs0mg"},{"bike_id":"447c5b1a-14d7-4c83-93d2-babd11e0d4aa","system_id":"levelo_inurba_marseille","lat":43.29042,"lon":5.35923,"is_reserved":false,"is_disabled":false,"rental_uris":{"android":"levelo://app?vid=447c5b1a-14d7-4c83-93d2-babd11e0d4aa","ios":"levelo://app?vid=447c5b1a-14d7-4c83-93d2-babd11e0d4aa"},"vehicle_type_id":"4","last_reported":1726848663,"current_range_meters":4000,"station_id":"ce4bha92rcd13ifvqeg0","pricing_plan_id":"cebpf4jnsgd1na2vs0mg"},{"bike_id":"47ba5d81-4f1e-4672-8fae-e808f171faaa","system_id":"levelo_inurba_marseille","lat":43.33028,"lon":5.39039,"is_reserved":false,"is_disabled":false,"rental_uris":{"android":"levelo://app?vid=47ba5d81-4f1e-4672-8fae-e808f171faaa","ios":"levelo://app?vid=47ba5d81-4f1e-4672-8fae-e808f171faaa"},"vehicle_type_id":"4","last_reported":1726848663,"current_range_meters":38800,"station_id":"ce4bhr92rcd13ifvqhrg","pricing_plan_id":"cebpf4jnsgd1na2vs0mg"},{"bike_id":"4e1f9844-542a-4e41-8660-9fe15475883a","system_id":"levelo_inurba_marseille","lat":43.32365,"lon":5.38887,"is_reserved":false,"is_disabled":false,"rental_uris":{"android":"levelo://app?vid=4e1f9844-542a-4e41-8660-9fe15475883a","ios":"levelo://app?vid=4e1f9844-542a-4e41-8660-9fe15475883a"},"vehicle_type_id":"4","last_reported":1726848663,"current_range_meters":29600,"station_id":"ce4bhqp2rcd13ifvqhog","pricing_plan_id":"cebpf4jnsgd1na2vs0mg"},{"bike_id":"d375ee1a-5a86-4655-aac5-0f500493af9b","system_id":"levelo_inurba_marseille","lat":43.294174,"lon":5.386277,"is_reserved":false,"is_disabled":false,"rental_uris":{"android":"levelo://app?vid=d375ee1a-5a86-4655-aac5-0f500493af9b","ios":"levelo://app?vid=d375ee1a-5a86-4655-aac5-0f500493af9b"},"vehicle_type_id":"4","last_reported":1726848663,"current_range_meters":2800,"station_id":"ce4bh2h2rcd13ifvqdh0","pricing_plan_id":"cebpf4jnsgd1na2vs0mg"},{"bike_id":"1c2cce06-887b-4d78-85ec-80fd3ecaf55f","system_id":"levelo_inurba_marseille","lat":43.31329,"lon":5.3969,"is_reserved":false,"is_disabled":false,"rental_uris":{"android":"levelo://app?vid=1c2cce06-887b-4d78-85ec-80fd3ecaf55f","ios":"levelo://app?vid=1c2cce06-887b-4d78-85ec-80fd3ecaf55f"},"vehicle_type_id":"4","last_reported":1726848663,"current_range_meters":32400,"station_id":"ce4bgvp2rcd13ifvqcu0","pricing_plan_id":"cebpf4jnsgd1na2vs0mg"},{"bike_id":"6ffaccd1-4e9f-428f-8b38-aaed51eeba98","system_id":"levelo_inurba_marseille","lat":43.321378,"lon":5.414409,"is_reserved":false,"is_disabled":false,"rental_uris":{"android":"levelo://app?vid=6ffaccd1-4e9f-428f-8b38-aaed51eeba98","ios":"levelo://app?vid=6ffaccd1-4e9f-428f-8b38-aaed51eeba98"},"vehicle_type_id":"4","last_reported":1726848663,"current_range_meters":2800,"station_id":"ce4bhq92rcd13ifvqhkg","pricing_plan_id":"cebpf4jnsgd1na2vs0mg"},{"bike_id":"f92eb4b4-7076-4540-8a2d-dcfbf9f82ae0","system_id":"levelo_inurba_marseille","lat":43.29572,"lon":5.39975,"is_reserved":false,"is_disabled":false,"rental_uris":{"android":"levelo://app?vid=f92eb4b4-7076-4540-8a2d-dcfbf9f82ae0","ios":"levelo://app?vid=f92eb4b4-7076-4540-8a2d-dcfbf9f82ae0"},"vehicle_type_id":"4","last_reported":1726848663,"current_range_meters":12800,"station_id":"ce4bh312rcd13ifvqdj0","pricing_plan_id":"cebpf4jnsgd1na2vs0mg"},{"bike_id":"c5b7f5eb-1ac8-4e99-89e7-c7f435de4b65","system_id":"levelo_inurba_marseille","lat":43.30303,"lon":5.3922,"is_reserved":false,"is_disabled":false,"rental_uris":{"android":"levelo://app?vid=c5b7f5eb-1ac8-4e99-89e7-c7f435de4b65","ios":"levelo://app?vid=c5b7f5eb-1ac8-4e99-89e7-c7f435de4b65"},"vehicle_type_id":"4","last_reported":1726848663,"current_range_meters":24800,"station_id":"ce4bgkh2rcd13ifvqbk0","pricing_plan_id":"cebpf4jnsgd1na2vs0mg"},{"bike_id":"aa29200f-5d7f-4d1e-a8b2-98561eb30973","system_id":"levelo_inurba_marseille","lat":43.31712,"lon":5.43706,"is_reserved":false,"is_disabled":false,"rental_uris":{"android":"levelo://app?vid=aa29200f-5d7f-4d1e-a8b2-98561eb30973","ios":"levelo://app?vid=aa29200f-5d7f-4d1e-a8b2-98561eb30973"},"vehicle_type_id":"4","last_reported":1726848663,"current_range_meters":30400,"station_id":"ce4bhp92rcd13ifvqhcg","pricing_plan_id":"cebpf4jnsgd1na2vs0mg"},{"bike_id":"faf36cd9-2bff-4685-8fb9-ab4ff9c35eba","system_id":"levelo_inurba_marseille","lat":43.31167,"lon":5.3871,"is_reserved":false,"is_disabled":false,"rental_uris":{"android":"levelo://app?vid=faf36cd9-2bff-4685-8fb9-ab4ff9c35eba","ios":"levelo://app?vid=faf36cd9-2bff-4685-8fb9-ab4ff9c35eba"},"vehicle_type_id":"4","last_reported":1726848663,"current_range_meters":19200,"station_id":"ce4bgv12rcd13ifvqcp0","pricing_plan_id":"cebpf4jnsgd1na2vs0mg"},{"bike_id":"fa690805-233a-4a70-a9f3-33f1b67cdb1f","system_id":"levelo_inurba_marseille","lat":43.32284,"lon":5.3826,"is_reserved":false,"is_disabled":false,"rental_uris":{"android":"levelo://app?vid=fa690805-233a-4a70-a9f3-33f1b67cdb1f","ios":"levelo://app?vid=fa690805-233a-4a70-a9f3-33f1b67cdb1f"},"vehicle_type_id":"4","last_reported":1726848663,"current_range_meters":17200,"station_id":"ce4bhr12rcd13ifvqhqg","pricing_plan_id":"cebpf4jnsgd1na2vs0mg"},{"bike_id":"6e86b2af-1197-42e4-a51c-da60947081a9","system_id":"levelo_inurba_marseille","lat":43.28935,"lon":5.3664,"is_reserved":false,"is_disabled":false,"rental_uris":{"android":"levelo://app?vid=6e86b2af-1197-42e4-a51c-da60947081a9","ios":"levelo://app?vid=6e86b2af-1197-42e4-a51c-da60947081a9"},"vehicle_type_id":"4","last_reported":1726848663,"current_range_meters":17600,"station_id":"ce4bhap2rcd13ifvqek0","pricing_plan_id":"cebpf4jnsgd1na2vs0mg"},{"bike_id":"74c4797f-d4f5-40cb-b93b-7c39426cd71e","system_id":"levelo_inurba_marseille","lat":43.29848,"lon":5.36295,"is_reserved":false,"is_disabled":false,"rental_uris":{"android":"levelo://app?vid=74c4797f-d4f5-40cb-b93b-7c39426cd71e","ios":"levelo://app?vid=74c4797f-d4f5-40cb-b93b-7c39426cd71e"},"vehicle_type_id":"4","last_reported":1726848663,"current_range_meters":33600,"station_id":"ce4bgpp2rcd13ifvqc3g","pricing_plan_id":"cebpf4jnsgd1na2vs0mg"},{"bike_id":"b2763354-ec6c-4733-8de6-6c4493759ae9","system_id":"levelo_inurba_marseille","lat":43.29074,"lon":5.4019,"is_reserved":false,"is_disabled":false,"rental_uris":{"android":"levelo://app?vid=b2763354-ec6c-4733-8de6-6c4493759ae9","ios":"levelo://app?vid=b2763354-ec6c-4733-8de6-6c4493759ae9"},"vehicle_type_id":"4","last_reported":1726848663,"current_range_meters":19600,"station_id":"","pricing_plan_id":"cebpf4jnsgd1na2vs0mg"},{"bike_id":"e3c019e3-15f9-4909-8f78-17a7eb7f962b","system_id":"levelo_inurba_marseille","lat":43.30772,"lon":5.37649,"is_reserved":false,"is_disabled":false,"rental_uris":{"android":"levelo://app?vid=e3c019e3-15f9-4909-8f78-17a7eb7f962b","ios":"levelo://app?vid=e3c019e3-15f9-4909-8f78-17a7eb7f962b"},"vehicle_type_id":"4","last_reported":1726848663,"current_range_meters":39200,"station_id":"ce4bgv92rcd13ifvqcq0","pricing_plan_id":"cebpf4jnsgd1na2vs0mg"},{"bike_id":"fe780c9c-7e13-4b38-81ce-ea43f071d76c","system_id":"levelo_inurba_marseille","lat":43.23066,"lon":5.35497,"is_reserved":false,"is_disabled":false,"rental_uris":{"android":"levelo://app?vid=fe780c9c-7e13-4b38-81ce-ea43f071d76c","ios":"levelo://app?vid=fe780c9c-7e13-4b38-81ce-ea43f071d76c"},"vehicle_type_id":"4","last_reported":1726848663,"current_range_meters":29600,"station_id":"cpo3342slgdg3j2ifvpg","pricing_plan_id":"cebpf4jnsgd1na2vs0mg"},{"bike_id":"5a5c8283-19a6-4b83-a575-ea095fe55b4c","system_id":"levelo_inurba_marseille","lat":43.24075,"lon":5.3775,"is_reserved":false,"is_disabled":false,"rental_uris":{"android":"levelo://app?vid=5a5c8283-19a6-4b83-a575-ea095fe55b4c","ios":"levelo://app?vid=5a5c8283-19a6-4b83-a575-ea095fe55b4c"},"vehicle_type_id":"4","last_reported":1726848663,"current_range_meters":37600,"station_id":"ce4bhnp2rcd13ifvqgvg","pricing_plan_id":"cebpf4jnsgd1na2vs0mg"},{"bike_id":"0653cb10-c12e-4c27-af75-8f3495a98f89","system_id":"levelo_inurba_marseille","lat":43.32288,"lon":5.38272,"is_reserved":false,"is_disabled":false,"rental_uris":{"android":"levelo://app?vid=0653cb10-c12e-4c27-af75-8f3495a98f89","ios":"levelo://app?vid=0653cb10-c12e-4c27-af75-8f3495a98f89"},"vehicle_type_id":"4","last_reported":1726848663,"current_range_meters":39200,"station_id":"ce4bhr12rcd13ifvqhqg","pricing_plan_id":"cebpf4jnsgd1na2vs0mg"},{"bike_id":"822d1f83-207a-4fa2-a44c-4f93b0f264a7","system_id":"levelo_inurba_marseille","lat":43.309489,"lon":5.390332,"is_reserved":false,"is_disabled":false,"rental_uris":{"android":"levelo://app?vid=822d1f83-207a-4fa2-a44c-4f93b0f264a7","ios":"levelo://app?vid=822d1f83-207a-4fa2-a44c-4f93b0f264a7"},"vehicle_type_id":"4","last_reported":1726848663,"current_range_meters":14000,"station_id":"ce4bgup2rcd13ifvqcn0","pricing_plan_id":"cebpf4jnsgd1na2vs0mg"},{"bike_id":"4b3b1f45-75e0-4451-a250-b842d0a97419","system_id":"levelo_inurba_marseille","lat":43.30243,"lon":5.40066,"is_reserved":false,"is_disabled":false,"rental_uris":{"android":"levelo://app?vid=4b3b1f45-75e0-4451-a250-b842d0a97419","ios":"levelo://app?vid=4b3b1f45-75e0-4451-a250-b842d0a97419"},"vehicle_type_id":"4","last_reported":1726848663,"current_range_meters":22400,"station_id":"ce4bgvh2rcd13ifvqcs0","pricing_plan_id":"cebpf4jnsgd1na2vs0mg"},{"bike_id":"667dcb1e-82c9-4808-af86-f738f1852fe5","system_id":"levelo_inurba_marseille","lat":43.32469,"lon":5.36576,"is_reserved":false,"is_disabled":false,"rental_uris":{"android":"levelo://app?vid=667dcb1e-82c9-4808-af86-f738f1852fe5","ios":"levelo://app?vid=667dcb1e-82c9-4808-af86-f738f1852fe5"},"vehicle_type_id":"4","last_reported":1726848663,"current_range_meters":31200,"station_id":"ce4bhs12rcd13ifvqhvg","pricing_plan_id":"cebpf4jnsgd1na2vs0mg"},{"bike_id":"c2c9a555-6ec8-4b92-b33e-073571605c93","system_id":"levelo_inurba_marseille","lat":43.23191,"lon":5.35551,"is_reserved":false,"is_disabled":false,"rental_uris":{"android":"levelo://app?vid=c2c9a555-6ec8-4b92-b33e-073571605c93","ios":"levelo://app?vid=c2c9a555-6ec8-4b92-b33e-073571605c93"},"vehicle_type_id":"4","last_reported":1726848663,"current_range_meters":26800,"station_id":"ce4bhu92rcd13ifvqi70","pricing_plan_id":"cebpf4jnsgd1na2vs0mg"},{"bike_id":"a4968a3c-c23d-4666-8636-74d216e63fc2","system_id":"levelo_inurba_marseille","lat":43.29035,"lon":5.37566,"is_reserved":false,"is_disabled":false,"rental_uris":{"android":"levelo://app?vid=a4968a3c-c23d-4666-8636-74d216e63fc2","ios":"levelo://app?vid=a4968a3c-c23d-4666-8636-74d216e63fc2"},"vehicle_type_id":"4","last_reported":1726848663,"current_range_meters":22400,"station_id":"ce4bh692rcd13ifvqe90","pricing_plan_id":"cebpf4jnsgd1na2vs0mg"},{"bike_id":"bf195be3-33a9-4aa5-98ed-1cfd743261ae","system_id":"levelo_inurba_marseille","lat":43.28271,"lon":5.35067,"is_reserved":false,"is_disabled":false,"rental_uris":{"android":"levelo://app?vid=bf195be3-33a9-4aa5-98ed-1cfd743261ae","ios":"levelo://app?vid=bf195be3-33a9-4aa5-98ed-1cfd743261ae"},"vehicle_type_id":"4","last_reported":1726848663,"current_range_meters":3200,"station_id":"ce4bhbp2rcd13ifvqerg","pricing_plan_id":"cebpf4jnsgd1na2vs0mg"},{"bike_id":"2af00515-738b-4dda-ae5b-50f971d8ffe0","system_id":"levelo_inurba_marseille","lat":43.28091,"lon":5.39673,"is_reserved":false,"is_disabled":false,"rental_uris":{"android":"levelo://app?vid=2af00515-738b-4dda-ae5b-50f971d8ffe0","ios":"levelo://app?vid=2af00515-738b-4dda-ae5b-50f971d8ffe0"},"vehicle_type_id":"4","last_reported":1726848663,"current_range_meters":31200,"station_id":"ce4bho12rcd13ifvqh2g","pricing_plan_id":"cebpf4jnsgd1na2vs0mg"},{"bike_id":"3ea8f54f-9145-4e7d-b8dd-375864b1fadc","system_id":"levelo_inurba_marseille","lat":43.31994,"lon":5.37204,"is_reserved":false,"is_disabled":false,"rental_uris":{"android":"levelo://app?vid=3ea8f54f-9145-4e7d-b8dd-375864b1fadc","ios":"levelo://app?vid=3ea8f54f-9145-4e7d-b8dd-375864b1fadc"},"vehicle_type_id":"4","last_reported":1726848663,"current_range_meters":12800,"station_id":"","pricing_plan_id":"cebpf4jnsgd1na2vs0mg"},{"bike_id":"f1ccc50c-8863-48c8-847a-6bad1befd32c","system_id":"levelo_inurba_marseille","lat":43.31687,"lon":5.3774,"is_reserved":false,"is_disabled":false,"rental_uris":{"android":"levelo://app?vid=f1ccc50c-8863-48c8-847a-6bad1befd32c","ios":"levelo://app?vid=f1ccc50c-8863-48c8-847a-6bad1befd32c"},"vehicle_type_id":"4","last_reported":1726848663,"current_range_meters":36800,"station_id":"ce4bgth2rcd13ifvqch0","pricing_plan_id":"cebpf4jnsgd1na2vs0mg"},{"bike_id":"c7f020f7-8d40-49a1-a7c8-88ac5d41f99f","system_id":"levelo_inurba_marseille","lat":43.27944,"lon":5.4105,"is_reserved":false,"is_disabled":false,"rental_uris":{"android":"levelo://app?vid=c7f020f7-8d40-49a1-a7c8-88ac5d41f99f","ios":"levelo://app?vid=c7f020f7-8d40-49a1-a7c8-88ac5d41f99f"},"vehicle_type_id":"4","last_reported":1726848663,"current_range_meters":6800,"station_id":"ce4bhnp2rcd13ifvqh0g","pricing_plan_id":"cebpf4jnsgd1na2vs0mg"},{"bike_id":"d81f13c9-9fd6-4dc2-86d3-158208663bbd","system_id":"levelo_inurba_marseille","lat":43.25723,"lon":5.41118,"is_reserved":false,"is_disabled":false,"rental_uris":{"android":"levelo://app?vid=d81f13c9-9fd6-4dc2-86d3-158208663bbd","ios":"levelo://app?vid=d81f13c9-9fd6-4dc2-86d3-158208663bbd"},"vehicle_type_id":"4","last_reported":1726848663,"current_range_meters":6800,"station_id":"ce4bhkp2rcd13ifvqgd0","pricing_plan_id":"cebpf4jnsgd1na2vs0mg"},{"bike_id":"5dbf763e-c0f2-452b-8768-19f29c48a9f7","system_id":"levelo_inurba_marseille","lat":43.27179,"lon":5.40996,"is_reserved":false,"is_disabled":false,"rental_uris":{"android":"levelo://app?vid=5dbf763e-c0f2-452b-8768-19f29c48a9f7","ios":"levelo://app?vid=5dbf763e-c0f2-452b-8768-19f29c48a9f7"},"vehicle_type_id":"4","last_reported":1726848663,"current_range_meters":34800,"station_id":"ce4bhl12rcd13ifvqgf0","pricing_plan_id":"cebpf4jnsgd1na2vs0mg"},{"bike_id":"cb270658-6a5e-41f4-83d8-3e39e9a87098","system_id":"levelo_inurba_marseille","lat":43.26952,"lon":5.38632,"is_reserved":false,"is_disabled":false,"rental_uris":{"android":"levelo://app?vid=cb270658-6a5e-41f4-83d8-3e39e9a87098","ios":"levelo://app?vid=cb270658-6a5e-41f4-83d8-3e39e9a87098"},"vehicle_type_id":"4","last_reported":1726848663,"current_range_meters":9600,"station_id":"ce4bhh92rcd13ifvqfh0","pricing_plan_id":"cebpf4jnsgd1na2vs0mg"},{"bike_id":"5d544124-3c11-4ceb-9b05-7c0a9fe83179","system_id":"levelo_inurba_marseille","lat":43.32366,"lon":5.38886,"is_reserved":false,"is_disabled":false,"rental_uris":{"android":"levelo://app?vid=5d544124-3c11-4ceb-9b05-7c0a9fe83179","ios":"levelo://app?vid=5d544124-3c11-4ceb-9b05-7c0a9fe83179"},"vehicle_type_id":"4","last_reported":1726848663,"current_range_meters":3600,"station_id":"ce4bhqp2rcd13ifvqhog","pricing_plan_id":"cebpf4jnsgd1na2vs0mg"},{"bike_id":"868878fe-5bc6-43aa-ad49-5cca9ccaee6e","system_id":"levelo_inurba_marseille","lat":43.28416,"lon":5.34996,"is_reserved":false,"is_disabled":false,"rental_uris":{"android":"levelo://app?vid=868878fe-5bc6-43aa-ad49-5cca9ccaee6e","ios":"levelo://app?vid=868878fe-5bc6-43aa-ad49-5cca9ccaee6e"},"vehicle_type_id":"4","last_reported":1726848663,"current_range_meters":4800,"station_id":"ce4bhbh2rcd13ifvqepg","pricing_plan_id":"cebpf4jnsgd1na2vs0mg"},{"bike_id":"32b495ee-821e-4ac0-b98a-957efd9fe269","system_id":"levelo_inurba_marseille","lat":43.261505,"lon":5.396187,"is_reserved":false,"is_disabled":false,"rental_uris":{"android":"levelo://app?vid=32b495ee-821e-4ac0-b98a-957efd9fe269","ios":"levelo://app?vid=32b495ee-821e-4ac0-b98a-957efd9fe269"},"vehicle_type_id":"4","last_reported":1726848663,"current_range_meters":16400,"station_id":"ce4bhc92rcd13ifvqetg","pricing_plan_id":"cebpf4jnsgd1na2vs0mg"},{"bike_id":"af3d81eb-8250-4f05-bb17-35fc1f8b48c0","system_id":"levelo_inurba_marseille","lat":43.32363,"lon":5.38881,"is_reserved":false,"is_disabled":false,"rental_uris":{"android":"levelo://app?vid=af3d81eb-8250-4f05-bb17-35fc1f8b48c0","ios":"levelo://app?vid=af3d81eb-8250-4f05-bb17-35fc1f8b48c0"},"vehicle_type_id":"4","last_reported":1726848663,"current_range_meters":14400,"station_id":"ce4bhqp2rcd13ifvqhog","pricing_plan_id":"cebpf4jnsgd1na2vs0mg"},{"bike_id":"c245f867-4d1e-487f-96b4-03ae7d77e3b2","system_id":"levelo_inurba_marseille","lat":43.25089,"lon":5.39519,"is_reserved":false,"is_disabled":false,"rental_uris":{"android":"levelo://app?vid=c245f867-4d1e-487f-96b4-03ae7d77e3b2","ios":"levelo://app?vid=c245f867-4d1e-487f-96b4-03ae7d77e3b2"},"vehicle_type_id":"4","last_reported":1726848663,"current_range_meters":10000,"station_id":"ce4bhm12rcd13ifvqgkg","pricing_plan_id":"cebpf4jnsgd1na2vs0mg"},{"bike_id":"68159eba-e301-4077-943e-46befe1273f0","system_id":"levelo_inurba_marseille","lat":43.23195,"lon":5.35554,"is_reserved":false,"is_disabled":false,"rental_uris":{"android":"levelo://app?vid=68159eba-e301-4077-943e-46befe1273f0","ios":"levelo://app?vid=68159eba-e301-4077-943e-46befe1273f0"},"vehicle_type_id":"4","last_reported":1726848663,"current_range_meters":32400,"station_id":"ce4bhu92rcd13ifvqi70","pricing_plan_id":"cebpf4jnsgd1na2vs0mg"},{"bike_id":"7d66f339-e9a1-4deb-8e88-576eebb910a0","system_id":"levelo_inurba_marseille","lat":43.31756,"lon":5.39025,"is_reserved":false,"is_disabled":false,"rental_uris":{"android":"levelo://app?vid=7d66f339-e9a1-4deb-8e88-576eebb910a0","ios":"levelo://app?vid=7d66f339-e9a1-4deb-8e88-576eebb910a0"},"vehicle_type_id":"4","last_reported":1726848663,"current_range_meters":6000,"station_id":"ce4bhqp2rcd13ifvqhng","pricing_plan_id":"cebpf4jnsgd1na2vs0mg"},{"bike_id":"f5150aa5-a951-414c-93b7-a3813eb70dc7","system_id":"levelo_inurba_marseille","lat":43.24653,"lon":5.38896,"is_reserved":false,"is_disabled":false,"rental_uris":{"android":"levelo://app?vid=f5150aa5-a951-414c-93b7-a3813eb70dc7","ios":"levelo://app?vid=f5150aa5-a951-414c-93b7-a3813eb70dc7"},"vehicle_type_id":"4","last_reported":1726848663,"current_range_meters":6400,"station_id":"ce4bhg12rcd13ifvqf60","pricing_plan_id":"cebpf4jnsgd1na2vs0mg"},{"bike_id":"59a0c8c0-9169-44e8-8b48-db3fea55318f","system_id":"levelo_inurba_marseille","lat":43.31328,"lon":5.39696,"is_reserved":false,"is_disabled":false,"rental_uris":{"android":"levelo://app?vid=59a0c8c0-9169-44e8-8b48-db3fea55318f","ios":"levelo://app?vid=59a0c8c0-9169-44e8-8b48-db3fea55318f"},"vehicle_type_id":"4","last_reported":1726848663,"current_range_meters":2800,"station_id":"ce4bgvp2rcd13ifvqcu0","pricing_plan_id":"cebpf4jnsgd1na2vs0mg"},{"bike_id":"a29344e5-4aa4-47f2-b35a-f74d059a7d86","system_id":"levelo_inurba_marseille","lat":43.24171,"lon":5.36402,"is_reserved":false,"is_disabled":false,"rental_uris":{"android":"levelo://app?vid=a29344e5-4aa4-47f2-b35a-f74d059a7d86","ios":"levelo://app?vid=a29344e5-4aa4-47f2-b35a-f74d059a7d86"},"vehicle_type_id":"4","last_reported":1726848663,"current_range_meters":9600,"station_id":"cpo36qri1sfpv3e86is0","pricing_plan_id":"cebpf4jnsgd1na2vs0mg"},{"bike_id":"48ddf29e-a49f-4eb8-8bb7-2d0feebc494f","system_id":"levelo_inurba_marseille","lat":43.31267,"lon":5.40168,"is_reserved":false,"is_disabled":false,"rental_uris":{"android":"levelo://app?vid=48ddf29e-a49f-4eb8-8bb7-2d0feebc494f","ios":"levelo://app?vid=48ddf29e-a49f-4eb8-8bb7-2d0feebc494f"},"vehicle_type_id":"4","last_reported":1726848663,"current_range_meters":29600,"station_id":"ce4bh092rcd13ifvqd30","pricing_plan_id":"cebpf4jnsgd1na2vs0mg"},{"bike_id":"f926f15c-869b-4026-b9be-2e7a17ab5ee7","system_id":"levelo_inurba_marseille","lat":43.31082,"lon":5.4243,"is_reserved":false,"is_disabled":false,"rental_uris":{"android":"levelo://app?vid=f926f15c-869b-4026-b9be-2e7a17ab5ee7","ios":"levelo://app?vid=f926f15c-869b-4026-b9be-2e7a17ab5ee7"},"vehicle_type_id":"4","last_reported":1726848663,"current_range_meters":28400,"station_id":"ce4bhp92rcd13ifvqhag","pricing_plan_id":"cebpf4jnsgd1na2vs0mg"},{"bike_id":"0f9e353b-34be-4131-bc94-f528c8afe4b7","system_id":"levelo_inurba_marseille","lat":43.32482,"lon":5.36565,"is_reserved":false,"is_disabled":false,"rental_uris":{"android":"levelo://app?vid=0f9e353b-34be-4131-bc94-f528c8afe4b7","ios":"levelo://app?vid=0f9e353b-34be-4131-bc94-f528c8afe4b7"},"vehicle_type_id":"4","last_reported":1726848663,"current_range_meters":14800,"station_id":"ce4bhs12rcd13ifvqhvg","pricing_plan_id":"cebpf4jnsgd1na2vs0mg"},{"bike_id":"0c5d6fef-c13a-4549-b52f-550435ab4ea4","system_id":"levelo_inurba_marseille","lat":43.27565,"lon":5.38413,"is_reserved":false,"is_disabled":false,"rental_uris":{"android":"levelo://app?vid=0c5d6fef-c13a-4549-b52f-550435ab4ea4","ios":"levelo://app?vid=0c5d6fef-c13a-4549-b52f-550435ab4ea4"},"vehicle_type_id":"4","last_reported":1726848663,"current_range_meters":22800,"station_id":"ce4bhh92rcd13ifvqfi0","pricing_plan_id":"cebpf4jnsgd1na2vs0mg"},{"bike_id":"681670de-65c8-46bc-9e54-9930bd411729","system_id":"levelo_inurba_marseille","lat":43.29031,"lon":5.38651,"is_reserved":false,"is_disabled":false,"rental_uris":{"android":"levelo://app?vid=681670de-65c8-46bc-9e54-9930bd411729","ios":"levelo://app?vid=681670de-65c8-46bc-9e54-9930bd411729"},"vehicle_type_id":"4","last_reported":1726848663,"current_range_meters":4000,"station_id":"ce4bh4p2rcd13ifvqe0g","pricing_plan_id":"cebpf4jnsgd1na2vs0mg"},{"bike_id":"2720f93e-f1c4-4e05-bacc-e5a538495f21","system_id":"levelo_inurba_marseille","lat":43.31169,"lon":5.38708,"is_reserved":false,"is_disabled":false,"rental_uris":{"android":"levelo://app?vid=2720f93e-f1c4-4e05-bacc-e5a538495f21","ios":"levelo://app?vid=2720f93e-f1c4-4e05-bacc-e5a538495f21"},"vehicle_type_id":"4","last_reported":1726848663,"current_range_meters":28800,"station_id":"ce4bgv12rcd13ifvqcp0","pricing_plan_id":"cebpf4jnsgd1na2vs0mg"},{"bike_id":"253cb9cc-0dd0-4da9-a358-037e5fa30c60","system_id":"levelo_inurba_marseille","lat":43.272034,"lon":5.391817,"is_reserved":false,"is_disabled":false,"rental_uris":{"android":"levelo://app?vid=253cb9cc-0dd0-4da9-a358-037e5fa30c60","ios":"levelo://app?vid=253cb9cc-0dd0-4da9-a358-037e5fa30c60"},"vehicle_type_id":"4","last_reported":1726848663,"current_range_meters":22000,"station_id":"ce4bhhp2rcd13ifvqfm0","pricing_plan_id":"cebpf4jnsgd1na2vs0mg"},{"bike_id":"ca7d7c1d-e2aa-4b85-b80f-70b13211b285","system_id":"levelo_inurba_marseille","lat":43.31325,"lon":5.3969,"is_reserved":false,"is_disabled":false,"rental_uris":{"android":"levelo://app?vid=ca7d7c1d-e2aa-4b85-b80f-70b13211b285","ios":"levelo://app?vid=ca7d7c1d-e2aa-4b85-b80f-70b13211b285"},"vehicle_type_id":"4","last_reported":1726848663,"current_range_meters":6800,"station_id":"ce4bgvp2rcd13ifvqcu0","pricing_plan_id":"cebpf4jnsgd1na2vs0mg"},{"bike_id":"bb51b17c-a0af-435b-9948-52ba91fc9437","system_id":"levelo_inurba_marseille","lat":43.29223,"lon":5.36076,"is_reserved":false,"is_disabled":false,"rental_uris":{"android":"levelo://app?vid=bb51b17c-a0af-435b-9948-52ba91fc9437","ios":"levelo://app?vid=bb51b17c-a0af-435b-9948-52ba91fc9437"},"vehicle_type_id":"4","last_reported":1726848663,"current_range_meters":8400,"station_id":"ce4bhbh2rcd13ifvqeqg","pricing_plan_id":"cebpf4jnsgd1na2vs0mg"},{"bike_id":"09bccdcc-0a8e-46c1-88a4-ddb857f16e33","system_id":"levelo_inurba_marseille","lat":43.27365,"lon":5.36248,"is_reserved":false,"is_disabled":false,"rental_uris":{"android":"levelo://app?vid=09bccdcc-0a8e-46c1-88a4-ddb857f16e33","ios":"levelo://app?vid=09bccdcc-0a8e-46c1-88a4-ddb857f16e33"},"vehicle_type_id":"4","last_reported":1726848663,"current_range_meters":29600,"station_id":"ce4bhbh2rcd13ifvqeo0","pricing_plan_id":"cebpf4jnsgd1na2vs0mg"},{"bike_id":"acf44b62-d8c8-47a7-a8d1-9161d6244362","system_id":"levelo_inurba_marseille","lat":43.23192,"lon":5.35557,"is_reserved":false,"is_disabled":false,"rental_uris":{"android":"levelo://app?vid=acf44b62-d8c8-47a7-a8d1-9161d6244362","ios":"levelo://app?vid=acf44b62-d8c8-47a7-a8d1-9161d6244362"},"vehicle_type_id":"4","last_reported":1726848663,"current_range_meters":8000,"station_id":"ce4bhu92rcd13ifvqi70","pricing_plan_id":"cebpf4jnsgd1na2vs0mg"},{"bike_id":"d323bc23-4105-4d98-87ab-fb3899c88f8a","system_id":"levelo_inurba_marseille","lat":43.2319,"lon":5.35556,"is_reserved":false,"is_disabled":false,"rental_uris":{"android":"levelo://app?vid=d323bc23-4105-4d98-87ab-fb3899c88f8a","ios":"levelo://app?vid=d323bc23-4105-4d98-87ab-fb3899c88f8a"},"vehicle_type_id":"4","last_reported":1726848663,"current_range_meters":38800,"station_id":"ce4bhu92rcd13ifvqi70","pricing_plan_id":"cebpf4jnsgd1na2vs0mg"},{"bike_id":"615cb7c2-35f6-4b6a-9ad6-5e59804de9ed","system_id":"levelo_inurba_marseille","lat":43.31071,"lon":5.38354,"is_reserved":false,"is_disabled":false,"rental_uris":{"android":"levelo://app?vid=615cb7c2-35f6-4b6a-9ad6-5e59804de9ed","ios":"levelo://app?vid=615cb7c2-35f6-4b6a-9ad6-5e59804de9ed"},"vehicle_type_id":"4","last_reported":1726848663,"current_range_meters":11200,"station_id":"ce4bgv92rcd13ifvqcr0","pricing_plan_id":"cebpf4jnsgd1na2vs0mg"},{"bike_id":"34ac98d4-5a9e-409b-b61c-2f0e0ccd105f","system_id":"levelo_inurba_marseille","lat":43.28351,"lon":5.381,"is_reserved":false,"is_disabled":false,"rental_uris":{"android":"levelo://app?vid=34ac98d4-5a9e-409b-b61c-2f0e0ccd105f","ios":"levelo://app?vid=34ac98d4-5a9e-409b-b61c-2f0e0ccd105f"},"vehicle_type_id":"4","last_reported":1726848663,"current_range_meters":18800,"station_id":"ce4bh412rcd13ifvqdr0","pricing_plan_id":"cebpf4jnsgd1na2vs0mg"},{"bike_id":"e6b43e71-38ec-479c-b6d6-7f6b113f2af6","system_id":"levelo_inurba_marseille","lat":43.275665,"lon":5.384179,"is_reserved":false,"is_disabled":false,"rental_uris":{"android":"levelo://app?vid=e6b43e71-38ec-479c-b6d6-7f6b113f2af6","ios":"levelo://app?vid=e6b43e71-38ec-479c-b6d6-7f6b113f2af6"},"vehicle_type_id":"4","last_reported":1726848663,"current_range_meters":25600,"station_id":"ce4bhh92rcd13ifvqfi0","pricing_plan_id":"cebpf4jnsgd1na2vs0mg"},{"bike_id":"64591c17-8ee0-43df-8725-13f05b5cb133","system_id":"levelo_inurba_marseille","lat":43.286545,"lon":5.399682,"is_reserved":false,"is_disabled":false,"rental_uris":{"android":"levelo://app?vid=64591c17-8ee0-43df-8725-13f05b5cb133","ios":"levelo://app?vid=64591c17-8ee0-43df-8725-13f05b5cb133"},"vehicle_type_id":"4","last_reported":1726848663,"current_range_meters":36800,"station_id":"ce4bho92rcd13ifvqh3g","pricing_plan_id":"cebpf4jnsgd1na2vs0mg"},{"bike_id":"57820118-01ad-48e0-a115-73679483bad4","system_id":"levelo_inurba_marseille","lat":43.32366,"lon":5.38878,"is_reserved":false,"is_disabled":false,"rental_uris":{"android":"levelo://app?vid=57820118-01ad-48e0-a115-73679483bad4","ios":"levelo://app?vid=57820118-01ad-48e0-a115-73679483bad4"},"vehicle_type_id":"4","last_reported":1726848663,"current_range_meters":9200,"station_id":"ce4bhqp2rcd13ifvqhog","pricing_plan_id":"cebpf4jnsgd1na2vs0mg"},{"bike_id":"c4b1fe0a-113c-4b8c-870b-0c8d62b13dfe","system_id":"levelo_inurba_marseille","lat":43.2998,"lon":5.37172,"is_reserved":false,"is_disabled":false,"rental_uris":{"android":"levelo://app?vid=c4b1fe0a-113c-4b8c-870b-0c8d62b13dfe","ios":"levelo://app?vid=c4b1fe0a-113c-4b8c-870b-0c8d62b13dfe"},"vehicle_type_id":"4","last_reported":1726848663,"current_range_meters":25600,"station_id":"ce4bgr92rcd13ifvqc7g","pricing_plan_id":"cebpf4jnsgd1na2vs0mg"},{"bike_id":"cc6bec91-1a4b-4018-beaf-1969d5b8823a","system_id":"levelo_inurba_marseille","lat":43.26193,"lon":5.37448,"is_reserved":false,"is_disabled":false,"rental_uris":{"android":"levelo://app?vid=cc6bec91-1a4b-4018-beaf-1969d5b8823a","ios":"levelo://app?vid=cc6bec91-1a4b-4018-beaf-1969d5b8823a"},"vehicle_type_id":"4","last_reported":1726848663,"current_range_meters":9200,"station_id":"ce4bhgp2rcd13ifvqfc0","pricing_plan_id":"cebpf4jnsgd1na2vs0mg"},{"bike_id":"f75b393f-ceb0-4540-a3f0-a231eb288c97","system_id":"levelo_inurba_marseille","lat":43.29381,"lon":5.40184,"is_reserved":false,"is_disabled":false,"rental_uris":{"android":"levelo://app?vid=f75b393f-ceb0-4540-a3f0-a231eb288c97","ios":"levelo://app?vid=f75b393f-ceb0-4540-a3f0-a231eb288c97"},"vehicle_type_id":"4","last_reported":1726848663,"current_range_meters":3600,"station_id":"ce4bh312rcd13ifvqdj0","pricing_plan_id":"cebpf4jnsgd1na2vs0mg"},{"bike_id":"1a9b55c7-b51a-4a51-a1cc-3a8367ed9f7b","system_id":"levelo_inurba_marseille","lat":43.28429,"lon":5.34992,"is_reserved":false,"is_disabled":false,"rental_uris":{"android":"levelo://app?vid=1a9b55c7-b51a-4a51-a1cc-3a8367ed9f7b","ios":"levelo://app?vid=1a9b55c7-b51a-4a51-a1cc-3a8367ed9f7b"},"vehicle_type_id":"4","last_reported":1726848663,"current_range_meters":27200,"station_id":"ce4bhbh2rcd13ifvqepg","pricing_plan_id":"cebpf4jnsgd1na2vs0mg"},{"bike_id":"fdabbb46-13ec-4af4-a076-c8dc2dbf8427","system_id":"levelo_inurba_marseille","lat":43.29169,"lon":5.37162,"is_reserved":false,"is_disabled":false,"rental_uris":{"android":"levelo://app?vid=fdabbb46-13ec-4af4-a076-c8dc2dbf8427","ios":"levelo://app?vid=fdabbb46-13ec-4af4-a076-c8dc2dbf8427"},"vehicle_type_id":"4","last_reported":1726848663,"current_range_meters":39200,"station_id":"ce4bha92rcd13ifvqeh0","pricing_plan_id":"cebpf4jnsgd1na2vs0mg"},{"bike_id":"29b4cba9-8ec6-430d-9da8-117780ca6bba","system_id":"levelo_inurba_marseille","lat":43.29032,"lon":5.38653,"is_reserved":false,"is_disabled":false,"rental_uris":{"android":"levelo://app?vid=29b4cba9-8ec6-430d-9da8-117780ca6bba","ios":"levelo://app?vid=29b4cba9-8ec6-430d-9da8-117780ca6bba"},"vehicle_type_id":"4","last_reported":1726848663,"current_range_meters":9200,"station_id":"ce4bh4p2rcd13ifvqe0g","pricing_plan_id":"cebpf4jnsgd1na2vs0mg"},{"bike_id":"fe0898fe-a98e-4a9d-8865-0616ed1dde2f","system_id":"levelo_inurba_marseille","lat":43.27615,"lon":5.36105,"is_reserved":false,"is_disabled":false,"rental_uris":{"android":"levelo://app?vid=fe0898fe-a98e-4a9d-8865-0616ed1dde2f","ios":"levelo://app?vid=fe0898fe-a98e-4a9d-8865-0616ed1dde2f"},"vehicle_type_id":"4","last_reported":1726848663,"current_range_meters":10800,"station_id":"ce4bgj92rcd13ifvqbe0","pricing_plan_id":"cebpf4jnsgd1na2vs0mg"},{"bike_id":"6388e495-3762-4608-8b80-54f6f1b4f882","system_id":"levelo_inurba_marseille","lat":43.23195,"lon":5.35552,"is_reserved":false,"is_disabled":false,"rental_uris":{"android":"levelo://app?vid=6388e495-3762-4608-8b80-54f6f1b4f882","ios":"levelo://app?vid=6388e495-3762-4608-8b80-54f6f1b4f882"},"vehicle_type_id":"4","last_reported":1726848663,"current_range_meters":11600,"station_id":"ce4bhu92rcd13ifvqi70","pricing_plan_id":"cebpf4jnsgd1na2vs0mg"},{"bike_id":"568f18ef-0532-47d2-ba02-289357eb8374","system_id":"levelo_inurba_marseille","lat":43.2928,"lon":5.40118,"is_reserved":false,"is_disabled":false,"rental_uris":{"android":"levelo://app?vid=568f18ef-0532-47d2-ba02-289357eb8374","ios":"levelo://app?vid=568f18ef-0532-47d2-ba02-289357eb8374"},"vehicle_type_id":"4","last_reported":1726848663,"current_range_meters":12800,"station_id":"ce4bh312rcd13ifvqdk0","pricing_plan_id":"cebpf4jnsgd1na2vs0mg"},{"bike_id":"3bf4a50d-93fb-49cf-810f-d70de287cd01","system_id":"levelo_inurba_marseille","lat":43.29889,"lon":5.38905,"is_reserved":false,"is_disabled":false,"rental_uris":{"android":"levelo://app?vid=3bf4a50d-93fb-49cf-810f-d70de287cd01","ios":"levelo://app?vid=3bf4a50d-93fb-49cf-810f-d70de287cd01"},"vehicle_type_id":"4","last_reported":1726848663,"current_range_meters":39200,"station_id":"ce4bh392rcd13ifvqdl0","pricing_plan_id":"cebpf4jnsgd1na2vs0mg"},{"bike_id":"c0dad189-fca0-4e4e-b3f1-16810320880b","system_id":"levelo_inurba_marseille","lat":43.29428,"lon":5.38638,"is_reserved":false,"is_disabled":false,"rental_uris":{"android":"levelo://app?vid=c0dad189-fca0-4e4e-b3f1-16810320880b","ios":"levelo://app?vid=c0dad189-fca0-4e4e-b3f1-16810320880b"},"vehicle_type_id":"4","last_reported":1726848663,"current_range_meters":28400,"station_id":"ce4bh2h2rcd13ifvqdh0","pricing_plan_id":"cebpf4jnsgd1na2vs0mg"},{"bike_id":"e9d98009-1903-4526-baed-d7ef0e42ab66","system_id":"levelo_inurba_marseille","lat":43.23191,"lon":5.3556,"is_reserved":false,"is_disabled":false,"rental_uris":{"android":"levelo://app?vid=e9d98009-1903-4526-baed-d7ef0e42ab66","ios":"levelo://app?vid=e9d98009-1903-4526-baed-d7ef0e42ab66"},"vehicle_type_id":"4","last_reported":1726848663,"current_range_meters":38800,"station_id":"ce4bhu92rcd13ifvqi70","pricing_plan_id":"cebpf4jnsgd1na2vs0mg"},{"bike_id":"8e7c395e-825e-4ea6-a383-1f482dc536e0","system_id":"levelo_inurba_marseille","lat":43.24801,"lon":5.37455,"is_reserved":false,"is_disabled":false,"rental_uris":{"android":"levelo://app?vid=8e7c395e-825e-4ea6-a383-1f482dc536e0","ios":"levelo://app?vid=8e7c395e-825e-4ea6-a383-1f482dc536e0"},"vehicle_type_id":"4","last_reported":1726848663,"current_range_meters":13600,"station_id":"ce4bhgh2rcd13ifvqfb0","pricing_plan_id":"cebpf4jnsgd1na2vs0mg"},{"bike_id":"45333d86-f0c3-44b1-9547-d659d0157bb9","system_id":"levelo_inurba_marseille","lat":43.31759,"lon":5.39017,"is_reserved":false,"is_disabled":false,"rental_uris":{"android":"levelo://app?vid=45333d86-f0c3-44b1-9547-d659d0157bb9","ios":"levelo://app?vid=45333d86-f0c3-44b1-9547-d659d0157bb9"},"vehicle_type_id":"4","last_reported":1726848663,"current_range_meters":6400,"station_id":"ce4bhqp2rcd13ifvqhng","pricing_plan_id":"cebpf4jnsgd1na2vs0mg"},{"bike_id":"b2d66e2e-7f94-407a-8cab-5f19561a1e35","system_id":"levelo_inurba_marseille","lat":43.28702,"lon":5.37389,"is_reserved":false,"is_disabled":false,"rental_uris":{"android":"levelo://app?vid=b2d66e2e-7f94-407a-8cab-5f19561a1e35","ios":"levelo://app?vid=b2d66e2e-7f94-407a-8cab-5f19561a1e35"},"vehicle_type_id":"4","last_reported":1726848663,"current_range_meters":14800,"station_id":"ce4bh3p2rcd13ifvqdq0","pricing_plan_id":"cebpf4jnsgd1na2vs0mg"},{"bike_id":"c9a1da53-8b7b-47bd-8dad-d5f90c8135dc","system_id":"levelo_inurba_marseille","lat":43.30473,"lon":5.36585,"is_reserved":false,"is_disabled":false,"rental_uris":{"android":"levelo://app?vid=c9a1da53-8b7b-47bd-8dad-d5f90c8135dc","ios":"levelo://app?vid=c9a1da53-8b7b-47bd-8dad-d5f90c8135dc"},"vehicle_type_id":"4","last_reported":1726848663,"current_range_meters":12000,"station_id":"ce4bgrp2rcd13ifvqc9g","pricing_plan_id":"cebpf4jnsgd1na2vs0mg"},{"bike_id":"0c97c25d-5870-4230-9891-bfffc3ca04f3","system_id":"levelo_inurba_marseille","lat":43.31333,"lon":5.39699,"is_reserved":false,"is_disabled":false,"rental_uris":{"android":"levelo://app?vid=0c97c25d-5870-4230-9891-bfffc3ca04f3","ios":"levelo://app?vid=0c97c25d-5870-4230-9891-bfffc3ca04f3"},"vehicle_type_id":"4","last_reported":1726848663,"current_range_meters":19600,"station_id":"ce4bgvp2rcd13ifvqcu0","pricing_plan_id":"cebpf4jnsgd1na2vs0mg"},{"bike_id":"24da7053-6d5c-4b52-af1f-30cc31a6b8b8","system_id":"levelo_inurba_marseille","lat":43.306366,"lon":5.400734,"is_reserved":false,"is_disabled":false,"rental_uris":{"android":"levelo://app?vid=24da7053-6d5c-4b52-af1f-30cc31a6b8b8","ios":"levelo://app?vid=24da7053-6d5c-4b52-af1f-30cc31a6b8b8"},"vehicle_type_id":"4","last_reported":1726848663,"current_range_meters":31200,"station_id":"ce4bh112rcd13ifvqda0","pricing_plan_id":"cebpf4jnsgd1na2vs0mg"},{"bike_id":"534173ed-c7da-49ff-8f57-5d6e6781b1b9","system_id":"levelo_inurba_marseille","lat":43.23192,"lon":5.35544,"is_reserved":false,"is_disabled":false,"rental_uris":{"android":"levelo://app?vid=534173ed-c7da-49ff-8f57-5d6e6781b1b9","ios":"levelo://app?vid=534173ed-c7da-49ff-8f57-5d6e6781b1b9"},"vehicle_type_id":"4","last_reported":1726848663,"current_range_meters":36400,"station_id":"ce4bhu92rcd13ifvqi70","pricing_plan_id":"cebpf4jnsgd1na2vs0mg"},{"bike_id":"40d6fa5e-dfde-4de2-9117-c4a554d7386c","system_id":"levelo_inurba_marseille","lat":43.28277,"lon":5.35072,"is_reserved":false,"is_disabled":false,"rental_uris":{"android":"levelo://app?vid=40d6fa5e-dfde-4de2-9117-c4a554d7386c","ios":"levelo://app?vid=40d6fa5e-dfde-4de2-9117-c4a554d7386c"},"vehicle_type_id":"4","last_reported":1726848663,"current_range_meters":30800,"station_id":"ce4bhbp2rcd13ifvqerg","pricing_plan_id":"cebpf4jnsgd1na2vs0mg"},