{"last_updated":1702451201,"ttl":30,"version":"2.2","data":{"bikes":[{"bike_id":"68e58824-0a5f-4e27-b6c5-7be064983acc","system_id":"levelo_inurba_marseille","lat":43.31341,"lon":5.367098,"is_reserved":false,"is_disabled":false,"rental_uris":{"android":"levelo://app?vid=68e58824-0a5f-4e27-b6c5-7be064983acc","ios":"levelo://app?vid=68e58824-0a5f-4e27-b6c5-7be064983acc"},"vehicle_type_id":"4","last_reported":1702451201,"current_range_meters":31200,"station_id":"ce4bgr92rcd13ifvqc6g","pricing_plan_id":"free"},{"bike_id":"acfe37ce-9f6f-468c-9053-9889a3d21f80","system_id":"levelo_inurba_marseille","lat":43.309076,"lon":5.368465,"is_reserved":false,"is_disabled":false,"rental_uris":{"android":"levelo://app?vid=acfe37ce-9f6f-468c-9053-9889a3d21f80","ios":"levelo://app?vid=acfe37ce-9f6f-468c-9053-9889a3d21f80"},"vehicle_type_id":"4","last_reported":1702451201,"current_range_meters":24400,"station_id":"ce4bgn92rcd13ifvqbvg","pricing_plan_id":"free"},{"bike_id":"ef8a3e13-a4e1-43dc-8898-73005ba049cc","system_id":"levelo_inurba_marseille","lat":43.309039,"lon":5.371797,"is_reserved":false,"is_disabled":false,"rental_uris":{"android":"levelo://app?vid=ef8a3e13-a4e1-43dc-8898-73005ba049cc","ios":"levelo://app?vid=ef8a3e13-a4e1-43dc-8898-73005ba049cc"},"vehicle_type_id":"4","last_reported":1702451201,"current_range_meters":26400,"station_id":"ce4bguh2rcd13ifvqckg","pricing_plan_id":"free"},{"bike_id":"1dcbe0d8-be57-4513-9898-727b736e0085","system_id":"levelo_inurba_marseille","lat":43.308801,"lon":5.371975,"is_reserved":false,"is_disabled":false,"rental_uris":{"android":"levelo://app?vid=1dcbe0d8-be57-4513-9898-727b736e0085","ios":"levelo://app?vid=1dcbe0d8-be57-4513-9898-727b736e0085"},"vehicle_type_id":"4","last_reported":1702451201,"current_range_meters":16400,"station_id":"ce4bguh2rcd13ifvqckg","pricing_plan_id":"free"},{"bike_id":"3f8b821f-e430-4a35-bf14-f8b6e777ea11","system_id":"levelo_inurba_marseille","lat":43.313939,"lon":5.375306,"is_reserved":false,"is_disabled":false,"rental_uris":{"android":"levelo://app?vid=3f8b821f-e430-4a35-bf14-f8b6e777ea11","ios":"levelo://app?vid=3f8b821f-e430-4a35-bf14-f8b6e777ea11"},"vehicle_type_id":"4","last_reported":1702451201,"current_range_meters":8800,"station_id":"","pricing_plan_id":"free"},{"bike_id":"a7201270-8f1f-4665-8fef-97ca02bb948f","system_id":"levelo_inurba_marseille","lat":43.30537,"lon":5.367345,"is_reserved":false,"is_disabled":false,"rental_uris":{"android":"levelo://app?vid=a7201270-8f1f-4665-8fef-97ca02bb948f","ios":"levelo://app?vid=a7201270-8f1f-4665-8fef-97ca02bb948f"},"vehicle_type_id":"4","last_reported":1702451201,"current_range_meters":25600,"station_id":"ce4bgrp2rcd13ifvqc9g","pricing_plan_id":"free"},{"bike_id":"f53d492f-17a5-4060-97b5-a29ab653a1a7","system_id":"levelo_inurba_marseille","lat":43.305368,"lon":5.367343,"is_reserved":false,"is_disabled":false,"rental_uris":{"android":"levelo://app?vid=f53d492f-17a5-4060-97b5-a29ab653a1a7","ios":"levelo://app?vid=f53d492f-17a5-4060-97b5-a29ab653a1a7"},"vehicle_type_id":"4","last_reported":1702451201,"current_range_meters":25600,"station_id":"ce4bgrp2rcd13ifvqc9g","pricing_plan_id":"free"},{"bike_id":"17c3953c-d975-4727-986c-45561bc5452f","system_id":"levelo_inurba_marseille","lat":43.30533,"lon":5.36722,"is_reserved":false,"is_disabled":false,"rental_uris":{"android":"levelo://app?vid=17c3953c-d975-4727-986c-45561bc5452f","ios":"levelo://app?vid=17c3953c-d975-4727-986c-45561bc5452f"},"vehicle_type_id":"4","last_reported":1702451201,"current_range_meters":0,"station_id":"ce4bgrp2rcd13ifvqc9g","pricing_plan_id":"free"},{"bike_id":"5068c8cc-dfdf-49ae-a09e-68aac06cdd58","system_id":"levelo_inurba_marseille","lat":43.305714,"lon":5.365633,"is_reserved":false,"is_disabled":false,"rental_uris":{"android":"levelo://app?vid=5068c8cc-dfdf-49ae-a09e-68aac06cdd58","ios":"levelo://app?vid=5068c8cc-dfdf-49ae-a09e-68aac06cdd58"},"vehicle_type_id":"4","last_reported":1702451201,"current_range_meters":21200,"station_id":"ce4bgs12rcd13ifvqcag","pricing_plan_id":"free"},{"bike_id":"955e4ab2-16e5-44e8-a986-a2f50ff96c06","system_id":"levelo_inurba_marseille","lat":43.305382,"lon":5.365389,"is_reserved":false,"is_disabled":false,"rental_uris":{"android":"levelo://app?vid=955e4ab2-16e5-44e8-a986-a2f50ff96c06","ios":"levelo://app?vid=955e4ab2-16e5-44e8-a986-a2f50ff96c06"},"vehicle_type_id":"4","last_reported":1702451201,"current_range_meters":28000,"station_id":"","pricing_plan_id":"free"},{"bike_id":"2f19eac5-fbed-4693-ad1b-650010f3c5b4","system_id":"levelo_inurba_marseille","lat":43.305989,"lon":5.37225,"is_reserved":false,"is_disabled":false,"rental_uris":{"android":"levelo://app?vid=2f19eac5-fbed-4693-ad1b-650010f3c5b4","ios":"levelo://app?vid=2f19eac5-fbed-4693-ad1b-650010f3c5b4"},"vehicle_type_id":"4","last_reported":1702451201,"current_range_meters":28400,"station_id":"ce4bgqh2rcd13ifvqc4g","pricing_plan_id":"free"},{"bike_id":"d7fdc437-7fbc-48a0-920b-69795d596fa2","system_id":"levelo_inurba_marseille","lat":43.311137,"lon":5.37781,"is_reserved":false,"is_disabled":false,"rental_uris":{"android":"levelo://app?vid=d7fdc437-7fbc-48a0-920b-69795d596fa2","ios":"levelo://app?vid=d7fdc437-7fbc-48a0-920b-69795d596fa2"},"vehicle_type_id":"4","last_reported":1702451201,"current_range_meters":16400,"station_id":"ce4bgt92rcd13ifvqcg0","pricing_plan_id":"free"},{"bike_id":"dc68debd-6203-4696-b9a5-55eea857c5a0","system_id":"levelo_inurba_marseille","lat":43.317201,"lon":5.376796,"is_reserved":false,"is_disabled":false,"rental_uris":{"android":"levelo://app?vid=dc68debd-6203-4696-b9a5-55eea857c5a0","ios":"levelo://app?vid=dc68debd-6203-4696-b9a5-55eea857c5a0"},"vehicle_type_id":"4","last_reported":1702451201,"current_range_meters":24800,"station_id":"ce4bgth2rcd13ifvqch0","pricing_plan_id":"free"},{"bike_id":"f0547b77-6f20-423d-98ca-ff544c3c1d23","system_id":"levelo_inurba_marseille","lat":43.317,"lon":5.37827,"is_reserved":false,"is_disabled":false,"rental_uris":{"android":"levelo://app?vid=f0547b77-6f20-423d-98ca-ff544c3c1d23","ios":"levelo://app?vid=f0547b77-6f20-423d-98ca-ff544c3c1d23"},"vehicle_type_id":"4","last_reported":1702451201,"current_range_meters":22000,"station_id":"","pricing_plan_id":"free"},{"bike_id":"ca0f765c-f726-4957-ae1e-2d58ac366c8d","system_id":"levelo_inurba_marseille","lat":43.314145,"lon":5.380271,"is_reserved":false,"is_disabled":false,"rental_uris":{"android":"levelo://app?vid=ca0f765c-f726-4957-ae1e-2d58ac366c8d","ios":"levelo://app?vid=ca0f765c-f726-4957-ae1e-2d58ac366c8d"},"vehicle_type_id":"4","last_reported":1702451201,"current_range_meters":9200,"station_id":"","pricing_plan_id":"free"},{"bike_id":"8c9b5dd0-f0b7-4bc6-a048-b67f6fd7e68f","system_id":"levelo_inurba_marseille","lat":43.304606,"lon":5.379026,"is_reserved":false,"is_disabled":false,"rental_uris":{"android":"levelo://app?vid=8c9b5dd0-f0b7-4bc6-a048-b67f6fd7e68f","ios":"levelo://app?vid=8c9b5dd0-f0b7-4bc6-a048-b67f6fd7e68f"},"vehicle_type_id":"4","last_reported":1702451201,"current_range_meters":24000,"station_id":"ce4bgup2rcd13ifvqcn0","pricing_plan_id":"free"},{"bike_id":"85a7dc7b-41e6-42e5-9e73-a38fee89872e","system_id":"levelo_inurba_marseille","lat":43.304606,"lon":5.379026,"is_reserved":false,"is_disabled":false,"rental_uris":{"android":"levelo://app?vid=85a7dc7b-41e6-42e5-9e73-a38fee89872e","ios":"levelo://app?vid=85a7dc7b-41e6-42e5-9e73-a38fee89872e"},"vehicle_type_id":"4","last_reported":1702451201,"current_range_meters":13600,"station_id":"ce4bgup2rcd13ifvqcn0","pricing_plan_id":"free"},{"bike_id":"dd2d680e-f912-4d0d-b573-920b186a2c36","system_id":"levelo_inurba_marseille","lat":43.304606,"lon":5.379026,"is_reserved":false,"is_disabled":false,"rental_uris":{"android":"levelo://app?vid=dd2d680e-f912-4d0d-b573-920b186a2c36","ios":"levelo://app?vid=dd2d680e-f912-4d0d-b573-920b186a2c36"},"vehicle_type_id":"4","last_reported":1702451201,"current_range_meters":19600,"station_id":"ce4bgup2rcd13ifvqcn0","pricing_plan_id":"free"},{"bike_id":"334d069b-ff1c-41df-b849-4780f97237f1","system_id":"levelo_inurba_marseille","lat":43.304606,"lon":5.379026,"is_reserved":false,"is_disabled":false,"rental_uris":{"android":"levelo://app?vid=334d069b-ff1c-41df-b849-4780f97237f1","ios":"levelo://app?vid=334d069b-ff1c-41df-b849-4780f97237f1"},"vehicle_type_id":"4","last_reported":1702451201,"current_range_meters":18800,"station_id":"ce4bgup2rcd13ifvqcn0","pricing_plan_id":"free"},{"bike_id":"35eecbcd-ad9d-4ac9-90ae-3b7967265ae8","system_id":"levelo_inurba_marseille","lat":43.30456,"lon":5.37902,"is_reserved":false,"is_disabled":false,"rental_uris":{"android":"levelo://app?vid=35eecbcd-ad9d-4ac9-90ae-3b7967265ae8","ios":"levelo://app?vid=35eecbcd-ad9d-4ac9-90ae-3b7967265ae8"},"vehicle_type_id":"4","last_reported":1702451201,"current_range_meters":0,"station_id":"ce4bgup2rcd13ifvqcn0","pricing_plan_id":"free"},{"bike_id":"443495d3-5c95-4ec2-bf2b-82b8d38de0b4","system_id":"levelo_inurba_marseille","lat":43.324797,"lon":5.365591,"is_reserved":false,"is_disabled":false,"rental_uris":{"android":"levelo://app?vid=443495d3-5c95-4ec2-bf2b-82b8d38de0b4","ios":"levelo://app?vid=443495d3-5c95-4ec2-bf2b-82b8d38de0b4"},"vehicle_type_id":"4","last_reported":1702451201,"current_range_meters":22400,"station_id":"ce4bhs12rcd13ifvqhvg","pricing_plan_id":"free"},{"bike_id":"aa3cdc10-a2b4-4348-a58d-ea513d683fe2","system_id":"levelo_inurba_marseille","lat":43.324771,"lon":5.36557,"is_reserved":false,"is_disabled":false,"rental_uris":{"android":"levelo://app?vid=aa3cdc10-a2b4-4348-a58d-ea513d683fe2","ios":"levelo://app?vid=aa3cdc10-a2b4-4348-a58d-ea513d683fe2"},"vehicle_type_id":"4","last_reported":1702451201,"current_range_meters":23600,"station_id":"ce4bhs12rcd13ifvqhvg","pricing_plan_id":"free"},{"bike_id":"867e5ce2-c58e-4711-8e46-3cbf7e9dae57","system_id":"levelo_inurba_marseille","lat":43.30143,"lon":5.37413,"is_reserved":false,"is_disabled":false,"rental_uris":{"android":"levelo://app?vid=867e5ce2-c58e-4711-8e46-3cbf7e9dae57","ios":"levelo://app?vid=867e5ce2-c58e-4711-8e46-3cbf7e9dae57"},"vehicle_type_id":"4","last_reported":1702451201,"current_range_meters":29600,"station_id":"ce4bgs92rcd13ifvqcc0","pricing_plan_id":"free"},{"bike_id":"945537ba-55d8-4202-87ae-057d8b8ebf83","system_id":"levelo_inurba_marseille","lat":43.313571,"lon":5.384829,"is_reserved":false,"is_disabled":false,"rental_uris":{"android":"levelo://app?vid=945537ba-55d8-4202-87ae-057d8b8ebf83","ios":"levelo://app?vid=945537ba-55d8-4202-87ae-057d8b8ebf83"},"vehicle_type_id":"4","last_reported":1702451201,"current_range_meters":16400,"station_id":"ce4bgt92rcd13ifvqcf0","pricing_plan_id":"free"},{"bike_id":"d31a809a-8928-4de0-80d1-36f268effce0","system_id":"levelo_inurba_marseille","lat":43.299222,"lon":5.365554,"is_reserved":false,"is_disabled":false,"rental_uris":{"android":"levelo://app?vid=d31a809a-8928-4de0-80d1-36f268effce0","ios":"levelo://app?vid=d31a809a-8928-4de0-80d1-36f268effce0"},"vehicle_type_id":"4","last_reported":1702451201,"current_range_meters":12800,"station_id":"ce4bgm92rcd13ifvqbr0","pricing_plan_id":"free"},{"bike_id":"0900325f-fc29-43ca-958c-175044a6267c","system_id":"levelo_inurba_marseille","lat":43.29852,"lon":5.36285,"is_reserved":false,"is_disabled":false,"rental_uris":{"android":"levelo://app?vid=0900325f-fc29-43ca-958c-175044a6267c","ios":"levelo://app?vid=0900325f-fc29-43ca-958c-175044a6267c"},"vehicle_type_id":"4","last_reported":1702451201,"current_range_meters":30400,"station_id":"ce4bgpp2rcd13ifvqc3g","pricing_plan_id":"free"},{"bike_id":"f8a14366-a822-4675-bdb2-e42f8f2666d3","system_id":"levelo_inurba_marseille","lat":43.2985,"lon":5.36284,"is_reserved":false,"is_disabled":false,"rental_uris":{"android":"levelo://app?vid=f8a14366-a822-4675-bdb2-e42f8f2666d3","ios":"levelo://app?vid=f8a14366-a822-4675-bdb2-e42f8f2666d3"},"vehicle_type_id":"4","last_reported":1702451201,"current_range_meters":30000,"station_id":"ce4bgpp2rcd13ifvqc3g","pricing_plan_id":"free"},{"bike_id":"91c92527-c710-4caf-bb07-a7e197d9101a","system_id":"levelo_inurba_marseille","lat":43.29848,"lon":5.36286,"is_reserved":false,"is_disabled":false,"rental_uris":{"android":"levelo://app?vid=91c92527-c710-4caf-bb07-a7e197d9101a","ios":"levelo://app?vid=91c92527-c710-4caf-bb07-a7e197d9101a"},"vehicle_type_id":"4","last_reported":1702451201,"current_range_meters":27200,"station_id":"ce4bgpp2rcd13ifvqc3g","pricing_plan_id":"free"},{"bike_id":"9429d4af-cc6f-4e11-a50d-4877d91a62b4","system_id":"levelo_inurba_marseille","lat":43.29848,"lon":5.36284,"is_reserved":false,"is_disabled":false,"rental_uris":{"android":"levelo://app?vid=9429d4af-cc6f-4e11-a50d-4877d91a62b4","ios":"levelo://app?vid=9429d4af-cc6f-4e11-a50d-4877d91a62b4"},"vehicle_type_id":"4","last_reported":1702451201,"current_range_meters":10400,"station_id":"ce4bgpp2rcd13ifvqc3g","pricing_plan_id":"free"},{"bike_id":"2c2b3f82-6c5d-4f0f-8d24-54dd1bcebd06","system_id":"levelo_inurba_marseille","lat":43.298433,"lon":5.362774,"is_reserved":false,"is_disabled":false,"rental_uris":{"android":"levelo://app?vid=2c2b3f82-6c5d-4f0f-8d24-54dd1bcebd06","ios":"levelo://app?vid=2c2b3f82-6c5d-4f0f-8d24-54dd1bcebd06"},"vehicle_type_id":"4","last_reported":1702451201,"current_range_meters":28800,"station_id":"ce4bgpp2rcd13ifvqc3g","pricing_plan_id":"free"},{"bike_id":"77a6c46d-d898-4e4f-8846-efa91689c7f0","system_id":"levelo_inurba_marseille","lat":43.302006,"lon":5.38065,"is_reserved":false,"is_disabled":false,"rental_uris":{"android":"levelo://app?vid=77a6c46d-d898-4e4f-8846-efa91689c7f0","ios":"levelo://app?vid=77a6c46d-d898-4e4f-8846-efa91689c7f0"},"vehicle_type_id":"4","last_reported":1702451201,"current_range_meters":0,"station_id":"","pricing_plan_id":"free"},{"bike_id":"80b93750-e786-4a1e-8b1a-2c41e14c955b","system_id":"levelo_inurba_marseille","lat":43.297774,"lon":5.370875,"is_reserved":false,"is_disabled":false,"rental_uris":{"android":"levelo://app?vid=80b93750-e786-4a1e-8b1a-2c41e14c955b","ios":"levelo://app?vid=80b93750-e786-4a1e-8b1a-2c41e14c955b"},"vehicle_type_id":"4","last_reported":1702451201,"current_range_meters":27200,"station_id":"ce4bgop2rcd13ifvqc1g","pricing_plan_id":"free"},{"bike_id":"c7500106-5800-47b1-bb65-b418a135c61f","system_id":"levelo_inurba_marseille","lat":43.297829,"lon":5.371127,"is_reserved":false,"is_disabled":false,"rental_uris":{"android":"levelo://app?vid=c7500106-5800-47b1-bb65-b418a135c61f","ios":"levelo://app?vid=c7500106-5800-47b1-bb65-b418a135c61f"},"vehicle_type_id":"4","last_reported":1702451201,"current_range_meters":23600,"station_id":"ce4bgop2rcd13ifvqc1g","pricing_plan_id":"free"},{"bike_id":"ef62d099-880c-48b4-a857-30e56a94bd16","system_id":"levelo_inurba_marseille","lat":43.322872,"lon":5.382756,"is_reserved":false,"is_disabled":false,"rental_uris":{"android":"levelo://app?vid=ef62d099-880c-48b4-a857-30e56a94bd16","ios":"levelo://app?vid=ef62d099-880c-48b4-a857-30e56a94bd16"},"vehicle_type_id":"4","last_reported":1702451201,"current_range_meters":31200,"station_id":"ce4bhr12rcd13ifvqhqg","pricing_plan_id":"free"},{"bike_id":"41d98f4b-2955-4d30-8453-407976372d8b","system_id":"levelo_inurba_marseille","lat":43.32824,"lon":5.36691,"is_reserved":false,"is_disabled":false,"rental_uris":{"android":"levelo://app?vid=41d98f4b-2955-4d30-8453-407976372d8b","ios":"levelo://app?vid=41d98f4b-2955-4d30-8453-407976372d8b"},"vehicle_type_id":"4","last_reported":1702451201,"current_range_meters":22800,"station_id":"ce4bhs92rcd13ifvqi0g","pricing_plan_id":"free"},{"bike_id":"2f3bb280-052a-4468-af6b-ff1bc60be439","system_id":"levelo_inurba_marseille","lat":43.328261,"lon":5.366934,"is_reserved":false,"is_disabled":false,"rental_uris":{"android":"levelo://app?vid=2f3bb280-052a-4468-af6b-ff1bc60be439","ios":"levelo://app?vid=2f3bb280-052a-4468-af6b-ff1bc60be439"},"vehicle_type_id":"4","last_reported":1702451201,"current_range_meters":18400,"station_id":"ce4bhs92rcd13ifvqi0g","pricing_plan_id":"free"},{"bike_id":"f6a62362-1831-4aa5-9227-c5f949743ee8","system_id":"levelo_inurba_marseille","lat":43.328371,"lon":5.366909,"is_reserved":false,"is_disabled":false,"rental_uris":{"android":"levelo://app?vid=f6a62362-1831-4aa5-9227-c5f949743ee8","ios":"levelo://app?vid=f6a62362-1831-4aa5-9227-c5f949743ee8"},"vehicle_type_id":"4","last_reported":1702451201,"current_range_meters":27200,"station_id":"ce4bhs92rcd13ifvqi0g","pricing_plan_id":"free"},{"bike_id":"e3935d40-6844-4fe8-8a96-631442334792","system_id":"levelo_inurba_marseille","lat":43.328371,"lon":5.366909,"is_reserved":false,"is_disabled":false,"rental_uris":{"android":"levelo://app?vid=e3935d40-6844-4fe8-8a96-631442334792","ios":"levelo://app?vid=e3935d40-6844-4fe8-8a96-631442334792"},"vehicle_type_id":"4","last_reported":1702451201,"current_range_meters":29600,"station_id":"ce4bhs92rcd13ifvqi0g","pricing_plan_id":"free"},{"bike_id":"1319925a-1f8a-4218-93ea-9bd51058c02f","system_id":"levelo_inurba_marseille","lat":43.297081,"lon":5.366074,"is_reserved":false,"is_disabled":false,"rental_uris":{"android":"levelo://app?vid=1319925a-1f8a-4218-93ea-9bd51058c02f","ios":"levelo://app?vid=1319925a-1f8a-4218-93ea-9bd51058c02f"},"vehicle_type_id":"4","last_reported":1702451201,"current_range_meters":26800,"station_id":"","pricing_plan_id":"free"},{"bike_id":"7a878ee5-6910-45dd-b3bd-722059d35da7","system_id":"levelo_inurba_marseille","lat":43.29787,"lon":5.37679,"is_reserved":false,"is_disabled":false,"rental_uris":{"android":"levelo://app?vid=7a878ee5-6910-45dd-b3bd-722059d35da7","ios":"levelo://app?vid=7a878ee5-6910-45dd-b3bd-722059d35da7"},"vehicle_type_id":"4","last_reported":1702451201,"current_range_meters":9600,"station_id":"","pricing_plan_id":"free"},{"bike_id":"f149b977-e31c-44b2-9796-7a58e374fb3a","system_id":"levelo_inurba_marseille","lat":43.29573,"lon":5.367355,"is_reserved":false,"is_disabled":false,"rental_uris":{"android":"levelo://app?vid=f149b977-e31c-44b2-9796-7a58e374fb3a","ios":"levelo://app?vid=f149b977-e31c-44b2-9796-7a58e374fb3a"},"vehicle_type_id":"4","last_reported":1702451201,"current_range_meters":17200,"station_id":"ce4bgph2rcd13ifvqc2g","pricing_plan_id":"free"},{"bike_id":"47da23a6-ff7d-4c79-b330-7984a7f3847e","system_id":"levelo_inurba_marseille","lat":43.309589,"lon":5.390258,"is_reserved":false,"is_disabled":false,"rental_uris":{"android":"levelo://app?vid=47da23a6-ff7d-4c79-b330-7984a7f3847e","ios":"levelo://app?vid=47da23a6-ff7d-4c79-b330-7984a7f3847e"},"vehicle_type_id":"4","last_reported":1702451201,"current_range_meters":30800,"station_id":"ce4bgup2rcd13ifvqco0","pricing_plan_id":"free"},{"bike_id":"b7d1bd63-e066-48e7-89f5-ef4aaaa4adc6","system_id":"levelo_inurba_marseille","lat":43.304274,"lon":5.388873,"is_reserved":false,"is_disabled":false,"rental_uris":{"android":"levelo://app?vid=b7d1bd63-e066-48e7-89f5-ef4aaaa4adc6","ios":"levelo://app?vid=b7d1bd63-e066-48e7-89f5-ef4aaaa4adc6"},"vehicle_type_id":"4","last_reported":1702451201,"current_range_meters":24400,"station_id":"ce4bgk12rcd13ifvqbi0","pricing_plan_id":"free"},{"bike_id":"9fafa219-4010-46ac-a092-39e6cd5dabf7","system_id":"levelo_inurba_marseille","lat":43.32364,"lon":5.38883,"is_reserved":false,"is_disabled":false,"rental_uris":{"android":"levelo://app?vid=9fafa219-4010-46ac-a092-39e6cd5dabf7","ios":"levelo://app?vid=9fafa219-4010-46ac-a092-39e6cd5dabf7"},"vehicle_type_id":"4","last_reported":1702451201,"current_range_meters":18000,"station_id":"ce4bhqp2rcd13ifvqhog","pricing_plan_id":"free"},{"bike_id":"bff9db26-45f0-4d89-be98-df76335b799a","system_id":"levelo_inurba_marseille","lat":43.323694,"lon":5.388829,"is_reserved":false,"is_disabled":false,"rental_uris":{"android":"levelo://app?vid=bff9db26-45f0-4d89-be98-df76335b799a","ios":"levelo://app?vid=bff9db26-45f0-4d89-be98-df76335b799a"},"vehicle_type_id":"4","last_reported":1702451201,"current_range_meters":19600,"station_id":"ce4bhqp2rcd13ifvqhog","pricing_plan_id":"free"},{"bike_id":"b404103d-36c0-4e63-9bee-2c5d20bac60d","system_id":"levelo_inurba_marseille","lat":43.305994,"lon":5.393687,"is_reserved":false,"is_disabled":false,"rental_uris":{"android":"levelo://app?vid=b404103d-36c0-4e63-9bee-2c5d20bac60d","ios":"levelo://app?vid=b404103d-36c0-4e63-9bee-2c5d20bac60d"},"vehicle_type_id":"4","last_reported":1702451201,"current_range_meters":6400,"station_id":"ce4bh0p2rcd13ifvqd80","pricing_plan_id":"free"},{"bike_id":"d67f33e9-d523-46ec-9204-0946ffaaf37a","system_id":"levelo_inurba_marseille","lat":43.292749,"lon":5.368402,"is_reserved":false,"is_disabled":false,"rental_uris":{"android":"levelo://app?vid=d67f33e9-d523-46ec-9204-0946ffaaf37a","ios":"levelo://app?vid=d67f33e9-d523-46ec-9204-0946ffaaf37a"},"vehicle_type_id":"4","last_reported":1702451201,"current_range_meters":17200,"station_id":"ce4bhbp2rcd13ifvqesg","pricing_plan_id":"free"},{"bike_id":"c810e0e0-62b3-4cd0-be49-4a860f979896","system_id":"levelo_inurba_marseille","lat":43.305994,"lon":5.393687,"is_reserved":false,"is_disabled":false,"rental_uris":{"android":"levelo://app?vid=c810e0e0-62b3-4cd0-be49-4a860f979896","ios":"levelo://app?vid=c810e0e0-62b3-4cd0-be49-4a860f979896"},"vehicle_type_id":"4","last_reported":1702451201,"current_range_meters":16800,"station_id":"ce4bh0p2rcd13ifvqd80","pricing_plan_id":"free"},{"bike_id":"bc577492-7d8a-4d1f-b178-e888757371cc","system_id":"levelo_inurba_marseille","lat":43.305994,"lon":5.393687,"is_reserved":false,"is_disabled":false,"rental_uris":{"android":"levelo://app?vid=bc577492-7d8a-4d1f-b178-e888757371cc","ios":"levelo://app?vid=bc577492-7d8a-4d1f-b178-e888757371cc"},"vehicle_type_id":"4","last_reported":1702451201,"current_range_meters":29600,"station_id":"ce4bh0p2rcd13ifvqd80","pricing_plan_id":"free"},{"bike_id":"62eeae15-8ca6-4fe2-98ee-eebeb51ca1d9","system_id":"levelo_inurba_marseille","lat":43.313291,"lon":5.396838,"is_reserved":false,"is_disabled":false,"rental_uris":{"android":"levelo://app?vid=62eeae15-8ca6-4fe2-98ee-eebeb51ca1d9","ios":"levelo://app?vid=62eeae15-8ca6-4fe2-98ee-eebeb51ca1d9"},"vehicle_type_id":"4","last_reported":1702451201,"current_range_meters":20800,"station_id":"ce4bgvp2rcd13ifvqcu0","pricing_plan_id":"free"},{"bike_id":"efb5f14a-dda0-496d-9c26-b10d1cc70258","system_id":"levelo_inurba_marseille","lat":43.29529,"lon":5.385581,"is_reserved":false,"is_disabled":false,"rental_uris":{"android":"levelo://app?vid=efb5f14a-dda0-496d-9c26-b10d1cc70258","ios":"levelo://app?vid=efb5f14a-dda0-496d-9c26-b10d1cc70258"},"vehicle_type_id":"4","last_reported":1702451201,"current_range_meters":26400,"station_id":"ce4bgih2rcd13ifvqba0","pricing_plan_id":"free"},{"bike_id":"d902905c-b7ee-4cdf-8545-5f9518cd8d31","system_id":"levelo_inurba_marseille","lat":43.30211,"lon":5.39456,"is_reserved":false,"is_disabled":false,"rental_uris":{"android":"levelo://app?vid=d902905c-b7ee-4cdf-8545-5f9518cd8d31","ios":"levelo://app?vid=d902905c-b7ee-4cdf-8545-5f9518cd8d31"},"vehicle_type_id":"4","last_reported":1702451201,"current_range_meters":28800,"station_id":"ce4bh0p2rcd13ifvqd70","pricing_plan_id":"free"},{"bike_id":"8a21ee28-bd92-4a35-b67e-801bf368e35e","system_id":"levelo_inurba_marseille","lat":43.30212,"lon":5.39469,"is_reserved":false,"is_disabled":false,"rental_uris":{"android":"levelo://app?vid=8a21ee28-bd92-4a35-b67e-801bf368e35e","ios":"levelo://app?vid=8a21ee28-bd92-4a35-b67e-801bf368e35e"},"vehicle_type_id":"4","last_reported":1702451201,"current_range_meters":17200,"station_id":"","pricing_plan_id":"free"},{"bike_id":"5b25297c-02a4-4eb1-8fde-7f60f8a4a862","system_id":"levelo_inurba_marseille","lat":43.29044,"lon":5.37588,"is_reserved":false,"is_disabled":false,"rental_uris":{"android":"levelo://app?vid=5b25297c-02a4-4eb1-8fde-7f60f8a4a862","ios":"levelo://app?vid=5b25297c-02a4-4eb1-8fde-7f60f8a4a862"},"vehicle_type_id":"4","last_reported":1702451201,"current_range_meters":23200,"station_id":"","pricing_plan_id":"free"},{"bike_id":"f8f0686e-72b5-4342-8af6-2000be4c3eec","system_id":"levelo_inurba_marseille","lat":43.290161,"lon":5.375651,"is_reserved":false,"is_disabled":false,"rental_uris":{"android":"levelo://app?vid=f8f0686e-72b5-4342-8af6-2000be4c3eec","ios":"levelo://app?vid=f8f0686e-72b5-4342-8af6-2000be4c3eec"},"vehicle_type_id":"4","last_reported":1702451201,"current_range_meters":0,"station_id":"","pricing_plan_id":"free"},{"bike_id":"b759538c-75fc-4ccb-9b73-2031bf78f0fa","system_id":"levelo_inurba_marseille","lat":43.33042,"lon":5.38923,"is_reserved":false,"is_disabled":false,"rental_uris":{"android":"levelo://app?vid=b759538c-75fc-4ccb-9b73-2031bf78f0fa","ios":"levelo://app?vid=b759538c-75fc-4ccb-9b73-2031bf78f0fa"},"vehicle_type_id":"4","last_reported":1702451201,"current_range_meters":15200,"station_id":"ce4bhr92rcd13ifvqhrg","pricing_plan_id":"free"},{"bike_id":"5ec66627-a146-44e2-9423-3654d927d456","system_id":"levelo_inurba_marseille","lat":43.290104,"lon":5.356111,"is_reserved":false,"is_disabled":false,"rental_uris":{"android":"levelo://app?vid=5ec66627-a146-44e2-9423-3654d927d456","ios":"levelo://app?vid=5ec66627-a146-44e2-9423-3654d927d456"},"vehicle_type_id":"4","last_reported":1702451201,"current_range_meters":27600,"station_id":"ce4bhb92rcd13ifvqen0","pricing_plan_id":"free"},{"bike_id":"e8bbed57-2a0f-4ca5-8224-3fc41021069c","system_id":"levelo_inurba_marseille","lat":43.29781,"lon":5.39327,"is_reserved":false,"is_disabled":false,"rental_uris":{"android":"levelo://app?vid=e8bbed57-2a0f-4ca5-8224-3fc41021069c","ios":"levelo://app?vid=e8bbed57-2a0f-4ca5-8224-3fc41021069c"},"vehicle_type_id":"4","last_reported":1702451201,"current_range_meters":20400,"station_id":"chh1huq6cuj3fo74tm60","pricing_plan_id":"free"},{"bike_id":"bffd6f07-ef41-4d9d-a26d-8ec9067792c7","system_id":"levelo_inurba_marseille","lat":43.28855,"lon":5.35868,"is_reserved":false,"is_disabled":false,"rental_uris":{"android":"levelo://app?vid=bffd6f07-ef41-4d9d-a26d-8ec9067792c7","ios":"levelo://app?vid=bffd6f07-ef41-4d9d-a26d-8ec9067792c7"},"vehicle_type_id":"4","last_reported":1702451201,"current_range_meters":11200,"station_id":"ce4bhb12rcd13ifvqem0","pricing_plan_id":"free"},{"bike_id":"43c33625-087b-4e18-b51c-29e10e80469d","system_id":"levelo_inurba_marseille","lat":43.312736,"lon":5.401626,"is_reserved":false,"is_disabled":false,"rental_uris":{"android":"levelo://app?vid=43c33625-087b-4e18-b51c-29e10e80469d","ios":"levelo://app?vid=43c33625-087b-4e18-b51c-29e10e80469d"},"vehicle_type_id":"4","last_reported":1702451201,"current_range_meters":5600,"station_id":"ce4bh092rcd13ifvqd30","pricing_plan_id":"free"},{"bike_id":"67a71298-f781-4402-8d03-cdb5dd11acae","system_id":"levelo_inurba_marseille","lat":43.337451,"lon":5.37463,"is_reserved":false,"is_disabled":false,"rental_uris":{"android":"levelo://app?vid=67a71298-f781-4402-8d03-cdb5dd11acae","ios":"levelo://app?vid=67a71298-f781-4402-8d03-cdb5dd11acae"},"vehicle_type_id":"4","last_reported":1702451201,"current_range_meters":28400,"station_id":"","pricing_plan_id":"free"},{"bike_id":"20c92059-4de4-433a-8357-725b0a14efca","system_id":"levelo_inurba_marseille","lat":43.3375,"lon":5.37457,"is_reserved":false,"is_disabled":false,"rental_uris":{"android":"levelo://app?vid=20c92059-4de4-433a-8357-725b0a14efca","ios":"levelo://app?vid=20c92059-4de4-433a-8357-725b0a14efca"},"vehicle_type_id":"4","last_reported":1702451201,"current_range_meters":19200,"station_id":"","pricing_plan_id":"free"},{"bike_id":"24a495d7-78c0-43f7-81da-482f25a13271","system_id":"levelo_inurba_marseille","lat":43.33759,"lon":5.37436,"is_reserved":false,"is_disabled":false,"rental_uris":{"android":"levelo://app?vid=24a495d7-78c0-43f7-81da-482f25a13271","ios":"levelo://app?vid=24a495d7-78c0-43f7-81da-482f25a13271"},"vehicle_type_id":"4","last_reported":1702451201,"current_range_meters":22000,"station_id":"","pricing_plan_id":"free"},{"bike_id":"709bebcd-7a96-4a30-894a-152bbb656aa7","system_id":"levelo_inurba_marseille","lat":43.33768,"lon":5.37475,"is_reserved":false,"is_disabled":false,"rental_uris":{"android":"levelo://app?vid=709bebcd-7a96-4a30-894a-152bbb656aa7","ios":"levelo://app?vid=709bebcd-7a96-4a30-894a-152bbb656aa7"},"vehicle_type_id":"4","last_reported":1702451201,"current_range_meters":17200,"station_id":"","pricing_plan_id":"free"},{"bike_id":"3cbcbb37-a92d-4f78-b689-2f73f286e701","system_id":"levelo_inurba_marseille","lat":43.33769,"lon":5.37476,"is_reserved":false,"is_disabled":false,"rental_uris":{"android":"levelo://app?vid=3cbcbb37-a92d-4f78-b689-2f73f286e701","ios":"levelo://app?vid=3cbcbb37-a92d-4f78-b689-2f73f286e701"},"vehicle_type_id":"4","last_reported":1702451201,"current_range_meters":14800,"station_id":"","pricing_plan_id":"free"},{"bike_id":"2664540a-62df-46c6-85a7-62261b5674b1","system_id":"levelo_inurba_marseille","lat":43.286593,"lon":5.363346,"is_reserved":false,"is_disabled":false,"rental_uris":{"android":"levelo://app?vid=2664540a-62df-46c6-85a7-62261b5674b1","ios":"levelo://app?vid=2664540a-62df-46c6-85a7-62261b5674b1"},"vehicle_type_id":"4","last_reported":1702451201,"current_range_meters":30800,"station_id":"ce4bhah2rcd13ifvqej0","pricing_plan_id":"free"},{"bike_id":"50874769-7088-4b13-a54b-d065df15b6e3","system_id":"levelo_inurba_marseille","lat":43.302759,"lon":5.400793,"is_reserved":false,"is_disabled":false,"rental_uris":{"android":"levelo://app?vid=50874769-7088-4b13-a54b-d065df15b6e3","ios":"levelo://app?vid=50874769-7088-4b13-a54b-d065df15b6e3"},"vehicle_type_id":"4","last_reported":1702451201,"current_range_meters":16800,"station_id":"ce4bgvh2rcd13ifvqcs0","pricing_plan_id":"free"},{"bike_id":"ec598085-bf81-4d1b-8a0b-e80b232654a0","system_id":"levelo_inurba_marseille","lat":43.290345,"lon":5.38646,"is_reserved":false,"is_disabled":false,"rental_uris":{"android":"levelo://app?vid=ec598085-bf81-4d1b-8a0b-e80b232654a0","ios":"levelo://app?vid=ec598085-bf81-4d1b-8a0b-e80b232654a0"},"vehicle_type_id":"4","last_reported":1702451201,"current_range_meters":26400,"station_id":"ce4bh4p2rcd13ifvqe0g","pricing_plan_id":"free"},{"bike_id":"ecb1d2b6-1a95-4e68-8279-d5babec4f9c7","system_id":"levelo_inurba_marseille","lat":43.302759,"lon":5.400793,"is_reserved":false,"is_disabled":false,"rental_uris":{"android":"levelo://app?vid=ecb1d2b6-1a95-4e68-8279-d5babec4f9c7","ios":"levelo://app?vid=ecb1d2b6-1a95-4e68-8279-d5babec4f9c7"},"vehicle_type_id":"4","last_reported":1702451201,"current_range_meters":20800,"station_id":"ce4bgvh2rcd13ifvqcs0","pricing_plan_id":"free"},{"bike_id":"f00aace3-1076-4a99-83bf-51b4c3df0dd2","system_id":"levelo_inurba_marseille","lat":43.290345,"lon":5.38646,"is_reserved":false,"is_disabled":false,"rental_uris":{"android":"levelo://app?vid=f00aace3-1076-4a99-83bf-51b4c3df0dd2","ios":"levelo://app?vid=f00aace3-1076-4a99-83bf-51b4c3df0dd2"},"vehicle_type_id":"4","last_reported":1702451201,"current_range_meters":30400,"station_id":"ce4bh4p2rcd13ifvqe0g","pricing_plan_id":"free"},{"bike_id":"84d491b4-cdf2-40f4-b202-30279e0fd6df","system_id":"levelo_inurba_marseille","lat":43.290345,"lon":5.38646,"is_reserved":false,"is_disabled":false,"rental_uris":{"android":"levelo://app?vid=84d491b4-cdf2-40f4-b202-30279e0fd6df","ios":"levelo://app?vid=84d491b4-cdf2-40f4-b202-30279e0fd6df"},"vehicle_type_id":"4","last_reported":1702451201,"current_range_meters":21600,"station_id":"ce4bh4p2rcd13ifvqe0g","pricing_plan_id":"free"},{"bike_id":"302a48de-139a-4a79-a939-3b469ec87209","system_id":"levelo_inurba_marseille","lat":43.290271,"lon":5.386547,"is_reserved":false,"is_disabled":false,"rental_uris":{"android":"levelo://app?vid=302a48de-139a-4a79-a939-3b469ec87209","ios":"levelo://app?vid=302a48de-139a-4a79-a939-3b469ec87209"},"vehicle_type_id":"4","last_reported":1702451201,"current_range_meters":1600,"station_id":"ce4bh4p2rcd13ifvqe0g","pricing_plan_id":"free"},{"bike_id":"e6f96735-bddb-4c5c-8770-f856985a5304","system_id":"levelo_inurba_marseille","lat":43.302759,"lon":5.400793,"is_reserved":false,"is_disabled":false,"rental_uris":{"android":"levelo://app?vid=e6f96735-bddb-4c5c-8770-f856985a5304","ios":"levelo://app?vid=e6f96735-bddb-4c5c-8770-f856985a5304"},"vehicle_type_id":"4","last_reported":1702451201,"current_range_meters":22800,"station_id":"ce4bgvh2rcd13ifvqcs0","pricing_plan_id":"free"},{"bike_id":"28ac71a5-8dc8-46cb-9bf7-9fa3ad97d743","system_id":"levelo_inurba_marseille","lat":43.302759,"lon":5.400793,"is_reserved":false,"is_disabled":false,"rental_uris":{"android":"levelo://app?vid=28ac71a5-8dc8-46cb-9bf7-9fa3ad97d743","ios":"levelo://app?vid=28ac71a5-8dc8-46cb-9bf7-9fa3ad97d743"},"vehicle_type_id":"4","last_reported":1702451201,"current_range_meters":4800,"station_id":"ce4bgvh2rcd13ifvqcs0","pricing_plan_id":"free"},{"bike_id":"ee244a32-19d5-4d59-b3a9-d0d3e4fae369","system_id":"levelo_inurba_marseille","lat":43.302759,"lon":5.400793,"is_reserved":false,"is_disabled":false,"rental_uris":{"android":"levelo://app?vid=ee244a32-19d5-4d59-b3a9-d0d3e4fae369","ios":"levelo://app?vid=ee244a32-19d5-4d59-b3a9-d0d3e4fae369"},"vehicle_type_id":"4","last_reported":1702451201,"current_range_meters":27200,"station_id":"ce4bgvh2rcd13ifvqcs0","pricing_plan_id":"free"},{"bike_id":"9159c8e3-8f67-426b-bcea-7b00cf37f53d","system_id":"levelo_inurba_marseille","lat":43.290336,"lon":5.386425,"is_reserved":false,"is_disabled":false,"rental_uris":{"android":"levelo://app?vid=9159c8e3-8f67-426b-bcea-7b00cf37f53d","ios":"levelo://app?vid=9159c8e3-8f67-426b-bcea-7b00cf37f53d"},"vehicle_type_id":"4","last_reported":1702451201,"current_range_meters":28000,"station_id":"ce4bh4p2rcd13ifvqe0g","pricing_plan_id":"free"},{"bike_id":"883b0922-96ed-4416-83ee-f9faf2d6141b","system_id":"levelo_inurba_marseille","lat":43.287185,"lon":5.379373,"is_reserved":false,"is_disabled":false,"rental_uris":{"android":"levelo://app?vid=883b0922-96ed-4416-83ee-f9faf2d6141b","ios":"levelo://app?vid=883b0922-96ed-4416-83ee-f9faf2d6141b"},"vehicle_type_id":"4","last_reported":1702451201,"current_range_meters":13200,"station_id":"ce4bh9p2rcd13ifvqec0","pricing_plan_id":"free"},{"bike_id":"d6959835-3a4b-4517-9991-26c1f05786e2","system_id":"levelo_inurba_marseille","lat":43.290345,"lon":5.38646,"is_reserved":false,"is_disabled":false,"rental_uris":{"android":"levelo://app?vid=d6959835-3a4b-4517-9991-26c1f05786e2","ios":"levelo://app?vid=d6959835-3a4b-4517-9991-26c1f05786e2"},"vehicle_type_id":"4","last_reported":1702451201,"current_range_meters":13200,"station_id":"ce4bh4p2rcd13ifvqe0g","pricing_plan_id":"free"},{"bike_id":"a5e4d066-b19c-43dc-b907-c114d44b5966","system_id":"levelo_inurba_marseille","lat":43.287184,"lon":5.37937,"is_reserved":false,"is_disabled":false,"rental_uris":{"android":"levelo://app?vid=a5e4d066-b19c-43dc-b907-c114d44b5966","ios":"levelo://app?vid=a5e4d066-b19c-43dc-b907-c114d44b5966"},"vehicle_type_id":"4","last_reported":1702451201,"current_range_meters":20400,"station_id":"ce4bh9p2rcd13ifvqec0","pricing_plan_id":"free"},{"bike_id":"0cad23a8-3fa8-4956-bec6-ea8fae49878d","system_id":"levelo_inurba_marseille","lat":43.294314,"lon":5.397498,"is_reserved":false,"is_disabled":false,"rental_uris":{"android":"levelo://app?vid=0cad23a8-3fa8-4956-bec6-ea8fae49878d","ios":"levelo://app?vid=0cad23a8-3fa8-4956-bec6-ea8fae49878d"},"vehicle_type_id":"4","last_reported":1702451201,"current_range_meters":27200,"station_id":"ce4bh3h2rcd13ifvqdo0","pricing_plan_id":"free"},{"bike_id":"53d92f0d-30e8-4a7b-8426-6846b15cdf61","system_id":"levelo_inurba_marseille","lat":43.29609,"lon":5.40011,"is_reserved":false,"is_disabled":false,"rental_uris":{"android":"levelo://app?vid=53d92f0d-30e8-4a7b-8426-6846b15cdf61","ios":"levelo://app?vid=53d92f0d-30e8-4a7b-8426-6846b15cdf61"},"vehicle_type_id":"4","last_reported":1702451201,"current_range_meters":16000,"station_id":"","pricing_plan_id":"free"},{"bike_id":"d1478365-90b9-471a-a18d-d5c8e7955be0","system_id":"levelo_inurba_marseille","lat":43.28676,"lon":5.3866,"is_reserved":false,"is_disabled":false,"rental_uris":{"android":"levelo://app?vid=d1478365-90b9-471a-a18d-d5c8e7955be0","ios":"levelo://app?vid=d1478365-90b9-471a-a18d-d5c8e7955be0"},"vehicle_type_id":"4","last_reported":1702451201,"current_range_meters":21600,"station_id":"ce4bh492rcd13ifvqdug","pricing_plan_id":"free"},{"bike_id":"a49c5c64-bff0-47bf-af2c-aa258506df4f","system_id":"levelo_inurba_marseille","lat":43.323349,"lon":5.406129,"is_reserved":false,"is_disabled":false,"rental_uris":{"android":"levelo://app?vid=a49c5c64-bff0-47bf-af2c-aa258506df4f","ios":"levelo://app?vid=a49c5c64-bff0-47bf-af2c-aa258506df4f"},"vehicle_type_id":"4","last_reported":1702451201,"current_range_meters":31200,"station_id":"ce4bhq92rcd13ifvqhjg","pricing_plan_id":"free"},{"bike_id":"230e5575-3d8d-424d-829c-d126c1127a2c","system_id":"levelo_inurba_marseille","lat":43.3234,"lon":5.4062,"is_reserved":false,"is_disabled":false,"rental_uris":{"android":"levelo://app?vid=230e5575-3d8d-424d-829c-d126c1127a2c","ios":"levelo://app?vid=230e5575-3d8d-424d-829c-d126c1127a2c"},"vehicle_type_id":"4","last_reported":1702451201,"current_range_meters":3600,"station_id":"ce4bhq92rcd13ifvqhjg","pricing_plan_id":"free"},{"bike_id":"7647af49-1e2c-4b8e-8271-8a0e041d1483","system_id":"levelo_inurba_marseille","lat":43.32344,"lon":5.40624,"is_reserved":false,"is_disabled":false,"rental_uris":{"android":"levelo://app?vid=7647af49-1e2c-4b8e-8271-8a0e041d1483","ios":"levelo://app?vid=7647af49-1e2c-4b8e-8271-8a0e041d1483"},"vehicle_type_id":"4","last_reported":1702451201,"current_range_meters":0,"station_id":"ce4bhq92rcd13ifvqhjg","pricing_plan_id":"free"},{"bike_id":"5a26eea5-cde5-412c-88cc-acfedf683753","system_id":"levelo_inurba_marseille","lat":43.283494,"lon":5.380945,"is_reserved":false,"is_disabled":false,"rental_uris":{"android":"levelo://app?vid=5a26eea5-cde5-412c-88cc-acfedf683753","ios":"levelo://app?vid=5a26eea5-cde5-412c-88cc-acfedf683753"},"vehicle_type_id":"4","last_reported":1702451201,"current_range_meters":26400,"station_id":"ce4bh412rcd13ifvqdr0","pricing_plan_id":"free"},{"bike_id":"8ce910d4-91c8-462a-9e36-449a69106746","system_id":"levelo_inurba_marseille","lat":43.289363,"lon":5.396322,"is_reserved":false,"is_disabled":false,"rental_uris":{"android":"levelo://app?vid=8ce910d4-91c8-462a-9e36-449a69106746","ios":"levelo://app?vid=8ce910d4-91c8-462a-9e36-449a69106746"},"vehicle_type_id":"4","last_reported":1702451201,"current_range_meters":22800,"station_id":"ce4bh3h2rcd13ifvqdn0","pricing_plan_id":"free"},{"bike_id":"170c6cbf-828c-4a24-841d-351ef772e3a3","system_id":"levelo_inurba_marseille","lat":43.292724,"lon":5.401131,"is_reserved":false,"is_disabled":false,"rental_uris":{"android":"levelo://app?vid=170c6cbf-828c-4a24-841d-351ef772e3a3","ios":"levelo://app?vid=170c6cbf-828c-4a24-841d-351ef772e3a3"},"vehicle_type_id":"4","last_reported":1702451201,"current_range_meters":4400,"station_id":"ce4bh312rcd13ifvqdk0","pricing_plan_id":"free"},{"bike_id":"dcd584fb-ad66-4a02-8110-a213c2870331","system_id":"levelo_inurba_marseille","lat":43.292724,"lon":5.401131,"is_reserved":false,"is_disabled":false,"rental_uris":{"android":"levelo://app?vid=dcd584fb-ad66-4a02-8110-a213c2870331","ios":"levelo://app?vid=dcd584fb-ad66-4a02-8110-a213c2870331"},"vehicle_type_id":"4","last_reported":1702451201,"current_range_meters":28800,"station_id":"ce4bh312rcd13ifvqdk0","pricing_plan_id":"free"},{"bike_id":"7dcd1d3d-1a78-47e4-9647-d162c1897206","system_id":"levelo_inurba_marseille","lat":43.292724,"lon":5.401131,"is_reserved":false,"is_disabled":false,"rental_uris":{"android":"levelo://app?vid=7dcd1d3d-1a78-47e4-9647-d162c1897206","ios":"levelo://app?vid=7dcd1d3d-1a78-47e4-9647-d162c1897206"},"vehicle_type_id":"4","last_reported":1702451201,"current_range_meters":12800,"station_id":"ce4bh312rcd13ifvqdk0","pricing_plan_id":"free"},{"bike_id":"06e9080a-27d8-427e-989e-9f5eb5c0c68a","system_id":"levelo_inurba_marseille","lat":43.29044,"lon":5.39963,"is_reserved":false,"is_disabled":false,"rental_uris":{"android":"levelo://app?vid=06e9080a-27d8-427e-989e-9f5eb5c0c68a","ios":"levelo://app?vid=06e9080a-27d8-427e-989e-9f5eb5c0c68a"},"vehicle_type_id":"4","last_reported":1702451201,"current_range_meters":23600,"station_id":"ce4bh392rcd13ifvqdm0","pricing_plan_id":"free"},{"bike_id":"b7a50b03-c382-4358-99da-cd118f86be84","system_id":"levelo_inurba_marseille","lat":43.290412,"lon":5.399633,"is_reserved":false,"is_disabled":false,"rental_uris":{"android":"levelo://app?vid=b7a50b03-c382-4358-99da-cd118f86be84","ios":"levelo://app?vid=b7a50b03-c382-4358-99da-cd118f86be84"},"vehicle_type_id":"4","last_reported":1702451201,"current_range_meters":25200,"station_id":"ce4bh392rcd13ifvqdm0","pricing_plan_id":"free"},{"bike_id":"952fa834-b7c4-4e8e-b8ad-468f1ef34cf9","system_id":"levelo_inurba_marseille","lat":43.296263,"lon":5.40601,"is_reserved":false,"is_disabled":false,"rental_uris":{"android":"levelo://app?vid=952fa834-b7c4-4e8e-b8ad-468f1ef34cf9","ios":"levelo://app?vid=952fa834-b7c4-4e8e-b8ad-468f1ef34cf9"},"vehicle_type_id":"4","last_reported":1702451201,"current_range_meters":31200,"station_id":"ce4bh0h2rcd13ifvqd60","pricing_plan_id":"free"},{"bike_id":"fca82b9f-1801-4edd-ba95-19e26f87e742","system_id":"levelo_inurba_marseille","lat":43.296263,"lon":5.40601,"is_reserved":false,"is_disabled":false,"rental_uris":{"android":"levelo://app?vid=fca82b9f-1801-4edd-ba95-19e26f87e742","ios":"levelo://app?vid=fca82b9f-1801-4edd-ba95-19e26f87e742"},"vehicle_type_id":"4","last_reported":1702451201,"current_range_meters":19200,"station_id":"ce4bh0h2rcd13ifvqd60","pricing_plan_id":"free"},{"bike_id":"3a4d2c9d-3dd0-44b2-bd24-6f65c04f3652","system_id":"levelo_inurba_marseille","lat":43.326605,"lon":5.409903,"is_reserved":false,"is_disabled":false,"rental_uris":{"android":"levelo://app?vid=3a4d2c9d-3dd0-44b2-bd24-6f65c04f3652","ios":"levelo://app?vid=3a4d2c9d-3dd0-44b2-bd24-6f65c04f3652"},"vehicle_type_id":"4","last_reported":1702451201,"current_range_meters":19600,"station_id":"ce4bhpp2rcd13ifvqhgg","pricing_plan_id":"free"},{"bike_id":"695a2276-8d8b-4fa1-bd26-0f27d44fe670","system_id":"levelo_inurba_marseille","lat":43.320045,"lon":5.415046,"is_reserved":false,"is_disabled":false,"rental_uris":{"android":"levelo://app?vid=695a2276-8d8b-4fa1-bd26-0f27d44fe670","ios":"levelo://app?vid=695a2276-8d8b-4fa1-bd26-0f27d44fe670"},"vehicle_type_id":"4","last_reported":1702451201,"current_range_meters":9200,"station_id":"ce4bhq92rcd13ifvqhkg","pricing_plan_id":"free"},{"bike_id":"85b05ecc-80c0-46f5-959a-727551c6cbc9","system_id":"levelo_inurba_marseille","lat":43.32045,"lon":5.41559,"is_reserved":false,"is_disabled":false,"rental_uris":{"android":"levelo://app?vid=85b05ecc-80c0-46f5-959a-727551c6cbc9","ios":"levelo://app?vid=85b05ecc-80c0-46f5-959a-727551c6cbc9"},"vehicle_type_id":"4","last_reported":1702451201,"current_range_meters":0,"station_id":"ce4bhq92rcd13ifvqhkg","pricing_plan_id":"free"},{"bike_id":"13ed7864-5e28-4879-bef0-43ec97cea419","system_id":"levelo_inurba_marseille","lat":43.325243,"lon":5.414326,"is_reserved":false,"is_disabled":false,"rental_uris":{"android":"levelo://app?vid=13ed7864-5e28-4879-bef0-43ec97cea419","ios":"levelo://app?vid=13ed7864-5e28-4879-bef0-43ec97cea419"},"vehicle_type_id":"4","last_reported":1702451201,"current_range_meters":20400,"station_id":"ce4bhq12rcd13ifvqhhg","pricing_plan_id":"free"},{"bike_id":"bca5a27f-c25f-433b-ad08-f15021e37e7e","system_id":"levelo_inurba_marseille","lat":43.325243,"lon":5.414326,"is_reserved":false,"is_disabled":false,"rental_uris":{"android":"levelo://app?vid=bca5a27f-c25f-433b-ad08-f15021e37e7e","ios":"levelo://app?vid=bca5a27f-c25f-433b-ad08-f15021e37e7e"},"vehicle_type_id":"4","last_reported":1702451201,"current_range_meters":24000,"station_id":"ce4bhq12rcd13ifvqhhg","pricing_plan_id":"free"},{"bike_id":"a5d24b19-9dc0-44d1-b889-81a1376a732d","system_id":"levelo_inurba_marseille","lat":43.27617,"lon":5.36105,"is_reserved":false,"is_disabled":false,"rental_uris":{"android":"levelo://app?vid=a5d24b19-9dc0-44d1-b889-81a1376a732d","ios":"levelo://app?vid=a5d24b19-9dc0-44d1-b889-81a1376a732d"},"vehicle_type_id":"4","last_reported":1702451201,"current_range_meters":28400,"station_id":"ce4bgj92rcd13ifvqbe0","pricing_plan_id":"free"},{"bike_id":"4e5d7caf-b5bf-4683-af10-d3ea5e1a48fc","system_id":"levelo_inurba_marseille","lat":43.279975,"lon":5.40009,"is_reserved":false,"is_disabled":false,"rental_uris":{"android":"levelo://app?vid=4e5d7caf-b5bf-4683-af10-d3ea5e1a48fc","ios":"levelo://app?vid=4e5d7caf-b5bf-4683-af10-d3ea5e1a48fc"},"vehicle_type_id":"4","last_reported":1702451201,"current_range_meters":27600,"station_id":"ce4bho92rcd13ifvqh4g","pricing_plan_id":"free"},{"bike_id":"e15fcb76-150b-4e94-ba14-1765fbabad44","system_id":"levelo_inurba_marseille","lat":43.310785,"lon":5.424305,"is_reserved":false,"is_disabled":false,"rental_uris":{"android":"levelo://app?vid=e15fcb76-150b-4e94-ba14-1765fbabad44","ios":"levelo://app?vid=e15fcb76-150b-4e94-ba14-1765fbabad44"},"vehicle_type_id":"4","last_reported":1702451201,"current_range_meters":31200,"station_id":"ce4bhp92rcd13ifvqhag","pricing_plan_id":"free"},{"bike_id":"b1c028eb-0fe1-4afa-b35c-b9783a0e9537","system_id":"levelo_inurba_marseille","lat":43.31723,"lon":5.42405,"is_reserved":false,"is_disabled":false,"rental_uris":{"android":"levelo://app?vid=b1c028eb-0fe1-4afa-b35c-b9783a0e9537","ios":"levelo://app?vid=b1c028eb-0fe1-4afa-b35c-b9783a0e9537"},"vehicle_type_id":"4","last_reported":1702451201,"current_range_meters":2800,"station_id":"ce4bhp92rcd13ifvqhbg","pricing_plan_id":"free"},{"bike_id":"66a0ee86-9264-40d0-8482-8ebef1989e38","system_id":"levelo_inurba_marseille","lat":43.27621,"lon":5.39487,"is_reserved":false,"is_disabled":false,"rental_uris":{"android":"levelo://app?vid=66a0ee86-9264-40d0-8482-8ebef1989e38","ios":"levelo://app?vid=66a0ee86-9264-40d0-8482-8ebef1989e38"},"vehicle_type_id":"4","last_reported":1702451201,"current_range_meters":0,"station_id":"","pricing_plan_id":"free"},{"bike_id":"1d5ae7fc-d788-4e3b-9e50-c093618912d7","system_id":"levelo_inurba_marseille","lat":43.310785,"lon":5.424305,"is_reserved":false,"is_disabled":false,"rental_uris":{"android":"levelo://app?vid=1d5ae7fc-d788-4e3b-9e50-c093618912d7","ios":"levelo://app?vid=1d5ae7fc-d788-4e3b-9e50-c093618912d7"},"vehicle_type_id":"4","last_reported":1702451201,"current_range_meters":23600,"station_id":"ce4bhp92rcd13ifvqhag","pricing_plan_id":"free"},{"bike_id":"8efdea31-6d8e-4c78-81e8-b21d5fe06482","system_id":"levelo_inurba_marseille","lat":43.340804,"lon":5.410219,"is_reserved":false,"is_disabled":false,"rental_uris":{"android":"levelo://app?vid=8efdea31-6d8e-4c78-81e8-b21d5fe06482","ios":"levelo://app?vid=8efdea31-6d8e-4c78-81e8-b21d5fe06482"},"vehicle_type_id":"4","last_reported":1702451201,"current_range_meters":27600,"station_id":"ce4bhqh2rcd13ifvqhlg","pricing_plan_id":"free"},{"bike_id":"280c51f4-a63c-441a-8bb6-1199267e463c","system_id":"levelo_inurba_marseille","lat":43.340804,"lon":5.410219,"is_reserved":false,"is_disabled":false,"rental_uris":{"android":"levelo://app?vid=280c51f4-a63c-441a-8bb6-1199267e463c","ios":"levelo://app?vid=280c51f4-a63c-441a-8bb6-1199267e463c"},"vehicle_type_id":"4","last_reported":1702451201,"current_range_meters":17600,"station_id":"ce4bhqh2rcd13ifvqhlg","pricing_plan_id":"free"},{"bike_id":"61a9b484-7355-4cf6-8693-c63404a20eed","system_id":"levelo_inurba_marseille","lat":43.340804,"lon":5.410219,"is_reserved":false,"is_disabled":false,"rental_uris":{"android":"levelo://app?vid=61a9b484-7355-4cf6-8693-c63404a20eed","ios":"levelo://app?vid=61a9b484-7355-4cf6-8693-c63404a20eed"},"vehicle_type_id":"4","last_reported":1702451201,"current_range_meters":16400,"station_id":"ce4bhqh2rcd13ifvqhlg","pricing_plan_id":"free"},{"bike_id":"3ca2c2d2-99b0-4aa6-a05d-e30f02e6a7fb","system_id":"levelo_inurba_marseille","lat":43.27588,"lon":5.39495,"is_reserved":false,"is_disabled":false,"rental_uris":{"android":"levelo://app?vid=3ca2c2d2-99b0-4aa6-a05d-e30f02e6a7fb","ios":"levelo://app?vid=3ca2c2d2-99b0-4aa6-a05d-e30f02e6a7fb"},"vehicle_type_id":"4","last_reported":1702451201,"current_range_meters":17600,"station_id":"","pricing_plan_id":"free"},{"bike_id":"e164ea20-096d-46c2-951c-b5eb1f00256c","system_id":"levelo_inurba_marseille","lat":43.273129,"lon":5.390725,"is_reserved":false,"is_disabled":false,"rental_uris":{"android":"levelo://app?vid=e164ea20-096d-46c2-951c-b5eb1f00256c","ios":"levelo://app?vid=e164ea20-096d-46c2-951c-b5eb1f00256c"},"vehicle_type_id":"4","last_reported":1702451201,"current_range_meters":21200,"station_id":"ce4bhgp2rcd13ifvqfe0","pricing_plan_id":"free"},{"bike_id":"2a2e5a5d-8881-431c-961a-a79c00a47582","system_id":"levelo_inurba_marseille","lat":43.274099,"lon":5.394019,"is_reserved":false,"is_disabled":false,"rental_uris":{"android":"levelo://app?vid=2a2e5a5d-8881-431c-961a-a79c00a47582","ios":"levelo://app?vid=2a2e5a5d-8881-431c-961a-a79c00a47582"},"vehicle_type_id":"4","last_reported":1702451201,"current_range_meters":11200,"station_id":"ce4bhdp2rcd13ifvqf20","pricing_plan_id":"free"},{"bike_id":"e10ae8a8-4f3a-4a57-9de0-4b4492b62a2b","system_id":"levelo_inurba_marseille","lat":43.274099,"lon":5.394019,"is_reserved":false,"is_disabled":false,"rental_uris":{"android":"levelo://app?vid=e10ae8a8-4f3a-4a57-9de0-4b4492b62a2b","ios":"levelo://app?vid=e10ae8a8-4f3a-4a57-9de0-4b4492b62a2b"},"vehicle_type_id":"4","last_reported":1702451201,"current_range_meters":29200,"station_id":"ce4bhdp2rcd13ifvqf20","pricing_plan_id":"free"},{"bike_id":"4a36bfe2-5dc6-4085-b52c-6dae1120d621","system_id":"levelo_inurba_marseille","lat":43.304096,"lon":5.425385,"is_reserved":false,"is_disabled":false,"rental_uris":{"android":"levelo://app?vid=4a36bfe2-5dc6-4085-b52c-6dae1120d621","ios":"levelo://app?vid=4a36bfe2-5dc6-4085-b52c-6dae1120d621"},"vehicle_type_id":"4","last_reported":1702451201,"current_range_meters":28400,"station_id":"ce4bhoh2rcd13ifvqh6g","pricing_plan_id":"free"},{"bike_id":"4e1627ea-4460-4169-a925-874b52096169","system_id":"levelo_inurba_marseille","lat":43.295511,"lon":5.422926,"is_reserved":false,"is_disabled":false,"rental_uris":{"android":"levelo://app?vid=4e1627ea-4460-4169-a925-874b52096169","ios":"levelo://app?vid=4e1627ea-4460-4169-a925-874b52096169"},"vehicle_type_id":"4","last_reported":1702451201,"current_range_meters":30400,"station_id":"ce4bhph2rcd13ifvqhdg","pricing_plan_id":"free"},{"bike_id":"b570eaa6-73a8-460a-a0b7-1c0a1b9e5833","system_id":"levelo_inurba_marseille","lat":43.295523,"lon":5.422926,"is_reserved":false,"is_disabled":false,"rental_uris":{"android":"levelo://app?vid=b570eaa6-73a8-460a-a0b7-1c0a1b9e5833","ios":"levelo://app?vid=b570eaa6-73a8-460a-a0b7-1c0a1b9e5833"},"vehicle_type_id":"4","last_reported":1702451201,"current_range_meters":11200,"station_id":"ce4bhph2rcd13ifvqhdg","pricing_plan_id":"free"},{"bike_id":"30a33f7b-5f6c-4ffb-a125-603ae9684104","system_id":"levelo_inurba_marseille","lat":43.269467,"lon":5.386439,"is_reserved":false,"is_disabled":false,"rental_uris":{"android":"levelo://app?vid=30a33f7b-5f6c-4ffb-a125-603ae9684104","ios":"levelo://app?vid=30a33f7b-5f6c-4ffb-a125-603ae9684104"},"vehicle_type_id":"4","last_reported":1702451201,"current_range_meters":12800,"station_id":"ce4bhh92rcd13ifvqfh0","pricing_plan_id":"free"},{"bike_id":"fc0b995b-de82-4044-9b56-c07e42e9b7db","system_id":"levelo_inurba_marseille","lat":43.278128,"lon":5.407195,"is_reserved":false,"is_disabled":false,"rental_uris":{"android":"levelo://app?vid=fc0b995b-de82-4044-9b56-c07e42e9b7db","ios":"levelo://app?vid=fc0b995b-de82-4044-9b56-c07e42e9b7db"},"vehicle_type_id":"4","last_reported":1702451201,"current_range_meters":26400,"station_id":"ce4bhnh2rcd13ifvqgtg","pricing_plan_id":"free"},{"bike_id":"b21685fb-94e9-4038-8a87-513de8e1b6a1","system_id":"levelo_inurba_marseille","lat":43.269467,"lon":5.386439,"is_reserved":false,"is_disabled":false,"rental_uris":{"android":"levelo://app?vid=b21685fb-94e9-4038-8a87-513de8e1b6a1","ios":"levelo://app?vid=b21685fb-94e9-4038-8a87-513de8e1b6a1"},"vehicle_type_id":"4","last_reported":1702451201,"current_range_meters":26400,"station_id":"ce4bhh92rcd13ifvqfh0","pricing_plan_id":"free"},{"bike_id":"33566000-1e76-439c-bafd-e73bc3e16c5f","system_id":"levelo_inurba_marseille","lat":43.279465,"lon":5.410561,"is_reserved":false,"is_disabled":false,"rental_uris":{"android":"levelo://app?vid=33566000-1e76-439c-bafd-e73bc3e16c5f","ios":"levelo://app?vid=33566000-1e76-439c-bafd-e73bc3e16c5f"},"vehicle_type_id":"4","last_reported":1702451201,"current_range_meters":0,"station_id":"ce4bhnp2rcd13ifvqh0g","pricing_plan_id":"free"},{"bike_id":"d6008bab-abd0-499d-8433-b7ade2af9c47","system_id":"levelo_inurba_marseille","lat":43.26681,"lon":5.382694,"is_reserved":false,"is_disabled":false,"rental_uris":{"android":"levelo://app?vid=d6008bab-abd0-499d-8433-b7ade2af9c47","ios":"levelo://app?vid=d6008bab-abd0-499d-8433-b7ade2af9c47"},"vehicle_type_id":"4","last_reported":1702451201,"current_range_meters":27200,"station_id":"ce4bhg92rcd13ifvqf90","pricing_plan_id":"free"},{"bike_id":"2883840e-c940-44eb-ae50-6aa6a64556af","system_id":"levelo_inurba_marseille","lat":43.265714,"lon":5.372891,"is_reserved":false,"is_disabled":false,"rental_uris":{"android":"levelo://app?vid=2883840e-c940-44eb-ae50-6aa6a64556af","ios":"levelo://app?vid=2883840e-c940-44eb-ae50-6aa6a64556af"},"vehicle_type_id":"4","last_reported":1702451201,"current_range_meters":21200,"station_id":"ce4bhg12rcd13ifvqf70","pricing_plan_id":"free"},{"bike_id":"d9f863f1-e327-48c4-bbe6-77a5e3eabc98","system_id":"levelo_inurba_marseille","lat":43.26553,"lon":5.37287,"is_reserved":false,"is_disabled":false,"rental_uris":{"android":"levelo://app?vid=d9f863f1-e327-48c4-bbe6-77a5e3eabc98","ios":"levelo://app?vid=d9f863f1-e327-48c4-bbe6-77a5e3eabc98"},"vehicle_type_id":"4","last_reported":1702451201,"current_range_meters":17600,"station_id":"ce4bhg12rcd13ifvqf70","pricing_plan_id":"free"},{"bike_id":"6f64d032-7672-49e6-9baa-0d7409b4efd5","system_id":"levelo_inurba_marseille","lat":43.27996,"lon":5.416624,"is_reserved":false,"is_disabled":false,"rental_uris":{"android":"levelo://app?vid=6f64d032-7672-49e6-9baa-0d7409b4efd5","ios":"levelo://app?vid=6f64d032-7672-49e6-9baa-0d7409b4efd5"},"vehicle_type_id":"4","last_reported":1702451201,"current_range_meters":31200,"station_id":"ce4bho12rcd13ifvqh1g","pricing_plan_id":"free"},{"bike_id":"ad30d71c-e61c-4b23-ae6c-f50681976cce","system_id":"levelo_inurba_marseille","lat":43.265714,"lon":5.372891,"is_reserved":false,"is_disabled":false,"rental_uris":{"android":"levelo://app?vid=ad30d71c-e61c-4b23-ae6c-f50681976cce","ios":"levelo://app?vid=ad30d71c-e61c-4b23-ae6c-f50681976cce"},"vehicle_type_id":"4","last_reported":1702451201,"current_range_meters":31200,"station_id":"ce4bhg12rcd13ifvqf70","pricing_plan_id":"free"},{"bike_id":"fe7acd9f-bb87-4465-802d-e4743ec4b713","system_id":"levelo_inurba_marseille","lat":43.267966,"lon":5.393976,"is_reserved":false,"is_disabled":false,"rental_uris":{"android":"levelo://app?vid=fe7acd9f-bb87-4465-802d-e4743ec4b713","ios":"levelo://app?vid=fe7acd9f-bb87-4465-802d-e4743ec4b713"},"vehicle_type_id":"4","last_reported":1702451201,"current_range_meters":22800,"station_id":"ce4bhh12rcd13ifvqfg0","pricing_plan_id":"free"},{"bike_id":"46415227-a966-4332-a96b-83233901da70","system_id":"levelo_inurba_marseille","lat":43.265571,"lon":5.390032,"is_reserved":false,"is_disabled":false,"rental_uris":{"android":"levelo://app?vid=46415227-a966-4332-a96b-83233901da70","ios":"levelo://app?vid=46415227-a966-4332-a96b-83233901da70"},"vehicle_type_id":"4","last_reported":1702451201,"current_range_meters":18400,"station_id":"ce4bhe12rcd13ifvqf30","pricing_plan_id":"free"},{"bike_id":"7010811e-5d6a-4506-8f86-a2839f396acc","system_id":"levelo_inurba_marseille","lat":43.26202,"lon":5.379299,"is_reserved":false,"is_disabled":false,"rental_uris":{"android":"levelo://app?vid=7010811e-5d6a-4506-8f86-a2839f396acc","ios":"levelo://app?vid=7010811e-5d6a-4506-8f86-a2839f396acc"},"vehicle_type_id":"4","last_reported":1702451201,"current_range_meters":30400,"station_id":"ce4bhjp2rcd13ifvqg90","pricing_plan_id":"free"},{"bike_id":"dbb3e7f7-0b77-47cb-9fdb-1603736f26f1","system_id":"levelo_inurba_marseille","lat":43.26805,"lon":5.4026,"is_reserved":false,"is_disabled":false,"rental_uris":{"android":"levelo://app?vid=dbb3e7f7-0b77-47cb-9fdb-1603736f26f1","ios":"levelo://app?vid=dbb3e7f7-0b77-47cb-9fdb-1603736f26f1"},"vehicle_type_id":"4","last_reported":1702451201,"current_range_meters":20800,"station_id":"ce501612rcd8frsf0b60","pricing_plan_id":"free"},{"bike_id":"60e4e2f6-4390-4029-b71c-11414f373115","system_id":"levelo_inurba_marseille","lat":43.270854,"lon":5.409471,"is_reserved":false,"is_disabled":false,"rental_uris":{"android":"levelo://app?vid=60e4e2f6-4390-4029-b71c-11414f373115","ios":"levelo://app?vid=60e4e2f6-4390-4029-b71c-11414f373115"},"vehicle_type_id":"4","last_reported":1702451201,"current_range_meters":26000,"station_id":"","pricing_plan_id":"free"},{"bike_id":"14fb5ba6-affc-4814-9729-4e5def4dd2eb","system_id":"levelo_inurba_marseille","lat":43.298768,"lon":5.43643,"is_reserved":false,"is_disabled":false,"rental_uris":{"android":"levelo://app?vid=14fb5ba6-affc-4814-9729-4e5def4dd2eb","ios":"levelo://app?vid=14fb5ba6-affc-4814-9729-4e5def4dd2eb"},"vehicle_type_id":"4","last_reported":1702451201,"current_range_meters":10000,"station_id":"ce4bhpp2rcd13ifvqhfg","pricing_plan_id":"free"},{"bike_id":"c6fd12df-9f3a-4af6-97ac-045eea3df2d1","system_id":"levelo_inurba_marseille","lat":43.298768,"lon":5.43643,"is_reserved":false,"is_disabled":false,"rental_uris":{"android":"levelo://app?vid=c6fd12df-9f3a-4af6-97ac-045eea3df2d1","ios":"levelo://app?vid=c6fd12df-9f3a-4af6-97ac-045eea3df2d1"},"vehicle_type_id":"4","last_reported":1702451201,"current_range_meters":30400,"station_id":"ce4bhpp2rcd13ifvqhfg","pricing_plan_id":"free"},{"bike_id":"7fdb1351-9343-4acc-97cc-653a1454dead","system_id":"levelo_inurba_marseille","lat":43.265441,"lon":5.400052,"is_reserved":false,"is_disabled":false,"rental_uris":{"android":"levelo://app?vid=7fdb1351-9343-4acc-97cc-653a1454dead","ios":"levelo://app?vid=7fdb1351-9343-4acc-97cc-653a1454dead"},"vehicle_type_id":"4","last_reported":1702451201,"current_range_meters":2400,"station_id":"","pricing_plan_id":"free"},{"bike_id":"2a9da541-d25e-4055-b7e9-818d8dd28783","system_id":"levelo_inurba_marseille","lat":43.28155,"lon":5.42638,"is_reserved":false,"is_disabled":false,"rental_uris":{"android":"levelo://app?vid=2a9da541-d25e-4055-b7e9-818d8dd28783","ios":"levelo://app?vid=2a9da541-d25e-4055-b7e9-818d8dd28783"},"vehicle_type_id":"4","last_reported":1702451201,"current_range_meters":19600,"station_id":"ce4bhnh2rcd13ifvqgug","pricing_plan_id":"free"},{"bike_id":"383e139c-3bb6-4daf-a45c-7a9d4e30f140","system_id":"levelo_inurba_marseille","lat":43.281548,"lon":5.42643,"is_reserved":false,"is_disabled":false,"rental_uris":{"android":"levelo://app?vid=383e139c-3bb6-4daf-a45c-7a9d4e30f140","ios":"levelo://app?vid=383e139c-3bb6-4daf-a45c-7a9d4e30f140"},"vehicle_type_id":"4","last_reported":1702451201,"current_range_meters":27200,"station_id":"ce4bhnh2rcd13ifvqgug","pricing_plan_id":"free"},{"bike_id":"a31174c0-f5c2-4cad-8cc4-913df26114f0","system_id":"levelo_inurba_marseille","lat":43.28152,"lon":5.42642,"is_reserved":false,"is_disabled":false,"rental_uris":{"android":"levelo://app?vid=a31174c0-f5c2-4cad-8cc4-913df26114f0","ios":"levelo://app?vid=a31174c0-f5c2-4cad-8cc4-913df26114f0"},"vehicle_type_id":"4","last_reported":1702451201,"current_range_meters":20000,"station_id":"ce4bhnh2rcd13ifvqgug","pricing_plan_id":"free"},{"bike_id":"64125827-a0af-4771-8f6f-85000e0dbd9a","system_id":"levelo_inurba_marseille","lat":43.28154,"lon":5.42646,"is_reserved":false,"is_disabled":false,"rental_uris":{"android":"levelo://app?vid=64125827-a0af-4771-8f6f-85000e0dbd9a","ios":"levelo://app?vid=64125827-a0af-4771-8f6f-85000e0dbd9a"},"vehicle_type_id":"4","last_reported":1702451201,"current_range_meters":19200,"station_id":"ce4bhnh2rcd13ifvqgug","pricing_plan_id":"free"},{"bike_id":"22629fef-dcbc-451f-99d9-ae21da47c622","system_id":"levelo_inurba_marseille","lat":43.28153,"lon":5.42647,"is_reserved":false,"is_disabled":false,"rental_uris":{"android":"levelo://app?vid=22629fef-dcbc-451f-99d9-ae21da47c622","ios":"levelo://app?vid=22629fef-dcbc-451f-99d9-ae21da47c622"},"vehicle_type_id":"4","last_reported":1702451201,"current_range_meters":11600,"station_id":"ce4bhnh2rcd13ifvqgug","pricing_plan_id":"free"},{"bike_id":"28e52ee3-390e-4359-8953-9e6647d18e16","system_id":"levelo_inurba_marseille","lat":43.28152,"lon":5.42651,"is_reserved":false,"is_disabled":false,"rental_uris":{"android":"levelo://app?vid=28e52ee3-390e-4359-8953-9e6647d18e16","ios":"levelo://app?vid=28e52ee3-390e-4359-8953-9e6647d18e16"},"vehicle_type_id":"4","last_reported":1702451201,"current_range_meters":26000,"station_id":"ce4bhnh2rcd13ifvqgug","pricing_plan_id":"free"},{"bike_id":"d7a6c85d-a811-4fa8-800a-8c7d7fbad1e5","system_id":"levelo_inurba_marseille","lat":43.266729,"lon":5.40742,"is_reserved":false,"is_disabled":false,"rental_uris":{"android":"levelo://app?vid=d7a6c85d-a811-4fa8-800a-8c7d7fbad1e5","ios":"levelo://app?vid=d7a6c85d-a811-4fa8-800a-8c7d7fbad1e5"},"vehicle_type_id":"4","last_reported":1702451201,"current_range_meters":0,"station_id":"","pricing_plan_id":"free"},{"bike_id":"aeca8537-d599-4c04-93c7-e2877137d291","system_id":"levelo_inurba_marseille","lat":43.2607,"lon":5.393983,"is_reserved":false,"is_disabled":false,"rental_uris":{"android":"levelo://app?vid=aeca8537-d599-4c04-93c7-e2877137d291","ios":"levelo://app?vid=aeca8537-d599-4c04-93c7-e2877137d291"},"vehicle_type_id":"4","last_reported":1702451201,"current_range_meters":20000,"station_id":"ce4bhh92rcd13ifvqfj0","pricing_plan_id":"free"},{"bike_id":"90d5fbb3-db78-4dbf-b663-2e69a4f8cc1b","system_id":"levelo_inurba_marseille","lat":43.275028,"lon":5.424534,"is_reserved":false,"is_disabled":false,"rental_uris":{"android":"levelo://app?vid=90d5fbb3-db78-4dbf-b663-2e69a4f8cc1b","ios":"levelo://app?vid=90d5fbb3-db78-4dbf-b663-2e69a4f8cc1b"},"vehicle_type_id":"4","last_reported":1702451201,"current_range_meters":25200,"station_id":"ce4bhn92rcd13ifvqgrg","pricing_plan_id":"free"},{"bike_id":"cce728e5-10f1-441c-af03-90a0c1e29896","system_id":"levelo_inurba_marseille","lat":43.275028,"lon":5.424534,"is_reserved":false,"is_disabled":false,"rental_uris":{"android":"levelo://app?vid=cce728e5-10f1-441c-af03-90a0c1e29896","ios":"levelo://app?vid=cce728e5-10f1-441c-af03-90a0c1e29896"},"vehicle_type_id":"4","last_reported":1702451201,"current_range_meters":23200,"station_id":"ce4bhn92rcd13ifvqgrg","pricing_plan_id":"free"},{"bike_id":"55676f63-e2aa-41d4-a9aa-18ad58bf432e","system_id":"levelo_inurba_marseille","lat":43.275028,"lon":5.424534,"is_reserved":false,"is_disabled":false,"rental_uris":{"android":"levelo://app?vid=55676f63-e2aa-41d4-a9aa-18ad58bf432e","ios":"levelo://app?vid=55676f63-e2aa-41d4-a9aa-18ad58bf432e"},"vehicle_type_id":"4","last_reported":1702451201,"current_range_meters":31200,"station_id":"ce4bhn92rcd13ifvqgrg","pricing_plan_id":"free"},{"bike_id":"30ad3222-c02e-46dc-9cb8-03a31a79a834","system_id":"levelo_inurba_marseille","lat":43.275028,"lon":5.424534,"is_reserved":false,"is_disabled":false,"rental_uris":{"android":"levelo://app?vid=30ad3222-c02e-46dc-9cb8-03a31a79a834","ios":"levelo://app?vid=30ad3222-c02e-46dc-9cb8-03a31a79a834"},"vehicle_type_id":"4","last_reported":1702451201,"current_range_meters":23200,"station_id":"ce4bhn92rcd13ifvqgrg","pricing_plan_id":"free"},{"bike_id":"edf103af-f9ea-4edb-a620-2936127ea68c","system_id":"levelo_inurba_marseille","lat":43.275028,"lon":5.424534,"is_reserved":false,"is_disabled":false,"rental_uris":{"android":"levelo://app?vid=edf103af-f9ea-4edb-a620-2936127ea68c","ios":"levelo://app?vid=edf103af-f9ea-4edb-a620-2936127ea68c"},"vehicle_type_id":"4","last_reported":1702451201,"current_range_meters":22000,"station_id":"ce4bhn92rcd13ifvqgrg","pricing_plan_id":"free"},{"bike_id":"52f7521e-0075-46ee-a221-ef2c80e3548a","system_id":"levelo_inurba_marseille","lat":43.275028,"lon":5.424534,"is_reserved":false,"is_disabled":false,"rental_uris":{"android":"levelo://app?vid=52f7521e-0075-46ee-a221-ef2c80e3548a","ios":"levelo://app?vid=52f7521e-0075-46ee-a221-ef2c80e3548a"},"vehicle_type_id":"4","last_reported":1702451201,"current_range_meters":13600,"station_id":"ce4bhn92rcd13ifvqgrg","pricing_plan_id":"free"},{"bike_id":"4d368ea5-0e8b-4103-8838-19e15b49f25a","system_id":"levelo_inurba_marseille","lat":43.275028,"lon":5.424534,"is_reserved":false,"is_disabled":false,"rental_uris":{"android":"levelo://app?vid=4d368ea5-0e8b-4103-8838-19e15b49f25a","ios":"levelo://app?vid=4d368ea5-0e8b-4103-8838-19e15b49f25a"},"vehicle_type_id":"4","last_reported":1702451201,"current_range_meters":18800,"station_id":"ce4bhn92rcd13ifvqgrg","pricing_plan_id":"free"},{"bike_id":"145ba03e-f3d6-4f34-83d2-a2ba7062a026","system_id":"levelo_inurba_marseille","lat":43.275028,"lon":5.424534,"is_reserved":false,"is_disabled":false,"rental_uris":{"android":"levelo://app?vid=145ba03e-f3d6-4f34-83d2-a2ba7062a026","ios":"levelo://app?vid=145ba03e-f3d6-4f34-83d2-a2ba7062a026"},"vehicle_type_id":"4","last_reported":1702451201,"current_range_meters":22000,"station_id":"ce4bhn92rcd13ifvqgrg","pricing_plan_id":"free"},{"bike_id":"96435139-4e80-4111-a2d3-eddd6fd8d6da","system_id":"levelo_inurba_marseille","lat":43.275028,"lon":5.424534,"is_reserved":false,"is_disabled":false,"rental_uris":{"android":"levelo://app?vid=96435139-4e80-4111-a2d3-eddd6fd8d6da","ios":"levelo://app?vid=96435139-4e80-4111-a2d3-eddd6fd8d6da"},"vehicle_type_id":"4","last_reported":1702451201,"current_range_meters":10800,"station_id":"ce4bhn92rcd13ifvqgrg","pricing_plan_id":"free"},{"bike_id":"4d0c71de-ce50-4c6f-9f30-74445d5a83ae","system_id":"levelo_inurba_marseille","lat":43.256097,"lon":5.381863,"is_reserved":false,"is_disabled":false,"rental_uris":{"android":"levelo://app?vid=4d0c71de-ce50-4c6f-9f30-74445d5a83ae","ios":"levelo://app?vid=4d0c71de-ce50-4c6f-9f30-74445d5a83ae"},"vehicle_type_id":"4","last_reported":1702451201,"current_range_meters":27600,"station_id":"ce4bhih2rcd13ifvqfs0","pricing_plan_id":"free"},{"bike_id":"0696c807-6b5d-41df-9f05-e702e662a6cb","system_id":"levelo_inurba_marseille","lat":43.25589,"lon":5.38234,"is_reserved":false,"is_disabled":false,"rental_uris":{"android":"levelo://app?vid=0696c807-6b5d-41df-9f05-e702e662a6cb","ios":"levelo://app?vid=0696c807-6b5d-41df-9f05-e702e662a6cb"},"vehicle_type_id":"4","last_reported":1702451201,"current_range_meters":29600,"station_id":"ce4bhih2rcd13ifvqfs0","pricing_plan_id":"free"},{"bike_id":"51f45410-ff4d-4a5d-99ca-7e21d3504e6f","system_id":"levelo_inurba_marseille","lat":43.25585,"lon":5.38237,"is_reserved":false,"is_disabled":false,"rental_uris":{"android":"levelo://app?vid=51f45410-ff4d-4a5d-99ca-7e21d3504e6f","ios":"levelo://app?vid=51f45410-ff4d-4a5d-99ca-7e21d3504e6f"},"vehicle_type_id":"4","last_reported":1702451201,"current_range_meters":27600,"station_id":"ce4bhih2rcd13ifvqfs0","pricing_plan_id":"free"},{"bike_id":"73211df0-07e3-4dff-a4f8-03ebd2e88460","system_id":"levelo_inurba_marseille","lat":43.25583,"lon":5.38233,"is_reserved":false,"is_disabled":false,"rental_uris":{"android":"levelo://app?vid=73211df0-07e3-4dff-a4f8-03ebd2e88460","ios":"levelo://app?vid=73211df0-07e3-4dff-a4f8-03ebd2e88460"},"vehicle_type_id":"4","last_reported":1702451201,"current_range_meters":10800,"station_id":"ce4bhih2rcd13ifvqfs0","pricing_plan_id":"free"},{"bike_id":"6c9330a4-966c-4268-83af-20bb1cd623d0","system_id":"levelo_inurba_marseille","lat":43.25581,"lon":5.38228,"is_reserved":false,"is_disabled":false,"rental_uris":{"android":"levelo://app?vid=6c9330a4-966c-4268-83af-20bb1cd623d0","ios":"levelo://app?vid=6c9330a4-966c-4268-83af-20bb1cd623d0"},"vehicle_type_id":"4","last_reported":1702451201,"current_range_meters":20000,"station_id":"ce4bhih2rcd13ifvqfs0","pricing_plan_id":"free"},{"bike_id":"a9e69201-3094-4c70-b8ec-d9ce766ff471","system_id":"levelo_inurba_marseille","lat":43.275028,"lon":5.424534,"is_reserved":false,"is_disabled":false,"rental_uris":{"android":"levelo://app?vid=a9e69201-3094-4c70-b8ec-d9ce766ff471","ios":"levelo://app?vid=a9e69201-3094-4c70-b8ec-d9ce766ff471"},"vehicle_type_id":"4","last_reported":1702451201,"current_range_meters":14000,"station_id":"ce4bhn92rcd13ifvqgrg","pricing_plan_id":"free"},{"bike_id":"7641d20a-3297-445a-9fc5-52085faa8582","system_id":"levelo_inurba_marseille","lat":43.270721,"lon":5.422764,"is_reserved":false,"is_disabled":false,"rental_uris":{"android":"levelo://app?vid=7641d20a-3297-445a-9fc5-52085faa8582","ios":"levelo://app?vid=7641d20a-3297-445a-9fc5-52085faa8582"},"vehicle_type_id":"4","last_reported":1702451201,"current_range_meters":12800,"station_id":"ce4bhk92rcd13ifvqgb0","pricing_plan_id":"free"},{"bike_id":"a7ddc710-538a-4add-82cf-421dcbd1b84d","system_id":"levelo_inurba_marseille","lat":43.258658,"lon":5.398935,"is_reserved":false,"is_disabled":false,"rental_uris":{"android":"levelo://app?vid=a7ddc710-538a-4add-82cf-421dcbd1b84d","ios":"levelo://app?vid=a7ddc710-538a-4add-82cf-421dcbd1b84d"},"vehicle_type_id":"4","last_reported":1702451201,"current_range_meters":30000,"station_id":"ce4bhl92rcd13ifvqghg","pricing_plan_id":"free"},{"bike_id":"1fe35241-90af-400e-bfa5-b9dcb4673da0","system_id":"levelo_inurba_marseille","lat":43.259013,"lon":5.409301,"is_reserved":false,"is_disabled":false,"rental_uris":{"android":"levelo://app?vid=1fe35241-90af-400e-bfa5-b9dcb4673da0","ios":"levelo://app?vid=1fe35241-90af-400e-bfa5-b9dcb4673da0"},"vehicle_type_id":"4","last_reported":1702451201,"current_range_meters":21600,"station_id":"ce4bhm92rcd13ifvqglg","pricing_plan_id":"free"},{"bike_id":"d0bd1921-eca2-4019-9cbe-cd1f38baa34c","system_id":"levelo_inurba_marseille","lat":43.246461,"lon":5.389014,"is_reserved":false,"is_disabled":false,"rental_uris":{"android":"levelo://app?vid=d0bd1921-eca2-4019-9cbe-cd1f38baa34c","ios":"levelo://app?vid=d0bd1921-eca2-4019-9cbe-cd1f38baa34c"},"vehicle_type_id":"4","last_reported":1702451201,"current_range_meters":26800,"station_id":"ce4bhg12rcd13ifvqf60","pricing_plan_id":"free"},{"bike_id":"c06f831d-a640-494e-ae3b-bab757cb0265","system_id":"levelo_inurba_marseille","lat":43.246467,"lon":5.388984,"is_reserved":false,"is_disabled":false,"rental_uris":{"android":"levelo://app?vid=c06f831d-a640-494e-ae3b-bab757cb0265","ios":"levelo://app?vid=c06f831d-a640-494e-ae3b-bab757cb0265"},"vehicle_type_id":"4","last_reported":1702451201,"current_range_meters":24000,"station_id":"ce4bhg12rcd13ifvqf60","pricing_plan_id":"free"},{"bike_id":"5ccb2ae8-45a5-4570-8d7d-551f5cba478e","system_id":"levelo_inurba_marseille","lat":43.243884,"lon":5.370736,"is_reserved":false,"is_disabled":false,"rental_uris":{"android":"levelo://app?vid=5ccb2ae8-45a5-4570-8d7d-551f5cba478e","ios":"levelo://app?vid=5ccb2ae8-45a5-4570-8d7d-551f5cba478e"},"vehicle_type_id":"4","last_reported":1702451201,"current_range_meters":28000,"station_id":"ce4bhhh2rcd13ifvqfk0","pricing_plan_id":"free"},{"bike_id":"afd0b657-1cfa-4e1a-88b6-6569f5161572","system_id":"levelo_inurba_marseille","lat":43.245581,"lon":5.395069,"is_reserved":false,"is_disabled":false,"rental_uris":{"android":"levelo://app?vid=afd0b657-1cfa-4e1a-88b6-6569f5161572","ios":"levelo://app?vid=afd0b657-1cfa-4e1a-88b6-6569f5161572"},"vehicle_type_id":"4","last_reported":1702451201,"current_range_meters":25600,"station_id":"ce4bhlp2rcd13ifvqgjg","pricing_plan_id":"free"},{"bike_id":"54aef1ee-ab23-4a10-b3b4-ed98e73a5d51","system_id":"levelo_inurba_marseille","lat":43.240623,"lon":5.377642,"is_reserved":false,"is_disabled":false,"rental_uris":{"android":"levelo://app?vid=54aef1ee-ab23-4a10-b3b4-ed98e73a5d51","ios":"levelo://app?vid=54aef1ee-ab23-4a10-b3b4-ed98e73a5d51"},"vehicle_type_id":"4","last_reported":1702451201,"current_range_meters":21600,"station_id":"ce4bhnp2rcd13ifvqgvg","pricing_plan_id":"free"},{"bike_id":"c2a1c464-7bfa-4950-8dd1-fe287bf0bada","system_id":"levelo_inurba_marseille","lat":43.24077,"lon":5.37764,"is_reserved":false,"is_disabled":false,"rental_uris":{"android":"levelo://app?vid=c2a1c464-7bfa-4950-8dd1-fe287bf0bada","ios":"levelo://app?vid=c2a1c464-7bfa-4950-8dd1-fe287bf0bada"},"vehicle_type_id":"4","last_reported":1702451201,"current_range_meters":23600,"station_id":"ce4bhnp2rcd13ifvqgvg","pricing_plan_id":"free"},{"bike_id":"772993c4-fd92-4b63-8462-d7105dc5ef04","system_id":"levelo_inurba_marseille","lat":43.240623,"lon":5.377642,"is_reserved":false,"is_disabled":false,"rental_uris":{"android":"levelo://app?vid=772993c4-fd92-4b63-8462-d7105dc5ef04","ios":"levelo://app?vid=772993c4-fd92-4b63-8462-d7105dc5ef04"},"vehicle_type_id":"4","last_reported":1702451201,"current_range_meters":20800,"station_id":"ce4bhnp2rcd13ifvqgvg","pricing_plan_id":"free"},{"bike_id":"cb8321c9-5e50-49f0-827e-7cebadcbe5be","system_id":"levelo_inurba_marseille","lat":43.240623,"lon":5.377642,"is_reserved":false,"is_disabled":false,"rental_uris":{"android":"levelo://app?vid=cb8321c9-5e50-49f0-827e-7cebadcbe5be","ios":"levelo://app?vid=cb8321c9-5e50-49f0-827e-7cebadcbe5be"},"vehicle_type_id":"4","last_reported":1702451201,"current_range_meters":8000,"station_id":"ce4bhnp2rcd13ifvqgvg","pricing_plan_id":"free"},{"bike_id":"80289aa4-c94c-4905-809a-46bc23059906","system_id":"levelo_inurba_marseille","lat":43.240623,"lon":5.377642,"is_reserved":false,"is_disabled":false,"rental_uris":{"android":"levelo://app?vid=80289aa4-c94c-4905-809a-46bc23059906","ios":"levelo://app?vid=80289aa4-c94c-4905-809a-46bc23059906"},"vehicle_type_id":"4","last_reported":1702451201,"current_range_meters":18400,"station_id":"ce4bhnp2rcd13ifvqgvg","pricing_plan_id":"free"},{"bike_id":"0bba32c0-a216-45cd-bf6e-6247f051d79f","system_id":"levelo_inurba_marseille","lat":43.24073,"lon":5.37767,"is_reserved":false,"is_disabled":false,"rental_uris":{"android":"levelo://app?vid=0bba32c0-a216-45cd-bf6e-6247f051d79f","ios":"levelo://app?vid=0bba32c0-a216-45cd-bf6e-6247f051d79f"},"vehicle_type_id":"4","last_reported":1702451201,"current_range_meters":12000,"station_id":"ce4bhnp2rcd13ifvqgvg","pricing_plan_id":"free"},{"bike_id":"cb91079b-2941-45dc-b920-63a6cb07441d","system_id":"levelo_inurba_marseille","lat":43.240623,"lon":5.377642,"is_reserved":false,"is_disabled":false,"rental_uris":{"android":"levelo://app?vid=cb91079b-2941-45dc-b920-63a6cb07441d","ios":"levelo://app?vid=cb91079b-2941-45dc-b920-63a6cb07441d"},"vehicle_type_id":"4","last_reported":1702451201,"current_range_meters":25600,"station_id":"ce4bhnp2rcd13ifvqgvg","pricing_plan_id":"free"},{"bike_id":"e60c3cae-a4ef-4d7c-8342-1aebcbbac30d","system_id":"levelo_inurba_marseille","lat":43.240699,"lon":5.377575,"is_reserved":false,"is_disabled":false,"rental_uris":{"android":"levelo://app?vid=e60c3cae-a4ef-4d7c-8342-1aebcbbac30d","ios":"levelo://app?vid=e60c3cae-a4ef-4d7c-8342-1aebcbbac30d"},"vehicle_type_id":"4","last_reported":1702451201,"current_range_meters":26400,"station_id":"ce4bhnp2rcd13ifvqgvg","pricing_plan_id":"free"},{"bike_id":"7260f420-0839-438c-9ce1-1f48e433ff87","system_id":"levelo_inurba_marseille","lat":43.240623,"lon":5.377642,"is_reserved":false,"is_disabled":false,"rental_uris":{"android":"levelo://app?vid=7260f420-0839-438c-9ce1-1f48e433ff87","ios":"levelo://app?vid=7260f420-0839-438c-9ce1-1f48e433ff87"},"vehicle_type_id":"4","last_reported":1702451201,"current_range_meters":30800,"station_id":"ce4bhnp2rcd13ifvqgvg","pricing_plan_id":"free"},{"bike_id":"e77c93c9-0723-4044-83a0-03e110542231","system_id":"levelo_inurba_marseille","lat":43.240693,"lon":5.377572,"is_reserved":false,"is_disabled":false,"rental_uris":{"android":"levelo://app?vid=e77c93c9-0723-4044-83a0-03e110542231","ios":"levelo://app?vid=e77c93c9-0723-4044-83a0-03e110542231"},"vehicle_type_id":"4","last_reported":1702451201,"current_range_meters":19200,"station_id":"ce4bhnp2rcd13ifvqgvg","pricing_plan_id":"free"},{"bike_id":"d1f26f1c-66c7-4318-906f-15aa2b56ee47","system_id":"levelo_inurba_marseille","lat":43.240618,"lon":5.377636,"is_reserved":false,"is_disabled":false,"rental_uris":{"android":"levelo://app?vid=d1f26f1c-66c7-4318-906f-15aa2b56ee47","ios":"levelo://app?vid=d1f26f1c-66c7-4318-906f-15aa2b56ee47"},"vehicle_type_id":"4","last_reported":1702451201,"current_range_meters":28800,"station_id":"ce4bhnp2rcd13ifvqgvg","pricing_plan_id":"free"},{"bike_id":"65907040-647d-4b31-9062-759da46767a7","system_id":"levelo_inurba_marseille","lat":43.24069,"lon":5.37767,"is_reserved":false,"is_disabled":false,"rental_uris":{"android":"levelo://app?vid=65907040-647d-4b31-9062-759da46767a7","ios":"levelo://app?vid=65907040-647d-4b31-9062-759da46767a7"},"vehicle_type_id":"4","last_reported":1702451201,"current_range_meters":12800,"station_id":"ce4bhnp2rcd13ifvqgvg","pricing_plan_id":"free"},{"bike_id":"9c22ab75-65a5-4b82-b9cb-34c34de7d97f","system_id":"levelo_inurba_marseille","lat":43.240623,"lon":5.377642,"is_reserved":false,"is_disabled":false,"rental_uris":{"android":"levelo://app?vid=9c22ab75-65a5-4b82-b9cb-34c34de7d97f","ios":"levelo://app?vid=9c22ab75-65a5-4b82-b9cb-34c34de7d97f"},"vehicle_type_id":"4","last_reported":1702451201,"current_range_meters":31200,"station_id":"ce4bhnp2rcd13ifvqgvg","pricing_plan_id":"free"},{"bike_id":"116f3e1c-dc64-4d91-b944-45d1251c0c8e","system_id":"levelo_inurba_marseille","lat":43.240623,"lon":5.377642,"is_reserved":false,"is_disabled":false,"rental_uris":{"android":"levelo://app?vid=116f3e1c-dc64-4d91-b944-45d1251c0c8e","ios":"levelo://app?vid=116f3e1c-dc64-4d91-b944-45d1251c0c8e"},"vehicle_type_id":"4","last_reported":1702451201,"current_range_meters":10400,"station_id":"ce4bhnp2rcd13ifvqgvg","pricing_plan_id":"free"},{"bike_id":"3dc095af-a885-44c9-b900-c7749334e677","system_id":"levelo_inurba_marseille","lat":43.239588,"lon":5.366238,"is_reserved":false,"is_disabled":false,"rental_uris":{"android":"levelo://app?vid=3dc095af-a885-44c9-b900-c7749334e677","ios":"levelo://app?vid=3dc095af-a885-44c9-b900-c7749334e677"},"vehicle_type_id":"4","last_reported":1702451201,"current_range_meters":27600,"station_id":"ce4bhi12rcd13ifvqfp0","pricing_plan_id":"free"},{"bike_id":"bb7c2d8f-daf4-4ed3-9bdf-0dad63e72c20","system_id":"levelo_inurba_marseille","lat":43.241782,"lon":5.397261,"is_reserved":false,"is_disabled":false,"rental_uris":{"android":"levelo://app?vid=bb7c2d8f-daf4-4ed3-9bdf-0dad63e72c20","ios":"levelo://app?vid=bb7c2d8f-daf4-4ed3-9bdf-0dad63e72c20"},"vehicle_type_id":"4","last_reported":1702451201,"current_range_meters":29200,"station_id":"ce4bhn12rcd13ifvqgpg","pricing_plan_id":"free"},{"bike_id":"6fb06ddb-97a9-4e82-97f4-85f411863478","system_id":"levelo_inurba_marseille","lat":43.231919,"lon":5.355532,"is_reserved":false,"is_disabled":false,"rental_uris":{"android":"levelo://app?vid=6fb06ddb-97a9-4e82-97f4-85f411863478","ios":"levelo://app?vid=6fb06ddb-97a9-4e82-97f4-85f411863478"},"vehicle_type_id":"4","last_reported":1702451201,"current_range_meters":27600,"station_id":"ce4bhu92rcd13ifvqi70","pricing_plan_id":"free"},{"bike_id":"9a98bb3c-9036-4450-ac50-69f372e3f4af","system_id":"levelo_inurba_marseille","lat":43.231939,"lon":5.355469,"is_reserved":false,"is_disabled":false,"rental_uris":{"android":"levelo://app?vid=9a98bb3c-9036-4450-ac50-69f372e3f4af","ios":"levelo://app?vid=9a98bb3c-9036-4450-ac50-69f372e3f4af"},"vehicle_type_id":"4","last_reported":1702451201,"current_range_meters":10800,"station_id":"ce4bhu92rcd13ifvqi70","pricing_plan_id":"free"},{"bike_id":"e5f8a3f9-ad33-4c96-8f80-c9bb436ceb1b","system_id":"levelo_inurba_marseille","lat":43.23577,"lon":5.410423,"is_reserved":false,"is_disabled":false,"rental_uris":{"android":"levelo://app?vid=e5f8a3f9-ad33-4c96-8f80-c9bb436ceb1b","ios":"levelo://app?vid=e5f8a3f9-ad33-4c96-8f80-c9bb436ceb1b"},"vehicle_type_id":"4","last_reported":1702451201,"current_range_meters":12400,"station_id":"","pricing_plan_id":"free"},{"bike_id":"5b630b40-ff29-4dd6-a19d-40fab0f10db9","system_id":"levelo_inurba_marseille","lat":43.231794,"lon":5.400052,"is_reserved":false,"is_disabled":false,"rental_uris":{"android":"levelo://app?vid=5b630b40-ff29-4dd6-a19d-40fab0f10db9","ios":"levelo://app?vid=5b630b40-ff29-4dd6-a19d-40fab0f10db9"},"vehicle_type_id":"4","last_reported":1702451201,"current_range_meters":30400,"station_id":"ce4bhn12rcd13ifvqgqg","pricing_plan_id":"free"},{"bike_id":"3b6acbeb-fcf2-4d7f-83a0-ba4dc62f4887","system_id":"levelo_inurba_marseille","lat":43.231794,"lon":5.400052,"is_reserved":false,"is_disabled":false,"rental_uris":{"android":"levelo://app?vid=3b6acbeb-fcf2-4d7f-83a0-ba4dc62f4887","ios":"levelo://app?vid=3b6acbeb-fcf2-4d7f-83a0-ba4dc62f4887"},"vehicle_type_id":"4","last_reported":1702451201,"current_range_meters":31200,"station_id":"ce4bhn12rcd13ifvqgqg","pricing_plan_id":"free"},{"bike_id":"ecc6b30e-afbb-430b-a8fd-f3e07403c9ad","system_id":"levelo_inurba_marseille","lat":43.231794,"lon":5.400052,"is_reserved":false,"is_disabled":false,"rental_uris":{"android":"levelo://app?vid=ecc6b30e-afbb-430b-a8fd-f3e07403c9ad","ios":"levelo://app?vid=ecc6b30e-afbb-430b-a8fd-f3e07403c9ad"},"vehicle_type_id":"4","last_reported":1702451201,"current_range_meters":14800,"station_id":"ce4bhn12rcd13ifvqgqg","pricing_plan_id":"free"},{"bike_id":"e6e78515-aff2-4fc4-80b5-70f36396b81a","system_id":"levelo_inurba_marseille","lat":43.231794,"lon":5.400052,"is_reserved":false,"is_disabled":false,"rental_uris":{"android":"levelo://app?vid=e6e78515-aff2-4fc4-80b5-70f36396b81a","ios":"levelo://app?vid=e6e78515-aff2-4fc4-80b5-70f36396b81a"},"vehicle_type_id":"4","last_reported":1702451201,"current_range_meters":18400,"station_id":"ce4bhn12rcd13ifvqgqg","pricing_plan_id":"free"},{"bike_id":"58ad7b1b-1e96-4241-8f3b-6d49dc932f71","system_id":"levelo_inurba_marseille","lat":43.231499,"lon":5.437162,"is_reserved":false,"is_disabled":false,"rental_uris":{"android":"levelo://app?vid=58ad7b1b-1e96-4241-8f3b-6d49dc932f71","ios":"levelo://app?vid=58ad7b1b-1e96-4241-8f3b-6d49dc932f71"},"vehicle_type_id":"4","last_reported":1702451201,"current_range_meters":11600,"station_id":"ce4bhmp2rcd13ifvqgog","pricing_plan_id":"free"}]}}