{"last_updated":1735931187,"ttl":60,"version":"2.2","data":{"bikes":[{"bike_id":"9cc71510-9e84-408f-b333-ecb235fb2770","system_id":"levelo_inurba_marseille","lat":43.26684,"lon":5.38273,"is_reserved":false,"is_disabled":false,"rental_uris":{"android":"levelo://app?vid=9cc71510-9e84-408f-b333-ecb235fb2770","ios":"levelo://app?vid=9cc71510-9e84-408f-b333-ecb235fb2770"},"vehicle_type_id":"4","last_reported":1735931187,"current_range_meters":20400,"station_id":"ce4bhg92rcd13ifvqf90","pricing_plan_id":"cebpf4jnsgd1na2vs0mg"},{"bike_id":"2c3fe8fd-181c-4e7f-9dd5-00ebd530677f","system_id":"levelo_inurba_marseille","lat":43.31736,"lon":5.40477,"is_reserved":false,"is_disabled":false,"rental_uris":{"android":"levelo://app?vid=2c3fe8fd-181c-4e7f-9dd5-00ebd530677f","ios":"levelo://app?vid=2c3fe8fd-181c-4e7f-9dd5-00ebd530677f"},"vehicle_type_id":"4","last_reported":1735931187,"current_range_meters":36400,"station_id":"","pricing_plan_id":"cebpf4jnsgd1na2vs0mg"},{"bike_id":"bf54e88b-da3f-4189-8098-c83ac2078216","system_id":"levelo_inurba_marseille","lat":43.27942,"lon":5.41016,"is_reserved":false,"is_disabled":false,"rental_uris":{"android":"levelo://app?vid=bf54e88b-da3f-4189-8098-c83ac2078216","ios":"levelo://app?vid=bf54e88b-da3f-4189-8098-c83ac2078216"},"vehicle_type_id":"4","last_reported":1735931187,"current_range_meters":27200,"station_id":"ce4bhnp2rcd13ifvqh0g","pricing_plan_id":"cebpf4jnsgd1na2vs0mg"},{"bike_id":"71da731e-4f22-4aa1-8ffb-f3de0458ac84","system_id":"levelo_inurba_marseille","lat":43.31707,"lon":5.40458,"is_reserved":false,"is_disabled":false,"rental_uris":{"android":"levelo://app?vid=71da731e-4f22-4aa1-8ffb-f3de0458ac84","ios":"levelo://app?vid=71da731e-4f22-4aa1-8ffb-f3de0458ac84"},"vehicle_type_id":"4","last_reported":1735931187,"current_range_meters":18800,"station_id":"ce4bh012rcd13ifvqd00","pricing_plan_id":"cebpf4jnsgd1na2vs0mg"},{"bike_id":"8e69ded4-2fa5-477c-98bd-f1de00f36b0f","system_id":"levelo_inurba_marseille","lat":43.3079,"lon":5.3765,"is_reserved":false,"is_disabled":false,"rental_uris":{"android":"levelo://app?vid=8e69ded4-2fa5-477c-98bd-f1de00f36b0f","ios":"levelo://app?vid=8e69ded4-2fa5-477c-98bd-f1de00f36b0f"},"vehicle_type_id":"4","last_reported":1735931187,"current_range_meters":12400,"station_id":"ce4bgv92rcd13ifvqcq0","pricing_plan_id":"cebpf4jnsgd1na2vs0mg"},{"bike_id":"33620e62-568e-4de5-ad46-ceb9ed4dd267","system_id":"levelo_inurba_marseille","lat":43.26191,"lon":5.37432,"is_reserved":false,"is_disabled":false,"rental_uris":{"android":"levelo://app?vid=33620e62-568e-4de5-ad46-ceb9ed4dd267","ios":"levelo://app?vid=33620e62-568e-4de5-ad46-ceb9ed4dd267"},"vehicle_type_id":"4","last_reported":1735931187,"current_range_meters":38800,"station_id":"ce4bhgp2rcd13ifvqfc0","pricing_plan_id":"cebpf4jnsgd1na2vs0mg"},{"bike_id":"7997b089-1c2f-4581-af18-425903d8dc91","system_id":"levelo_inurba_marseille","lat":43.28935,"lon":5.38407,"is_reserved":false,"is_disabled":false,"rental_uris":{"android":"levelo://app?vid=7997b089-1c2f-4581-af18-425903d8dc91","ios":"levelo://app?vid=7997b089-1c2f-4581-af18-425903d8dc91"},"vehicle_type_id":"4","last_reported":1735931187,"current_range_meters":19600,"station_id":"ce4bh612rcd13ifvqe6g","pricing_plan_id":"cebpf4jnsgd1na2vs0mg"},{"bike_id":"ca4beb2c-c4d8-484f-9237-25798230877a","system_id":"levelo_inurba_marseille","lat":43.29004,"lon":5.35606,"is_reserved":false,"is_disabled":false,"rental_uris":{"android":"levelo://app?vid=ca4beb2c-c4d8-484f-9237-25798230877a","ios":"levelo://app?vid=ca4beb2c-c4d8-484f-9237-25798230877a"},"vehicle_type_id":"4","last_reported":1735931187,"current_range_meters":36000,"station_id":"ce4bhb92rcd13ifvqen0","pricing_plan_id":"cebpf4jnsgd1na2vs0mg"},{"bike_id":"8297dd30-1cad-441c-b498-c75e78da92c2","system_id":"levelo_inurba_marseille","lat":43.2844,"lon":5.39178,"is_reserved":false,"is_disabled":false,"rental_uris":{"android":"levelo://app?vid=8297dd30-1cad-441c-b498-c75e78da92c2","ios":"levelo://app?vid=8297dd30-1cad-441c-b498-c75e78da92c2"},"vehicle_type_id":"4","last_reported":1735931187,"current_range_meters":14000,"station_id":"ce4bhoh2rcd13ifvqh5g","pricing_plan_id":"cebpf4jnsgd1na2vs0mg"},{"bike_id":"e1dfcdee-18af-407f-9a6c-807a8fefbf81","system_id":"levelo_inurba_marseille","lat":43.2901,"lon":5.35584,"is_reserved":false,"is_disabled":false,"rental_uris":{"android":"levelo://app?vid=e1dfcdee-18af-407f-9a6c-807a8fefbf81","ios":"levelo://app?vid=e1dfcdee-18af-407f-9a6c-807a8fefbf81"},"vehicle_type_id":"4","last_reported":1735931187,"current_range_meters":38800,"station_id":"ce4bhb92rcd13ifvqen0","pricing_plan_id":"cebpf4jnsgd1na2vs0mg"},{"bike_id":"36d0910b-d540-4d75-b065-f044cb5b6555","system_id":"levelo_inurba_marseille","lat":43.2958,"lon":5.36747,"is_reserved":false,"is_disabled":false,"rental_uris":{"android":"levelo://app?vid=36d0910b-d540-4d75-b065-f044cb5b6555","ios":"levelo://app?vid=36d0910b-d540-4d75-b065-f044cb5b6555"},"vehicle_type_id":"4","last_reported":1735931187,"current_range_meters":38800,"station_id":"ce4bgph2rcd13ifvqc2g","pricing_plan_id":"cebpf4jnsgd1na2vs0mg"},{"bike_id":"0cc226b6-5f36-4e90-9e5b-497bf45d78e0","system_id":"levelo_inurba_marseille","lat":43.27998,"lon":5.40021,"is_reserved":false,"is_disabled":false,"rental_uris":{"android":"levelo://app?vid=0cc226b6-5f36-4e90-9e5b-497bf45d78e0","ios":"levelo://app?vid=0cc226b6-5f36-4e90-9e5b-497bf45d78e0"},"vehicle_type_id":"4","last_reported":1735931187,"current_range_meters":38800,"station_id":"ce4bho92rcd13ifvqh4g","pricing_plan_id":"cebpf4jnsgd1na2vs0mg"},{"bike_id":"99f6a60b-e698-4008-869a-c7b70f268121","system_id":"levelo_inurba_marseille","lat":43.30508,"lon":5.37904,"is_reserved":false,"is_disabled":false,"rental_uris":{"android":"levelo://app?vid=99f6a60b-e698-4008-869a-c7b70f268121","ios":"levelo://app?vid=99f6a60b-e698-4008-869a-c7b70f268121"},"vehicle_type_id":"4","last_reported":1735931187,"current_range_meters":38400,"station_id":"","pricing_plan_id":"cebpf4jnsgd1na2vs0mg"},{"bike_id":"6260b7b4-3f9f-4f00-9cfe-1e62ea0ab45a","system_id":"levelo_inurba_marseille","lat":43.29792,"lon":5.38093,"is_reserved":false,"is_disabled":false,"rental_uris":{"android":"levelo://app?vid=6260b7b4-3f9f-4f00-9cfe-1e62ea0ab45a","ios":"levelo://app?vid=6260b7b4-3f9f-4f00-9cfe-1e62ea0ab45a"},"vehicle_type_id":"4","last_reported":1735931187,"current_range_meters":30400,"station_id":"ce4bgip2rcd13ifvqbb0","pricing_plan_id":"cebpf4jnsgd1na2vs0mg"},{"bike_id":"116f92ae-65b4-4f7c-a23b-1117c0a69b33","system_id":"levelo_inurba_marseille","lat":43.2862,"lon":5.35093,"is_reserved":false,"is_disabled":false,"rental_uris":{"android":"levelo://app?vid=116f92ae-65b4-4f7c-a23b-1117c0a69b33","ios":"levelo://app?vid=116f92ae-65b4-4f7c-a23b-1117c0a69b33"},"vehicle_type_id":"4","last_reported":1735931187,"current_range_meters":26000,"station_id":"ce4bhch2rcd13ifvqeug","pricing_plan_id":"cebpf4jnsgd1na2vs0mg"},{"bike_id":"e9f9f12e-79a6-4764-be79-7964c4ba15ed","system_id":"levelo_inurba_marseille","lat":43.25578,"lon":5.38243,"is_reserved":false,"is_disabled":false,"rental_uris":{"android":"levelo://app?vid=e9f9f12e-79a6-4764-be79-7964c4ba15ed","ios":"levelo://app?vid=e9f9f12e-79a6-4764-be79-7964c4ba15ed"},"vehicle_type_id":"4","last_reported":1735931187,"current_range_meters":39200,"station_id":"ce4bhih2rcd13ifvqfs0","pricing_plan_id":"cebpf4jnsgd1na2vs0mg"},{"bike_id":"0a72fabb-c385-470f-8026-c60effe2f3f0","system_id":"levelo_inurba_marseille","lat":43.29686,"lon":5.35965,"is_reserved":false,"is_disabled":false,"rental_uris":{"android":"levelo://app?vid=0a72fabb-c385-470f-8026-c60effe2f3f0","ios":"levelo://app?vid=0a72fabb-c385-470f-8026-c60effe2f3f0"},"vehicle_type_id":"4","last_reported":1735931187,"current_range_meters":24800,"station_id":"","pricing_plan_id":"cebpf4jnsgd1na2vs0mg"},{"bike_id":"6b65e966-5a1a-4003-9913-97f31fc37c8a","system_id":"levelo_inurba_marseille","lat":43.29029,"lon":5.38634,"is_reserved":false,"is_disabled":false,"rental_uris":{"android":"levelo://app?vid=6b65e966-5a1a-4003-9913-97f31fc37c8a","ios":"levelo://app?vid=6b65e966-5a1a-4003-9913-97f31fc37c8a"},"vehicle_type_id":"4","last_reported":1735931187,"current_range_meters":29600,"station_id":"ce4bh4p2rcd13ifvqe0g","pricing_plan_id":"cebpf4jnsgd1na2vs0mg"},{"bike_id":"76d392c8-6dd4-4fbf-b626-27c2990c047b","system_id":"levelo_inurba_marseille","lat":43.28155,"lon":5.4279,"is_reserved":false,"is_disabled":false,"rental_uris":{"android":"levelo://app?vid=76d392c8-6dd4-4fbf-b626-27c2990c047b","ios":"levelo://app?vid=76d392c8-6dd4-4fbf-b626-27c2990c047b"},"vehicle_type_id":"4","last_reported":1735931187,"current_range_meters":16800,"station_id":"","pricing_plan_id":"cebpf4jnsgd1na2vs0mg"},{"bike_id":"ebb56956-e2e2-4f51-8f7a-80ccc26c078c","system_id":"levelo_inurba_marseille","lat":43.28147,"lon":5.42625,"is_reserved":false,"is_disabled":false,"rental_uris":{"android":"levelo://app?vid=ebb56956-e2e2-4f51-8f7a-80ccc26c078c","ios":"levelo://app?vid=ebb56956-e2e2-4f51-8f7a-80ccc26c078c"},"vehicle_type_id":"4","last_reported":1735931187,"current_range_meters":30400,"station_id":"ce4bhnh2rcd13ifvqgug","pricing_plan_id":"cebpf4jnsgd1na2vs0mg"},{"bike_id":"4c0c6329-61b7-44a9-8f31-f23f15dd5702","system_id":"levelo_inurba_marseille","lat":43.29274,"lon":5.38449,"is_reserved":false,"is_disabled":false,"rental_uris":{"android":"levelo://app?vid=4c0c6329-61b7-44a9-8f31-f23f15dd5702","ios":"levelo://app?vid=4c0c6329-61b7-44a9-8f31-f23f15dd5702"},"vehicle_type_id":"4","last_reported":1735931187,"current_range_meters":24000,"station_id":"ce4bh692rcd13ifvqea0","pricing_plan_id":"cebpf4jnsgd1na2vs0mg"},{"bike_id":"1e30ab51-0361-4bb8-90b9-ba78be43a285","system_id":"levelo_inurba_marseille","lat":43.27669,"lon":5.3888,"is_reserved":false,"is_disabled":false,"rental_uris":{"android":"levelo://app?vid=1e30ab51-0361-4bb8-90b9-ba78be43a285","ios":"levelo://app?vid=1e30ab51-0361-4bb8-90b9-ba78be43a285"},"vehicle_type_id":"4","last_reported":1735931187,"current_range_meters":38800,"station_id":"ce4bhi12rcd13ifvqfo0","pricing_plan_id":"cebpf4jnsgd1na2vs0mg"},{"bike_id":"53bf85fe-dd63-4844-ad95-abf78e8c02a9","system_id":"levelo_inurba_marseille","lat":43.30183,"lon":5.36605,"is_reserved":false,"is_disabled":false,"rental_uris":{"android":"levelo://app?vid=53bf85fe-dd63-4844-ad95-abf78e8c02a9","ios":"levelo://app?vid=53bf85fe-dd63-4844-ad95-abf78e8c02a9"},"vehicle_type_id":"4","last_reported":1735931187,"current_range_meters":19200,"station_id":"ce4bgrh2rcd13ifvqc8g","pricing_plan_id":"cebpf4jnsgd1na2vs0mg"},{"bike_id":"c2e1a2f3-8fa2-4f47-a468-c23fde7b2a7a","system_id":"levelo_inurba_marseille","lat":43.30279,"lon":5.37698,"is_reserved":false,"is_disabled":false,"rental_uris":{"android":"levelo://app?vid=c2e1a2f3-8fa2-4f47-a468-c23fde7b2a7a","ios":"levelo://app?vid=c2e1a2f3-8fa2-4f47-a468-c23fde7b2a7a"},"vehicle_type_id":"4","last_reported":1735931187,"current_range_meters":28000,"station_id":"ce4bguh2rcd13ifvqcj0","pricing_plan_id":"cebpf4jnsgd1na2vs0mg"},{"bike_id":"5287931a-97d3-4041-8278-76ddbba81ba2","system_id":"levelo_inurba_marseille","lat":43.30583,"lon":5.39347,"is_reserved":false,"is_disabled":false,"rental_uris":{"android":"levelo://app?vid=5287931a-97d3-4041-8278-76ddbba81ba2","ios":"levelo://app?vid=5287931a-97d3-4041-8278-76ddbba81ba2"},"vehicle_type_id":"4","last_reported":1735931187,"current_range_meters":16000,"station_id":"ce4bh0p2rcd13ifvqd80","pricing_plan_id":"cebpf4jnsgd1na2vs0mg"},{"bike_id":"c88410db-aebe-447c-8374-84f1d6a6f1df","system_id":"levelo_inurba_marseille","lat":43.29023,"lon":5.38138,"is_reserved":false,"is_disabled":false,"rental_uris":{"android":"levelo://app?vid=c88410db-aebe-447c-8374-84f1d6a6f1df","ios":"levelo://app?vid=c88410db-aebe-447c-8374-84f1d6a6f1df"},"vehicle_type_id":"4","last_reported":1735931187,"current_range_meters":9200,"station_id":"ce4bh4p2rcd13ifvqe1g","pricing_plan_id":"cebpf4jnsgd1na2vs0mg"},{"bike_id":"02cb2cad-b316-419f-a764-3e6228df1e7b","system_id":"levelo_inurba_marseille","lat":43.27376,"lon":5.36266,"is_reserved":false,"is_disabled":false,"rental_uris":{"android":"levelo://app?vid=02cb2cad-b316-419f-a764-3e6228df1e7b","ios":"levelo://app?vid=02cb2cad-b316-419f-a764-3e6228df1e7b"},"vehicle_type_id":"4","last_reported":1735931187,"current_range_meters":38800,"station_id":"ce4bhbh2rcd13ifvqeo0","pricing_plan_id":"cebpf4jnsgd1na2vs0mg"},{"bike_id":"9d281a53-6992-4392-9438-72ec394ec5a5","system_id":"levelo_inurba_marseille","lat":43.24398,"lon":5.3705,"is_reserved":false,"is_disabled":false,"rental_uris":{"android":"levelo://app?vid=9d281a53-6992-4392-9438-72ec394ec5a5","ios":"levelo://app?vid=9d281a53-6992-4392-9438-72ec394ec5a5"},"vehicle_type_id":"4","last_reported":1735931187,"current_range_meters":9200,"station_id":"ce4bhhh2rcd13ifvqfk0","pricing_plan_id":"cebpf4jnsgd1na2vs0mg"},{"bike_id":"eb09bd5e-b0d3-4b59-b9d4-1e064baa5923","system_id":"levelo_inurba_marseille","lat":43.28047,"lon":5.36951,"is_reserved":false,"is_disabled":false,"rental_uris":{"android":"levelo://app?vid=eb09bd5e-b0d3-4b59-b9d4-1e064baa5923","ios":"levelo://app?vid=eb09bd5e-b0d3-4b59-b9d4-1e064baa5923"},"vehicle_type_id":"4","last_reported":1735931187,"current_range_meters":4000,"station_id":"ce4bha12rcd13ifvqef0","pricing_plan_id":"cebpf4jnsgd1na2vs0mg"},{"bike_id":"6c92faae-448f-4fcd-b837-c7db2ff4caee","system_id":"levelo_inurba_marseille","lat":43.30651,"lon":5.40089,"is_reserved":false,"is_disabled":false,"rental_uris":{"android":"levelo://app?vid=6c92faae-448f-4fcd-b837-c7db2ff4caee","ios":"levelo://app?vid=6c92faae-448f-4fcd-b837-c7db2ff4caee"},"vehicle_type_id":"4","last_reported":1735931187,"current_range_meters":38800,"station_id":"ce4bh112rcd13ifvqda0","pricing_plan_id":"cebpf4jnsgd1na2vs0mg"},{"bike_id":"50a71918-14c1-45e1-9888-2db7212b49f0","system_id":"levelo_inurba_marseille","lat":43.29577,"lon":5.37511,"is_reserved":false,"is_disabled":false,"rental_uris":{"android":"levelo://app?vid=50a71918-14c1-45e1-9888-2db7212b49f0","ios":"levelo://app?vid=50a71918-14c1-45e1-9888-2db7212b49f0"},"vehicle_type_id":"4","last_reported":1735931187,"current_range_meters":38800,"station_id":"ce4bgh92rcd13ifvqb50","pricing_plan_id":"cebpf4jnsgd1na2vs0mg"},{"bike_id":"a1ee6c06-e992-437f-90f0-dfd3bd0c13a6","system_id":"levelo_inurba_marseille","lat":43.30151,"lon":5.38067,"is_reserved":false,"is_disabled":false,"rental_uris":{"android":"levelo://app?vid=a1ee6c06-e992-437f-90f0-dfd3bd0c13a6","ios":"levelo://app?vid=a1ee6c06-e992-437f-90f0-dfd3bd0c13a6"},"vehicle_type_id":"4","last_reported":1735931187,"current_range_meters":38800,"station_id":"ce4bgjp2rcd13ifvqbh0","pricing_plan_id":"cebpf4jnsgd1na2vs0mg"},{"bike_id":"6a27b8ed-59a3-4765-b121-56acffc7b300","system_id":"levelo_inurba_marseille","lat":43.2657,"lon":5.39004,"is_reserved":false,"is_disabled":false,"rental_uris":{"android":"levelo://app?vid=6a27b8ed-59a3-4765-b121-56acffc7b300","ios":"levelo://app?vid=6a27b8ed-59a3-4765-b121-56acffc7b300"},"vehicle_type_id":"4","last_reported":1735931187,"current_range_meters":38800,"station_id":"ce4bhe12rcd13ifvqf30","pricing_plan_id":"cebpf4jnsgd1na2vs0mg"},{"bike_id":"08fcce35-f396-4621-8414-234605fdf5dd","system_id":"levelo_inurba_marseille","lat":43.29166,"lon":5.3715,"is_reserved":false,"is_disabled":false,"rental_uris":{"android":"levelo://app?vid=08fcce35-f396-4621-8414-234605fdf5dd","ios":"levelo://app?vid=08fcce35-f396-4621-8414-234605fdf5dd"},"vehicle_type_id":"4","last_reported":1735931187,"current_range_meters":27200,"station_id":"ce4bha92rcd13ifvqeh0","pricing_plan_id":"cebpf4jnsgd1na2vs0mg"},{"bike_id":"820e7059-c94a-4dc0-85d1-6a14c13300c4","system_id":"levelo_inurba_marseille","lat":43.29027,"lon":5.38644,"is_reserved":false,"is_disabled":false,"rental_uris":{"android":"levelo://app?vid=820e7059-c94a-4dc0-85d1-6a14c13300c4","ios":"levelo://app?vid=820e7059-c94a-4dc0-85d1-6a14c13300c4"},"vehicle_type_id":"4","last_reported":1735931187,"current_range_meters":38800,"station_id":"ce4bh4p2rcd13ifvqe0g","pricing_plan_id":"cebpf4jnsgd1na2vs0mg"},{"bike_id":"1edca33b-8d82-4613-945e-057a682428fe","system_id":"levelo_inurba_marseille","lat":43.33103,"lon":5.38212,"is_reserved":false,"is_disabled":false,"rental_uris":{"android":"levelo://app?vid=1edca33b-8d82-4613-945e-057a682428fe","ios":"levelo://app?vid=1edca33b-8d82-4613-945e-057a682428fe"},"vehicle_type_id":"4","last_reported":1735931187,"current_range_meters":32800,"station_id":"","pricing_plan_id":"cebpf4jnsgd1na2vs0mg"},{"bike_id":"18f3cae1-31d6-4997-a825-88b4e3979bb4","system_id":"levelo_inurba_marseille","lat":43.25505,"lon":5.37649,"is_reserved":false,"is_disabled":false,"rental_uris":{"android":"levelo://app?vid=18f3cae1-31d6-4997-a825-88b4e3979bb4","ios":"levelo://app?vid=18f3cae1-31d6-4997-a825-88b4e3979bb4"},"vehicle_type_id":"4","last_reported":1735931187,"current_range_meters":39200,"station_id":"ce4bhh12rcd13ifvqff0","pricing_plan_id":"cebpf4jnsgd1na2vs0mg"},{"bike_id":"ecfc0ec1-21cd-43f9-ae5e-f6f63351f506","system_id":"levelo_inurba_marseille","lat":43.28331,"lon":5.38096,"is_reserved":false,"is_disabled":false,"rental_uris":{"android":"levelo://app?vid=ecfc0ec1-21cd-43f9-ae5e-f6f63351f506","ios":"levelo://app?vid=ecfc0ec1-21cd-43f9-ae5e-f6f63351f506"},"vehicle_type_id":"4","last_reported":1735931187,"current_range_meters":38800,"station_id":"ce4bh412rcd13ifvqdr0","pricing_plan_id":"cebpf4jnsgd1na2vs0mg"},{"bike_id":"fb0d5d50-2cba-4668-8a68-53b559a0ffc7","system_id":"levelo_inurba_marseille","lat":43.24664,"lon":5.38164,"is_reserved":false,"is_disabled":false,"rental_uris":{"android":"levelo://app?vid=fb0d5d50-2cba-4668-8a68-53b559a0ffc7","ios":"levelo://app?vid=fb0d5d50-2cba-4668-8a68-53b559a0ffc7"},"vehicle_type_id":"4","last_reported":1735931187,"current_range_meters":34000,"station_id":"ce4bhih2rcd13ifvqfr0","pricing_plan_id":"cebpf4jnsgd1na2vs0mg"},{"bike_id":"da4df25d-b805-43d6-8806-56d930cd2264","system_id":"levelo_inurba_marseille","lat":43.29271,"lon":5.38453,"is_reserved":false,"is_disabled":false,"rental_uris":{"android":"levelo://app?vid=da4df25d-b805-43d6-8806-56d930cd2264","ios":"levelo://app?vid=da4df25d-b805-43d6-8806-56d930cd2264"},"vehicle_type_id":"4","last_reported":1735931187,"current_range_meters":34800,"station_id":"ce4bh692rcd13ifvqea0","pricing_plan_id":"cebpf4jnsgd1na2vs0mg"},{"bike_id":"a3a13d37-324b-4f71-8010-6efc8939585d","system_id":"levelo_inurba_marseille","lat":43.29173,"lon":5.37194,"is_reserved":false,"is_disabled":false,"rental_uris":{"android":"levelo://app?vid=a3a13d37-324b-4f71-8010-6efc8939585d","ios":"levelo://app?vid=a3a13d37-324b-4f71-8010-6efc8939585d"},"vehicle_type_id":"4","last_reported":1735931187,"current_range_meters":35600,"station_id":"ce4bha92rcd13ifvqeh0","pricing_plan_id":"cebpf4jnsgd1na2vs0mg"},{"bike_id":"d4c52d9a-a7bd-499b-ae15-07c9f4fc6834","system_id":"levelo_inurba_marseille","lat":43.29976,"lon":5.38487,"is_reserved":false,"is_disabled":false,"rental_uris":{"android":"levelo://app?vid=d4c52d9a-a7bd-499b-ae15-07c9f4fc6834","ios":"levelo://app?vid=d4c52d9a-a7bd-499b-ae15-07c9f4fc6834"},"vehicle_type_id":"4","last_reported":1735931187,"current_range_meters":8400,"station_id":"ce4bgj92rcd13ifvqbd0","pricing_plan_id":"cebpf4jnsgd1na2vs0mg"},{"bike_id":"7d8595cb-3c6b-4bea-886e-a0971f5a72f2","system_id":"levelo_inurba_marseille","lat":43.28467,"lon":5.38417,"is_reserved":false,"is_disabled":false,"rental_uris":{"android":"levelo://app?vid=7d8595cb-3c6b-4bea-886e-a0971f5a72f2","ios":"levelo://app?vid=7d8595cb-3c6b-4bea-886e-a0971f5a72f2"},"vehicle_type_id":"4","last_reported":1735931187,"current_range_meters":20400,"station_id":"ce4bh512rcd13ifvqe3g","pricing_plan_id":"cebpf4jnsgd1na2vs0mg"},{"bike_id":"f59f80d5-74da-4815-afbd-04a0b27ec012","system_id":"levelo_inurba_marseille","lat":43.28681,"lon":5.38668,"is_reserved":false,"is_disabled":false,"rental_uris":{"android":"levelo://app?vid=f59f80d5-74da-4815-afbd-04a0b27ec012","ios":"levelo://app?vid=f59f80d5-74da-4815-afbd-04a0b27ec012"},"vehicle_type_id":"4","last_reported":1735931187,"current_range_meters":9200,"station_id":"ce4bh492rcd13ifvqdug","pricing_plan_id":"cebpf4jnsgd1na2vs0mg"},{"bike_id":"89a58dc7-7c75-4eb3-a696-0569ae0a01c1","system_id":"levelo_inurba_marseille","lat":43.29308,"lon":5.37176,"is_reserved":false,"is_disabled":false,"rental_uris":{"android":"levelo://app?vid=89a58dc7-7c75-4eb3-a696-0569ae0a01c1","ios":"levelo://app?vid=89a58dc7-7c75-4eb3-a696-0569ae0a01c1"},"vehicle_type_id":"4","last_reported":1735931187,"current_range_meters":12000,"station_id":"ce4bgh92rcd13ifvqb40","pricing_plan_id":"cebpf4jnsgd1na2vs0mg"},{"bike_id":"ae7f20ef-59c8-4024-a29c-874696e536a2","system_id":"levelo_inurba_marseille","lat":43.28482,"lon":5.3844,"is_reserved":false,"is_disabled":true,"rental_uris":{"android":"levelo://app?vid=ae7f20ef-59c8-4024-a29c-874696e536a2","ios":"levelo://app?vid=ae7f20ef-59c8-4024-a29c-874696e536a2"},"vehicle_type_id":"4","last_reported":1735931187,"current_range_meters":0,"station_id":"ce4bh512rcd13ifvqe3g","pricing_plan_id":"cebpf4jnsgd1na2vs0mg"},{"bike_id":"3c7472a4-a45c-4f46-a692-aa44ebf92f21","system_id":"levelo_inurba_marseille","lat":43.27449,"lon":5.39351,"is_reserved":false,"is_disabled":false,"rental_uris":{"android":"levelo://app?vid=3c7472a4-a45c-4f46-a692-aa44ebf92f21","ios":"levelo://app?vid=3c7472a4-a45c-4f46-a692-aa44ebf92f21"},"vehicle_type_id":"4","last_reported":1735931187,"current_range_meters":30000,"station_id":"","pricing_plan_id":"cebpf4jnsgd1na2vs0mg"},{"bike_id":"058ecb54-af3e-4e44-a703-6e3c9b29c958","system_id":"levelo_inurba_marseille","lat":43.29015,"lon":5.35619,"is_reserved":false,"is_disabled":false,"rental_uris":{"android":"levelo://app?vid=058ecb54-af3e-4e44-a703-6e3c9b29c958","ios":"levelo://app?vid=058ecb54-af3e-4e44-a703-6e3c9b29c958"},"vehicle_type_id":"4","last_reported":1735931187,"current_range_meters":38800,"station_id":"ce4bhb92rcd13ifvqen0","pricing_plan_id":"cebpf4jnsgd1na2vs0mg"},{"bike_id":"ecea3f12-75f2-44db-bb9b-f9d40753c385","system_id":"levelo_inurba_marseille","lat":43.25006,"lon":5.38922,"is_reserved":false,"is_disabled":false,"rental_uris":{"android":"levelo://app?vid=ecea3f12-75f2-44db-bb9b-f9d40753c385","ios":"levelo://app?vid=ecea3f12-75f2-44db-bb9b-f9d40753c385"},"vehicle_type_id":"4","last_reported":1735931187,"current_range_meters":11200,"station_id":"ce4bhgp2rcd13ifvqfd0","pricing_plan_id":"cebpf4jnsgd1na2vs0mg"},{"bike_id":"b5b2166a-b0b8-4fc4-9960-24fcf8dddf0c","system_id":"levelo_inurba_marseille","lat":43.30825,"lon":5.38059,"is_reserved":false,"is_disabled":false,"rental_uris":{"android":"levelo://app?vid=b5b2166a-b0b8-4fc4-9960-24fcf8dddf0c","ios":"levelo://app?vid=b5b2166a-b0b8-4fc4-9960-24fcf8dddf0c"},"vehicle_type_id":"4","last_reported":1735931187,"current_range_meters":14000,"station_id":"","pricing_plan_id":"cebpf4jnsgd1na2vs0mg"},{"bike_id":"3d8da598-689d-4c93-8750-95cc3aeafe7f","system_id":"levelo_inurba_marseille","lat":43.28935,"lon":5.36635,"is_reserved":false,"is_disabled":false,"rental_uris":{"android":"levelo://app?vid=3d8da598-689d-4c93-8750-95cc3aeafe7f","ios":"levelo://app?vid=3d8da598-689d-4c93-8750-95cc3aeafe7f"},"vehicle_type_id":"4","last_reported":1735931187,"current_range_meters":22800,"station_id":"ce4bhap2rcd13ifvqek0","pricing_plan_id":"cebpf4jnsgd1na2vs0mg"},{"bike_id":"140d754b-e6e5-4586-be38-8de3580a2d2b","system_id":"levelo_inurba_marseille","lat":43.30141,"lon":5.3985,"is_reserved":false,"is_disabled":true,"rental_uris":{"android":"levelo://app?vid=140d754b-e6e5-4586-be38-8de3580a2d2b","ios":"levelo://app?vid=140d754b-e6e5-4586-be38-8de3580a2d2b"},"vehicle_type_id":"4","last_reported":1735931187,"current_range_meters":1600,"station_id":"ce4bh0h2rcd13ifvqd40","pricing_plan_id":"cebpf4jnsgd1na2vs0mg"},{"bike_id":"2d37891b-3e35-407f-964b-7c262ae2b2d0","system_id":"levelo_inurba_marseille","lat":43.29415,"lon":5.38102,"is_reserved":false,"is_disabled":true,"rental_uris":{"android":"levelo://app?vid=2d37891b-3e35-407f-964b-7c262ae2b2d0","ios":"levelo://app?vid=2d37891b-3e35-407f-964b-7c262ae2b2d0"},"vehicle_type_id":"4","last_reported":1735931187,"current_range_meters":0,"station_id":"","pricing_plan_id":"cebpf4jnsgd1na2vs0mg"},{"bike_id":"13e1d001-5304-4440-8773-a99209b55da5","system_id":"levelo_inurba_marseille","lat":43.26828,"lon":5.394515,"is_reserved":false,"is_disabled":false,"rental_uris":{"android":"levelo://app?vid=13e1d001-5304-4440-8773-a99209b55da5","ios":"levelo://app?vid=13e1d001-5304-4440-8773-a99209b55da5"},"vehicle_type_id":"4","last_reported":1735931187,"current_range_meters":38800,"station_id":"","pricing_plan_id":"cebpf4jnsgd1na2vs0mg"},{"bike_id":"89413a3b-82eb-4e17-a581-a8f9dbcf72dd","system_id":"levelo_inurba_marseille","lat":43.29011,"lon":5.35607,"is_reserved":false,"is_disabled":false,"rental_uris":{"android":"levelo://app?vid=89413a3b-82eb-4e17-a581-a8f9dbcf72dd","ios":"levelo://app?vid=89413a3b-82eb-4e17-a581-a8f9dbcf72dd"},"vehicle_type_id":"4","last_reported":1735931187,"current_range_meters":12400,"station_id":"ce4bhb92rcd13ifvqen0","pricing_plan_id":"cebpf4jnsgd1na2vs0mg"},{"bike_id":"2332862a-3884-4317-af82-ee9793e9b62c","system_id":"levelo_inurba_marseille","lat":43.24081,"lon":5.37729,"is_reserved":false,"is_disabled":false,"rental_uris":{"android":"levelo://app?vid=2332862a-3884-4317-af82-ee9793e9b62c","ios":"levelo://app?vid=2332862a-3884-4317-af82-ee9793e9b62c"},"vehicle_type_id":"4","last_reported":1735931187,"current_range_meters":20000,"station_id":"ce4bhnp2rcd13ifvqgvg","pricing_plan_id":"cebpf4jnsgd1na2vs0mg"},{"bike_id":"2dc8a66d-24cf-4895-80e5-0d94d1246134","system_id":"levelo_inurba_marseille","lat":43.28042,"lon":5.36953,"is_reserved":false,"is_disabled":false,"rental_uris":{"android":"levelo://app?vid=2dc8a66d-24cf-4895-80e5-0d94d1246134","ios":"levelo://app?vid=2dc8a66d-24cf-4895-80e5-0d94d1246134"},"vehicle_type_id":"4","last_reported":1735931187,"current_range_meters":19600,"station_id":"ce4bha12rcd13ifvqef0","pricing_plan_id":"cebpf4jnsgd1na2vs0mg"},{"bike_id":"9bc3e5f4-1076-4308-85ea-6ec37ca9b33e","system_id":"levelo_inurba_marseille","lat":43.29973,"lon":5.36556,"is_reserved":false,"is_disabled":false,"rental_uris":{"android":"levelo://app?vid=9bc3e5f4-1076-4308-85ea-6ec37ca9b33e","ios":"levelo://app?vid=9bc3e5f4-1076-4308-85ea-6ec37ca9b33e"},"vehicle_type_id":"4","last_reported":1735931187,"current_range_meters":24400,"station_id":"ce4bgm92rcd13ifvqbr0","pricing_plan_id":"cebpf4jnsgd1na2vs0mg"},{"bike_id":"5eb85509-02c3-4841-be2d-8764a2547542","system_id":"levelo_inurba_marseille","lat":43.285535,"lon":5.389823,"is_reserved":false,"is_disabled":false,"rental_uris":{"android":"levelo://app?vid=5eb85509-02c3-4841-be2d-8764a2547542","ios":"levelo://app?vid=5eb85509-02c3-4841-be2d-8764a2547542"},"vehicle_type_id":"4","last_reported":1735931187,"current_range_meters":26800,"station_id":"ce4bgup2rcd13ifvqcn0","pricing_plan_id":"cebpf4jnsgd1na2vs0mg"},{"bike_id":"b196ede2-15dc-4193-a4cf-026c9e7d182c","system_id":"levelo_inurba_marseille","lat":43.32666,"lon":5.40986,"is_reserved":false,"is_disabled":false,"rental_uris":{"android":"levelo://app?vid=b196ede2-15dc-4193-a4cf-026c9e7d182c","ios":"levelo://app?vid=b196ede2-15dc-4193-a4cf-026c9e7d182c"},"vehicle_type_id":"4","last_reported":1735931187,"current_range_meters":24400,"station_id":"ce4bhpp2rcd13ifvqhgg","pricing_plan_id":"cebpf4jnsgd1na2vs0mg"},{"bike_id":"af6f5cf6-fe33-49d4-9b2b-a069d115dde7","system_id":"levelo_inurba_marseille","lat":43.29865,"lon":5.36306,"is_reserved":false,"is_disabled":false,"rental_uris":{"android":"levelo://app?vid=af6f5cf6-fe33-49d4-9b2b-a069d115dde7","ios":"levelo://app?vid=af6f5cf6-fe33-49d4-9b2b-a069d115dde7"},"vehicle_type_id":"4","last_reported":1735931187,"current_range_meters":22800,"station_id":"ce4bgpp2rcd13ifvqc3g","pricing_plan_id":"cebpf4jnsgd1na2vs0mg"},{"bike_id":"f8552ddb-26a0-445d-9a6e-4525b17b7a2f","system_id":"levelo_inurba_marseille","lat":43.29005,"lon":5.35612,"is_reserved":false,"is_disabled":false,"rental_uris":{"android":"levelo://app?vid=f8552ddb-26a0-445d-9a6e-4525b17b7a2f","ios":"levelo://app?vid=f8552ddb-26a0-445d-9a6e-4525b17b7a2f"},"vehicle_type_id":"4","last_reported":1735931187,"current_range_meters":18000,"station_id":"ce4bhb92rcd13ifvqen0","pricing_plan_id":"cebpf4jnsgd1na2vs0mg"},{"bike_id":"187242c6-6bf3-4f6c-be6f-031703a6b4d1","system_id":"levelo_inurba_marseille","lat":43.25117,"lon":5.40323,"is_reserved":false,"is_disabled":false,"rental_uris":{"android":"levelo://app?vid=187242c6-6bf3-4f6c-be6f-031703a6b4d1","ios":"levelo://app?vid=187242c6-6bf3-4f6c-be6f-031703a6b4d1"},"vehicle_type_id":"4","last_reported":1735931187,"current_range_meters":28800,"station_id":"ce4bhlh2rcd13ifvqgig","pricing_plan_id":"cebpf4jnsgd1na2vs0mg"},{"bike_id":"01a892c4-6d34-4a6b-9f97-5324cd46aa08","system_id":"levelo_inurba_marseille","lat":43.28963,"lon":5.37837,"is_reserved":false,"is_disabled":true,"rental_uris":{"android":"levelo://app?vid=01a892c4-6d34-4a6b-9f97-5324cd46aa08","ios":"levelo://app?vid=01a892c4-6d34-4a6b-9f97-5324cd46aa08"},"vehicle_type_id":"4","last_reported":1735931187,"current_range_meters":37600,"station_id":"ce4bh9p2rcd13ifvqed0","pricing_plan_id":"cebpf4jnsgd1na2vs0mg"},{"bike_id":"89ebf658-d6be-4221-be38-507b09164ccf","system_id":"levelo_inurba_marseille","lat":43.30875,"lon":5.39618,"is_reserved":false,"is_disabled":false,"rental_uris":{"android":"levelo://app?vid=89ebf658-d6be-4221-be38-507b09164ccf","ios":"levelo://app?vid=89ebf658-d6be-4221-be38-507b09164ccf"},"vehicle_type_id":"4","last_reported":1735931187,"current_range_meters":7200,"station_id":"ce4bh012rcd13ifvqcv0","pricing_plan_id":"cebpf4jnsgd1na2vs0mg"},{"bike_id":"9da27a17-ed4c-48bb-b7b8-d74c4638993a","system_id":"levelo_inurba_marseille","lat":43.29171,"lon":5.37166,"is_reserved":false,"is_disabled":false,"rental_uris":{"android":"levelo://app?vid=9da27a17-ed4c-48bb-b7b8-d74c4638993a","ios":"levelo://app?vid=9da27a17-ed4c-48bb-b7b8-d74c4638993a"},"vehicle_type_id":"4","last_reported":1735931187,"current_range_meters":29600,"station_id":"ce4bha92rcd13ifvqeh0","pricing_plan_id":"cebpf4jnsgd1na2vs0mg"},{"bike_id":"a7b05dda-24ce-4e72-9ccf-73a42773175d","system_id":"levelo_inurba_marseille","lat":43.25498,"lon":5.3765,"is_reserved":false,"is_disabled":false,"rental_uris":{"android":"levelo://app?vid=a7b05dda-24ce-4e72-9ccf-73a42773175d","ios":"levelo://app?vid=a7b05dda-24ce-4e72-9ccf-73a42773175d"},"vehicle_type_id":"4","last_reported":1735931187,"current_range_meters":38000,"station_id":"ce4bhh12rcd13ifvqff0","pricing_plan_id":"cebpf4jnsgd1na2vs0mg"},{"bike_id":"9352dcee-6455-4394-b886-de1fe693a486","system_id":"levelo_inurba_marseille","lat":43.30145,"lon":5.3878,"is_reserved":false,"is_disabled":false,"rental_uris":{"android":"levelo://app?vid=9352dcee-6455-4394-b886-de1fe693a486","ios":"levelo://app?vid=9352dcee-6455-4394-b886-de1fe693a486"},"vehicle_type_id":"4","last_reported":1735931187,"current_range_meters":26000,"station_id":"ce4bhoh2rcd13ifvqh6g","pricing_plan_id":"cebpf4jnsgd1na2vs0mg"},{"bike_id":"3a702068-46c9-4dcd-9bd2-a5f18ff10a66","system_id":"levelo_inurba_marseille","lat":43.29267,"lon":5.38443,"is_reserved":false,"is_disabled":false,"rental_uris":{"android":"levelo://app?vid=3a702068-46c9-4dcd-9bd2-a5f18ff10a66","ios":"levelo://app?vid=3a702068-46c9-4dcd-9bd2-a5f18ff10a66"},"vehicle_type_id":"4","last_reported":1735931187,"current_range_meters":36400,"station_id":"ce4bh692rcd13ifvqea0","pricing_plan_id":"cebpf4jnsgd1na2vs0mg"},{"bike_id":"c38119df-a0cc-4d53-851b-aebce98309d3","system_id":"levelo_inurba_marseille","lat":43.25015,"lon":5.3891,"is_reserved":false,"is_disabled":false,"rental_uris":{"android":"levelo://app?vid=c38119df-a0cc-4d53-851b-aebce98309d3","ios":"levelo://app?vid=c38119df-a0cc-4d53-851b-aebce98309d3"},"vehicle_type_id":"4","last_reported":1735931187,"current_range_meters":8000,"station_id":"ce4bhgp2rcd13ifvqfd0","pricing_plan_id":"cebpf4jnsgd1na2vs0mg"},{"bike_id":"9dc157f4-ea7a-407b-af12-bb8907761a0d","system_id":"levelo_inurba_marseille","lat":43.29172,"lon":5.37149,"is_reserved":false,"is_disabled":false,"rental_uris":{"android":"levelo://app?vid=9dc157f4-ea7a-407b-af12-bb8907761a0d","ios":"levelo://app?vid=9dc157f4-ea7a-407b-af12-bb8907761a0d"},"vehicle_type_id":"4","last_reported":1735931187,"current_range_meters":28800,"station_id":"ce4bha92rcd13ifvqeh0","pricing_plan_id":"cebpf4jnsgd1na2vs0mg"},{"bike_id":"3518eb7c-c58d-4c01-9cee-4becfde74956","system_id":"levelo_inurba_marseille","lat":43.26944,"lon":5.40246,"is_reserved":false,"is_disabled":false,"rental_uris":{"android":"levelo://app?vid=3518eb7c-c58d-4c01-9cee-4becfde74956","ios":"levelo://app?vid=3518eb7c-c58d-4c01-9cee-4becfde74956"},"vehicle_type_id":"4","last_reported":1735931187,"current_range_meters":21600,"station_id":"cjm6bp8fraef2m0cb0m0","pricing_plan_id":"cebpf4jnsgd1na2vs0mg"},{"bike_id":"d06765fb-ae36-4bd9-824c-0b5234000b68","system_id":"levelo_inurba_marseille","lat":43.2512,"lon":5.40317,"is_reserved":false,"is_disabled":false,"rental_uris":{"android":"levelo://app?vid=d06765fb-ae36-4bd9-824c-0b5234000b68","ios":"levelo://app?vid=d06765fb-ae36-4bd9-824c-0b5234000b68"},"vehicle_type_id":"4","last_reported":1735931187,"current_range_meters":39200,"station_id":"ce4bhlh2rcd13ifvqgig","pricing_plan_id":"cebpf4jnsgd1na2vs0mg"},{"bike_id":"9f58862a-aa2f-4ebc-a1ab-45710e1c8c93","system_id":"levelo_inurba_marseille","lat":43.30869,"lon":5.37401,"is_reserved":false,"is_disabled":false,"rental_uris":{"android":"levelo://app?vid=9f58862a-aa2f-4ebc-a1ab-45710e1c8c93","ios":"levelo://app?vid=9f58862a-aa2f-4ebc-a1ab-45710e1c8c93"},"vehicle_type_id":"4","last_reported":1735931187,"current_range_meters":20000,"station_id":"","pricing_plan_id":"cebpf4jnsgd1na2vs0mg"},{"bike_id":"6d14468d-d4fe-4fb2-b1d6-ebb52c384fb6","system_id":"levelo_inurba_marseille","lat":43.31995,"lon":5.38161,"is_reserved":false,"is_disabled":false,"rental_uris":{"android":"levelo://app?vid=6d14468d-d4fe-4fb2-b1d6-ebb52c384fb6","ios":"levelo://app?vid=6d14468d-d4fe-4fb2-b1d6-ebb52c384fb6"},"vehicle_type_id":"4","last_reported":1735931187,"current_range_meters":38800,"station_id":"ce4bhr12rcd13ifvqhpg","pricing_plan_id":"cebpf4jnsgd1na2vs0mg"},{"bike_id":"16314a60-59d6-4ad9-813c-6b2aae602f85","system_id":"levelo_inurba_marseille","lat":43.292717,"lon":5.368345,"is_reserved":false,"is_disabled":false,"rental_uris":{"android":"levelo://app?vid=16314a60-59d6-4ad9-813c-6b2aae602f85","ios":"levelo://app?vid=16314a60-59d6-4ad9-813c-6b2aae602f85"},"vehicle_type_id":"4","last_reported":1735931187,"current_range_meters":16000,"station_id":"ce4bhbp2rcd13ifvqesg","pricing_plan_id":"cebpf4jnsgd1na2vs0mg"},{"bike_id":"2f857458-45ae-4306-9ffb-5d94252d59a5","system_id":"levelo_inurba_marseille","lat":43.24649,"lon":5.38902,"is_reserved":false,"is_disabled":false,"rental_uris":{"android":"levelo://app?vid=2f857458-45ae-4306-9ffb-5d94252d59a5","ios":"levelo://app?vid=2f857458-45ae-4306-9ffb-5d94252d59a5"},"vehicle_type_id":"4","last_reported":1735931187,"current_range_meters":38800,"station_id":"ce4bhg12rcd13ifvqf60","pricing_plan_id":"cebpf4jnsgd1na2vs0mg"},{"bike_id":"f478c5ce-b4c5-4796-8923-8dc8ede92558","system_id":"levelo_inurba_marseille","lat":43.31227,"lon":5.36853,"is_reserved":false,"is_disabled":false,"rental_uris":{"android":"levelo://app?vid=f478c5ce-b4c5-4796-8923-8dc8ede92558","ios":"levelo://app?vid=f478c5ce-b4c5-4796-8923-8dc8ede92558"},"vehicle_type_id":"4","last_reported":1735931187,"current_range_meters":28800,"station_id":"ce4bgl92rcd13ifvqbq0","pricing_plan_id":"cebpf4jnsgd1na2vs0mg"},{"bike_id":"7b78d5e2-5142-402d-a4f8-0f3037a6c533","system_id":"levelo_inurba_marseille","lat":43.26955,"lon":5.3862,"is_reserved":false,"is_disabled":true,"rental_uris":{"android":"levelo://app?vid=7b78d5e2-5142-402d-a4f8-0f3037a6c533","ios":"levelo://app?vid=7b78d5e2-5142-402d-a4f8-0f3037a6c533"},"vehicle_type_id":"4","last_reported":1735931187,"current_range_meters":16000,"station_id":"ce4bhh92rcd13ifvqfh0","pricing_plan_id":"cebpf4jnsgd1na2vs0mg"},{"bike_id":"cbb6eaa8-2a66-410e-9a99-0cc5daa01219","system_id":"levelo_inurba_marseille","lat":43.29007,"lon":5.35586,"is_reserved":false,"is_disabled":false,"rental_uris":{"android":"levelo://app?vid=cbb6eaa8-2a66-410e-9a99-0cc5daa01219","ios":"levelo://app?vid=cbb6eaa8-2a66-410e-9a99-0cc5daa01219"},"vehicle_type_id":"4","last_reported":1735931187,"current_range_meters":39200,"station_id":"ce4bhb92rcd13ifvqen0","pricing_plan_id":"cebpf4jnsgd1na2vs0mg"},{"bike_id":"00b0c897-4e8f-453d-8e9d-6135317dff3d","system_id":"levelo_inurba_marseille","lat":43.29569,"lon":5.42292,"is_reserved":false,"is_disabled":false,"rental_uris":{"android":"levelo://app?vid=00b0c897-4e8f-453d-8e9d-6135317dff3d","ios":"levelo://app?vid=00b0c897-4e8f-453d-8e9d-6135317dff3d"},"vehicle_type_id":"4","last_reported":1735931187,"current_range_meters":8400,"station_id":"ce4bhph2rcd13ifvqhdg","pricing_plan_id":"cebpf4jnsgd1na2vs0mg"},{"bike_id":"b0df2c77-f73a-46b2-b5c5-6520722442d4","system_id":"levelo_inurba_marseille","lat":43.29547,"lon":5.4229,"is_reserved":false,"is_disabled":false,"rental_uris":{"android":"levelo://app?vid=b0df2c77-f73a-46b2-b5c5-6520722442d4","ios":"levelo://app?vid=b0df2c77-f73a-46b2-b5c5-6520722442d4"},"vehicle_type_id":"4","last_reported":1735931187,"current_range_meters":32000,"station_id":"ce4bhph2rcd13ifvqhdg","pricing_plan_id":"cebpf4jnsgd1na2vs0mg"},{"bike_id":"4a5ecd12-4a57-4891-9f8e-0a21c601785b","system_id":"levelo_inurba_marseille","lat":43.29881,"lon":5.38906,"is_reserved":false,"is_disabled":false,"rental_uris":{"android":"levelo://app?vid=4a5ecd12-4a57-4891-9f8e-0a21c601785b","ios":"levelo://app?vid=4a5ecd12-4a57-4891-9f8e-0a21c601785b"},"vehicle_type_id":"4","last_reported":1735931187,"current_range_meters":38000,"station_id":"ce4bh392rcd13ifvqdl0","pricing_plan_id":"cebpf4jnsgd1na2vs0mg"},{"bike_id":"c05af183-08ce-4d46-8c31-6a2b7cc4d29e","system_id":"levelo_inurba_marseille","lat":43.2757,"lon":5.38416,"is_reserved":false,"is_disabled":false,"rental_uris":{"android":"levelo://app?vid=c05af183-08ce-4d46-8c31-6a2b7cc4d29e","ios":"levelo://app?vid=c05af183-08ce-4d46-8c31-6a2b7cc4d29e"},"vehicle_type_id":"4","last_reported":1735931187,"current_range_meters":38800,"station_id":"ce4bhh92rcd13ifvqfi0","pricing_plan_id":"cebpf4jnsgd1na2vs0mg"},{"bike_id":"7facf5dc-2dca-40fb-abf1-f4666c23c735","system_id":"levelo_inurba_marseille","lat":43.26684,"lon":5.38265,"is_reserved":false,"is_disabled":false,"rental_uris":{"android":"levelo://app?vid=7facf5dc-2dca-40fb-abf1-f4666c23c735","ios":"levelo://app?vid=7facf5dc-2dca-40fb-abf1-f4666c23c735"},"vehicle_type_id":"4","last_reported":1735931187,"current_range_meters":28800,"station_id":"ce4bhg92rcd13ifvqf90","pricing_plan_id":"cebpf4jnsgd1na2vs0mg"},{"bike_id":"1237c156-cfa6-45ec-9298-949dcdbd11b6","system_id":"levelo_inurba_marseille","lat":43.2738,"lon":5.36253,"is_reserved":false,"is_disabled":false,"rental_uris":{"android":"levelo://app?vid=1237c156-cfa6-45ec-9298-949dcdbd11b6","ios":"levelo://app?vid=1237c156-cfa6-45ec-9298-949dcdbd11b6"},"vehicle_type_id":"4","last_reported":1735931187,"current_range_meters":38800,"station_id":"ce4bhbh2rcd13ifvqeo0","pricing_plan_id":"cebpf4jnsgd1na2vs0mg"},{"bike_id":"cb9ddef6-e3ca-4d83-8257-6a73eb8266c6","system_id":"levelo_inurba_marseille","lat":43.326616,"lon":5.409918,"is_reserved":false,"is_disabled":false,"rental_uris":{"android":"levelo://app?vid=cb9ddef6-e3ca-4d83-8257-6a73eb8266c6","ios":"levelo://app?vid=cb9ddef6-e3ca-4d83-8257-6a73eb8266c6"},"vehicle_type_id":"4","last_reported":1735931187,"current_range_meters":38000,"station_id":"ce4bhpp2rcd13ifvqhgg","pricing_plan_id":"cebpf4jnsgd1na2vs0mg"},{"bike_id":"7b9e134f-1d5b-46f5-87f8-6cc312c5778f","system_id":"levelo_inurba_marseille","lat":43.22917,"lon":5.35359,"is_reserved":false,"is_disabled":false,"rental_uris":{"android":"levelo://app?vid=7b9e134f-1d5b-46f5-87f8-6cc312c5778f","ios":"levelo://app?vid=7b9e134f-1d5b-46f5-87f8-6cc312c5778f"},"vehicle_type_id":"4","last_reported":1735931187,"current_range_meters":38800,"station_id":"cpo3532slgdg3j2ikp40","pricing_plan_id":"cebpf4jnsgd1na2vs0mg"},{"bike_id":"135cf862-1e80-4855-8234-457b3ef98c02","system_id":"levelo_inurba_marseille","lat":43.29588,"lon":5.36732,"is_reserved":false,"is_disabled":false,"rental_uris":{"android":"levelo://app?vid=135cf862-1e80-4855-8234-457b3ef98c02","ios":"levelo://app?vid=135cf862-1e80-4855-8234-457b3ef98c02"},"vehicle_type_id":"4","last_reported":1735931187,"current_range_meters":10800,"station_id":"ce4bgph2rcd13ifvqc2g","pricing_plan_id":"cebpf4jnsgd1na2vs0mg"},{"bike_id":"34825794-d565-4dbd-8cbe-c88df4608f04","system_id":"levelo_inurba_marseille","lat":43.27809,"lon":5.40708,"is_reserved":false,"is_disabled":false,"rental_uris":{"android":"levelo://app?vid=34825794-d565-4dbd-8cbe-c88df4608f04","ios":"levelo://app?vid=34825794-d565-4dbd-8cbe-c88df4608f04"},"vehicle_type_id":"4","last_reported":1735931187,"current_range_meters":38800,"station_id":"ce4bhnh2rcd13ifvqgtg","pricing_plan_id":"cebpf4jnsgd1na2vs0mg"},{"bike_id":"9085f317-eea3-445b-8bdd-28ff00ca8048","system_id":"levelo_inurba_marseille","lat":43.26688,"lon":5.3827,"is_reserved":false,"is_disabled":false,"rental_uris":{"android":"levelo://app?vid=9085f317-eea3-445b-8bdd-28ff00ca8048","ios":"levelo://app?vid=9085f317-eea3-445b-8bdd-28ff00ca8048"},"vehicle_type_id":"4","last_reported":1735931187,"current_range_meters":34800,"station_id":"ce4bhg92rcd13ifvqf90","pricing_plan_id":"cebpf4jnsgd1na2vs0mg"},{"bike_id":"a6f828f1-5f97-4da7-bf33-7d48a155db3e","system_id":"levelo_inurba_marseille","lat":43.2785,"lon":5.39221,"is_reserved":false,"is_disabled":false,"rental_uris":{"android":"levelo://app?vid=a6f828f1-5f97-4da7-bf33-7d48a155db3e","ios":"levelo://app?vid=a6f828f1-5f97-4da7-bf33-7d48a155db3e"},"vehicle_type_id":"4","last_reported":1735931187,"current_range_meters":29600,"station_id":"ce4bhjp2rcd13ifvqga0","pricing_plan_id":"cebpf4jnsgd1na2vs0mg"},{"bike_id":"109249d2-7daf-4296-bfbc-45d5163d23df","system_id":"levelo_inurba_marseille","lat":43.306108,"lon":5.372348,"is_reserved":false,"is_disabled":true,"rental_uris":{"android":"levelo://app?vid=109249d2-7daf-4296-bfbc-45d5163d23df","ios":"levelo://app?vid=109249d2-7daf-4296-bfbc-45d5163d23df"},"vehicle_type_id":"4","last_reported":1735931187,"current_range_meters":32000,"station_id":"ce4bgqh2rcd13ifvqc4g","pricing_plan_id":"cebpf4jnsgd1na2vs0mg"},{"bike_id":"264e2b37-a7a8-43de-af6e-2a79e21accc7","system_id":"levelo_inurba_marseille","lat":43.29271,"lon":5.36847,"is_reserved":false,"is_disabled":false,"rental_uris":{"android":"levelo://app?vid=264e2b37-a7a8-43de-af6e-2a79e21accc7","ios":"levelo://app?vid=264e2b37-a7a8-43de-af6e-2a79e21accc7"},"vehicle_type_id":"4","last_reported":1735931187,"current_range_meters":28000,"station_id":"ce4bhbp2rcd13ifvqesg","pricing_plan_id":"cebpf4jnsgd1na2vs0mg"},{"bike_id":"17d68fc8-a08c-4c51-9afe-f5e096925619","system_id":"levelo_inurba_marseille","lat":43.28999,"lon":5.35602,"is_reserved":false,"is_disabled":false,"rental_uris":{"android":"levelo://app?vid=17d68fc8-a08c-4c51-9afe-f5e096925619","ios":"levelo://app?vid=17d68fc8-a08c-4c51-9afe-f5e096925619"},"vehicle_type_id":"4","last_reported":1735931187,"current_range_meters":17600,"station_id":"ce4bhb92rcd13ifvqen0","pricing_plan_id":"cebpf4jnsgd1na2vs0mg"},{"bike_id":"1ea5bf63-8dda-4802-a65e-3cb4053c17f1","system_id":"levelo_inurba_marseille","lat":43.28696,"lon":5.38671,"is_reserved":false,"is_disabled":false,"rental_uris":{"android":"levelo://app?vid=1ea5bf63-8dda-4802-a65e-3cb4053c17f1","ios":"levelo://app?vid=1ea5bf63-8dda-4802-a65e-3cb4053c17f1"},"vehicle_type_id":"4","last_reported":1735931187,"current_range_meters":18800,"station_id":"ce4bh492rcd13ifvqdug","pricing_plan_id":"cebpf4jnsgd1na2vs0mg"},{"bike_id":"8a94385a-5ec5-4b84-a374-9fa96b860c6e","system_id":"levelo_inurba_marseille","lat":43.31283,"lon":5.4018,"is_reserved":false,"is_disabled":false,"rental_uris":{"android":"levelo://app?vid=8a94385a-5ec5-4b84-a374-9fa96b860c6e","ios":"levelo://app?vid=8a94385a-5ec5-4b84-a374-9fa96b860c6e"},"vehicle_type_id":"4","last_reported":1735931187,"current_range_meters":25200,"station_id":"ce4bh092rcd13ifvqd30","pricing_plan_id":"cebpf4jnsgd1na2vs0mg"},{"bike_id":"40977940-0cd3-4c4e-ab13-342c16c738ab","system_id":"levelo_inurba_marseille","lat":43.24655,"lon":5.38892,"is_reserved":false,"is_disabled":false,"rental_uris":{"android":"levelo://app?vid=40977940-0cd3-4c4e-ab13-342c16c738ab","ios":"levelo://app?vid=40977940-0cd3-4c4e-ab13-342c16c738ab"},"vehicle_type_id":"4","last_reported":1735931187,"current_range_meters":17600,"station_id":"ce4bhg12rcd13ifvqf60","pricing_plan_id":"cebpf4jnsgd1na2vs0mg"},{"bike_id":"0fb09dc4-c559-469b-b944-d0167194cfca","system_id":"levelo_inurba_marseille","lat":43.2796,"lon":5.41033,"is_reserved":false,"is_disabled":true,"rental_uris":{"android":"levelo://app?vid=0fb09dc4-c559-469b-b944-d0167194cfca","ios":"levelo://app?vid=0fb09dc4-c559-469b-b944-d0167194cfca"},"vehicle_type_id":"4","last_reported":1735931187,"current_range_meters":0,"station_id":"ce4bhnp2rcd13ifvqh0g","pricing_plan_id":"cebpf4jnsgd1na2vs0mg"},{"bike_id":"6befa724-a01f-4ce7-a943-40045c8a7a16","system_id":"levelo_inurba_marseille","lat":43.26947,"lon":5.38909,"is_reserved":false,"is_disabled":false,"rental_uris":{"android":"levelo://app?vid=6befa724-a01f-4ce7-a943-40045c8a7a16","ios":"levelo://app?vid=6befa724-a01f-4ce7-a943-40045c8a7a16"},"vehicle_type_id":"4","last_reported":1735931187,"current_range_meters":37600,"station_id":"ce4bhhh2rcd13ifvqfl0","pricing_plan_id":"cebpf4jnsgd1na2vs0mg"},{"bike_id":"ffaa7442-5806-4ded-827f-12be4a9f93f7","system_id":"levelo_inurba_marseille","lat":43.26202,"lon":5.37445,"is_reserved":false,"is_disabled":false,"rental_uris":{"android":"levelo://app?vid=ffaa7442-5806-4ded-827f-12be4a9f93f7","ios":"levelo://app?vid=ffaa7442-5806-4ded-827f-12be4a9f93f7"},"vehicle_type_id":"4","last_reported":1735931187,"current_range_meters":38800,"station_id":"ce4bhgp2rcd13ifvqfc0","pricing_plan_id":"cebpf4jnsgd1na2vs0mg"},{"bike_id":"6c0950ff-ad32-4545-a3b0-d009b8de7beb","system_id":"levelo_inurba_marseille","lat":43.26496,"lon":5.39548,"is_reserved":false,"is_disabled":false,"rental_uris":{"android":"levelo://app?vid=6c0950ff-ad32-4545-a3b0-d009b8de7beb","ios":"levelo://app?vid=6c0950ff-ad32-4545-a3b0-d009b8de7beb"},"vehicle_type_id":"4","last_reported":1735931187,"current_range_meters":38000,"station_id":"ce4bhi12rcd13ifvqfq0","pricing_plan_id":"cebpf4jnsgd1na2vs0mg"},{"bike_id":"641d8acc-50b2-4173-ab23-c70f2a11d28e","system_id":"levelo_inurba_marseille","lat":43.28171,"lon":5.42641,"is_reserved":false,"is_disabled":true,"rental_uris":{"android":"levelo://app?vid=641d8acc-50b2-4173-ab23-c70f2a11d28e","ios":"levelo://app?vid=641d8acc-50b2-4173-ab23-c70f2a11d28e"},"vehicle_type_id":"4","last_reported":1735931187,"current_range_meters":38000,"station_id":"ce4bhnh2rcd13ifvqgug","pricing_plan_id":"cebpf4jnsgd1na2vs0mg"},{"bike_id":"f27776ce-a001-4622-a2ee-ea81df582e36","system_id":"levelo_inurba_marseille","lat":43.27221,"lon":5.39124,"is_reserved":false,"is_disabled":false,"rental_uris":{"android":"levelo://app?vid=f27776ce-a001-4622-a2ee-ea81df582e36","ios":"levelo://app?vid=f27776ce-a001-4622-a2ee-ea81df582e36"},"vehicle_type_id":"4","last_reported":1735931187,"current_range_meters":32800,"station_id":"ce4bhhp2rcd13ifvqfm0","pricing_plan_id":"cebpf4jnsgd1na2vs0mg"},{"bike_id":"8e936699-fb94-4c05-a18e-6a31521ab968","system_id":"levelo_inurba_marseille","lat":43.28467,"lon":5.35897,"is_reserved":false,"is_disabled":true,"rental_uris":{"android":"levelo://app?vid=8e936699-fb94-4c05-a18e-6a31521ab968","ios":"levelo://app?vid=8e936699-fb94-4c05-a18e-6a31521ab968"},"vehicle_type_id":"4","last_reported":1735931187,"current_range_meters":34000,"station_id":"ce4bhah2rcd13ifvqei0","pricing_plan_id":"cebpf4jnsgd1na2vs0mg"},{"bike_id":"237a0d5a-8195-4695-b7fc-17dfb3b6dfc0","system_id":"levelo_inurba_marseille","lat":43.286,"lon":5.37057,"is_reserved":false,"is_disabled":false,"rental_uris":{"android":"levelo://app?vid=237a0d5a-8195-4695-b7fc-17dfb3b6dfc0","ios":"levelo://app?vid=237a0d5a-8195-4695-b7fc-17dfb3b6dfc0"},"vehicle_type_id":"4","last_reported":1735931187,"current_range_meters":20000,"station_id":"ce4bht12rcd13ifvqi60","pricing_plan_id":"cebpf4jnsgd1na2vs0mg"},{"bike_id":"d9039fb6-1526-43a5-ab47-bf6c74051347","system_id":"levelo_inurba_marseille","lat":43.28178,"lon":5.42643,"is_reserved":false,"is_disabled":false,"rental_uris":{"android":"levelo://app?vid=d9039fb6-1526-43a5-ab47-bf6c74051347","ios":"levelo://app?vid=d9039fb6-1526-43a5-ab47-bf6c74051347"},"vehicle_type_id":"4","last_reported":1735931187,"current_range_meters":36800,"station_id":"ce4bhnh2rcd13ifvqgug","pricing_plan_id":"cebpf4jnsgd1na2vs0mg"},{"bike_id":"3a3a4eb7-ea9e-4f95-973d-bbbd1fc7238b","system_id":"levelo_inurba_marseille","lat":43.27996,"lon":5.41695,"is_reserved":false,"is_disabled":false,"rental_uris":{"android":"levelo://app?vid=3a3a4eb7-ea9e-4f95-973d-bbbd1fc7238b","ios":"levelo://app?vid=3a3a4eb7-ea9e-4f95-973d-bbbd1fc7238b"},"vehicle_type_id":"4","last_reported":1735931187,"current_range_meters":38400,"station_id":"ce4bho12rcd13ifvqh1g","pricing_plan_id":"cebpf4jnsgd1na2vs0mg"},{"bike_id":"bd609247-c05b-4bfd-8224-3974e4956916","system_id":"levelo_inurba_marseille","lat":43.309001,"lon":5.368468,"is_reserved":false,"is_disabled":true,"rental_uris":{"android":"levelo://app?vid=bd609247-c05b-4bfd-8224-3974e4956916","ios":"levelo://app?vid=bd609247-c05b-4bfd-8224-3974e4956916"},"vehicle_type_id":"4","last_reported":1735931187,"current_range_meters":38800,"station_id":"ce4bgn92rcd13ifvqbvg","pricing_plan_id":"cebpf4jnsgd1na2vs0mg"},{"bike_id":"cce624d8-f996-4b87-8728-0141c43b7942","system_id":"levelo_inurba_marseille","lat":43.30888,"lon":5.372,"is_reserved":false,"is_disabled":false,"rental_uris":{"android":"levelo://app?vid=cce624d8-f996-4b87-8728-0141c43b7942","ios":"levelo://app?vid=cce624d8-f996-4b87-8728-0141c43b7942"},"vehicle_type_id":"4","last_reported":1735931187,"current_range_meters":38800,"station_id":"ce4bguh2rcd13ifvqckg","pricing_plan_id":"cebpf4jnsgd1na2vs0mg"},{"bike_id":"b50c1e04-9c20-4daa-ad06-7d854e9beedd","system_id":"levelo_inurba_marseille","lat":43.26202,"lon":5.37461,"is_reserved":false,"is_disabled":false,"rental_uris":{"android":"levelo://app?vid=b50c1e04-9c20-4daa-ad06-7d854e9beedd","ios":"levelo://app?vid=b50c1e04-9c20-4daa-ad06-7d854e9beedd"},"vehicle_type_id":"4","last_reported":1735931187,"current_range_meters":34000,"station_id":"ce4bhgp2rcd13ifvqfc0","pricing_plan_id":"cebpf4jnsgd1na2vs0mg"},{"bike_id":"fe6f290f-0e15-46b1-9ee2-787dc5c43fe5","system_id":"levelo_inurba_marseille","lat":43.29555,"lon":5.42283,"is_reserved":false,"is_disabled":false,"rental_uris":{"android":"levelo://app?vid=fe6f290f-0e15-46b1-9ee2-787dc5c43fe5","ios":"levelo://app?vid=fe6f290f-0e15-46b1-9ee2-787dc5c43fe5"},"vehicle_type_id":"4","last_reported":1735931187,"current_range_meters":18000,"station_id":"ce4bhph2rcd13ifvqhdg","pricing_plan_id":"cebpf4jnsgd1na2vs0mg"},{"bike_id":"e17147ed-7c6a-4a29-b0c2-0d1a8c57ad92","system_id":"levelo_inurba_marseille","lat":43.2927,"lon":5.36839,"is_reserved":false,"is_disabled":false,"rental_uris":{"android":"levelo://app?vid=e17147ed-7c6a-4a29-b0c2-0d1a8c57ad92","ios":"levelo://app?vid=e17147ed-7c6a-4a29-b0c2-0d1a8c57ad92"},"vehicle_type_id":"4","last_reported":1735931187,"current_range_meters":7200,"station_id":"ce4bhbp2rcd13ifvqesg","pricing_plan_id":"cebpf4jnsgd1na2vs0mg"},{"bike_id":"1d0ee6fa-7e84-4bad-a513-32569bfb99a6","system_id":"levelo_inurba_marseille","lat":43.27436,"lon":5.39399,"is_reserved":false,"is_disabled":false,"rental_uris":{"android":"levelo://app?vid=1d0ee6fa-7e84-4bad-a513-32569bfb99a6","ios":"levelo://app?vid=1d0ee6fa-7e84-4bad-a513-32569bfb99a6"},"vehicle_type_id":"4","last_reported":1735931187,"current_range_meters":38800,"station_id":"ce4bhdp2rcd13ifvqf20","pricing_plan_id":"cebpf4jnsgd1na2vs0mg"},{"bike_id":"dafce68e-9870-4d3f-b7b5-b3046ba9f603","system_id":"levelo_inurba_marseille","lat":43.34151,"lon":5.40905,"is_reserved":false,"is_disabled":false,"rental_uris":{"android":"levelo://app?vid=dafce68e-9870-4d3f-b7b5-b3046ba9f603","ios":"levelo://app?vid=dafce68e-9870-4d3f-b7b5-b3046ba9f603"},"vehicle_type_id":"4","last_reported":1735931187,"current_range_meters":11200,"station_id":"ce4bhqh2rcd13ifvqhlg","pricing_plan_id":"cebpf4jnsgd1na2vs0mg"},{"bike_id":"0e82b73b-35af-475c-8003-0720ffee686a","system_id":"levelo_inurba_marseille","lat":43.26802,"lon":5.40271,"is_reserved":false,"is_disabled":false,"rental_uris":{"android":"levelo://app?vid=0e82b73b-35af-475c-8003-0720ffee686a","ios":"levelo://app?vid=0e82b73b-35af-475c-8003-0720ffee686a"},"vehicle_type_id":"4","last_reported":1735931187,"current_range_meters":38000,"station_id":"ce501612rcd8frsf0b60","pricing_plan_id":"cebpf4jnsgd1na2vs0mg"},{"bike_id":"2ff0edbb-1120-44a4-b8a8-0b9a430d70c1","system_id":"levelo_inurba_marseille","lat":43.30451,"lon":5.389,"is_reserved":false,"is_disabled":true,"rental_uris":{"android":"levelo://app?vid=2ff0edbb-1120-44a4-b8a8-0b9a430d70c1","ios":"levelo://app?vid=2ff0edbb-1120-44a4-b8a8-0b9a430d70c1"},"vehicle_type_id":"4","last_reported":1735931187,"current_range_meters":2800,"station_id":"ce4bgk12rcd13ifvqbi0","pricing_plan_id":"cebpf4jnsgd1na2vs0mg"},{"bike_id":"983a939f-0c90-4b41-8e07-1ba37a328643","system_id":"levelo_inurba_marseille","lat":43.24173,"lon":5.36403,"is_reserved":false,"is_disabled":false,"rental_uris":{"android":"levelo://app?vid=983a939f-0c90-4b41-8e07-1ba37a328643","ios":"levelo://app?vid=983a939f-0c90-4b41-8e07-1ba37a328643"},"vehicle_type_id":"4","last_reported":1735931187,"current_range_meters":28000,"station_id":"cpo36qri1sfpv3e86is0","pricing_plan_id":"cebpf4jnsgd1na2vs0mg"},{"bike_id":"0d36baca-b4e4-4eb6-85e9-d02c7038df15","system_id":"levelo_inurba_marseille","lat":43.3055,"lon":5.36531,"is_reserved":false,"is_disabled":true,"rental_uris":{"android":"levelo://app?vid=0d36baca-b4e4-4eb6-85e9-d02c7038df15","ios":"levelo://app?vid=0d36baca-b4e4-4eb6-85e9-d02c7038df15"},"vehicle_type_id":"4","last_reported":1735931187,"current_range_meters":30000,"station_id":"ce4bgs12rcd13ifvqcag","pricing_plan_id":"cebpf4jnsgd1na2vs0mg"},{"bike_id":"abc1d919-2210-4059-891f-1ba55ead0cad","system_id":"levelo_inurba_marseille","lat":43.29308,"lon":5.37169,"is_reserved":false,"is_disabled":false,"rental_uris":{"android":"levelo://app?vid=abc1d919-2210-4059-891f-1ba55ead0cad","ios":"levelo://app?vid=abc1d919-2210-4059-891f-1ba55ead0cad"},"vehicle_type_id":"4","last_reported":1735931187,"current_range_meters":38000,"station_id":"ce4bgh92rcd13ifvqb40","pricing_plan_id":"cebpf4jnsgd1na2vs0mg"},{"bike_id":"dbd7f6c9-df67-46d9-a336-d417ecad0d25","system_id":"levelo_inurba_marseille","lat":43.29903,"lon":5.43676,"is_reserved":false,"is_disabled":false,"rental_uris":{"android":"levelo://app?vid=dbd7f6c9-df67-46d9-a336-d417ecad0d25","ios":"levelo://app?vid=dbd7f6c9-df67-46d9-a336-d417ecad0d25"},"vehicle_type_id":"4","last_reported":1735931187,"current_range_meters":36800,"station_id":"ce4bhpp2rcd13ifvqhfg","pricing_plan_id":"cebpf4jnsgd1na2vs0mg"},{"bike_id":"376c5e24-8c99-4a45-b448-d5554cb31c99","system_id":"levelo_inurba_marseille","lat":43.28718,"lon":5.40003,"is_reserved":false,"is_disabled":true,"rental_uris":{"android":"levelo://app?vid=376c5e24-8c99-4a45-b448-d5554cb31c99","ios":"levelo://app?vid=376c5e24-8c99-4a45-b448-d5554cb31c99"},"vehicle_type_id":"4","last_reported":1735931187,"current_range_meters":38000,"station_id":"ce4bho92rcd13ifvqh3g","pricing_plan_id":"cebpf4jnsgd1na2vs0mg"},{"bike_id":"dfc8a5ce-5ff4-4c79-bd9d-48e6c81f2d38","system_id":"levelo_inurba_marseille","lat":43.28613,"lon":5.37038,"is_reserved":false,"is_disabled":false,"rental_uris":{"android":"levelo://app?vid=dfc8a5ce-5ff4-4c79-bd9d-48e6c81f2d38","ios":"levelo://app?vid=dfc8a5ce-5ff4-4c79-bd9d-48e6c81f2d38"},"vehicle_type_id":"4","last_reported":1735931187,"current_range_meters":28000,"station_id":"ce4bht12rcd13ifvqi60","pricing_plan_id":"cebpf4jnsgd1na2vs0mg"},{"bike_id":"7c863057-f1ae-4435-9460-2cc51ef60299","system_id":"levelo_inurba_marseille","lat":43.29227,"lon":5.36073,"is_reserved":false,"is_disabled":false,"rental_uris":{"android":"levelo://app?vid=7c863057-f1ae-4435-9460-2cc51ef60299","ios":"levelo://app?vid=7c863057-f1ae-4435-9460-2cc51ef60299"},"vehicle_type_id":"4","last_reported":1735931187,"current_range_meters":33600,"station_id":"ce4bhbh2rcd13ifvqeqg","pricing_plan_id":"cebpf4jnsgd1na2vs0mg"},{"bike_id":"349a4ab8-6f13-4948-be71-abaadb9466ee","system_id":"levelo_inurba_marseille","lat":43.2407,"lon":5.37732,"is_reserved":false,"is_disabled":false,"rental_uris":{"android":"levelo://app?vid=349a4ab8-6f13-4948-be71-abaadb9466ee","ios":"levelo://app?vid=349a4ab8-6f13-4948-be71-abaadb9466ee"},"vehicle_type_id":"4","last_reported":1735931187,"current_range_meters":38000,"station_id":"ce4bhnp2rcd13ifvqgvg","pricing_plan_id":"cebpf4jnsgd1na2vs0mg"},{"bike_id":"a5857756-0478-41f2-bfa4-405eeda359bc","system_id":"levelo_inurba_marseille","lat":43.26693,"lon":5.38272,"is_reserved":false,"is_disabled":false,"rental_uris":{"android":"levelo://app?vid=a5857756-0478-41f2-bfa4-405eeda359bc","ios":"levelo://app?vid=a5857756-0478-41f2-bfa4-405eeda359bc"},"vehicle_type_id":"4","last_reported":1735931187,"current_range_meters":38800,"station_id":"ce4bhg92rcd13ifvqf90","pricing_plan_id":"cebpf4jnsgd1na2vs0mg"},{"bike_id":"e9c9ac99-6db0-4a19-9854-52585a709e6e","system_id":"levelo_inurba_marseille","lat":43.29589,"lon":5.36745,"is_reserved":false,"is_disabled":false,"rental_uris":{"android":"levelo://app?vid=e9c9ac99-6db0-4a19-9854-52585a709e6e","ios":"levelo://app?vid=e9c9ac99-6db0-4a19-9854-52585a709e6e"},"vehicle_type_id":"4","last_reported":1735931187,"current_range_meters":36800,"station_id":"ce4bgph2rcd13ifvqc2g","pricing_plan_id":"cebpf4jnsgd1na2vs0mg"},{"bike_id":"1f7cd740-2c18-4894-a0a5-47e69df84924","system_id":"levelo_inurba_marseille","lat":43.24988,"lon":5.38964,"is_reserved":false,"is_disabled":false,"rental_uris":{"android":"levelo://app?vid=1f7cd740-2c18-4894-a0a5-47e69df84924","ios":"levelo://app?vid=1f7cd740-2c18-4894-a0a5-47e69df84924"},"vehicle_type_id":"4","last_reported":1735931187,"current_range_meters":34800,"station_id":"ce4bhgp2rcd13ifvqfd0","pricing_plan_id":"cebpf4jnsgd1na2vs0mg"},{"bike_id":"f3998a04-3b93-4948-8eb7-aa16047370fd","system_id":"levelo_inurba_marseille","lat":43.27949,"lon":5.41046,"is_reserved":false,"is_disabled":false,"rental_uris":{"android":"levelo://app?vid=f3998a04-3b93-4948-8eb7-aa16047370fd","ios":"levelo://app?vid=f3998a04-3b93-4948-8eb7-aa16047370fd"},"vehicle_type_id":"4","last_reported":1735931187,"current_range_meters":17200,"station_id":"ce4bhnp2rcd13ifvqh0g","pricing_plan_id":"cebpf4jnsgd1na2vs0mg"},{"bike_id":"94978c18-c7ac-49d8-9c72-40484a75119d","system_id":"levelo_inurba_marseille","lat":43.29006,"lon":5.35599,"is_reserved":false,"is_disabled":false,"rental_uris":{"android":"levelo://app?vid=94978c18-c7ac-49d8-9c72-40484a75119d","ios":"levelo://app?vid=94978c18-c7ac-49d8-9c72-40484a75119d"},"vehicle_type_id":"4","last_reported":1735931187,"current_range_meters":39200,"station_id":"ce4bhb92rcd13ifvqen0","pricing_plan_id":"cebpf4jnsgd1na2vs0mg"},{"bike_id":"615d335b-2783-43cb-bf6f-82b705d68bf3","system_id":"levelo_inurba_marseille","lat":43.29277,"lon":5.36832,"is_reserved":false,"is_disabled":false,"rental_uris":{"android":"levelo://app?vid=615d335b-2783-43cb-bf6f-82b705d68bf3","ios":"levelo://app?vid=615d335b-2783-43cb-bf6f-82b705d68bf3"},"vehicle_type_id":"4","last_reported":1735931187,"current_range_meters":7200,"station_id":"ce4bhbp2rcd13ifvqesg","pricing_plan_id":"cebpf4jnsgd1na2vs0mg"},{"bike_id":"0a684e83-02b4-4924-8b8a-900409f1cd34","system_id":"levelo_inurba_marseille","lat":43.24651,"lon":5.38888,"is_reserved":false,"is_disabled":false,"rental_uris":{"android":"levelo://app?vid=0a684e83-02b4-4924-8b8a-900409f1cd34","ios":"levelo://app?vid=0a684e83-02b4-4924-8b8a-900409f1cd34"},"vehicle_type_id":"4","last_reported":1735931187,"current_range_meters":19200,"station_id":"ce4bhg12rcd13ifvqf60","pricing_plan_id":"cebpf4jnsgd1na2vs0mg"},{"bike_id":"c150b4c3-2169-48df-a9d5-cdbc11d0c0c7","system_id":"levelo_inurba_marseille","lat":43.29223,"lon":5.36056,"is_reserved":false,"is_disabled":true,"rental_uris":{"android":"levelo://app?vid=c150b4c3-2169-48df-a9d5-cdbc11d0c0c7","ios":"levelo://app?vid=c150b4c3-2169-48df-a9d5-cdbc11d0c0c7"},"vehicle_type_id":"4","last_reported":1735931187,"current_range_meters":14000,"station_id":"ce4bhbh2rcd13ifvqeqg","pricing_plan_id":"cebpf4jnsgd1na2vs0mg"},{"bike_id":"9a633b20-48e1-4d57-88ca-cc77983ef0f1","system_id":"levelo_inurba_marseille","lat":43.28153,"lon":5.42635,"is_reserved":false,"is_disabled":false,"rental_uris":{"android":"levelo://app?vid=9a633b20-48e1-4d57-88ca-cc77983ef0f1","ios":"levelo://app?vid=9a633b20-48e1-4d57-88ca-cc77983ef0f1"},"vehicle_type_id":"4","last_reported":1735931187,"current_range_meters":10000,"station_id":"ce4bhnh2rcd13ifvqgug","pricing_plan_id":"cebpf4jnsgd1na2vs0mg"},{"bike_id":"a4935dd6-48ad-47dd-8f6e-6bbdd0e6b116","system_id":"levelo_inurba_marseille","lat":43.29606,"lon":5.38109,"is_reserved":false,"is_disabled":false,"rental_uris":{"android":"levelo://app?vid=a4935dd6-48ad-47dd-8f6e-6bbdd0e6b116","ios":"levelo://app?vid=a4935dd6-48ad-47dd-8f6e-6bbdd0e6b116"},"vehicle_type_id":"4","last_reported":1735931187,"current_range_meters":36800,"station_id":"ce4bgl12rcd13ifvqbo0","pricing_plan_id":"cebpf4jnsgd1na2vs0mg"},{"bike_id":"1c324d20-b72d-4f5d-b244-6d48bf30a17b","system_id":"levelo_inurba_marseille","lat":43.2658,"lon":5.37291,"is_reserved":false,"is_disabled":false,"rental_uris":{"android":"levelo://app?vid=1c324d20-b72d-4f5d-b244-6d48bf30a17b","ios":"levelo://app?vid=1c324d20-b72d-4f5d-b244-6d48bf30a17b"},"vehicle_type_id":"4","last_reported":1735931187,"current_range_meters":27600,"station_id":"ce4bhg12rcd13ifvqf70","pricing_plan_id":"cebpf4jnsgd1na2vs0mg"},{"bike_id":"eaecfcca-aa89-4e9a-8d17-c5be1539665b","system_id":"levelo_inurba_marseille","lat":43.2828,"lon":5.3507,"is_reserved":false,"is_disabled":true,"rental_uris":{"android":"levelo://app?vid=eaecfcca-aa89-4e9a-8d17-c5be1539665b","ios":"levelo://app?vid=eaecfcca-aa89-4e9a-8d17-c5be1539665b"},"vehicle_type_id":"4","last_reported":1735931187,"current_range_meters":9200,"station_id":"ce4bhbp2rcd13ifvqerg","pricing_plan_id":"cebpf4jnsgd1na2vs0mg"},{"bike_id":"896797d5-e48c-435a-a4ff-c7d0b4682116","system_id":"levelo_inurba_marseille","lat":43.27811,"lon":5.40719,"is_reserved":false,"is_disabled":false,"rental_uris":{"android":"levelo://app?vid=896797d5-e48c-435a-a4ff-c7d0b4682116","ios":"levelo://app?vid=896797d5-e48c-435a-a4ff-c7d0b4682116"},"vehicle_type_id":"4","last_reported":1735931187,"current_range_meters":30000,"station_id":"ce4bhnh2rcd13ifvqgtg","pricing_plan_id":"cebpf4jnsgd1na2vs0mg"},{"bike_id":"a613f8fa-f8f3-410d-8bce-b2d1d2370895","system_id":"levelo_inurba_marseille","lat":43.29363,"lon":5.37838,"is_reserved":false,"is_disabled":false,"rental_uris":{"android":"levelo://app?vid=a613f8fa-f8f3-410d-8bce-b2d1d2370895","ios":"levelo://app?vid=a613f8fa-f8f3-410d-8bce-b2d1d2370895"},"vehicle_type_id":"4","last_reported":1735931187,"current_range_meters":27600,"station_id":"ce4bgjh2rcd13ifvqbf0","pricing_plan_id":"cebpf4jnsgd1na2vs0mg"},{"bike_id":"13ef7d4c-1aac-463f-b78f-283376e4de16","system_id":"levelo_inurba_marseille","lat":43.22923,"lon":5.35376,"is_reserved":false,"is_disabled":false,"rental_uris":{"android":"levelo://app?vid=13ef7d4c-1aac-463f-b78f-283376e4de16","ios":"levelo://app?vid=13ef7d4c-1aac-463f-b78f-283376e4de16"},"vehicle_type_id":"4","last_reported":1735931187,"current_range_meters":38800,"station_id":"cpo3532slgdg3j2ikp40","pricing_plan_id":"cebpf4jnsgd1na2vs0mg"},{"bike_id":"cf54008b-27af-48d5-90e3-f17a9778834c","system_id":"levelo_inurba_marseille","lat":43.31361,"lon":5.38502,"is_reserved":false,"is_disabled":false,"rental_uris":{"android":"levelo://app?vid=cf54008b-27af-48d5-90e3-f17a9778834c","ios":"levelo://app?vid=cf54008b-27af-48d5-90e3-f17a9778834c"},"vehicle_type_id":"4","last_reported":1735931187,"current_range_meters":38800,"station_id":"ce4bgt92rcd13ifvqcf0","pricing_plan_id":"cebpf4jnsgd1na2vs0mg"},{"bike_id":"60b20c4f-76ac-4374-bd4d-a13ad2602930","system_id":"levelo_inurba_marseille","lat":43.25708,"lon":5.41086,"is_reserved":false,"is_disabled":false,"rental_uris":{"android":"levelo://app?vid=60b20c4f-76ac-4374-bd4d-a13ad2602930","ios":"levelo://app?vid=60b20c4f-76ac-4374-bd4d-a13ad2602930"},"vehicle_type_id":"4","last_reported":1735931187,"current_range_meters":20000,"station_id":"ce4bhkp2rcd13ifvqgd0","pricing_plan_id":"cebpf4jnsgd1na2vs0mg"},{"bike_id":"6de2e1ab-280e-4a12-a640-0d19699559bc","system_id":"levelo_inurba_marseille","lat":43.29453,"lon":5.39756,"is_reserved":false,"is_disabled":false,"rental_uris":{"android":"levelo://app?vid=6de2e1ab-280e-4a12-a640-0d19699559bc","ios":"levelo://app?vid=6de2e1ab-280e-4a12-a640-0d19699559bc"},"vehicle_type_id":"4","last_reported":1735931187,"current_range_meters":11600,"station_id":"ce4bh3h2rcd13ifvqdo0","pricing_plan_id":"cebpf4jnsgd1na2vs0mg"},{"bike_id":"62be424d-0e91-4b8e-beba-f76b3bfc4560","system_id":"levelo_inurba_marseille","lat":43.29981,"lon":5.38508,"is_reserved":false,"is_disabled":false,"rental_uris":{"android":"levelo://app?vid=62be424d-0e91-4b8e-beba-f76b3bfc4560","ios":"levelo://app?vid=62be424d-0e91-4b8e-beba-f76b3bfc4560"},"vehicle_type_id":"4","last_reported":1735931187,"current_range_meters":35200,"station_id":"ce4bgj92rcd13ifvqbd0","pricing_plan_id":"cebpf4jnsgd1na2vs0mg"},{"bike_id":"f3c12ef4-82bd-48ff-8ba6-8f2c9a44f8b9","system_id":"levelo_inurba_marseille","lat":43.24812,"lon":5.37461,"is_reserved":false,"is_disabled":false,"rental_uris":{"android":"levelo://app?vid=f3c12ef4-82bd-48ff-8ba6-8f2c9a44f8b9","ios":"levelo://app?vid=f3c12ef4-82bd-48ff-8ba6-8f2c9a44f8b9"},"vehicle_type_id":"4","last_reported":1735931187,"current_range_meters":39200,"station_id":"ce4bhgh2rcd13ifvqfb0","pricing_plan_id":"cebpf4jnsgd1na2vs0mg"},{"bike_id":"d6e7f03a-72a5-423e-b7d6-db39c9821471","system_id":"levelo_inurba_marseille","lat":43.27839,"lon":5.39209,"is_reserved":false,"is_disabled":false,"rental_uris":{"android":"levelo://app?vid=d6e7f03a-72a5-423e-b7d6-db39c9821471","ios":"levelo://app?vid=d6e7f03a-72a5-423e-b7d6-db39c9821471"},"vehicle_type_id":"4","last_reported":1735931187,"current_range_meters":39200,"station_id":"ce4bhjp2rcd13ifvqga0","pricing_plan_id":"cebpf4jnsgd1na2vs0mg"},{"bike_id":"68ef66f0-dd96-424a-ba29-3c004929578e","system_id":"levelo_inurba_marseille","lat":43.2318,"lon":5.39992,"is_reserved":false,"is_disabled":false,"rental_uris":{"android":"levelo://app?vid=68ef66f0-dd96-424a-ba29-3c004929578e","ios":"levelo://app?vid=68ef66f0-dd96-424a-ba29-3c004929578e"},"vehicle_type_id":"4","last_reported":1735931187,"current_range_meters":9600,"station_id":"ce4bhn12rcd13ifvqgqg","pricing_plan_id":"cebpf4jnsgd1na2vs0mg"},{"bike_id":"725999bb-8b32-4e5b-95fc-d63880a1b626","system_id":"levelo_inurba_marseille","lat":43.32664,"lon":5.41003,"is_reserved":false,"is_disabled":false,"rental_uris":{"android":"levelo://app?vid=725999bb-8b32-4e5b-95fc-d63880a1b626","ios":"levelo://app?vid=725999bb-8b32-4e5b-95fc-d63880a1b626"},"vehicle_type_id":"4","last_reported":1735931187,"current_range_meters":39200,"station_id":"ce4bhpp2rcd13ifvqhgg","pricing_plan_id":"cebpf4jnsgd1na2vs0mg"},{"bike_id":"6488e6ad-bca6-4c13-9be7-18c15e857560","system_id":"levelo_inurba_marseille","lat":43.2928,"lon":5.36847,"is_reserved":false,"is_disabled":false,"rental_uris":{"android":"levelo://app?vid=6488e6ad-bca6-4c13-9be7-18c15e857560","ios":"levelo://app?vid=6488e6ad-bca6-4c13-9be7-18c15e857560"},"vehicle_type_id":"4","last_reported":1735931187,"current_range_meters":38800,"station_id":"ce4bhbp2rcd13ifvqesg","pricing_plan_id":"cebpf4jnsgd1na2vs0mg"},{"bike_id":"eae11c21-0e68-4841-b456-38f5bd6f851c","system_id":"levelo_inurba_marseille","lat":43.268,"lon":5.39422,"is_reserved":false,"is_disabled":false,"rental_uris":{"android":"levelo://app?vid=eae11c21-0e68-4841-b456-38f5bd6f851c","ios":"levelo://app?vid=eae11c21-0e68-4841-b456-38f5bd6f851c"},"vehicle_type_id":"4","last_reported":1735931187,"current_range_meters":22000,"station_id":"ce4bhh12rcd13ifvqfg0","pricing_plan_id":"cebpf4jnsgd1na2vs0mg"},{"bike_id":"d1bfb6f0-7e23-4fa1-b9c4-b0e78ab6bd3b","system_id":"levelo_inurba_marseille","lat":43.28683,"lon":5.38667,"is_reserved":false,"is_disabled":false,"rental_uris":{"android":"levelo://app?vid=d1bfb6f0-7e23-4fa1-b9c4-b0e78ab6bd3b","ios":"levelo://app?vid=d1bfb6f0-7e23-4fa1-b9c4-b0e78ab6bd3b"},"vehicle_type_id":"4","last_reported":1735931187,"current_range_meters":12400,"station_id":"ce4bh492rcd13ifvqdug","pricing_plan_id":"cebpf4jnsgd1na2vs0mg"},{"bike_id":"3603cabe-4957-48a6-b971-b737ca16a43d","system_id":"levelo_inurba_marseille","lat":43.32675,"lon":5.41018,"is_reserved":false,"is_disabled":false,"rental_uris":{"android":"levelo://app?vid=3603cabe-4957-48a6-b971-b737ca16a43d","ios":"levelo://app?vid=3603cabe-4957-48a6-b971-b737ca16a43d"},"vehicle_type_id":"4","last_reported":1735931187,"current_range_meters":22000,"station_id":"ce4bhpp2rcd13ifvqhgg","pricing_plan_id":"cebpf4jnsgd1na2vs0mg"},{"bike_id":"7e720190-73d7-4ebb-81fc-b444541eb11a","system_id":"levelo_inurba_marseille","lat":43.29434,"lon":5.38675,"is_reserved":false,"is_disabled":false,"rental_uris":{"android":"levelo://app?vid=7e720190-73d7-4ebb-81fc-b444541eb11a","ios":"levelo://app?vid=7e720190-73d7-4ebb-81fc-b444541eb11a"},"vehicle_type_id":"4","last_reported":1735931187,"current_range_meters":32000,"station_id":"ce4bh2h2rcd13ifvqdh0","pricing_plan_id":"cebpf4jnsgd1na2vs0mg"},{"bike_id":"be193db9-b69b-4502-9f09-3dce2717774f","system_id":"levelo_inurba_marseille","lat":43.29281,"lon":5.38442,"is_reserved":false,"is_disabled":false,"rental_uris":{"android":"levelo://app?vid=be193db9-b69b-4502-9f09-3dce2717774f","ios":"levelo://app?vid=be193db9-b69b-4502-9f09-3dce2717774f"},"vehicle_type_id":"4","last_reported":1735931187,"current_range_meters":21600,"station_id":"ce4bh692rcd13ifvqea0","pricing_plan_id":"cebpf4jnsgd1na2vs0mg"},{"bike_id":"96b31675-1064-4153-98a7-64bc18e5abfe","system_id":"levelo_inurba_marseille","lat":43.30178,"lon":5.38079,"is_reserved":false,"is_disabled":false,"rental_uris":{"android":"levelo://app?vid=96b31675-1064-4153-98a7-64bc18e5abfe","ios":"levelo://app?vid=96b31675-1064-4153-98a7-64bc18e5abfe"},"vehicle_type_id":"4","last_reported":1735931187,"current_range_meters":25200,"station_id":"ce4bgjp2rcd13ifvqbh0","pricing_plan_id":"cebpf4jnsgd1na2vs0mg"},{"bike_id":"f69cf530-fadf-40f2-a4a1-1165e9ad1408","system_id":"levelo_inurba_marseille","lat":43.27992,"lon":5.41661,"is_reserved":false,"is_disabled":false,"rental_uris":{"android":"levelo://app?vid=f69cf530-fadf-40f2-a4a1-1165e9ad1408","ios":"levelo://app?vid=f69cf530-fadf-40f2-a4a1-1165e9ad1408"},"vehicle_type_id":"4","last_reported":1735931187,"current_range_meters":30800,"station_id":"ce4bho12rcd13ifvqh1g","pricing_plan_id":"cebpf4jnsgd1na2vs0mg"},{"bike_id":"aba453dc-4c82-4669-9624-6a6a17814d6e","system_id":"levelo_inurba_marseille","lat":43.31118,"lon":5.37773,"is_reserved":false,"is_disabled":false,"rental_uris":{"android":"levelo://app?vid=aba453dc-4c82-4669-9624-6a6a17814d6e","ios":"levelo://app?vid=aba453dc-4c82-4669-9624-6a6a17814d6e"},"vehicle_type_id":"4","last_reported":1735931187,"current_range_meters":15200,"station_id":"ce4bgt92rcd13ifvqcg0","pricing_plan_id":"cebpf4jnsgd1na2vs0mg"},{"bike_id":"6fec1f64-4c33-4501-a0fa-57f2521f6c43","system_id":"levelo_inurba_marseille","lat":43.28062,"lon":5.39599,"is_reserved":false,"is_disabled":false,"rental_uris":{"android":"levelo://app?vid=6fec1f64-4c33-4501-a0fa-57f2521f6c43","ios":"levelo://app?vid=6fec1f64-4c33-4501-a0fa-57f2521f6c43"},"vehicle_type_id":"4","last_reported":1735931187,"current_range_meters":38800,"station_id":"ce4bho12rcd13ifvqh2g","pricing_plan_id":"cebpf4jnsgd1na2vs0mg"},{"bike_id":"2bd213f6-7c3b-4206-a8d7-1b059cfadb7f","system_id":"levelo_inurba_marseille","lat":43.337313,"lon":5.391796,"is_reserved":false,"is_disabled":false,"rental_uris":{"android":"levelo://app?vid=2bd213f6-7c3b-4206-a8d7-1b059cfadb7f","ios":"levelo://app?vid=2bd213f6-7c3b-4206-a8d7-1b059cfadb7f"},"vehicle_type_id":"4","last_reported":1735931187,"current_range_meters":38800,"station_id":"ce4bhr92rcd13ifvqhsg","pricing_plan_id":"cebpf4jnsgd1na2vs0mg"},{"bike_id":"4e2e926a-cc62-4529-8b24-3abbcf0f0be2","system_id":"levelo_inurba_marseille","lat":43.23201,"lon":5.35538,"is_reserved":false,"is_disabled":false,"rental_uris":{"android":"levelo://app?vid=4e2e926a-cc62-4529-8b24-3abbcf0f0be2","ios":"levelo://app?vid=4e2e926a-cc62-4529-8b24-3abbcf0f0be2"},"vehicle_type_id":"4","last_reported":1735931187,"current_range_meters":31200,"station_id":"ce4bhu92rcd13ifvqi70","pricing_plan_id":"cebpf4jnsgd1na2vs0mg"},{"bike_id":"1add45ea-69c0-48f3-bc17-345fc523c21c","system_id":"levelo_inurba_marseille","lat":43.29271,"lon":5.4092,"is_reserved":false,"is_disabled":false,"rental_uris":{"android":"levelo://app?vid=1add45ea-69c0-48f3-bc17-345fc523c21c","ios":"levelo://app?vid=1add45ea-69c0-48f3-bc17-345fc523c21c"},"vehicle_type_id":"4","last_reported":1735931187,"current_range_meters":28000,"station_id":"ce4bh192rcd13ifvqdc0","pricing_plan_id":"cebpf4jnsgd1na2vs0mg"},{"bike_id":"f0ef1289-115b-47a7-9d7d-1c78c3e697b1","system_id":"levelo_inurba_marseille","lat":43.30155,"lon":5.37404,"is_reserved":false,"is_disabled":false,"rental_uris":{"android":"levelo://app?vid=f0ef1289-115b-47a7-9d7d-1c78c3e697b1","ios":"levelo://app?vid=f0ef1289-115b-47a7-9d7d-1c78c3e697b1"},"vehicle_type_id":"4","last_reported":1735931187,"current_range_meters":37600,"station_id":"ce4bgs92rcd13ifvqcc0","pricing_plan_id":"cebpf4jnsgd1na2vs0mg"},{"bike_id":"4099e364-d3d5-4e70-b9a6-6d1dbcbab17c","system_id":"levelo_inurba_marseille","lat":43.28085,"lon":5.39656,"is_reserved":false,"is_disabled":false,"rental_uris":{"android":"levelo://app?vid=4099e364-d3d5-4e70-b9a6-6d1dbcbab17c","ios":"levelo://app?vid=4099e364-d3d5-4e70-b9a6-6d1dbcbab17c"},"vehicle_type_id":"4","last_reported":1735931187,"current_range_meters":38800,"station_id":"ce4bho12rcd13ifvqh2g","pricing_plan_id":"cebpf4jnsgd1na2vs0mg"},{"bike_id":"ae2cd4e1-7ee3-4c37-a81f-97d5f9a6baf2","system_id":"levelo_inurba_marseille","lat":43.30537,"lon":5.38423,"is_reserved":false,"is_disabled":false,"rental_uris":{"android":"levelo://app?vid=ae2cd4e1-7ee3-4c37-a81f-97d5f9a6baf2","ios":"levelo://app?vid=ae2cd4e1-7ee3-4c37-a81f-97d5f9a6baf2"},"vehicle_type_id":"4","last_reported":1735931187,"current_range_meters":14000,"station_id":"ce4bgg92rcd13ifvqb30","pricing_plan_id":"cebpf4jnsgd1na2vs0mg"},{"bike_id":"f8f331b6-2ba7-49a9-8f5b-62ced0b1f232","system_id":"levelo_inurba_marseille","lat":43.313326,"lon":5.396779,"is_reserved":false,"is_disabled":false,"rental_uris":{"android":"levelo://app?vid=f8f331b6-2ba7-49a9-8f5b-62ced0b1f232","ios":"levelo://app?vid=f8f331b6-2ba7-49a9-8f5b-62ced0b1f232"},"vehicle_type_id":"4","last_reported":1735931187,"current_range_meters":20000,"station_id":"ce4bgvp2rcd13ifvqcu0","pricing_plan_id":"cebpf4jnsgd1na2vs0mg"},{"bike_id":"363691a1-1ab8-4ef9-ab2a-a84c265c101d","system_id":"levelo_inurba_marseille","lat":43.29183,"lon":5.37166,"is_reserved":false,"is_disabled":false,"rental_uris":{"android":"levelo://app?vid=363691a1-1ab8-4ef9-ab2a-a84c265c101d","ios":"levelo://app?vid=363691a1-1ab8-4ef9-ab2a-a84c265c101d"},"vehicle_type_id":"4","last_reported":1735931187,"current_range_meters":16800,"station_id":"ce4bha92rcd13ifvqeh0","pricing_plan_id":"cebpf4jnsgd1na2vs0mg"},{"bike_id":"93b0597b-4e60-4277-8289-d05658c8f11f","system_id":"levelo_inurba_marseille","lat":43.25117,"lon":5.40325,"is_reserved":false,"is_disabled":false,"rental_uris":{"android":"levelo://app?vid=93b0597b-4e60-4277-8289-d05658c8f11f","ios":"levelo://app?vid=93b0597b-4e60-4277-8289-d05658c8f11f"},"vehicle_type_id":"4","last_reported":1735931187,"current_range_meters":26800,"station_id":"ce4bhlh2rcd13ifvqgig","pricing_plan_id":"cebpf4jnsgd1na2vs0mg"},{"bike_id":"791dec88-10e9-48b5-9fc6-b0acca6d5c2e","system_id":"levelo_inurba_marseille","lat":43.293,"lon":5.37451,"is_reserved":false,"is_disabled":true,"rental_uris":{"android":"levelo://app?vid=791dec88-10e9-48b5-9fc6-b0acca6d5c2e","ios":"levelo://app?vid=791dec88-10e9-48b5-9fc6-b0acca6d5c2e"},"vehicle_type_id":"4","last_reported":1735931187,"current_range_meters":1600,"station_id":"ce4bgi12rcd13ifvqb70","pricing_plan_id":"cebpf4jnsgd1na2vs0mg"},{"bike_id":"c1f1c9bb-9eeb-4466-94d0-47b4f87bd469","system_id":"levelo_inurba_marseille","lat":43.31765,"lon":5.39012,"is_reserved":false,"is_disabled":false,"rental_uris":{"android":"levelo://app?vid=c1f1c9bb-9eeb-4466-94d0-47b4f87bd469","ios":"levelo://app?vid=c1f1c9bb-9eeb-4466-94d0-47b4f87bd469"},"vehicle_type_id":"4","last_reported":1735931187,"current_range_meters":30000,"station_id":"ce4bhqp2rcd13ifvqhng","pricing_plan_id":"cebpf4jnsgd1na2vs0mg"},{"bike_id":"6ca81ff8-25f4-4aaa-8b72-2ac07fd9902c","system_id":"levelo_inurba_marseille","lat":43.29802,"lon":5.38058,"is_reserved":false,"is_disabled":false,"rental_uris":{"android":"levelo://app?vid=6ca81ff8-25f4-4aaa-8b72-2ac07fd9902c","ios":"levelo://app?vid=6ca81ff8-25f4-4aaa-8b72-2ac07fd9902c"},"vehicle_type_id":"4","last_reported":1735931187,"current_range_meters":39200,"station_id":"ce4bgip2rcd13ifvqbb0","pricing_plan_id":"cebpf4jnsgd1na2vs0mg"},{"bike_id":"34617586-430d-4b7a-9eab-a1013b7c582e","system_id":"levelo_inurba_marseille","lat":43.289868,"lon":5.378428,"is_reserved":false,"is_disabled":true,"rental_uris":{"android":"levelo://app?vid=34617586-430d-4b7a-9eab-a1013b7c582e","ios":"levelo://app?vid=34617586-430d-4b7a-9eab-a1013b7c582e"},"vehicle_type_id":"4","last_reported":1735931187,"current_range_meters":30400,"station_id":"ce4bh9p2rcd13ifvqed0","pricing_plan_id":"cebpf4jnsgd1na2vs0mg"},{"bike_id":"48d2688d-946c-4cd9-95b1-87f4dc14a3ad","system_id":"levelo_inurba_marseille","lat":43.27991,"lon":5.41168,"is_reserved":false,"is_disabled":false,"rental_uris":{"android":"levelo://app?vid=48d2688d-946c-4cd9-95b1-87f4dc14a3ad","ios":"levelo://app?vid=48d2688d-946c-4cd9-95b1-87f4dc14a3ad"},"vehicle_type_id":"4","last_reported":1735931187,"current_range_meters":17200,"station_id":"","pricing_plan_id":"cebpf4jnsgd1na2vs0mg"},{"bike_id":"e86e8a6b-2981-4147-9bb2-a5ab92db9450","system_id":"levelo_inurba_marseille","lat":43.28158,"lon":5.42646,"is_reserved":false,"is_disabled":false,"rental_uris":{"android":"levelo://app?vid=e86e8a6b-2981-4147-9bb2-a5ab92db9450","ios":"levelo://app?vid=e86e8a6b-2981-4147-9bb2-a5ab92db9450"},"vehicle_type_id":"4","last_reported":1735931187,"current_range_meters":36800,"station_id":"ce4bhnh2rcd13ifvqgug","pricing_plan_id":"cebpf4jnsgd1na2vs0mg"},{"bike_id":"96ba7f26-1810-4a4d-90e4-a07a1e6cacee","system_id":"levelo_inurba_marseille","lat":43.24814,"lon":5.37459,"is_reserved":false,"is_disabled":false,"rental_uris":{"android":"levelo://app?vid=96ba7f26-1810-4a4d-90e4-a07a1e6cacee","ios":"levelo://app?vid=96ba7f26-1810-4a4d-90e4-a07a1e6cacee"},"vehicle_type_id":"4","last_reported":1735931187,"current_range_meters":26800,"station_id":"ce4bhgh2rcd13ifvqfb0","pricing_plan_id":"cebpf4jnsgd1na2vs0mg"},{"bike_id":"d9676b1a-df49-429f-b317-1de61bb96597","system_id":"levelo_inurba_marseille","lat":43.28619,"lon":5.35102,"is_reserved":false,"is_disabled":false,"rental_uris":{"android":"levelo://app?vid=d9676b1a-df49-429f-b317-1de61bb96597","ios":"levelo://app?vid=d9676b1a-df49-429f-b317-1de61bb96597"},"vehicle_type_id":"4","last_reported":1735931187,"current_range_meters":33600,"station_id":"ce4bhch2rcd13ifvqeug","pricing_plan_id":"cebpf4jnsgd1na2vs0mg"},{"bike_id":"8993ed25-d03f-4f62-a81d-049ba90cd554","system_id":"levelo_inurba_marseille","lat":43.30303,"lon":5.39209,"is_reserved":false,"is_disabled":false,"rental_uris":{"android":"levelo://app?vid=8993ed25-d03f-4f62-a81d-049ba90cd554","ios":"levelo://app?vid=8993ed25-d03f-4f62-a81d-049ba90cd554"},"vehicle_type_id":"4","last_reported":1735931187,"current_range_meters":37600,"station_id":"ce4bgkh2rcd13ifvqbk0","pricing_plan_id":"cebpf4jnsgd1na2vs0mg"},{"bike_id":"e40b8873-a7cf-4e56-b106-d515344f64c4","system_id":"levelo_inurba_marseille","lat":43.23194,"lon":5.35547,"is_reserved":false,"is_disabled":false,"rental_uris":{"android":"levelo://app?vid=e40b8873-a7cf-4e56-b106-d515344f64c4","ios":"levelo://app?vid=e40b8873-a7cf-4e56-b106-d515344f64c4"},"vehicle_type_id":"4","last_reported":1735931187,"current_range_meters":38800,"station_id":"ce4bhu92rcd13ifvqi70","pricing_plan_id":"cebpf4jnsgd1na2vs0mg"},{"bike_id":"bbf998ea-d252-4590-8711-16d78ff4b07c","system_id":"levelo_inurba_marseille","lat":43.246494,"lon":5.38882,"is_reserved":false,"is_disabled":false,"rental_uris":{"android":"levelo://app?vid=bbf998ea-d252-4590-8711-16d78ff4b07c","ios":"levelo://app?vid=bbf998ea-d252-4590-8711-16d78ff4b07c"},"vehicle_type_id":"4","last_reported":1735931187,"current_range_meters":38800,"station_id":"ce4bhg12rcd13ifvqf60","pricing_plan_id":"cebpf4jnsgd1na2vs0mg"},{"bike_id":"9027064e-6565-4c6d-8145-3a52c0a6a72f","system_id":"levelo_inurba_marseille","lat":43.29846,"lon":5.3627,"is_reserved":false,"is_disabled":false,"rental_uris":{"android":"levelo://app?vid=9027064e-6565-4c6d-8145-3a52c0a6a72f","ios":"levelo://app?vid=9027064e-6565-4c6d-8145-3a52c0a6a72f"},"vehicle_type_id":"4","last_reported":1735931187,"current_range_meters":38400,"station_id":"ce4bgpp2rcd13ifvqc3g","pricing_plan_id":"cebpf4jnsgd1na2vs0mg"},{"bike_id":"6986a939-ad68-46af-90c6-b23cfd43cb23","system_id":"levelo_inurba_marseille","lat":43.2903,"lon":5.38634,"is_reserved":false,"is_disabled":false,"rental_uris":{"android":"levelo://app?vid=6986a939-ad68-46af-90c6-b23cfd43cb23","ios":"levelo://app?vid=6986a939-ad68-46af-90c6-b23cfd43cb23"},"vehicle_type_id":"4","last_reported":1735931187,"current_range_meters":39200,"station_id":"ce4bh4p2rcd13ifvqe0g","pricing_plan_id":"cebpf4jnsgd1na2vs0mg"},{"bike_id":"5250f7d4-1da6-441d-b627-ab92cb7e088d","system_id":"levelo_inurba_marseille","lat":43.24819,"lon":5.37464,"is_reserved":false,"is_disabled":false,"rental_uris":{"android":"levelo://app?vid=5250f7d4-1da6-441d-b627-ab92cb7e088d","ios":"levelo://app?vid=5250f7d4-1da6-441d-b627-ab92cb7e088d"},"vehicle_type_id":"4","last_reported":1735931187,"current_range_meters":28000,"station_id":"ce4bhgh2rcd13ifvqfb0","pricing_plan_id":"cebpf4jnsgd1na2vs0mg"},{"bike_id":"ee808430-fc08-4e4b-b354-970dcaa7e3bb","system_id":"levelo_inurba_marseille","lat":43.29271,"lon":5.38454,"is_reserved":false,"is_disabled":false,"rental_uris":{"android":"levelo://app?vid=ee808430-fc08-4e4b-b354-970dcaa7e3bb","ios":"levelo://app?vid=ee808430-fc08-4e4b-b354-970dcaa7e3bb"},"vehicle_type_id":"4","last_reported":1735931187,"current_range_meters":10000,"station_id":"ce4bh692rcd13ifvqea0","pricing_plan_id":"cebpf4jnsgd1na2vs0mg"},{"bike_id":"c76f010e-8b23-4840-a7a5-a9a5d3648fa3","system_id":"levelo_inurba_marseille","lat":43.30877,"lon":5.37192,"is_reserved":false,"is_disabled":true,"rental_uris":{"android":"levelo://app?vid=c76f010e-8b23-4840-a7a5-a9a5d3648fa3","ios":"levelo://app?vid=c76f010e-8b23-4840-a7a5-a9a5d3648fa3"},"vehicle_type_id":"4","last_reported":1735931187,"current_range_meters":14000,"station_id":"ce4bguh2rcd13ifvqckg","pricing_plan_id":"cebpf4jnsgd1na2vs0mg"},{"bike_id":"6f21fba1-6f8e-47c4-a476-286cca5f9cc6","system_id":"levelo_inurba_marseille","lat":43.28271,"lon":5.35073,"is_reserved":false,"is_disabled":true,"rental_uris":{"android":"levelo://app?vid=6f21fba1-6f8e-47c4-a476-286cca5f9cc6","ios":"levelo://app?vid=6f21fba1-6f8e-47c4-a476-286cca5f9cc6"},"vehicle_type_id":"4","last_reported":1735931187,"current_range_meters":6400,"station_id":"ce4bhbp2rcd13ifvqerg","pricing_plan_id":"cebpf4jnsgd1na2vs0mg"},{"bike_id":"09e64385-2ecb-4bb9-b546-a98347585cb3","system_id":"levelo_inurba_marseille","lat":43.30604,"lon":5.37236,"is_reserved":false,"is_disabled":false,"rental_uris":{"android":"levelo://app?vid=09e64385-2ecb-4bb9-b546-a98347585cb3","ios":"levelo://app?vid=09e64385-2ecb-4bb9-b546-a98347585cb3"},"vehicle_type_id":"4","last_reported":1735931187,"current_range_meters":36000,"station_id":"ce4bgqh2rcd13ifvqc4g","pricing_plan_id":"cebpf4jnsgd1na2vs0mg"},{"bike_id":"70df538c-5fe0-4bac-b37d-a6f7e9eb1810","system_id":"levelo_inurba_marseille","lat":43.28932,"lon":5.384,"is_reserved":false,"is_disabled":false,"rental_uris":{"android":"levelo://app?vid=70df538c-5fe0-4bac-b37d-a6f7e9eb1810","ios":"levelo://app?vid=70df538c-5fe0-4bac-b37d-a6f7e9eb1810"},"vehicle_type_id":"4","last_reported":1735931187,"current_range_meters":38800,"station_id":"ce4bh612rcd13ifvqe6g","pricing_plan_id":"cebpf4jnsgd1na2vs0mg"},{"bike_id":"e5137e2c-35b0-42f0-a22f-ece955597e27","system_id":"levelo_inurba_marseille","lat":43.29977,"lon":5.38489,"is_reserved":false,"is_disabled":false,"rental_uris":{"android":"levelo://app?vid=e5137e2c-35b0-42f0-a22f-ece955597e27","ios":"levelo://app?vid=e5137e2c-35b0-42f0-a22f-ece955597e27"},"vehicle_type_id":"4","last_reported":1735931187,"current_range_meters":37600,"station_id":"ce4bgj92rcd13ifvqbd0","pricing_plan_id":"cebpf4jnsgd1na2vs0mg"},{"bike_id":"f06acfb3-bc00-4d8d-9b31-d68f48ec0e66","system_id":"levelo_inurba_marseille","lat":43.29592,"lon":5.36747,"is_reserved":false,"is_disabled":false,"rental_uris":{"android":"levelo://app?vid=f06acfb3-bc00-4d8d-9b31-d68f48ec0e66","ios":"levelo://app?vid=f06acfb3-bc00-4d8d-9b31-d68f48ec0e66"},"vehicle_type_id":"4","last_reported":1735931187,"current_range_meters":32400,"station_id":"ce4bgph2rcd13ifvqc2g","pricing_plan_id":"cebpf4jnsgd1na2vs0mg"},{"bike_id":"d063c9a6-c083-4e24-8edc-2fa94e4c8053","system_id":"levelo_inurba_marseille","lat":43.28683,"lon":5.38666,"is_reserved":false,"is_disabled":false,"rental_uris":{"android":"levelo://app?vid=d063c9a6-c083-4e24-8edc-2fa94e4c8053","ios":"levelo://app?vid=d063c9a6-c083-4e24-8edc-2fa94e4c8053"},"vehicle_type_id":"4","last_reported":1735931187,"current_range_meters":27600,"station_id":"ce4bh492rcd13ifvqdug","pricing_plan_id":"cebpf4jnsgd1na2vs0mg"},{"bike_id":"1c02ae40-e43c-4632-b75b-2df9308dc3fe","system_id":"levelo_inurba_marseille","lat":43.33758,"lon":5.37445,"is_reserved":false,"is_disabled":false,"rental_uris":{"android":"levelo://app?vid=1c02ae40-e43c-4632-b75b-2df9308dc3fe","ios":"levelo://app?vid=1c02ae40-e43c-4632-b75b-2df9308dc3fe"},"vehicle_type_id":"4","last_reported":1735931187,"current_range_meters":33600,"station_id":"","pricing_plan_id":"cebpf4jnsgd1na2vs0mg"},{"bike_id":"dfc98cf2-ac99-439d-95d0-401cedb2c49d","system_id":"levelo_inurba_marseille","lat":43.3093,"lon":5.4015,"is_reserved":false,"is_disabled":false,"rental_uris":{"android":"levelo://app?vid=dfc98cf2-ac99-439d-95d0-401cedb2c49d","ios":"levelo://app?vid=dfc98cf2-ac99-439d-95d0-401cedb2c49d"},"vehicle_type_id":"4","last_reported":1735931187,"current_range_meters":36800,"station_id":"ce4bgvp2rcd13ifvqct0","pricing_plan_id":"cebpf4jnsgd1na2vs0mg"},{"bike_id":"380d9a3e-df22-4d70-b6c7-a9e2a1230a08","system_id":"levelo_inurba_marseille","lat":43.28159,"lon":5.42664,"is_reserved":false,"is_disabled":false,"rental_uris":{"android":"levelo://app?vid=380d9a3e-df22-4d70-b6c7-a9e2a1230a08","ios":"levelo://app?vid=380d9a3e-df22-4d70-b6c7-a9e2a1230a08"},"vehicle_type_id":"4","last_reported":1735931187,"current_range_meters":30800,"station_id":"ce4bhnh2rcd13ifvqgug","pricing_plan_id":"cebpf4jnsgd1na2vs0mg"},{"bike_id":"e6f0f3be-d7b1-4265-96ae-8f4aa53891e2","system_id":"levelo_inurba_marseille","lat":43.293,"lon":5.37153,"is_reserved":false,"is_disabled":false,"rental_uris":{"android":"levelo://app?vid=e6f0f3be-d7b1-4265-96ae-8f4aa53891e2","ios":"levelo://app?vid=e6f0f3be-d7b1-4265-96ae-8f4aa53891e2"},"vehicle_type_id":"4","last_reported":1735931187,"current_range_meters":39200,"station_id":"ce4bgh92rcd13ifvqb40","pricing_plan_id":"cebpf4jnsgd1na2vs0mg"},{"bike_id":"b96d2856-7472-475d-a492-2a1ac8597f9d","system_id":"levelo_inurba_marseille","lat":43.28385,"lon":5.38635,"is_reserved":false,"is_disabled":false,"rental_uris":{"android":"levelo://app?vid=b96d2856-7472-475d-a492-2a1ac8597f9d","ios":"levelo://app?vid=b96d2856-7472-475d-a492-2a1ac8597f9d"},"vehicle_type_id":"4","last_reported":1735931187,"current_range_meters":35200,"station_id":"ce4bh492rcd13ifvqdvg","pricing_plan_id":"cebpf4jnsgd1na2vs0mg"},{"bike_id":"764e35b1-109c-46bc-a780-c2b287c025a9","system_id":"levelo_inurba_marseille","lat":43.29181,"lon":5.37161,"is_reserved":false,"is_disabled":false,"rental_uris":{"android":"levelo://app?vid=764e35b1-109c-46bc-a780-c2b287c025a9","ios":"levelo://app?vid=764e35b1-109c-46bc-a780-c2b287c025a9"},"vehicle_type_id":"4","last_reported":1735931187,"current_range_meters":32000,"station_id":"ce4bha92rcd13ifvqeh0","pricing_plan_id":"cebpf4jnsgd1na2vs0mg"},{"bike_id":"262b0d7a-b83b-40f1-bc54-810a9a289441","system_id":"levelo_inurba_marseille","lat":43.29196,"lon":5.35815,"is_reserved":false,"is_disabled":false,"rental_uris":{"android":"levelo://app?vid=262b0d7a-b83b-40f1-bc54-810a9a289441","ios":"levelo://app?vid=262b0d7a-b83b-40f1-bc54-810a9a289441"},"vehicle_type_id":"4","last_reported":1735931187,"current_range_meters":39200,"station_id":"ce4bhb12rcd13ifvqel0","pricing_plan_id":"cebpf4jnsgd1na2vs0mg"},{"bike_id":"d5355d3d-6620-4d8e-801e-d620f116c682","system_id":"levelo_inurba_marseille","lat":43.23062,"lon":5.35489,"is_reserved":false,"is_disabled":false,"rental_uris":{"android":"levelo://app?vid=d5355d3d-6620-4d8e-801e-d620f116c682","ios":"levelo://app?vid=d5355d3d-6620-4d8e-801e-d620f116c682"},"vehicle_type_id":"4","last_reported":1735931187,"current_range_meters":22800,"station_id":"cpo3342slgdg3j2ifvpg","pricing_plan_id":"cebpf4jnsgd1na2vs0mg"},{"bike_id":"db1e3ba9-4d1c-4e48-817c-121bda31c5b4","system_id":"levelo_inurba_marseille","lat":43.31232,"lon":5.36849,"is_reserved":false,"is_disabled":false,"rental_uris":{"android":"levelo://app?vid=db1e3ba9-4d1c-4e48-817c-121bda31c5b4","ios":"levelo://app?vid=db1e3ba9-4d1c-4e48-817c-121bda31c5b4"},"vehicle_type_id":"4","last_reported":1735931187,"current_range_meters":25200,"station_id":"ce4bgl92rcd13ifvqbq0","pricing_plan_id":"cebpf4jnsgd1na2vs0mg"},{"bike_id":"a7de3d10-0ba9-4834-a3c9-201577f7ddfc","system_id":"levelo_inurba_marseille","lat":43.32361,"lon":5.36752,"is_reserved":false,"is_disabled":false,"rental_uris":{"android":"levelo://app?vid=a7de3d10-0ba9-4834-a3c9-201577f7ddfc","ios":"levelo://app?vid=a7de3d10-0ba9-4834-a3c9-201577f7ddfc"},"vehicle_type_id":"4","last_reported":1735931187,"current_range_meters":38800,"station_id":"ce4bhsh2rcd13ifvqi2g","pricing_plan_id":"cebpf4jnsgd1na2vs0mg"},{"bike_id":"91ec34b0-eb63-4dab-a7a3-36e68cc8bae1","system_id":"levelo_inurba_marseille","lat":43.29556,"lon":5.42292,"is_reserved":false,"is_disabled":false,"rental_uris":{"android":"levelo://app?vid=91ec34b0-eb63-4dab-a7a3-36e68cc8bae1","ios":"levelo://app?vid=91ec34b0-eb63-4dab-a7a3-36e68cc8bae1"},"vehicle_type_id":"4","last_reported":1735931187,"current_range_meters":27600,"station_id":"ce4bhph2rcd13ifvqhdg","pricing_plan_id":"cebpf4jnsgd1na2vs0mg"},{"bike_id":"dc5b739c-390b-4405-9fcd-bf2ae0d08545","system_id":"levelo_inurba_marseille","lat":43.30443,"lon":5.38898,"is_reserved":false,"is_disabled":false,"rental_uris":{"android":"levelo://app?vid=dc5b739c-390b-4405-9fcd-bf2ae0d08545","ios":"levelo://app?vid=dc5b739c-390b-4405-9fcd-bf2ae0d08545"},"vehicle_type_id":"4","last_reported":1735931187,"current_range_meters":35600,"station_id":"ce4bgk12rcd13ifvqbi0","pricing_plan_id":"cebpf4jnsgd1na2vs0mg"},{"bike_id":"9106d3ff-fc86-4d68-9c8d-6412f9d842de","system_id":"levelo_inurba_marseille","lat":43.254944,"lon":5.376515,"is_reserved":false,"is_disabled":false,"rental_uris":{"android":"levelo://app?vid=9106d3ff-fc86-4d68-9c8d-6412f9d842de","ios":"levelo://app?vid=9106d3ff-fc86-4d68-9c8d-6412f9d842de"},"vehicle_type_id":"4","last_reported":1735931187,"current_range_meters":20800,"station_id":"ce4bhh12rcd13ifvqff0","pricing_plan_id":"cebpf4jnsgd1na2vs0mg"},{"bike_id":"370ccc0f-e05b-4a5b-bfe2-ba5c03530095","system_id":"levelo_inurba_marseille","lat":43.29427,"lon":5.3861,"is_reserved":false,"is_disabled":false,"rental_uris":{"android":"levelo://app?vid=370ccc0f-e05b-4a5b-bfe2-ba5c03530095","ios":"levelo://app?vid=370ccc0f-e05b-4a5b-bfe2-ba5c03530095"},"vehicle_type_id":"4","last_reported":1735931187,"current_range_meters":11200,"station_id":"ce4bh2h2rcd13ifvqdh0","pricing_plan_id":"cebpf4jnsgd1na2vs0mg"},{"bike_id":"70c2848a-e325-4867-a87b-ec2e5af222ca","system_id":"levelo_inurba_marseille","lat":43.31089,"lon":5.42425,"is_reserved":false,"is_disabled":false,"rental_uris":{"android":"levelo://app?vid=70c2848a-e325-4867-a87b-ec2e5af222ca","ios":"levelo://app?vid=70c2848a-e325-4867-a87b-ec2e5af222ca"},"vehicle_type_id":"4","last_reported":1735931187,"current_range_meters":24000,"station_id":"ce4bhp92rcd13ifvqhag","pricing_plan_id":"cebpf4jnsgd1na2vs0mg"},{"bike_id":"ebf28115-469f-4825-9b5f-f2d0f86e5619","system_id":"levelo_inurba_marseille","lat":43.30122,"lon":5.39882,"is_reserved":false,"is_disabled":false,"rental_uris":{"android":"levelo://app?vid=ebf28115-469f-4825-9b5f-f2d0f86e5619","ios":"levelo://app?vid=ebf28115-469f-4825-9b5f-f2d0f86e5619"},"vehicle_type_id":"4","last_reported":1735931187,"current_range_meters":39200,"station_id":"ce4bh0h2rcd13ifvqd40","pricing_plan_id":"cebpf4jnsgd1na2vs0mg"},{"bike_id":"48dab017-3f42-472f-871a-513ce2bb3aac","system_id":"levelo_inurba_marseille","lat":43.23159,"lon":5.43692,"is_reserved":false,"is_disabled":false,"rental_uris":{"android":"levelo://app?vid=48dab017-3f42-472f-871a-513ce2bb3aac","ios":"levelo://app?vid=48dab017-3f42-472f-871a-513ce2bb3aac"},"vehicle_type_id":"4","last_reported":1735931187,"current_range_meters":38800,"station_id":"ce4bhmp2rcd13ifvqgog","pricing_plan_id":"cebpf4jnsgd1na2vs0mg"},{"bike_id":"c9ce59a4-381d-43e4-aa53-1adf730f26ad","system_id":"levelo_inurba_marseille","lat":43.31116,"lon":5.37786,"is_reserved":false,"is_disabled":false,"rental_uris":{"android":"levelo://app?vid=c9ce59a4-381d-43e4-aa53-1adf730f26ad","ios":"levelo://app?vid=c9ce59a4-381d-43e4-aa53-1adf730f26ad"},"vehicle_type_id":"4","last_reported":1735931187,"current_range_meters":38800,"station_id":"ce4bgt92rcd13ifvqcg0","pricing_plan_id":"cebpf4jnsgd1na2vs0mg"},{"bike_id":"e0efcea0-c998-4c85-bcbd-8c101ec2b1a1","system_id":"levelo_inurba_marseille","lat":43.29365,"lon":5.3785,"is_reserved":false,"is_disabled":false,"rental_uris":{"android":"levelo://app?vid=e0efcea0-c998-4c85-bcbd-8c101ec2b1a1","ios":"levelo://app?vid=e0efcea0-c998-4c85-bcbd-8c101ec2b1a1"},"vehicle_type_id":"4","last_reported":1735931187,"current_range_meters":19600,"station_id":"ce4bgjh2rcd13ifvqbf0","pricing_plan_id":"cebpf4jnsgd1na2vs0mg"},{"bike_id":"3e9fb883-4f11-4189-bb60-a269cec5f755","system_id":"levelo_inurba_marseille","lat":43.27199,"lon":5.3919,"is_reserved":false,"is_disabled":false,"rental_uris":{"android":"levelo://app?vid=3e9fb883-4f11-4189-bb60-a269cec5f755","ios":"levelo://app?vid=3e9fb883-4f11-4189-bb60-a269cec5f755"},"vehicle_type_id":"4","last_reported":1735931187,"current_range_meters":28400,"station_id":"ce4bhhp2rcd13ifvqfm0","pricing_plan_id":"cebpf4jnsgd1na2vs0mg"},{"bike_id":"d014f699-d84d-436b-b3bf-8c059d18ea89","system_id":"levelo_inurba_marseille","lat":43.22937,"lon":5.35369,"is_reserved":false,"is_disabled":false,"rental_uris":{"android":"levelo://app?vid=d014f699-d84d-436b-b3bf-8c059d18ea89","ios":"levelo://app?vid=d014f699-d84d-436b-b3bf-8c059d18ea89"},"vehicle_type_id":"4","last_reported":1735931187,"current_range_meters":25600,"station_id":"cpo3532slgdg3j2ikp40","pricing_plan_id":"cebpf4jnsgd1na2vs0mg"},{"bike_id":"47f4101f-25f5-4bde-a825-148c2b532f65","system_id":"levelo_inurba_marseille","lat":43.31287,"lon":5.40147,"is_reserved":false,"is_disabled":false,"rental_uris":{"android":"levelo://app?vid=47f4101f-25f5-4bde-a825-148c2b532f65","ios":"levelo://app?vid=47f4101f-25f5-4bde-a825-148c2b532f65"},"vehicle_type_id":"4","last_reported":1735931187,"current_range_meters":36400,"station_id":"ce4bh092rcd13ifvqd30","pricing_plan_id":"cebpf4jnsgd1na2vs0mg"},{"bike_id":"fd286d47-106b-429f-9301-2ac57b0c25ac","system_id":"levelo_inurba_marseille","lat":43.26977,"lon":5.40179,"is_reserved":false,"is_disabled":false,"rental_uris":{"android":"levelo://app?vid=fd286d47-106b-429f-9301-2ac57b0c25ac","ios":"levelo://app?vid=fd286d47-106b-429f-9301-2ac57b0c25ac"},"vehicle_type_id":"4","last_reported":1735931187,"current_range_meters":6800,"station_id":"","pricing_plan_id":"cebpf4jnsgd1na2vs0mg"},{"bike_id":"c14d1989-a72f-4241-a582-39661d0bcfcf","system_id":"levelo_inurba_marseille","lat":43.23199,"lon":5.35546,"is_reserved":false,"is_disabled":false,"rental_uris":{"android":"levelo://app?vid=c14d1989-a72f-4241-a582-39661d0bcfcf","ios":"levelo://app?vid=c14d1989-a72f-4241-a582-39661d0bcfcf"},"vehicle_type_id":"4","last_reported":1735931187,"current_range_meters":38800,"station_id":"ce4bhu92rcd13ifvqi70","pricing_plan_id":"cebpf4jnsgd1na2vs0mg"},{"bike_id":"ef72cdb4-465d-4178-b952-49906f159c48","system_id":"levelo_inurba_marseille","lat":43.28152,"lon":5.42636,"is_reserved":false,"is_disabled":false,"rental_uris":{"android":"levelo://app?vid=ef72cdb4-465d-4178-b952-49906f159c48","ios":"levelo://app?vid=ef72cdb4-465d-4178-b952-49906f159c48"},"vehicle_type_id":"4","last_reported":1735931187,"current_range_meters":21600,"station_id":"ce4bhnh2rcd13ifvqgug","pricing_plan_id":"cebpf4jnsgd1na2vs0mg"},{"bike_id":"2ba961bf-884b-439d-848e-74caf16fb696","system_id":"levelo_inurba_marseille","lat":43.27448,"lon":5.3943,"is_reserved":false,"is_disabled":false,"rental_uris":{"android":"levelo://app?vid=2ba961bf-884b-439d-848e-74caf16fb696","ios":"levelo://app?vid=2ba961bf-884b-439d-848e-74caf16fb696"},"vehicle_type_id":"4","last_reported":1735931187,"current_range_meters":38800,"station_id":"ce4bhdp2rcd13ifvqf20","pricing_plan_id":"cebpf4jnsgd1na2vs0mg"},{"bike_id":"4bc33b47-a63c-4f25-a0fe-24c64b43deee","system_id":"levelo_inurba_marseille","lat":43.30911,"lon":5.36855,"is_reserved":false,"is_disabled":false,"rental_uris":{"android":"levelo://app?vid=4bc33b47-a63c-4f25-a0fe-24c64b43deee","ios":"levelo://app?vid=4bc33b47-a63c-4f25-a0fe-24c64b43deee"},"vehicle_type_id":"4","last_reported":1735931187,"current_range_meters":39200,"station_id":"ce4bgn92rcd13ifvqbvg","pricing_plan_id":"cebpf4jnsgd1na2vs0mg"},{"bike_id":"7bbed7be-28f4-4cc7-81bb-977c0d79552f","system_id":"levelo_inurba_marseille","lat":43.23064,"lon":5.35503,"is_reserved":false,"is_disabled":false,"rental_uris":{"android":"levelo://app?vid=7bbed7be-28f4-4cc7-81bb-977c0d79552f","ios":"levelo://app?vid=7bbed7be-28f4-4cc7-81bb-977c0d79552f"},"vehicle_type_id":"4","last_reported":1735931187,"current_range_meters":22800,"station_id":"cpo3342slgdg3j2ifvpg","pricing_plan_id":"cebpf4jnsgd1na2vs0mg"},{"bike_id":"e2a83122-a02b-487f-b817-a71fb2e3ed4b","system_id":"levelo_inurba_marseille","lat":43.29536,"lon":5.38546,"is_reserved":false,"is_disabled":false,"rental_uris":{"android":"levelo://app?vid=e2a83122-a02b-487f-b817-a71fb2e3ed4b","ios":"levelo://app?vid=e2a83122-a02b-487f-b817-a71fb2e3ed4b"},"vehicle_type_id":"4","last_reported":1735931187,"current_range_meters":29600,"station_id":"ce4bgih2rcd13ifvqba0","pricing_plan_id":"cebpf4jnsgd1na2vs0mg"},{"bike_id":"5d64fa7b-6729-4e4c-8396-79fc7626a3f6","system_id":"levelo_inurba_marseille","lat":43.29259,"lon":5.36833,"is_reserved":false,"is_disabled":false,"rental_uris":{"android":"levelo://app?vid=5d64fa7b-6729-4e4c-8396-79fc7626a3f6","ios":"levelo://app?vid=5d64fa7b-6729-4e4c-8396-79fc7626a3f6"},"vehicle_type_id":"4","last_reported":1735931187,"current_range_meters":38800,"station_id":"ce4bhbp2rcd13ifvqesg","pricing_plan_id":"cebpf4jnsgd1na2vs0mg"},