{"last_updated":1741191397,"ttl":60,"version":"2.2","data":{"bikes":[{"bike_id":"0864b5de-00f5-4eee-b05d-92ac2505d5d8","system_id":"levelo_inurba_marseille","lat":43.295178,"lon":5.381804,"is_reserved":false,"is_disabled":false,"rental_uris":{"android":"levelo://app?vid=0864b5de-00f5-4eee-b05d-92ac2505d5d8","ios":"levelo://app?vid=0864b5de-00f5-4eee-b05d-92ac2505d5d8"},"vehicle_type_id":"4","last_reported":1741191397,"current_range_meters":2800,"station_id":"ce4bh0h2rcd13ifvqd50","pricing_plan_id":"cebpf4jnsgd1na2vs0mg"},{"bike_id":"56578767-00cb-4c40-991c-4f77208d7a8d","system_id":"levelo_inurba_marseille","lat":43.25116,"lon":5.40323,"is_reserved":false,"is_disabled":false,"rental_uris":{"android":"levelo://app?vid=56578767-00cb-4c40-991c-4f77208d7a8d","ios":"levelo://app?vid=56578767-00cb-4c40-991c-4f77208d7a8d"},"vehicle_type_id":"4","last_reported":1741191397,"current_range_meters":2800,"station_id":"ce4bhlh2rcd13ifvqgig","pricing_plan_id":"cebpf4jnsgd1na2vs0mg"},{"bike_id":"a8135fa7-0d6c-4e57-a360-c6f2b2c5b53a","system_id":"levelo_inurba_marseille","lat":43.27908,"lon":5.38007,"is_reserved":false,"is_disabled":false,"rental_uris":{"android":"levelo://app?vid=a8135fa7-0d6c-4e57-a360-c6f2b2c5b53a","ios":"levelo://app?vid=a8135fa7-0d6c-4e57-a360-c6f2b2c5b53a"},"vehicle_type_id":"4","last_reported":1741191397,"current_range_meters":2800,"station_id":"ce4bhf92rcd13ifvqf50","pricing_plan_id":"cebpf4jnsgd1na2vs0mg"},{"bike_id":"58e5910f-368c-400d-9eaa-da41b512eb6b","system_id":"levelo_inurba_marseille","lat":43.2901,"lon":5.35609,"is_reserved":false,"is_disabled":true,"rental_uris":{"android":"levelo://app?vid=58e5910f-368c-400d-9eaa-da41b512eb6b","ios":"levelo://app?vid=58e5910f-368c-400d-9eaa-da41b512eb6b"},"vehicle_type_id":"4","last_reported":1741191397,"current_range_meters":2800,"station_id":"ce4bhb92rcd13ifvqen0","pricing_plan_id":"cebpf4jnsgd1na2vs0mg"},{"bike_id":"01072966-1478-4b4e-bd3a-7fc558c082a4","system_id":"levelo_inurba_marseille","lat":43.28849,"lon":5.3931,"is_reserved":false,"is_disabled":false,"rental_uris":{"android":"levelo://app?vid=01072966-1478-4b4e-bd3a-7fc558c082a4","ios":"levelo://app?vid=01072966-1478-4b4e-bd3a-7fc558c082a4"},"vehicle_type_id":"4","last_reported":1741191397,"current_range_meters":2800,"station_id":"ce4bh2p2rcd13ifvqdi0","pricing_plan_id":"cebpf4jnsgd1na2vs0mg"},{"bike_id":"6b0c21d2-5486-4f1f-8d0c-bc8cd37bfe97","system_id":"levelo_inurba_marseille","lat":43.28356,"lon":5.3811,"is_reserved":false,"is_disabled":false,"rental_uris":{"android":"levelo://app?vid=6b0c21d2-5486-4f1f-8d0c-bc8cd37bfe97","ios":"levelo://app?vid=6b0c21d2-5486-4f1f-8d0c-bc8cd37bfe97"},"vehicle_type_id":"4","last_reported":1741191397,"current_range_meters":2800,"station_id":"ce4bh412rcd13ifvqdr0","pricing_plan_id":"cebpf4jnsgd1na2vs0mg"},{"bike_id":"a3a09a6d-5da4-442d-8bc5-4379edc288b7","system_id":"levelo_inurba_marseille","lat":43.2679,"lon":5.39414,"is_reserved":false,"is_disabled":false,"rental_uris":{"android":"levelo://app?vid=a3a09a6d-5da4-442d-8bc5-4379edc288b7","ios":"levelo://app?vid=a3a09a6d-5da4-442d-8bc5-4379edc288b7"},"vehicle_type_id":"4","last_reported":1741191397,"current_range_meters":3200,"station_id":"ce4bhh12rcd13ifvqfg0","pricing_plan_id":"cebpf4jnsgd1na2vs0mg"},{"bike_id":"f8f55cad-260c-4453-9fff-aac6d052b28c","system_id":"levelo_inurba_marseille","lat":43.32055,"lon":5.41526,"is_reserved":false,"is_disabled":false,"rental_uris":{"android":"levelo://app?vid=f8f55cad-260c-4453-9fff-aac6d052b28c","ios":"levelo://app?vid=f8f55cad-260c-4453-9fff-aac6d052b28c"},"vehicle_type_id":"4","last_reported":1741191397,"current_range_meters":3200,"station_id":"ce4bhq92rcd13ifvqhkg","pricing_plan_id":"cebpf4jnsgd1na2vs0mg"},{"bike_id":"746da126-ecb4-424b-84eb-8ba05c6453bb","system_id":"levelo_inurba_marseille","lat":43.30547,"lon":5.36536,"is_reserved":false,"is_disabled":false,"rental_uris":{"android":"levelo://app?vid=746da126-ecb4-424b-84eb-8ba05c6453bb","ios":"levelo://app?vid=746da126-ecb4-424b-84eb-8ba05c6453bb"},"vehicle_type_id":"4","last_reported":1741191397,"current_range_meters":3200,"station_id":"ce4bgs12rcd13ifvqcag","pricing_plan_id":"cebpf4jnsgd1na2vs0mg"},{"bike_id":"e06f4d47-8d79-4739-bf09-15a39b66602e","system_id":"levelo_inurba_marseille","lat":43.30795,"lon":5.38165,"is_reserved":false,"is_disabled":false,"rental_uris":{"android":"levelo://app?vid=e06f4d47-8d79-4739-bf09-15a39b66602e","ios":"levelo://app?vid=e06f4d47-8d79-4739-bf09-15a39b66602e"},"vehicle_type_id":"4","last_reported":1741191397,"current_range_meters":3200,"station_id":"ce4bgt12rcd13ifvqce0","pricing_plan_id":"cebpf4jnsgd1na2vs0mg"},{"bike_id":"795cc555-c91c-4e5a-816e-9f4ea727f564","system_id":"levelo_inurba_marseille","lat":43.26805,"lon":5.40268,"is_reserved":false,"is_disabled":false,"rental_uris":{"android":"levelo://app?vid=795cc555-c91c-4e5a-816e-9f4ea727f564","ios":"levelo://app?vid=795cc555-c91c-4e5a-816e-9f4ea727f564"},"vehicle_type_id":"4","last_reported":1741191397,"current_range_meters":3200,"station_id":"ce501612rcd8frsf0b60","pricing_plan_id":"cebpf4jnsgd1na2vs0mg"},{"bike_id":"cd037331-8da8-4c31-80bf-ca2ffa2839a4","system_id":"levelo_inurba_marseille","lat":43.3096,"lon":5.39042,"is_reserved":false,"is_disabled":false,"rental_uris":{"android":"levelo://app?vid=cd037331-8da8-4c31-80bf-ca2ffa2839a4","ios":"levelo://app?vid=cd037331-8da8-4c31-80bf-ca2ffa2839a4"},"vehicle_type_id":"4","last_reported":1741191397,"current_range_meters":3200,"station_id":"ce4bgup2rcd13ifvqco0","pricing_plan_id":"cebpf4jnsgd1na2vs0mg"},{"bike_id":"035b6297-845a-40dc-99ab-468970225cd0","system_id":"levelo_inurba_marseille","lat":43.29803,"lon":5.38087,"is_reserved":false,"is_disabled":false,"rental_uris":{"android":"levelo://app?vid=035b6297-845a-40dc-99ab-468970225cd0","ios":"levelo://app?vid=035b6297-845a-40dc-99ab-468970225cd0"},"vehicle_type_id":"4","last_reported":1741191397,"current_range_meters":3600,"station_id":"ce4bgip2rcd13ifvqbb0","pricing_plan_id":"cebpf4jnsgd1na2vs0mg"},{"bike_id":"e44abec0-d54c-4615-ab8d-f0a4d9c0c6d0","system_id":"levelo_inurba_marseille","lat":43.29309,"lon":5.37162,"is_reserved":false,"is_disabled":false,"rental_uris":{"android":"levelo://app?vid=e44abec0-d54c-4615-ab8d-f0a4d9c0c6d0","ios":"levelo://app?vid=e44abec0-d54c-4615-ab8d-f0a4d9c0c6d0"},"vehicle_type_id":"4","last_reported":1741191397,"current_range_meters":3600,"station_id":"ce4bgh92rcd13ifvqb40","pricing_plan_id":"cebpf4jnsgd1na2vs0mg"},{"bike_id":"6c5bb423-cbec-4bc6-8c98-9f154fd9f28c","system_id":"levelo_inurba_marseille","lat":43.291566,"lon":5.372846,"is_reserved":false,"is_disabled":false,"rental_uris":{"android":"levelo://app?vid=6c5bb423-cbec-4bc6-8c98-9f154fd9f28c","ios":"levelo://app?vid=6c5bb423-cbec-4bc6-8c98-9f154fd9f28c"},"vehicle_type_id":"4","last_reported":1741191397,"current_range_meters":4000,"station_id":"ce4bha92rcd13ifvqeh0","pricing_plan_id":"cebpf4jnsgd1na2vs0mg"},{"bike_id":"91e4e33f-dfba-480d-82e2-096419454712","system_id":"levelo_inurba_marseille","lat":43.28144,"lon":5.42655,"is_reserved":false,"is_disabled":false,"rental_uris":{"android":"levelo://app?vid=91e4e33f-dfba-480d-82e2-096419454712","ios":"levelo://app?vid=91e4e33f-dfba-480d-82e2-096419454712"},"vehicle_type_id":"4","last_reported":1741191397,"current_range_meters":4000,"station_id":"ce4bhnh2rcd13ifvqgug","pricing_plan_id":"cebpf4jnsgd1na2vs0mg"},{"bike_id":"32f5359a-04b1-4bb0-9d7b-78aaa8491f80","system_id":"levelo_inurba_marseille","lat":43.30954,"lon":5.39026,"is_reserved":false,"is_disabled":false,"rental_uris":{"android":"levelo://app?vid=32f5359a-04b1-4bb0-9d7b-78aaa8491f80","ios":"levelo://app?vid=32f5359a-04b1-4bb0-9d7b-78aaa8491f80"},"vehicle_type_id":"4","last_reported":1741191397,"current_range_meters":4000,"station_id":"ce4bgup2rcd13ifvqco0","pricing_plan_id":"cebpf4jnsgd1na2vs0mg"},{"bike_id":"34545aac-146f-4cbc-97d5-0e5322db57cc","system_id":"levelo_inurba_marseille","lat":43.29276,"lon":5.36841,"is_reserved":false,"is_disabled":false,"rental_uris":{"android":"levelo://app?vid=34545aac-146f-4cbc-97d5-0e5322db57cc","ios":"levelo://app?vid=34545aac-146f-4cbc-97d5-0e5322db57cc"},"vehicle_type_id":"4","last_reported":1741191397,"current_range_meters":4000,"station_id":"ce4bhbp2rcd13ifvqesg","pricing_plan_id":"cebpf4jnsgd1na2vs0mg"},{"bike_id":"ac4728f1-96f8-4435-8734-f0700069397e","system_id":"levelo_inurba_marseille","lat":43.25493,"lon":5.37652,"is_reserved":false,"is_disabled":false,"rental_uris":{"android":"levelo://app?vid=ac4728f1-96f8-4435-8734-f0700069397e","ios":"levelo://app?vid=ac4728f1-96f8-4435-8734-f0700069397e"},"vehicle_type_id":"4","last_reported":1741191397,"current_range_meters":4000,"station_id":"ce4bhh12rcd13ifvqff0","pricing_plan_id":"cebpf4jnsgd1na2vs0mg"},{"bike_id":"086d9ba8-a6ec-42e1-a777-e8517afb4d6b","system_id":"levelo_inurba_marseille","lat":43.29424,"lon":5.38616,"is_reserved":false,"is_disabled":false,"rental_uris":{"android":"levelo://app?vid=086d9ba8-a6ec-42e1-a777-e8517afb4d6b","ios":"levelo://app?vid=086d9ba8-a6ec-42e1-a777-e8517afb4d6b"},"vehicle_type_id":"4","last_reported":1741191397,"current_range_meters":4400,"station_id":"ce4bh2h2rcd13ifvqdh0","pricing_plan_id":"cebpf4jnsgd1na2vs0mg"},{"bike_id":"3f9fae04-f1f3-4869-8154-8b5321664179","system_id":"levelo_inurba_marseille","lat":43.23062,"lon":5.35497,"is_reserved":false,"is_disabled":false,"rental_uris":{"android":"levelo://app?vid=3f9fae04-f1f3-4869-8154-8b5321664179","ios":"levelo://app?vid=3f9fae04-f1f3-4869-8154-8b5321664179"},"vehicle_type_id":"4","last_reported":1741191397,"current_range_meters":4400,"station_id":"cpo3342slgdg3j2ifvpg","pricing_plan_id":"cebpf4jnsgd1na2vs0mg"},{"bike_id":"68588078-953f-481a-b08f-9fcd9e609fab","system_id":"levelo_inurba_marseille","lat":43.25587,"lon":5.38239,"is_reserved":false,"is_disabled":false,"rental_uris":{"android":"levelo://app?vid=68588078-953f-481a-b08f-9fcd9e609fab","ios":"levelo://app?vid=68588078-953f-481a-b08f-9fcd9e609fab"},"vehicle_type_id":"4","last_reported":1741191397,"current_range_meters":4400,"station_id":"ce4bhih2rcd13ifvqfs0","pricing_plan_id":"cebpf4jnsgd1na2vs0mg"},{"bike_id":"eb4265cb-4121-4f9a-b309-4351773a2e65","system_id":"levelo_inurba_marseille","lat":43.24647,"lon":5.38891,"is_reserved":false,"is_disabled":false,"rental_uris":{"android":"levelo://app?vid=eb4265cb-4121-4f9a-b309-4351773a2e65","ios":"levelo://app?vid=eb4265cb-4121-4f9a-b309-4351773a2e65"},"vehicle_type_id":"4","last_reported":1741191397,"current_range_meters":4800,"station_id":"ce4bhg12rcd13ifvqf60","pricing_plan_id":"cebpf4jnsgd1na2vs0mg"},{"bike_id":"10fce9b4-cf1a-4f77-8390-5a9ea490a9c3","system_id":"levelo_inurba_marseille","lat":43.30141,"lon":5.3809,"is_reserved":false,"is_disabled":false,"rental_uris":{"android":"levelo://app?vid=10fce9b4-cf1a-4f77-8390-5a9ea490a9c3","ios":"levelo://app?vid=10fce9b4-cf1a-4f77-8390-5a9ea490a9c3"},"vehicle_type_id":"4","last_reported":1741191397,"current_range_meters":4800,"station_id":"ce4bgjp2rcd13ifvqbh0","pricing_plan_id":"cebpf4jnsgd1na2vs0mg"},{"bike_id":"553be157-695b-481a-8752-6cc19968fff4","system_id":"levelo_inurba_marseille","lat":43.29003,"lon":5.35612,"is_reserved":false,"is_disabled":false,"rental_uris":{"android":"levelo://app?vid=553be157-695b-481a-8752-6cc19968fff4","ios":"levelo://app?vid=553be157-695b-481a-8752-6cc19968fff4"},"vehicle_type_id":"4","last_reported":1741191397,"current_range_meters":4800,"station_id":"ce4bhb92rcd13ifvqen0","pricing_plan_id":"cebpf4jnsgd1na2vs0mg"},{"bike_id":"c983cfb3-44da-4db3-bf67-aeba95a40e54","system_id":"levelo_inurba_marseille","lat":43.23183,"lon":5.39988,"is_reserved":false,"is_disabled":false,"rental_uris":{"android":"levelo://app?vid=c983cfb3-44da-4db3-bf67-aeba95a40e54","ios":"levelo://app?vid=c983cfb3-44da-4db3-bf67-aeba95a40e54"},"vehicle_type_id":"4","last_reported":1741191397,"current_range_meters":4800,"station_id":"ce4bhn12rcd13ifvqgqg","pricing_plan_id":"cebpf4jnsgd1na2vs0mg"},{"bike_id":"f7a903af-5c3d-44f7-85e9-7af11fda0198","system_id":"levelo_inurba_marseille","lat":43.29265,"lon":5.36848,"is_reserved":false,"is_disabled":false,"rental_uris":{"android":"levelo://app?vid=f7a903af-5c3d-44f7-85e9-7af11fda0198","ios":"levelo://app?vid=f7a903af-5c3d-44f7-85e9-7af11fda0198"},"vehicle_type_id":"4","last_reported":1741191397,"current_range_meters":4800,"station_id":"ce4bhbp2rcd13ifvqesg","pricing_plan_id":"cebpf4jnsgd1na2vs0mg"},{"bike_id":"36b90c9a-a45e-4a49-871d-a6113918684c","system_id":"levelo_inurba_marseille","lat":43.28412,"lon":5.37507,"is_reserved":false,"is_disabled":false,"rental_uris":{"android":"levelo://app?vid=36b90c9a-a45e-4a49-871d-a6113918684c","ios":"levelo://app?vid=36b90c9a-a45e-4a49-871d-a6113918684c"},"vehicle_type_id":"4","last_reported":1741191397,"current_range_meters":5600,"station_id":"ce4bh412rcd13ifvqds0","pricing_plan_id":"cebpf4jnsgd1na2vs0mg"},{"bike_id":"de7fd0d2-0ed3-44aa-a6d9-b778f01f12d3","system_id":"levelo_inurba_marseille","lat":43.29001,"lon":5.35623,"is_reserved":false,"is_disabled":true,"rental_uris":{"android":"levelo://app?vid=de7fd0d2-0ed3-44aa-a6d9-b778f01f12d3","ios":"levelo://app?vid=de7fd0d2-0ed3-44aa-a6d9-b778f01f12d3"},"vehicle_type_id":"4","last_reported":1741191397,"current_range_meters":5600,"station_id":"ce4bhb92rcd13ifvqen0","pricing_plan_id":"cebpf4jnsgd1na2vs0mg"},{"bike_id":"78fce13d-6482-445d-a832-1e2ba9c14cee","system_id":"levelo_inurba_marseille","lat":43.30089,"lon":5.39076,"is_reserved":false,"is_disabled":false,"rental_uris":{"android":"levelo://app?vid=78fce13d-6482-445d-a832-1e2ba9c14cee","ios":"levelo://app?vid=78fce13d-6482-445d-a832-1e2ba9c14cee"},"vehicle_type_id":"4","last_reported":1741191397,"current_range_meters":5600,"station_id":"ce4bh192rcd13ifvqdb0","pricing_plan_id":"cebpf4jnsgd1na2vs0mg"},{"bike_id":"8ad40613-6a45-4cb3-81ac-66b590ddbbf4","system_id":"levelo_inurba_marseille","lat":43.29029,"lon":5.37587,"is_reserved":false,"is_disabled":false,"rental_uris":{"android":"levelo://app?vid=8ad40613-6a45-4cb3-81ac-66b590ddbbf4","ios":"levelo://app?vid=8ad40613-6a45-4cb3-81ac-66b590ddbbf4"},"vehicle_type_id":"4","last_reported":1741191397,"current_range_meters":6000,"station_id":"ce4bhoh2rcd13ifvqh5g","pricing_plan_id":"cebpf4jnsgd1na2vs0mg"},{"bike_id":"49503fe6-aa6d-4872-8df7-22c257849149","system_id":"levelo_inurba_marseille","lat":43.27369,"lon":5.36253,"is_reserved":false,"is_disabled":false,"rental_uris":{"android":"levelo://app?vid=49503fe6-aa6d-4872-8df7-22c257849149","ios":"levelo://app?vid=49503fe6-aa6d-4872-8df7-22c257849149"},"vehicle_type_id":"4","last_reported":1741191397,"current_range_meters":6000,"station_id":"ce4bhbh2rcd13ifvqeo0","pricing_plan_id":"cebpf4jnsgd1na2vs0mg"},{"bike_id":"c3bdb1a7-2c32-49de-82aa-f323686fc7a8","system_id":"levelo_inurba_marseille","lat":43.28261,"lon":5.3506,"is_reserved":false,"is_disabled":false,"rental_uris":{"android":"levelo://app?vid=c3bdb1a7-2c32-49de-82aa-f323686fc7a8","ios":"levelo://app?vid=c3bdb1a7-2c32-49de-82aa-f323686fc7a8"},"vehicle_type_id":"4","last_reported":1741191397,"current_range_meters":6000,"station_id":"ce4bhbp2rcd13ifvqerg","pricing_plan_id":"cebpf4jnsgd1na2vs0mg"},{"bike_id":"6da767bf-b23d-4782-af2a-929f3092116f","system_id":"levelo_inurba_marseille","lat":43.27905,"lon":5.37998,"is_reserved":false,"is_disabled":false,"rental_uris":{"android":"levelo://app?vid=6da767bf-b23d-4782-af2a-929f3092116f","ios":"levelo://app?vid=6da767bf-b23d-4782-af2a-929f3092116f"},"vehicle_type_id":"4","last_reported":1741191397,"current_range_meters":6000,"station_id":"ce4bhf92rcd13ifvqf50","pricing_plan_id":"cebpf4jnsgd1na2vs0mg"},{"bike_id":"bc0361c7-d588-46bf-a127-f09755f4333a","system_id":"levelo_inurba_marseille","lat":43.27393,"lon":5.36248,"is_reserved":false,"is_disabled":false,"rental_uris":{"android":"levelo://app?vid=bc0361c7-d588-46bf-a127-f09755f4333a","ios":"levelo://app?vid=bc0361c7-d588-46bf-a127-f09755f4333a"},"vehicle_type_id":"4","last_reported":1741191397,"current_range_meters":6400,"station_id":"ce4bhbh2rcd13ifvqeo0","pricing_plan_id":"cebpf4jnsgd1na2vs0mg"},{"bike_id":"33563ffe-9980-4867-82c6-ae5d008867f7","system_id":"levelo_inurba_marseille","lat":43.29596,"lon":5.38098,"is_reserved":false,"is_disabled":false,"rental_uris":{"android":"levelo://app?vid=33563ffe-9980-4867-82c6-ae5d008867f7","ios":"levelo://app?vid=33563ffe-9980-4867-82c6-ae5d008867f7"},"vehicle_type_id":"4","last_reported":1741191397,"current_range_meters":6400,"station_id":"ce4bgl12rcd13ifvqbo0","pricing_plan_id":"cebpf4jnsgd1na2vs0mg"},{"bike_id":"a2650100-2720-4017-98a5-c994b82ce413","system_id":"levelo_inurba_marseille","lat":43.28945,"lon":5.36394,"is_reserved":false,"is_disabled":false,"rental_uris":{"android":"levelo://app?vid=a2650100-2720-4017-98a5-c994b82ce413","ios":"levelo://app?vid=a2650100-2720-4017-98a5-c994b82ce413"},"vehicle_type_id":"4","last_reported":1741191397,"current_range_meters":6400,"station_id":"ce4bhc92rcd13ifvqetg","pricing_plan_id":"cebpf4jnsgd1na2vs0mg"},{"bike_id":"1afc1126-22c5-4485-b881-2f1a7d92e0d8","system_id":"levelo_inurba_marseille","lat":43.24805,"lon":5.37455,"is_reserved":false,"is_disabled":false,"rental_uris":{"android":"levelo://app?vid=1afc1126-22c5-4485-b881-2f1a7d92e0d8","ios":"levelo://app?vid=1afc1126-22c5-4485-b881-2f1a7d92e0d8"},"vehicle_type_id":"4","last_reported":1741191397,"current_range_meters":6400,"station_id":"ce4bhgh2rcd13ifvqfb0","pricing_plan_id":"cebpf4jnsgd1na2vs0mg"},{"bike_id":"4d96a45d-8e1d-4f5c-846e-3a9ab83111fb","system_id":"levelo_inurba_marseille","lat":43.32369,"lon":5.36759,"is_reserved":false,"is_disabled":false,"rental_uris":{"android":"levelo://app?vid=4d96a45d-8e1d-4f5c-846e-3a9ab83111fb","ios":"levelo://app?vid=4d96a45d-8e1d-4f5c-846e-3a9ab83111fb"},"vehicle_type_id":"4","last_reported":1741191397,"current_range_meters":6400,"station_id":"ce4bhsh2rcd13ifvqi2g","pricing_plan_id":"cebpf4jnsgd1na2vs0mg"},{"bike_id":"21b19842-9ad9-4db0-bc46-3d2827c0069e","system_id":"levelo_inurba_marseille","lat":43.23195,"lon":5.35564,"is_reserved":false,"is_disabled":false,"rental_uris":{"android":"levelo://app?vid=21b19842-9ad9-4db0-bc46-3d2827c0069e","ios":"levelo://app?vid=21b19842-9ad9-4db0-bc46-3d2827c0069e"},"vehicle_type_id":"4","last_reported":1741191397,"current_range_meters":6400,"station_id":"ce4bhu92rcd13ifvqi70","pricing_plan_id":"cebpf4jnsgd1na2vs0mg"},{"bike_id":"ee1d2ad1-36ca-49dd-a328-f2a9a9994ecb","system_id":"levelo_inurba_marseille","lat":43.31081,"lon":5.3813,"is_reserved":false,"is_disabled":false,"rental_uris":{"android":"levelo://app?vid=ee1d2ad1-36ca-49dd-a328-f2a9a9994ecb","ios":"levelo://app?vid=ee1d2ad1-36ca-49dd-a328-f2a9a9994ecb"},"vehicle_type_id":"4","last_reported":1741191397,"current_range_meters":6800,"station_id":"","pricing_plan_id":"cebpf4jnsgd1na2vs0mg"},{"bike_id":"2dbcc435-179a-4e82-a392-15e44671d8cc","system_id":"levelo_inurba_marseille","lat":43.27934,"lon":5.41043,"is_reserved":false,"is_disabled":false,"rental_uris":{"android":"levelo://app?vid=2dbcc435-179a-4e82-a392-15e44671d8cc","ios":"levelo://app?vid=2dbcc435-179a-4e82-a392-15e44671d8cc"},"vehicle_type_id":"4","last_reported":1741191397,"current_range_meters":6800,"station_id":"ce4bhnp2rcd13ifvqh0g","pricing_plan_id":"cebpf4jnsgd1na2vs0mg"},{"bike_id":"e278e460-8e85-42cf-8d22-430abd2b08d3","system_id":"levelo_inurba_marseille","lat":43.30153,"lon":5.380848,"is_reserved":false,"is_disabled":false,"rental_uris":{"android":"levelo://app?vid=e278e460-8e85-42cf-8d22-430abd2b08d3","ios":"levelo://app?vid=e278e460-8e85-42cf-8d22-430abd2b08d3"},"vehicle_type_id":"4","last_reported":1741191397,"current_range_meters":6800,"station_id":"ce4bhmp2rcd13ifvqgog","pricing_plan_id":"cebpf4jnsgd1na2vs0mg"},{"bike_id":"f6662bde-1632-4b0f-a966-f86b33b7c3b9","system_id":"levelo_inurba_marseille","lat":43.33757,"lon":5.37482,"is_reserved":false,"is_disabled":false,"rental_uris":{"android":"levelo://app?vid=f6662bde-1632-4b0f-a966-f86b33b7c3b9","ios":"levelo://app?vid=f6662bde-1632-4b0f-a966-f86b33b7c3b9"},"vehicle_type_id":"4","last_reported":1741191397,"current_range_meters":7200,"station_id":"","pricing_plan_id":"cebpf4jnsgd1na2vs0mg"},{"bike_id":"3817e129-8504-4834-b875-c7a4aa63e69c","system_id":"levelo_inurba_marseille","lat":43.28091,"lon":5.37868,"is_reserved":false,"is_disabled":false,"rental_uris":{"android":"levelo://app?vid=3817e129-8504-4834-b875-c7a4aa63e69c","ios":"levelo://app?vid=3817e129-8504-4834-b875-c7a4aa63e69c"},"vehicle_type_id":"4","last_reported":1741191397,"current_range_meters":7200,"station_id":"ce4bha12rcd13ifvqee0","pricing_plan_id":"cebpf4jnsgd1na2vs0mg"},{"bike_id":"41da4b56-604c-4398-a7b9-104be2ad83f3","system_id":"levelo_inurba_marseille","lat":43.23153,"lon":5.43709,"is_reserved":false,"is_disabled":false,"rental_uris":{"android":"levelo://app?vid=41da4b56-604c-4398-a7b9-104be2ad83f3","ios":"levelo://app?vid=41da4b56-604c-4398-a7b9-104be2ad83f3"},"vehicle_type_id":"4","last_reported":1741191397,"current_range_meters":7200,"station_id":"ce4bhmp2rcd13ifvqgog","pricing_plan_id":"cebpf4jnsgd1na2vs0mg"},{"bike_id":"6b4ccd0a-d8d4-47e8-a23e-db23c42b230c","system_id":"levelo_inurba_marseille","lat":43.2498,"lon":5.38968,"is_reserved":false,"is_disabled":false,"rental_uris":{"android":"levelo://app?vid=6b4ccd0a-d8d4-47e8-a23e-db23c42b230c","ios":"levelo://app?vid=6b4ccd0a-d8d4-47e8-a23e-db23c42b230c"},"vehicle_type_id":"4","last_reported":1741191397,"current_range_meters":7200,"station_id":"","pricing_plan_id":"cebpf4jnsgd1na2vs0mg"},{"bike_id":"09d3cdde-305c-4d79-b8d4-59d68a850c2b","system_id":"levelo_inurba_marseille","lat":43.29265,"lon":5.36848,"is_reserved":false,"is_disabled":false,"rental_uris":{"android":"levelo://app?vid=09d3cdde-305c-4d79-b8d4-59d68a850c2b","ios":"levelo://app?vid=09d3cdde-305c-4d79-b8d4-59d68a850c2b"},"vehicle_type_id":"4","last_reported":1741191397,"current_range_meters":8000,"station_id":"ce4bhbp2rcd13ifvqesg","pricing_plan_id":"cebpf4jnsgd1na2vs0mg"},{"bike_id":"bad1e105-b0ba-4359-b710-36b31accd9ce","system_id":"levelo_inurba_marseille","lat":43.23154,"lon":5.4372,"is_reserved":false,"is_disabled":false,"rental_uris":{"android":"levelo://app?vid=bad1e105-b0ba-4359-b710-36b31accd9ce","ios":"levelo://app?vid=bad1e105-b0ba-4359-b710-36b31accd9ce"},"vehicle_type_id":"4","last_reported":1741191397,"current_range_meters":8000,"station_id":"ce4bhmp2rcd13ifvqgog","pricing_plan_id":"cebpf4jnsgd1na2vs0mg"},{"bike_id":"de44d09a-d4db-4ce3-a2dd-62f4dc2e96ab","system_id":"levelo_inurba_marseille","lat":43.28171,"lon":5.42803,"is_reserved":false,"is_disabled":false,"rental_uris":{"android":"levelo://app?vid=de44d09a-d4db-4ce3-a2dd-62f4dc2e96ab","ios":"levelo://app?vid=de44d09a-d4db-4ce3-a2dd-62f4dc2e96ab"},"vehicle_type_id":"4","last_reported":1741191397,"current_range_meters":8000,"station_id":"","pricing_plan_id":"cebpf4jnsgd1na2vs0mg"},{"bike_id":"346c5faf-5c6d-40f5-b832-4598b852a63c","system_id":"levelo_inurba_marseille","lat":43.265592,"lon":5.372789,"is_reserved":false,"is_disabled":false,"rental_uris":{"android":"levelo://app?vid=346c5faf-5c6d-40f5-b832-4598b852a63c","ios":"levelo://app?vid=346c5faf-5c6d-40f5-b832-4598b852a63c"},"vehicle_type_id":"4","last_reported":1741191397,"current_range_meters":8000,"station_id":"ce4bhg12rcd13ifvqf70","pricing_plan_id":"cebpf4jnsgd1na2vs0mg"},{"bike_id":"f019b470-1875-4973-8e73-68efc4ce1a75","system_id":"levelo_inurba_marseille","lat":43.24184,"lon":5.39721,"is_reserved":false,"is_disabled":false,"rental_uris":{"android":"levelo://app?vid=f019b470-1875-4973-8e73-68efc4ce1a75","ios":"levelo://app?vid=f019b470-1875-4973-8e73-68efc4ce1a75"},"vehicle_type_id":"4","last_reported":1741191397,"current_range_meters":8000,"station_id":"ce4bhn12rcd13ifvqgpg","pricing_plan_id":"cebpf4jnsgd1na2vs0mg"},{"bike_id":"6a46eeb1-eb64-478e-b8d2-550d2c12a5ec","system_id":"levelo_inurba_marseille","lat":43.28704,"lon":5.39986,"is_reserved":false,"is_disabled":false,"rental_uris":{"android":"levelo://app?vid=6a46eeb1-eb64-478e-b8d2-550d2c12a5ec","ios":"levelo://app?vid=6a46eeb1-eb64-478e-b8d2-550d2c12a5ec"},"vehicle_type_id":"4","last_reported":1741191397,"current_range_meters":8000,"station_id":"ce4bho92rcd13ifvqh3g","pricing_plan_id":"cebpf4jnsgd1na2vs0mg"},{"bike_id":"7b1fa267-c1a0-4ef9-ae6e-4b9ac6ded92a","system_id":"levelo_inurba_marseille","lat":43.26807,"lon":5.40266,"is_reserved":false,"is_disabled":false,"rental_uris":{"android":"levelo://app?vid=7b1fa267-c1a0-4ef9-ae6e-4b9ac6ded92a","ios":"levelo://app?vid=7b1fa267-c1a0-4ef9-ae6e-4b9ac6ded92a"},"vehicle_type_id":"4","last_reported":1741191397,"current_range_meters":8000,"station_id":"ce501612rcd8frsf0b60","pricing_plan_id":"cebpf4jnsgd1na2vs0mg"},{"bike_id":"1703d35f-de26-46ff-9a3c-2bd175d64d79","system_id":"levelo_inurba_marseille","lat":43.28618,"lon":5.35106,"is_reserved":false,"is_disabled":false,"rental_uris":{"android":"levelo://app?vid=1703d35f-de26-46ff-9a3c-2bd175d64d79","ios":"levelo://app?vid=1703d35f-de26-46ff-9a3c-2bd175d64d79"},"vehicle_type_id":"4","last_reported":1741191397,"current_range_meters":8000,"station_id":"ce4bhch2rcd13ifvqeug","pricing_plan_id":"cebpf4jnsgd1na2vs0mg"},{"bike_id":"38e4efa5-3c26-4f96-820a-6a308004ab22","system_id":"levelo_inurba_marseille","lat":43.312187,"lon":5.368531,"is_reserved":false,"is_disabled":false,"rental_uris":{"android":"levelo://app?vid=38e4efa5-3c26-4f96-820a-6a308004ab22","ios":"levelo://app?vid=38e4efa5-3c26-4f96-820a-6a308004ab22"},"vehicle_type_id":"4","last_reported":1741191397,"current_range_meters":8000,"station_id":"ce4bgl92rcd13ifvqbq0","pricing_plan_id":"cebpf4jnsgd1na2vs0mg"},{"bike_id":"44a7153b-0fd7-4509-836b-676bbf84fb06","system_id":"levelo_inurba_marseille","lat":43.23186,"lon":5.35563,"is_reserved":false,"is_disabled":false,"rental_uris":{"android":"levelo://app?vid=44a7153b-0fd7-4509-836b-676bbf84fb06","ios":"levelo://app?vid=44a7153b-0fd7-4509-836b-676bbf84fb06"},"vehicle_type_id":"4","last_reported":1741191397,"current_range_meters":8000,"station_id":"ce4bhu92rcd13ifvqi70","pricing_plan_id":"cebpf4jnsgd1na2vs0mg"},{"bike_id":"fbec809f-eff5-433e-8db6-ba56fe5211ec","system_id":"levelo_inurba_marseille","lat":43.29304,"lon":5.37164,"is_reserved":false,"is_disabled":false,"rental_uris":{"android":"levelo://app?vid=fbec809f-eff5-433e-8db6-ba56fe5211ec","ios":"levelo://app?vid=fbec809f-eff5-433e-8db6-ba56fe5211ec"},"vehicle_type_id":"4","last_reported":1741191397,"current_range_meters":8400,"station_id":"ce4bgh92rcd13ifvqb40","pricing_plan_id":"cebpf4jnsgd1na2vs0mg"},{"bike_id":"874b9f49-b2e7-4d8c-998a-77f4d46f7d5e","system_id":"levelo_inurba_marseille","lat":43.2943,"lon":5.3866,"is_reserved":false,"is_disabled":false,"rental_uris":{"android":"levelo://app?vid=874b9f49-b2e7-4d8c-998a-77f4d46f7d5e","ios":"levelo://app?vid=874b9f49-b2e7-4d8c-998a-77f4d46f7d5e"},"vehicle_type_id":"4","last_reported":1741191397,"current_range_meters":8400,"station_id":"ce4bh2h2rcd13ifvqdh0","pricing_plan_id":"cebpf4jnsgd1na2vs0mg"},{"bike_id":"ed663efe-074b-4aba-b0e9-f846e4bd3747","system_id":"levelo_inurba_marseille","lat":43.29289,"lon":5.40904,"is_reserved":false,"is_disabled":false,"rental_uris":{"android":"levelo://app?vid=ed663efe-074b-4aba-b0e9-f846e4bd3747","ios":"levelo://app?vid=ed663efe-074b-4aba-b0e9-f846e4bd3747"},"vehicle_type_id":"4","last_reported":1741191397,"current_range_meters":8400,"station_id":"ce4bh192rcd13ifvqdc0","pricing_plan_id":"cebpf4jnsgd1na2vs0mg"},{"bike_id":"6196714a-ed09-4abe-aae4-0fa555633c72","system_id":"levelo_inurba_marseille","lat":43.241709,"lon":5.364039,"is_reserved":false,"is_disabled":false,"rental_uris":{"android":"levelo://app?vid=6196714a-ed09-4abe-aae4-0fa555633c72","ios":"levelo://app?vid=6196714a-ed09-4abe-aae4-0fa555633c72"},"vehicle_type_id":"4","last_reported":1741191397,"current_range_meters":8400,"station_id":"cpo36qri1sfpv3e86is0","pricing_plan_id":"cebpf4jnsgd1na2vs0mg"},{"bike_id":"5650a716-c35b-4656-9919-39b835609686","system_id":"levelo_inurba_marseille","lat":43.289824,"lon":5.378311,"is_reserved":false,"is_disabled":false,"rental_uris":{"android":"levelo://app?vid=5650a716-c35b-4656-9919-39b835609686","ios":"levelo://app?vid=5650a716-c35b-4656-9919-39b835609686"},"vehicle_type_id":"4","last_reported":1741191397,"current_range_meters":8400,"station_id":"","pricing_plan_id":"cebpf4jnsgd1na2vs0mg"},{"bike_id":"55d55add-ac8f-4de5-96b6-019dd63703eb","system_id":"levelo_inurba_marseille","lat":43.28941,"lon":5.3664,"is_reserved":false,"is_disabled":false,"rental_uris":{"android":"levelo://app?vid=55d55add-ac8f-4de5-96b6-019dd63703eb","ios":"levelo://app?vid=55d55add-ac8f-4de5-96b6-019dd63703eb"},"vehicle_type_id":"4","last_reported":1741191397,"current_range_meters":8400,"station_id":"ce4bhap2rcd13ifvqek0","pricing_plan_id":"cebpf4jnsgd1na2vs0mg"},{"bike_id":"fa135c94-85b0-42af-ac0e-b6c7c086d479","system_id":"levelo_inurba_marseille","lat":43.2836,"lon":5.38637,"is_reserved":false,"is_disabled":false,"rental_uris":{"android":"levelo://app?vid=fa135c94-85b0-42af-ac0e-b6c7c086d479","ios":"levelo://app?vid=fa135c94-85b0-42af-ac0e-b6c7c086d479"},"vehicle_type_id":"4","last_reported":1741191397,"current_range_meters":8400,"station_id":"ce4bh492rcd13ifvqdvg","pricing_plan_id":"cebpf4jnsgd1na2vs0mg"},{"bike_id":"5dd8b46d-65c7-47ea-8d6b-ffbc8a000002","system_id":"levelo_inurba_marseille","lat":43.23964,"lon":5.36646,"is_reserved":false,"is_disabled":false,"rental_uris":{"android":"levelo://app?vid=5dd8b46d-65c7-47ea-8d6b-ffbc8a000002","ios":"levelo://app?vid=5dd8b46d-65c7-47ea-8d6b-ffbc8a000002"},"vehicle_type_id":"4","last_reported":1741191397,"current_range_meters":8400,"station_id":"ce4bhi12rcd13ifvqfp0","pricing_plan_id":"cebpf4jnsgd1na2vs0mg"},{"bike_id":"ffb24a9e-fe83-41cf-9fe6-8887bf50630b","system_id":"levelo_inurba_marseille","lat":43.25582,"lon":5.38249,"is_reserved":false,"is_disabled":false,"rental_uris":{"android":"levelo://app?vid=ffb24a9e-fe83-41cf-9fe6-8887bf50630b","ios":"levelo://app?vid=ffb24a9e-fe83-41cf-9fe6-8887bf50630b"},"vehicle_type_id":"4","last_reported":1741191397,"current_range_meters":8800,"station_id":"ce4bhih2rcd13ifvqfs0","pricing_plan_id":"cebpf4jnsgd1na2vs0mg"},{"bike_id":"b34fd95a-7478-4eaa-ad54-3d1229d1e284","system_id":"levelo_inurba_marseille","lat":43.32359,"lon":5.41522,"is_reserved":false,"is_disabled":false,"rental_uris":{"android":"levelo://app?vid=b34fd95a-7478-4eaa-ad54-3d1229d1e284","ios":"levelo://app?vid=b34fd95a-7478-4eaa-ad54-3d1229d1e284"},"vehicle_type_id":"4","last_reported":1741191397,"current_range_meters":8800,"station_id":"","pricing_plan_id":"cebpf4jnsgd1na2vs0mg"},{"bike_id":"97399946-e3e6-4c82-9064-b3472fe1a6d0","system_id":"levelo_inurba_marseille","lat":43.26204,"lon":5.40445,"is_reserved":false,"is_disabled":true,"rental_uris":{"android":"levelo://app?vid=97399946-e3e6-4c82-9064-b3472fe1a6d0","ios":"levelo://app?vid=97399946-e3e6-4c82-9064-b3472fe1a6d0"},"vehicle_type_id":"4","last_reported":1741191397,"current_range_meters":8800,"station_id":"","pricing_plan_id":"cebpf4jnsgd1na2vs0mg"},{"bike_id":"25e99816-2675-4240-be71-51ea0f741a1c","system_id":"levelo_inurba_marseille","lat":43.27846,"lon":5.3921,"is_reserved":false,"is_disabled":false,"rental_uris":{"android":"levelo://app?vid=25e99816-2675-4240-be71-51ea0f741a1c","ios":"levelo://app?vid=25e99816-2675-4240-be71-51ea0f741a1c"},"vehicle_type_id":"4","last_reported":1741191397,"current_range_meters":8800,"station_id":"ce4bhjp2rcd13ifvqga0","pricing_plan_id":"cebpf4jnsgd1na2vs0mg"},{"bike_id":"51f6f578-8898-487a-9da7-ff3d6d379d1b","system_id":"levelo_inurba_marseille","lat":43.32099,"lon":5.36794,"is_reserved":false,"is_disabled":false,"rental_uris":{"android":"levelo://app?vid=51f6f578-8898-487a-9da7-ff3d6d379d1b","ios":"levelo://app?vid=51f6f578-8898-487a-9da7-ff3d6d379d1b"},"vehicle_type_id":"4","last_reported":1741191397,"current_range_meters":8800,"station_id":"ce4bhrh2rcd13ifvqhug","pricing_plan_id":"cebpf4jnsgd1na2vs0mg"},{"bike_id":"4c0e314a-87e2-48f0-a7b0-ec6605046de8","system_id":"levelo_inurba_marseille","lat":43.3208,"lon":5.36843,"is_reserved":false,"is_disabled":false,"rental_uris":{"android":"levelo://app?vid=4c0e314a-87e2-48f0-a7b0-ec6605046de8","ios":"levelo://app?vid=4c0e314a-87e2-48f0-a7b0-ec6605046de8"},"vehicle_type_id":"4","last_reported":1741191397,"current_range_meters":8800,"station_id":"ce4bhrh2rcd13ifvqhug","pricing_plan_id":"cebpf4jnsgd1na2vs0mg"},{"bike_id":"3ca12415-6a11-4d95-96a7-289d2b57ffcb","system_id":"levelo_inurba_marseille","lat":43.26558,"lon":5.37283,"is_reserved":false,"is_disabled":false,"rental_uris":{"android":"levelo://app?vid=3ca12415-6a11-4d95-96a7-289d2b57ffcb","ios":"levelo://app?vid=3ca12415-6a11-4d95-96a7-289d2b57ffcb"},"vehicle_type_id":"4","last_reported":1741191397,"current_range_meters":8800,"station_id":"ce4bhg12rcd13ifvqf70","pricing_plan_id":"cebpf4jnsgd1na2vs0mg"},{"bike_id":"be8934b9-c5d6-456d-af5c-44c47db9ca86","system_id":"levelo_inurba_marseille","lat":43.282803,"lon":5.350824,"is_reserved":false,"is_disabled":false,"rental_uris":{"android":"levelo://app?vid=be8934b9-c5d6-456d-af5c-44c47db9ca86","ios":"levelo://app?vid=be8934b9-c5d6-456d-af5c-44c47db9ca86"},"vehicle_type_id":"4","last_reported":1741191397,"current_range_meters":9200,"station_id":"cki0cbj6b192h4jlfktg","pricing_plan_id":"cebpf4jnsgd1na2vs0mg"},{"bike_id":"e87d3657-a927-4464-955b-80e91ac549b2","system_id":"levelo_inurba_marseille","lat":43.31078,"lon":5.38357,"is_reserved":false,"is_disabled":false,"rental_uris":{"android":"levelo://app?vid=e87d3657-a927-4464-955b-80e91ac549b2","ios":"levelo://app?vid=e87d3657-a927-4464-955b-80e91ac549b2"},"vehicle_type_id":"4","last_reported":1741191397,"current_range_meters":9200,"station_id":"ce4bgv92rcd13ifvqcr0","pricing_plan_id":"cebpf4jnsgd1na2vs0mg"},{"bike_id":"09a697cf-9831-4594-8265-e66e76c95c85","system_id":"levelo_inurba_marseille","lat":43.31323,"lon":5.39697,"is_reserved":false,"is_disabled":false,"rental_uris":{"android":"levelo://app?vid=09a697cf-9831-4594-8265-e66e76c95c85","ios":"levelo://app?vid=09a697cf-9831-4594-8265-e66e76c95c85"},"vehicle_type_id":"4","last_reported":1741191397,"current_range_meters":9200,"station_id":"ce4bgvp2rcd13ifvqcu0","pricing_plan_id":"cebpf4jnsgd1na2vs0mg"},{"bike_id":"d2663c83-d4b2-4f50-a3cd-9b4bc5a8f741","system_id":"levelo_inurba_marseille","lat":43.28076,"lon":5.39647,"is_reserved":false,"is_disabled":false,"rental_uris":{"android":"levelo://app?vid=d2663c83-d4b2-4f50-a3cd-9b4bc5a8f741","ios":"levelo://app?vid=d2663c83-d4b2-4f50-a3cd-9b4bc5a8f741"},"vehicle_type_id":"4","last_reported":1741191397,"current_range_meters":9200,"station_id":"ce4bho12rcd13ifvqh2g","pricing_plan_id":"cebpf4jnsgd1na2vs0mg"},{"bike_id":"2c57ca77-f587-4fb7-baf7-553c5df662dc","system_id":"levelo_inurba_marseille","lat":43.28438,"lon":5.37528,"is_reserved":false,"is_disabled":false,"rental_uris":{"android":"levelo://app?vid=2c57ca77-f587-4fb7-baf7-553c5df662dc","ios":"levelo://app?vid=2c57ca77-f587-4fb7-baf7-553c5df662dc"},"vehicle_type_id":"4","last_reported":1741191397,"current_range_meters":9200,"station_id":"ce4bh412rcd13ifvqds0","pricing_plan_id":"cebpf4jnsgd1na2vs0mg"},{"bike_id":"3de42499-332f-4f37-855f-942539a949a7","system_id":"levelo_inurba_marseille","lat":43.2975,"lon":5.3713,"is_reserved":false,"is_disabled":false,"rental_uris":{"android":"levelo://app?vid=3de42499-332f-4f37-855f-942539a949a7","ios":"levelo://app?vid=3de42499-332f-4f37-855f-942539a949a7"},"vehicle_type_id":"4","last_reported":1741191397,"current_range_meters":9200,"station_id":"ce4bgop2rcd13ifvqc1g","pricing_plan_id":"cebpf4jnsgd1na2vs0mg"},{"bike_id":"a72b0afc-d356-4c97-a069-7e6650defef1","system_id":"levelo_inurba_marseille","lat":43.29626,"lon":5.37166,"is_reserved":false,"is_disabled":false,"rental_uris":{"android":"levelo://app?vid=a72b0afc-d356-4c97-a069-7e6650defef1","ios":"levelo://app?vid=a72b0afc-d356-4c97-a069-7e6650defef1"},"vehicle_type_id":"4","last_reported":1741191397,"current_range_meters":9200,"station_id":"ce4bgnh2rcd13ifvqc0g","pricing_plan_id":"cebpf4jnsgd1na2vs0mg"},{"bike_id":"397b0f97-0c0d-4028-9eef-ef320330572d","system_id":"levelo_inurba_marseille","lat":43.2966,"lon":5.379185,"is_reserved":false,"is_disabled":false,"rental_uris":{"android":"levelo://app?vid=397b0f97-0c0d-4028-9eef-ef320330572d","ios":"levelo://app?vid=397b0f97-0c0d-4028-9eef-ef320330572d"},"vehicle_type_id":"4","last_reported":1741191397,"current_range_meters":9200,"station_id":"ce4bgkh2rcd13ifvqbl0","pricing_plan_id":"cebpf4jnsgd1na2vs0mg"},{"bike_id":"f2e71607-54de-42d8-8ac6-54cfcf88b0fa","system_id":"levelo_inurba_marseille","lat":43.30308,"lon":5.39216,"is_reserved":false,"is_disabled":false,"rental_uris":{"android":"levelo://app?vid=f2e71607-54de-42d8-8ac6-54cfcf88b0fa","ios":"levelo://app?vid=f2e71607-54de-42d8-8ac6-54cfcf88b0fa"},"vehicle_type_id":"4","last_reported":1741191397,"current_range_meters":9200,"station_id":"ce4bgkh2rcd13ifvqbk0","pricing_plan_id":"cebpf4jnsgd1na2vs0mg"},{"bike_id":"ff22ac5f-4107-4c43-91dd-83932ff30650","system_id":"levelo_inurba_marseille","lat":43.266872,"lon":5.382703,"is_reserved":false,"is_disabled":true,"rental_uris":{"android":"levelo://app?vid=ff22ac5f-4107-4c43-91dd-83932ff30650","ios":"levelo://app?vid=ff22ac5f-4107-4c43-91dd-83932ff30650"},"vehicle_type_id":"4","last_reported":1741191397,"current_range_meters":9200,"station_id":"ce4bhg92rcd13ifvqf90","pricing_plan_id":"cebpf4jnsgd1na2vs0mg"},{"bike_id":"d8c1a3a3-c640-4cd7-aed5-0c3254a17242","system_id":"levelo_inurba_marseille","lat":43.24746,"lon":5.38279,"is_reserved":false,"is_disabled":false,"rental_uris":{"android":"levelo://app?vid=d8c1a3a3-c640-4cd7-aed5-0c3254a17242","ios":"levelo://app?vid=d8c1a3a3-c640-4cd7-aed5-0c3254a17242"},"vehicle_type_id":"4","last_reported":1741191397,"current_range_meters":9200,"station_id":"ce4bhih2rcd13ifvqfr0","pricing_plan_id":"cebpf4jnsgd1na2vs0mg"},{"bike_id":"892d1d46-8182-44f1-a142-3949dea7b94b","system_id":"levelo_inurba_marseille","lat":43.24178,"lon":5.3973,"is_reserved":false,"is_disabled":false,"rental_uris":{"android":"levelo://app?vid=892d1d46-8182-44f1-a142-3949dea7b94b","ios":"levelo://app?vid=892d1d46-8182-44f1-a142-3949dea7b94b"},"vehicle_type_id":"4","last_reported":1741191397,"current_range_meters":9200,"station_id":"ce4bhn12rcd13ifvqgpg","pricing_plan_id":"cebpf4jnsgd1na2vs0mg"},{"bike_id":"d94cabb5-fabd-43c2-bc4e-6d9fd44fd117","system_id":"levelo_inurba_marseille","lat":43.30633,"lon":5.40087,"is_reserved":false,"is_disabled":false,"rental_uris":{"android":"levelo://app?vid=d94cabb5-fabd-43c2-bc4e-6d9fd44fd117","ios":"levelo://app?vid=d94cabb5-fabd-43c2-bc4e-6d9fd44fd117"},"vehicle_type_id":"4","last_reported":1741191397,"current_range_meters":9200,"station_id":"ce4bh112rcd13ifvqda0","pricing_plan_id":"cebpf4jnsgd1na2vs0mg"},{"bike_id":"91c67bdb-7ccb-4a35-957b-6f10bdb3e409","system_id":"levelo_inurba_marseille","lat":43.27901,"lon":5.39592,"is_reserved":false,"is_disabled":false,"rental_uris":{"android":"levelo://app?vid=91c67bdb-7ccb-4a35-957b-6f10bdb3e409","ios":"levelo://app?vid=91c67bdb-7ccb-4a35-957b-6f10bdb3e409"},"vehicle_type_id":"4","last_reported":1741191397,"current_range_meters":9600,"station_id":"ce4bhf92rcd13ifvqf40","pricing_plan_id":"cebpf4jnsgd1na2vs0mg"},{"bike_id":"2d58a682-c9ff-4b68-b9e7-950837843792","system_id":"levelo_inurba_marseille","lat":43.29877,"lon":5.39733,"is_reserved":false,"is_disabled":false,"rental_uris":{"android":"levelo://app?vid=2d58a682-c9ff-4b68-b9e7-950837843792","ios":"levelo://app?vid=2d58a682-c9ff-4b68-b9e7-950837843792"},"vehicle_type_id":"4","last_reported":1741191397,"current_range_meters":9600,"station_id":"ce4bh0h2rcd13ifvqd50","pricing_plan_id":"cebpf4jnsgd1na2vs0mg"},{"bike_id":"7cd5e07c-ad2a-4af8-99d9-77c41335ce79","system_id":"levelo_inurba_marseille","lat":43.24171,"lon":5.36392,"is_reserved":false,"is_disabled":false,"rental_uris":{"android":"levelo://app?vid=7cd5e07c-ad2a-4af8-99d9-77c41335ce79","ios":"levelo://app?vid=7cd5e07c-ad2a-4af8-99d9-77c41335ce79"},"vehicle_type_id":"4","last_reported":1741191397,"current_range_meters":9600,"station_id":"cpo36qri1sfpv3e86is0","pricing_plan_id":"cebpf4jnsgd1na2vs0mg"},{"bike_id":"e3d7bc68-e1c3-463f-8323-6b168c27cfde","system_id":"levelo_inurba_marseille","lat":43.23142,"lon":5.43725,"is_reserved":false,"is_disabled":false,"rental_uris":{"android":"levelo://app?vid=e3d7bc68-e1c3-463f-8323-6b168c27cfde","ios":"levelo://app?vid=e3d7bc68-e1c3-463f-8323-6b168c27cfde"},"vehicle_type_id":"4","last_reported":1741191397,"current_range_meters":9600,"station_id":"ce4bhmp2rcd13ifvqgog","pricing_plan_id":"cebpf4jnsgd1na2vs0mg"},{"bike_id":"25770d30-7c61-4e52-8ba7-c8009e35f3e4","system_id":"levelo_inurba_marseille","lat":43.30433,"lon":5.38887,"is_reserved":false,"is_disabled":false,"rental_uris":{"android":"levelo://app?vid=25770d30-7c61-4e52-8ba7-c8009e35f3e4","ios":"levelo://app?vid=25770d30-7c61-4e52-8ba7-c8009e35f3e4"},"vehicle_type_id":"4","last_reported":1741191397,"current_range_meters":9600,"station_id":"ce4bgk12rcd13ifvqbi0","pricing_plan_id":"cebpf4jnsgd1na2vs0mg"},{"bike_id":"64707fab-787e-4da4-bbeb-8dcbc8751924","system_id":"levelo_inurba_marseille","lat":43.30428,"lon":5.39746,"is_reserved":false,"is_disabled":false,"rental_uris":{"android":"levelo://app?vid=64707fab-787e-4da4-bbeb-8dcbc8751924","ios":"levelo://app?vid=64707fab-787e-4da4-bbeb-8dcbc8751924"},"vehicle_type_id":"4","last_reported":1741191397,"current_range_meters":9600,"station_id":"ce4bh092rcd13ifvqd20","pricing_plan_id":"cebpf4jnsgd1na2vs0mg"},{"bike_id":"b84a690f-b671-443d-91c9-b2ff99575890","system_id":"levelo_inurba_marseille","lat":43.28848,"lon":5.35839,"is_reserved":false,"is_disabled":false,"rental_uris":{"android":"levelo://app?vid=b84a690f-b671-443d-91c9-b2ff99575890","ios":"levelo://app?vid=b84a690f-b671-443d-91c9-b2ff99575890"},"vehicle_type_id":"4","last_reported":1741191397,"current_range_meters":9600,"station_id":"ce4bhb12rcd13ifvqem0","pricing_plan_id":"cebpf4jnsgd1na2vs0mg"},{"bike_id":"46517abb-4bb5-4196-b69e-86350aa3abaa","system_id":"levelo_inurba_marseille","lat":43.2978,"lon":5.39339,"is_reserved":false,"is_disabled":false,"rental_uris":{"android":"levelo://app?vid=46517abb-4bb5-4196-b69e-86350aa3abaa","ios":"levelo://app?vid=46517abb-4bb5-4196-b69e-86350aa3abaa"},"vehicle_type_id":"4","last_reported":1741191397,"current_range_meters":9600,"station_id":"chh1huq6cuj3fo74tm60","pricing_plan_id":"cebpf4jnsgd1na2vs0mg"},{"bike_id":"525e1d85-3b89-4e60-a28e-30ee484fc0de","system_id":"levelo_inurba_marseille","lat":43.31345,"lon":5.36714,"is_reserved":false,"is_disabled":false,"rental_uris":{"android":"levelo://app?vid=525e1d85-3b89-4e60-a28e-30ee484fc0de","ios":"levelo://app?vid=525e1d85-3b89-4e60-a28e-30ee484fc0de"},"vehicle_type_id":"4","last_reported":1741191397,"current_range_meters":9600,"station_id":"ce4bgr92rcd13ifvqc6g","pricing_plan_id":"cebpf4jnsgd1na2vs0mg"},{"bike_id":"c55557ad-1ed5-4997-aee7-ac92107f14b6","system_id":"levelo_inurba_marseille","lat":43.26478,"lon":5.37506,"is_reserved":false,"is_disabled":false,"rental_uris":{"android":"levelo://app?vid=c55557ad-1ed5-4997-aee7-ac92107f14b6","ios":"levelo://app?vid=c55557ad-1ed5-4997-aee7-ac92107f14b6"},"vehicle_type_id":"4","last_reported":1741191397,"current_range_meters":10000,"station_id":"","pricing_plan_id":"cebpf4jnsgd1na2vs0mg"},{"bike_id":"bd421d8f-fe6d-4c51-99b9-91fbd389711b","system_id":"levelo_inurba_marseille","lat":43.23059,"lon":5.35498,"is_reserved":false,"is_disabled":false,"rental_uris":{"android":"levelo://app?vid=bd421d8f-fe6d-4c51-99b9-91fbd389711b","ios":"levelo://app?vid=bd421d8f-fe6d-4c51-99b9-91fbd389711b"},"vehicle_type_id":"4","last_reported":1741191397,"current_range_meters":10000,"station_id":"cpo3342slgdg3j2ifvpg","pricing_plan_id":"cebpf4jnsgd1na2vs0mg"},{"bike_id":"e423c722-de0d-4892-a692-f8314d5ee0d6","system_id":"levelo_inurba_marseille","lat":43.28578,"lon":5.37041,"is_reserved":false,"is_disabled":false,"rental_uris":{"android":"levelo://app?vid=e423c722-de0d-4892-a692-f8314d5ee0d6","ios":"levelo://app?vid=e423c722-de0d-4892-a692-f8314d5ee0d6"},"vehicle_type_id":"4","last_reported":1741191397,"current_range_meters":10000,"station_id":"ce4bht12rcd13ifvqi60","pricing_plan_id":"cebpf4jnsgd1na2vs0mg"},{"bike_id":"d571166c-77a4-4a91-b051-9cc34ad31336","system_id":"levelo_inurba_marseille","lat":43.30212,"lon":5.3932,"is_reserved":false,"is_disabled":false,"rental_uris":{"android":"levelo://app?vid=d571166c-77a4-4a91-b051-9cc34ad31336","ios":"levelo://app?vid=d571166c-77a4-4a91-b051-9cc34ad31336"},"vehicle_type_id":"4","last_reported":1741191397,"current_range_meters":10000,"station_id":"","pricing_plan_id":"cebpf4jnsgd1na2vs0mg"},{"bike_id":"79f652dd-9dd0-4936-8e5f-7ddd9327d805","system_id":"levelo_inurba_marseille","lat":43.28075,"lon":5.3965,"is_reserved":false,"is_disabled":false,"rental_uris":{"android":"levelo://app?vid=79f652dd-9dd0-4936-8e5f-7ddd9327d805","ios":"levelo://app?vid=79f652dd-9dd0-4936-8e5f-7ddd9327d805"},"vehicle_type_id":"4","last_reported":1741191397,"current_range_meters":10000,"station_id":"ce4bho12rcd13ifvqh2g","pricing_plan_id":"cebpf4jnsgd1na2vs0mg"},{"bike_id":"c37282ab-6b90-40d2-be09-13ffd3429d0b","system_id":"levelo_inurba_marseille","lat":43.2884,"lon":5.35845,"is_reserved":false,"is_disabled":false,"rental_uris":{"android":"levelo://app?vid=c37282ab-6b90-40d2-be09-13ffd3429d0b","ios":"levelo://app?vid=c37282ab-6b90-40d2-be09-13ffd3429d0b"},"vehicle_type_id":"4","last_reported":1741191397,"current_range_meters":10000,"station_id":"ce4bhb12rcd13ifvqem0","pricing_plan_id":"cebpf4jnsgd1na2vs0mg"},{"bike_id":"b8af6da8-0671-4b9f-b287-0e3b45c3b141","system_id":"levelo_inurba_marseille","lat":43.23154,"lon":5.43698,"is_reserved":false,"is_disabled":false,"rental_uris":{"android":"levelo://app?vid=b8af6da8-0671-4b9f-b287-0e3b45c3b141","ios":"levelo://app?vid=b8af6da8-0671-4b9f-b287-0e3b45c3b141"},"vehicle_type_id":"4","last_reported":1741191397,"current_range_meters":10000,"station_id":"ce4bhmp2rcd13ifvqgog","pricing_plan_id":"cebpf4jnsgd1na2vs0mg"},{"bike_id":"40553f65-db55-45aa-847c-fe194fa3782d","system_id":"levelo_inurba_marseille","lat":43.28735,"lon":5.37925,"is_reserved":false,"is_disabled":false,"rental_uris":{"android":"levelo://app?vid=40553f65-db55-45aa-847c-fe194fa3782d","ios":"levelo://app?vid=40553f65-db55-45aa-847c-fe194fa3782d"},"vehicle_type_id":"4","last_reported":1741191397,"current_range_meters":10800,"station_id":"ce4bh9p2rcd13ifvqec0","pricing_plan_id":"cebpf4jnsgd1na2vs0mg"},{"bike_id":"d42aed35-7fd0-4756-98a4-c384630d40fd","system_id":"levelo_inurba_marseille","lat":43.2508,"lon":5.39514,"is_reserved":false,"is_disabled":false,"rental_uris":{"android":"levelo://app?vid=d42aed35-7fd0-4756-98a4-c384630d40fd","ios":"levelo://app?vid=d42aed35-7fd0-4756-98a4-c384630d40fd"},"vehicle_type_id":"4","last_reported":1741191397,"current_range_meters":10800,"station_id":"ce4bhm12rcd13ifvqgkg","pricing_plan_id":"cebpf4jnsgd1na2vs0mg"},{"bike_id":"6dcd7069-97e1-4c34-83b8-ce6f544a9361","system_id":"levelo_inurba_marseille","lat":43.26565,"lon":5.37279,"is_reserved":false,"is_disabled":false,"rental_uris":{"android":"levelo://app?vid=6dcd7069-97e1-4c34-83b8-ce6f544a9361","ios":"levelo://app?vid=6dcd7069-97e1-4c34-83b8-ce6f544a9361"},"vehicle_type_id":"4","last_reported":1741191397,"current_range_meters":10800,"station_id":"ce4bhg12rcd13ifvqf70","pricing_plan_id":"cebpf4jnsgd1na2vs0mg"},{"bike_id":"d3ada97d-b519-442c-985f-3b5ff1cad64e","system_id":"levelo_inurba_marseille","lat":43.2796,"lon":5.38704,"is_reserved":false,"is_disabled":false,"rental_uris":{"android":"levelo://app?vid=d3ada97d-b519-442c-985f-3b5ff1cad64e","ios":"levelo://app?vid=d3ada97d-b519-442c-985f-3b5ff1cad64e"},"vehicle_type_id":"4","last_reported":1741191397,"current_range_meters":10800,"station_id":"ce4bhg12rcd13ifvqf80","pricing_plan_id":"cebpf4jnsgd1na2vs0mg"},{"bike_id":"bfab2619-5b6c-4377-8570-f4ac028372b0","system_id":"levelo_inurba_marseille","lat":43.25504,"lon":5.37653,"is_reserved":false,"is_disabled":false,"rental_uris":{"android":"levelo://app?vid=bfab2619-5b6c-4377-8570-f4ac028372b0","ios":"levelo://app?vid=bfab2619-5b6c-4377-8570-f4ac028372b0"},"vehicle_type_id":"4","last_reported":1741191397,"current_range_meters":11200,"station_id":"ce4bhh12rcd13ifvqff0","pricing_plan_id":"cebpf4jnsgd1na2vs0mg"},{"bike_id":"d54ff2bb-a0b4-4c31-a2e9-5b901c66f51d","system_id":"levelo_inurba_marseille","lat":43.29615,"lon":5.38073,"is_reserved":false,"is_disabled":false,"rental_uris":{"android":"levelo://app?vid=d54ff2bb-a0b4-4c31-a2e9-5b901c66f51d","ios":"levelo://app?vid=d54ff2bb-a0b4-4c31-a2e9-5b901c66f51d"},"vehicle_type_id":"4","last_reported":1741191397,"current_range_meters":11200,"station_id":"ce4bgl12rcd13ifvqbo0","pricing_plan_id":"cebpf4jnsgd1na2vs0mg"},{"bike_id":"64cf50da-b24e-44c5-94ce-2cbc9a9565cd","system_id":"levelo_inurba_marseille","lat":43.31222,"lon":5.36851,"is_reserved":false,"is_disabled":false,"rental_uris":{"android":"levelo://app?vid=64cf50da-b24e-44c5-94ce-2cbc9a9565cd","ios":"levelo://app?vid=64cf50da-b24e-44c5-94ce-2cbc9a9565cd"},"vehicle_type_id":"4","last_reported":1741191397,"current_range_meters":11200,"station_id":"ce4bgl92rcd13ifvqbq0","pricing_plan_id":"cebpf4jnsgd1na2vs0mg"},{"bike_id":"8cc56c61-288d-46f3-a47d-b51f9269aef8","system_id":"levelo_inurba_marseille","lat":43.31064,"lon":5.38352,"is_reserved":false,"is_disabled":false,"rental_uris":{"android":"levelo://app?vid=8cc56c61-288d-46f3-a47d-b51f9269aef8","ios":"levelo://app?vid=8cc56c61-288d-46f3-a47d-b51f9269aef8"},"vehicle_type_id":"4","last_reported":1741191397,"current_range_meters":11200,"station_id":"ce4bgv92rcd13ifvqcr0","pricing_plan_id":"cebpf4jnsgd1na2vs0mg"},{"bike_id":"af17bfe5-e34b-426d-b36a-179877501255","system_id":"levelo_inurba_marseille","lat":43.29849,"lon":5.36289,"is_reserved":false,"is_disabled":false,"rental_uris":{"android":"levelo://app?vid=af17bfe5-e34b-426d-b36a-179877501255","ios":"levelo://app?vid=af17bfe5-e34b-426d-b36a-179877501255"},"vehicle_type_id":"4","last_reported":1741191397,"current_range_meters":11200,"station_id":"ce4bgpp2rcd13ifvqc3g","pricing_plan_id":"cebpf4jnsgd1na2vs0mg"},{"bike_id":"f8b3a8d2-6d2c-46a0-8fd0-de281e77edc8","system_id":"levelo_inurba_marseille","lat":43.30654,"lon":5.40085,"is_reserved":false,"is_disabled":false,"rental_uris":{"android":"levelo://app?vid=f8b3a8d2-6d2c-46a0-8fd0-de281e77edc8","ios":"levelo://app?vid=f8b3a8d2-6d2c-46a0-8fd0-de281e77edc8"},"vehicle_type_id":"4","last_reported":1741191397,"current_range_meters":11200,"station_id":"ce4bh112rcd13ifvqda0","pricing_plan_id":"cebpf4jnsgd1na2vs0mg"},{"bike_id":"8e67c6c2-1f86-420e-855b-676e159ed831","system_id":"levelo_inurba_marseille","lat":43.2306,"lon":5.35505,"is_reserved":false,"is_disabled":false,"rental_uris":{"android":"levelo://app?vid=8e67c6c2-1f86-420e-855b-676e159ed831","ios":"levelo://app?vid=8e67c6c2-1f86-420e-855b-676e159ed831"},"vehicle_type_id":"4","last_reported":1741191397,"current_range_meters":11600,"station_id":"cpo3342slgdg3j2ifvpg","pricing_plan_id":"cebpf4jnsgd1na2vs0mg"},{"bike_id":"8356d00d-c9de-4d67-9c6a-16895a9954b9","system_id":"levelo_inurba_marseille","lat":43.31765,"lon":5.39005,"is_reserved":false,"is_disabled":false,"rental_uris":{"android":"levelo://app?vid=8356d00d-c9de-4d67-9c6a-16895a9954b9","ios":"levelo://app?vid=8356d00d-c9de-4d67-9c6a-16895a9954b9"},"vehicle_type_id":"4","last_reported":1741191397,"current_range_meters":11600,"station_id":"ce4bhqp2rcd13ifvqhng","pricing_plan_id":"cebpf4jnsgd1na2vs0mg"},{"bike_id":"a8f00c53-7a32-4924-be6a-6f49ff58e5a4","system_id":"levelo_inurba_marseille","lat":43.231432,"lon":5.43727,"is_reserved":false,"is_disabled":false,"rental_uris":{"android":"levelo://app?vid=a8f00c53-7a32-4924-be6a-6f49ff58e5a4","ios":"levelo://app?vid=a8f00c53-7a32-4924-be6a-6f49ff58e5a4"},"vehicle_type_id":"4","last_reported":1741191397,"current_range_meters":11600,"station_id":"ce4bhmp2rcd13ifvqgog","pricing_plan_id":"cebpf4jnsgd1na2vs0mg"},{"bike_id":"cba6a766-3158-4fdc-849a-5887af830bdc","system_id":"levelo_inurba_marseille","lat":43.29246,"lon":5.38215,"is_reserved":false,"is_disabled":false,"rental_uris":{"android":"levelo://app?vid=cba6a766-3158-4fdc-849a-5887af830bdc","ios":"levelo://app?vid=cba6a766-3158-4fdc-849a-5887af830bdc"},"vehicle_type_id":"4","last_reported":1741191397,"current_range_meters":12000,"station_id":"","pricing_plan_id":"cebpf4jnsgd1na2vs0mg"},{"bike_id":"8b65a1a7-ad9e-4a10-85ef-2ed36b3bd897","system_id":"levelo_inurba_marseille","lat":43.29021,"lon":5.38645,"is_reserved":false,"is_disabled":false,"rental_uris":{"android":"levelo://app?vid=8b65a1a7-ad9e-4a10-85ef-2ed36b3bd897","ios":"levelo://app?vid=8b65a1a7-ad9e-4a10-85ef-2ed36b3bd897"},"vehicle_type_id":"4","last_reported":1741191397,"current_range_meters":12000,"station_id":"ce4bh4p2rcd13ifvqe0g","pricing_plan_id":"cebpf4jnsgd1na2vs0mg"},{"bike_id":"ee9a240e-2354-446e-9c12-cc07d9383320","system_id":"levelo_inurba_marseille","lat":43.30297,"lon":5.39201,"is_reserved":false,"is_disabled":false,"rental_uris":{"android":"levelo://app?vid=ee9a240e-2354-446e-9c12-cc07d9383320","ios":"levelo://app?vid=ee9a240e-2354-446e-9c12-cc07d9383320"},"vehicle_type_id":"4","last_reported":1741191397,"current_range_meters":12000,"station_id":"ce4bgkh2rcd13ifvqbk0","pricing_plan_id":"cebpf4jnsgd1na2vs0mg"},{"bike_id":"3c02b14d-4d6f-4bc2-a50d-04af65ec09ef","system_id":"levelo_inurba_marseille","lat":43.2985,"lon":5.36285,"is_reserved":false,"is_disabled":false,"rental_uris":{"android":"levelo://app?vid=3c02b14d-4d6f-4bc2-a50d-04af65ec09ef","ios":"levelo://app?vid=3c02b14d-4d6f-4bc2-a50d-04af65ec09ef"},"vehicle_type_id":"4","last_reported":1741191397,"current_range_meters":12000,"station_id":"ce4bgpp2rcd13ifvqc3g","pricing_plan_id":"cebpf4jnsgd1na2vs0mg"},{"bike_id":"096f3379-de9c-4ed9-9eb1-687fd3153fa6","system_id":"levelo_inurba_marseille","lat":43.2817,"lon":5.42579,"is_reserved":false,"is_disabled":false,"rental_uris":{"android":"levelo://app?vid=096f3379-de9c-4ed9-9eb1-687fd3153fa6","ios":"levelo://app?vid=096f3379-de9c-4ed9-9eb1-687fd3153fa6"},"vehicle_type_id":"4","last_reported":1741191397,"current_range_meters":12000,"station_id":"","pricing_plan_id":"cebpf4jnsgd1na2vs0mg"},{"bike_id":"cd0adcec-a5f9-435e-b965-9859e3b773ec","system_id":"levelo_inurba_marseille","lat":43.27358,"lon":5.36238,"is_reserved":false,"is_disabled":false,"rental_uris":{"android":"levelo://app?vid=cd0adcec-a5f9-435e-b965-9859e3b773ec","ios":"levelo://app?vid=cd0adcec-a5f9-435e-b965-9859e3b773ec"},"vehicle_type_id":"4","last_reported":1741191397,"current_range_meters":12400,"station_id":"ce4bhbh2rcd13ifvqeo0","pricing_plan_id":"cebpf4jnsgd1na2vs0mg"},{"bike_id":"4d2c2c9c-57d7-42a3-837b-c7e76f7e6524","system_id":"levelo_inurba_marseille","lat":43.26804,"lon":5.40267,"is_reserved":false,"is_disabled":false,"rental_uris":{"android":"levelo://app?vid=4d2c2c9c-57d7-42a3-837b-c7e76f7e6524","ios":"levelo://app?vid=4d2c2c9c-57d7-42a3-837b-c7e76f7e6524"},"vehicle_type_id":"4","last_reported":1741191397,"current_range_meters":12400,"station_id":"ce501612rcd8frsf0b60","pricing_plan_id":"cebpf4jnsgd1na2vs0mg"},{"bike_id":"7b8fb03e-1af1-4454-933c-a9658aadc4cd","system_id":"levelo_inurba_marseille","lat":43.31878,"lon":5.40741,"is_reserved":false,"is_disabled":false,"rental_uris":{"android":"levelo://app?vid=7b8fb03e-1af1-4454-933c-a9658aadc4cd","ios":"levelo://app?vid=7b8fb03e-1af1-4454-933c-a9658aadc4cd"},"vehicle_type_id":"4","last_reported":1741191397,"current_range_meters":12400,"station_id":"ce4bhq12rcd13ifvqhig","pricing_plan_id":"cebpf4jnsgd1na2vs0mg"},{"bike_id":"ee59b3a3-0f87-489f-91b5-15c91569f1b2","system_id":"levelo_inurba_marseille","lat":43.24161,"lon":5.36398,"is_reserved":false,"is_disabled":false,"rental_uris":{"android":"levelo://app?vid=ee59b3a3-0f87-489f-91b5-15c91569f1b2","ios":"levelo://app?vid=ee59b3a3-0f87-489f-91b5-15c91569f1b2"},"vehicle_type_id":"4","last_reported":1741191397,"current_range_meters":12400,"station_id":"cpo36qri1sfpv3e86is0","pricing_plan_id":"cebpf4jnsgd1na2vs0mg"},{"bike_id":"330426bc-0af9-4c3e-8e4c-6ec10833df11","system_id":"levelo_inurba_marseille","lat":43.299038,"lon":5.436721,"is_reserved":false,"is_disabled":false,"rental_uris":{"android":"levelo://app?vid=330426bc-0af9-4c3e-8e4c-6ec10833df11","ios":"levelo://app?vid=330426bc-0af9-4c3e-8e4c-6ec10833df11"},"vehicle_type_id":"4","last_reported":1741191397,"current_range_meters":12400,"station_id":"ce4bhpp2rcd13ifvqhfg","pricing_plan_id":"cebpf4jnsgd1na2vs0mg"},{"bike_id":"e64e3fd9-d2f1-4ab8-9bfe-777b61ebe7df","system_id":"levelo_inurba_marseille","lat":43.29525,"lon":5.38531,"is_reserved":false,"is_disabled":false,"rental_uris":{"android":"levelo://app?vid=e64e3fd9-d2f1-4ab8-9bfe-777b61ebe7df","ios":"levelo://app?vid=e64e3fd9-d2f1-4ab8-9bfe-777b61ebe7df"},"vehicle_type_id":"4","last_reported":1741191397,"current_range_meters":12400,"station_id":"ce4bgih2rcd13ifvqba0","pricing_plan_id":"cebpf4jnsgd1na2vs0mg"},{"bike_id":"9ef59549-cbfe-4e48-9d4e-471b413b30f2","system_id":"levelo_inurba_marseille","lat":43.29186,"lon":5.3932,"is_reserved":false,"is_disabled":false,"rental_uris":{"android":"levelo://app?vid=9ef59549-cbfe-4e48-9d4e-471b413b30f2","ios":"levelo://app?vid=9ef59549-cbfe-4e48-9d4e-471b413b30f2"},"vehicle_type_id":"4","last_reported":1741191397,"current_range_meters":12400,"station_id":"ce4bh192rcd13ifvqdd0","pricing_plan_id":"cebpf4jnsgd1na2vs0mg"},{"bike_id":"65a3ce04-1798-4c72-bb5d-11a6839babee","system_id":"levelo_inurba_marseille","lat":43.31332,"lon":5.39694,"is_reserved":false,"is_disabled":false,"rental_uris":{"android":"levelo://app?vid=65a3ce04-1798-4c72-bb5d-11a6839babee","ios":"levelo://app?vid=65a3ce04-1798-4c72-bb5d-11a6839babee"},"vehicle_type_id":"4","last_reported":1741191397,"current_range_meters":12800,"station_id":"ce4bgvp2rcd13ifvqcu0","pricing_plan_id":"cebpf4jnsgd1na2vs0mg"},{"bike_id":"529fe18c-f843-47e8-8284-9e721e2c64e4","system_id":"levelo_inurba_marseille","lat":43.29881,"lon":5.38912,"is_reserved":false,"is_disabled":false,"rental_uris":{"android":"levelo://app?vid=529fe18c-f843-47e8-8284-9e721e2c64e4","ios":"levelo://app?vid=529fe18c-f843-47e8-8284-9e721e2c64e4"},"vehicle_type_id":"4","last_reported":1741191397,"current_range_meters":12800,"station_id":"ce4bh392rcd13ifvqdl0","pricing_plan_id":"cebpf4jnsgd1na2vs0mg"},{"bike_id":"d7345a9f-8cbf-4539-b5cd-916ed56c8595","system_id":"levelo_inurba_marseille","lat":43.27974,"lon":5.38726,"is_reserved":false,"is_disabled":false,"rental_uris":{"android":"levelo://app?vid=d7345a9f-8cbf-4539-b5cd-916ed56c8595","ios":"levelo://app?vid=d7345a9f-8cbf-4539-b5cd-916ed56c8595"},"vehicle_type_id":"4","last_reported":1741191397,"current_range_meters":12800,"station_id":"ce4bhg12rcd13ifvqf80","pricing_plan_id":"cebpf4jnsgd1na2vs0mg"},{"bike_id":"fa98af60-ad58-4ccc-a5a0-6ebd1ae22394","system_id":"levelo_inurba_marseille","lat":43.28099,"lon":5.37857,"is_reserved":false,"is_disabled":false,"rental_uris":{"android":"levelo://app?vid=fa98af60-ad58-4ccc-a5a0-6ebd1ae22394","ios":"levelo://app?vid=fa98af60-ad58-4ccc-a5a0-6ebd1ae22394"},"vehicle_type_id":"4","last_reported":1741191397,"current_range_meters":12800,"station_id":"ce4bha12rcd13ifvqee0","pricing_plan_id":"cebpf4jnsgd1na2vs0mg"},{"bike_id":"13ad65d1-9480-4388-bea9-80b92b227e67","system_id":"levelo_inurba_marseille","lat":43.32455,"lon":5.36552,"is_reserved":false,"is_disabled":false,"rental_uris":{"android":"levelo://app?vid=13ad65d1-9480-4388-bea9-80b92b227e67","ios":"levelo://app?vid=13ad65d1-9480-4388-bea9-80b92b227e67"},"vehicle_type_id":"4","last_reported":1741191397,"current_range_meters":12800,"station_id":"ce4bhs12rcd13ifvqhvg","pricing_plan_id":"cebpf4jnsgd1na2vs0mg"},{"bike_id":"5cb3e475-d1c3-4bea-bb58-71ceaca27c06","system_id":"levelo_inurba_marseille","lat":43.28422,"lon":5.34988,"is_reserved":false,"is_disabled":false,"rental_uris":{"android":"levelo://app?vid=5cb3e475-d1c3-4bea-bb58-71ceaca27c06","ios":"levelo://app?vid=5cb3e475-d1c3-4bea-bb58-71ceaca27c06"},"vehicle_type_id":"4","last_reported":1741191397,"current_range_meters":13600,"station_id":"ce4bhbh2rcd13ifvqepg","pricing_plan_id":"cebpf4jnsgd1na2vs0mg"},{"bike_id":"19707f4e-57a0-487d-a0fd-b6e158a12fa5","system_id":"levelo_inurba_marseille","lat":43.28103,"lon":5.37842,"is_reserved":false,"is_disabled":false,"rental_uris":{"android":"levelo://app?vid=19707f4e-57a0-487d-a0fd-b6e158a12fa5","ios":"levelo://app?vid=19707f4e-57a0-487d-a0fd-b6e158a12fa5"},"vehicle_type_id":"4","last_reported":1741191397,"current_range_meters":13600,"station_id":"ce4bha12rcd13ifvqee0","pricing_plan_id":"cebpf4jnsgd1na2vs0mg"},{"bike_id":"11fe9f17-96bb-4c3e-a194-89b161d7eded","system_id":"levelo_inurba_marseille","lat":43.26557,"lon":5.37314,"is_reserved":false,"is_disabled":false,"rental_uris":{"android":"levelo://app?vid=11fe9f17-96bb-4c3e-a194-89b161d7eded","ios":"levelo://app?vid=11fe9f17-96bb-4c3e-a194-89b161d7eded"},"vehicle_type_id":"4","last_reported":1741191397,"current_range_meters":13600,"station_id":"ce4bhg12rcd13ifvqf70","pricing_plan_id":"cebpf4jnsgd1na2vs0mg"},{"bike_id":"208b3032-da07-456e-b8c1-a55da8b36578","system_id":"levelo_inurba_marseille","lat":43.30785,"lon":5.38168,"is_reserved":false,"is_disabled":false,"rental_uris":{"android":"levelo://app?vid=208b3032-da07-456e-b8c1-a55da8b36578","ios":"levelo://app?vid=208b3032-da07-456e-b8c1-a55da8b36578"},"vehicle_type_id":"4","last_reported":1741191397,"current_range_meters":13600,"station_id":"ce4bgt12rcd13ifvqce0","pricing_plan_id":"cebpf4jnsgd1na2vs0mg"},{"bike_id":"d1a039fe-c75c-4f51-8b31-ef96bba420a5","system_id":"levelo_inurba_marseille","lat":43.286592,"lon":5.363436,"is_reserved":false,"is_disabled":false,"rental_uris":{"android":"levelo://app?vid=d1a039fe-c75c-4f51-8b31-ef96bba420a5","ios":"levelo://app?vid=d1a039fe-c75c-4f51-8b31-ef96bba420a5"},"vehicle_type_id":"4","last_reported":1741191397,"current_range_meters":14000,"station_id":"ce4bhah2rcd13ifvqej0","pricing_plan_id":"cebpf4jnsgd1na2vs0mg"},{"bike_id":"12290ace-6181-496c-99c5-405d3ba92c8a","system_id":"levelo_inurba_marseille","lat":43.30138,"lon":5.39866,"is_reserved":false,"is_disabled":false,"rental_uris":{"android":"levelo://app?vid=12290ace-6181-496c-99c5-405d3ba92c8a","ios":"levelo://app?vid=12290ace-6181-496c-99c5-405d3ba92c8a"},"vehicle_type_id":"4","last_reported":1741191397,"current_range_meters":14000,"station_id":"ce4bh0h2rcd13ifvqd40","pricing_plan_id":"cebpf4jnsgd1na2vs0mg"},{"bike_id":"5f693548-07f6-48ee-831f-95e9341245d8","system_id":"levelo_inurba_marseille","lat":43.28007,"lon":5.40004,"is_reserved":false,"is_disabled":false,"rental_uris":{"android":"levelo://app?vid=5f693548-07f6-48ee-831f-95e9341245d8","ios":"levelo://app?vid=5f693548-07f6-48ee-831f-95e9341245d8"},"vehicle_type_id":"4","last_reported":1741191397,"current_range_meters":14400,"station_id":"ce4bho92rcd13ifvqh4g","pricing_plan_id":"cebpf4jnsgd1na2vs0mg"},{"bike_id":"c5ae2213-4e20-4b4f-a1cd-7beed3519602","system_id":"levelo_inurba_marseille","lat":43.27072,"lon":5.4228,"is_reserved":false,"is_disabled":false,"rental_uris":{"android":"levelo://app?vid=c5ae2213-4e20-4b4f-a1cd-7beed3519602","ios":"levelo://app?vid=c5ae2213-4e20-4b4f-a1cd-7beed3519602"},"vehicle_type_id":"4","last_reported":1741191397,"current_range_meters":14400,"station_id":"ce4bhk92rcd13ifvqgb0","pricing_plan_id":"cebpf4jnsgd1na2vs0mg"},{"bike_id":"1cfc9c5f-54af-40e6-8245-4f580f3f70f1","system_id":"levelo_inurba_marseille","lat":43.33024,"lon":5.39043,"is_reserved":false,"is_disabled":false,"rental_uris":{"android":"levelo://app?vid=1cfc9c5f-54af-40e6-8245-4f580f3f70f1","ios":"levelo://app?vid=1cfc9c5f-54af-40e6-8245-4f580f3f70f1"},"vehicle_type_id":"4","last_reported":1741191397,"current_range_meters":14400,"station_id":"ce4bhr92rcd13ifvqhrg","pricing_plan_id":"cebpf4jnsgd1na2vs0mg"},{"bike_id":"5cccd927-e86b-4020-9894-5f1ad718832a","system_id":"levelo_inurba_marseille","lat":43.28422,"lon":5.34986,"is_reserved":false,"is_disabled":false,"rental_uris":{"android":"levelo://app?vid=5cccd927-e86b-4020-9894-5f1ad718832a","ios":"levelo://app?vid=5cccd927-e86b-4020-9894-5f1ad718832a"},"vehicle_type_id":"4","last_reported":1741191397,"current_range_meters":14400,"station_id":"ce4bhbh2rcd13ifvqepg","pricing_plan_id":"cebpf4jnsgd1na2vs0mg"},{"bike_id":"070f0b28-933a-491f-9593-eed632e613d2","system_id":"levelo_inurba_marseille","lat":43.3372,"lon":5.39191,"is_reserved":false,"is_disabled":false,"rental_uris":{"android":"levelo://app?vid=070f0b28-933a-491f-9593-eed632e613d2","ios":"levelo://app?vid=070f0b28-933a-491f-9593-eed632e613d2"},"vehicle_type_id":"4","last_reported":1741191397,"current_range_meters":14800,"station_id":"ce4bhr92rcd13ifvqhsg","pricing_plan_id":"cebpf4jnsgd1na2vs0mg"},{"bike_id":"7f1905bf-da4d-4f13-af14-c5d46804e585","system_id":"levelo_inurba_marseille","lat":43.23188,"lon":5.3556,"is_reserved":false,"is_disabled":false,"rental_uris":{"android":"levelo://app?vid=7f1905bf-da4d-4f13-af14-c5d46804e585","ios":"levelo://app?vid=7f1905bf-da4d-4f13-af14-c5d46804e585"},"vehicle_type_id":"4","last_reported":1741191397,"current_range_meters":14800,"station_id":"ce4bhu92rcd13ifvqi70","pricing_plan_id":"cebpf4jnsgd1na2vs0mg"},{"bike_id":"0b3cb245-c1ab-4265-9e03-36f6b9bfa685","system_id":"levelo_inurba_marseille","lat":43.23059,"lon":5.35509,"is_reserved":false,"is_disabled":false,"rental_uris":{"android":"levelo://app?vid=0b3cb245-c1ab-4265-9e03-36f6b9bfa685","ios":"levelo://app?vid=0b3cb245-c1ab-4265-9e03-36f6b9bfa685"},"vehicle_type_id":"4","last_reported":1741191397,"current_range_meters":14800,"station_id":"cpo3342slgdg3j2ifvpg","pricing_plan_id":"cebpf4jnsgd1na2vs0mg"},{"bike_id":"baf37027-a823-4946-a35c-ef3a6d116b0b","system_id":"levelo_inurba_marseille","lat":43.28261,"lon":5.3507,"is_reserved":false,"is_disabled":false,"rental_uris":{"android":"levelo://app?vid=baf37027-a823-4946-a35c-ef3a6d116b0b","ios":"levelo://app?vid=baf37027-a823-4946-a35c-ef3a6d116b0b"},"vehicle_type_id":"4","last_reported":1741191397,"current_range_meters":14800,"station_id":"ce4bhbp2rcd13ifvqerg","pricing_plan_id":"cebpf4jnsgd1na2vs0mg"},{"bike_id":"42f3fd83-d5cd-45ba-afcf-0a822294d812","system_id":"levelo_inurba_marseille","lat":43.2858,"lon":5.42985,"is_reserved":false,"is_disabled":true,"rental_uris":{"android":"levelo://app?vid=42f3fd83-d5cd-45ba-afcf-0a822294d812","ios":"levelo://app?vid=42f3fd83-d5cd-45ba-afcf-0a822294d812"},"vehicle_type_id":"4","last_reported":1741191397,"current_range_meters":15200,"station_id":"","pricing_plan_id":"cebpf4jnsgd1na2vs0mg"},{"bike_id":"43da80e8-76e9-4572-a5b4-0142316b8b33","system_id":"levelo_inurba_marseille","lat":43.29251,"lon":5.40898,"is_reserved":false,"is_disabled":false,"rental_uris":{"android":"levelo://app?vid=43da80e8-76e9-4572-a5b4-0142316b8b33","ios":"levelo://app?vid=43da80e8-76e9-4572-a5b4-0142316b8b33"},"vehicle_type_id":"4","last_reported":1741191397,"current_range_meters":15200,"station_id":"ce4bh192rcd13ifvqdc0","pricing_plan_id":"cebpf4jnsgd1na2vs0mg"},{"bike_id":"e926d17c-797a-49b3-9f47-7e2c9aa57c52","system_id":"levelo_inurba_marseille","lat":43.30932,"lon":5.40151,"is_reserved":false,"is_disabled":false,"rental_uris":{"android":"levelo://app?vid=e926d17c-797a-49b3-9f47-7e2c9aa57c52","ios":"levelo://app?vid=e926d17c-797a-49b3-9f47-7e2c9aa57c52"},"vehicle_type_id":"4","last_reported":1741191397,"current_range_meters":15200,"station_id":"ce4bh0h2rcd13ifvqd60","pricing_plan_id":"cebpf4jnsgd1na2vs0mg"},{"bike_id":"b7d46c19-8fbd-4d11-994c-f336dd0acbae","system_id":"levelo_inurba_marseille","lat":43.25003,"lon":5.38938,"is_reserved":false,"is_disabled":false,"rental_uris":{"android":"levelo://app?vid=b7d46c19-8fbd-4d11-994c-f336dd0acbae","ios":"levelo://app?vid=b7d46c19-8fbd-4d11-994c-f336dd0acbae"},"vehicle_type_id":"4","last_reported":1741191397,"current_range_meters":16000,"station_id":"ce4bhgp2rcd13ifvqfd0","pricing_plan_id":"cebpf4jnsgd1na2vs0mg"},{"bike_id":"48dd4a66-c4e0-4334-8dbe-e71a1ce9eb4d","system_id":"levelo_inurba_marseille","lat":43.28118,"lon":5.37877,"is_reserved":false,"is_disabled":false,"rental_uris":{"android":"levelo://app?vid=48dd4a66-c4e0-4334-8dbe-e71a1ce9eb4d","ios":"levelo://app?vid=48dd4a66-c4e0-4334-8dbe-e71a1ce9eb4d"},"vehicle_type_id":"4","last_reported":1741191397,"current_range_meters":16000,"station_id":"ce4bha12rcd13ifvqee0","pricing_plan_id":"cebpf4jnsgd1na2vs0mg"},{"bike_id":"5981e5fd-8ca3-4e17-921d-10437ee17d35","system_id":"levelo_inurba_marseille","lat":43.24166,"lon":5.36393,"is_reserved":false,"is_disabled":false,"rental_uris":{"android":"levelo://app?vid=5981e5fd-8ca3-4e17-921d-10437ee17d35","ios":"levelo://app?vid=5981e5fd-8ca3-4e17-921d-10437ee17d35"},"vehicle_type_id":"4","last_reported":1741191397,"current_range_meters":16000,"station_id":"cpo36qri1sfpv3e86is0","pricing_plan_id":"cebpf4jnsgd1na2vs0mg"},{"bike_id":"2c4a52ad-5329-466d-bdf1-01a79d4d71a2","system_id":"levelo_inurba_marseille","lat":43.29177,"lon":5.37148,"is_reserved":false,"is_disabled":false,"rental_uris":{"android":"levelo://app?vid=2c4a52ad-5329-466d-bdf1-01a79d4d71a2","ios":"levelo://app?vid=2c4a52ad-5329-466d-bdf1-01a79d4d71a2"},"vehicle_type_id":"4","last_reported":1741191397,"current_range_meters":16000,"station_id":"ce4bha92rcd13ifvqeh0","pricing_plan_id":"cebpf4jnsgd1na2vs0mg"},{"bike_id":"bb06b0a7-36a7-4080-95c6-338b8b909ff1","system_id":"levelo_inurba_marseille","lat":43.30148,"lon":5.37425,"is_reserved":false,"is_disabled":false,"rental_uris":{"android":"levelo://app?vid=bb06b0a7-36a7-4080-95c6-338b8b909ff1","ios":"levelo://app?vid=bb06b0a7-36a7-4080-95c6-338b8b909ff1"},"vehicle_type_id":"4","last_reported":1741191397,"current_range_meters":16000,"station_id":"ce4bgs92rcd13ifvqcc0","pricing_plan_id":"cebpf4jnsgd1na2vs0mg"},{"bike_id":"f479ac93-543a-42d9-8381-9fd9b8d80442","system_id":"levelo_inurba_marseille","lat":43.303839,"lon":5.37856,"is_reserved":false,"is_disabled":false,"rental_uris":{"android":"levelo://app?vid=f479ac93-543a-42d9-8381-9fd9b8d80442","ios":"levelo://app?vid=f479ac93-543a-42d9-8381-9fd9b8d80442"},"vehicle_type_id":"4","last_reported":1741191397,"current_range_meters":16400,"station_id":"ce4bgjh2rcd13ifvqbg0","pricing_plan_id":"cebpf4jnsgd1na2vs0mg"},{"bike_id":"1bdbd372-f8e0-49a5-a16a-c1e44da99cb4","system_id":"levelo_inurba_marseille","lat":43.29978,"lon":5.3717,"is_reserved":false,"is_disabled":false,"rental_uris":{"android":"levelo://app?vid=1bdbd372-f8e0-49a5-a16a-c1e44da99cb4","ios":"levelo://app?vid=1bdbd372-f8e0-49a5-a16a-c1e44da99cb4"},"vehicle_type_id":"4","last_reported":1741191397,"current_range_meters":16400,"station_id":"ce4bgr92rcd13ifvqc7g","pricing_plan_id":"cebpf4jnsgd1na2vs0mg"},{"bike_id":"71fb48e4-ded9-426f-b698-a9bea73cfef5","system_id":"levelo_inurba_marseille","lat":43.28275,"lon":5.35075,"is_reserved":false,"is_disabled":false,"rental_uris":{"android":"levelo://app?vid=71fb48e4-ded9-426f-b698-a9bea73cfef5","ios":"levelo://app?vid=71fb48e4-ded9-426f-b698-a9bea73cfef5"},"vehicle_type_id":"4","last_reported":1741191397,"current_range_meters":16400,"station_id":"ce4bhbp2rcd13ifvqerg","pricing_plan_id":"cebpf4jnsgd1na2vs0mg"},{"bike_id":"b6a42f2a-3f43-4db6-ae35-3f8d17777453","system_id":"levelo_inurba_marseille","lat":43.28418,"lon":5.34984,"is_reserved":false,"is_disabled":false,"rental_uris":{"android":"levelo://app?vid=b6a42f2a-3f43-4db6-ae35-3f8d17777453","ios":"levelo://app?vid=b6a42f2a-3f43-4db6-ae35-3f8d17777453"},"vehicle_type_id":"4","last_reported":1741191397,"current_range_meters":16400,"station_id":"ce4bhbh2rcd13ifvqepg","pricing_plan_id":"cebpf4jnsgd1na2vs0mg"},{"bike_id":"c5e46d82-d9a0-452c-a125-bbbee3eb847e","system_id":"levelo_inurba_marseille","lat":43.28273,"lon":5.3508,"is_reserved":false,"is_disabled":false,"rental_uris":{"android":"levelo://app?vid=c5e46d82-d9a0-452c-a125-bbbee3eb847e","ios":"levelo://app?vid=c5e46d82-d9a0-452c-a125-bbbee3eb847e"},"vehicle_type_id":"4","last_reported":1741191397,"current_range_meters":16400,"station_id":"ce4bhbp2rcd13ifvqerg","pricing_plan_id":"cebpf4jnsgd1na2vs0mg"},{"bike_id":"fbf389b1-160d-46fe-b82f-205dfa96cdd7","system_id":"levelo_inurba_marseille","lat":43.27916,"lon":5.39579,"is_reserved":false,"is_disabled":false,"rental_uris":{"android":"levelo://app?vid=fbf389b1-160d-46fe-b82f-205dfa96cdd7","ios":"levelo://app?vid=fbf389b1-160d-46fe-b82f-205dfa96cdd7"},"vehicle_type_id":"4","last_reported":1741191397,"current_range_meters":16400,"station_id":"ce4bhf92rcd13ifvqf40","pricing_plan_id":"cebpf4jnsgd1na2vs0mg"},{"bike_id":"fed10e2c-6c34-4bde-8042-32583720c2f2","system_id":"levelo_inurba_marseille","lat":43.29017,"lon":5.37555,"is_reserved":false,"is_disabled":false,"rental_uris":{"android":"levelo://app?vid=fed10e2c-6c34-4bde-8042-32583720c2f2","ios":"levelo://app?vid=fed10e2c-6c34-4bde-8042-32583720c2f2"},"vehicle_type_id":"4","last_reported":1741191397,"current_range_meters":16400,"station_id":"ce4bh692rcd13ifvqe90","pricing_plan_id":"cebpf4jnsgd1na2vs0mg"},{"bike_id":"79c0ce9a-110a-4bb7-908d-39aa5223445d","system_id":"levelo_inurba_marseille","lat":43.30878,"lon":5.39646,"is_reserved":false,"is_disabled":false,"rental_uris":{"android":"levelo://app?vid=79c0ce9a-110a-4bb7-908d-39aa5223445d","ios":"levelo://app?vid=79c0ce9a-110a-4bb7-908d-39aa5223445d"},"vehicle_type_id":"4","last_reported":1741191397,"current_range_meters":16400,"station_id":"ce4bh012rcd13ifvqcv0","pricing_plan_id":"cebpf4jnsgd1na2vs0mg"},{"bike_id":"f99fa731-8fc2-46c1-b18e-84121f5d1002","system_id":"levelo_inurba_marseille","lat":43.31326,"lon":5.39708,"is_reserved":false,"is_disabled":false,"rental_uris":{"android":"levelo://app?vid=f99fa731-8fc2-46c1-b18e-84121f5d1002","ios":"levelo://app?vid=f99fa731-8fc2-46c1-b18e-84121f5d1002"},"vehicle_type_id":"4","last_reported":1741191397,"current_range_meters":16400,"station_id":"ce4bgvp2rcd13ifvqcu0","pricing_plan_id":"cebpf4jnsgd1na2vs0mg"},{"bike_id":"9285d202-c844-4801-be94-ca8011f1a499","system_id":"levelo_inurba_marseille","lat":43.28666,"lon":5.36366,"is_reserved":false,"is_disabled":false,"rental_uris":{"android":"levelo://app?vid=9285d202-c844-4801-be94-ca8011f1a499","ios":"levelo://app?vid=9285d202-c844-4801-be94-ca8011f1a499"},"vehicle_type_id":"4","last_reported":1741191397,"current_range_meters":16400,"station_id":"ce4bhah2rcd13ifvqej0","pricing_plan_id":"cebpf4jnsgd1na2vs0mg"},{"bike_id":"385ff00b-5e94-4dea-9282-faceef503586","system_id":"levelo_inurba_marseille","lat":43.2979,"lon":5.3933,"is_reserved":false,"is_disabled":false,"rental_uris":{"android":"levelo://app?vid=385ff00b-5e94-4dea-9282-faceef503586","ios":"levelo://app?vid=385ff00b-5e94-4dea-9282-faceef503586"},"vehicle_type_id":"4","last_reported":1741191397,"current_range_meters":16400,"station_id":"chh1huq6cuj3fo74tm60","pricing_plan_id":"cebpf4jnsgd1na2vs0mg"},{"bike_id":"3876d9bd-adfb-442d-9f99-3f7cf09f44da","system_id":"levelo_inurba_marseille","lat":43.31483,"lon":5.37304,"is_reserved":false,"is_disabled":false,"rental_uris":{"android":"levelo://app?vid=3876d9bd-adfb-442d-9f99-3f7cf09f44da","ios":"levelo://app?vid=3876d9bd-adfb-442d-9f99-3f7cf09f44da"},"vehicle_type_id":"4","last_reported":1741191397,"current_range_meters":16400,"station_id":"ce4bgt12rcd13ifvqcd0","pricing_plan_id":"cebpf4jnsgd1na2vs0mg"},{"bike_id":"a902a3a9-4c75-4f32-8efb-a347fee4fbc0","system_id":"levelo_inurba_marseille","lat":43.28492,"lon":5.38402,"is_reserved":false,"is_disabled":false,"rental_uris":{"android":"levelo://app?vid=a902a3a9-4c75-4f32-8efb-a347fee4fbc0","ios":"levelo://app?vid=a902a3a9-4c75-4f32-8efb-a347fee4fbc0"},"vehicle_type_id":"4","last_reported":1741191397,"current_range_meters":16400,"station_id":"ce4bh512rcd13ifvqe3g","pricing_plan_id":"cebpf4jnsgd1na2vs0mg"},{"bike_id":"ff7d0048-50ee-45d1-b2bf-4dee74129e9f","system_id":"levelo_inurba_marseille","lat":43.28267,"lon":5.35061,"is_reserved":false,"is_disabled":false,"rental_uris":{"android":"levelo://app?vid=ff7d0048-50ee-45d1-b2bf-4dee74129e9f","ios":"levelo://app?vid=ff7d0048-50ee-45d1-b2bf-4dee74129e9f"},"vehicle_type_id":"4","last_reported":1741191397,"current_range_meters":16800,"station_id":"ce4bhbp2rcd13ifvqerg","pricing_plan_id":"cebpf4jnsgd1na2vs0mg"},{"bike_id":"8b05e458-ae18-4479-94dd-d0fefec94651","system_id":"levelo_inurba_marseille","lat":43.29535,"lon":5.38555,"is_reserved":false,"is_disabled":false,"rental_uris":{"android":"levelo://app?vid=8b05e458-ae18-4479-94dd-d0fefec94651","ios":"levelo://app?vid=8b05e458-ae18-4479-94dd-d0fefec94651"},"vehicle_type_id":"4","last_reported":1741191397,"current_range_meters":16800,"station_id":"ce4bgih2rcd13ifvqba0","pricing_plan_id":"cebpf4jnsgd1na2vs0mg"},{"bike_id":"109b9996-023d-4d28-8a8b-0daeeec512be","system_id":"levelo_inurba_marseille","lat":43.231531,"lon":5.4371,"is_reserved":false,"is_disabled":false,"rental_uris":{"android":"levelo://app?vid=109b9996-023d-4d28-8a8b-0daeeec512be","ios":"levelo://app?vid=109b9996-023d-4d28-8a8b-0daeeec512be"},"vehicle_type_id":"4","last_reported":1741191397,"current_range_meters":16800,"station_id":"ce4bh8p2rcd13ifvqeb0","pricing_plan_id":"cebpf4jnsgd1na2vs0mg"},{"bike_id":"e3a7d542-16eb-4030-8c71-acfa63c365d9","system_id":"levelo_inurba_marseille","lat":43.31219,"lon":5.3688,"is_reserved":false,"is_disabled":false,"rental_uris":{"android":"levelo://app?vid=e3a7d542-16eb-4030-8c71-acfa63c365d9","ios":"levelo://app?vid=e3a7d542-16eb-4030-8c71-acfa63c365d9"},"vehicle_type_id":"4","last_reported":1741191397,"current_range_meters":16400,"station_id":"ce4bgl92rcd13ifvqbq0","pricing_plan_id":"cebpf4jnsgd1na2vs0mg"},{"bike_id":"a7c54b4b-527b-4c99-91ea-0dce46d05f22","system_id":"levelo_inurba_marseille","lat":43.29716,"lon":5.36608,"is_reserved":false,"is_disabled":false,"rental_uris":{"android":"levelo://app?vid=a7c54b4b-527b-4c99-91ea-0dce46d05f22","ios":"levelo://app?vid=a7c54b4b-527b-4c99-91ea-0dce46d05f22"},"vehicle_type_id":"4","last_reported":1741191397,"current_range_meters":16800,"station_id":"ce4bgn12rcd13ifvqbt0","pricing_plan_id":"cebpf4jnsgd1na2vs0mg"},{"bike_id":"fe1a7341-2fc5-4ea7-bf24-f405a6417599","system_id":"levelo_inurba_marseille","lat":43.30002,"lon":5.370995,"is_reserved":false,"is_disabled":false,"rental_uris":{"android":"levelo://app?vid=fe1a7341-2fc5-4ea7-bf24-f405a6417599","ios":"levelo://app?vid=fe1a7341-2fc5-4ea7-bf24-f405a6417599"},"vehicle_type_id":"4","last_reported":1741191397,"current_range_meters":16800,"station_id":"","pricing_plan_id":"cebpf4jnsgd1na2vs0mg"},{"bike_id":"f1e5ff47-2a1c-4610-8562-4d1a82efead2","system_id":"levelo_inurba_marseille","lat":43.26933,"lon":5.38922,"is_reserved":false,"is_disabled":false,"rental_uris":{"android":"levelo://app?vid=f1e5ff47-2a1c-4610-8562-4d1a82efead2","ios":"levelo://app?vid=f1e5ff47-2a1c-4610-8562-4d1a82efead2"},"vehicle_type_id":"4","last_reported":1741191397,"current_range_meters":17200,"station_id":"ce4bhhh2rcd13ifvqfl0","pricing_plan_id":"cebpf4jnsgd1na2vs0mg"},{"bike_id":"5c3ed66f-7620-412d-a698-d6bf1340a913","system_id":"levelo_inurba_marseille","lat":43.25012,"lon":5.3891,"is_reserved":false,"is_disabled":false,"rental_uris":{"android":"levelo://app?vid=5c3ed66f-7620-412d-a698-d6bf1340a913","ios":"levelo://app?vid=5c3ed66f-7620-412d-a698-d6bf1340a913"},"vehicle_type_id":"4","last_reported":1741191397,"current_range_meters":17200,"station_id":"ce4bhgp2rcd13ifvqfd0","pricing_plan_id":"cebpf4jnsgd1na2vs0mg"},{"bike_id":"c61c7642-c45b-406c-8d87-5c99c023d3aa","system_id":"levelo_inurba_marseille","lat":43.27896,"lon":5.38007,"is_reserved":false,"is_disabled":false,"rental_uris":{"android":"levelo://app?vid=c61c7642-c45b-406c-8d87-5c99c023d3aa","ios":"levelo://app?vid=c61c7642-c45b-406c-8d87-5c99c023d3aa"},"vehicle_type_id":"4","last_reported":1741191397,"current_range_meters":17200,"station_id":"ce4bhf92rcd13ifvqf50","pricing_plan_id":"cebpf4jnsgd1na2vs0mg"},{"bike_id":"8539c839-a3ea-4c23-98e2-444495391aea","system_id":"levelo_inurba_marseille","lat":43.32083,"lon":5.41533,"is_reserved":false,"is_disabled":false,"rental_uris":{"android":"levelo://app?vid=8539c839-a3ea-4c23-98e2-444495391aea","ios":"levelo://app?vid=8539c839-a3ea-4c23-98e2-444495391aea"},"vehicle_type_id":"4","last_reported":1741191397,"current_range_meters":17200,"station_id":"ce4bhq92rcd13ifvqhkg","pricing_plan_id":"cebpf4jnsgd1na2vs0mg"},{"bike_id":"7cb5d2b6-f1df-489c-aae3-6fd46b81c378","system_id":"levelo_inurba_marseille","lat":43.30816,"lon":5.43496,"is_reserved":false,"is_disabled":false,"rental_uris":{"android":"levelo://app?vid=7cb5d2b6-f1df-489c-aae3-6fd46b81c378","ios":"levelo://app?vid=7cb5d2b6-f1df-489c-aae3-6fd46b81c378"},"vehicle_type_id":"4","last_reported":1741191397,"current_range_meters":17200,"station_id":"ce4bhph2rcd13ifvqheg","pricing_plan_id":"cebpf4jnsgd1na2vs0mg"},{"bike_id":"98a1abc3-601b-4576-b2df-57cfbfeb024d","system_id":"levelo_inurba_marseille","lat":43.28094,"lon":5.37882,"is_reserved":false,"is_disabled":false,"rental_uris":{"android":"levelo://app?vid=98a1abc3-601b-4576-b2df-57cfbfeb024d","ios":"levelo://app?vid=98a1abc3-601b-4576-b2df-57cfbfeb024d"},"vehicle_type_id":"4","last_reported":1741191397,"current_range_meters":17200,"station_id":"ce4bha12rcd13ifvqee0","pricing_plan_id":"cebpf4jnsgd1na2vs0mg"},{"bike_id":"e53c1b92-e86c-4fc0-b898-ac14090dd3c4","system_id":"levelo_inurba_marseille","lat":43.29251,"lon":5.4089,"is_reserved":false,"is_disabled":false,"rental_uris":{"android":"levelo://app?vid=e53c1b92-e86c-4fc0-b898-ac14090dd3c4","ios":"levelo://app?vid=e53c1b92-e86c-4fc0-b898-ac14090dd3c4"},"vehicle_type_id":"4","last_reported":1741191397,"current_range_meters":17200,"station_id":"ce4bh192rcd13ifvqdc0","pricing_plan_id":"cebpf4jnsgd1na2vs0mg"},{"bike_id":"e7e5715c-902e-40ee-b488-bf29fbf7adc6","system_id":"levelo_inurba_marseille","lat":43.30296,"lon":5.37689,"is_reserved":false,"is_disabled":false,"rental_uris":{"android":"levelo://app?vid=e7e5715c-902e-40ee-b488-bf29fbf7adc6","ios":"levelo://app?vid=e7e5715c-902e-40ee-b488-bf29fbf7adc6"},"vehicle_type_id":"4","last_reported":1741191397,"current_range_meters":17600,"station_id":"ce4bguh2rcd13ifvqcj0","pricing_plan_id":"cebpf4jnsgd1na2vs0mg"},{"bike_id":"43e0aa3b-859d-4818-96e0-e45233d3b19b","system_id":"levelo_inurba_marseille","lat":43.28001,"lon":5.40009,"is_reserved":false,"is_disabled":false,"rental_uris":{"android":"levelo://app?vid=43e0aa3b-859d-4818-96e0-e45233d3b19b","ios":"levelo://app?vid=43e0aa3b-859d-4818-96e0-e45233d3b19b"},"vehicle_type_id":"4","last_reported":1741191397,"current_range_meters":17600,"station_id":"ce4bho92rcd13ifvqh4g","pricing_plan_id":"cebpf4jnsgd1na2vs0mg"},{"bike_id":"f3767711-9fe9-4701-9f26-96678c0d599e","system_id":"levelo_inurba_marseille","lat":43.29534,"lon":5.38546,"is_reserved":false,"is_disabled":false,"rental_uris":{"android":"levelo://app?vid=f3767711-9fe9-4701-9f26-96678c0d599e","ios":"levelo://app?vid=f3767711-9fe9-4701-9f26-96678c0d599e"},"vehicle_type_id":"4","last_reported":1741191397,"current_range_meters":17600,"station_id":"ce4bgih2rcd13ifvqba0","pricing_plan_id":"cebpf4jnsgd1na2vs0mg"},{"bike_id":"52b19b0a-896e-4508-971e-9b8862ef11d0","system_id":"levelo_inurba_marseille","lat":43.2306,"lon":5.35491,"is_reserved":false,"is_disabled":false,"rental_uris":{"android":"levelo://app?vid=52b19b0a-896e-4508-971e-9b8862ef11d0","ios":"levelo://app?vid=52b19b0a-896e-4508-971e-9b8862ef11d0"},"vehicle_type_id":"4","last_reported":1741191397,"current_range_meters":18000,"station_id":"cpo3342slgdg3j2ifvpg","pricing_plan_id":"cebpf4jnsgd1na2vs0mg"},{"bike_id":"7940066d-cd24-41b6-836e-1355fc2b9e03","system_id":"levelo_inurba_marseille","lat":43.23186,"lon":5.35573,"is_reserved":false,"is_disabled":false,"rental_uris":{"android":"levelo://app?vid=7940066d-cd24-41b6-836e-1355fc2b9e03","ios":"levelo://app?vid=7940066d-cd24-41b6-836e-1355fc2b9e03"},"vehicle_type_id":"4","last_reported":1741191397,"current_range_meters":18000,"station_id":"ce4bhu92rcd13ifvqi70","pricing_plan_id":"cebpf4jnsgd1na2vs0mg"},{"bike_id":"5165c282-8d33-421b-83b7-a03128bc265a","system_id":"levelo_inurba_marseille","lat":43.25859,"lon":5.39418,"is_reserved":false,"is_disabled":false,"rental_uris":{"android":"levelo://app?vid=5165c282-8d33-421b-83b7-a03128bc265a","ios":"levelo://app?vid=5165c282-8d33-421b-83b7-a03128bc265a"},"vehicle_type_id":"4","last_reported":1741191397,"current_range_meters":18000,"station_id":"ce4bhip2rcd13ifvqft0","pricing_plan_id":"cebpf4jnsgd1na2vs0mg"},{"bike_id":"16a29c46-1e67-49c7-8d7f-ce41b8db9ef6","system_id":"levelo_inurba_marseille","lat":43.298715,"lon":5.397347,"is_reserved":false,"is_disabled":false,"rental_uris":{"android":"levelo://app?vid=16a29c46-1e67-49c7-8d7f-ce41b8db9ef6","ios":"levelo://app?vid=16a29c46-1e67-49c7-8d7f-ce41b8db9ef6"},"vehicle_type_id":"4","last_reported":1741191397,"current_range_meters":18000,"station_id":"ce4bh0h2rcd13ifvqd50","pricing_plan_id":"cebpf4jnsgd1na2vs0mg"},{"bike_id":"adbb6b9d-6048-45d6-901e-0620f92c9644","system_id":"levelo_inurba_marseille","lat":43.28269,"lon":5.35059,"is_reserved":false,"is_disabled":false,"rental_uris":{"android":"levelo://app?vid=adbb6b9d-6048-45d6-901e-0620f92c9644","ios":"levelo://app?vid=adbb6b9d-6048-45d6-901e-0620f92c9644"},"vehicle_type_id":"4","last_reported":1741191397,"current_range_meters":18000,"station_id":"ce4bhbp2rcd13ifvqerg","pricing_plan_id":"cebpf4jnsgd1na2vs0mg"},{"bike_id":"6f1f3eeb-74ce-47ef-b8f0-a4192f704f4d","system_id":"levelo_inurba_marseille","lat":43.23975,"lon":5.36614,"is_reserved":false,"is_disabled":false,"rental_uris":{"android":"levelo://app?vid=6f1f3eeb-74ce-47ef-b8f0-a4192f704f4d","ios":"levelo://app?vid=6f1f3eeb-74ce-47ef-b8f0-a4192f704f4d"},"vehicle_type_id":"4","last_reported":1741191397,"current_range_meters":18000,"station_id":"ce4bhi12rcd13ifvqfp0","pricing_plan_id":"cebpf4jnsgd1na2vs0mg"},{"bike_id":"293ab490-17dc-4d45-8e90-6b68acb25e20","system_id":"levelo_inurba_marseille","lat":43.29554,"lon":5.42293,"is_reserved":false,"is_disabled":false,"rental_uris":{"android":"levelo://app?vid=293ab490-17dc-4d45-8e90-6b68acb25e20","ios":"levelo://app?vid=293ab490-17dc-4d45-8e90-6b68acb25e20"},"vehicle_type_id":"4","last_reported":1741191397,"current_range_meters":18000,"station_id":"ce4bhph2rcd13ifvqhdg","pricing_plan_id":"cebpf4jnsgd1na2vs0mg"},{"bike_id":"dde15b23-1a1c-4108-a1db-08da9a7f499e","system_id":"levelo_inurba_marseille","lat":43.29872,"lon":5.3973,"is_reserved":false,"is_disabled":false,"rental_uris":{"android":"levelo://app?vid=dde15b23-1a1c-4108-a1db-08da9a7f499e","ios":"levelo://app?vid=dde15b23-1a1c-4108-a1db-08da9a7f499e"},"vehicle_type_id":"4","last_reported":1741191397,"current_range_meters":18000,"station_id":"ce4bh0h2rcd13ifvqd50","pricing_plan_id":"cebpf4jnsgd1na2vs0mg"},{"bike_id":"9145a150-aa54-4cf6-a71e-b1465ea46eee","system_id":"levelo_inurba_marseille","lat":43.25585,"lon":5.38233,"is_reserved":false,"is_disabled":false,"rental_uris":{"android":"levelo://app?vid=9145a150-aa54-4cf6-a71e-b1465ea46eee","ios":"levelo://app?vid=9145a150-aa54-4cf6-a71e-b1465ea46eee"},"vehicle_type_id":"4","last_reported":1741191397,"current_range_meters":18800,"station_id":"ce4bhih2rcd13ifvqfs0","pricing_plan_id":"cebpf4jnsgd1na2vs0mg"},{"bike_id":"594cc1b1-cc9e-4a36-b127-5c66c54f3649","system_id":"levelo_inurba_marseille","lat":43.28102,"lon":5.37843,"is_reserved":false,"is_disabled":false,"rental_uris":{"android":"levelo://app?vid=594cc1b1-cc9e-4a36-b127-5c66c54f3649","ios":"levelo://app?vid=594cc1b1-cc9e-4a36-b127-5c66c54f3649"},"vehicle_type_id":"4","last_reported":1741191397,"current_range_meters":18800,"station_id":"ce4bha12rcd13ifvqee0","pricing_plan_id":"cebpf4jnsgd1na2vs0mg"},{"bike_id":"c572baac-2bc0-4711-a08d-216a98259108","system_id":"levelo_inurba_marseille","lat":43.3014,"lon":5.39871,"is_reserved":false,"is_disabled":false,"rental_uris":{"android":"levelo://app?vid=c572baac-2bc0-4711-a08d-216a98259108","ios":"levelo://app?vid=c572baac-2bc0-4711-a08d-216a98259108"},"vehicle_type_id":"4","last_reported":1741191397,"current_range_meters":18800,"station_id":"ce4bh0h2rcd13ifvqd40","pricing_plan_id":"cebpf4jnsgd1na2vs0mg"},{"bike_id":"1679bff0-3415-43ee-b0b1-ce3112d971cc","system_id":"levelo_inurba_marseille","lat":43.29423,"lon":5.38631,"is_reserved":false,"is_disabled":false,"rental_uris":{"android":"levelo://app?vid=1679bff0-3415-43ee-b0b1-ce3112d971cc","ios":"levelo://app?vid=1679bff0-3415-43ee-b0b1-ce3112d971cc"},"vehicle_type_id":"4","last_reported":1741191397,"current_range_meters":19200,"station_id":"ce4bh2h2rcd13ifvqdh0","pricing_plan_id":"cebpf4jnsgd1na2vs0mg"},{"bike_id":"46ac9ed2-3106-4734-85c1-95931715d745","system_id":"levelo_inurba_marseille","lat":43.24549,"lon":5.39521,"is_reserved":false,"is_disabled":false,"rental_uris":{"android":"levelo://app?vid=46ac9ed2-3106-4734-85c1-95931715d745","ios":"levelo://app?vid=46ac9ed2-3106-4734-85c1-95931715d745"},"vehicle_type_id":"4","last_reported":1741191397,"current_range_meters":18800,"station_id":"ce4bhlp2rcd13ifvqgjg","pricing_plan_id":"cebpf4jnsgd1na2vs0mg"},{"bike_id":"d9ff3617-2120-408e-a9c1-1c1d3bb9c3b6","system_id":"levelo_inurba_marseille","lat":43.27906,"lon":5.39579,"is_reserved":false,"is_disabled":false,"rental_uris":{"android":"levelo://app?vid=d9ff3617-2120-408e-a9c1-1c1d3bb9c3b6","ios":"levelo://app?vid=d9ff3617-2120-408e-a9c1-1c1d3bb9c3b6"},"vehicle_type_id":"4","last_reported":1741191397,"current_range_meters":19200,"station_id":"ce4bhf92rcd13ifvqf40","pricing_plan_id":"cebpf4jnsgd1na2vs0mg"},{"bike_id":"ef4cf122-1f68-4955-8ee3-d1a49b485e22","system_id":"levelo_inurba_marseille","lat":43.29561,"lon":5.37439,"is_reserved":false,"is_disabled":false,"rental_uris":{"android":"levelo://app?vid=ef4cf122-1f68-4955-8ee3-d1a49b485e22","ios":"levelo://app?vid=ef4cf122-1f68-4955-8ee3-d1a49b485e22"},"vehicle_type_id":"4","last_reported":1741191397,"current_range_meters":19200,"station_id":"","pricing_plan_id":"cebpf4jnsgd1na2vs0mg"},{"bike_id":"ef9d72fc-54ba-481d-841a-0433a295da7a","system_id":"levelo_inurba_marseille","lat":43.32471,"lon":5.36515,"is_reserved":false,"is_disabled":false,"rental_uris":{"android":"levelo://app?vid=ef9d72fc-54ba-481d-841a-0433a295da7a","ios":"levelo://app?vid=ef9d72fc-54ba-481d-841a-0433a295da7a"},"vehicle_type_id":"4","last_reported":1741191397,"current_range_meters":19200,"station_id":"ce4bhs12rcd13ifvqhvg","pricing_plan_id":"cebpf4jnsgd1na2vs0mg"},{"bike_id":"c728e0d6-26eb-4dcf-ab37-40fa6bbee92a","system_id":"levelo_inurba_marseille","lat":43.26555,"lon":5.37296,"is_reserved":false,"is_disabled":false,"rental_uris":{"android":"levelo://app?vid=c728e0d6-26eb-4dcf-ab37-40fa6bbee92a","ios":"levelo://app?vid=c728e0d6-26eb-4dcf-ab37-40fa6bbee92a"},"vehicle_type_id":"4","last_reported":1741191397,"current_range_meters":19200,"station_id":"ce4bhg12rcd13ifvqf70","pricing_plan_id":"cebpf4jnsgd1na2vs0mg"},{"bike_id":"16691a65-0bce-4d4b-882e-c415ea548b45","system_id":"levelo_inurba_marseille","lat":43.25104,"lon":5.40325,"is_reserved":false,"is_disabled":false,"rental_uris":{"android":"levelo://app?vid=16691a65-0bce-4d4b-882e-c415ea548b45","ios":"levelo://app?vid=16691a65-0bce-4d4b-882e-c415ea548b45"},"vehicle_type_id":"4","last_reported":1741191397,"current_range_meters":19200,"station_id":"ce4bhlh2rcd13ifvqgig","pricing_plan_id":"cebpf4jnsgd1na2vs0mg"},{"bike_id":"f7f730ef-efb6-415e-8bff-92ed29a229be","system_id":"levelo_inurba_marseille","lat":43.27092,"lon":5.42272,"is_reserved":false,"is_disabled":false,"rental_uris":{"android":"levelo://app?vid=f7f730ef-efb6-415e-8bff-92ed29a229be","ios":"levelo://app?vid=f7f730ef-efb6-415e-8bff-92ed29a229be"},"vehicle_type_id":"4","last_reported":1741191397,"current_range_meters":19200,"station_id":"ce4bhk92rcd13ifvqgb0","pricing_plan_id":"cebpf4jnsgd1na2vs0mg"},{"bike_id":"9d9c79e5-7529-4736-aa1a-17f862be53b6","system_id":"levelo_inurba_marseille","lat":43.28157,"lon":5.42648,"is_reserved":false,"is_disabled":false,"rental_uris":{"android":"levelo://app?vid=9d9c79e5-7529-4736-aa1a-17f862be53b6","ios":"levelo://app?vid=9d9c79e5-7529-4736-aa1a-17f862be53b6"},"vehicle_type_id":"4","last_reported":1741191397,"current_range_meters":19200,"station_id":"ce4bhnh2rcd13ifvqgug","pricing_plan_id":"cebpf4jnsgd1na2vs0mg"},{"bike_id":"b44db1cb-5b71-466d-b311-e03ec2f3682a","system_id":"levelo_inurba_marseille","lat":43.31713,"lon":5.43706,"is_reserved":false,"is_disabled":false,"rental_uris":{"android":"levelo://app?vid=b44db1cb-5b71-466d-b311-e03ec2f3682a","ios":"levelo://app?vid=b44db1cb-5b71-466d-b311-e03ec2f3682a"},"vehicle_type_id":"4","last_reported":1741191397,"current_range_meters":19200,"station_id":"ce4bhp92rcd13ifvqhcg","pricing_plan_id":"cebpf4jnsgd1na2vs0mg"},{"bike_id":"00c9bea9-7d78-4435-8261-fa49c68fd27f","system_id":"levelo_inurba_marseille","lat":43.26028,"lon":5.4176,"is_reserved":false,"is_disabled":false,"rental_uris":{"android":"levelo://app?vid=00c9bea9-7d78-4435-8261-fa49c68fd27f","ios":"levelo://app?vid=00c9bea9-7d78-4435-8261-fa49c68fd27f"},"vehicle_type_id":"4","last_reported":1741191397,"current_range_meters":19200,"station_id":"","pricing_plan_id":"cebpf4jnsgd1na2vs0mg"},{"bike_id":"81eeb179-6b1b-474d-b00a-2bab362ca9f9","system_id":"levelo_inurba_marseille","lat":43.2994,"lon":5.37448,"is_reserved":false,"is_disabled":false,"rental_uris":{"android":"levelo://app?vid=81eeb179-6b1b-474d-b00a-2bab362ca9f9","ios":"levelo://app?vid=81eeb179-6b1b-474d-b00a-2bab362ca9f9"},"vehicle_type_id":"4","last_reported":1741191397,"current_range_meters":19600,"station_id":"ce4bgjh2rcd13ifvqbg0","pricing_plan_id":"cebpf4jnsgd1na2vs0mg"},{"bike_id":"5e0c4ffc-aaa8-421a-8428-b569d463951a","system_id":"levelo_inurba_marseille","lat":43.30134,"lon":5.39866,"is_reserved":false,"is_disabled":false,"rental_uris":{"android":"levelo://app?vid=5e0c4ffc-aaa8-421a-8428-b569d463951a","ios":"levelo://app?vid=5e0c4ffc-aaa8-421a-8428-b569d463951a"},"vehicle_type_id":"4","last_reported":1741191397,"current_range_meters":19600,"station_id":"ce4bh0h2rcd13ifvqd40","pricing_plan_id":"cebpf4jnsgd1na2vs0mg"},{"bike_id":"af4b22db-9534-4a01-94bf-7dfafc44466f","system_id":"levelo_inurba_marseille","lat":43.26804,"lon":5.40262,"is_reserved":false,"is_disabled":false,"rental_uris":{"android":"levelo://app?vid=af4b22db-9534-4a01-94bf-7dfafc44466f","ios":"levelo://app?vid=af4b22db-9534-4a01-94bf-7dfafc44466f"},"vehicle_type_id":"4","last_reported":1741191397,"current_range_meters":19600,"station_id":"ce501612rcd8frsf0b60","pricing_plan_id":"cebpf4jnsgd1na2vs0mg"},{"bike_id":"0a508b79-9d43-4c5e-91d5-dc9151921013","system_id":"levelo_inurba_marseille","lat":43.306427,"lon":5.401086,"is_reserved":false,"is_disabled":false,"rental_uris":{"android":"levelo://app?vid=0a508b79-9d43-4c5e-91d5-dc9151921013","ios":"levelo://app?vid=0a508b79-9d43-4c5e-91d5-dc9151921013"},"vehicle_type_id":"4","last_reported":1741191397,"current_range_meters":19600,"station_id":"ce4bhpp2rcd13ifvqhfg","pricing_plan_id":"cebpf4jnsgd1na2vs0mg"},{"bike_id":"d45ee27c-1565-45c5-a124-fee0e37853bf","system_id":"levelo_inurba_marseille","lat":43.279145,"lon":5.395763,"is_reserved":false,"is_disabled":false,"rental_uris":{"android":"levelo://app?vid=d45ee27c-1565-45c5-a124-fee0e37853bf","ios":"levelo://app?vid=d45ee27c-1565-45c5-a124-fee0e37853bf"},"vehicle_type_id":"4","last_reported":1741191397,"current_range_meters":19600,"station_id":"ce4bhf92rcd13ifvqf40","pricing_plan_id":"cebpf4jnsgd1na2vs0mg"},{"bike_id":"7d896524-2cad-49b3-8108-8c47fba2a5a2","system_id":"levelo_inurba_marseille","lat":43.28567,"lon":5.39503,"is_reserved":false,"is_disabled":false,"rental_uris":{"android":"levelo://app?vid=7d896524-2cad-49b3-8108-8c47fba2a5a2","ios":"levelo://app?vid=7d896524-2cad-49b3-8108-8c47fba2a5a2"},"vehicle_type_id":"4","last_reported":1741191397,"current_range_meters":19600,"station_id":"ce4bh292rcd13ifvqdg0","pricing_plan_id":"cebpf4jnsgd1na2vs0mg"},{"bike_id":"fe125079-903c-4406-853b-b9e132fecdd9","system_id":"levelo_inurba_marseille","lat":43.298602,"lon":5.38874,"is_reserved":false,"is_disabled":false,"rental_uris":{"android":"levelo://app?vid=fe125079-903c-4406-853b-b9e132fecdd9","ios":"levelo://app?vid=fe125079-903c-4406-853b-b9e132fecdd9"},"vehicle_type_id":"4","last_reported":1741191397,"current_range_meters":19600,"station_id":"ce4bh392rcd13ifvqdl0","pricing_plan_id":"cebpf4jnsgd1na2vs0mg"},{"bike_id":"88dc074a-0e00-4219-acf3-b2f890392769","system_id":"levelo_inurba_marseille","lat":43.29266,"lon":5.38447,"is_reserved":false,"is_disabled":false,"rental_uris":{"android":"levelo://app?vid=88dc074a-0e00-4219-acf3-b2f890392769","ios":"levelo://app?vid=88dc074a-0e00-4219-acf3-b2f890392769"},"vehicle_type_id":"4","last_reported":1741191397,"current_range_meters":19600,"station_id":"ce4bh692rcd13ifvqea0","pricing_plan_id":"cebpf4jnsgd1na2vs0mg"},{"bike_id":"032d66a4-f379-455a-ba98-542192f88ef2","system_id":"levelo_inurba_marseille","lat":43.28925,"lon":5.38398,"is_reserved":false,"is_disabled":false,"rental_uris":{"android":"levelo://app?vid=032d66a4-f379-455a-ba98-542192f88ef2","ios":"levelo://app?vid=032d66a4-f379-455a-ba98-542192f88ef2"},"vehicle_type_id":"4","last_reported":1741191397,"current_range_meters":20000,"station_id":"ce4bh612rcd13ifvqe6g","pricing_plan_id":"cebpf4jnsgd1na2vs0mg"},{"bike_id":"085f4276-a70a-48c4-bd48-41051c2ed582","system_id":"levelo_inurba_marseille","lat":43.30958,"lon":5.39042,"is_reserved":false,"is_disabled":false,"rental_uris":{"android":"levelo://app?vid=085f4276-a70a-48c4-bd48-41051c2ed582","ios":"levelo://app?vid=085f4276-a70a-48c4-bd48-41051c2ed582"},"vehicle_type_id":"4","last_reported":1741191397,"current_range_meters":20000,"station_id":"ce4bgup2rcd13ifvqco0","pricing_plan_id":"cebpf4jnsgd1na2vs0mg"},{"bike_id":"05385afc-0cdf-4243-bccc-dec3cb01f3bf","system_id":"levelo_inurba_marseille","lat":43.28412,"lon":5.34982,"is_reserved":false,"is_disabled":false,"rental_uris":{"android":"levelo://app?vid=05385afc-0cdf-4243-bccc-dec3cb01f3bf","ios":"levelo://app?vid=05385afc-0cdf-4243-bccc-dec3cb01f3bf"},"vehicle_type_id":"4","last_reported":1741191397,"current_range_meters":20000,"station_id":"ce4bhbh2rcd13ifvqepg","pricing_plan_id":"cebpf4jnsgd1na2vs0mg"},{"bike_id":"e9fc4c56-9228-4625-a76b-97b2698e3892","system_id":"levelo_inurba_marseille","lat":43.27992,"lon":5.40011,"is_reserved":false,"is_disabled":false,"rental_uris":{"android":"levelo://app?vid=e9fc4c56-9228-4625-a76b-97b2698e3892","ios":"levelo://app?vid=e9fc4c56-9228-4625-a76b-97b2698e3892"},"vehicle_type_id":"4","last_reported":1741191397,"current_range_meters":20000,"station_id":"ce4bho92rcd13ifvqh4g","pricing_plan_id":"cebpf4jnsgd1na2vs0mg"},{"bike_id":"54833c0a-a9a7-4c42-873b-474bce89055b","system_id":"levelo_inurba_marseille","lat":43.23058,"lon":5.35492,"is_reserved":false,"is_disabled":false,"rental_uris":{"android":"levelo://app?vid=54833c0a-a9a7-4c42-873b-474bce89055b","ios":"levelo://app?vid=54833c0a-a9a7-4c42-873b-474bce89055b"},"vehicle_type_id":"4","last_reported":1741191397,"current_range_meters":20000,"station_id":"cpo3342slgdg3j2ifvpg","pricing_plan_id":"cebpf4jnsgd1na2vs0mg"},{"bike_id":"c030e001-e69a-4062-871d-bb57895a5fd7","system_id":"levelo_inurba_marseille","lat":43.28269,"lon":5.35055,"is_reserved":false,"is_disabled":false,"rental_uris":{"android":"levelo://app?vid=c030e001-e69a-4062-871d-bb57895a5fd7","ios":"levelo://app?vid=c030e001-e69a-4062-871d-bb57895a5fd7"},"vehicle_type_id":"4","last_reported":1741191397,"current_range_meters":20400,"station_id":"ce4bhbp2rcd13ifvqerg","pricing_plan_id":"cebpf4jnsgd1na2vs0mg"},{"bike_id":"6c9c2315-15b9-475e-88a6-51f526946019","system_id":"levelo_inurba_marseille","lat":43.31072,"lon":5.3835,"is_reserved":false,"is_disabled":false,"rental_uris":{"android":"levelo://app?vid=6c9c2315-15b9-475e-88a6-51f526946019","ios":"levelo://app?vid=6c9c2315-15b9-475e-88a6-51f526946019"},"vehicle_type_id":"4","last_reported":1741191397,"current_range_meters":20400,"station_id":"ce4bgv92rcd13ifvqcr0","pricing_plan_id":"cebpf4jnsgd1na2vs0mg"},