{"last_updated":1748466589,"ttl":60,"version":"2.2","data":{"bikes":[{"bike_id":"55d42eeb-6b71-4987-a0f2-3d758b10d43e","system_id":"levelo_inurba_marseille","lat":43.33771,"lon":5.37424,"is_reserved":false,"is_disabled":true,"rental_uris":{"android":"levelo://app?vid=55d42eeb-6b71-4987-a0f2-3d758b10d43e","ios":"levelo://app?vid=55d42eeb-6b71-4987-a0f2-3d758b10d43e"},"vehicle_type_id":"4","last_reported":1748466589,"current_range_meters":0,"station_id":"","pricing_plan_id":"cebpf4jnsgd1na2vs0mg"},{"bike_id":"7f4b6069-304f-4d75-a8b9-d3db83a055ca","system_id":"levelo_inurba_marseille","lat":43.2175,"lon":5.34603,"is_reserved":false,"is_disabled":true,"rental_uris":{"android":"levelo://app?vid=7f4b6069-304f-4d75-a8b9-d3db83a055ca","ios":"levelo://app?vid=7f4b6069-304f-4d75-a8b9-d3db83a055ca"},"vehicle_type_id":"4","last_reported":1748466589,"current_range_meters":0,"station_id":"","pricing_plan_id":"cebpf4jnsgd1na2vs0mg"},{"bike_id":"b7fe4621-b706-42f0-9085-4811142f84e8","system_id":"levelo_inurba_marseille","lat":43.337499,"lon":5.374469,"is_reserved":false,"is_disabled":true,"rental_uris":{"android":"levelo://app?vid=b7fe4621-b706-42f0-9085-4811142f84e8","ios":"levelo://app?vid=b7fe4621-b706-42f0-9085-4811142f84e8"},"vehicle_type_id":"4","last_reported":1748466589,"current_range_meters":0,"station_id":"","pricing_plan_id":"cebpf4jnsgd1na2vs0mg"},{"bike_id":"ad402f0f-3192-410c-afac-8cf064a40c6d","system_id":"levelo_inurba_marseille","lat":43.337444,"lon":5.374475,"is_reserved":false,"is_disabled":true,"rental_uris":{"android":"levelo://app?vid=ad402f0f-3192-410c-afac-8cf064a40c6d","ios":"levelo://app?vid=ad402f0f-3192-410c-afac-8cf064a40c6d"},"vehicle_type_id":"4","last_reported":1748466589,"current_range_meters":0,"station_id":"","pricing_plan_id":"cebpf4jnsgd1na2vs0mg"},{"bike_id":"3dcb201d-de81-4b3c-b43b-0dd0cfb79b79","system_id":"levelo_inurba_marseille","lat":43.3125,"lon":5.37995,"is_reserved":false,"is_disabled":true,"rental_uris":{"android":"levelo://app?vid=3dcb201d-de81-4b3c-b43b-0dd0cfb79b79","ios":"levelo://app?vid=3dcb201d-de81-4b3c-b43b-0dd0cfb79b79"},"vehicle_type_id":"4","last_reported":1748466589,"current_range_meters":0,"station_id":"","pricing_plan_id":"cebpf4jnsgd1na2vs0mg"},{"bike_id":"f819e741-785c-4777-8961-36bbabeca46f","system_id":"levelo_inurba_marseille","lat":43.29868,"lon":5.3763,"is_reserved":false,"is_disabled":true,"rental_uris":{"android":"levelo://app?vid=f819e741-785c-4777-8961-36bbabeca46f","ios":"levelo://app?vid=f819e741-785c-4777-8961-36bbabeca46f"},"vehicle_type_id":"4","last_reported":1748466589,"current_range_meters":0,"station_id":"","pricing_plan_id":"cebpf4jnsgd1na2vs0mg"},{"bike_id":"80dc1064-d63f-4a22-ad21-d8abd70986c0","system_id":"levelo_inurba_marseille","lat":43.337713,"lon":5.374851,"is_reserved":false,"is_disabled":true,"rental_uris":{"android":"levelo://app?vid=80dc1064-d63f-4a22-ad21-d8abd70986c0","ios":"levelo://app?vid=80dc1064-d63f-4a22-ad21-d8abd70986c0"},"vehicle_type_id":"4","last_reported":1748466589,"current_range_meters":0,"station_id":"","pricing_plan_id":"cebpf4jnsgd1na2vs0mg"},{"bike_id":"a7498786-a3df-4f7f-b7af-960818561250","system_id":"levelo_inurba_marseille","lat":43.25272,"lon":5.420543,"is_reserved":false,"is_disabled":true,"rental_uris":{"android":"levelo://app?vid=a7498786-a3df-4f7f-b7af-960818561250","ios":"levelo://app?vid=a7498786-a3df-4f7f-b7af-960818561250"},"vehicle_type_id":"4","last_reported":1748466589,"current_range_meters":0,"station_id":"","pricing_plan_id":"cebpf4jnsgd1na2vs0mg"},{"bike_id":"1dbb8f11-1353-41ce-8587-bd80e2c15d60","system_id":"levelo_inurba_marseille","lat":43.24347,"lon":5.38507,"is_reserved":false,"is_disabled":true,"rental_uris":{"android":"levelo://app?vid=1dbb8f11-1353-41ce-8587-bd80e2c15d60","ios":"levelo://app?vid=1dbb8f11-1353-41ce-8587-bd80e2c15d60"},"vehicle_type_id":"4","last_reported":1748466589,"current_range_meters":0,"station_id":"","pricing_plan_id":"cebpf4jnsgd1na2vs0mg"},{"bike_id":"e082a7e3-9601-48a8-99c3-8e25f2736751","system_id":"levelo_inurba_marseille","lat":43.249694,"lon":5.382021,"is_reserved":false,"is_disabled":true,"rental_uris":{"android":"levelo://app?vid=e082a7e3-9601-48a8-99c3-8e25f2736751","ios":"levelo://app?vid=e082a7e3-9601-48a8-99c3-8e25f2736751"},"vehicle_type_id":"4","last_reported":1748466589,"current_range_meters":0,"station_id":"","pricing_plan_id":"cebpf4jnsgd1na2vs0mg"},{"bike_id":"2fd7e160-685c-4858-b57b-dcaef27a8e94","system_id":"levelo_inurba_marseille","lat":43.230331,"lon":5.401847,"is_reserved":false,"is_disabled":true,"rental_uris":{"android":"levelo://app?vid=2fd7e160-685c-4858-b57b-dcaef27a8e94","ios":"levelo://app?vid=2fd7e160-685c-4858-b57b-dcaef27a8e94"},"vehicle_type_id":"4","last_reported":1748466589,"current_range_meters":0,"station_id":"","pricing_plan_id":"cebpf4jnsgd1na2vs0mg"},{"bike_id":"b1318e3a-e539-4297-b6e8-42c53cfc332a","system_id":"levelo_inurba_marseille","lat":43.2979,"lon":5.38091,"is_reserved":false,"is_disabled":true,"rental_uris":{"android":"levelo://app?vid=b1318e3a-e539-4297-b6e8-42c53cfc332a","ios":"levelo://app?vid=b1318e3a-e539-4297-b6e8-42c53cfc332a"},"vehicle_type_id":"4","last_reported":1748466589,"current_range_meters":0,"station_id":"ce4bgip2rcd13ifvqbb0","pricing_plan_id":"cebpf4jnsgd1na2vs0mg"},{"bike_id":"1028081b-fe3e-4439-9bdf-ee8177c475c8","system_id":"levelo_inurba_marseille","lat":43.3043,"lon":5.38887,"is_reserved":false,"is_disabled":true,"rental_uris":{"android":"levelo://app?vid=1028081b-fe3e-4439-9bdf-ee8177c475c8","ios":"levelo://app?vid=1028081b-fe3e-4439-9bdf-ee8177c475c8"},"vehicle_type_id":"4","last_reported":1748466589,"current_range_meters":0,"station_id":"ce4bgk12rcd13ifvqbi0","pricing_plan_id":"cebpf4jnsgd1na2vs0mg"},{"bike_id":"86c730bf-fa61-497d-840c-7bc9f6845938","system_id":"levelo_inurba_marseille","lat":43.30795,"lon":5.38149,"is_reserved":false,"is_disabled":true,"rental_uris":{"android":"levelo://app?vid=86c730bf-fa61-497d-840c-7bc9f6845938","ios":"levelo://app?vid=86c730bf-fa61-497d-840c-7bc9f6845938"},"vehicle_type_id":"4","last_reported":1748466589,"current_range_meters":0,"station_id":"ce4bgt12rcd13ifvqce0","pricing_plan_id":"cebpf4jnsgd1na2vs0mg"},{"bike_id":"a641e539-4440-48f6-bb85-8c9623e9be04","system_id":"levelo_inurba_marseille","lat":43.2868,"lon":5.38661,"is_reserved":false,"is_disabled":true,"rental_uris":{"android":"levelo://app?vid=a641e539-4440-48f6-bb85-8c9623e9be04","ios":"levelo://app?vid=a641e539-4440-48f6-bb85-8c9623e9be04"},"vehicle_type_id":"4","last_reported":1748466589,"current_range_meters":0,"station_id":"ce4bh492rcd13ifvqdug","pricing_plan_id":"cebpf4jnsgd1na2vs0mg"},{"bike_id":"4b0604fe-9729-4ada-8d91-720563dfa5f4","system_id":"levelo_inurba_marseille","lat":43.29265,"lon":5.38444,"is_reserved":false,"is_disabled":true,"rental_uris":{"android":"levelo://app?vid=4b0604fe-9729-4ada-8d91-720563dfa5f4","ios":"levelo://app?vid=4b0604fe-9729-4ada-8d91-720563dfa5f4"},"vehicle_type_id":"4","last_reported":1748466589,"current_range_meters":0,"station_id":"ce4bh692rcd13ifvqea0","pricing_plan_id":"cebpf4jnsgd1na2vs0mg"},{"bike_id":"5ea3988f-d629-415d-933c-294b7d7d0ef6","system_id":"levelo_inurba_marseille","lat":43.29405,"lon":5.386253,"is_reserved":false,"is_disabled":true,"rental_uris":{"android":"levelo://app?vid=5ea3988f-d629-415d-933c-294b7d7d0ef6","ios":"levelo://app?vid=5ea3988f-d629-415d-933c-294b7d7d0ef6"},"vehicle_type_id":"4","last_reported":1748466589,"current_range_meters":0,"station_id":"ce4bh692rcd13ifvqea0","pricing_plan_id":"cebpf4jnsgd1na2vs0mg"},{"bike_id":"d9c5c636-c2d1-4c29-a409-bbab40dc0cd1","system_id":"levelo_inurba_marseille","lat":43.28265,"lon":5.3506,"is_reserved":false,"is_disabled":true,"rental_uris":{"android":"levelo://app?vid=d9c5c636-c2d1-4c29-a409-bbab40dc0cd1","ios":"levelo://app?vid=d9c5c636-c2d1-4c29-a409-bbab40dc0cd1"},"vehicle_type_id":"4","last_reported":1748466589,"current_range_meters":0,"station_id":"ce4bhbp2rcd13ifvqerg","pricing_plan_id":"cebpf4jnsgd1na2vs0mg"},{"bike_id":"09aab18a-4477-4aef-9d38-ec3819ac2a76","system_id":"levelo_inurba_marseille","lat":43.28615,"lon":5.35107,"is_reserved":false,"is_disabled":true,"rental_uris":{"android":"levelo://app?vid=09aab18a-4477-4aef-9d38-ec3819ac2a76","ios":"levelo://app?vid=09aab18a-4477-4aef-9d38-ec3819ac2a76"},"vehicle_type_id":"4","last_reported":1748466589,"current_range_meters":0,"station_id":"ce4bhch2rcd13ifvqeug","pricing_plan_id":"cebpf4jnsgd1na2vs0mg"},{"bike_id":"8dbefbe5-08e4-4ee3-b73b-acdcce0d1e43","system_id":"levelo_inurba_marseille","lat":43.23968,"lon":5.36631,"is_reserved":false,"is_disabled":true,"rental_uris":{"android":"levelo://app?vid=8dbefbe5-08e4-4ee3-b73b-acdcce0d1e43","ios":"levelo://app?vid=8dbefbe5-08e4-4ee3-b73b-acdcce0d1e43"},"vehicle_type_id":"4","last_reported":1748466589,"current_range_meters":0,"station_id":"ce4bhi12rcd13ifvqfp0","pricing_plan_id":"cebpf4jnsgd1na2vs0mg"},{"bike_id":"e73357c5-67ed-4075-84be-4246c5fbde4a","system_id":"levelo_inurba_marseille","lat":43.23157,"lon":5.43687,"is_reserved":false,"is_disabled":true,"rental_uris":{"android":"levelo://app?vid=e73357c5-67ed-4075-84be-4246c5fbde4a","ios":"levelo://app?vid=e73357c5-67ed-4075-84be-4246c5fbde4a"},"vehicle_type_id":"4","last_reported":1748466589,"current_range_meters":0,"station_id":"ce4bhmp2rcd13ifvqgog","pricing_plan_id":"cebpf4jnsgd1na2vs0mg"},{"bike_id":"ac941aa7-ae64-4e06-9ba9-ae9b002a5c62","system_id":"levelo_inurba_marseille","lat":43.30382,"lon":5.42482,"is_reserved":false,"is_disabled":true,"rental_uris":{"android":"levelo://app?vid=ac941aa7-ae64-4e06-9ba9-ae9b002a5c62","ios":"levelo://app?vid=ac941aa7-ae64-4e06-9ba9-ae9b002a5c62"},"vehicle_type_id":"4","last_reported":1748466589,"current_range_meters":0,"station_id":"ce4bhoh2rcd13ifvqh6g","pricing_plan_id":"cebpf4jnsgd1na2vs0mg"},{"bike_id":"0d16491c-abaf-49ec-8676-8595a7c9f9c4","system_id":"levelo_inurba_marseille","lat":43.30404,"lon":5.41298,"is_reserved":false,"is_disabled":true,"rental_uris":{"android":"levelo://app?vid=0d16491c-abaf-49ec-8676-8595a7c9f9c4","ios":"levelo://app?vid=0d16491c-abaf-49ec-8676-8595a7c9f9c4"},"vehicle_type_id":"4","last_reported":1748466589,"current_range_meters":0,"station_id":"ce4bhop2rcd13ifvqh8g","pricing_plan_id":"cebpf4jnsgd1na2vs0mg"},{"bike_id":"aee46ae4-bd19-494b-87f6-1f712ed3861e","system_id":"levelo_inurba_marseille","lat":43.3172,"lon":5.423952,"is_reserved":false,"is_disabled":true,"rental_uris":{"android":"levelo://app?vid=aee46ae4-bd19-494b-87f6-1f712ed3861e","ios":"levelo://app?vid=aee46ae4-bd19-494b-87f6-1f712ed3861e"},"vehicle_type_id":"4","last_reported":1748466589,"current_range_meters":0,"station_id":"ce4bhp92rcd13ifvqhbg","pricing_plan_id":"cebpf4jnsgd1na2vs0mg"},{"bike_id":"bc554b9f-2071-4757-ad49-3ebb887229cd","system_id":"levelo_inurba_marseille","lat":43.31697,"lon":5.43658,"is_reserved":false,"is_disabled":true,"rental_uris":{"android":"levelo://app?vid=bc554b9f-2071-4757-ad49-3ebb887229cd","ios":"levelo://app?vid=bc554b9f-2071-4757-ad49-3ebb887229cd"},"vehicle_type_id":"4","last_reported":1748466589,"current_range_meters":0,"station_id":"ce4bhp92rcd13ifvqhcg","pricing_plan_id":"cebpf4jnsgd1na2vs0mg"},{"bike_id":"f9008996-0555-4dad-81e0-9db2405a9a34","system_id":"levelo_inurba_marseille","lat":43.32052,"lon":5.41534,"is_reserved":false,"is_disabled":true,"rental_uris":{"android":"levelo://app?vid=f9008996-0555-4dad-81e0-9db2405a9a34","ios":"levelo://app?vid=f9008996-0555-4dad-81e0-9db2405a9a34"},"vehicle_type_id":"4","last_reported":1748466589,"current_range_meters":0,"station_id":"ce4bhq92rcd13ifvqhkg","pricing_plan_id":"cebpf4jnsgd1na2vs0mg"},{"bike_id":"4debb485-5619-481c-985a-0e303aa1b189","system_id":"levelo_inurba_marseille","lat":43.33095,"lon":5.39329,"is_reserved":false,"is_disabled":true,"rental_uris":{"android":"levelo://app?vid=4debb485-5619-481c-985a-0e303aa1b189","ios":"levelo://app?vid=4debb485-5619-481c-985a-0e303aa1b189"},"vehicle_type_id":"4","last_reported":1748466589,"current_range_meters":800,"station_id":"","pricing_plan_id":"cebpf4jnsgd1na2vs0mg"},{"bike_id":"acb33284-4337-4b1c-9314-d61c51a162c1","system_id":"levelo_inurba_marseille","lat":43.3255,"lon":5.41452,"is_reserved":false,"is_disabled":true,"rental_uris":{"android":"levelo://app?vid=acb33284-4337-4b1c-9314-d61c51a162c1","ios":"levelo://app?vid=acb33284-4337-4b1c-9314-d61c51a162c1"},"vehicle_type_id":"4","last_reported":1748466589,"current_range_meters":800,"station_id":"ce4bhq12rcd13ifvqhhg","pricing_plan_id":"cebpf4jnsgd1na2vs0mg"},{"bike_id":"5aefb386-e416-4906-998c-ff23207edc6c","system_id":"levelo_inurba_marseille","lat":43.21751,"lon":5.34582,"is_reserved":false,"is_disabled":true,"rental_uris":{"android":"levelo://app?vid=5aefb386-e416-4906-998c-ff23207edc6c","ios":"levelo://app?vid=5aefb386-e416-4906-998c-ff23207edc6c"},"vehicle_type_id":"4","last_reported":1748466589,"current_range_meters":800,"station_id":"st_cvj6r9ubvosntc0bgbag","pricing_plan_id":"cebpf4jnsgd1na2vs0mg"},{"bike_id":"88320d0d-8582-4a32-af43-1b9e13c4fe1f","system_id":"levelo_inurba_marseille","lat":43.30641,"lon":5.4008,"is_reserved":false,"is_disabled":true,"rental_uris":{"android":"levelo://app?vid=88320d0d-8582-4a32-af43-1b9e13c4fe1f","ios":"levelo://app?vid=88320d0d-8582-4a32-af43-1b9e13c4fe1f"},"vehicle_type_id":"4","last_reported":1748466589,"current_range_meters":1200,"station_id":"ce4bh112rcd13ifvqda0","pricing_plan_id":"cebpf4jnsgd1na2vs0mg"},{"bike_id":"cdd5cfcc-df32-4860-b6cf-70b95ec7404d","system_id":"levelo_inurba_marseille","lat":43.29531,"lon":5.39396,"is_reserved":false,"is_disabled":true,"rental_uris":{"android":"levelo://app?vid=cdd5cfcc-df32-4860-b6cf-70b95ec7404d","ios":"levelo://app?vid=cdd5cfcc-df32-4860-b6cf-70b95ec7404d"},"vehicle_type_id":"4","last_reported":1748466589,"current_range_meters":1200,"station_id":"ce4bh292rcd13ifvqdf0","pricing_plan_id":"cebpf4jnsgd1na2vs0mg"},{"bike_id":"1be25f1a-182d-41f2-8d4f-cf02fa7aa93b","system_id":"levelo_inurba_marseille","lat":43.28153,"lon":5.42641,"is_reserved":false,"is_disabled":true,"rental_uris":{"android":"levelo://app?vid=1be25f1a-182d-41f2-8d4f-cf02fa7aa93b","ios":"levelo://app?vid=1be25f1a-182d-41f2-8d4f-cf02fa7aa93b"},"vehicle_type_id":"4","last_reported":1748466589,"current_range_meters":1200,"station_id":"ce4bhnh2rcd13ifvqgug","pricing_plan_id":"cebpf4jnsgd1na2vs0mg"},{"bike_id":"37d55953-0098-44cd-935a-0082be7730f9","system_id":"levelo_inurba_marseille","lat":43.31891,"lon":5.40699,"is_reserved":false,"is_disabled":true,"rental_uris":{"android":"levelo://app?vid=37d55953-0098-44cd-935a-0082be7730f9","ios":"levelo://app?vid=37d55953-0098-44cd-935a-0082be7730f9"},"vehicle_type_id":"4","last_reported":1748466589,"current_range_meters":1200,"station_id":"ce4bhq12rcd13ifvqhig","pricing_plan_id":"cebpf4jnsgd1na2vs0mg"},{"bike_id":"0f026b06-9cb8-42b7-a494-531b2a5aca7e","system_id":"levelo_inurba_marseille","lat":43.32331,"lon":5.40607,"is_reserved":false,"is_disabled":true,"rental_uris":{"android":"levelo://app?vid=0f026b06-9cb8-42b7-a494-531b2a5aca7e","ios":"levelo://app?vid=0f026b06-9cb8-42b7-a494-531b2a5aca7e"},"vehicle_type_id":"4","last_reported":1748466589,"current_range_meters":1200,"station_id":"ce4bhq92rcd13ifvqhjg","pricing_plan_id":"cebpf4jnsgd1na2vs0mg"},{"bike_id":"ef53bb08-3221-45a4-aeab-27ec5b84f36b","system_id":"levelo_inurba_marseille","lat":43.30741,"lon":5.42452,"is_reserved":false,"is_disabled":true,"rental_uris":{"android":"levelo://app?vid=ef53bb08-3221-45a4-aeab-27ec5b84f36b","ios":"levelo://app?vid=ef53bb08-3221-45a4-aeab-27ec5b84f36b"},"vehicle_type_id":"4","last_reported":1748466589,"current_range_meters":1200,"station_id":"st_cvj6ca6bvosntc0bfgr0","pricing_plan_id":"cebpf4jnsgd1na2vs0mg"},{"bike_id":"19ddf677-f666-41e6-a571-99f0082e0a79","system_id":"levelo_inurba_marseille","lat":43.23121,"lon":5.36618,"is_reserved":false,"is_disabled":true,"rental_uris":{"android":"levelo://app?vid=19ddf677-f666-41e6-a571-99f0082e0a79","ios":"levelo://app?vid=19ddf677-f666-41e6-a571-99f0082e0a79"},"vehicle_type_id":"4","last_reported":1748466589,"current_range_meters":1600,"station_id":"","pricing_plan_id":"cebpf4jnsgd1na2vs0mg"},{"bike_id":"24ab2bcd-85b2-479e-bc0d-f706a185a21b","system_id":"levelo_inurba_marseille","lat":43.29532,"lon":5.39034,"is_reserved":false,"is_disabled":true,"rental_uris":{"android":"levelo://app?vid=24ab2bcd-85b2-479e-bc0d-f706a185a21b","ios":"levelo://app?vid=24ab2bcd-85b2-479e-bc0d-f706a185a21b"},"vehicle_type_id":"4","last_reported":1748466589,"current_range_meters":1600,"station_id":"ce4bh3p2rcd13ifvqdp0","pricing_plan_id":"cebpf4jnsgd1na2vs0mg"},{"bike_id":"bd1d6f57-3c21-4353-9213-6cdadf1ac2b8","system_id":"levelo_inurba_marseille","lat":43.24819,"lon":5.37464,"is_reserved":false,"is_disabled":true,"rental_uris":{"android":"levelo://app?vid=bd1d6f57-3c21-4353-9213-6cdadf1ac2b8","ios":"levelo://app?vid=bd1d6f57-3c21-4353-9213-6cdadf1ac2b8"},"vehicle_type_id":"4","last_reported":1748466589,"current_range_meters":1600,"station_id":"ce4bhgh2rcd13ifvqfb0","pricing_plan_id":"cebpf4jnsgd1na2vs0mg"},{"bike_id":"44a04aac-0228-4a88-b1c4-62daa67746f4","system_id":"levelo_inurba_marseille","lat":43.30379,"lon":5.42482,"is_reserved":false,"is_disabled":true,"rental_uris":{"android":"levelo://app?vid=44a04aac-0228-4a88-b1c4-62daa67746f4","ios":"levelo://app?vid=44a04aac-0228-4a88-b1c4-62daa67746f4"},"vehicle_type_id":"4","last_reported":1748466589,"current_range_meters":1600,"station_id":"ce4bhoh2rcd13ifvqh6g","pricing_plan_id":"cebpf4jnsgd1na2vs0mg"},{"bike_id":"851e15e1-50a2-453e-8e73-f1d211015a47","system_id":"levelo_inurba_marseille","lat":43.23192,"lon":5.35547,"is_reserved":false,"is_disabled":true,"rental_uris":{"android":"levelo://app?vid=851e15e1-50a2-453e-8e73-f1d211015a47","ios":"levelo://app?vid=851e15e1-50a2-453e-8e73-f1d211015a47"},"vehicle_type_id":"4","last_reported":1748466589,"current_range_meters":1600,"station_id":"ce4bhu92rcd13ifvqi70","pricing_plan_id":"cebpf4jnsgd1na2vs0mg"},{"bike_id":"443004d0-5e76-4011-aa1d-e28b9d37d601","system_id":"levelo_inurba_marseille","lat":43.315887,"lon":5.368995,"is_reserved":false,"is_disabled":true,"rental_uris":{"android":"levelo://app?vid=443004d0-5e76-4011-aa1d-e28b9d37d601","ios":"levelo://app?vid=443004d0-5e76-4011-aa1d-e28b9d37d601"},"vehicle_type_id":"4","last_reported":1748466589,"current_range_meters":2000,"station_id":"","pricing_plan_id":"cebpf4jnsgd1na2vs0mg"},{"bike_id":"da1bb41e-0d30-4c69-af6f-17a6862c9cbc","system_id":"levelo_inurba_marseille","lat":43.29268,"lon":5.38433,"is_reserved":false,"is_disabled":true,"rental_uris":{"android":"levelo://app?vid=da1bb41e-0d30-4c69-af6f-17a6862c9cbc","ios":"levelo://app?vid=da1bb41e-0d30-4c69-af6f-17a6862c9cbc"},"vehicle_type_id":"4","last_reported":1748466589,"current_range_meters":2000,"station_id":"ce4bh692rcd13ifvqea0","pricing_plan_id":"cebpf4jnsgd1na2vs0mg"},{"bike_id":"95905bdb-1cb7-4f3d-94bb-8ac9edfe1a32","system_id":"levelo_inurba_marseille","lat":43.26213,"lon":5.40476,"is_reserved":false,"is_disabled":true,"rental_uris":{"android":"levelo://app?vid=95905bdb-1cb7-4f3d-94bb-8ac9edfe1a32","ios":"levelo://app?vid=95905bdb-1cb7-4f3d-94bb-8ac9edfe1a32"},"vehicle_type_id":"4","last_reported":1748466589,"current_range_meters":2000,"station_id":"ce4bhmh2rcd13ifvqgmg","pricing_plan_id":"cebpf4jnsgd1na2vs0mg"},{"bike_id":"f4c45e95-54cf-46e5-83c5-d89c27c9a69c","system_id":"levelo_inurba_marseille","lat":43.27307,"lon":5.41569,"is_reserved":false,"is_disabled":false,"rental_uris":{"android":"levelo://app?vid=f4c45e95-54cf-46e5-83c5-d89c27c9a69c","ios":"levelo://app?vid=f4c45e95-54cf-46e5-83c5-d89c27c9a69c"},"vehicle_type_id":"4","last_reported":1748466589,"current_range_meters":2800,"station_id":"","pricing_plan_id":"cebpf4jnsgd1na2vs0mg"},{"bike_id":"a6fede81-4f9d-4edb-82a9-b2d9f709f4e2","system_id":"levelo_inurba_marseille","lat":43.27917,"lon":5.39584,"is_reserved":false,"is_disabled":false,"rental_uris":{"android":"levelo://app?vid=a6fede81-4f9d-4edb-82a9-b2d9f709f4e2","ios":"levelo://app?vid=a6fede81-4f9d-4edb-82a9-b2d9f709f4e2"},"vehicle_type_id":"4","last_reported":1748466589,"current_range_meters":2800,"station_id":"ce4bhf92rcd13ifvqf40","pricing_plan_id":"cebpf4jnsgd1na2vs0mg"},{"bike_id":"b90ae44e-a4d2-4f4c-aa83-1d08e99f2db6","system_id":"levelo_inurba_marseille","lat":43.29423,"lon":5.38635,"is_reserved":false,"is_disabled":false,"rental_uris":{"android":"levelo://app?vid=b90ae44e-a4d2-4f4c-aa83-1d08e99f2db6","ios":"levelo://app?vid=b90ae44e-a4d2-4f4c-aa83-1d08e99f2db6"},"vehicle_type_id":"4","last_reported":1748466589,"current_range_meters":3200,"station_id":"ce4bh2h2rcd13ifvqdh0","pricing_plan_id":"cebpf4jnsgd1na2vs0mg"},{"bike_id":"5f20d45f-d2e9-4d77-8040-0742797294b7","system_id":"levelo_inurba_marseille","lat":43.29837,"lon":5.36265,"is_reserved":false,"is_disabled":false,"rental_uris":{"android":"levelo://app?vid=5f20d45f-d2e9-4d77-8040-0742797294b7","ios":"levelo://app?vid=5f20d45f-d2e9-4d77-8040-0742797294b7"},"vehicle_type_id":"4","last_reported":1748466589,"current_range_meters":3600,"station_id":"ce4bgpp2rcd13ifvqc3g","pricing_plan_id":"cebpf4jnsgd1na2vs0mg"},{"bike_id":"234fa026-6a55-4f1e-89b1-c287a6041032","system_id":"levelo_inurba_marseille","lat":43.29413,"lon":5.38638,"is_reserved":false,"is_disabled":false,"rental_uris":{"android":"levelo://app?vid=234fa026-6a55-4f1e-89b1-c287a6041032","ios":"levelo://app?vid=234fa026-6a55-4f1e-89b1-c287a6041032"},"vehicle_type_id":"4","last_reported":1748466589,"current_range_meters":3600,"station_id":"ce4bh2h2rcd13ifvqdh0","pricing_plan_id":"cebpf4jnsgd1na2vs0mg"},{"bike_id":"29c5dca7-aad6-46e5-ad71-e1eab7f5e9fe","system_id":"levelo_inurba_marseille","lat":43.29416,"lon":5.38633,"is_reserved":false,"is_disabled":false,"rental_uris":{"android":"levelo://app?vid=29c5dca7-aad6-46e5-ad71-e1eab7f5e9fe","ios":"levelo://app?vid=29c5dca7-aad6-46e5-ad71-e1eab7f5e9fe"},"vehicle_type_id":"4","last_reported":1748466589,"current_range_meters":3600,"station_id":"ce4bh2h2rcd13ifvqdh0","pricing_plan_id":"cebpf4jnsgd1na2vs0mg"},{"bike_id":"7cf07443-1484-409d-98df-f9d727aa7632","system_id":"levelo_inurba_marseille","lat":43.2886,"lon":5.35838,"is_reserved":false,"is_disabled":false,"rental_uris":{"android":"levelo://app?vid=7cf07443-1484-409d-98df-f9d727aa7632","ios":"levelo://app?vid=7cf07443-1484-409d-98df-f9d727aa7632"},"vehicle_type_id":"4","last_reported":1748466589,"current_range_meters":4400,"station_id":"ce4bhb12rcd13ifvqem0","pricing_plan_id":"cebpf4jnsgd1na2vs0mg"},{"bike_id":"81168970-32f9-4fdd-921a-5ec5f5ea0bdd","system_id":"levelo_inurba_marseille","lat":43.25496,"lon":5.37647,"is_reserved":false,"is_disabled":false,"rental_uris":{"android":"levelo://app?vid=81168970-32f9-4fdd-921a-5ec5f5ea0bdd","ios":"levelo://app?vid=81168970-32f9-4fdd-921a-5ec5f5ea0bdd"},"vehicle_type_id":"4","last_reported":1748466589,"current_range_meters":4400,"station_id":"ce4bhh12rcd13ifvqff0","pricing_plan_id":"cebpf4jnsgd1na2vs0mg"},{"bike_id":"6c3e20c0-5ec2-4632-94f5-a0068cfdb029","system_id":"levelo_inurba_marseille","lat":43.29975,"lon":5.38487,"is_reserved":false,"is_disabled":false,"rental_uris":{"android":"levelo://app?vid=6c3e20c0-5ec2-4632-94f5-a0068cfdb029","ios":"levelo://app?vid=6c3e20c0-5ec2-4632-94f5-a0068cfdb029"},"vehicle_type_id":"4","last_reported":1748466589,"current_range_meters":4800,"station_id":"ce4bgj92rcd13ifvqbd0","pricing_plan_id":"cebpf4jnsgd1na2vs0mg"},{"bike_id":"47a33b87-d6ed-40f4-8a03-5b029ea48b64","system_id":"levelo_inurba_marseille","lat":43.29634,"lon":5.40594,"is_reserved":false,"is_disabled":false,"rental_uris":{"android":"levelo://app?vid=47a33b87-d6ed-40f4-8a03-5b029ea48b64","ios":"levelo://app?vid=47a33b87-d6ed-40f4-8a03-5b029ea48b64"},"vehicle_type_id":"4","last_reported":1748466589,"current_range_meters":4800,"station_id":"ce4bh0h2rcd13ifvqd60","pricing_plan_id":"cebpf4jnsgd1na2vs0mg"},{"bike_id":"87a36ae7-f450-4ffc-90ef-24bb7175caca","system_id":"levelo_inurba_marseille","lat":43.2921,"lon":5.39321,"is_reserved":false,"is_disabled":false,"rental_uris":{"android":"levelo://app?vid=87a36ae7-f450-4ffc-90ef-24bb7175caca","ios":"levelo://app?vid=87a36ae7-f450-4ffc-90ef-24bb7175caca"},"vehicle_type_id":"4","last_reported":1748466589,"current_range_meters":4800,"station_id":"ce4bh192rcd13ifvqdd0","pricing_plan_id":"cebpf4jnsgd1na2vs0mg"},{"bike_id":"d5a7c48d-4adf-4a3a-b88a-742e1ea45d3a","system_id":"levelo_inurba_marseille","lat":43.29541,"lon":5.39397,"is_reserved":false,"is_disabled":false,"rental_uris":{"android":"levelo://app?vid=d5a7c48d-4adf-4a3a-b88a-742e1ea45d3a","ios":"levelo://app?vid=d5a7c48d-4adf-4a3a-b88a-742e1ea45d3a"},"vehicle_type_id":"4","last_reported":1748466589,"current_range_meters":4800,"station_id":"ce4bh292rcd13ifvqdf0","pricing_plan_id":"cebpf4jnsgd1na2vs0mg"},{"bike_id":"65182e11-be2c-4439-b4a5-9c37dcd3d8d3","system_id":"levelo_inurba_marseille","lat":43.29269,"lon":5.38431,"is_reserved":false,"is_disabled":false,"rental_uris":{"android":"levelo://app?vid=65182e11-be2c-4439-b4a5-9c37dcd3d8d3","ios":"levelo://app?vid=65182e11-be2c-4439-b4a5-9c37dcd3d8d3"},"vehicle_type_id":"4","last_reported":1748466589,"current_range_meters":4800,"station_id":"ce4bh692rcd13ifvqea0","pricing_plan_id":"cebpf4jnsgd1na2vs0mg"},{"bike_id":"6b82d62b-fee6-4675-bb29-66afd4028d02","system_id":"levelo_inurba_marseille","lat":43.29968,"lon":5.38491,"is_reserved":false,"is_disabled":false,"rental_uris":{"android":"levelo://app?vid=6b82d62b-fee6-4675-bb29-66afd4028d02","ios":"levelo://app?vid=6b82d62b-fee6-4675-bb29-66afd4028d02"},"vehicle_type_id":"4","last_reported":1748466589,"current_range_meters":5600,"station_id":"ce4bgj92rcd13ifvqbd0","pricing_plan_id":"cebpf4jnsgd1na2vs0mg"},{"bike_id":"82fa4e8c-3134-4f76-95de-396eb362a742","system_id":"levelo_inurba_marseille","lat":43.31327,"lon":5.39687,"is_reserved":false,"is_disabled":false,"rental_uris":{"android":"levelo://app?vid=82fa4e8c-3134-4f76-95de-396eb362a742","ios":"levelo://app?vid=82fa4e8c-3134-4f76-95de-396eb362a742"},"vehicle_type_id":"4","last_reported":1748466589,"current_range_meters":5600,"station_id":"ce4bgvp2rcd13ifvqcu0","pricing_plan_id":"cebpf4jnsgd1na2vs0mg"},{"bike_id":"5e969931-2147-4ca7-a991-453bf62bde74","system_id":"levelo_inurba_marseille","lat":43.3171,"lon":5.40425,"is_reserved":false,"is_disabled":false,"rental_uris":{"android":"levelo://app?vid=5e969931-2147-4ca7-a991-453bf62bde74","ios":"levelo://app?vid=5e969931-2147-4ca7-a991-453bf62bde74"},"vehicle_type_id":"4","last_reported":1748466589,"current_range_meters":5600,"station_id":"ce4bh012rcd13ifvqd00","pricing_plan_id":"cebpf4jnsgd1na2vs0mg"},{"bike_id":"02876833-2e8c-4c92-8dcd-48331d0ab1cc","system_id":"levelo_inurba_marseille","lat":43.29418,"lon":5.38627,"is_reserved":false,"is_disabled":false,"rental_uris":{"android":"levelo://app?vid=02876833-2e8c-4c92-8dcd-48331d0ab1cc","ios":"levelo://app?vid=02876833-2e8c-4c92-8dcd-48331d0ab1cc"},"vehicle_type_id":"4","last_reported":1748466589,"current_range_meters":5600,"station_id":"ce4bh2h2rcd13ifvqdh0","pricing_plan_id":"cebpf4jnsgd1na2vs0mg"},{"bike_id":"a5f90b1e-a09e-40ad-8d54-7442721c8689","system_id":"levelo_inurba_marseille","lat":43.24634,"lon":5.39233,"is_reserved":false,"is_disabled":false,"rental_uris":{"android":"levelo://app?vid=a5f90b1e-a09e-40ad-8d54-7442721c8689","ios":"levelo://app?vid=a5f90b1e-a09e-40ad-8d54-7442721c8689"},"vehicle_type_id":"4","last_reported":1748466589,"current_range_meters":6000,"station_id":"","pricing_plan_id":"cebpf4jnsgd1na2vs0mg"},{"bike_id":"3f8d1586-b6d7-4c33-9a46-add129c1c01b","system_id":"levelo_inurba_marseille","lat":43.29416,"lon":5.38636,"is_reserved":false,"is_disabled":false,"rental_uris":{"android":"levelo://app?vid=3f8d1586-b6d7-4c33-9a46-add129c1c01b","ios":"levelo://app?vid=3f8d1586-b6d7-4c33-9a46-add129c1c01b"},"vehicle_type_id":"4","last_reported":1748466589,"current_range_meters":6000,"station_id":"ce4bh2h2rcd13ifvqdh0","pricing_plan_id":"cebpf4jnsgd1na2vs0mg"},{"bike_id":"db1992ae-8df0-45a1-a5da-5a7c5ed89646","system_id":"levelo_inurba_marseille","lat":43.262151,"lon":5.374437,"is_reserved":false,"is_disabled":false,"rental_uris":{"android":"levelo://app?vid=db1992ae-8df0-45a1-a5da-5a7c5ed89646","ios":"levelo://app?vid=db1992ae-8df0-45a1-a5da-5a7c5ed89646"},"vehicle_type_id":"4","last_reported":1748466589,"current_range_meters":6000,"station_id":"ce4bhgp2rcd13ifvqfc0","pricing_plan_id":"cebpf4jnsgd1na2vs0mg"},{"bike_id":"6d2f49d4-4079-41f0-a189-90db2e417369","system_id":"levelo_inurba_marseille","lat":43.33343,"lon":5.40029,"is_reserved":false,"is_disabled":false,"rental_uris":{"android":"levelo://app?vid=6d2f49d4-4079-41f0-a189-90db2e417369","ios":"levelo://app?vid=6d2f49d4-4079-41f0-a189-90db2e417369"},"vehicle_type_id":"4","last_reported":1748466589,"current_range_meters":6400,"station_id":"","pricing_plan_id":"cebpf4jnsgd1na2vs0mg"},{"bike_id":"bef5000b-4d2d-4806-99b9-0dc4adc1d371","system_id":"levelo_inurba_marseille","lat":43.29529,"lon":5.39037,"is_reserved":false,"is_disabled":false,"rental_uris":{"android":"levelo://app?vid=bef5000b-4d2d-4806-99b9-0dc4adc1d371","ios":"levelo://app?vid=bef5000b-4d2d-4806-99b9-0dc4adc1d371"},"vehicle_type_id":"4","last_reported":1748466589,"current_range_meters":6400,"station_id":"ce4bh3p2rcd13ifvqdp0","pricing_plan_id":"cebpf4jnsgd1na2vs0mg"},{"bike_id":"9cfb7115-ebe7-4164-87f3-6e57adfa0612","system_id":"levelo_inurba_marseille","lat":43.27365,"lon":5.36238,"is_reserved":false,"is_disabled":false,"rental_uris":{"android":"levelo://app?vid=9cfb7115-ebe7-4164-87f3-6e57adfa0612","ios":"levelo://app?vid=9cfb7115-ebe7-4164-87f3-6e57adfa0612"},"vehicle_type_id":"4","last_reported":1748466589,"current_range_meters":6400,"station_id":"ce4bhbh2rcd13ifvqeo0","pricing_plan_id":"cebpf4jnsgd1na2vs0mg"},{"bike_id":"0e298602-0967-4a15-8f4b-da3075b94a79","system_id":"levelo_inurba_marseille","lat":43.24818,"lon":5.37458,"is_reserved":false,"is_disabled":false,"rental_uris":{"android":"levelo://app?vid=0e298602-0967-4a15-8f4b-da3075b94a79","ios":"levelo://app?vid=0e298602-0967-4a15-8f4b-da3075b94a79"},"vehicle_type_id":"4","last_reported":1748466589,"current_range_meters":6400,"station_id":"ce4bhgh2rcd13ifvqfb0","pricing_plan_id":"cebpf4jnsgd1na2vs0mg"},{"bike_id":"b7bb1b31-f9f1-4cf5-9e1e-aaf378f2a5c1","system_id":"levelo_inurba_marseille","lat":43.27838,"lon":5.39207,"is_reserved":false,"is_disabled":false,"rental_uris":{"android":"levelo://app?vid=b7bb1b31-f9f1-4cf5-9e1e-aaf378f2a5c1","ios":"levelo://app?vid=b7bb1b31-f9f1-4cf5-9e1e-aaf378f2a5c1"},"vehicle_type_id":"4","last_reported":1748466589,"current_range_meters":6400,"station_id":"ce4bhjp2rcd13ifvqga0","pricing_plan_id":"cebpf4jnsgd1na2vs0mg"},{"bike_id":"f3f474ef-5570-40b0-910c-b9c89b54e821","system_id":"levelo_inurba_marseille","lat":43.231867,"lon":5.399773,"is_reserved":false,"is_disabled":false,"rental_uris":{"android":"levelo://app?vid=f3f474ef-5570-40b0-910c-b9c89b54e821","ios":"levelo://app?vid=f3f474ef-5570-40b0-910c-b9c89b54e821"},"vehicle_type_id":"4","last_reported":1748466589,"current_range_meters":6400,"station_id":"ce4bhn12rcd13ifvqgqg","pricing_plan_id":"cebpf4jnsgd1na2vs0mg"},{"bike_id":"32ce1fee-e11e-4b6b-91ef-373111975b5a","system_id":"levelo_inurba_marseille","lat":43.28077,"lon":5.39658,"is_reserved":false,"is_disabled":false,"rental_uris":{"android":"levelo://app?vid=32ce1fee-e11e-4b6b-91ef-373111975b5a","ios":"levelo://app?vid=32ce1fee-e11e-4b6b-91ef-373111975b5a"},"vehicle_type_id":"4","last_reported":1748466589,"current_range_meters":6400,"station_id":"ce4bho12rcd13ifvqh2g","pricing_plan_id":"cebpf4jnsgd1na2vs0mg"},{"bike_id":"87b395fb-0dfd-464d-b68d-3afc622e0d48","system_id":"levelo_inurba_marseille","lat":43.29585,"lon":5.39481,"is_reserved":false,"is_disabled":false,"rental_uris":{"android":"levelo://app?vid=87b395fb-0dfd-464d-b68d-3afc622e0d48","ios":"levelo://app?vid=87b395fb-0dfd-464d-b68d-3afc622e0d48"},"vehicle_type_id":"4","last_reported":1748466589,"current_range_meters":6800,"station_id":"","pricing_plan_id":"cebpf4jnsgd1na2vs0mg"},{"bike_id":"4e9c0d33-96b9-4025-b4e5-c57900c7a815","system_id":"levelo_inurba_marseille","lat":43.28231,"lon":5.39071,"is_reserved":false,"is_disabled":false,"rental_uris":{"android":"levelo://app?vid=4e9c0d33-96b9-4025-b4e5-c57900c7a815","ios":"levelo://app?vid=4e9c0d33-96b9-4025-b4e5-c57900c7a815"},"vehicle_type_id":"4","last_reported":1748466589,"current_range_meters":6800,"station_id":"","pricing_plan_id":"cebpf4jnsgd1na2vs0mg"},{"bike_id":"1a9deaa6-5b0b-41ea-a3a0-9c49f0de8473","system_id":"levelo_inurba_marseille","lat":43.293278,"lon":5.411668,"is_reserved":false,"is_disabled":false,"rental_uris":{"android":"levelo://app?vid=1a9deaa6-5b0b-41ea-a3a0-9c49f0de8473","ios":"levelo://app?vid=1a9deaa6-5b0b-41ea-a3a0-9c49f0de8473"},"vehicle_type_id":"4","last_reported":1748466589,"current_range_meters":6800,"station_id":"","pricing_plan_id":"cebpf4jnsgd1na2vs0mg"},{"bike_id":"a03f4828-4c76-4959-bc2b-ff0643a96389","system_id":"levelo_inurba_marseille","lat":43.29606,"lon":5.38108,"is_reserved":false,"is_disabled":false,"rental_uris":{"android":"levelo://app?vid=a03f4828-4c76-4959-bc2b-ff0643a96389","ios":"levelo://app?vid=a03f4828-4c76-4959-bc2b-ff0643a96389"},"vehicle_type_id":"4","last_reported":1748466589,"current_range_meters":6800,"station_id":"ce4bgl12rcd13ifvqbo0","pricing_plan_id":"cebpf4jnsgd1na2vs0mg"},{"bike_id":"3e516213-0626-4a01-bb8d-ecdd2cc826af","system_id":"levelo_inurba_marseille","lat":43.27374,"lon":5.36258,"is_reserved":false,"is_disabled":false,"rental_uris":{"android":"levelo://app?vid=3e516213-0626-4a01-bb8d-ecdd2cc826af","ios":"levelo://app?vid=3e516213-0626-4a01-bb8d-ecdd2cc826af"},"vehicle_type_id":"4","last_reported":1748466589,"current_range_meters":6800,"station_id":"ce4bhbh2rcd13ifvqeo0","pricing_plan_id":"cebpf4jnsgd1na2vs0mg"},{"bike_id":"c2695326-f3eb-4763-9eb1-bd6f2d75705f","system_id":"levelo_inurba_marseille","lat":43.25118,"lon":5.40318,"is_reserved":false,"is_disabled":false,"rental_uris":{"android":"levelo://app?vid=c2695326-f3eb-4763-9eb1-bd6f2d75705f","ios":"levelo://app?vid=c2695326-f3eb-4763-9eb1-bd6f2d75705f"},"vehicle_type_id":"4","last_reported":1748466589,"current_range_meters":6800,"station_id":"ce4bhlh2rcd13ifvqgig","pricing_plan_id":"cebpf4jnsgd1na2vs0mg"},{"bike_id":"6595edd8-f6c5-43de-9b73-30ef41d96c74","system_id":"levelo_inurba_marseille","lat":43.23189,"lon":5.39974,"is_reserved":false,"is_disabled":false,"rental_uris":{"android":"levelo://app?vid=6595edd8-f6c5-43de-9b73-30ef41d96c74","ios":"levelo://app?vid=6595edd8-f6c5-43de-9b73-30ef41d96c74"},"vehicle_type_id":"4","last_reported":1748466589,"current_range_meters":6800,"station_id":"ce4bhn12rcd13ifvqgqg","pricing_plan_id":"cebpf4jnsgd1na2vs0mg"},{"bike_id":"697f1bc0-ae34-4ad9-8ede-6a27c99a6ea7","system_id":"levelo_inurba_marseille","lat":43.28001,"lon":5.4166,"is_reserved":false,"is_disabled":false,"rental_uris":{"android":"levelo://app?vid=697f1bc0-ae34-4ad9-8ede-6a27c99a6ea7","ios":"levelo://app?vid=697f1bc0-ae34-4ad9-8ede-6a27c99a6ea7"},"vehicle_type_id":"4","last_reported":1748466589,"current_range_meters":6800,"station_id":"ce4bho12rcd13ifvqh1g","pricing_plan_id":"cebpf4jnsgd1na2vs0mg"},{"bike_id":"9972125d-458d-4360-9e6a-d58511b4ba0c","system_id":"levelo_inurba_marseille","lat":43.3054,"lon":5.36475,"is_reserved":false,"is_disabled":false,"rental_uris":{"android":"levelo://app?vid=9972125d-458d-4360-9e6a-d58511b4ba0c","ios":"levelo://app?vid=9972125d-458d-4360-9e6a-d58511b4ba0c"},"vehicle_type_id":"4","last_reported":1748466589,"current_range_meters":7200,"station_id":"","pricing_plan_id":"cebpf4jnsgd1na2vs0mg"},{"bike_id":"b0699ab7-0cef-41f6-879c-b66ce18aff02","system_id":"levelo_inurba_marseille","lat":43.2762,"lon":5.36105,"is_reserved":false,"is_disabled":false,"rental_uris":{"android":"levelo://app?vid=b0699ab7-0cef-41f6-879c-b66ce18aff02","ios":"levelo://app?vid=b0699ab7-0cef-41f6-879c-b66ce18aff02"},"vehicle_type_id":"4","last_reported":1748466589,"current_range_meters":7200,"station_id":"ce4bgj92rcd13ifvqbe0","pricing_plan_id":"cebpf4jnsgd1na2vs0mg"},{"bike_id":"658a3173-993a-420e-baac-64692dead9f5","system_id":"levelo_inurba_marseille","lat":43.30883,"lon":5.39631,"is_reserved":false,"is_disabled":false,"rental_uris":{"android":"levelo://app?vid=658a3173-993a-420e-baac-64692dead9f5","ios":"levelo://app?vid=658a3173-993a-420e-baac-64692dead9f5"},"vehicle_type_id":"4","last_reported":1748466589,"current_range_meters":7200,"station_id":"ce4bh012rcd13ifvqcv0","pricing_plan_id":"cebpf4jnsgd1na2vs0mg"},{"bike_id":"d6c79f9d-2ae8-4393-9b1d-6372f2fef6cc","system_id":"levelo_inurba_marseille","lat":43.306398,"lon":5.401031,"is_reserved":false,"is_disabled":false,"rental_uris":{"android":"levelo://app?vid=d6c79f9d-2ae8-4393-9b1d-6372f2fef6cc","ios":"levelo://app?vid=d6c79f9d-2ae8-4393-9b1d-6372f2fef6cc"},"vehicle_type_id":"4","last_reported":1748466589,"current_range_meters":7200,"station_id":"ce4bh112rcd13ifvqda0","pricing_plan_id":"cebpf4jnsgd1na2vs0mg"},{"bike_id":"68ea2d59-7d3a-459f-99d2-ff7793d836ac","system_id":"levelo_inurba_marseille","lat":43.29413,"lon":5.38632,"is_reserved":false,"is_disabled":false,"rental_uris":{"android":"levelo://app?vid=68ea2d59-7d3a-459f-99d2-ff7793d836ac","ios":"levelo://app?vid=68ea2d59-7d3a-459f-99d2-ff7793d836ac"},"vehicle_type_id":"4","last_reported":1748466589,"current_range_meters":7200,"station_id":"ce4bh2h2rcd13ifvqdh0","pricing_plan_id":"cebpf4jnsgd1na2vs0mg"},{"bike_id":"d440bf96-43ec-45b0-b01f-1c5328ca29b2","system_id":"levelo_inurba_marseille","lat":43.27969,"lon":5.38734,"is_reserved":false,"is_disabled":false,"rental_uris":{"android":"levelo://app?vid=d440bf96-43ec-45b0-b01f-1c5328ca29b2","ios":"levelo://app?vid=d440bf96-43ec-45b0-b01f-1c5328ca29b2"},"vehicle_type_id":"4","last_reported":1748466589,"current_range_meters":7200,"station_id":"ce4bhg12rcd13ifvqf80","pricing_plan_id":"cebpf4jnsgd1na2vs0mg"},{"bike_id":"22bebb9a-2cf0-445e-8643-8ab0e6b368d4","system_id":"levelo_inurba_marseille","lat":43.24815,"lon":5.37443,"is_reserved":false,"is_disabled":false,"rental_uris":{"android":"levelo://app?vid=22bebb9a-2cf0-445e-8643-8ab0e6b368d4","ios":"levelo://app?vid=22bebb9a-2cf0-445e-8643-8ab0e6b368d4"},"vehicle_type_id":"4","last_reported":1748466589,"current_range_meters":7200,"station_id":"ce4bhgh2rcd13ifvqfb0","pricing_plan_id":"cebpf4jnsgd1na2vs0mg"},{"bike_id":"7660b16a-7fbd-4193-877e-2036e1bea557","system_id":"levelo_inurba_marseille","lat":43.248,"lon":5.37441,"is_reserved":false,"is_disabled":false,"rental_uris":{"android":"levelo://app?vid=7660b16a-7fbd-4193-877e-2036e1bea557","ios":"levelo://app?vid=7660b16a-7fbd-4193-877e-2036e1bea557"},"vehicle_type_id":"4","last_reported":1748466589,"current_range_meters":7200,"station_id":"ce4bhgh2rcd13ifvqfb0","pricing_plan_id":"cebpf4jnsgd1na2vs0mg"},{"bike_id":"7dde676c-38c9-4b2b-8b31-2e8abd3218c3","system_id":"levelo_inurba_marseille","lat":43.281537,"lon":5.426387,"is_reserved":false,"is_disabled":false,"rental_uris":{"android":"levelo://app?vid=7dde676c-38c9-4b2b-8b31-2e8abd3218c3","ios":"levelo://app?vid=7dde676c-38c9-4b2b-8b31-2e8abd3218c3"},"vehicle_type_id":"4","last_reported":1748466589,"current_range_meters":7200,"station_id":"ce4bhnh2rcd13ifvqgug","pricing_plan_id":"cebpf4jnsgd1na2vs0mg"},{"bike_id":"e79ef05e-bb28-4c4b-a45f-1945f54353c7","system_id":"levelo_inurba_marseille","lat":43.24061,"lon":5.37753,"is_reserved":false,"is_disabled":false,"rental_uris":{"android":"levelo://app?vid=e79ef05e-bb28-4c4b-a45f-1945f54353c7","ios":"levelo://app?vid=e79ef05e-bb28-4c4b-a45f-1945f54353c7"},"vehicle_type_id":"4","last_reported":1748466589,"current_range_meters":7200,"station_id":"ce4bhnp2rcd13ifvqgvg","pricing_plan_id":"cebpf4jnsgd1na2vs0mg"},{"bike_id":"c215d18d-38a0-40ae-a505-7d0011f9f230","system_id":"levelo_inurba_marseille","lat":43.32665,"lon":5.40989,"is_reserved":false,"is_disabled":false,"rental_uris":{"android":"levelo://app?vid=c215d18d-38a0-40ae-a505-7d0011f9f230","ios":"levelo://app?vid=c215d18d-38a0-40ae-a505-7d0011f9f230"},"vehicle_type_id":"4","last_reported":1748466589,"current_range_meters":7200,"station_id":"ce4bhpp2rcd13ifvqhgg","pricing_plan_id":"cebpf4jnsgd1na2vs0mg"},{"bike_id":"e81c314f-503d-4896-a793-3e0edb6bdb80","system_id":"levelo_inurba_marseille","lat":43.32289,"lon":5.38278,"is_reserved":false,"is_disabled":false,"rental_uris":{"android":"levelo://app?vid=e81c314f-503d-4896-a793-3e0edb6bdb80","ios":"levelo://app?vid=e81c314f-503d-4896-a793-3e0edb6bdb80"},"vehicle_type_id":"4","last_reported":1748466589,"current_range_meters":7200,"station_id":"ce4bhr12rcd13ifvqhqg","pricing_plan_id":"cebpf4jnsgd1na2vs0mg"},{"bike_id":"0dde7803-e4b4-44c8-98fe-68ad6fa3cde1","system_id":"levelo_inurba_marseille","lat":43.31731,"lon":5.38878,"is_reserved":false,"is_disabled":false,"rental_uris":{"android":"levelo://app?vid=0dde7803-e4b4-44c8-98fe-68ad6fa3cde1","ios":"levelo://app?vid=0dde7803-e4b4-44c8-98fe-68ad6fa3cde1"},"vehicle_type_id":"4","last_reported":1748466589,"current_range_meters":8000,"station_id":"","pricing_plan_id":"cebpf4jnsgd1na2vs0mg"},{"bike_id":"f0e44009-6064-4d67-80b4-0bb60ffccf01","system_id":"levelo_inurba_marseille","lat":43.28566,"lon":5.36656,"is_reserved":false,"is_disabled":false,"rental_uris":{"android":"levelo://app?vid=f0e44009-6064-4d67-80b4-0bb60ffccf01","ios":"levelo://app?vid=f0e44009-6064-4d67-80b4-0bb60ffccf01"},"vehicle_type_id":"4","last_reported":1748466589,"current_range_meters":8000,"station_id":"","pricing_plan_id":"cebpf4jnsgd1na2vs0mg"},{"bike_id":"9139eb8a-873e-4aa8-836a-e86282d655a7","system_id":"levelo_inurba_marseille","lat":43.27613,"lon":5.36105,"is_reserved":false,"is_disabled":false,"rental_uris":{"android":"levelo://app?vid=9139eb8a-873e-4aa8-836a-e86282d655a7","ios":"levelo://app?vid=9139eb8a-873e-4aa8-836a-e86282d655a7"},"vehicle_type_id":"4","last_reported":1748466589,"current_range_meters":8000,"station_id":"ce4bgj92rcd13ifvqbe0","pricing_plan_id":"cebpf4jnsgd1na2vs0mg"},{"bike_id":"65ab2ec8-e2da-47eb-be38-7bbdc1e55863","system_id":"levelo_inurba_marseille","lat":43.31688,"lon":5.40475,"is_reserved":false,"is_disabled":false,"rental_uris":{"android":"levelo://app?vid=65ab2ec8-e2da-47eb-be38-7bbdc1e55863","ios":"levelo://app?vid=65ab2ec8-e2da-47eb-be38-7bbdc1e55863"},"vehicle_type_id":"4","last_reported":1748466589,"current_range_meters":8000,"station_id":"ce4bh012rcd13ifvqd00","pricing_plan_id":"cebpf4jnsgd1na2vs0mg"},{"bike_id":"44c03c77-874f-4b10-90cf-3825840aaba8","system_id":"levelo_inurba_marseille","lat":43.29266,"lon":5.38409,"is_reserved":false,"is_disabled":false,"rental_uris":{"android":"levelo://app?vid=44c03c77-874f-4b10-90cf-3825840aaba8","ios":"levelo://app?vid=44c03c77-874f-4b10-90cf-3825840aaba8"},"vehicle_type_id":"4","last_reported":1748466589,"current_range_meters":8000,"station_id":"ce4bh692rcd13ifvqea0","pricing_plan_id":"cebpf4jnsgd1na2vs0mg"},{"bike_id":"594fa21a-e4ec-4adb-b66e-58ef99b2c5c6","system_id":"levelo_inurba_marseille","lat":43.24817,"lon":5.3745,"is_reserved":false,"is_disabled":false,"rental_uris":{"android":"levelo://app?vid=594fa21a-e4ec-4adb-b66e-58ef99b2c5c6","ios":"levelo://app?vid=594fa21a-e4ec-4adb-b66e-58ef99b2c5c6"},"vehicle_type_id":"4","last_reported":1748466589,"current_range_meters":8000,"station_id":"ce4bhgh2rcd13ifvqfb0","pricing_plan_id":"cebpf4jnsgd1na2vs0mg"},{"bike_id":"69764f42-9c92-445f-936a-157bbf235d43","system_id":"levelo_inurba_marseille","lat":43.27571,"lon":5.38416,"is_reserved":false,"is_disabled":false,"rental_uris":{"android":"levelo://app?vid=69764f42-9c92-445f-936a-157bbf235d43","ios":"levelo://app?vid=69764f42-9c92-445f-936a-157bbf235d43"},"vehicle_type_id":"4","last_reported":1748466589,"current_range_meters":8000,"station_id":"ce4bhh92rcd13ifvqfi0","pricing_plan_id":"cebpf4jnsgd1na2vs0mg"},{"bike_id":"b4f35352-73bb-43fd-9191-cbf43e80e737","system_id":"levelo_inurba_marseille","lat":43.27567,"lon":5.38413,"is_reserved":false,"is_disabled":false,"rental_uris":{"android":"levelo://app?vid=b4f35352-73bb-43fd-9191-cbf43e80e737","ios":"levelo://app?vid=b4f35352-73bb-43fd-9191-cbf43e80e737"},"vehicle_type_id":"4","last_reported":1748466589,"current_range_meters":8000,"station_id":"ce4bhh92rcd13ifvqfi0","pricing_plan_id":"cebpf4jnsgd1na2vs0mg"},{"bike_id":"b7c3f369-2ba0-4cb9-96f0-a45973a40bef","system_id":"levelo_inurba_marseille","lat":43.25585,"lon":5.38237,"is_reserved":false,"is_disabled":false,"rental_uris":{"android":"levelo://app?vid=b7c3f369-2ba0-4cb9-96f0-a45973a40bef","ios":"levelo://app?vid=b7c3f369-2ba0-4cb9-96f0-a45973a40bef"},"vehicle_type_id":"4","last_reported":1748466589,"current_range_meters":8000,"station_id":"ce4bhih2rcd13ifvqfs0","pricing_plan_id":"cebpf4jnsgd1na2vs0mg"},{"bike_id":"b80ee325-09b2-4724-993d-4f8d3707c41c","system_id":"levelo_inurba_marseille","lat":43.25862,"lon":5.39902,"is_reserved":false,"is_disabled":false,"rental_uris":{"android":"levelo://app?vid=b80ee325-09b2-4724-993d-4f8d3707c41c","ios":"levelo://app?vid=b80ee325-09b2-4724-993d-4f8d3707c41c"},"vehicle_type_id":"4","last_reported":1748466589,"current_range_meters":8000,"station_id":"ce4bhl92rcd13ifvqghg","pricing_plan_id":"cebpf4jnsgd1na2vs0mg"},{"bike_id":"95ac27c2-1be8-4c47-aa7a-4f95606431be","system_id":"levelo_inurba_marseille","lat":43.24178,"lon":5.39732,"is_reserved":false,"is_disabled":false,"rental_uris":{"android":"levelo://app?vid=95ac27c2-1be8-4c47-aa7a-4f95606431be","ios":"levelo://app?vid=95ac27c2-1be8-4c47-aa7a-4f95606431be"},"vehicle_type_id":"4","last_reported":1748466589,"current_range_meters":8000,"station_id":"ce4bhn12rcd13ifvqgpg","pricing_plan_id":"cebpf4jnsgd1na2vs0mg"},{"bike_id":"39237a4d-1869-4c40-896a-ab5c39731355","system_id":"levelo_inurba_marseille","lat":43.28081,"lon":5.39669,"is_reserved":false,"is_disabled":false,"rental_uris":{"android":"levelo://app?vid=39237a4d-1869-4c40-896a-ab5c39731355","ios":"levelo://app?vid=39237a4d-1869-4c40-896a-ab5c39731355"},"vehicle_type_id":"4","last_reported":1748466589,"current_range_meters":8000,"station_id":"ce4bho12rcd13ifvqh2g","pricing_plan_id":"cebpf4jnsgd1na2vs0mg"},{"bike_id":"dc26b0be-3673-4f64-91ca-646ad8d89dd6","system_id":"levelo_inurba_marseille","lat":43.28,"lon":5.40013,"is_reserved":false,"is_disabled":false,"rental_uris":{"android":"levelo://app?vid=dc26b0be-3673-4f64-91ca-646ad8d89dd6","ios":"levelo://app?vid=dc26b0be-3673-4f64-91ca-646ad8d89dd6"},"vehicle_type_id":"4","last_reported":1748466589,"current_range_meters":8000,"station_id":"ce4bho92rcd13ifvqh4g","pricing_plan_id":"cebpf4jnsgd1na2vs0mg"},{"bike_id":"98234324-f3a3-438f-801c-39490a7c5660","system_id":"levelo_inurba_marseille","lat":43.33733,"lon":5.39184,"is_reserved":false,"is_disabled":false,"rental_uris":{"android":"levelo://app?vid=98234324-f3a3-438f-801c-39490a7c5660","ios":"levelo://app?vid=98234324-f3a3-438f-801c-39490a7c5660"},"vehicle_type_id":"4","last_reported":1748466589,"current_range_meters":8000,"station_id":"ce4bhr92rcd13ifvqhsg","pricing_plan_id":"cebpf4jnsgd1na2vs0mg"},{"bike_id":"52f30a6f-6965-4a05-92fc-40a90415c34d","system_id":"levelo_inurba_marseille","lat":43.29788,"lon":5.39342,"is_reserved":false,"is_disabled":false,"rental_uris":{"android":"levelo://app?vid=52f30a6f-6965-4a05-92fc-40a90415c34d","ios":"levelo://app?vid=52f30a6f-6965-4a05-92fc-40a90415c34d"},"vehicle_type_id":"4","last_reported":1748466589,"current_range_meters":8000,"station_id":"chh1huq6cuj3fo74tm60","pricing_plan_id":"cebpf4jnsgd1na2vs0mg"},{"bike_id":"e7c8a9b9-0f7e-4f93-8f26-86f0646a609e","system_id":"levelo_inurba_marseille","lat":43.33116,"lon":5.38512,"is_reserved":false,"is_disabled":false,"rental_uris":{"android":"levelo://app?vid=e7c8a9b9-0f7e-4f93-8f26-86f0646a609e","ios":"levelo://app?vid=e7c8a9b9-0f7e-4f93-8f26-86f0646a609e"},"vehicle_type_id":"4","last_reported":1748466589,"current_range_meters":8400,"station_id":"","pricing_plan_id":"cebpf4jnsgd1na2vs0mg"},{"bike_id":"b7a33bbb-6066-48e1-b85c-2222ee8ba61d","system_id":"levelo_inurba_marseille","lat":43.29744,"lon":5.37684,"is_reserved":false,"is_disabled":false,"rental_uris":{"android":"levelo://app?vid=b7a33bbb-6066-48e1-b85c-2222ee8ba61d","ios":"levelo://app?vid=b7a33bbb-6066-48e1-b85c-2222ee8ba61d"},"vehicle_type_id":"4","last_reported":1748466589,"current_range_meters":8400,"station_id":"ce4bgkh2rcd13ifvqbl0","pricing_plan_id":"cebpf4jnsgd1na2vs0mg"},{"bike_id":"74198e31-5a38-4bf6-8ca9-d01d013dbe2c","system_id":"levelo_inurba_marseille","lat":43.29877,"lon":5.39723,"is_reserved":false,"is_disabled":false,"rental_uris":{"android":"levelo://app?vid=74198e31-5a38-4bf6-8ca9-d01d013dbe2c","ios":"levelo://app?vid=74198e31-5a38-4bf6-8ca9-d01d013dbe2c"},"vehicle_type_id":"4","last_reported":1748466589,"current_range_meters":8400,"station_id":"ce4bh0h2rcd13ifvqd50","pricing_plan_id":"cebpf4jnsgd1na2vs0mg"},{"bike_id":"34e69652-a067-411f-b39e-4b66ed05afd8","system_id":"levelo_inurba_marseille","lat":43.28576,"lon":5.39497,"is_reserved":false,"is_disabled":false,"rental_uris":{"android":"levelo://app?vid=34e69652-a067-411f-b39e-4b66ed05afd8","ios":"levelo://app?vid=34e69652-a067-411f-b39e-4b66ed05afd8"},"vehicle_type_id":"4","last_reported":1748466589,"current_range_meters":8400,"station_id":"ce4bh292rcd13ifvqdg0","pricing_plan_id":"cebpf4jnsgd1na2vs0mg"},{"bike_id":"777c1035-5b28-4724-85d6-d5b6653db66e","system_id":"levelo_inurba_marseille","lat":43.29415,"lon":5.38615,"is_reserved":false,"is_disabled":false,"rental_uris":{"android":"levelo://app?vid=777c1035-5b28-4724-85d6-d5b6653db66e","ios":"levelo://app?vid=777c1035-5b28-4724-85d6-d5b6653db66e"},"vehicle_type_id":"4","last_reported":1748466589,"current_range_meters":8400,"station_id":"ce4bh2h2rcd13ifvqdh0","pricing_plan_id":"cebpf4jnsgd1na2vs0mg"},{"bike_id":"5ae6a790-62ab-42ea-baed-eafc474ab230","system_id":"levelo_inurba_marseille","lat":43.28421,"lon":5.37503,"is_reserved":false,"is_disabled":false,"rental_uris":{"android":"levelo://app?vid=5ae6a790-62ab-42ea-baed-eafc474ab230","ios":"levelo://app?vid=5ae6a790-62ab-42ea-baed-eafc474ab230"},"vehicle_type_id":"4","last_reported":1748466589,"current_range_meters":8400,"station_id":"ce4bh412rcd13ifvqds0","pricing_plan_id":"cebpf4jnsgd1na2vs0mg"},{"bike_id":"8f873e24-264b-446b-82f7-9634ff6df46c","system_id":"levelo_inurba_marseille","lat":43.275666,"lon":5.384029,"is_reserved":false,"is_disabled":false,"rental_uris":{"android":"levelo://app?vid=8f873e24-264b-446b-82f7-9634ff6df46c","ios":"levelo://app?vid=8f873e24-264b-446b-82f7-9634ff6df46c"},"vehicle_type_id":"4","last_reported":1748466589,"current_range_meters":8400,"station_id":"ce4bhh92rcd13ifvqfi0","pricing_plan_id":"cebpf4jnsgd1na2vs0mg"},{"bike_id":"9167ea6a-ce66-49ff-859f-3ca7c151003d","system_id":"levelo_inurba_marseille","lat":43.24177,"lon":5.39727,"is_reserved":false,"is_disabled":false,"rental_uris":{"android":"levelo://app?vid=9167ea6a-ce66-49ff-859f-3ca7c151003d","ios":"levelo://app?vid=9167ea6a-ce66-49ff-859f-3ca7c151003d"},"vehicle_type_id":"4","last_reported":1748466589,"current_range_meters":8400,"station_id":"ce4bhn12rcd13ifvqgpg","pricing_plan_id":"cebpf4jnsgd1na2vs0mg"},{"bike_id":"16f8c46e-dbc6-4ab1-941f-3d93ad546819","system_id":"levelo_inurba_marseille","lat":43.32295,"lon":5.38265,"is_reserved":false,"is_disabled":false,"rental_uris":{"android":"levelo://app?vid=16f8c46e-dbc6-4ab1-941f-3d93ad546819","ios":"levelo://app?vid=16f8c46e-dbc6-4ab1-941f-3d93ad546819"},"vehicle_type_id":"4","last_reported":1748466589,"current_range_meters":8400,"station_id":"ce4bhr12rcd13ifvqhqg","pricing_plan_id":"cebpf4jnsgd1na2vs0mg"},{"bike_id":"b6194222-a80b-43bc-b765-fba2143e9c5c","system_id":"levelo_inurba_marseille","lat":43.23196,"lon":5.35544,"is_reserved":false,"is_disabled":false,"rental_uris":{"android":"levelo://app?vid=b6194222-a80b-43bc-b765-fba2143e9c5c","ios":"levelo://app?vid=b6194222-a80b-43bc-b765-fba2143e9c5c"},"vehicle_type_id":"4","last_reported":1748466589,"current_range_meters":8400,"station_id":"ce4bhu92rcd13ifvqi70","pricing_plan_id":"cebpf4jnsgd1na2vs0mg"},{"bike_id":"6d7cfdcd-f061-4eee-b4e5-78d9b6729328","system_id":"levelo_inurba_marseille","lat":43.3301,"lon":5.43843,"is_reserved":false,"is_disabled":false,"rental_uris":{"android":"levelo://app?vid=6d7cfdcd-f061-4eee-b4e5-78d9b6729328","ios":"levelo://app?vid=6d7cfdcd-f061-4eee-b4e5-78d9b6729328"},"vehicle_type_id":"4","last_reported":1748466589,"current_range_meters":8800,"station_id":"","pricing_plan_id":"cebpf4jnsgd1na2vs0mg"},{"bike_id":"8c3200e7-7a7d-473d-90dc-951799b81468","system_id":"levelo_inurba_marseille","lat":43.317574,"lon":5.390101,"is_reserved":false,"is_disabled":false,"rental_uris":{"android":"levelo://app?vid=8c3200e7-7a7d-473d-90dc-951799b81468","ios":"levelo://app?vid=8c3200e7-7a7d-473d-90dc-951799b81468"},"vehicle_type_id":"4","last_reported":1748466589,"current_range_meters":8800,"station_id":"","pricing_plan_id":"cebpf4jnsgd1na2vs0mg"},{"bike_id":"deeabfb3-f2a1-4dea-8a93-e9a060871ccd","system_id":"levelo_inurba_marseille","lat":43.28936,"lon":5.36385,"is_reserved":false,"is_disabled":false,"rental_uris":{"android":"levelo://app?vid=deeabfb3-f2a1-4dea-8a93-e9a060871ccd","ios":"levelo://app?vid=deeabfb3-f2a1-4dea-8a93-e9a060871ccd"},"vehicle_type_id":"4","last_reported":1748466589,"current_range_meters":8800,"station_id":"ce4bhc92rcd13ifvqetg","pricing_plan_id":"cebpf4jnsgd1na2vs0mg"},{"bike_id":"8fa7953b-0edc-4def-9b30-025fe8cfbe09","system_id":"levelo_inurba_marseille","lat":43.25504,"lon":5.37649,"is_reserved":false,"is_disabled":false,"rental_uris":{"android":"levelo://app?vid=8fa7953b-0edc-4def-9b30-025fe8cfbe09","ios":"levelo://app?vid=8fa7953b-0edc-4def-9b30-025fe8cfbe09"},"vehicle_type_id":"4","last_reported":1748466589,"current_range_meters":8800,"station_id":"ce4bhh12rcd13ifvqff0","pricing_plan_id":"cebpf4jnsgd1na2vs0mg"},{"bike_id":"be4b293e-8744-4637-8ca2-a3e9032e9cec","system_id":"levelo_inurba_marseille","lat":43.22923,"lon":5.3539,"is_reserved":false,"is_disabled":false,"rental_uris":{"android":"levelo://app?vid=be4b293e-8744-4637-8ca2-a3e9032e9cec","ios":"levelo://app?vid=be4b293e-8744-4637-8ca2-a3e9032e9cec"},"vehicle_type_id":"4","last_reported":1748466589,"current_range_meters":8800,"station_id":"cpo3532slgdg3j2ikp40","pricing_plan_id":"cebpf4jnsgd1na2vs0mg"},{"bike_id":"8700f9c2-3063-4745-b5c7-70199a4d525f","system_id":"levelo_inurba_marseille","lat":43.26386,"lon":5.37355,"is_reserved":false,"is_disabled":false,"rental_uris":{"android":"levelo://app?vid=8700f9c2-3063-4745-b5c7-70199a4d525f","ios":"levelo://app?vid=8700f9c2-3063-4745-b5c7-70199a4d525f"},"vehicle_type_id":"4","last_reported":1748466589,"current_range_meters":9200,"station_id":"","pricing_plan_id":"cebpf4jnsgd1na2vs0mg"},{"bike_id":"16578a9c-c460-4d38-be25-a20250881a73","system_id":"levelo_inurba_marseille","lat":43.32213,"lon":5.38421,"is_reserved":false,"is_disabled":false,"rental_uris":{"android":"levelo://app?vid=16578a9c-c460-4d38-be25-a20250881a73","ios":"levelo://app?vid=16578a9c-c460-4d38-be25-a20250881a73"},"vehicle_type_id":"4","last_reported":1748466589,"current_range_meters":9200,"station_id":"","pricing_plan_id":"cebpf4jnsgd1na2vs0mg"},{"bike_id":"3c68f385-ffba-4d15-b971-4641effeeac9","system_id":"levelo_inurba_marseille","lat":43.28229,"lon":5.39078,"is_reserved":false,"is_disabled":false,"rental_uris":{"android":"levelo://app?vid=3c68f385-ffba-4d15-b971-4641effeeac9","ios":"levelo://app?vid=3c68f385-ffba-4d15-b971-4641effeeac9"},"vehicle_type_id":"4","last_reported":1748466589,"current_range_meters":9200,"station_id":"","pricing_plan_id":"cebpf4jnsgd1na2vs0mg"},{"bike_id":"bb0fdbf2-8e3c-488c-a616-278085a904aa","system_id":"levelo_inurba_marseille","lat":43.29042,"lon":5.35904,"is_reserved":false,"is_disabled":false,"rental_uris":{"android":"levelo://app?vid=bb0fdbf2-8e3c-488c-a616-278085a904aa","ios":"levelo://app?vid=bb0fdbf2-8e3c-488c-a616-278085a904aa"},"vehicle_type_id":"4","last_reported":1748466589,"current_range_meters":9200,"station_id":"ce4bha92rcd13ifvqeg0","pricing_plan_id":"cebpf4jnsgd1na2vs0mg"},{"bike_id":"3b6883fc-b1b8-4919-a71b-9e592f7bed7d","system_id":"levelo_inurba_marseille","lat":43.286123,"lon":5.35094,"is_reserved":false,"is_disabled":false,"rental_uris":{"android":"levelo://app?vid=3b6883fc-b1b8-4919-a71b-9e592f7bed7d","ios":"levelo://app?vid=3b6883fc-b1b8-4919-a71b-9e592f7bed7d"},"vehicle_type_id":"4","last_reported":1748466589,"current_range_meters":9200,"station_id":"ce4bhch2rcd13ifvqeug","pricing_plan_id":"cebpf4jnsgd1na2vs0mg"},{"bike_id":"95c1cfcd-8b91-4653-af15-1ecbbec0b429","system_id":"levelo_inurba_marseille","lat":43.26029,"lon":5.37552,"is_reserved":false,"is_disabled":false,"rental_uris":{"android":"levelo://app?vid=95c1cfcd-8b91-4653-af15-1ecbbec0b429","ios":"levelo://app?vid=95c1cfcd-8b91-4653-af15-1ecbbec0b429"},"vehicle_type_id":"4","last_reported":1748466589,"current_range_meters":9200,"station_id":"ce4bhgh2rcd13ifvqfa0","pricing_plan_id":"cebpf4jnsgd1na2vs0mg"},{"bike_id":"cd4cbd44-11ba-4177-bbbf-1de78feeb435","system_id":"levelo_inurba_marseille","lat":43.23181,"lon":5.39989,"is_reserved":false,"is_disabled":false,"rental_uris":{"android":"levelo://app?vid=cd4cbd44-11ba-4177-bbbf-1de78feeb435","ios":"levelo://app?vid=cd4cbd44-11ba-4177-bbbf-1de78feeb435"},"vehicle_type_id":"4","last_reported":1748466589,"current_range_meters":9200,"station_id":"ce4bhn12rcd13ifvqgqg","pricing_plan_id":"cebpf4jnsgd1na2vs0mg"},{"bike_id":"8e5885ce-edde-458f-9468-db58ada7cdb6","system_id":"levelo_inurba_marseille","lat":43.29592,"lon":5.38101,"is_reserved":false,"is_disabled":false,"rental_uris":{"android":"levelo://app?vid=8e5885ce-edde-458f-9468-db58ada7cdb6","ios":"levelo://app?vid=8e5885ce-edde-458f-9468-db58ada7cdb6"},"vehicle_type_id":"4","last_reported":1748466589,"current_range_meters":9600,"station_id":"ce4bgl12rcd13ifvqbo0","pricing_plan_id":"cebpf4jnsgd1na2vs0mg"},{"bike_id":"fc6b6901-cba8-4e9c-a0ae-a6798c04f3fe","system_id":"levelo_inurba_marseille","lat":43.31702,"lon":5.3779,"is_reserved":false,"is_disabled":false,"rental_uris":{"android":"levelo://app?vid=fc6b6901-cba8-4e9c-a0ae-a6798c04f3fe","ios":"levelo://app?vid=fc6b6901-cba8-4e9c-a0ae-a6798c04f3fe"},"vehicle_type_id":"4","last_reported":1748466589,"current_range_meters":9600,"station_id":"ce4bgth2rcd13ifvqch0","pricing_plan_id":"cebpf4jnsgd1na2vs0mg"},{"bike_id":"30c624de-a5e5-4c9c-8b95-e6369377f406","system_id":"levelo_inurba_marseille","lat":43.3108,"lon":5.38354,"is_reserved":false,"is_disabled":false,"rental_uris":{"android":"levelo://app?vid=30c624de-a5e5-4c9c-8b95-e6369377f406","ios":"levelo://app?vid=30c624de-a5e5-4c9c-8b95-e6369377f406"},"vehicle_type_id":"4","last_reported":1748466589,"current_range_meters":9600,"station_id":"ce4bgv92rcd13ifvqcr0","pricing_plan_id":"cebpf4jnsgd1na2vs0mg"},{"bike_id":"2c4a7944-e0e2-4a88-a193-f49f11224766","system_id":"levelo_inurba_marseille","lat":43.30243,"lon":5.400829,"is_reserved":false,"is_disabled":false,"rental_uris":{"android":"levelo://app?vid=2c4a7944-e0e2-4a88-a193-f49f11224766","ios":"levelo://app?vid=2c4a7944-e0e2-4a88-a193-f49f11224766"},"vehicle_type_id":"4","last_reported":1748466589,"current_range_meters":9600,"station_id":"ce4bgvh2rcd13ifvqcs0","pricing_plan_id":"cebpf4jnsgd1na2vs0mg"},{"bike_id":"ec10c97f-2ada-4a11-9157-43641f766b77","system_id":"levelo_inurba_marseille","lat":43.28371,"lon":5.38631,"is_reserved":false,"is_disabled":false,"rental_uris":{"android":"levelo://app?vid=ec10c97f-2ada-4a11-9157-43641f766b77","ios":"levelo://app?vid=ec10c97f-2ada-4a11-9157-43641f766b77"},"vehicle_type_id":"4","last_reported":1748466589,"current_range_meters":9600,"station_id":"ce4bh492rcd13ifvqdvg","pricing_plan_id":"cebpf4jnsgd1na2vs0mg"},{"bike_id":"6b4c845b-28f2-4789-8025-0ebd2af33459","system_id":"levelo_inurba_marseille","lat":43.28105,"lon":5.37834,"is_reserved":false,"is_disabled":false,"rental_uris":{"android":"levelo://app?vid=6b4c845b-28f2-4789-8025-0ebd2af33459","ios":"levelo://app?vid=6b4c845b-28f2-4789-8025-0ebd2af33459"},"vehicle_type_id":"4","last_reported":1748466589,"current_range_meters":9600,"station_id":"ce4bha12rcd13ifvqee0","pricing_plan_id":"cebpf4jnsgd1na2vs0mg"},{"bike_id":"beba36b1-daac-4b6b-8902-18dbf9d79af9","system_id":"levelo_inurba_marseille","lat":43.31527,"lon":5.38035,"is_reserved":false,"is_disabled":false,"rental_uris":{"android":"levelo://app?vid=beba36b1-daac-4b6b-8902-18dbf9d79af9","ios":"levelo://app?vid=beba36b1-daac-4b6b-8902-18dbf9d79af9"},"vehicle_type_id":"4","last_reported":1748466589,"current_range_meters":9600,"station_id":"ce4bhsp2rcd13ifvqi50","pricing_plan_id":"cebpf4jnsgd1na2vs0mg"},{"bike_id":"2f650bb1-6027-4191-83d2-16315820a0a7","system_id":"levelo_inurba_marseille","lat":43.29981,"lon":5.37377,"is_reserved":false,"is_disabled":false,"rental_uris":{"android":"levelo://app?vid=2f650bb1-6027-4191-83d2-16315820a0a7","ios":"levelo://app?vid=2f650bb1-6027-4191-83d2-16315820a0a7"},"vehicle_type_id":"4","last_reported":1748466589,"current_range_meters":10000,"station_id":"","pricing_plan_id":"cebpf4jnsgd1na2vs0mg"},{"bike_id":"762a6b6c-57ac-4fe1-a77d-b4e01ae78948","system_id":"levelo_inurba_marseille","lat":43.29937,"lon":5.3655,"is_reserved":false,"is_disabled":false,"rental_uris":{"android":"levelo://app?vid=762a6b6c-57ac-4fe1-a77d-b4e01ae78948","ios":"levelo://app?vid=762a6b6c-57ac-4fe1-a77d-b4e01ae78948"},"vehicle_type_id":"4","last_reported":1748466589,"current_range_meters":10000,"station_id":"ce4bgm92rcd13ifvqbr0","pricing_plan_id":"cebpf4jnsgd1na2vs0mg"},{"bike_id":"cabfcc20-8b5d-4635-9338-ba28574219ea","system_id":"levelo_inurba_marseille","lat":43.29849,"lon":5.36284,"is_reserved":false,"is_disabled":false,"rental_uris":{"android":"levelo://app?vid=cabfcc20-8b5d-4635-9338-ba28574219ea","ios":"levelo://app?vid=cabfcc20-8b5d-4635-9338-ba28574219ea"},"vehicle_type_id":"4","last_reported":1748466589,"current_range_meters":10000,"station_id":"ce4bgpp2rcd13ifvqc3g","pricing_plan_id":"cebpf4jnsgd1na2vs0mg"},{"bike_id":"64460790-5d1b-4bd0-a750-ffecd3e7bf7f","system_id":"levelo_inurba_marseille","lat":43.30891,"lon":5.39651,"is_reserved":false,"is_disabled":false,"rental_uris":{"android":"levelo://app?vid=64460790-5d1b-4bd0-a750-ffecd3e7bf7f","ios":"levelo://app?vid=64460790-5d1b-4bd0-a750-ffecd3e7bf7f"},"vehicle_type_id":"4","last_reported":1748466589,"current_range_meters":10000,"station_id":"ce4bh012rcd13ifvqcv0","pricing_plan_id":"cebpf4jnsgd1na2vs0mg"},{"bike_id":"20795f93-dfcb-4d17-a396-e3027ac3fe8f","system_id":"levelo_inurba_marseille","lat":43.28713,"lon":5.37379,"is_reserved":false,"is_disabled":false,"rental_uris":{"android":"levelo://app?vid=20795f93-dfcb-4d17-a396-e3027ac3fe8f","ios":"levelo://app?vid=20795f93-dfcb-4d17-a396-e3027ac3fe8f"},"vehicle_type_id":"4","last_reported":1748466589,"current_range_meters":10000,"station_id":"ce4bh3p2rcd13ifvqdq0","pricing_plan_id":"cebpf4jnsgd1na2vs0mg"},{"bike_id":"f7ef14ff-110d-4f7b-8dcd-0258a50863f4","system_id":"levelo_inurba_marseille","lat":43.25501,"lon":5.3765,"is_reserved":false,"is_disabled":false,"rental_uris":{"android":"levelo://app?vid=f7ef14ff-110d-4f7b-8dcd-0258a50863f4","ios":"levelo://app?vid=f7ef14ff-110d-4f7b-8dcd-0258a50863f4"},"vehicle_type_id":"4","last_reported":1748466589,"current_range_meters":10000,"station_id":"ce4bhh12rcd13ifvqff0","pricing_plan_id":"cebpf4jnsgd1na2vs0mg"},{"bike_id":"9679b3d3-00c9-4a62-83eb-0e9731ad02ed","system_id":"levelo_inurba_marseille","lat":43.27832,"lon":5.39204,"is_reserved":false,"is_disabled":false,"rental_uris":{"android":"levelo://app?vid=9679b3d3-00c9-4a62-83eb-0e9731ad02ed","ios":"levelo://app?vid=9679b3d3-00c9-4a62-83eb-0e9731ad02ed"},"vehicle_type_id":"4","last_reported":1748466589,"current_range_meters":10000,"station_id":"ce4bhjp2rcd13ifvqga0","pricing_plan_id":"cebpf4jnsgd1na2vs0mg"},{"bike_id":"5bda20a1-4642-4989-8aa9-61ce114b94f8","system_id":"levelo_inurba_marseille","lat":43.24182,"lon":5.39729,"is_reserved":false,"is_disabled":false,"rental_uris":{"android":"levelo://app?vid=5bda20a1-4642-4989-8aa9-61ce114b94f8","ios":"levelo://app?vid=5bda20a1-4642-4989-8aa9-61ce114b94f8"},"vehicle_type_id":"4","last_reported":1748466589,"current_range_meters":10000,"station_id":"ce4bhn12rcd13ifvqgpg","pricing_plan_id":"cebpf4jnsgd1na2vs0mg"},{"bike_id":"60af92f5-378b-4ca7-965f-8544c59fbbda","system_id":"levelo_inurba_marseille","lat":43.28231,"lon":5.39031,"is_reserved":false,"is_disabled":false,"rental_uris":{"android":"levelo://app?vid=60af92f5-378b-4ca7-965f-8544c59fbbda","ios":"levelo://app?vid=60af92f5-378b-4ca7-965f-8544c59fbbda"},"vehicle_type_id":"4","last_reported":1748466589,"current_range_meters":10800,"station_id":"","pricing_plan_id":"cebpf4jnsgd1na2vs0mg"},{"bike_id":"a4b57c13-9d5e-4aaf-a1b1-54fe52a2bb6d","system_id":"levelo_inurba_marseille","lat":43.3023,"lon":5.37429,"is_reserved":false,"is_disabled":false,"rental_uris":{"android":"levelo://app?vid=a4b57c13-9d5e-4aaf-a1b1-54fe52a2bb6d","ios":"levelo://app?vid=a4b57c13-9d5e-4aaf-a1b1-54fe52a2bb6d"},"vehicle_type_id":"4","last_reported":1748466589,"current_range_meters":10800,"station_id":"","pricing_plan_id":"cebpf4jnsgd1na2vs0mg"},{"bike_id":"e96e6ad8-66a5-4a74-9b8a-04311f0e6684","system_id":"levelo_inurba_marseille","lat":43.33095,"lon":5.38933,"is_reserved":false,"is_disabled":false,"rental_uris":{"android":"levelo://app?vid=e96e6ad8-66a5-4a74-9b8a-04311f0e6684","ios":"levelo://app?vid=e96e6ad8-66a5-4a74-9b8a-04311f0e6684"},"vehicle_type_id":"4","last_reported":1748466589,"current_range_meters":10800,"station_id":"","pricing_plan_id":"cebpf4jnsgd1na2vs0mg"},{"bike_id":"c84f8025-f392-4efb-8662-faa8b7ebbd21","system_id":"levelo_inurba_marseille","lat":43.295066,"lon":5.374448,"is_reserved":false,"is_disabled":false,"rental_uris":{"android":"levelo://app?vid=c84f8025-f392-4efb-8662-faa8b7ebbd21","ios":"levelo://app?vid=c84f8025-f392-4efb-8662-faa8b7ebbd21"},"vehicle_type_id":"4","last_reported":1748466589,"current_range_meters":10800,"station_id":"ce4bgh92rcd13ifvqb50","pricing_plan_id":"cebpf4jnsgd1na2vs0mg"},{"bike_id":"e2695898-3d8e-445c-b107-83d988a84c50","system_id":"levelo_inurba_marseille","lat":43.28038,"lon":5.36934,"is_reserved":false,"is_disabled":false,"rental_uris":{"android":"levelo://app?vid=e2695898-3d8e-445c-b107-83d988a84c50","ios":"levelo://app?vid=e2695898-3d8e-445c-b107-83d988a84c50"},"vehicle_type_id":"4","last_reported":1748466589,"current_range_meters":10800,"station_id":"ce4bha12rcd13ifvqef0","pricing_plan_id":"cebpf4jnsgd1na2vs0mg"},{"bike_id":"08fbb7f0-10de-4946-a42f-890babd1b26f","system_id":"levelo_inurba_marseille","lat":43.27374,"lon":5.3626,"is_reserved":false,"is_disabled":false,"rental_uris":{"android":"levelo://app?vid=08fbb7f0-10de-4946-a42f-890babd1b26f","ios":"levelo://app?vid=08fbb7f0-10de-4946-a42f-890babd1b26f"},"vehicle_type_id":"4","last_reported":1748466589,"current_range_meters":10800,"station_id":"ce4bhbh2rcd13ifvqeo0","pricing_plan_id":"cebpf4jnsgd1na2vs0mg"},{"bike_id":"084ea84a-3439-4a55-b316-1613cfb78565","system_id":"levelo_inurba_marseille","lat":43.29228,"lon":5.36075,"is_reserved":false,"is_disabled":false,"rental_uris":{"android":"levelo://app?vid=084ea84a-3439-4a55-b316-1613cfb78565","ios":"levelo://app?vid=084ea84a-3439-4a55-b316-1613cfb78565"},"vehicle_type_id":"4","last_reported":1748466589,"current_range_meters":10800,"station_id":"ce4bhbh2rcd13ifvqeqg","pricing_plan_id":"cebpf4jnsgd1na2vs0mg"},{"bike_id":"f892b13e-e581-4f88-9846-d9cf553f8640","system_id":"levelo_inurba_marseille","lat":43.28926,"lon":5.36397,"is_reserved":false,"is_disabled":false,"rental_uris":{"android":"levelo://app?vid=f892b13e-e581-4f88-9846-d9cf553f8640","ios":"levelo://app?vid=f892b13e-e581-4f88-9846-d9cf553f8640"},"vehicle_type_id":"4","last_reported":1748466589,"current_range_meters":10800,"station_id":"ce4bhc92rcd13ifvqetg","pricing_plan_id":"cebpf4jnsgd1na2vs0mg"},{"bike_id":"a0a36b1a-98cf-4220-b8ed-bc2e11b8a5b5","system_id":"levelo_inurba_marseille","lat":43.24652,"lon":5.38889,"is_reserved":false,"is_disabled":false,"rental_uris":{"android":"levelo://app?vid=a0a36b1a-98cf-4220-b8ed-bc2e11b8a5b5","ios":"levelo://app?vid=a0a36b1a-98cf-4220-b8ed-bc2e11b8a5b5"},"vehicle_type_id":"4","last_reported":1748466589,"current_range_meters":10800,"station_id":"ce4bhg12rcd13ifvqf60","pricing_plan_id":"cebpf4jnsgd1na2vs0mg"},{"bike_id":"247d9efb-32a4-4fb4-b454-4c5933d33414","system_id":"levelo_inurba_marseille","lat":43.25865,"lon":5.39901,"is_reserved":false,"is_disabled":false,"rental_uris":{"android":"levelo://app?vid=247d9efb-32a4-4fb4-b454-4c5933d33414","ios":"levelo://app?vid=247d9efb-32a4-4fb4-b454-4c5933d33414"},"vehicle_type_id":"4","last_reported":1748466589,"current_range_meters":10800,"station_id":"ce4bhl92rcd13ifvqghg","pricing_plan_id":"cebpf4jnsgd1na2vs0mg"},{"bike_id":"31c3b208-56cd-46d6-99c4-93414088c6fa","system_id":"levelo_inurba_marseille","lat":43.28158,"lon":5.42636,"is_reserved":false,"is_disabled":false,"rental_uris":{"android":"levelo://app?vid=31c3b208-56cd-46d6-99c4-93414088c6fa","ios":"levelo://app?vid=31c3b208-56cd-46d6-99c4-93414088c6fa"},"vehicle_type_id":"4","last_reported":1748466589,"current_range_meters":10800,"station_id":"ce4bhnh2rcd13ifvqgug","pricing_plan_id":"cebpf4jnsgd1na2vs0mg"},{"bike_id":"3b3f20fb-be76-498a-a9f5-ae1aa0fc1802","system_id":"levelo_inurba_marseille","lat":43.27996,"lon":5.41661,"is_reserved":false,"is_disabled":false,"rental_uris":{"android":"levelo://app?vid=3b3f20fb-be76-498a-a9f5-ae1aa0fc1802","ios":"levelo://app?vid=3b3f20fb-be76-498a-a9f5-ae1aa0fc1802"},"vehicle_type_id":"4","last_reported":1748466589,"current_range_meters":10800,"station_id":"ce4bho12rcd13ifvqh1g","pricing_plan_id":"cebpf4jnsgd1na2vs0mg"},{"bike_id":"1839a72b-1f19-439f-ba17-e7974ed596b4","system_id":"levelo_inurba_marseille","lat":43.32108,"lon":5.3748,"is_reserved":false,"is_disabled":false,"rental_uris":{"android":"levelo://app?vid=1839a72b-1f19-439f-ba17-e7974ed596b4","ios":"levelo://app?vid=1839a72b-1f19-439f-ba17-e7974ed596b4"},"vehicle_type_id":"4","last_reported":1748466589,"current_range_meters":11200,"station_id":"","pricing_plan_id":"cebpf4jnsgd1na2vs0mg"},{"bike_id":"311c0577-bc31-40ec-8254-c6c9677162f1","system_id":"levelo_inurba_marseille","lat":43.28399,"lon":5.375,"is_reserved":false,"is_disabled":false,"rental_uris":{"android":"levelo://app?vid=311c0577-bc31-40ec-8254-c6c9677162f1","ios":"levelo://app?vid=311c0577-bc31-40ec-8254-c6c9677162f1"},"vehicle_type_id":"4","last_reported":1748466589,"current_range_meters":11200,"station_id":"ce4bh412rcd13ifvqds0","pricing_plan_id":"cebpf4jnsgd1na2vs0mg"},{"bike_id":"db46cd93-68ce-4316-819a-93bc3d72015d","system_id":"levelo_inurba_marseille","lat":43.24815,"lon":5.37449,"is_reserved":false,"is_disabled":false,"rental_uris":{"android":"levelo://app?vid=db46cd93-68ce-4316-819a-93bc3d72015d","ios":"levelo://app?vid=db46cd93-68ce-4316-819a-93bc3d72015d"},"vehicle_type_id":"4","last_reported":1748466589,"current_range_meters":11200,"station_id":"ce4bhgh2rcd13ifvqfb0","pricing_plan_id":"cebpf4jnsgd1na2vs0mg"},{"bike_id":"09c32395-65bc-4527-be74-92bd138b61c7","system_id":"levelo_inurba_marseille","lat":43.311203,"lon":5.377602,"is_reserved":false,"is_disabled":false,"rental_uris":{"android":"levelo://app?vid=09c32395-65bc-4527-be74-92bd138b61c7","ios":"levelo://app?vid=09c32395-65bc-4527-be74-92bd138b61c7"},"vehicle_type_id":"4","last_reported":1748466589,"current_range_meters":11600,"station_id":"ce4bgt92rcd13ifvqcg0","pricing_plan_id":"cebpf4jnsgd1na2vs0mg"},{"bike_id":"7e1a90e1-9d05-4de2-9306-3428f7682cba","system_id":"levelo_inurba_marseille","lat":43.29419,"lon":5.38636,"is_reserved":false,"is_disabled":false,"rental_uris":{"android":"levelo://app?vid=7e1a90e1-9d05-4de2-9306-3428f7682cba","ios":"levelo://app?vid=7e1a90e1-9d05-4de2-9306-3428f7682cba"},"vehicle_type_id":"4","last_reported":1748466589,"current_range_meters":11600,"station_id":"ce4bh2h2rcd13ifvqdh0","pricing_plan_id":"cebpf4jnsgd1na2vs0mg"},{"bike_id":"87bbad0c-8c28-481d-9de5-144650e2492b","system_id":"levelo_inurba_marseille","lat":43.24815,"lon":5.37452,"is_reserved":false,"is_disabled":false,"rental_uris":{"android":"levelo://app?vid=87bbad0c-8c28-481d-9de5-144650e2492b","ios":"levelo://app?vid=87bbad0c-8c28-481d-9de5-144650e2492b"},"vehicle_type_id":"4","last_reported":1748466589,"current_range_meters":11600,"station_id":"ce4bhgh2rcd13ifvqfb0","pricing_plan_id":"cebpf4jnsgd1na2vs0mg"},{"bike_id":"61b14401-4371-410e-97a4-9d823c67ce1c","system_id":"levelo_inurba_marseille","lat":43.27564,"lon":5.38417,"is_reserved":false,"is_disabled":false,"rental_uris":{"android":"levelo://app?vid=61b14401-4371-410e-97a4-9d823c67ce1c","ios":"levelo://app?vid=61b14401-4371-410e-97a4-9d823c67ce1c"},"vehicle_type_id":"4","last_reported":1748466589,"current_range_meters":11600,"station_id":"ce4bhh92rcd13ifvqfi0","pricing_plan_id":"cebpf4jnsgd1na2vs0mg"},{"bike_id":"46c0bae4-c588-4bf5-a599-d1e4ce2b22ac","system_id":"levelo_inurba_marseille","lat":43.24548,"lon":5.39521,"is_reserved":false,"is_disabled":false,"rental_uris":{"android":"levelo://app?vid=46c0bae4-c588-4bf5-a599-d1e4ce2b22ac","ios":"levelo://app?vid=46c0bae4-c588-4bf5-a599-d1e4ce2b22ac"},"vehicle_type_id":"4","last_reported":1748466589,"current_range_meters":11600,"station_id":"ce4bhlp2rcd13ifvqgjg","pricing_plan_id":"cebpf4jnsgd1na2vs0mg"},{"bike_id":"22771043-09b1-43eb-91e0-5c845144e1e3","system_id":"levelo_inurba_marseille","lat":43.277135,"lon":5.408777,"is_reserved":false,"is_disabled":false,"rental_uris":{"android":"levelo://app?vid=22771043-09b1-43eb-91e0-5c845144e1e3","ios":"levelo://app?vid=22771043-09b1-43eb-91e0-5c845144e1e3"},"vehicle_type_id":"4","last_reported":1748466589,"current_range_meters":12000,"station_id":"","pricing_plan_id":"cebpf4jnsgd1na2vs0mg"},{"bike_id":"a7b28dad-b0e3-4373-84c9-ca1db05de1f6","system_id":"levelo_inurba_marseille","lat":43.30004,"lon":5.38387,"is_reserved":false,"is_disabled":false,"rental_uris":{"android":"levelo://app?vid=a7b28dad-b0e3-4373-84c9-ca1db05de1f6","ios":"levelo://app?vid=a7b28dad-b0e3-4373-84c9-ca1db05de1f6"},"vehicle_type_id":"4","last_reported":1748466589,"current_range_meters":12000,"station_id":"","pricing_plan_id":"cebpf4jnsgd1na2vs0mg"},{"bike_id":"3013266d-03ec-4779-8d20-2e5da0a480f7","system_id":"levelo_inurba_marseille","lat":43.31638,"lon":5.38807,"is_reserved":false,"is_disabled":false,"rental_uris":{"android":"levelo://app?vid=3013266d-03ec-4779-8d20-2e5da0a480f7","ios":"levelo://app?vid=3013266d-03ec-4779-8d20-2e5da0a480f7"},"vehicle_type_id":"4","last_reported":1748466589,"current_range_meters":12000,"station_id":"","pricing_plan_id":"cebpf4jnsgd1na2vs0mg"},{"bike_id":"96bf7d08-63e4-41b5-823b-055035469b02","system_id":"levelo_inurba_marseille","lat":43.295387,"lon":5.385431,"is_reserved":false,"is_disabled":false,"rental_uris":{"android":"levelo://app?vid=96bf7d08-63e4-41b5-823b-055035469b02","ios":"levelo://app?vid=96bf7d08-63e4-41b5-823b-055035469b02"},"vehicle_type_id":"4","last_reported":1748466589,"current_range_meters":12000,"station_id":"ce4bgih2rcd13ifvqba0","pricing_plan_id":"cebpf4jnsgd1na2vs0mg"},{"bike_id":"2aabf9fb-a0d7-4cd6-8adb-939f984d0b7b","system_id":"levelo_inurba_marseille","lat":43.30436,"lon":5.38885,"is_reserved":false,"is_disabled":false,"rental_uris":{"android":"levelo://app?vid=2aabf9fb-a0d7-4cd6-8adb-939f984d0b7b","ios":"levelo://app?vid=2aabf9fb-a0d7-4cd6-8adb-939f984d0b7b"},"vehicle_type_id":"4","last_reported":1748466589,"current_range_meters":12000,"station_id":"ce4bgk12rcd13ifvqbi0","pricing_plan_id":"cebpf4jnsgd1na2vs0mg"},{"bike_id":"c6a3b10d-495e-4c55-a75b-775faec46d04","system_id":"levelo_inurba_marseille","lat":43.29598,"lon":5.38089,"is_reserved":false,"is_disabled":false,"rental_uris":{"android":"levelo://app?vid=c6a3b10d-495e-4c55-a75b-775faec46d04","ios":"levelo://app?vid=c6a3b10d-495e-4c55-a75b-775faec46d04"},"vehicle_type_id":"4","last_reported":1748466589,"current_range_meters":12000,"station_id":"ce4bgl12rcd13ifvqbo0","pricing_plan_id":"cebpf4jnsgd1na2vs0mg"},{"bike_id":"51776b78-988d-43de-b793-c6bb0927eee4","system_id":"levelo_inurba_marseille","lat":43.29272,"lon":5.38434,"is_reserved":false,"is_disabled":false,"rental_uris":{"android":"levelo://app?vid=51776b78-988d-43de-b793-c6bb0927eee4","ios":"levelo://app?vid=51776b78-988d-43de-b793-c6bb0927eee4"},"vehicle_type_id":"4","last_reported":1748466589,"current_range_meters":12000,"station_id":"ce4bh692rcd13ifvqea0","pricing_plan_id":"cebpf4jnsgd1na2vs0mg"},{"bike_id":"847031ec-c235-4f90-8158-8e4eae043a67","system_id":"levelo_inurba_marseille","lat":43.28944,"lon":5.36623,"is_reserved":false,"is_disabled":false,"rental_uris":{"android":"levelo://app?vid=847031ec-c235-4f90-8158-8e4eae043a67","ios":"levelo://app?vid=847031ec-c235-4f90-8158-8e4eae043a67"},"vehicle_type_id":"4","last_reported":1748466589,"current_range_meters":12000,"station_id":"ce4bhap2rcd13ifvqek0","pricing_plan_id":"cebpf4jnsgd1na2vs0mg"},{"bike_id":"1f05a494-96b9-47a4-8160-db2c6c734351","system_id":"levelo_inurba_marseille","lat":43.25121,"lon":5.4032,"is_reserved":false,"is_disabled":false,"rental_uris":{"android":"levelo://app?vid=1f05a494-96b9-47a4-8160-db2c6c734351","ios":"levelo://app?vid=1f05a494-96b9-47a4-8160-db2c6c734351"},"vehicle_type_id":"4","last_reported":1748466589,"current_range_meters":12000,"station_id":"ce4bhlh2rcd13ifvqgig","pricing_plan_id":"cebpf4jnsgd1na2vs0mg"},{"bike_id":"47f55a1f-8588-4781-bc30-f75474d90e6f","system_id":"levelo_inurba_marseille","lat":43.241798,"lon":5.39732,"is_reserved":false,"is_disabled":false,"rental_uris":{"android":"levelo://app?vid=47f55a1f-8588-4781-bc30-f75474d90e6f","ios":"levelo://app?vid=47f55a1f-8588-4781-bc30-f75474d90e6f"},"vehicle_type_id":"4","last_reported":1748466589,"current_range_meters":12000,"station_id":"ce4bhn12rcd13ifvqgpg","pricing_plan_id":"cebpf4jnsgd1na2vs0mg"},{"bike_id":"87c01ff2-8f8f-4adb-9b71-fc3ad5eb3072","system_id":"levelo_inurba_marseille","lat":43.31731,"lon":5.42396,"is_reserved":false,"is_disabled":false,"rental_uris":{"android":"levelo://app?vid=87c01ff2-8f8f-4adb-9b71-fc3ad5eb3072","ios":"levelo://app?vid=87c01ff2-8f8f-4adb-9b71-fc3ad5eb3072"},"vehicle_type_id":"4","last_reported":1748466589,"current_range_meters":12000,"station_id":"ce4bhp92rcd13ifvqhbg","pricing_plan_id":"cebpf4jnsgd1na2vs0mg"},{"bike_id":"cd0833c7-b600-4eab-ba29-e4052986a396","system_id":"levelo_inurba_marseille","lat":43.30299,"lon":5.39204,"is_reserved":false,"is_disabled":false,"rental_uris":{"android":"levelo://app?vid=cd0833c7-b600-4eab-ba29-e4052986a396","ios":"levelo://app?vid=cd0833c7-b600-4eab-ba29-e4052986a396"},"vehicle_type_id":"4","last_reported":1748466589,"current_range_meters":12400,"station_id":"ce4bgkh2rcd13ifvqbk0","pricing_plan_id":"cebpf4jnsgd1na2vs0mg"},{"bike_id":"7270ff1a-574f-4ae9-8b4f-de038997e410","system_id":"levelo_inurba_marseille","lat":43.30875,"lon":5.39644,"is_reserved":false,"is_disabled":false,"rental_uris":{"android":"levelo://app?vid=7270ff1a-574f-4ae9-8b4f-de038997e410","ios":"levelo://app?vid=7270ff1a-574f-4ae9-8b4f-de038997e410"},"vehicle_type_id":"4","last_reported":1748466589,"current_range_meters":12400,"station_id":"ce4bh012rcd13ifvqcv0","pricing_plan_id":"cebpf4jnsgd1na2vs0mg"},{"bike_id":"c791b162-f969-4a54-9010-7bbc6e180952","system_id":"levelo_inurba_marseille","lat":43.24817,"lon":5.3745,"is_reserved":false,"is_disabled":false,"rental_uris":{"android":"levelo://app?vid=c791b162-f969-4a54-9010-7bbc6e180952","ios":"levelo://app?vid=c791b162-f969-4a54-9010-7bbc6e180952"},"vehicle_type_id":"4","last_reported":1748466589,"current_range_meters":12400,"station_id":"ce4bhgh2rcd13ifvqfb0","pricing_plan_id":"cebpf4jnsgd1na2vs0mg"},{"bike_id":"25c8e570-5052-40c4-b2f0-e69c7dc4b204","system_id":"levelo_inurba_marseille","lat":43.26207,"lon":5.3744,"is_reserved":false,"is_disabled":false,"rental_uris":{"android":"levelo://app?vid=25c8e570-5052-40c4-b2f0-e69c7dc4b204","ios":"levelo://app?vid=25c8e570-5052-40c4-b2f0-e69c7dc4b204"},"vehicle_type_id":"4","last_reported":1748466589,"current_range_meters":12400,"station_id":"ce4bhgp2rcd13ifvqfc0","pricing_plan_id":"cebpf4jnsgd1na2vs0mg"},{"bike_id":"2864c75b-5c31-4f51-804b-e90944a6d524","system_id":"levelo_inurba_marseille","lat":43.25112,"lon":5.40317,"is_reserved":false,"is_disabled":false,"rental_uris":{"android":"levelo://app?vid=2864c75b-5c31-4f51-804b-e90944a6d524","ios":"levelo://app?vid=2864c75b-5c31-4f51-804b-e90944a6d524"},"vehicle_type_id":"4","last_reported":1748466589,"current_range_meters":12400,"station_id":"ce4bhlh2rcd13ifvqgig","pricing_plan_id":"cebpf4jnsgd1na2vs0mg"},{"bike_id":"4058d3a1-76b0-452b-8ad0-8b282cc8d363","system_id":"levelo_inurba_marseille","lat":43.31728,"lon":5.42404,"is_reserved":false,"is_disabled":false,"rental_uris":{"android":"levelo://app?vid=4058d3a1-76b0-452b-8ad0-8b282cc8d363","ios":"levelo://app?vid=4058d3a1-76b0-452b-8ad0-8b282cc8d363"},"vehicle_type_id":"4","last_reported":1748466589,"current_range_meters":12400,"station_id":"ce4bhp92rcd13ifvqhbg","pricing_plan_id":"cebpf4jnsgd1na2vs0mg"},{"bike_id":"aadac860-d43c-4062-897b-20d300d16764","system_id":"levelo_inurba_marseille","lat":43.26812,"lon":5.40259,"is_reserved":false,"is_disabled":false,"rental_uris":{"android":"levelo://app?vid=aadac860-d43c-4062-897b-20d300d16764","ios":"levelo://app?vid=aadac860-d43c-4062-897b-20d300d16764"},"vehicle_type_id":"4","last_reported":1748466589,"current_range_meters":12400,"station_id":"ce501612rcd8frsf0b60","pricing_plan_id":"cebpf4jnsgd1na2vs0mg"},{"bike_id":"cf56ca3a-9667-40b3-b31a-fbe1289b5f3b","system_id":"levelo_inurba_marseille","lat":43.27629,"lon":5.36114,"is_reserved":false,"is_disabled":false,"rental_uris":{"android":"levelo://app?vid=cf56ca3a-9667-40b3-b31a-fbe1289b5f3b","ios":"levelo://app?vid=cf56ca3a-9667-40b3-b31a-fbe1289b5f3b"},"vehicle_type_id":"4","last_reported":1748466589,"current_range_meters":12800,"station_id":"ce4bgj92rcd13ifvqbe0","pricing_plan_id":"cebpf4jnsgd1na2vs0mg"},{"bike_id":"0b15a3c2-ce9b-495e-b787-c108f2ee4174","system_id":"levelo_inurba_marseille","lat":43.31222,"lon":5.36854,"is_reserved":false,"is_disabled":false,"rental_uris":{"android":"levelo://app?vid=0b15a3c2-ce9b-495e-b787-c108f2ee4174","ios":"levelo://app?vid=0b15a3c2-ce9b-495e-b787-c108f2ee4174"},"vehicle_type_id":"4","last_reported":1748466589,"current_range_meters":12800,"station_id":"ce4bgl92rcd13ifvqbq0","pricing_plan_id":"cebpf4jnsgd1na2vs0mg"},{"bike_id":"b7f96f00-37e2-44f0-b206-519286345efc","system_id":"levelo_inurba_marseille","lat":43.29083,"lon":5.38182,"is_reserved":false,"is_disabled":false,"rental_uris":{"android":"levelo://app?vid=b7f96f00-37e2-44f0-b206-519286345efc","ios":"levelo://app?vid=b7f96f00-37e2-44f0-b206-519286345efc"},"vehicle_type_id":"4","last_reported":1748466589,"current_range_meters":12800,"station_id":"ce4bh512rcd13ifvqe2g","pricing_plan_id":"cebpf4jnsgd1na2vs0mg"},{"bike_id":"0b3c6073-412c-4928-932e-c191cc6778a6","system_id":"levelo_inurba_marseille","lat":43.24807,"lon":5.37449,"is_reserved":false,"is_disabled":false,"rental_uris":{"android":"levelo://app?vid=0b3c6073-412c-4928-932e-c191cc6778a6","ios":"levelo://app?vid=0b3c6073-412c-4928-932e-c191cc6778a6"},"vehicle_type_id":"4","last_reported":1748466589,"current_range_meters":12800,"station_id":"ce4bhgh2rcd13ifvqfb0","pricing_plan_id":"cebpf4jnsgd1na2vs0mg"},{"bike_id":"6aee7286-7c1c-4b5f-a14b-2b7840021176","system_id":"levelo_inurba_marseille","lat":43.27185,"lon":5.40981,"is_reserved":false,"is_disabled":false,"rental_uris":{"android":"levelo://app?vid=6aee7286-7c1c-4b5f-a14b-2b7840021176","ios":"levelo://app?vid=6aee7286-7c1c-4b5f-a14b-2b7840021176"},"vehicle_type_id":"4","last_reported":1748466589,"current_range_meters":12800,"station_id":"ce4bhl12rcd13ifvqgf0","pricing_plan_id":"cebpf4jnsgd1na2vs0mg"},{"bike_id":"2b8cf201-3f6a-4001-9ca8-0b486ebce4e1","system_id":"levelo_inurba_marseille","lat":43.28169,"lon":5.42669,"is_reserved":false,"is_disabled":false,"rental_uris":{"android":"levelo://app?vid=2b8cf201-3f6a-4001-9ca8-0b486ebce4e1","ios":"levelo://app?vid=2b8cf201-3f6a-4001-9ca8-0b486ebce4e1"},"vehicle_type_id":"4","last_reported":1748466589,"current_range_meters":12800,"station_id":"ce4bhnh2rcd13ifvqgug","pricing_plan_id":"cebpf4jnsgd1na2vs0mg"},{"bike_id":"535b88d3-40db-47b3-9084-d48e297643ab","system_id":"levelo_inurba_marseille","lat":43.305328,"lon":5.367271,"is_reserved":false,"is_disabled":false,"rental_uris":{"android":"levelo://app?vid=535b88d3-40db-47b3-9084-d48e297643ab","ios":"levelo://app?vid=535b88d3-40db-47b3-9084-d48e297643ab"},"vehicle_type_id":"4","last_reported":1748466589,"current_range_meters":13600,"station_id":"ce4bgrp2rcd13ifvqc9g","pricing_plan_id":"cebpf4jnsgd1na2vs0mg"},{"bike_id":"de7a1fa1-b433-4f0b-8978-8a294639406e","system_id":"levelo_inurba_marseille","lat":43.29417,"lon":5.38625,"is_reserved":false,"is_disabled":false,"rental_uris":{"android":"levelo://app?vid=de7a1fa1-b433-4f0b-8978-8a294639406e","ios":"levelo://app?vid=de7a1fa1-b433-4f0b-8978-8a294639406e"},"vehicle_type_id":"4","last_reported":1748466589,"current_range_meters":13600,"station_id":"ce4bh2h2rcd13ifvqdh0","pricing_plan_id":"cebpf4jnsgd1na2vs0mg"},{"bike_id":"87eee157-b9a1-4629-a67f-35c0758860ff","system_id":"levelo_inurba_marseille","lat":43.2925,"lon":5.38448,"is_reserved":false,"is_disabled":false,"rental_uris":{"android":"levelo://app?vid=87eee157-b9a1-4629-a67f-35c0758860ff","ios":"levelo://app?vid=87eee157-b9a1-4629-a67f-35c0758860ff"},"vehicle_type_id":"4","last_reported":1748466589,"current_range_meters":13600,"station_id":"ce4bh692rcd13ifvqea0","pricing_plan_id":"cebpf4jnsgd1na2vs0mg"},{"bike_id":"2a193592-7d48-40b6-940e-6ce6b48cca23","system_id":"levelo_inurba_marseille","lat":43.28708,"lon":5.39987,"is_reserved":false,"is_disabled":false,"rental_uris":{"android":"levelo://app?vid=2a193592-7d48-40b6-940e-6ce6b48cca23","ios":"levelo://app?vid=2a193592-7d48-40b6-940e-6ce6b48cca23"},"vehicle_type_id":"4","last_reported":1748466589,"current_range_meters":13600,"station_id":"ce4bho92rcd13ifvqh3g","pricing_plan_id":"cebpf4jnsgd1na2vs0mg"},{"bike_id":"4c053a53-5a50-4e31-8104-9b41d82b2307","system_id":"levelo_inurba_marseille","lat":43.33012,"lon":5.392395,"is_reserved":false,"is_disabled":false,"rental_uris":{"android":"levelo://app?vid=4c053a53-5a50-4e31-8104-9b41d82b2307","ios":"levelo://app?vid=4c053a53-5a50-4e31-8104-9b41d82b2307"},"vehicle_type_id":"4","last_reported":1748466589,"current_range_meters":14000,"station_id":"","pricing_plan_id":"cebpf4jnsgd1na2vs0mg"},{"bike_id":"34947d76-9f89-40c9-a3f1-086d000aa683","system_id":"levelo_inurba_marseille","lat":43.29547,"lon":5.38532,"is_reserved":false,"is_disabled":false,"rental_uris":{"android":"levelo://app?vid=34947d76-9f89-40c9-a3f1-086d000aa683","ios":"levelo://app?vid=34947d76-9f89-40c9-a3f1-086d000aa683"},"vehicle_type_id":"4","last_reported":1748466589,"current_range_meters":14000,"station_id":"ce4bgih2rcd13ifvqba0","pricing_plan_id":"cebpf4jnsgd1na2vs0mg"},{"bike_id":"4213c940-dc97-46db-a6a4-052614fff09e","system_id":"levelo_inurba_marseille","lat":43.27614,"lon":5.36089,"is_reserved":false,"is_disabled":false,"rental_uris":{"android":"levelo://app?vid=4213c940-dc97-46db-a6a4-052614fff09e","ios":"levelo://app?vid=4213c940-dc97-46db-a6a4-052614fff09e"},"vehicle_type_id":"4","last_reported":1748466589,"current_range_meters":14000,"station_id":"ce4bgj92rcd13ifvqbe0","pricing_plan_id":"cebpf4jnsgd1na2vs0mg"},{"bike_id":"d0c531ec-2bc2-4eed-a8ac-a2a99cf34605","system_id":"levelo_inurba_marseille","lat":43.31121,"lon":5.37765,"is_reserved":false,"is_disabled":false,"rental_uris":{"android":"levelo://app?vid=d0c531ec-2bc2-4eed-a8ac-a2a99cf34605","ios":"levelo://app?vid=d0c531ec-2bc2-4eed-a8ac-a2a99cf34605"},"vehicle_type_id":"4","last_reported":1748466589,"current_range_meters":14000,"station_id":"ce4bgt92rcd13ifvqcg0","pricing_plan_id":"cebpf4jnsgd1na2vs0mg"},{"bike_id":"4efe5bc4-a8d1-4889-b0b6-0ef133d73d9e","system_id":"levelo_inurba_marseille","lat":43.29422,"lon":5.3863,"is_reserved":false,"is_disabled":false,"rental_uris":{"android":"levelo://app?vid=4efe5bc4-a8d1-4889-b0b6-0ef133d73d9e","ios":"levelo://app?vid=4efe5bc4-a8d1-4889-b0b6-0ef133d73d9e"},"vehicle_type_id":"4","last_reported":1748466589,"current_range_meters":14000,"station_id":"ce4bh2h2rcd13ifvqdh0","pricing_plan_id":"cebpf4jnsgd1na2vs0mg"},{"bike_id":"9fafb13d-2d34-4507-897e-78669cd7d86b","system_id":"levelo_inurba_marseille","lat":43.28697,"lon":5.37391,"is_reserved":false,"is_disabled":false,"rental_uris":{"android":"levelo://app?vid=9fafb13d-2d34-4507-897e-78669cd7d86b","ios":"levelo://app?vid=9fafb13d-2d34-4507-897e-78669cd7d86b"},"vehicle_type_id":"4","last_reported":1748466589,"current_range_meters":14000,"station_id":"ce4bh3p2rcd13ifvqdq0","pricing_plan_id":"cebpf4jnsgd1na2vs0mg"},{"bike_id":"ae9abbf2-b91a-46d7-b826-ff2bfe50810f","system_id":"levelo_inurba_marseille","lat":43.28492,"lon":5.3855,"is_reserved":false,"is_disabled":false,"rental_uris":{"android":"levelo://app?vid=ae9abbf2-b91a-46d7-b826-ff2bfe50810f","ios":"levelo://app?vid=ae9abbf2-b91a-46d7-b826-ff2bfe50810f"},"vehicle_type_id":"4","last_reported":1748466589,"current_range_meters":14000,"station_id":"ce4bh8p2rcd13ifvqeb0","pricing_plan_id":"cebpf4jnsgd1na2vs0mg"},{"bike_id":"d4616685-6fce-434a-ab22-57c9b8e71efd","system_id":"levelo_inurba_marseille","lat":43.25497,"lon":5.3765,"is_reserved":false,"is_disabled":false,"rental_uris":{"android":"levelo://app?vid=d4616685-6fce-434a-ab22-57c9b8e71efd","ios":"levelo://app?vid=d4616685-6fce-434a-ab22-57c9b8e71efd"},"vehicle_type_id":"4","last_reported":1748466589,"current_range_meters":14000,"station_id":"ce4bhh12rcd13ifvqff0","pricing_plan_id":"cebpf4jnsgd1na2vs0mg"},{"bike_id":"1308050e-a7d8-427f-bac3-1f4f14fdad9a","system_id":"levelo_inurba_marseille","lat":43.27551,"lon":5.38416,"is_reserved":false,"is_disabled":false,"rental_uris":{"android":"levelo://app?vid=1308050e-a7d8-427f-bac3-1f4f14fdad9a","ios":"levelo://app?vid=1308050e-a7d8-427f-bac3-1f4f14fdad9a"},"vehicle_type_id":"4","last_reported":1748466589,"current_range_meters":14000,"station_id":"ce4bhh92rcd13ifvqfi0","pricing_plan_id":"cebpf4jnsgd1na2vs0mg"},{"bike_id":"32a57fe5-b3c3-488a-8448-88f51be191cd","system_id":"levelo_inurba_marseille","lat":43.30879,"lon":5.3964,"is_reserved":false,"is_disabled":false,"rental_uris":{"android":"levelo://app?vid=32a57fe5-b3c3-488a-8448-88f51be191cd","ios":"levelo://app?vid=32a57fe5-b3c3-488a-8448-88f51be191cd"},"vehicle_type_id":"4","last_reported":1748466589,"current_range_meters":14400,"station_id":"ce4bh012rcd13ifvqcv0","pricing_plan_id":"cebpf4jnsgd1na2vs0mg"},{"bike_id":"54fe5ecf-c13b-42c3-a3ab-5ec4444e204a","system_id":"levelo_inurba_marseille","lat":43.3266,"lon":5.40997,"is_reserved":false,"is_disabled":false,"rental_uris":{"android":"levelo://app?vid=54fe5ecf-c13b-42c3-a3ab-5ec4444e204a","ios":"levelo://app?vid=54fe5ecf-c13b-42c3-a3ab-5ec4444e204a"},"vehicle_type_id":"4","last_reported":1748466589,"current_range_meters":14400,"station_id":"ce4bhpp2rcd13ifvqhgg","pricing_plan_id":"cebpf4jnsgd1na2vs0mg"},{"bike_id":"20216ba5-61bf-44de-983d-1d2b80d544f3","system_id":"levelo_inurba_marseille","lat":43.21755,"lon":5.34597,"is_reserved":false,"is_disabled":false,"rental_uris":{"android":"levelo://app?vid=20216ba5-61bf-44de-983d-1d2b80d544f3","ios":"levelo://app?vid=20216ba5-61bf-44de-983d-1d2b80d544f3"},"vehicle_type_id":"4","last_reported":1748466589,"current_range_meters":14400,"station_id":"st_cvj6r9ubvosntc0bgbag","pricing_plan_id":"cebpf4jnsgd1na2vs0mg"},{"bike_id":"74596cad-01b8-4827-9b35-ca1f4056673c","system_id":"levelo_inurba_marseille","lat":43.32388,"lon":5.38366,"is_reserved":false,"is_disabled":false,"rental_uris":{"android":"levelo://app?vid=74596cad-01b8-4827-9b35-ca1f4056673c","ios":"levelo://app?vid=74596cad-01b8-4827-9b35-ca1f4056673c"},"vehicle_type_id":"4","last_reported":1748466589,"current_range_meters":14800,"station_id":"","pricing_plan_id":"cebpf4jnsgd1na2vs0mg"},{"bike_id":"eeff2143-2ce5-4aff-94c7-06927655d1c9","system_id":"levelo_inurba_marseille","lat":43.298,"lon":5.40398,"is_reserved":false,"is_disabled":false,"rental_uris":{"android":"levelo://app?vid=eeff2143-2ce5-4aff-94c7-06927655d1c9","ios":"levelo://app?vid=eeff2143-2ce5-4aff-94c7-06927655d1c9"},"vehicle_type_id":"4","last_reported":1748466589,"current_range_meters":14800,"station_id":"ce4bh112rcd13ifvqd90","pricing_plan_id":"cebpf4jnsgd1na2vs0mg"},{"bike_id":"2d4332f3-aa46-4df5-a8ac-30101536916b","system_id":"levelo_inurba_marseille","lat":43.28328,"lon":5.38109,"is_reserved":false,"is_disabled":false,"rental_uris":{"android":"levelo://app?vid=2d4332f3-aa46-4df5-a8ac-30101536916b","ios":"levelo://app?vid=2d4332f3-aa46-4df5-a8ac-30101536916b"},"vehicle_type_id":"4","last_reported":1748466589,"current_range_meters":14800,"station_id":"ce4bh412rcd13ifvqdr0","pricing_plan_id":"cebpf4jnsgd1na2vs0mg"},{"bike_id":"ee2ae086-953d-4d4a-adbf-f2e6467c6ce2","system_id":"levelo_inurba_marseille","lat":43.28858,"lon":5.35847,"is_reserved":false,"is_disabled":false,"rental_uris":{"android":"levelo://app?vid=ee2ae086-953d-4d4a-adbf-f2e6467c6ce2","ios":"levelo://app?vid=ee2ae086-953d-4d4a-adbf-f2e6467c6ce2"},"vehicle_type_id":"4","last_reported":1748466589,"current_range_meters":14800,"station_id":"ce4bhb12rcd13ifvqem0","pricing_plan_id":"cebpf4jnsgd1na2vs0mg"},{"bike_id":"deceef6b-091f-4ea8-8181-845d7651b601","system_id":"levelo_inurba_marseille","lat":43.272273,"lon":5.392093,"is_reserved":false,"is_disabled":false,"rental_uris":{"android":"levelo://app?vid=deceef6b-091f-4ea8-8181-845d7651b601","ios":"levelo://app?vid=deceef6b-091f-4ea8-8181-845d7651b601"},"vehicle_type_id":"4","last_reported":1748466589,"current_range_meters":14800,"station_id":"ce4bhhp2rcd13ifvqfm0","pricing_plan_id":"cebpf4jnsgd1na2vs0mg"},{"bike_id":"19c319b8-cb5c-4a9f-a123-c087da106c08","system_id":"levelo_inurba_marseille","lat":43.2593,"lon":5.40876,"is_reserved":false,"is_disabled":false,"rental_uris":{"android":"levelo://app?vid=19c319b8-cb5c-4a9f-a123-c087da106c08","ios":"levelo://app?vid=19c319b8-cb5c-4a9f-a123-c087da106c08"},"vehicle_type_id":"4","last_reported":1748466589,"current_range_meters":14800,"station_id":"ce4bhm92rcd13ifvqglg","pricing_plan_id":"cebpf4jnsgd1na2vs0mg"},{"bike_id":"d1160911-5dba-4a70-bdeb-2e5a47931200","system_id":"levelo_inurba_marseille","lat":43.28013,"lon":5.4166,"is_reserved":false,"is_disabled":false,"rental_uris":{"android":"levelo://app?vid=d1160911-5dba-4a70-bdeb-2e5a47931200","ios":"levelo://app?vid=d1160911-5dba-4a70-bdeb-2e5a47931200"},"vehicle_type_id":"4","last_reported":1748466589,"current_range_meters":14800,"station_id":"ce4bho12rcd13ifvqh1g","pricing_plan_id":"cebpf4jnsgd1na2vs0mg"},{"bike_id":"42dca157-bdb0-4361-8022-7979135f94aa","system_id":"levelo_inurba_marseille","lat":43.28553,"lon":5.36683,"is_reserved":false,"is_disabled":false,"rental_uris":{"android":"levelo://app?vid=42dca157-bdb0-4361-8022-7979135f94aa","ios":"levelo://app?vid=42dca157-bdb0-4361-8022-7979135f94aa"},"vehicle_type_id":"4","last_reported":1748466589,"current_range_meters":15200,"station_id":"","pricing_plan_id":"cebpf4jnsgd1na2vs0mg"},{"bike_id":"389757c0-c06f-412d-b756-eb992e4affec","system_id":"levelo_inurba_marseille","lat":43.29598,"lon":5.38084,"is_reserved":false,"is_disabled":false,"rental_uris":{"android":"levelo://app?vid=389757c0-c06f-412d-b756-eb992e4affec","ios":"levelo://app?vid=389757c0-c06f-412d-b756-eb992e4affec"},"vehicle_type_id":"4","last_reported":1748466589,"current_range_meters":15200,"station_id":"ce4bgl12rcd13ifvqbo0","pricing_plan_id":"cebpf4jnsgd1na2vs0mg"},{"bike_id":"5526e1df-6947-46ae-8ced-3bc2900719c5","system_id":"levelo_inurba_marseille","lat":43.312263,"lon":5.396491,"is_reserved":false,"is_disabled":false,"rental_uris":{"android":"levelo://app?vid=5526e1df-6947-46ae-8ced-3bc2900719c5","ios":"levelo://app?vid=5526e1df-6947-46ae-8ced-3bc2900719c5"},"vehicle_type_id":"4","last_reported":1748466589,"current_range_meters":15200,"station_id":"ce4bgvp2rcd13ifvqcu0","pricing_plan_id":"cebpf4jnsgd1na2vs0mg"},{"bike_id":"3fcecb82-9ea2-41f0-8739-06c55777dd86","system_id":"levelo_inurba_marseille","lat":43.28106,"lon":5.37851,"is_reserved":false,"is_disabled":false,"rental_uris":{"android":"levelo://app?vid=3fcecb82-9ea2-41f0-8739-06c55777dd86","ios":"levelo://app?vid=3fcecb82-9ea2-41f0-8739-06c55777dd86"},"vehicle_type_id":"4","last_reported":1748466589,"current_range_meters":15200,"station_id":"ce4bha12rcd13ifvqee0","pricing_plan_id":"cebpf4jnsgd1na2vs0mg"},{"bike_id":"c2fe9171-f850-4429-8218-2cc33c69842b","system_id":"levelo_inurba_marseille","lat":43.28107,"lon":5.37835,"is_reserved":false,"is_disabled":false,"rental_uris":{"android":"levelo://app?vid=c2fe9171-f850-4429-8218-2cc33c69842b","ios":"levelo://app?vid=c2fe9171-f850-4429-8218-2cc33c69842b"},"vehicle_type_id":"4","last_reported":1748466589,"current_range_meters":15200,"station_id":"ce4bha12rcd13ifvqee0","pricing_plan_id":"cebpf4jnsgd1na2vs0mg"},{"bike_id":"6a6fd867-d419-4230-9648-48c9c377d3eb","system_id":"levelo_inurba_marseille","lat":43.25088,"lon":5.39508,"is_reserved":false,"is_disabled":false,"rental_uris":{"android":"levelo://app?vid=6a6fd867-d419-4230-9648-48c9c377d3eb","ios":"levelo://app?vid=6a6fd867-d419-4230-9648-48c9c377d3eb"},"vehicle_type_id":"4","last_reported":1748466589,"current_range_meters":15200,"station_id":"ce4bhm12rcd13ifvqgkg","pricing_plan_id":"cebpf4jnsgd1na2vs0mg"},{"bike_id":"1a29311b-963b-43b7-aadc-e18eff1d401c","system_id":"levelo_inurba_marseille","lat":43.28117,"lon":5.43875,"is_reserved":false,"is_disabled":false,"rental_uris":{"android":"levelo://app?vid=1a29311b-963b-43b7-aadc-e18eff1d401c","ios":"levelo://app?vid=1a29311b-963b-43b7-aadc-e18eff1d401c"},"vehicle_type_id":"4","last_reported":1748466589,"current_range_meters":16000,"station_id":"","pricing_plan_id":"cebpf4jnsgd1na2vs0mg"},{"bike_id":"41d74f9d-043f-415e-856c-e76e9f217fb9","system_id":"levelo_inurba_marseille","lat":43.2788,"lon":5.39532,"is_reserved":false,"is_disabled":false,"rental_uris":{"android":"levelo://app?vid=41d74f9d-043f-415e-856c-e76e9f217fb9","ios":"levelo://app?vid=41d74f9d-043f-415e-856c-e76e9f217fb9"},"vehicle_type_id":"4","last_reported":1748466589,"current_range_meters":16000,"station_id":"","pricing_plan_id":"cebpf4jnsgd1na2vs0mg"},{"bike_id":"a8df0f50-e238-464d-9f62-ca42e984d069","system_id":"levelo_inurba_marseille","lat":43.295287,"lon":5.38542,"is_reserved":false,"is_disabled":false,"rental_uris":{"android":"levelo://app?vid=a8df0f50-e238-464d-9f62-ca42e984d069","ios":"levelo://app?vid=a8df0f50-e238-464d-9f62-ca42e984d069"},"vehicle_type_id":"4","last_reported":1748466589,"current_range_meters":16000,"station_id":"ce4bgih2rcd13ifvqba0","pricing_plan_id":"cebpf4jnsgd1na2vs0mg"},{"bike_id":"8f7f9dba-c1a2-4705-9cfb-78b381b601cf","system_id":"levelo_inurba_marseille","lat":43.30927,"lon":5.40186,"is_reserved":false,"is_disabled":false,"rental_uris":{"android":"levelo://app?vid=8f7f9dba-c1a2-4705-9cfb-78b381b601cf","ios":"levelo://app?vid=8f7f9dba-c1a2-4705-9cfb-78b381b601cf"},"vehicle_type_id":"4","last_reported":1748466589,"current_range_meters":16000,"station_id":"ce4bgvp2rcd13ifvqct0","pricing_plan_id":"cebpf4jnsgd1na2vs0mg"},{"bike_id":"1eaf1f8f-fc00-4659-9f15-aa488fcf49ec","system_id":"levelo_inurba_marseille","lat":43.30428,"lon":5.39732,"is_reserved":false,"is_disabled":false,"rental_uris":{"android":"levelo://app?vid=1eaf1f8f-fc00-4659-9f15-aa488fcf49ec","ios":"levelo://app?vid=1eaf1f8f-fc00-4659-9f15-aa488fcf49ec"},"vehicle_type_id":"4","last_reported":1748466589,"current_range_meters":16000,"station_id":"ce4bh092rcd13ifvqd20","pricing_plan_id":"cebpf4jnsgd1na2vs0mg"},{"bike_id":"681b054c-a2ac-4b49-a804-5078f262adac","system_id":"levelo_inurba_marseille","lat":43.29417,"lon":5.38627,"is_reserved":false,"is_disabled":false,"rental_uris":{"android":"levelo://app?vid=681b054c-a2ac-4b49-a804-5078f262adac","ios":"levelo://app?vid=681b054c-a2ac-4b49-a804-5078f262adac"},"vehicle_type_id":"4","last_reported":1748466589,"current_range_meters":16000,"station_id":"ce4bh2h2rcd13ifvqdh0","pricing_plan_id":"cebpf4jnsgd1na2vs0mg"},