{"last_updated":1739513550,"ttl":60,"version":"2.2","data":{"bikes":[{"bike_id":"25cbed1d-98ac-4052-a7fd-879f18a4128d","system_id":"levelo_inurba_marseille","lat":43.30144,"lon":5.39866,"is_reserved":false,"is_disabled":false,"rental_uris":{"android":"levelo://app?vid=25cbed1d-98ac-4052-a7fd-879f18a4128d","ios":"levelo://app?vid=25cbed1d-98ac-4052-a7fd-879f18a4128d"},"vehicle_type_id":"4","last_reported":1739513550,"current_range_meters":38800,"station_id":"ce4bh0h2rcd13ifvqd40","pricing_plan_id":"cebpf4jnsgd1na2vs0mg"},{"bike_id":"16a054cf-d220-4a13-8e1c-680ff7bd2a57","system_id":"levelo_inurba_marseille","lat":43.284414,"lon":5.391891,"is_reserved":false,"is_disabled":false,"rental_uris":{"android":"levelo://app?vid=16a054cf-d220-4a13-8e1c-680ff7bd2a57","ios":"levelo://app?vid=16a054cf-d220-4a13-8e1c-680ff7bd2a57"},"vehicle_type_id":"4","last_reported":1739513550,"current_range_meters":38800,"station_id":"ce4bhoh2rcd13ifvqh5g","pricing_plan_id":"cebpf4jnsgd1na2vs0mg"},{"bike_id":"fabe0dc0-e9b8-4510-811e-856b5cccb082","system_id":"levelo_inurba_marseille","lat":43.25501,"lon":5.376519,"is_reserved":false,"is_disabled":true,"rental_uris":{"android":"levelo://app?vid=fabe0dc0-e9b8-4510-811e-856b5cccb082","ios":"levelo://app?vid=fabe0dc0-e9b8-4510-811e-856b5cccb082"},"vehicle_type_id":"4","last_reported":1739513550,"current_range_meters":38000,"station_id":"ce4bhh12rcd13ifvqff0","pricing_plan_id":"cebpf4jnsgd1na2vs0mg"},{"bike_id":"8de44643-9c65-479b-92b5-27d16e23072f","system_id":"levelo_inurba_marseille","lat":43.22926,"lon":5.35382,"is_reserved":false,"is_disabled":false,"rental_uris":{"android":"levelo://app?vid=8de44643-9c65-479b-92b5-27d16e23072f","ios":"levelo://app?vid=8de44643-9c65-479b-92b5-27d16e23072f"},"vehicle_type_id":"4","last_reported":1739513550,"current_range_meters":37600,"station_id":"cpo3532slgdg3j2ikp40","pricing_plan_id":"cebpf4jnsgd1na2vs0mg"},{"bike_id":"cbe1212c-5034-48c9-a46a-1647b28b6c2d","system_id":"levelo_inurba_marseille","lat":43.28338,"lon":5.38111,"is_reserved":false,"is_disabled":true,"rental_uris":{"android":"levelo://app?vid=cbe1212c-5034-48c9-a46a-1647b28b6c2d","ios":"levelo://app?vid=cbe1212c-5034-48c9-a46a-1647b28b6c2d"},"vehicle_type_id":"4","last_reported":1739513550,"current_range_meters":34000,"station_id":"ce4bh412rcd13ifvqdr0","pricing_plan_id":"cebpf4jnsgd1na2vs0mg"},{"bike_id":"74b88b07-23bd-4dcd-aea6-19664a84e9b6","system_id":"levelo_inurba_marseille","lat":43.28705,"lon":5.39977,"is_reserved":false,"is_disabled":false,"rental_uris":{"android":"levelo://app?vid=74b88b07-23bd-4dcd-aea6-19664a84e9b6","ios":"levelo://app?vid=74b88b07-23bd-4dcd-aea6-19664a84e9b6"},"vehicle_type_id":"4","last_reported":1739513550,"current_range_meters":23200,"station_id":"ce4bho92rcd13ifvqh3g","pricing_plan_id":"cebpf4jnsgd1na2vs0mg"},{"bike_id":"2e489d72-7e04-4030-9a1f-b6594b2c2b30","system_id":"levelo_inurba_marseille","lat":43.32354,"lon":5.36759,"is_reserved":false,"is_disabled":false,"rental_uris":{"android":"levelo://app?vid=2e489d72-7e04-4030-9a1f-b6594b2c2b30","ios":"levelo://app?vid=2e489d72-7e04-4030-9a1f-b6594b2c2b30"},"vehicle_type_id":"4","last_reported":1739513550,"current_range_meters":14000,"station_id":"ce4bhsh2rcd13ifvqi2g","pricing_plan_id":"cebpf4jnsgd1na2vs0mg"},{"bike_id":"68226932-c6f0-4ec0-a130-8a216e63b2ce","system_id":"levelo_inurba_marseille","lat":43.28407,"lon":5.37504,"is_reserved":false,"is_disabled":false,"rental_uris":{"android":"levelo://app?vid=68226932-c6f0-4ec0-a130-8a216e63b2ce","ios":"levelo://app?vid=68226932-c6f0-4ec0-a130-8a216e63b2ce"},"vehicle_type_id":"4","last_reported":1739513550,"current_range_meters":30000,"station_id":"ce4bh412rcd13ifvqds0","pricing_plan_id":"cebpf4jnsgd1na2vs0mg"},{"bike_id":"1d4165b9-e8af-42e7-8e88-54a0f84b4f26","system_id":"levelo_inurba_marseille","lat":43.2319,"lon":5.39963,"is_reserved":false,"is_disabled":false,"rental_uris":{"android":"levelo://app?vid=1d4165b9-e8af-42e7-8e88-54a0f84b4f26","ios":"levelo://app?vid=1d4165b9-e8af-42e7-8e88-54a0f84b4f26"},"vehicle_type_id":"4","last_reported":1739513550,"current_range_meters":31200,"station_id":"ce4bhn12rcd13ifvqgqg","pricing_plan_id":"cebpf4jnsgd1na2vs0mg"},{"bike_id":"bf46de10-7c63-4fab-a484-f7df83630723","system_id":"levelo_inurba_marseille","lat":43.251161,"lon":5.403211,"is_reserved":false,"is_disabled":false,"rental_uris":{"android":"levelo://app?vid=bf46de10-7c63-4fab-a484-f7df83630723","ios":"levelo://app?vid=bf46de10-7c63-4fab-a484-f7df83630723"},"vehicle_type_id":"4","last_reported":1739513550,"current_range_meters":18000,"station_id":"ce4bhlh2rcd13ifvqgig","pricing_plan_id":"cebpf4jnsgd1na2vs0mg"},{"bike_id":"e8887aed-fddd-4b96-bc9f-849d198fae08","system_id":"levelo_inurba_marseille","lat":43.25569,"lon":5.38253,"is_reserved":false,"is_disabled":false,"rental_uris":{"android":"levelo://app?vid=e8887aed-fddd-4b96-bc9f-849d198fae08","ios":"levelo://app?vid=e8887aed-fddd-4b96-bc9f-849d198fae08"},"vehicle_type_id":"4","last_reported":1739513550,"current_range_meters":10800,"station_id":"ce4bhih2rcd13ifvqfs0","pricing_plan_id":"cebpf4jnsgd1na2vs0mg"},{"bike_id":"3d55dfbc-79dc-4a16-8c46-cf49fec8982e","system_id":"levelo_inurba_marseille","lat":43.243865,"lon":5.370563,"is_reserved":false,"is_disabled":false,"rental_uris":{"android":"levelo://app?vid=3d55dfbc-79dc-4a16-8c46-cf49fec8982e","ios":"levelo://app?vid=3d55dfbc-79dc-4a16-8c46-cf49fec8982e"},"vehicle_type_id":"4","last_reported":1739513550,"current_range_meters":37600,"station_id":"ce4bhhh2rcd13ifvqfk0","pricing_plan_id":"cebpf4jnsgd1na2vs0mg"},{"bike_id":"115871b7-7259-4686-9175-45074f2e5cd6","system_id":"levelo_inurba_marseille","lat":43.2721,"lon":5.39168,"is_reserved":false,"is_disabled":true,"rental_uris":{"android":"levelo://app?vid=115871b7-7259-4686-9175-45074f2e5cd6","ios":"levelo://app?vid=115871b7-7259-4686-9175-45074f2e5cd6"},"vehicle_type_id":"4","last_reported":1739513550,"current_range_meters":0,"station_id":"ce4bhhp2rcd13ifvqfm0","pricing_plan_id":"cebpf4jnsgd1na2vs0mg"},{"bike_id":"8390feee-0735-4b8f-90c8-f81c741ca7d5","system_id":"levelo_inurba_marseille","lat":43.248112,"lon":5.374631,"is_reserved":false,"is_disabled":false,"rental_uris":{"android":"levelo://app?vid=8390feee-0735-4b8f-90c8-f81c741ca7d5","ios":"levelo://app?vid=8390feee-0735-4b8f-90c8-f81c741ca7d5"},"vehicle_type_id":"4","last_reported":1739513550,"current_range_meters":36000,"station_id":"ce4bhgh2rcd13ifvqfb0","pricing_plan_id":"cebpf4jnsgd1na2vs0mg"},{"bike_id":"d75c0598-f170-4aa3-b916-db7f188f9880","system_id":"levelo_inurba_marseille","lat":43.25444,"lon":5.41656,"is_reserved":false,"is_disabled":false,"rental_uris":{"android":"levelo://app?vid=d75c0598-f170-4aa3-b916-db7f188f9880","ios":"levelo://app?vid=d75c0598-f170-4aa3-b916-db7f188f9880"},"vehicle_type_id":"4","last_reported":1739513550,"current_range_meters":9200,"station_id":"","pricing_plan_id":"cebpf4jnsgd1na2vs0mg"},{"bike_id":"419461ff-c02a-44f5-8ced-15bda10c4fdc","system_id":"levelo_inurba_marseille","lat":43.29796,"lon":5.39348,"is_reserved":false,"is_disabled":false,"rental_uris":{"android":"levelo://app?vid=419461ff-c02a-44f5-8ced-15bda10c4fdc","ios":"levelo://app?vid=419461ff-c02a-44f5-8ced-15bda10c4fdc"},"vehicle_type_id":"4","last_reported":1739513550,"current_range_meters":38000,"station_id":"chh1huq6cuj3fo74tm60","pricing_plan_id":"cebpf4jnsgd1na2vs0mg"},{"bike_id":"6b42f4f1-2360-420a-81a5-fa8f868ac30d","system_id":"levelo_inurba_marseille","lat":43.27147,"lon":5.39022,"is_reserved":false,"is_disabled":false,"rental_uris":{"android":"levelo://app?vid=6b42f4f1-2360-420a-81a5-fa8f868ac30d","ios":"levelo://app?vid=6b42f4f1-2360-420a-81a5-fa8f868ac30d"},"vehicle_type_id":"4","last_reported":1739513550,"current_range_meters":38400,"station_id":"","pricing_plan_id":"cebpf4jnsgd1na2vs0mg"},{"bike_id":"c5d83290-7e41-4747-be49-5a88384d605e","system_id":"levelo_inurba_marseille","lat":43.284785,"lon":5.385368,"is_reserved":false,"is_disabled":true,"rental_uris":{"android":"levelo://app?vid=c5d83290-7e41-4747-be49-5a88384d605e","ios":"levelo://app?vid=c5d83290-7e41-4747-be49-5a88384d605e"},"vehicle_type_id":"4","last_reported":1739513550,"current_range_meters":20800,"station_id":"ce4bh8p2rcd13ifvqeb0","pricing_plan_id":"cebpf4jnsgd1na2vs0mg"},{"bike_id":"56192679-cc8f-4f99-a19c-ed0875b3f321","system_id":"levelo_inurba_marseille","lat":43.3172,"lon":5.42395,"is_reserved":false,"is_disabled":false,"rental_uris":{"android":"levelo://app?vid=56192679-cc8f-4f99-a19c-ed0875b3f321","ios":"levelo://app?vid=56192679-cc8f-4f99-a19c-ed0875b3f321"},"vehicle_type_id":"4","last_reported":1739513550,"current_range_meters":38800,"station_id":"ce4bhp92rcd13ifvqhbg","pricing_plan_id":"cebpf4jnsgd1na2vs0mg"},{"bike_id":"1e93ede2-dad8-4287-ad3b-954fc9b3cf80","system_id":"levelo_inurba_marseille","lat":43.31372,"lon":5.38504,"is_reserved":false,"is_disabled":false,"rental_uris":{"android":"levelo://app?vid=1e93ede2-dad8-4287-ad3b-954fc9b3cf80","ios":"levelo://app?vid=1e93ede2-dad8-4287-ad3b-954fc9b3cf80"},"vehicle_type_id":"4","last_reported":1739513550,"current_range_meters":8800,"station_id":"ce4bgt92rcd13ifvqcf0","pricing_plan_id":"cebpf4jnsgd1na2vs0mg"},{"bike_id":"b09f54a7-16e7-4ffa-b2d1-3540c9a254de","system_id":"levelo_inurba_marseille","lat":43.288682,"lon":5.358346,"is_reserved":false,"is_disabled":false,"rental_uris":{"android":"levelo://app?vid=b09f54a7-16e7-4ffa-b2d1-3540c9a254de","ios":"levelo://app?vid=b09f54a7-16e7-4ffa-b2d1-3540c9a254de"},"vehicle_type_id":"4","last_reported":1739513550,"current_range_meters":35200,"station_id":"ce4bhb12rcd13ifvqem0","pricing_plan_id":"cebpf4jnsgd1na2vs0mg"},{"bike_id":"b34c6303-752a-46a1-93ad-ddbc991e20b6","system_id":"levelo_inurba_marseille","lat":43.23059,"lon":5.3549,"is_reserved":false,"is_disabled":false,"rental_uris":{"android":"levelo://app?vid=b34c6303-752a-46a1-93ad-ddbc991e20b6","ios":"levelo://app?vid=b34c6303-752a-46a1-93ad-ddbc991e20b6"},"vehicle_type_id":"4","last_reported":1739513550,"current_range_meters":6400,"station_id":"cpo3342slgdg3j2ifvpg","pricing_plan_id":"cebpf4jnsgd1na2vs0mg"},{"bike_id":"f4297ec3-a745-470f-8379-4a2b1e421801","system_id":"levelo_inurba_marseille","lat":43.29029,"lon":5.35916,"is_reserved":false,"is_disabled":true,"rental_uris":{"android":"levelo://app?vid=f4297ec3-a745-470f-8379-4a2b1e421801","ios":"levelo://app?vid=f4297ec3-a745-470f-8379-4a2b1e421801"},"vehicle_type_id":"4","last_reported":1739513550,"current_range_meters":38800,"station_id":"ce4bha92rcd13ifvqeg0","pricing_plan_id":"cebpf4jnsgd1na2vs0mg"},{"bike_id":"7c814e09-a8f8-48c3-ae10-7d1fadb63c08","system_id":"levelo_inurba_marseille","lat":43.30159,"lon":5.37395,"is_reserved":false,"is_disabled":false,"rental_uris":{"android":"levelo://app?vid=7c814e09-a8f8-48c3-ae10-7d1fadb63c08","ios":"levelo://app?vid=7c814e09-a8f8-48c3-ae10-7d1fadb63c08"},"vehicle_type_id":"4","last_reported":1739513550,"current_range_meters":17600,"station_id":"ce4bgs92rcd13ifvqcc0","pricing_plan_id":"cebpf4jnsgd1na2vs0mg"},{"bike_id":"5d9be53a-98dc-4ebc-8789-5594b7be7bc7","system_id":"levelo_inurba_marseille","lat":43.31313,"lon":5.39727,"is_reserved":false,"is_disabled":false,"rental_uris":{"android":"levelo://app?vid=5d9be53a-98dc-4ebc-8789-5594b7be7bc7","ios":"levelo://app?vid=5d9be53a-98dc-4ebc-8789-5594b7be7bc7"},"vehicle_type_id":"4","last_reported":1739513550,"current_range_meters":35200,"station_id":"ce4bgvp2rcd13ifvqcu0","pricing_plan_id":"cebpf4jnsgd1na2vs0mg"},{"bike_id":"a290b386-8720-4cc5-bc8e-9a726c7bfe98","system_id":"levelo_inurba_marseille","lat":43.29964,"lon":5.38498,"is_reserved":false,"is_disabled":false,"rental_uris":{"android":"levelo://app?vid=a290b386-8720-4cc5-bc8e-9a726c7bfe98","ios":"levelo://app?vid=a290b386-8720-4cc5-bc8e-9a726c7bfe98"},"vehicle_type_id":"4","last_reported":1739513550,"current_range_meters":38000,"station_id":"ce4bgj92rcd13ifvqbd0","pricing_plan_id":"cebpf4jnsgd1na2vs0mg"},{"bike_id":"96304065-313f-4902-9b0a-147fef3fd1eb","system_id":"levelo_inurba_marseille","lat":43.30954,"lon":5.4015,"is_reserved":false,"is_disabled":false,"rental_uris":{"android":"levelo://app?vid=96304065-313f-4902-9b0a-147fef3fd1eb","ios":"levelo://app?vid=96304065-313f-4902-9b0a-147fef3fd1eb"},"vehicle_type_id":"4","last_reported":1739513550,"current_range_meters":36800,"station_id":"ce4bgvp2rcd13ifvqct0","pricing_plan_id":"cebpf4jnsgd1na2vs0mg"},{"bike_id":"3da25e73-fec0-480a-8081-623a169e9820","system_id":"levelo_inurba_marseille","lat":43.28939,"lon":5.39635,"is_reserved":false,"is_disabled":false,"rental_uris":{"android":"levelo://app?vid=3da25e73-fec0-480a-8081-623a169e9820","ios":"levelo://app?vid=3da25e73-fec0-480a-8081-623a169e9820"},"vehicle_type_id":"4","last_reported":1739513550,"current_range_meters":38000,"station_id":"ce4bh3h2rcd13ifvqdn0","pricing_plan_id":"cebpf4jnsgd1na2vs0mg"},{"bike_id":"ac563615-1c9b-4d54-94c9-bd17fd4a149f","system_id":"levelo_inurba_marseille","lat":43.28426,"lon":5.3918,"is_reserved":false,"is_disabled":false,"rental_uris":{"android":"levelo://app?vid=ac563615-1c9b-4d54-94c9-bd17fd4a149f","ios":"levelo://app?vid=ac563615-1c9b-4d54-94c9-bd17fd4a149f"},"vehicle_type_id":"4","last_reported":1739513550,"current_range_meters":38400,"station_id":"ce4bhoh2rcd13ifvqh5g","pricing_plan_id":"cebpf4jnsgd1na2vs0mg"},{"bike_id":"ba873b8c-aabf-47b9-a8e6-db454a2d5092","system_id":"levelo_inurba_marseille","lat":43.25075,"lon":5.39514,"is_reserved":false,"is_disabled":false,"rental_uris":{"android":"levelo://app?vid=ba873b8c-aabf-47b9-a8e6-db454a2d5092","ios":"levelo://app?vid=ba873b8c-aabf-47b9-a8e6-db454a2d5092"},"vehicle_type_id":"4","last_reported":1739513550,"current_range_meters":22000,"station_id":"ce4bhm12rcd13ifvqgkg","pricing_plan_id":"cebpf4jnsgd1na2vs0mg"},{"bike_id":"21d9a2f1-8b2f-4631-b798-402f8341f038","system_id":"levelo_inurba_marseille","lat":43.27969,"lon":5.38717,"is_reserved":false,"is_disabled":false,"rental_uris":{"android":"levelo://app?vid=21d9a2f1-8b2f-4631-b798-402f8341f038","ios":"levelo://app?vid=21d9a2f1-8b2f-4631-b798-402f8341f038"},"vehicle_type_id":"4","last_reported":1739513550,"current_range_meters":24400,"station_id":"ce4bhg12rcd13ifvqf80","pricing_plan_id":"cebpf4jnsgd1na2vs0mg"},{"bike_id":"5b94872e-e8e0-48b1-a4f8-764a45f452f2","system_id":"levelo_inurba_marseille","lat":43.30544,"lon":5.36699,"is_reserved":false,"is_disabled":false,"rental_uris":{"android":"levelo://app?vid=5b94872e-e8e0-48b1-a4f8-764a45f452f2","ios":"levelo://app?vid=5b94872e-e8e0-48b1-a4f8-764a45f452f2"},"vehicle_type_id":"4","last_reported":1739513550,"current_range_meters":38800,"station_id":"ce4bgrp2rcd13ifvqc9g","pricing_plan_id":"cebpf4jnsgd1na2vs0mg"},{"bike_id":"50e5a0ed-9431-4dbe-b952-8e5f0c3fa8c6","system_id":"levelo_inurba_marseille","lat":43.290329,"lon":5.359168,"is_reserved":false,"is_disabled":false,"rental_uris":{"android":"levelo://app?vid=50e5a0ed-9431-4dbe-b952-8e5f0c3fa8c6","ios":"levelo://app?vid=50e5a0ed-9431-4dbe-b952-8e5f0c3fa8c6"},"vehicle_type_id":"4","last_reported":1739513550,"current_range_meters":27600,"station_id":"ce4bha92rcd13ifvqeg0","pricing_plan_id":"cebpf4jnsgd1na2vs0mg"},{"bike_id":"2a7fbfda-36d8-455b-955d-63e67c8c1e23","system_id":"levelo_inurba_marseille","lat":43.30903,"lon":5.44032,"is_reserved":false,"is_disabled":false,"rental_uris":{"android":"levelo://app?vid=2a7fbfda-36d8-455b-955d-63e67c8c1e23","ios":"levelo://app?vid=2a7fbfda-36d8-455b-955d-63e67c8c1e23"},"vehicle_type_id":"4","last_reported":1739513550,"current_range_meters":26800,"station_id":"","pricing_plan_id":"cebpf4jnsgd1na2vs0mg"},{"bike_id":"3c94bbd2-975f-4b09-ac6e-8466a000999d","system_id":"levelo_inurba_marseille","lat":43.3362,"lon":5.41,"is_reserved":false,"is_disabled":false,"rental_uris":{"android":"levelo://app?vid=3c94bbd2-975f-4b09-ac6e-8466a000999d","ios":"levelo://app?vid=3c94bbd2-975f-4b09-ac6e-8466a000999d"},"vehicle_type_id":"4","last_reported":1739513550,"current_range_meters":38800,"station_id":"ce4bhqh2rcd13ifvqhmg","pricing_plan_id":"cebpf4jnsgd1na2vs0mg"},{"bike_id":"cd2ade96-d83c-484d-ad63-31dd855266a0","system_id":"levelo_inurba_marseille","lat":43.298768,"lon":5.397313,"is_reserved":false,"is_disabled":false,"rental_uris":{"android":"levelo://app?vid=cd2ade96-d83c-484d-ad63-31dd855266a0","ios":"levelo://app?vid=cd2ade96-d83c-484d-ad63-31dd855266a0"},"vehicle_type_id":"4","last_reported":1739513550,"current_range_meters":38800,"station_id":"ce4bh0h2rcd13ifvqd50","pricing_plan_id":"cebpf4jnsgd1na2vs0mg"},{"bike_id":"670d8b79-cf37-4bf6-9297-ca0919e71705","system_id":"levelo_inurba_marseille","lat":43.30545,"lon":5.3844,"is_reserved":false,"is_disabled":true,"rental_uris":{"android":"levelo://app?vid=670d8b79-cf37-4bf6-9297-ca0919e71705","ios":"levelo://app?vid=670d8b79-cf37-4bf6-9297-ca0919e71705"},"vehicle_type_id":"4","last_reported":1739513550,"current_range_meters":32400,"station_id":"ce4bgg92rcd13ifvqb30","pricing_plan_id":"cebpf4jnsgd1na2vs0mg"},{"bike_id":"4004e863-e0ca-4122-9424-ab9f70e142e6","system_id":"levelo_inurba_marseille","lat":43.31679,"lon":5.39633,"is_reserved":false,"is_disabled":false,"rental_uris":{"android":"levelo://app?vid=4004e863-e0ca-4122-9424-ab9f70e142e6","ios":"levelo://app?vid=4004e863-e0ca-4122-9424-ab9f70e142e6"},"vehicle_type_id":"4","last_reported":1739513550,"current_range_meters":24400,"station_id":"","pricing_plan_id":"cebpf4jnsgd1na2vs0mg"},{"bike_id":"45435c86-c192-430f-878e-efcea7c98935","system_id":"levelo_inurba_marseille","lat":43.3136,"lon":5.38524,"is_reserved":false,"is_disabled":false,"rental_uris":{"android":"levelo://app?vid=45435c86-c192-430f-878e-efcea7c98935","ios":"levelo://app?vid=45435c86-c192-430f-878e-efcea7c98935"},"vehicle_type_id":"4","last_reported":1739513550,"current_range_meters":20000,"station_id":"ce4bgt92rcd13ifvqcf0","pricing_plan_id":"cebpf4jnsgd1na2vs0mg"},{"bike_id":"ad9b5912-f329-4b7c-b1ff-512cdba8e36d","system_id":"levelo_inurba_marseille","lat":43.29281,"lon":5.4356,"is_reserved":false,"is_disabled":false,"rental_uris":{"android":"levelo://app?vid=ad9b5912-f329-4b7c-b1ff-512cdba8e36d","ios":"levelo://app?vid=ad9b5912-f329-4b7c-b1ff-512cdba8e36d"},"vehicle_type_id":"4","last_reported":1739513550,"current_range_meters":31200,"station_id":"","pricing_plan_id":"cebpf4jnsgd1na2vs0mg"},{"bike_id":"a976e7ac-6155-4dcb-8d3a-9fd779764b7a","system_id":"levelo_inurba_marseille","lat":43.27835,"lon":5.39209,"is_reserved":false,"is_disabled":false,"rental_uris":{"android":"levelo://app?vid=a976e7ac-6155-4dcb-8d3a-9fd779764b7a","ios":"levelo://app?vid=a976e7ac-6155-4dcb-8d3a-9fd779764b7a"},"vehicle_type_id":"4","last_reported":1739513550,"current_range_meters":38800,"station_id":"ce4bhjp2rcd13ifvqga0","pricing_plan_id":"cebpf4jnsgd1na2vs0mg"},{"bike_id":"38e50440-f74d-4300-90a5-919b98e4d9d9","system_id":"levelo_inurba_marseille","lat":43.30895,"lon":5.37191,"is_reserved":false,"is_disabled":false,"rental_uris":{"android":"levelo://app?vid=38e50440-f74d-4300-90a5-919b98e4d9d9","ios":"levelo://app?vid=38e50440-f74d-4300-90a5-919b98e4d9d9"},"vehicle_type_id":"4","last_reported":1739513550,"current_range_meters":36800,"station_id":"ce4bguh2rcd13ifvqckg","pricing_plan_id":"cebpf4jnsgd1na2vs0mg"},{"bike_id":"e4d14330-222d-46d5-8f26-efec567da29c","system_id":"levelo_inurba_marseille","lat":43.2861,"lon":5.3511,"is_reserved":false,"is_disabled":false,"rental_uris":{"android":"levelo://app?vid=e4d14330-222d-46d5-8f26-efec567da29c","ios":"levelo://app?vid=e4d14330-222d-46d5-8f26-efec567da29c"},"vehicle_type_id":"4","last_reported":1739513550,"current_range_meters":38000,"station_id":"ce4bhch2rcd13ifvqeug","pricing_plan_id":"cebpf4jnsgd1na2vs0mg"},{"bike_id":"6310a93e-f79d-40ca-bc6b-195185b49df7","system_id":"levelo_inurba_marseille","lat":43.28846,"lon":5.39315,"is_reserved":false,"is_disabled":false,"rental_uris":{"android":"levelo://app?vid=6310a93e-f79d-40ca-bc6b-195185b49df7","ios":"levelo://app?vid=6310a93e-f79d-40ca-bc6b-195185b49df7"},"vehicle_type_id":"4","last_reported":1739513550,"current_range_meters":39200,"station_id":"ce4bh2p2rcd13ifvqdi0","pricing_plan_id":"cebpf4jnsgd1na2vs0mg"},{"bike_id":"f92e748a-9f9b-4e54-8084-07e33515f3d5","system_id":"levelo_inurba_marseille","lat":43.27058,"lon":5.39335,"is_reserved":false,"is_disabled":true,"rental_uris":{"android":"levelo://app?vid=f92e748a-9f9b-4e54-8084-07e33515f3d5","ios":"levelo://app?vid=f92e748a-9f9b-4e54-8084-07e33515f3d5"},"vehicle_type_id":"4","last_reported":1739513550,"current_range_meters":0,"station_id":"","pricing_plan_id":"cebpf4jnsgd1na2vs0mg"},{"bike_id":"03f1ee11-be7f-45e6-a171-a893130e88b6","system_id":"levelo_inurba_marseille","lat":43.290001,"lon":5.35614,"is_reserved":false,"is_disabled":true,"rental_uris":{"android":"levelo://app?vid=03f1ee11-be7f-45e6-a171-a893130e88b6","ios":"levelo://app?vid=03f1ee11-be7f-45e6-a171-a893130e88b6"},"vehicle_type_id":"4","last_reported":1739513550,"current_range_meters":36800,"station_id":"ce4bhb92rcd13ifvqen0","pricing_plan_id":"cebpf4jnsgd1na2vs0mg"},{"bike_id":"704ec19d-e7c0-4858-a423-dcfa560220a5","system_id":"levelo_inurba_marseille","lat":43.23187,"lon":5.39981,"is_reserved":false,"is_disabled":false,"rental_uris":{"android":"levelo://app?vid=704ec19d-e7c0-4858-a423-dcfa560220a5","ios":"levelo://app?vid=704ec19d-e7c0-4858-a423-dcfa560220a5"},"vehicle_type_id":"4","last_reported":1739513550,"current_range_meters":34800,"station_id":"ce4bhn12rcd13ifvqgqg","pricing_plan_id":"cebpf4jnsgd1na2vs0mg"},{"bike_id":"d764f846-b7f3-4111-814b-38f6302da530","system_id":"levelo_inurba_marseille","lat":43.29561,"lon":5.39967,"is_reserved":false,"is_disabled":false,"rental_uris":{"android":"levelo://app?vid=d764f846-b7f3-4111-814b-38f6302da530","ios":"levelo://app?vid=d764f846-b7f3-4111-814b-38f6302da530"},"vehicle_type_id":"4","last_reported":1739513550,"current_range_meters":38800,"station_id":"ce4bh312rcd13ifvqdj0","pricing_plan_id":"cebpf4jnsgd1na2vs0mg"},{"bike_id":"3b65282a-f1d0-4275-aeb0-d72b1002d850","system_id":"levelo_inurba_marseille","lat":43.30139,"lon":5.3741,"is_reserved":false,"is_disabled":false,"rental_uris":{"android":"levelo://app?vid=3b65282a-f1d0-4275-aeb0-d72b1002d850","ios":"levelo://app?vid=3b65282a-f1d0-4275-aeb0-d72b1002d850"},"vehicle_type_id":"4","last_reported":1739513550,"current_range_meters":39200,"station_id":"ce4bgs92rcd13ifvqcc0","pricing_plan_id":"cebpf4jnsgd1na2vs0mg"},{"bike_id":"b92e235b-5025-4ad6-90f8-e9d0e35aced9","system_id":"levelo_inurba_marseille","lat":43.31327,"lon":5.39699,"is_reserved":false,"is_disabled":false,"rental_uris":{"android":"levelo://app?vid=b92e235b-5025-4ad6-90f8-e9d0e35aced9","ios":"levelo://app?vid=b92e235b-5025-4ad6-90f8-e9d0e35aced9"},"vehicle_type_id":"4","last_reported":1739513550,"current_range_meters":14800,"station_id":"ce4bgvp2rcd13ifvqcu0","pricing_plan_id":"cebpf4jnsgd1na2vs0mg"},{"bike_id":"9ffe0681-9ede-4d8e-8df5-acca9b5ea6d7","system_id":"levelo_inurba_marseille","lat":43.29264,"lon":5.40909,"is_reserved":false,"is_disabled":false,"rental_uris":{"android":"levelo://app?vid=9ffe0681-9ede-4d8e-8df5-acca9b5ea6d7","ios":"levelo://app?vid=9ffe0681-9ede-4d8e-8df5-acca9b5ea6d7"},"vehicle_type_id":"4","last_reported":1739513550,"current_range_meters":38000,"station_id":"ce4bh192rcd13ifvqdc0","pricing_plan_id":"cebpf4jnsgd1na2vs0mg"},{"bike_id":"5e354ef9-9e17-4f62-b0c6-2b400de36972","system_id":"levelo_inurba_marseille","lat":43.25558,"lon":5.38249,"is_reserved":false,"is_disabled":false,"rental_uris":{"android":"levelo://app?vid=5e354ef9-9e17-4f62-b0c6-2b400de36972","ios":"levelo://app?vid=5e354ef9-9e17-4f62-b0c6-2b400de36972"},"vehicle_type_id":"4","last_reported":1739513550,"current_range_meters":26800,"station_id":"ce4bhih2rcd13ifvqfs0","pricing_plan_id":"cebpf4jnsgd1na2vs0mg"},{"bike_id":"9cf8e6d9-67b8-441b-8ab4-08ef8560d2b0","system_id":"levelo_inurba_marseille","lat":43.33514,"lon":5.35585,"is_reserved":false,"is_disabled":true,"rental_uris":{"android":"levelo://app?vid=9cf8e6d9-67b8-441b-8ab4-08ef8560d2b0","ios":"levelo://app?vid=9cf8e6d9-67b8-441b-8ab4-08ef8560d2b0"},"vehicle_type_id":"4","last_reported":1739513550,"current_range_meters":0,"station_id":"","pricing_plan_id":"cebpf4jnsgd1na2vs0mg"},{"bike_id":"7a3720dd-298c-4d87-91ef-5d83e7db7658","system_id":"levelo_inurba_marseille","lat":43.240715,"lon":5.377482,"is_reserved":false,"is_disabled":false,"rental_uris":{"android":"levelo://app?vid=7a3720dd-298c-4d87-91ef-5d83e7db7658","ios":"levelo://app?vid=7a3720dd-298c-4d87-91ef-5d83e7db7658"},"vehicle_type_id":"4","last_reported":1739513550,"current_range_meters":38800,"station_id":"ce4bhnp2rcd13ifvqgvg","pricing_plan_id":"cebpf4jnsgd1na2vs0mg"},{"bike_id":"6279f888-1d4b-4ebb-b3f2-c7248902b00f","system_id":"levelo_inurba_marseille","lat":43.25477,"lon":5.37658,"is_reserved":false,"is_disabled":false,"rental_uris":{"android":"levelo://app?vid=6279f888-1d4b-4ebb-b3f2-c7248902b00f","ios":"levelo://app?vid=6279f888-1d4b-4ebb-b3f2-c7248902b00f"},"vehicle_type_id":"4","last_reported":1739513550,"current_range_meters":18800,"station_id":"ce4bhh12rcd13ifvqff0","pricing_plan_id":"cebpf4jnsgd1na2vs0mg"},{"bike_id":"ab4c983f-8a50-4c35-9ac5-504956717998","system_id":"levelo_inurba_marseille","lat":43.289319,"lon":5.36406,"is_reserved":false,"is_disabled":false,"rental_uris":{"android":"levelo://app?vid=ab4c983f-8a50-4c35-9ac5-504956717998","ios":"levelo://app?vid=ab4c983f-8a50-4c35-9ac5-504956717998"},"vehicle_type_id":"4","last_reported":1739513550,"current_range_meters":38400,"station_id":"ce4bhc92rcd13ifvqetg","pricing_plan_id":"cebpf4jnsgd1na2vs0mg"},{"bike_id":"3dac6192-3123-4c95-afea-ba492f5c9f4e","system_id":"levelo_inurba_marseille","lat":43.32668,"lon":5.43098,"is_reserved":false,"is_disabled":false,"rental_uris":{"android":"levelo://app?vid=3dac6192-3123-4c95-afea-ba492f5c9f4e","ios":"levelo://app?vid=3dac6192-3123-4c95-afea-ba492f5c9f4e"},"vehicle_type_id":"4","last_reported":1739513550,"current_range_meters":30800,"station_id":"","pricing_plan_id":"cebpf4jnsgd1na2vs0mg"},{"bike_id":"c0c875a4-5c95-4254-a403-0897218cf352","system_id":"levelo_inurba_marseille","lat":43.282664,"lon":5.35082,"is_reserved":false,"is_disabled":false,"rental_uris":{"android":"levelo://app?vid=c0c875a4-5c95-4254-a403-0897218cf352","ios":"levelo://app?vid=c0c875a4-5c95-4254-a403-0897218cf352"},"vehicle_type_id":"4","last_reported":1739513550,"current_range_meters":38400,"station_id":"ce4bhbp2rcd13ifvqerg","pricing_plan_id":"cebpf4jnsgd1na2vs0mg"},{"bike_id":"01f273f7-a1a9-458b-a23a-991d070288b6","system_id":"levelo_inurba_marseille","lat":43.32048,"lon":5.41545,"is_reserved":false,"is_disabled":false,"rental_uris":{"android":"levelo://app?vid=01f273f7-a1a9-458b-a23a-991d070288b6","ios":"levelo://app?vid=01f273f7-a1a9-458b-a23a-991d070288b6"},"vehicle_type_id":"4","last_reported":1739513550,"current_range_meters":18800,"station_id":"ce4bhq92rcd13ifvqhkg","pricing_plan_id":"cebpf4jnsgd1na2vs0mg"},{"bike_id":"4b52c719-bf05-47bb-badd-687e6eb72a19","system_id":"levelo_inurba_marseille","lat":43.24657,"lon":5.38153,"is_reserved":false,"is_disabled":false,"rental_uris":{"android":"levelo://app?vid=4b52c719-bf05-47bb-badd-687e6eb72a19","ios":"levelo://app?vid=4b52c719-bf05-47bb-badd-687e6eb72a19"},"vehicle_type_id":"4","last_reported":1739513550,"current_range_meters":36800,"station_id":"ce4bhih2rcd13ifvqfr0","pricing_plan_id":"cebpf4jnsgd1na2vs0mg"},{"bike_id":"54ed897e-fdc9-469e-8750-6e9e47d159a7","system_id":"levelo_inurba_marseille","lat":43.29628,"lon":5.40599,"is_reserved":false,"is_disabled":true,"rental_uris":{"android":"levelo://app?vid=54ed897e-fdc9-469e-8750-6e9e47d159a7","ios":"levelo://app?vid=54ed897e-fdc9-469e-8750-6e9e47d159a7"},"vehicle_type_id":"4","last_reported":1739513550,"current_range_meters":800,"station_id":"ce4bh0h2rcd13ifvqd60","pricing_plan_id":"cebpf4jnsgd1na2vs0mg"},{"bike_id":"ec8d9d4e-d295-4b31-9d64-b8816510bc68","system_id":"levelo_inurba_marseille","lat":43.286186,"lon":5.351056,"is_reserved":false,"is_disabled":false,"rental_uris":{"android":"levelo://app?vid=ec8d9d4e-d295-4b31-9d64-b8816510bc68","ios":"levelo://app?vid=ec8d9d4e-d295-4b31-9d64-b8816510bc68"},"vehicle_type_id":"4","last_reported":1739513550,"current_range_meters":16400,"station_id":"ce4bhch2rcd13ifvqeug","pricing_plan_id":"cebpf4jnsgd1na2vs0mg"},{"bike_id":"51ab7186-5043-4bed-baca-73708608a302","system_id":"levelo_inurba_marseille","lat":43.29584,"lon":5.37026,"is_reserved":false,"is_disabled":true,"rental_uris":{"android":"levelo://app?vid=51ab7186-5043-4bed-baca-73708608a302","ios":"levelo://app?vid=51ab7186-5043-4bed-baca-73708608a302"},"vehicle_type_id":"4","last_reported":1739513550,"current_range_meters":0,"station_id":"","pricing_plan_id":"cebpf4jnsgd1na2vs0mg"},{"bike_id":"8c6156b5-146a-4d21-86e7-67a95893915c","system_id":"levelo_inurba_marseille","lat":43.29448,"lon":5.39761,"is_reserved":false,"is_disabled":false,"rental_uris":{"android":"levelo://app?vid=8c6156b5-146a-4d21-86e7-67a95893915c","ios":"levelo://app?vid=8c6156b5-146a-4d21-86e7-67a95893915c"},"vehicle_type_id":"4","last_reported":1739513550,"current_range_meters":38800,"station_id":"ce4bh3h2rcd13ifvqdo0","pricing_plan_id":"cebpf4jnsgd1na2vs0mg"},{"bike_id":"0a091e32-861c-4a90-ba8d-79373292393c","system_id":"levelo_inurba_marseille","lat":43.27611,"lon":5.36104,"is_reserved":false,"is_disabled":false,"rental_uris":{"android":"levelo://app?vid=0a091e32-861c-4a90-ba8d-79373292393c","ios":"levelo://app?vid=0a091e32-861c-4a90-ba8d-79373292393c"},"vehicle_type_id":"4","last_reported":1739513550,"current_range_meters":7200,"station_id":"ce4bgj92rcd13ifvqbe0","pricing_plan_id":"cebpf4jnsgd1na2vs0mg"},{"bike_id":"d3fc5f7e-9983-4343-a9af-f36df7d45f29","system_id":"levelo_inurba_marseille","lat":43.2318,"lon":5.39985,"is_reserved":false,"is_disabled":false,"rental_uris":{"android":"levelo://app?vid=d3fc5f7e-9983-4343-a9af-f36df7d45f29","ios":"levelo://app?vid=d3fc5f7e-9983-4343-a9af-f36df7d45f29"},"vehicle_type_id":"4","last_reported":1739513550,"current_range_meters":21600,"station_id":"ce4bhn12rcd13ifvqgqg","pricing_plan_id":"cebpf4jnsgd1na2vs0mg"},{"bike_id":"d01cfddf-7881-4b7c-815e-f570bddc475f","system_id":"levelo_inurba_marseille","lat":43.279378,"lon":5.410549,"is_reserved":false,"is_disabled":false,"rental_uris":{"android":"levelo://app?vid=d01cfddf-7881-4b7c-815e-f570bddc475f","ios":"levelo://app?vid=d01cfddf-7881-4b7c-815e-f570bddc475f"},"vehicle_type_id":"4","last_reported":1739513550,"current_range_meters":38800,"station_id":"ce4bhnp2rcd13ifvqh0g","pricing_plan_id":"cebpf4jnsgd1na2vs0mg"},{"bike_id":"e1a97b63-caf3-40dd-b207-454b1a2022f4","system_id":"levelo_inurba_marseille","lat":43.28458,"lon":5.35892,"is_reserved":false,"is_disabled":false,"rental_uris":{"android":"levelo://app?vid=e1a97b63-caf3-40dd-b207-454b1a2022f4","ios":"levelo://app?vid=e1a97b63-caf3-40dd-b207-454b1a2022f4"},"vehicle_type_id":"4","last_reported":1739513550,"current_range_meters":27200,"station_id":"ce4bhah2rcd13ifvqei0","pricing_plan_id":"cebpf4jnsgd1na2vs0mg"},{"bike_id":"b2e906e9-89b3-460c-8ab5-43a6dad1117c","system_id":"levelo_inurba_marseille","lat":43.27059,"lon":5.40274,"is_reserved":false,"is_disabled":false,"rental_uris":{"android":"levelo://app?vid=b2e906e9-89b3-460c-8ab5-43a6dad1117c","ios":"levelo://app?vid=b2e906e9-89b3-460c-8ab5-43a6dad1117c"},"vehicle_type_id":"4","last_reported":1739513550,"current_range_meters":30000,"station_id":"ce4bhk92rcd13ifvqgc0","pricing_plan_id":"cebpf4jnsgd1na2vs0mg"},{"bike_id":"901e7743-b134-43a8-b97a-51df91282196","system_id":"levelo_inurba_marseille","lat":43.29508,"lon":5.39418,"is_reserved":false,"is_disabled":false,"rental_uris":{"android":"levelo://app?vid=901e7743-b134-43a8-b97a-51df91282196","ios":"levelo://app?vid=901e7743-b134-43a8-b97a-51df91282196"},"vehicle_type_id":"4","last_reported":1739513550,"current_range_meters":38400,"station_id":"ce4bh292rcd13ifvqdf0","pricing_plan_id":"cebpf4jnsgd1na2vs0mg"},{"bike_id":"c40e2cb9-b89c-4dbd-956b-535ef79f1d37","system_id":"levelo_inurba_marseille","lat":43.24795,"lon":5.37442,"is_reserved":false,"is_disabled":false,"rental_uris":{"android":"levelo://app?vid=c40e2cb9-b89c-4dbd-956b-535ef79f1d37","ios":"levelo://app?vid=c40e2cb9-b89c-4dbd-956b-535ef79f1d37"},"vehicle_type_id":"4","last_reported":1739513550,"current_range_meters":28800,"station_id":"ce4bhgh2rcd13ifvqfb0","pricing_plan_id":"cebpf4jnsgd1na2vs0mg"},{"bike_id":"7cd0daa1-55ff-4122-a5aa-b2ad843b72ea","system_id":"levelo_inurba_marseille","lat":43.2809,"lon":5.39865,"is_reserved":false,"is_disabled":false,"rental_uris":{"android":"levelo://app?vid=7cd0daa1-55ff-4122-a5aa-b2ad843b72ea","ios":"levelo://app?vid=7cd0daa1-55ff-4122-a5aa-b2ad843b72ea"},"vehicle_type_id":"4","last_reported":1739513550,"current_range_meters":8800,"station_id":"","pricing_plan_id":"cebpf4jnsgd1na2vs0mg"},{"bike_id":"79665ef5-e5c4-4fbd-9a3d-55fc72ed1691","system_id":"levelo_inurba_marseille","lat":43.28704,"lon":5.39964,"is_reserved":false,"is_disabled":false,"rental_uris":{"android":"levelo://app?vid=79665ef5-e5c4-4fbd-9a3d-55fc72ed1691","ios":"levelo://app?vid=79665ef5-e5c4-4fbd-9a3d-55fc72ed1691"},"vehicle_type_id":"4","last_reported":1739513550,"current_range_meters":36400,"station_id":"ce4bho92rcd13ifvqh3g","pricing_plan_id":"cebpf4jnsgd1na2vs0mg"},{"bike_id":"d94ad0a4-4209-47fc-bb1e-86a94e106366","system_id":"levelo_inurba_marseille","lat":43.288521,"lon":5.358488,"is_reserved":false,"is_disabled":false,"rental_uris":{"android":"levelo://app?vid=d94ad0a4-4209-47fc-bb1e-86a94e106366","ios":"levelo://app?vid=d94ad0a4-4209-47fc-bb1e-86a94e106366"},"vehicle_type_id":"4","last_reported":1739513550,"current_range_meters":9200,"station_id":"ce4bhb12rcd13ifvqem0","pricing_plan_id":"cebpf4jnsgd1na2vs0mg"},{"bike_id":"ee079ffa-4416-4a91-bc98-3bd665acea3b","system_id":"levelo_inurba_marseille","lat":43.337264,"lon":5.391764,"is_reserved":false,"is_disabled":false,"rental_uris":{"android":"levelo://app?vid=ee079ffa-4416-4a91-bc98-3bd665acea3b","ios":"levelo://app?vid=ee079ffa-4416-4a91-bc98-3bd665acea3b"},"vehicle_type_id":"4","last_reported":1739513550,"current_range_meters":38800,"station_id":"ce4bhr92rcd13ifvqhsg","pricing_plan_id":"cebpf4jnsgd1na2vs0mg"},{"bike_id":"1fa82dc6-47d4-4356-bbca-393bf4461726","system_id":"levelo_inurba_marseille","lat":43.239614,"lon":5.366244,"is_reserved":false,"is_disabled":false,"rental_uris":{"android":"levelo://app?vid=1fa82dc6-47d4-4356-bbca-393bf4461726","ios":"levelo://app?vid=1fa82dc6-47d4-4356-bbca-393bf4461726"},"vehicle_type_id":"4","last_reported":1739513550,"current_range_meters":37600,"station_id":"ce4bhi12rcd13ifvqfp0","pricing_plan_id":"cebpf4jnsgd1na2vs0mg"},{"bike_id":"0d0e2031-b630-4fec-b30e-efb0eda87742","system_id":"levelo_inurba_marseille","lat":43.30596,"lon":5.37209,"is_reserved":false,"is_disabled":false,"rental_uris":{"android":"levelo://app?vid=0d0e2031-b630-4fec-b30e-efb0eda87742","ios":"levelo://app?vid=0d0e2031-b630-4fec-b30e-efb0eda87742"},"vehicle_type_id":"4","last_reported":1739513550,"current_range_meters":36800,"station_id":"ce4bgqh2rcd13ifvqc4g","pricing_plan_id":"cebpf4jnsgd1na2vs0mg"},{"bike_id":"25b98de5-6355-4dab-b08e-8a826c10c247","system_id":"levelo_inurba_marseille","lat":43.23204,"lon":5.3994,"is_reserved":false,"is_disabled":false,"rental_uris":{"android":"levelo://app?vid=25b98de5-6355-4dab-b08e-8a826c10c247","ios":"levelo://app?vid=25b98de5-6355-4dab-b08e-8a826c10c247"},"vehicle_type_id":"4","last_reported":1739513550,"current_range_meters":28000,"station_id":"","pricing_plan_id":"cebpf4jnsgd1na2vs0mg"},{"bike_id":"9638b1de-6e65-4723-820d-87a0cd11082b","system_id":"levelo_inurba_marseille","lat":43.29974,"lon":5.38507,"is_reserved":false,"is_disabled":true,"rental_uris":{"android":"levelo://app?vid=9638b1de-6e65-4723-820d-87a0cd11082b","ios":"levelo://app?vid=9638b1de-6e65-4723-820d-87a0cd11082b"},"vehicle_type_id":"4","last_reported":1739513550,"current_range_meters":36800,"station_id":"ce4bgj92rcd13ifvqbd0","pricing_plan_id":"cebpf4jnsgd1na2vs0mg"},{"bike_id":"e9f5cfb2-6a94-46a0-87e5-b878b5581699","system_id":"levelo_inurba_marseille","lat":43.28338,"lon":5.38098,"is_reserved":false,"is_disabled":false,"rental_uris":{"android":"levelo://app?vid=e9f5cfb2-6a94-46a0-87e5-b878b5581699","ios":"levelo://app?vid=e9f5cfb2-6a94-46a0-87e5-b878b5581699"},"vehicle_type_id":"4","last_reported":1739513550,"current_range_meters":39200,"station_id":"ce4bh412rcd13ifvqdr0","pricing_plan_id":"cebpf4jnsgd1na2vs0mg"},{"bike_id":"2a4b9998-a405-4a0e-9257-7329c18e12ae","system_id":"levelo_inurba_marseille","lat":43.240701,"lon":5.377482,"is_reserved":false,"is_disabled":false,"rental_uris":{"android":"levelo://app?vid=2a4b9998-a405-4a0e-9257-7329c18e12ae","ios":"levelo://app?vid=2a4b9998-a405-4a0e-9257-7329c18e12ae"},"vehicle_type_id":"4","last_reported":1739513550,"current_range_meters":16800,"station_id":"ce4bhnp2rcd13ifvqgvg","pricing_plan_id":"cebpf4jnsgd1na2vs0mg"},{"bike_id":"896ec56b-5525-4094-9b48-4e6034904017","system_id":"levelo_inurba_marseille","lat":43.30877,"lon":5.39648,"is_reserved":false,"is_disabled":false,"rental_uris":{"android":"levelo://app?vid=896ec56b-5525-4094-9b48-4e6034904017","ios":"levelo://app?vid=896ec56b-5525-4094-9b48-4e6034904017"},"vehicle_type_id":"4","last_reported":1739513550,"current_range_meters":38800,"station_id":"ce4bh012rcd13ifvqcv0","pricing_plan_id":"cebpf4jnsgd1na2vs0mg"},{"bike_id":"714f24a2-68ce-44eb-9072-b7c58d6371dc","system_id":"levelo_inurba_marseille","lat":43.28683,"lon":5.38674,"is_reserved":false,"is_disabled":false,"rental_uris":{"android":"levelo://app?vid=714f24a2-68ce-44eb-9072-b7c58d6371dc","ios":"levelo://app?vid=714f24a2-68ce-44eb-9072-b7c58d6371dc"},"vehicle_type_id":"4","last_reported":1739513550,"current_range_meters":38800,"station_id":"ce4bh492rcd13ifvqdug","pricing_plan_id":"cebpf4jnsgd1na2vs0mg"},{"bike_id":"83dc17c6-5483-4911-a98e-812dbdb1c9f8","system_id":"levelo_inurba_marseille","lat":43.29571,"lon":5.3996,"is_reserved":false,"is_disabled":false,"rental_uris":{"android":"levelo://app?vid=83dc17c6-5483-4911-a98e-812dbdb1c9f8","ios":"levelo://app?vid=83dc17c6-5483-4911-a98e-812dbdb1c9f8"},"vehicle_type_id":"4","last_reported":1739513550,"current_range_meters":34800,"station_id":"ce4bh312rcd13ifvqdj0","pricing_plan_id":"cebpf4jnsgd1na2vs0mg"},{"bike_id":"f6523bc1-ba42-4697-979f-356f9d366a6a","system_id":"levelo_inurba_marseille","lat":43.30465,"lon":5.37912,"is_reserved":false,"is_disabled":false,"rental_uris":{"android":"levelo://app?vid=f6523bc1-ba42-4697-979f-356f9d366a6a","ios":"levelo://app?vid=f6523bc1-ba42-4697-979f-356f9d366a6a"},"vehicle_type_id":"4","last_reported":1739513550,"current_range_meters":36400,"station_id":"ce4bgup2rcd13ifvqcn0","pricing_plan_id":"cebpf4jnsgd1na2vs0mg"},{"bike_id":"a3c1a4ab-82f6-4315-9ed6-5bac6bafe89a","system_id":"levelo_inurba_marseille","lat":43.28723,"lon":5.36102,"is_reserved":false,"is_disabled":false,"rental_uris":{"android":"levelo://app?vid=a3c1a4ab-82f6-4315-9ed6-5bac6bafe89a","ios":"levelo://app?vid=a3c1a4ab-82f6-4315-9ed6-5bac6bafe89a"},"vehicle_type_id":"4","last_reported":1739513550,"current_range_meters":19200,"station_id":"cki0cbj6b192h4jlfktg","pricing_plan_id":"cebpf4jnsgd1na2vs0mg"},{"bike_id":"cb2c880d-6099-4e99-b126-5db2ed775e84","system_id":"levelo_inurba_marseille","lat":43.24994,"lon":5.38929,"is_reserved":false,"is_disabled":false,"rental_uris":{"android":"levelo://app?vid=cb2c880d-6099-4e99-b126-5db2ed775e84","ios":"levelo://app?vid=cb2c880d-6099-4e99-b126-5db2ed775e84"},"vehicle_type_id":"4","last_reported":1739513550,"current_range_meters":39200,"station_id":"ce4bhgp2rcd13ifvqfd0","pricing_plan_id":"cebpf4jnsgd1na2vs0mg"},{"bike_id":"0f2de5cd-c636-4001-ab39-c26b347a3fee","system_id":"levelo_inurba_marseille","lat":43.260576,"lon":5.393923,"is_reserved":false,"is_disabled":false,"rental_uris":{"android":"levelo://app?vid=0f2de5cd-c636-4001-ab39-c26b347a3fee","ios":"levelo://app?vid=0f2de5cd-c636-4001-ab39-c26b347a3fee"},"vehicle_type_id":"4","last_reported":1739513550,"current_range_meters":38000,"station_id":"ce4bhh92rcd13ifvqfj0","pricing_plan_id":"cebpf4jnsgd1na2vs0mg"},{"bike_id":"e4ca1662-d43f-4406-b6e6-8717e14c2cad","system_id":"levelo_inurba_marseille","lat":43.28453,"lon":5.35896,"is_reserved":false,"is_disabled":false,"rental_uris":{"android":"levelo://app?vid=e4ca1662-d43f-4406-b6e6-8717e14c2cad","ios":"levelo://app?vid=e4ca1662-d43f-4406-b6e6-8717e14c2cad"},"vehicle_type_id":"4","last_reported":1739513550,"current_range_meters":39200,"station_id":"ce4bhah2rcd13ifvqei0","pricing_plan_id":"cebpf4jnsgd1na2vs0mg"},{"bike_id":"64c6b46b-656d-4ea4-b38b-769c889a07b3","system_id":"levelo_inurba_marseille","lat":43.265549,"lon":5.390161,"is_reserved":false,"is_disabled":false,"rental_uris":{"android":"levelo://app?vid=64c6b46b-656d-4ea4-b38b-769c889a07b3","ios":"levelo://app?vid=64c6b46b-656d-4ea4-b38b-769c889a07b3"},"vehicle_type_id":"4","last_reported":1739513550,"current_range_meters":38000,"station_id":"ce4bhe12rcd13ifvqf30","pricing_plan_id":"cebpf4jnsgd1na2vs0mg"},{"bike_id":"a9591f57-40b0-4884-aa29-23cc39ec7d64","system_id":"levelo_inurba_marseille","lat":43.26217,"lon":5.37447,"is_reserved":false,"is_disabled":true,"rental_uris":{"android":"levelo://app?vid=a9591f57-40b0-4884-aa29-23cc39ec7d64","ios":"levelo://app?vid=a9591f57-40b0-4884-aa29-23cc39ec7d64"},"vehicle_type_id":"4","last_reported":1739513550,"current_range_meters":0,"station_id":"ce4bhgp2rcd13ifvqfc0","pricing_plan_id":"cebpf4jnsgd1na2vs0mg"},{"bike_id":"341bf852-e4fc-4047-8754-8aa7c092413b","system_id":"levelo_inurba_marseille","lat":43.2952,"lon":5.39406,"is_reserved":false,"is_disabled":false,"rental_uris":{"android":"levelo://app?vid=341bf852-e4fc-4047-8754-8aa7c092413b","ios":"levelo://app?vid=341bf852-e4fc-4047-8754-8aa7c092413b"},"vehicle_type_id":"4","last_reported":1739513550,"current_range_meters":36800,"station_id":"ce4bh292rcd13ifvqdf0","pricing_plan_id":"cebpf4jnsgd1na2vs0mg"},{"bike_id":"0c9f491e-2c2e-4a66-985f-4b2dd1fa46b1","system_id":"levelo_inurba_marseille","lat":43.30275,"lon":5.37709,"is_reserved":false,"is_disabled":false,"rental_uris":{"android":"levelo://app?vid=0c9f491e-2c2e-4a66-985f-4b2dd1fa46b1","ios":"levelo://app?vid=0c9f491e-2c2e-4a66-985f-4b2dd1fa46b1"},"vehicle_type_id":"4","last_reported":1739513550,"current_range_meters":38400,"station_id":"ce4bguh2rcd13ifvqcj0","pricing_plan_id":"cebpf4jnsgd1na2vs0mg"},{"bike_id":"f7722aa8-7dbb-40b4-8785-faf5a2e7b631","system_id":"levelo_inurba_marseille","lat":43.24999,"lon":5.38938,"is_reserved":false,"is_disabled":false,"rental_uris":{"android":"levelo://app?vid=f7722aa8-7dbb-40b4-8785-faf5a2e7b631","ios":"levelo://app?vid=f7722aa8-7dbb-40b4-8785-faf5a2e7b631"},"vehicle_type_id":"4","last_reported":1739513550,"current_range_meters":39200,"station_id":"ce4bhgp2rcd13ifvqfd0","pricing_plan_id":"cebpf4jnsgd1na2vs0mg"},{"bike_id":"4ec7764e-f021-408a-b32f-e91a0db6d926","system_id":"levelo_inurba_marseille","lat":43.29206,"lon":5.35799,"is_reserved":false,"is_disabled":false,"rental_uris":{"android":"levelo://app?vid=4ec7764e-f021-408a-b32f-e91a0db6d926","ios":"levelo://app?vid=4ec7764e-f021-408a-b32f-e91a0db6d926"},"vehicle_type_id":"4","last_reported":1739513550,"current_range_meters":38800,"station_id":"ce4bhb12rcd13ifvqel0","pricing_plan_id":"cebpf4jnsgd1na2vs0mg"},{"bike_id":"ec496d4a-c31a-4f2c-947b-b17f6dc6b31a","system_id":"levelo_inurba_marseille","lat":43.2502,"lon":5.38949,"is_reserved":false,"is_disabled":false,"rental_uris":{"android":"levelo://app?vid=ec496d4a-c31a-4f2c-947b-b17f6dc6b31a","ios":"levelo://app?vid=ec496d4a-c31a-4f2c-947b-b17f6dc6b31a"},"vehicle_type_id":"4","last_reported":1739513550,"current_range_meters":38000,"station_id":"ce4bhgp2rcd13ifvqfd0","pricing_plan_id":"cebpf4jnsgd1na2vs0mg"},{"bike_id":"aaff798d-ed8b-490e-983c-9a5390e44a91","system_id":"levelo_inurba_marseille","lat":43.33784,"lon":5.37423,"is_reserved":false,"is_disabled":false,"rental_uris":{"android":"levelo://app?vid=aaff798d-ed8b-490e-983c-9a5390e44a91","ios":"levelo://app?vid=aaff798d-ed8b-490e-983c-9a5390e44a91"},"vehicle_type_id":"4","last_reported":1739513550,"current_range_meters":28400,"station_id":"","pricing_plan_id":"cebpf4jnsgd1na2vs0mg"},{"bike_id":"678d6f34-cd9a-429e-868e-3a5dabab2e1e","system_id":"levelo_inurba_marseille","lat":43.31538,"lon":5.38027,"is_reserved":false,"is_disabled":false,"rental_uris":{"android":"levelo://app?vid=678d6f34-cd9a-429e-868e-3a5dabab2e1e","ios":"levelo://app?vid=678d6f34-cd9a-429e-868e-3a5dabab2e1e"},"vehicle_type_id":"4","last_reported":1739513550,"current_range_meters":31200,"station_id":"ce4bhsp2rcd13ifvqi50","pricing_plan_id":"cebpf4jnsgd1na2vs0mg"},{"bike_id":"23849fcd-4bc4-44f6-8337-e9a9a16fe0e7","system_id":"levelo_inurba_marseille","lat":43.29741,"lon":5.47957,"is_reserved":false,"is_disabled":false,"rental_uris":{"android":"levelo://app?vid=23849fcd-4bc4-44f6-8337-e9a9a16fe0e7","ios":"levelo://app?vid=23849fcd-4bc4-44f6-8337-e9a9a16fe0e7"},"vehicle_type_id":"4","last_reported":1739513550,"current_range_meters":4800,"station_id":"","pricing_plan_id":"cebpf4jnsgd1na2vs0mg"},{"bike_id":"b9cf6ea9-95ee-46f8-b845-52cb5a2eb86a","system_id":"levelo_inurba_marseille","lat":43.30442,"lon":5.37908,"is_reserved":false,"is_disabled":false,"rental_uris":{"android":"levelo://app?vid=b9cf6ea9-95ee-46f8-b845-52cb5a2eb86a","ios":"levelo://app?vid=b9cf6ea9-95ee-46f8-b845-52cb5a2eb86a"},"vehicle_type_id":"4","last_reported":1739513550,"current_range_meters":34800,"station_id":"ce4bgup2rcd13ifvqcn0","pricing_plan_id":"cebpf4jnsgd1na2vs0mg"},{"bike_id":"94a02a33-068d-4baf-bb41-2fc56339c18e","system_id":"levelo_inurba_marseille","lat":43.2802,"lon":5.36934,"is_reserved":false,"is_disabled":false,"rental_uris":{"android":"levelo://app?vid=94a02a33-068d-4baf-bb41-2fc56339c18e","ios":"levelo://app?vid=94a02a33-068d-4baf-bb41-2fc56339c18e"},"vehicle_type_id":"4","last_reported":1739513550,"current_range_meters":37600,"station_id":"ce4bha12rcd13ifvqef0","pricing_plan_id":"cebpf4jnsgd1na2vs0mg"},{"bike_id":"4256c6d7-6900-450d-95e0-fc240a7ecbf6","system_id":"levelo_inurba_marseille","lat":43.31272,"lon":5.40162,"is_reserved":false,"is_disabled":false,"rental_uris":{"android":"levelo://app?vid=4256c6d7-6900-450d-95e0-fc240a7ecbf6","ios":"levelo://app?vid=4256c6d7-6900-450d-95e0-fc240a7ecbf6"},"vehicle_type_id":"4","last_reported":1739513550,"current_range_meters":11200,"station_id":"ce4bh092rcd13ifvqd30","pricing_plan_id":"cebpf4jnsgd1na2vs0mg"},{"bike_id":"978ca430-5806-427e-a6a2-e650f48ff5c5","system_id":"levelo_inurba_marseille","lat":43.28,"lon":5.40009,"is_reserved":false,"is_disabled":false,"rental_uris":{"android":"levelo://app?vid=978ca430-5806-427e-a6a2-e650f48ff5c5","ios":"levelo://app?vid=978ca430-5806-427e-a6a2-e650f48ff5c5"},"vehicle_type_id":"4","last_reported":1739513550,"current_range_meters":22800,"station_id":"ce4bho92rcd13ifvqh4g","pricing_plan_id":"cebpf4jnsgd1na2vs0mg"},{"bike_id":"bb4d395a-845a-4702-857d-85bf095d5271","system_id":"levelo_inurba_marseille","lat":43.29885,"lon":5.39719,"is_reserved":false,"is_disabled":false,"rental_uris":{"android":"levelo://app?vid=bb4d395a-845a-4702-857d-85bf095d5271","ios":"levelo://app?vid=bb4d395a-845a-4702-857d-85bf095d5271"},"vehicle_type_id":"4","last_reported":1739513550,"current_range_meters":38800,"station_id":"ce4bh0h2rcd13ifvqd50","pricing_plan_id":"cebpf4jnsgd1na2vs0mg"},{"bike_id":"0ab7eec2-6119-4907-ba85-b80b32964c1c","system_id":"levelo_inurba_marseille","lat":43.31178,"lon":5.387078,"is_reserved":false,"is_disabled":false,"rental_uris":{"android":"levelo://app?vid=0ab7eec2-6119-4907-ba85-b80b32964c1c","ios":"levelo://app?vid=0ab7eec2-6119-4907-ba85-b80b32964c1c"},"vehicle_type_id":"4","last_reported":1739513550,"current_range_meters":9600,"station_id":"ce4bgv12rcd13ifvqcp0","pricing_plan_id":"cebpf4jnsgd1na2vs0mg"},{"bike_id":"6cfbf51a-4ec4-4b50-afa2-a58eb7355bc4","system_id":"levelo_inurba_marseille","lat":43.327,"lon":5.39173,"is_reserved":false,"is_disabled":false,"rental_uris":{"android":"levelo://app?vid=6cfbf51a-4ec4-4b50-afa2-a58eb7355bc4","ios":"levelo://app?vid=6cfbf51a-4ec4-4b50-afa2-a58eb7355bc4"},"vehicle_type_id":"4","last_reported":1739513550,"current_range_meters":24800,"station_id":"","pricing_plan_id":"cebpf4jnsgd1na2vs0mg"},{"bike_id":"2ffed822-7174-41f8-ad36-b592fa66c5a6","system_id":"levelo_inurba_marseille","lat":43.230679,"lon":5.355013,"is_reserved":false,"is_disabled":false,"rental_uris":{"android":"levelo://app?vid=2ffed822-7174-41f8-ad36-b592fa66c5a6","ios":"levelo://app?vid=2ffed822-7174-41f8-ad36-b592fa66c5a6"},"vehicle_type_id":"4","last_reported":1739513550,"current_range_meters":6400,"station_id":"cpo3342slgdg3j2ifvpg","pricing_plan_id":"cebpf4jnsgd1na2vs0mg"},{"bike_id":"1f91cd7a-cebf-4ea0-9a53-a7c89148183a","system_id":"levelo_inurba_marseille","lat":43.24662,"lon":5.38172,"is_reserved":false,"is_disabled":false,"rental_uris":{"android":"levelo://app?vid=1f91cd7a-cebf-4ea0-9a53-a7c89148183a","ios":"levelo://app?vid=1f91cd7a-cebf-4ea0-9a53-a7c89148183a"},"vehicle_type_id":"4","last_reported":1739513550,"current_range_meters":11200,"station_id":"ce4bhih2rcd13ifvqfr0","pricing_plan_id":"cebpf4jnsgd1na2vs0mg"},{"bike_id":"90069231-8d02-46fd-ba3f-d8e7e83900ee","system_id":"levelo_inurba_marseille","lat":43.288416,"lon":5.438213,"is_reserved":false,"is_disabled":true,"rental_uris":{"android":"levelo://app?vid=90069231-8d02-46fd-ba3f-d8e7e83900ee","ios":"levelo://app?vid=90069231-8d02-46fd-ba3f-d8e7e83900ee"},"vehicle_type_id":"4","last_reported":1739513550,"current_range_meters":0,"station_id":"","pricing_plan_id":"cebpf4jnsgd1na2vs0mg"},{"bike_id":"9d249881-5a15-4231-8a5b-9e0b021f19d2","system_id":"levelo_inurba_marseille","lat":43.27954,"lon":5.387156,"is_reserved":false,"is_disabled":true,"rental_uris":{"android":"levelo://app?vid=9d249881-5a15-4231-8a5b-9e0b021f19d2","ios":"levelo://app?vid=9d249881-5a15-4231-8a5b-9e0b021f19d2"},"vehicle_type_id":"4","last_reported":1739513550,"current_range_meters":32800,"station_id":"ce4bhg12rcd13ifvqf80","pricing_plan_id":"cebpf4jnsgd1na2vs0mg"},{"bike_id":"8bc54ebe-91ca-42d9-9424-fbf351e8f752","system_id":"levelo_inurba_marseille","lat":43.30289,"lon":5.37712,"is_reserved":false,"is_disabled":false,"rental_uris":{"android":"levelo://app?vid=8bc54ebe-91ca-42d9-9424-fbf351e8f752","ios":"levelo://app?vid=8bc54ebe-91ca-42d9-9424-fbf351e8f752"},"vehicle_type_id":"4","last_reported":1739513550,"current_range_meters":38800,"station_id":"ce4bguh2rcd13ifvqcj0","pricing_plan_id":"cebpf4jnsgd1na2vs0mg"},{"bike_id":"21af4f6e-7ea6-4d16-a6b7-895889e3fb75","system_id":"levelo_inurba_marseille","lat":43.31078,"lon":5.38353,"is_reserved":false,"is_disabled":false,"rental_uris":{"android":"levelo://app?vid=21af4f6e-7ea6-4d16-a6b7-895889e3fb75","ios":"levelo://app?vid=21af4f6e-7ea6-4d16-a6b7-895889e3fb75"},"vehicle_type_id":"4","last_reported":1739513550,"current_range_meters":38800,"station_id":"ce4bgv92rcd13ifvqcr0","pricing_plan_id":"cebpf4jnsgd1na2vs0mg"},{"bike_id":"8878e5e8-e13c-4318-b499-fd415887d7cd","system_id":"levelo_inurba_marseille","lat":43.23963,"lon":5.36641,"is_reserved":false,"is_disabled":false,"rental_uris":{"android":"levelo://app?vid=8878e5e8-e13c-4318-b499-fd415887d7cd","ios":"levelo://app?vid=8878e5e8-e13c-4318-b499-fd415887d7cd"},"vehicle_type_id":"4","last_reported":1739513550,"current_range_meters":4000,"station_id":"ce4bhi12rcd13ifvqfp0","pricing_plan_id":"cebpf4jnsgd1na2vs0mg"},{"bike_id":"d6d61c8e-dde7-465e-9168-1931099a05b8","system_id":"levelo_inurba_marseille","lat":43.28725,"lon":5.36065,"is_reserved":false,"is_disabled":false,"rental_uris":{"android":"levelo://app?vid=d6d61c8e-dde7-465e-9168-1931099a05b8","ios":"levelo://app?vid=d6d61c8e-dde7-465e-9168-1931099a05b8"},"vehicle_type_id":"4","last_reported":1739513550,"current_range_meters":8800,"station_id":"cki0cbj6b192h4jlfktg","pricing_plan_id":"cebpf4jnsgd1na2vs0mg"},{"bike_id":"722c03d4-5f09-4a1d-bb2e-829c66405a32","system_id":"levelo_inurba_marseille","lat":43.279206,"lon":5.395703,"is_reserved":false,"is_disabled":true,"rental_uris":{"android":"levelo://app?vid=722c03d4-5f09-4a1d-bb2e-829c66405a32","ios":"levelo://app?vid=722c03d4-5f09-4a1d-bb2e-829c66405a32"},"vehicle_type_id":"4","last_reported":1739513550,"current_range_meters":36800,"station_id":"ce4bhf92rcd13ifvqf40","pricing_plan_id":"cebpf4jnsgd1na2vs0mg"},{"bike_id":"8f4abdc5-190d-46ac-8bfa-22d4a516235b","system_id":"levelo_inurba_marseille","lat":43.31362,"lon":5.38497,"is_reserved":false,"is_disabled":false,"rental_uris":{"android":"levelo://app?vid=8f4abdc5-190d-46ac-8bfa-22d4a516235b","ios":"levelo://app?vid=8f4abdc5-190d-46ac-8bfa-22d4a516235b"},"vehicle_type_id":"4","last_reported":1739513550,"current_range_meters":24400,"station_id":"ce4bgt92rcd13ifvqcf0","pricing_plan_id":"cebpf4jnsgd1na2vs0mg"},{"bike_id":"2750375a-d37d-4078-9d85-f14af8e90f30","system_id":"levelo_inurba_marseille","lat":43.26492,"lon":5.39557,"is_reserved":false,"is_disabled":false,"rental_uris":{"android":"levelo://app?vid=2750375a-d37d-4078-9d85-f14af8e90f30","ios":"levelo://app?vid=2750375a-d37d-4078-9d85-f14af8e90f30"},"vehicle_type_id":"4","last_reported":1739513550,"current_range_meters":37600,"station_id":"ce4bhi12rcd13ifvqfq0","pricing_plan_id":"cebpf4jnsgd1na2vs0mg"},{"bike_id":"ddbbcf0b-65fe-459d-b467-e1710dbf8d5e","system_id":"levelo_inurba_marseille","lat":43.30468,"lon":5.37909,"is_reserved":false,"is_disabled":false,"rental_uris":{"android":"levelo://app?vid=ddbbcf0b-65fe-459d-b467-e1710dbf8d5e","ios":"levelo://app?vid=ddbbcf0b-65fe-459d-b467-e1710dbf8d5e"},"vehicle_type_id":"4","last_reported":1739513550,"current_range_meters":26800,"station_id":"ce4bgup2rcd13ifvqcn0","pricing_plan_id":"cebpf4jnsgd1na2vs0mg"},{"bike_id":"00d56cf1-086d-4634-a590-acaef2a38372","system_id":"levelo_inurba_marseille","lat":43.26056,"lon":5.39397,"is_reserved":false,"is_disabled":false,"rental_uris":{"android":"levelo://app?vid=00d56cf1-086d-4634-a590-acaef2a38372","ios":"levelo://app?vid=00d56cf1-086d-4634-a590-acaef2a38372"},"vehicle_type_id":"4","last_reported":1739513550,"current_range_meters":38400,"station_id":"ce4bhh92rcd13ifvqfj0","pricing_plan_id":"cebpf4jnsgd1na2vs0mg"},{"bike_id":"f502111f-7748-48e8-918b-58ab12805627","system_id":"levelo_inurba_marseille","lat":43.27947,"lon":5.41024,"is_reserved":false,"is_disabled":false,"rental_uris":{"android":"levelo://app?vid=f502111f-7748-48e8-918b-58ab12805627","ios":"levelo://app?vid=f502111f-7748-48e8-918b-58ab12805627"},"vehicle_type_id":"4","last_reported":1739513550,"current_range_meters":38400,"station_id":"ce4bhnp2rcd13ifvqh0g","pricing_plan_id":"cebpf4jnsgd1na2vs0mg"},{"bike_id":"255daf4e-61ea-410f-88b5-c21b2bddd207","system_id":"levelo_inurba_marseille","lat":43.28703,"lon":5.3998,"is_reserved":false,"is_disabled":false,"rental_uris":{"android":"levelo://app?vid=255daf4e-61ea-410f-88b5-c21b2bddd207","ios":"levelo://app?vid=255daf4e-61ea-410f-88b5-c21b2bddd207"},"vehicle_type_id":"4","last_reported":1739513550,"current_range_meters":38400,"station_id":"ce4bho92rcd13ifvqh3g","pricing_plan_id":"cebpf4jnsgd1na2vs0mg"},{"bike_id":"7595f09f-a6f2-4f0a-928b-0a2bf7f9e416","system_id":"levelo_inurba_marseille","lat":43.29546,"lon":5.375,"is_reserved":false,"is_disabled":false,"rental_uris":{"android":"levelo://app?vid=7595f09f-a6f2-4f0a-928b-0a2bf7f9e416","ios":"levelo://app?vid=7595f09f-a6f2-4f0a-928b-0a2bf7f9e416"},"vehicle_type_id":"4","last_reported":1739513550,"current_range_meters":38800,"station_id":"ce4bgkp2rcd13ifvqbmg","pricing_plan_id":"cebpf4jnsgd1na2vs0mg"},{"bike_id":"5016e875-414a-41bd-8f00-6a5845e39ba6","system_id":"levelo_inurba_marseille","lat":43.30802,"lon":5.43533,"is_reserved":false,"is_disabled":false,"rental_uris":{"android":"levelo://app?vid=5016e875-414a-41bd-8f00-6a5845e39ba6","ios":"levelo://app?vid=5016e875-414a-41bd-8f00-6a5845e39ba6"},"vehicle_type_id":"4","last_reported":1739513550,"current_range_meters":36000,"station_id":"ce4bhph2rcd13ifvqheg","pricing_plan_id":"cebpf4jnsgd1na2vs0mg"},{"bike_id":"26fca7c2-5eb0-4444-b69c-4560b72548ac","system_id":"levelo_inurba_marseille","lat":43.31282,"lon":5.40163,"is_reserved":false,"is_disabled":false,"rental_uris":{"android":"levelo://app?vid=26fca7c2-5eb0-4444-b69c-4560b72548ac","ios":"levelo://app?vid=26fca7c2-5eb0-4444-b69c-4560b72548ac"},"vehicle_type_id":"4","last_reported":1739513550,"current_range_meters":17600,"station_id":"ce4bh092rcd13ifvqd30","pricing_plan_id":"cebpf4jnsgd1na2vs0mg"},{"bike_id":"51e40a89-2ac8-4991-99a4-870e538e7d5f","system_id":"levelo_inurba_marseille","lat":43.28944,"lon":5.39639,"is_reserved":false,"is_disabled":true,"rental_uris":{"android":"levelo://app?vid=51e40a89-2ac8-4991-99a4-870e538e7d5f","ios":"levelo://app?vid=51e40a89-2ac8-4991-99a4-870e538e7d5f"},"vehicle_type_id":"4","last_reported":1739513550,"current_range_meters":38800,"station_id":"ce4bh3h2rcd13ifvqdn0","pricing_plan_id":"cebpf4jnsgd1na2vs0mg"},{"bike_id":"39d40468-b29c-46fb-aaf9-a1a8071ae0f6","system_id":"levelo_inurba_marseille","lat":43.29962,"lon":5.4132,"is_reserved":false,"is_disabled":false,"rental_uris":{"android":"levelo://app?vid=39d40468-b29c-46fb-aaf9-a1a8071ae0f6","ios":"levelo://app?vid=39d40468-b29c-46fb-aaf9-a1a8071ae0f6"},"vehicle_type_id":"4","last_reported":1739513550,"current_range_meters":38000,"station_id":"ce4bhp12rcd13ifvqh9g","pricing_plan_id":"cebpf4jnsgd1na2vs0mg"},{"bike_id":"7ab1a7b8-fddf-4296-90cf-919e5783cfe8","system_id":"levelo_inurba_marseille","lat":43.251233,"lon":5.40326,"is_reserved":false,"is_disabled":false,"rental_uris":{"android":"levelo://app?vid=7ab1a7b8-fddf-4296-90cf-919e5783cfe8","ios":"levelo://app?vid=7ab1a7b8-fddf-4296-90cf-919e5783cfe8"},"vehicle_type_id":"4","last_reported":1739513550,"current_range_meters":30800,"station_id":"ce4bhlh2rcd13ifvqgig","pricing_plan_id":"cebpf4jnsgd1na2vs0mg"},{"bike_id":"4d77db09-905c-49b4-96d1-a6c7bd4303b6","system_id":"levelo_inurba_marseille","lat":43.27366,"lon":5.36256,"is_reserved":false,"is_disabled":false,"rental_uris":{"android":"levelo://app?vid=4d77db09-905c-49b4-96d1-a6c7bd4303b6","ios":"levelo://app?vid=4d77db09-905c-49b4-96d1-a6c7bd4303b6"},"vehicle_type_id":"4","last_reported":1739513550,"current_range_meters":31200,"station_id":"ce4bhbh2rcd13ifvqeo0","pricing_plan_id":"cebpf4jnsgd1na2vs0mg"},{"bike_id":"8fd4fd35-b145-4a8c-a6eb-54e222cc3ec4","system_id":"levelo_inurba_marseille","lat":43.29191,"lon":5.35796,"is_reserved":false,"is_disabled":false,"rental_uris":{"android":"levelo://app?vid=8fd4fd35-b145-4a8c-a6eb-54e222cc3ec4","ios":"levelo://app?vid=8fd4fd35-b145-4a8c-a6eb-54e222cc3ec4"},"vehicle_type_id":"4","last_reported":1739513550,"current_range_meters":25200,"station_id":"ce4bhb12rcd13ifvqel0","pricing_plan_id":"cebpf4jnsgd1na2vs0mg"},{"bike_id":"79e5ad63-abd5-4d07-9e51-60dc9e7253cd","system_id":"levelo_inurba_marseille","lat":43.231909,"lon":5.399876,"is_reserved":false,"is_disabled":true,"rental_uris":{"android":"levelo://app?vid=79e5ad63-abd5-4d07-9e51-60dc9e7253cd","ios":"levelo://app?vid=79e5ad63-abd5-4d07-9e51-60dc9e7253cd"},"vehicle_type_id":"4","last_reported":1739513550,"current_range_meters":0,"station_id":"ce4bhn12rcd13ifvqgqg","pricing_plan_id":"cebpf4jnsgd1na2vs0mg"},{"bike_id":"a0bb3239-6312-40a3-8801-e3741eced193","system_id":"levelo_inurba_marseille","lat":43.29547,"lon":5.42272,"is_reserved":false,"is_disabled":false,"rental_uris":{"android":"levelo://app?vid=a0bb3239-6312-40a3-8801-e3741eced193","ios":"levelo://app?vid=a0bb3239-6312-40a3-8801-e3741eced193"},"vehicle_type_id":"4","last_reported":1739513550,"current_range_meters":38400,"station_id":"ce4bhph2rcd13ifvqhdg","pricing_plan_id":"cebpf4jnsgd1na2vs0mg"},{"bike_id":"492e558b-0ce5-4984-b6b1-1d33f225a96b","system_id":"levelo_inurba_marseille","lat":43.24174,"lon":5.36396,"is_reserved":false,"is_disabled":false,"rental_uris":{"android":"levelo://app?vid=492e558b-0ce5-4984-b6b1-1d33f225a96b","ios":"levelo://app?vid=492e558b-0ce5-4984-b6b1-1d33f225a96b"},"vehicle_type_id":"4","last_reported":1739513550,"current_range_meters":38400,"station_id":"cpo36qri1sfpv3e86is0","pricing_plan_id":"cebpf4jnsgd1na2vs0mg"},{"bike_id":"6bf99e3e-9f10-4617-93f9-2e16108e33a0","system_id":"levelo_inurba_marseille","lat":43.231533,"lon":5.437019,"is_reserved":false,"is_disabled":false,"rental_uris":{"android":"levelo://app?vid=6bf99e3e-9f10-4617-93f9-2e16108e33a0","ios":"levelo://app?vid=6bf99e3e-9f10-4617-93f9-2e16108e33a0"},"vehicle_type_id":"4","last_reported":1739513550,"current_range_meters":38800,"station_id":"ce4bhmp2rcd13ifvqgog","pricing_plan_id":"cebpf4jnsgd1na2vs0mg"},{"bike_id":"4e761e9d-2b37-4a5a-9ff0-c8e96e0d42db","system_id":"levelo_inurba_marseille","lat":43.30608,"lon":5.37207,"is_reserved":false,"is_disabled":false,"rental_uris":{"android":"levelo://app?vid=4e761e9d-2b37-4a5a-9ff0-c8e96e0d42db","ios":"levelo://app?vid=4e761e9d-2b37-4a5a-9ff0-c8e96e0d42db"},"vehicle_type_id":"4","last_reported":1739513550,"current_range_meters":16400,"station_id":"ce4bgqh2rcd13ifvqc4g","pricing_plan_id":"cebpf4jnsgd1na2vs0mg"},{"bike_id":"10a6ad69-14c9-4b5c-8857-ff52411cbb31","system_id":"levelo_inurba_marseille","lat":43.28348,"lon":5.38105,"is_reserved":false,"is_disabled":false,"rental_uris":{"android":"levelo://app?vid=10a6ad69-14c9-4b5c-8857-ff52411cbb31","ios":"levelo://app?vid=10a6ad69-14c9-4b5c-8857-ff52411cbb31"},"vehicle_type_id":"4","last_reported":1739513550,"current_range_meters":38800,"station_id":"ce4bh412rcd13ifvqdr0","pricing_plan_id":"cebpf4jnsgd1na2vs0mg"},{"bike_id":"17359da5-754b-4c1f-9974-59fc1ea40a51","system_id":"levelo_inurba_marseille","lat":43.304674,"lon":5.378994,"is_reserved":false,"is_disabled":false,"rental_uris":{"android":"levelo://app?vid=17359da5-754b-4c1f-9974-59fc1ea40a51","ios":"levelo://app?vid=17359da5-754b-4c1f-9974-59fc1ea40a51"},"vehicle_type_id":"4","last_reported":1739513550,"current_range_meters":37600,"station_id":"ce4bgup2rcd13ifvqcn0","pricing_plan_id":"cebpf4jnsgd1na2vs0mg"},{"bike_id":"1637a0cf-bf29-4186-90ff-2a16e918aeaf","system_id":"levelo_inurba_marseille","lat":43.29255,"lon":5.40905,"is_reserved":false,"is_disabled":false,"rental_uris":{"android":"levelo://app?vid=1637a0cf-bf29-4186-90ff-2a16e918aeaf","ios":"levelo://app?vid=1637a0cf-bf29-4186-90ff-2a16e918aeaf"},"vehicle_type_id":"4","last_reported":1739513550,"current_range_meters":19600,"station_id":"ce4bh192rcd13ifvqdc0","pricing_plan_id":"cebpf4jnsgd1na2vs0mg"},{"bike_id":"3e364230-e791-4719-a976-7d1bf64b79a1","system_id":"levelo_inurba_marseille","lat":43.31244,"lon":5.36855,"is_reserved":false,"is_disabled":true,"rental_uris":{"android":"levelo://app?vid=3e364230-e791-4719-a976-7d1bf64b79a1","ios":"levelo://app?vid=3e364230-e791-4719-a976-7d1bf64b79a1"},"vehicle_type_id":"4","last_reported":1739513550,"current_range_meters":0,"station_id":"ce4bgl92rcd13ifvqbq0","pricing_plan_id":"cebpf4jnsgd1na2vs0mg"},{"bike_id":"ff489825-db76-49d3-aa98-c1c0aaa6bdad","system_id":"levelo_inurba_marseille","lat":43.292419,"lon":5.366559,"is_reserved":false,"is_disabled":false,"rental_uris":{"android":"levelo://app?vid=ff489825-db76-49d3-aa98-c1c0aaa6bdad","ios":"levelo://app?vid=ff489825-db76-49d3-aa98-c1c0aaa6bdad"},"vehicle_type_id":"4","last_reported":1739513550,"current_range_meters":8000,"station_id":"","pricing_plan_id":"cebpf4jnsgd1na2vs0mg"},{"bike_id":"b05188c1-c27a-4360-a55b-799ca6e034cf","system_id":"levelo_inurba_marseille","lat":43.28031,"lon":5.36943,"is_reserved":false,"is_disabled":false,"rental_uris":{"android":"levelo://app?vid=b05188c1-c27a-4360-a55b-799ca6e034cf","ios":"levelo://app?vid=b05188c1-c27a-4360-a55b-799ca6e034cf"},"vehicle_type_id":"4","last_reported":1739513550,"current_range_meters":10800,"station_id":"ce4bha12rcd13ifvqef0","pricing_plan_id":"cebpf4jnsgd1na2vs0mg"},{"bike_id":"bace8bf9-f802-4769-a1ab-149feec80afe","system_id":"levelo_inurba_marseille","lat":43.288521,"lon":5.358578,"is_reserved":false,"is_disabled":false,"rental_uris":{"android":"levelo://app?vid=bace8bf9-f802-4769-a1ab-149feec80afe","ios":"levelo://app?vid=bace8bf9-f802-4769-a1ab-149feec80afe"},"vehicle_type_id":"4","last_reported":1739513550,"current_range_meters":38000,"station_id":"ce4bhb12rcd13ifvqem0","pricing_plan_id":"cebpf4jnsgd1na2vs0mg"},{"bike_id":"b5793197-90f8-46f4-812c-bfe71f90f59c","system_id":"levelo_inurba_marseille","lat":43.29644,"lon":5.40608,"is_reserved":false,"is_disabled":false,"rental_uris":{"android":"levelo://app?vid=b5793197-90f8-46f4-812c-bfe71f90f59c","ios":"levelo://app?vid=b5793197-90f8-46f4-812c-bfe71f90f59c"},"vehicle_type_id":"4","last_reported":1739513550,"current_range_meters":38800,"station_id":"ce4bh0h2rcd13ifvqd60","pricing_plan_id":"cebpf4jnsgd1na2vs0mg"},{"bike_id":"12a05f82-38e9-4838-b031-b182163447ac","system_id":"levelo_inurba_marseille","lat":43.3021,"lon":5.39476,"is_reserved":false,"is_disabled":false,"rental_uris":{"android":"levelo://app?vid=12a05f82-38e9-4838-b031-b182163447ac","ios":"levelo://app?vid=12a05f82-38e9-4838-b031-b182163447ac"},"vehicle_type_id":"4","last_reported":1739513550,"current_range_meters":38800,"station_id":"ce4bh0p2rcd13ifvqd70","pricing_plan_id":"cebpf4jnsgd1na2vs0mg"},{"bike_id":"af7ae1e3-87b2-4cd3-9b8f-a973c351af89","system_id":"levelo_inurba_marseille","lat":43.23192,"lon":5.39978,"is_reserved":false,"is_disabled":false,"rental_uris":{"android":"levelo://app?vid=af7ae1e3-87b2-4cd3-9b8f-a973c351af89","ios":"levelo://app?vid=af7ae1e3-87b2-4cd3-9b8f-a973c351af89"},"vehicle_type_id":"4","last_reported":1739513550,"current_range_meters":36000,"station_id":"ce4bhn12rcd13ifvqgqg","pricing_plan_id":"cebpf4jnsgd1na2vs0mg"},{"bike_id":"004dcd9f-fe33-47bd-93fa-19bdccc4b89f","system_id":"levelo_inurba_marseille","lat":43.251181,"lon":5.403092,"is_reserved":false,"is_disabled":false,"rental_uris":{"android":"levelo://app?vid=004dcd9f-fe33-47bd-93fa-19bdccc4b89f","ios":"levelo://app?vid=004dcd9f-fe33-47bd-93fa-19bdccc4b89f"},"vehicle_type_id":"4","last_reported":1739513550,"current_range_meters":38800,"station_id":"ce4bhm12rcd13ifvqgkg","pricing_plan_id":"cebpf4jnsgd1na2vs0mg"},{"bike_id":"4dbc26c6-2a15-45e7-b1cd-4e0586d88b2f","system_id":"levelo_inurba_marseille","lat":43.27348,"lon":5.36243,"is_reserved":false,"is_disabled":true,"rental_uris":{"android":"levelo://app?vid=4dbc26c6-2a15-45e7-b1cd-4e0586d88b2f","ios":"levelo://app?vid=4dbc26c6-2a15-45e7-b1cd-4e0586d88b2f"},"vehicle_type_id":"4","last_reported":1739513550,"current_range_meters":36000,"station_id":"ce4bhbh2rcd13ifvqeo0","pricing_plan_id":"cebpf4jnsgd1na2vs0mg"},{"bike_id":"2a8d5b38-12c7-43ca-969a-fe7b4ef5b359","system_id":"levelo_inurba_marseille","lat":43.317,"lon":5.37774,"is_reserved":false,"is_disabled":true,"rental_uris":{"android":"levelo://app?vid=2a8d5b38-12c7-43ca-969a-fe7b4ef5b359","ios":"levelo://app?vid=2a8d5b38-12c7-43ca-969a-fe7b4ef5b359"},"vehicle_type_id":"4","last_reported":1739513550,"current_range_meters":0,"station_id":"ce4bgth2rcd13ifvqch0","pricing_plan_id":"cebpf4jnsgd1na2vs0mg"},{"bike_id":"6d5a124a-5ef9-4ef5-9f28-d40c1219dcc1","system_id":"levelo_inurba_marseille","lat":43.323641,"lon":5.388827,"is_reserved":false,"is_disabled":false,"rental_uris":{"android":"levelo://app?vid=6d5a124a-5ef9-4ef5-9f28-d40c1219dcc1","ios":"levelo://app?vid=6d5a124a-5ef9-4ef5-9f28-d40c1219dcc1"},"vehicle_type_id":"4","last_reported":1739513550,"current_range_meters":16400,"station_id":"ce4bhqp2rcd13ifvqhog","pricing_plan_id":"cebpf4jnsgd1na2vs0mg"},{"bike_id":"1f6ba3af-8859-467c-9802-ce9b84441ce9","system_id":"levelo_inurba_marseille","lat":43.27817,"lon":5.40717,"is_reserved":false,"is_disabled":false,"rental_uris":{"android":"levelo://app?vid=1f6ba3af-8859-467c-9802-ce9b84441ce9","ios":"levelo://app?vid=1f6ba3af-8859-467c-9802-ce9b84441ce9"},"vehicle_type_id":"4","last_reported":1739513550,"current_range_meters":2800,"station_id":"ce4bhnh2rcd13ifvqgtg","pricing_plan_id":"cebpf4jnsgd1na2vs0mg"},{"bike_id":"00f8a0ff-c4e3-42da-8103-f17cc4b1ba0d","system_id":"levelo_inurba_marseille","lat":43.281548,"lon":5.426464,"is_reserved":false,"is_disabled":false,"rental_uris":{"android":"levelo://app?vid=00f8a0ff-c4e3-42da-8103-f17cc4b1ba0d","ios":"levelo://app?vid=00f8a0ff-c4e3-42da-8103-f17cc4b1ba0d"},"vehicle_type_id":"4","last_reported":1739513550,"current_range_meters":18800,"station_id":"ce4bhnh2rcd13ifvqgug","pricing_plan_id":"cebpf4jnsgd1na2vs0mg"},{"bike_id":"d7211194-703e-4d7b-b1fc-6a1467a41aa6","system_id":"levelo_inurba_marseille","lat":43.28032,"lon":5.36937,"is_reserved":false,"is_disabled":false,"rental_uris":{"android":"levelo://app?vid=d7211194-703e-4d7b-b1fc-6a1467a41aa6","ios":"levelo://app?vid=d7211194-703e-4d7b-b1fc-6a1467a41aa6"},"vehicle_type_id":"4","last_reported":1739513550,"current_range_meters":37600,"station_id":"ce4bha12rcd13ifvqef0","pricing_plan_id":"cebpf4jnsgd1na2vs0mg"},{"bike_id":"5429a055-5c17-4863-ac08-ee7234bc7af8","system_id":"levelo_inurba_marseille","lat":43.32277,"lon":5.36847,"is_reserved":false,"is_disabled":false,"rental_uris":{"android":"levelo://app?vid=5429a055-5c17-4863-ac08-ee7234bc7af8","ios":"levelo://app?vid=5429a055-5c17-4863-ac08-ee7234bc7af8"},"vehicle_type_id":"4","last_reported":1739513550,"current_range_meters":37600,"station_id":"","pricing_plan_id":"cebpf4jnsgd1na2vs0mg"},{"bike_id":"1b745f62-ad2a-489b-a845-f3299b39637e","system_id":"levelo_inurba_marseille","lat":43.308003,"lon":5.370017,"is_reserved":false,"is_disabled":false,"rental_uris":{"android":"levelo://app?vid=1b745f62-ad2a-489b-a845-f3299b39637e","ios":"levelo://app?vid=1b745f62-ad2a-489b-a845-f3299b39637e"},"vehicle_type_id":"4","last_reported":1739513550,"current_range_meters":27200,"station_id":"","pricing_plan_id":"cebpf4jnsgd1na2vs0mg"},{"bike_id":"9183921d-8e97-4c4b-a98e-67fb34e43b27","system_id":"levelo_inurba_marseille","lat":43.286201,"lon":5.351048,"is_reserved":false,"is_disabled":false,"rental_uris":{"android":"levelo://app?vid=9183921d-8e97-4c4b-a98e-67fb34e43b27","ios":"levelo://app?vid=9183921d-8e97-4c4b-a98e-67fb34e43b27"},"vehicle_type_id":"4","last_reported":1739513550,"current_range_meters":12000,"station_id":"ce4bhch2rcd13ifvqeug","pricing_plan_id":"cebpf4jnsgd1na2vs0mg"},{"bike_id":"e067571b-67a4-4767-99d2-aec18283f7e1","system_id":"levelo_inurba_marseille","lat":43.29641,"lon":5.37142,"is_reserved":false,"is_disabled":true,"rental_uris":{"android":"levelo://app?vid=e067571b-67a4-4767-99d2-aec18283f7e1","ios":"levelo://app?vid=e067571b-67a4-4767-99d2-aec18283f7e1"},"vehicle_type_id":"4","last_reported":1739513550,"current_range_meters":38800,"station_id":"ce4bgnh2rcd13ifvqc0g","pricing_plan_id":"cebpf4jnsgd1na2vs0mg"},{"bike_id":"acc39daa-3a4d-4c95-b5a8-16360a611402","system_id":"levelo_inurba_marseille","lat":43.29623,"lon":5.37157,"is_reserved":false,"is_disabled":true,"rental_uris":{"android":"levelo://app?vid=acc39daa-3a4d-4c95-b5a8-16360a611402","ios":"levelo://app?vid=acc39daa-3a4d-4c95-b5a8-16360a611402"},"vehicle_type_id":"4","last_reported":1739513550,"current_range_meters":36400,"station_id":"ce4bgnh2rcd13ifvqc0g","pricing_plan_id":"cebpf4jnsgd1na2vs0mg"},{"bike_id":"859c79c3-9c5b-47b3-94ad-94355d1f1457","system_id":"levelo_inurba_marseille","lat":43.243955,"lon":5.370496,"is_reserved":false,"is_disabled":false,"rental_uris":{"android":"levelo://app?vid=859c79c3-9c5b-47b3-94ad-94355d1f1457","ios":"levelo://app?vid=859c79c3-9c5b-47b3-94ad-94355d1f1457"},"vehicle_type_id":"4","last_reported":1739513550,"current_range_meters":14000,"station_id":"ce4bhhh2rcd13ifvqfk0","pricing_plan_id":"cebpf4jnsgd1na2vs0mg"},{"bike_id":"6d1bf480-99a1-4bd6-b14e-45dd413efdc1","system_id":"levelo_inurba_marseille","lat":43.31323,"lon":5.39786,"is_reserved":false,"is_disabled":false,"rental_uris":{"android":"levelo://app?vid=6d1bf480-99a1-4bd6-b14e-45dd413efdc1","ios":"levelo://app?vid=6d1bf480-99a1-4bd6-b14e-45dd413efdc1"},"vehicle_type_id":"4","last_reported":1739513550,"current_range_meters":12000,"station_id":"ce4bgvp2rcd13ifvqcu0","pricing_plan_id":"cebpf4jnsgd1na2vs0mg"},{"bike_id":"2f1367e3-87e5-4d8a-973e-ba517aab4bf3","system_id":"levelo_inurba_marseille","lat":43.298484,"lon":5.362951,"is_reserved":false,"is_disabled":false,"rental_uris":{"android":"levelo://app?vid=2f1367e3-87e5-4d8a-973e-ba517aab4bf3","ios":"levelo://app?vid=2f1367e3-87e5-4d8a-973e-ba517aab4bf3"},"vehicle_type_id":"4","last_reported":1739513550,"current_range_meters":8800,"station_id":"ce4bgpp2rcd13ifvqc3g","pricing_plan_id":"cebpf4jnsgd1na2vs0mg"},{"bike_id":"9aa86d99-106a-48d4-956c-f1046f79ed86","system_id":"levelo_inurba_marseille","lat":43.28556,"lon":5.39489,"is_reserved":false,"is_disabled":false,"rental_uris":{"android":"levelo://app?vid=9aa86d99-106a-48d4-956c-f1046f79ed86","ios":"levelo://app?vid=9aa86d99-106a-48d4-956c-f1046f79ed86"},"vehicle_type_id":"4","last_reported":1739513550,"current_range_meters":38000,"station_id":"ce4bh292rcd13ifvqdg0","pricing_plan_id":"cebpf4jnsgd1na2vs0mg"},{"bike_id":"08aa99e3-8afc-4845-a87e-94791787af4a","system_id":"levelo_inurba_marseille","lat":43.32825,"lon":5.399327,"is_reserved":false,"is_disabled":false,"rental_uris":{"android":"levelo://app?vid=08aa99e3-8afc-4845-a87e-94791787af4a","ios":"levelo://app?vid=08aa99e3-8afc-4845-a87e-94791787af4a"},"vehicle_type_id":"4","last_reported":1739513550,"current_range_meters":27600,"station_id":"","pricing_plan_id":"cebpf4jnsgd1na2vs0mg"},{"bike_id":"9f33e96b-9ea5-47c5-8394-c6f7aeb0bc97","system_id":"levelo_inurba_marseille","lat":43.30144,"lon":5.3987,"is_reserved":false,"is_disabled":false,"rental_uris":{"android":"levelo://app?vid=9f33e96b-9ea5-47c5-8394-c6f7aeb0bc97","ios":"levelo://app?vid=9f33e96b-9ea5-47c5-8394-c6f7aeb0bc97"},"vehicle_type_id":"4","last_reported":1739513550,"current_range_meters":27600,"station_id":"ce4bh0h2rcd13ifvqd40","pricing_plan_id":"cebpf4jnsgd1na2vs0mg"},{"bike_id":"0e7b7964-ea54-42c5-bc2b-8ebf34f8cbe5","system_id":"levelo_inurba_marseille","lat":43.27594,"lon":5.3612,"is_reserved":false,"is_disabled":false,"rental_uris":{"android":"levelo://app?vid=0e7b7964-ea54-42c5-bc2b-8ebf34f8cbe5","ios":"levelo://app?vid=0e7b7964-ea54-42c5-bc2b-8ebf34f8cbe5"},"vehicle_type_id":"4","last_reported":1739513550,"current_range_meters":30000,"station_id":"ce4bgj92rcd13ifvqbe0","pricing_plan_id":"cebpf4jnsgd1na2vs0mg"},{"bike_id":"354fd4a4-7dfc-4738-9ee9-b52996f0e69f","system_id":"levelo_inurba_marseille","lat":43.28681,"lon":5.38684,"is_reserved":false,"is_disabled":false,"rental_uris":{"android":"levelo://app?vid=354fd4a4-7dfc-4738-9ee9-b52996f0e69f","ios":"levelo://app?vid=354fd4a4-7dfc-4738-9ee9-b52996f0e69f"},"vehicle_type_id":"4","last_reported":1739513550,"current_range_meters":37600,"station_id":"ce4bh492rcd13ifvqdug","pricing_plan_id":"cebpf4jnsgd1na2vs0mg"},{"bike_id":"b9baf744-9c31-4da3-9ea5-a3d1126a1191","system_id":"levelo_inurba_marseille","lat":43.28434,"lon":5.39202,"is_reserved":false,"is_disabled":false,"rental_uris":{"android":"levelo://app?vid=b9baf744-9c31-4da3-9ea5-a3d1126a1191","ios":"levelo://app?vid=b9baf744-9c31-4da3-9ea5-a3d1126a1191"},"vehicle_type_id":"4","last_reported":1739513550,"current_range_meters":15200,"station_id":"ce4bhoh2rcd13ifvqh5g","pricing_plan_id":"cebpf4jnsgd1na2vs0mg"},{"bike_id":"a40e6477-f581-46a3-9649-1a7492848197","system_id":"levelo_inurba_marseille","lat":43.31908,"lon":5.40732,"is_reserved":false,"is_disabled":false,"rental_uris":{"android":"levelo://app?vid=a40e6477-f581-46a3-9649-1a7492848197","ios":"levelo://app?vid=a40e6477-f581-46a3-9649-1a7492848197"},"vehicle_type_id":"4","last_reported":1739513550,"current_range_meters":12000,"station_id":"ce4bhq12rcd13ifvqhig","pricing_plan_id":"cebpf4jnsgd1na2vs0mg"},{"bike_id":"d6f38d8d-bb5a-4b27-b5d4-6029f0946ece","system_id":"levelo_inurba_marseille","lat":43.274703,"lon":5.435375,"is_reserved":false,"is_disabled":false,"rental_uris":{"android":"levelo://app?vid=d6f38d8d-bb5a-4b27-b5d4-6029f0946ece","ios":"levelo://app?vid=d6f38d8d-bb5a-4b27-b5d4-6029f0946ece"},"vehicle_type_id":"4","last_reported":1739513550,"current_range_meters":9200,"station_id":"","pricing_plan_id":"cebpf4jnsgd1na2vs0mg"},{"bike_id":"5d1096d5-7ebd-44e2-a204-0a125d9ed440","system_id":"levelo_inurba_marseille","lat":43.25102,"lon":5.40331,"is_reserved":false,"is_disabled":false,"rental_uris":{"android":"levelo://app?vid=5d1096d5-7ebd-44e2-a204-0a125d9ed440","ios":"levelo://app?vid=5d1096d5-7ebd-44e2-a204-0a125d9ed440"},"vehicle_type_id":"4","last_reported":1739513550,"current_range_meters":31200,"station_id":"ce4bhlh2rcd13ifvqgig","pricing_plan_id":"cebpf4jnsgd1na2vs0mg"},{"bike_id":"9e8fe326-5d76-4691-9e64-acf86b994dab","system_id":"levelo_inurba_marseille","lat":43.27616,"lon":5.36103,"is_reserved":false,"is_disabled":false,"rental_uris":{"android":"levelo://app?vid=9e8fe326-5d76-4691-9e64-acf86b994dab","ios":"levelo://app?vid=9e8fe326-5d76-4691-9e64-acf86b994dab"},"vehicle_type_id":"4","last_reported":1739513550,"current_range_meters":28400,"station_id":"ce4bgj92rcd13ifvqbe0","pricing_plan_id":"cebpf4jnsgd1na2vs0mg"},{"bike_id":"eb74081f-8035-495f-a073-abb8444b5eb2","system_id":"levelo_inurba_marseille","lat":43.23957,"lon":5.36632,"is_reserved":false,"is_disabled":false,"rental_uris":{"android":"levelo://app?vid=eb74081f-8035-495f-a073-abb8444b5eb2","ios":"levelo://app?vid=eb74081f-8035-495f-a073-abb8444b5eb2"},"vehicle_type_id":"4","last_reported":1739513550,"current_range_meters":36800,"station_id":"ce4bhi12rcd13ifvqfp0","pricing_plan_id":"cebpf4jnsgd1na2vs0mg"},{"bike_id":"213e7ed3-b6c6-470c-8e37-ca6ffb58bff8","system_id":"levelo_inurba_marseille","lat":43.27476,"lon":5.42456,"is_reserved":false,"is_disabled":true,"rental_uris":{"android":"levelo://app?vid=213e7ed3-b6c6-470c-8e37-ca6ffb58bff8","ios":"levelo://app?vid=213e7ed3-b6c6-470c-8e37-ca6ffb58bff8"},"vehicle_type_id":"4","last_reported":1739513550,"current_range_meters":25200,"station_id":"ce4bhn92rcd13ifvqgrg","pricing_plan_id":"cebpf4jnsgd1na2vs0mg"},{"bike_id":"9e9a6714-3fc9-40fa-9906-8520375a2b7c","system_id":"levelo_inurba_marseille","lat":43.23132,"lon":5.43696,"is_reserved":false,"is_disabled":false,"rental_uris":{"android":"levelo://app?vid=9e9a6714-3fc9-40fa-9906-8520375a2b7c","ios":"levelo://app?vid=9e9a6714-3fc9-40fa-9906-8520375a2b7c"},"vehicle_type_id":"4","last_reported":1739513550,"current_range_meters":38800,"station_id":"ce4bhmp2rcd13ifvqgog","pricing_plan_id":"cebpf4jnsgd1na2vs0mg"},{"bike_id":"861e94fe-13dc-4381-880a-a34620fe78bc","system_id":"levelo_inurba_marseille","lat":43.315412,"lon":5.38027,"is_reserved":false,"is_disabled":false,"rental_uris":{"android":"levelo://app?vid=861e94fe-13dc-4381-880a-a34620fe78bc","ios":"levelo://app?vid=861e94fe-13dc-4381-880a-a34620fe78bc"},"vehicle_type_id":"4","last_reported":1739513550,"current_range_meters":24400,"station_id":"ce4bhsp2rcd13ifvqi50","pricing_plan_id":"cebpf4jnsgd1na2vs0mg"},{"bike_id":"5dae2c10-b087-43a5-a9ee-57ac69ad9edf","system_id":"levelo_inurba_marseille","lat":43.30646,"lon":5.40083,"is_reserved":false,"is_disabled":false,"rental_uris":{"android":"levelo://app?vid=5dae2c10-b087-43a5-a9ee-57ac69ad9edf","ios":"levelo://app?vid=5dae2c10-b087-43a5-a9ee-57ac69ad9edf"},"vehicle_type_id":"4","last_reported":1739513550,"current_range_meters":38000,"station_id":"ce4bh112rcd13ifvqda0","pricing_plan_id":"cebpf4jnsgd1na2vs0mg"},{"bike_id":"5432c8b4-ca85-4cb1-ae85-3fed69e9666b","system_id":"levelo_inurba_marseille","lat":43.30463,"lon":5.37917,"is_reserved":false,"is_disabled":false,"rental_uris":{"android":"levelo://app?vid=5432c8b4-ca85-4cb1-ae85-3fed69e9666b","ios":"levelo://app?vid=5432c8b4-ca85-4cb1-ae85-3fed69e9666b"},"vehicle_type_id":"4","last_reported":1739513550,"current_range_meters":34000,"station_id":"ce4bgup2rcd13ifvqcn0","pricing_plan_id":"cebpf4jnsgd1na2vs0mg"},{"bike_id":"1ec14052-2d33-4aa1-9ab8-58cc71db74d1","system_id":"levelo_inurba_marseille","lat":43.24172,"lon":5.36415,"is_reserved":false,"is_disabled":true,"rental_uris":{"android":"levelo://app?vid=1ec14052-2d33-4aa1-9ab8-58cc71db74d1","ios":"levelo://app?vid=1ec14052-2d33-4aa1-9ab8-58cc71db74d1"},"vehicle_type_id":"4","last_reported":1739513550,"current_range_meters":2800,"station_id":"cpo36qri1sfpv3e86is0","pricing_plan_id":"cebpf4jnsgd1na2vs0mg"},{"bike_id":"6e58a69c-2a4e-4c49-840d-6e728a603acb","system_id":"levelo_inurba_marseille","lat":43.23063,"lon":5.35507,"is_reserved":false,"is_disabled":false,"rental_uris":{"android":"levelo://app?vid=6e58a69c-2a4e-4c49-840d-6e728a603acb","ios":"levelo://app?vid=6e58a69c-2a4e-4c49-840d-6e728a603acb"},"vehicle_type_id":"4","last_reported":1739513550,"current_range_meters":37600,"station_id":"cpo3342slgdg3j2ifvpg","pricing_plan_id":"cebpf4jnsgd1na2vs0mg"},{"bike_id":"b5c8fb35-d977-42a9-bfd5-59330adcb2c1","system_id":"levelo_inurba_marseille","lat":43.27977,"lon":5.38723,"is_reserved":false,"is_disabled":false,"rental_uris":{"android":"levelo://app?vid=b5c8fb35-d977-42a9-bfd5-59330adcb2c1","ios":"levelo://app?vid=b5c8fb35-d977-42a9-bfd5-59330adcb2c1"},"vehicle_type_id":"4","last_reported":1739513550,"current_range_meters":35200,"station_id":"ce4bhg12rcd13ifvqf80","pricing_plan_id":"cebpf4jnsgd1na2vs0mg"},{"bike_id":"cdd384b0-278a-4f91-b9e6-35c402322f3a","system_id":"levelo_inurba_marseille","lat":43.29533,"lon":5.39409,"is_reserved":false,"is_disabled":false,"rental_uris":{"android":"levelo://app?vid=cdd384b0-278a-4f91-b9e6-35c402322f3a","ios":"levelo://app?vid=cdd384b0-278a-4f91-b9e6-35c402322f3a"},"vehicle_type_id":"4","last_reported":1739513550,"current_range_meters":38800,"station_id":"ce4bh292rcd13ifvqdf0","pricing_plan_id":"cebpf4jnsgd1na2vs0mg"},{"bike_id":"ad8f6ef4-cc35-4977-9039-32a61f9200e5","system_id":"levelo_inurba_marseille","lat":43.28612,"lon":5.35127,"is_reserved":false,"is_disabled":false,"rental_uris":{"android":"levelo://app?vid=ad8f6ef4-cc35-4977-9039-32a61f9200e5","ios":"levelo://app?vid=ad8f6ef4-cc35-4977-9039-32a61f9200e5"},"vehicle_type_id":"4","last_reported":1739513550,"current_range_meters":38800,"station_id":"ce4bhch2rcd13ifvqeug","pricing_plan_id":"cebpf4jnsgd1na2vs0mg"},{"bike_id":"0734d612-ef77-4b2c-aaa6-bce46c2274cc","system_id":"levelo_inurba_marseille","lat":43.2994,"lon":5.36542,"is_reserved":false,"is_disabled":true,"rental_uris":{"android":"levelo://app?vid=0734d612-ef77-4b2c-aaa6-bce46c2274cc","ios":"levelo://app?vid=0734d612-ef77-4b2c-aaa6-bce46c2274cc"},"vehicle_type_id":"4","last_reported":1739513550,"current_range_meters":31200,"station_id":"ce4bgm92rcd13ifvqbr0","pricing_plan_id":"cebpf4jnsgd1na2vs0mg"},{"bike_id":"f50eff07-a8c4-4cc6-b46b-160543be4a0c","system_id":"levelo_inurba_marseille","lat":43.28396,"lon":5.37505,"is_reserved":false,"is_disabled":false,"rental_uris":{"android":"levelo://app?vid=f50eff07-a8c4-4cc6-b46b-160543be4a0c","ios":"levelo://app?vid=f50eff07-a8c4-4cc6-b46b-160543be4a0c"},"vehicle_type_id":"4","last_reported":1739513550,"current_range_meters":16000,"station_id":"ce4bh412rcd13ifvqds0","pricing_plan_id":"cebpf4jnsgd1na2vs0mg"},{"bike_id":"a8a2f86c-9c40-4b00-9d62-6448a3d71e30","system_id":"levelo_inurba_marseille","lat":43.3017,"lon":5.3809,"is_reserved":false,"is_disabled":false,"rental_uris":{"android":"levelo://app?vid=a8a2f86c-9c40-4b00-9d62-6448a3d71e30","ios":"levelo://app?vid=a8a2f86c-9c40-4b00-9d62-6448a3d71e30"},"vehicle_type_id":"4","last_reported":1739513550,"current_range_meters":37600,"station_id":"ce4bgjp2rcd13ifvqbh0","pricing_plan_id":"cebpf4jnsgd1na2vs0mg"},{"bike_id":"4450d397-c7c4-4c68-aed9-fa811598c082","system_id":"levelo_inurba_marseille","lat":43.325384,"lon":5.365105,"is_reserved":false,"is_disabled":false,"rental_uris":{"android":"levelo://app?vid=4450d397-c7c4-4c68-aed9-fa811598c082","ios":"levelo://app?vid=4450d397-c7c4-4c68-aed9-fa811598c082"},"vehicle_type_id":"4","last_reported":1739513550,"current_range_meters":32400,"station_id":"","pricing_plan_id":"cebpf4jnsgd1na2vs0mg"},{"bike_id":"c186b7ff-1611-4e5e-b1a9-a47eed5d97f0","system_id":"levelo_inurba_marseille","lat":43.3132,"lon":5.39699,"is_reserved":false,"is_disabled":true,"rental_uris":{"android":"levelo://app?vid=c186b7ff-1611-4e5e-b1a9-a47eed5d97f0","ios":"levelo://app?vid=c186b7ff-1611-4e5e-b1a9-a47eed5d97f0"},"vehicle_type_id":"4","last_reported":1739513550,"current_range_meters":0,"station_id":"ce4bgvp2rcd13ifvqcu0","pricing_plan_id":"cebpf4jnsgd1na2vs0mg"},{"bike_id":"371b24fd-427a-4acf-a12d-3c4c10502b0d","system_id":"levelo_inurba_marseille","lat":43.28361,"lon":5.38626,"is_reserved":false,"is_disabled":false,"rental_uris":{"android":"levelo://app?vid=371b24fd-427a-4acf-a12d-3c4c10502b0d","ios":"levelo://app?vid=371b24fd-427a-4acf-a12d-3c4c10502b0d"},"vehicle_type_id":"4","last_reported":1739513550,"current_range_meters":38000,"station_id":"ce4bh492rcd13ifvqdvg","pricing_plan_id":"cebpf4jnsgd1na2vs0mg"},{"bike_id":"825e3936-0631-4092-8751-d678ad3a94bc","system_id":"levelo_inurba_marseille","lat":43.312831,"lon":5.4017,"is_reserved":false,"is_disabled":false,"rental_uris":{"android":"levelo://app?vid=825e3936-0631-4092-8751-d678ad3a94bc","ios":"levelo://app?vid=825e3936-0631-4092-8751-d678ad3a94bc"},"vehicle_type_id":"4","last_reported":1739513550,"current_range_meters":8000,"station_id":"ce4bh092rcd13ifvqd30","pricing_plan_id":"cebpf4jnsgd1na2vs0mg"},{"bike_id":"04e79b02-26b7-408e-8d07-a04361b8a27a","system_id":"levelo_inurba_marseille","lat":43.23184,"lon":5.39994,"is_reserved":false,"is_disabled":false,"rental_uris":{"android":"levelo://app?vid=04e79b02-26b7-408e-8d07-a04361b8a27a","ios":"levelo://app?vid=04e79b02-26b7-408e-8d07-a04361b8a27a"},"vehicle_type_id":"4","last_reported":1739513550,"current_range_meters":38800,"station_id":"ce4bhn12rcd13ifvqgqg","pricing_plan_id":"cebpf4jnsgd1na2vs0mg"},{"bike_id":"6b656e81-a99f-458b-b133-2509327cf097","system_id":"levelo_inurba_marseille","lat":43.28248,"lon":5.360907,"is_reserved":false,"is_disabled":false,"rental_uris":{"android":"levelo://app?vid=6b656e81-a99f-458b-b133-2509327cf097","ios":"levelo://app?vid=6b656e81-a99f-458b-b133-2509327cf097"},"vehicle_type_id":"4","last_reported":1739513550,"current_range_meters":15200,"station_id":"","pricing_plan_id":"cebpf4jnsgd1na2vs0mg"},{"bike_id":"e928651b-bea8-4d6d-a647-c9234b8b6429","system_id":"levelo_inurba_marseille","lat":43.23182,"lon":5.39987,"is_reserved":false,"is_disabled":false,"rental_uris":{"android":"levelo://app?vid=e928651b-bea8-4d6d-a647-c9234b8b6429","ios":"levelo://app?vid=e928651b-bea8-4d6d-a647-c9234b8b6429"},"vehicle_type_id":"4","last_reported":1739513550,"current_range_meters":28400,"station_id":"ce4bhn12rcd13ifvqgqg","pricing_plan_id":"cebpf4jnsgd1na2vs0mg"},{"bike_id":"b64cb318-9a9d-45df-b9e1-d16ce258851f","system_id":"levelo_inurba_marseille","lat":43.28154,"lon":5.42641,"is_reserved":false,"is_disabled":true,"rental_uris":{"android":"levelo://app?vid=b64cb318-9a9d-45df-b9e1-d16ce258851f","ios":"levelo://app?vid=b64cb318-9a9d-45df-b9e1-d16ce258851f"},"vehicle_type_id":"4","last_reported":1739513550,"current_range_meters":2800,"station_id":"ce4bhnh2rcd13ifvqgug","pricing_plan_id":"cebpf4jnsgd1na2vs0mg"},{"bike_id":"152fd37b-faf3-480e-a36f-94e6a745b61a","system_id":"levelo_inurba_marseille","lat":43.29291,"lon":5.3718,"is_reserved":false,"is_disabled":true,"rental_uris":{"android":"levelo://app?vid=152fd37b-faf3-480e-a36f-94e6a745b61a","ios":"levelo://app?vid=152fd37b-faf3-480e-a36f-94e6a745b61a"},"vehicle_type_id":"4","last_reported":1739513550,"current_range_meters":38800,"station_id":"ce4bgh92rcd13ifvqb40","pricing_plan_id":"cebpf4jnsgd1na2vs0mg"},{"bike_id":"985e70b7-f0c0-4ef3-9a89-7a8de6d80a4c","system_id":"levelo_inurba_marseille","lat":43.26791,"lon":5.39417,"is_reserved":false,"is_disabled":false,"rental_uris":{"android":"levelo://app?vid=985e70b7-f0c0-4ef3-9a89-7a8de6d80a4c","ios":"levelo://app?vid=985e70b7-f0c0-4ef3-9a89-7a8de6d80a4c"},"vehicle_type_id":"4","last_reported":1739513550,"current_range_meters":28800,"station_id":"ce4bhh12rcd13ifvqfg0","pricing_plan_id":"cebpf4jnsgd1na2vs0mg"},{"bike_id":"134a4a22-5177-473f-8a38-0bad709cecbb","system_id":"levelo_inurba_marseille","lat":43.29087,"lon":5.38133,"is_reserved":false,"is_disabled":false,"rental_uris":{"android":"levelo://app?vid=134a4a22-5177-473f-8a38-0bad709cecbb","ios":"levelo://app?vid=134a4a22-5177-473f-8a38-0bad709cecbb"},"vehicle_type_id":"4","last_reported":1739513550,"current_range_meters":30400,"station_id":"ce4bh512rcd13ifvqe2g","pricing_plan_id":"cebpf4jnsgd1na2vs0mg"},{"bike_id":"131a3d2d-0fa7-4199-8a07-3cf997d16a95","system_id":"levelo_inurba_marseille","lat":43.31322,"lon":5.39701,"is_reserved":false,"is_disabled":false,"rental_uris":{"android":"levelo://app?vid=131a3d2d-0fa7-4199-8a07-3cf997d16a95","ios":"levelo://app?vid=131a3d2d-0fa7-4199-8a07-3cf997d16a95"},"vehicle_type_id":"4","last_reported":1739513550,"current_range_meters":4800,"station_id":"ce4bgvp2rcd13ifvqcu0","pricing_plan_id":"cebpf4jnsgd1na2vs0mg"},{"bike_id":"80447043-cc20-4f01-89de-a6705f0695c4","system_id":"levelo_inurba_marseille","lat":43.28259,"lon":5.35087,"is_reserved":false,"is_disabled":false,"rental_uris":{"android":"levelo://app?vid=80447043-cc20-4f01-89de-a6705f0695c4","ios":"levelo://app?vid=80447043-cc20-4f01-89de-a6705f0695c4"},"vehicle_type_id":"4","last_reported":1739513550,"current_range_meters":8400,"station_id":"ce4bhbp2rcd13ifvqerg","pricing_plan_id":"cebpf4jnsgd1na2vs0mg"},{"bike_id":"527fb167-ceff-455e-ae21-9ef95f9ad97b","system_id":"levelo_inurba_marseille","lat":43.28576,"lon":5.39504,"is_reserved":false,"is_disabled":false,"rental_uris":{"android":"levelo://app?vid=527fb167-ceff-455e-ae21-9ef95f9ad97b","ios":"levelo://app?vid=527fb167-ceff-455e-ae21-9ef95f9ad97b"},"vehicle_type_id":"4","last_reported":1739513550,"current_range_meters":39200,"station_id":"ce4bh292rcd13ifvqdg0","pricing_plan_id":"cebpf4jnsgd1na2vs0mg"},{"bike_id":"bbb6f758-ef12-4737-861c-2da510dfe0ae","system_id":"levelo_inurba_marseille","lat":43.30074,"lon":5.37582,"is_reserved":false,"is_disabled":false,"rental_uris":{"android":"levelo://app?vid=bbb6f758-ef12-4737-861c-2da510dfe0ae","ios":"levelo://app?vid=bbb6f758-ef12-4737-861c-2da510dfe0ae"},"vehicle_type_id":"4","last_reported":1739513550,"current_range_meters":20800,"station_id":"","pricing_plan_id":"cebpf4jnsgd1na2vs0mg"},{"bike_id":"a65676e8-2acf-487a-925f-ee945e0e71e1","system_id":"levelo_inurba_marseille","lat":43.30949,"lon":5.39029,"is_reserved":false,"is_disabled":false,"rental_uris":{"android":"levelo://app?vid=a65676e8-2acf-487a-925f-ee945e0e71e1","ios":"levelo://app?vid=a65676e8-2acf-487a-925f-ee945e0e71e1"},"vehicle_type_id":"4","last_reported":1739513550,"current_range_meters":38000,"station_id":"ce4bgup2rcd13ifvqco0","pricing_plan_id":"cebpf4jnsgd1na2vs0mg"},{"bike_id":"c04ac249-dc10-4dab-92dc-2ad767cf01f6","system_id":"levelo_inurba_marseille","lat":43.30482,"lon":5.37903,"is_reserved":false,"is_disabled":false,"rental_uris":{"android":"levelo://app?vid=c04ac249-dc10-4dab-92dc-2ad767cf01f6","ios":"levelo://app?vid=c04ac249-dc10-4dab-92dc-2ad767cf01f6"},"vehicle_type_id":"4","last_reported":1739513550,"current_range_meters":36000,"station_id":"ce4bgup2rcd13ifvqcn0","pricing_plan_id":"cebpf4jnsgd1na2vs0mg"},{"bike_id":"973ad2a7-44d0-4dfc-aabe-779b9eeced18","system_id":"levelo_inurba_marseille","lat":43.30784,"lon":5.37655,"is_reserved":false,"is_disabled":false,"rental_uris":{"android":"levelo://app?vid=973ad2a7-44d0-4dfc-aabe-779b9eeced18","ios":"levelo://app?vid=973ad2a7-44d0-4dfc-aabe-779b9eeced18"},"vehicle_type_id":"4","last_reported":1739513550,"current_range_meters":38800,"station_id":"ce4bgv92rcd13ifvqcq0","pricing_plan_id":"cebpf4jnsgd1na2vs0mg"},{"bike_id":"167a2690-5c77-4992-9449-a82dc4323504","system_id":"levelo_inurba_marseille","lat":43.30879,"lon":5.39631,"is_reserved":false,"is_disabled":false,"rental_uris":{"android":"levelo://app?vid=167a2690-5c77-4992-9449-a82dc4323504","ios":"levelo://app?vid=167a2690-5c77-4992-9449-a82dc4323504"},"vehicle_type_id":"4","last_reported":1739513550,"current_range_meters":30400,"station_id":"ce4bh012rcd13ifvqcv0","pricing_plan_id":"cebpf4jnsgd1na2vs0mg"},{"bike_id":"d38cdbe8-a8af-4066-8a7b-efc3320f9786","system_id":"levelo_inurba_marseille","lat":43.306038,"lon":5.372295,"is_reserved":false,"is_disabled":false,"rental_uris":{"android":"levelo://app?vid=d38cdbe8-a8af-4066-8a7b-efc3320f9786","ios":"levelo://app?vid=d38cdbe8-a8af-4066-8a7b-efc3320f9786"},"vehicle_type_id":"4","last_reported":1739513550,"current_range_meters":28000,"station_id":"ce4bgqh2rcd13ifvqc4g","pricing_plan_id":"cebpf4jnsgd1na2vs0mg"},{"bike_id":"a93f7d49-edc5-45ec-baf3-74ca26311e2c","system_id":"levelo_inurba_marseille","lat":43.26027,"lon":5.37555,"is_reserved":false,"is_disabled":false,"rental_uris":{"android":"levelo://app?vid=a93f7d49-edc5-45ec-baf3-74ca26311e2c","ios":"levelo://app?vid=a93f7d49-edc5-45ec-baf3-74ca26311e2c"},"vehicle_type_id":"4","last_reported":1739513550,"current_range_meters":38000,"station_id":"ce4bhgh2rcd13ifvqfa0","pricing_plan_id":"cebpf4jnsgd1na2vs0mg"},{"bike_id":"7c63fcdc-90c7-409a-ac4b-b5b3c364141a","system_id":"levelo_inurba_marseille","lat":43.30547,"lon":5.38429,"is_reserved":false,"is_disabled":true,"rental_uris":{"android":"levelo://app?vid=7c63fcdc-90c7-409a-ac4b-b5b3c364141a","ios":"levelo://app?vid=7c63fcdc-90c7-409a-ac4b-b5b3c364141a"},"vehicle_type_id":"4","last_reported":1739513550,"current_range_meters":36000,"station_id":"ce4bgg92rcd13ifvqb30","pricing_plan_id":"cebpf4jnsgd1na2vs0mg"},{"bike_id":"3bfb027b-d84e-43d4-b525-dfd6851f7b90","system_id":"levelo_inurba_marseille","lat":43.31275,"lon":5.40162,"is_reserved":false,"is_disabled":false,"rental_uris":{"android":"levelo://app?vid=3bfb027b-d84e-43d4-b525-dfd6851f7b90","ios":"levelo://app?vid=3bfb027b-d84e-43d4-b525-dfd6851f7b90"},"vehicle_type_id":"4","last_reported":1739513550,"current_range_meters":21600,"station_id":"ce4bh092rcd13ifvqd30","pricing_plan_id":"cebpf4jnsgd1na2vs0mg"},{"bike_id":"89bd0d18-1411-4b9e-ac03-27169631b5ac","system_id":"levelo_inurba_marseille","lat":43.28952,"lon":5.39612,"is_reserved":false,"is_disabled":false,"rental_uris":{"android":"levelo://app?vid=89bd0d18-1411-4b9e-ac03-27169631b5ac","ios":"levelo://app?vid=89bd0d18-1411-4b9e-ac03-27169631b5ac"},"vehicle_type_id":"4","last_reported":1739513550,"current_range_meters":38000,"station_id":"ce4bh3h2rcd13ifvqdn0","pricing_plan_id":"cebpf4jnsgd1na2vs0mg"},{"bike_id":"ee566f3d-0e78-4ced-ac1b-e3b33c18e89e","system_id":"levelo_inurba_marseille","lat":43.24389,"lon":5.37055,"is_reserved":false,"is_disabled":false,"rental_uris":{"android":"levelo://app?vid=ee566f3d-0e78-4ced-ac1b-e3b33c18e89e","ios":"levelo://app?vid=ee566f3d-0e78-4ced-ac1b-e3b33c18e89e"},"vehicle_type_id":"4","last_reported":1739513550,"current_range_meters":18800,"station_id":"ce4bhhh2rcd13ifvqfk0","pricing_plan_id":"cebpf4jnsgd1na2vs0mg"},{"bike_id":"da7f2fae-5747-45f2-981c-2899a6e7dc68","system_id":"levelo_inurba_marseille","lat":43.25565,"lon":5.38245,"is_reserved":false,"is_disabled":false,"rental_uris":{"android":"levelo://app?vid=da7f2fae-5747-45f2-981c-2899a6e7dc68","ios":"levelo://app?vid=da7f2fae-5747-45f2-981c-2899a6e7dc68"},"vehicle_type_id":"4","last_reported":1739513550,"current_range_meters":26800,"station_id":"ce4bhih2rcd13ifvqfs0","pricing_plan_id":"cebpf4jnsgd1na2vs0mg"},{"bike_id":"0522f794-1232-4c9b-bc22-b0243233d03c","system_id":"levelo_inurba_marseille","lat":43.27931,"lon":5.41051,"is_reserved":false,"is_disabled":false,"rental_uris":{"android":"levelo://app?vid=0522f794-1232-4c9b-bc22-b0243233d03c","ios":"levelo://app?vid=0522f794-1232-4c9b-bc22-b0243233d03c"},"vehicle_type_id":"4","last_reported":1739513550,"current_range_meters":38800,"station_id":"ce4bhnp2rcd13ifvqh0g","pricing_plan_id":"cebpf4jnsgd1na2vs0mg"},{"bike_id":"c21dda3e-d1f3-4914-a585-72ad4740861f","system_id":"levelo_inurba_marseille","lat":43.27061,"lon":5.42288,"is_reserved":false,"is_disabled":false,"rental_uris":{"android":"levelo://app?vid=c21dda3e-d1f3-4914-a585-72ad4740861f","ios":"levelo://app?vid=c21dda3e-d1f3-4914-a585-72ad4740861f"},"vehicle_type_id":"4","last_reported":1739513550,"current_range_meters":23200,"station_id":"ce4bhk92rcd13ifvqgb0","pricing_plan_id":"cebpf4jnsgd1na2vs0mg"},{"bike_id":"7a8a0287-264a-4a19-acda-b1382233fe54","system_id":"levelo_inurba_marseille","lat":43.31328,"lon":5.39719,"is_reserved":false,"is_disabled":false,"rental_uris":{"android":"levelo://app?vid=7a8a0287-264a-4a19-acda-b1382233fe54","ios":"levelo://app?vid=7a8a0287-264a-4a19-acda-b1382233fe54"},"vehicle_type_id":"4","last_reported":1739513550,"current_range_meters":17200,"station_id":"ce4bgvp2rcd13ifvqcu0","pricing_plan_id":"cebpf4jnsgd1na2vs0mg"},{"bike_id":"54ce597b-1ca1-4d62-923d-d4b29eec04b3","system_id":"levelo_inurba_marseille","lat":43.31131,"lon":5.38261,"is_reserved":false,"is_disabled":false,"rental_uris":{"android":"levelo://app?vid=54ce597b-1ca1-4d62-923d-d4b29eec04b3","ios":"levelo://app?vid=54ce597b-1ca1-4d62-923d-d4b29eec04b3"},"vehicle_type_id":"4","last_reported":1739513550,"current_range_meters":6800,"station_id":"","pricing_plan_id":"cebpf4jnsgd1na2vs0mg"},{"bike_id":"5900da6e-6ade-4e81-b9ef-ce2685f5a5b4","system_id":"levelo_inurba_marseille","lat":43.28844,"lon":5.39327,"is_reserved":false,"is_disabled":true,"rental_uris":{"android":"levelo://app?vid=5900da6e-6ade-4e81-b9ef-ce2685f5a5b4","ios":"levelo://app?vid=5900da6e-6ade-4e81-b9ef-ce2685f5a5b4"},"vehicle_type_id":"4","last_reported":1739513550,"current_range_meters":4800,"station_id":"ce4bh2p2rcd13ifvqdi0","pricing_plan_id":"cebpf4jnsgd1na2vs0mg"},{"bike_id":"da697d0f-8650-4692-bf79-3e113a530451","system_id":"levelo_inurba_marseille","lat":43.2997,"lon":5.38493,"is_reserved":false,"is_disabled":false,"rental_uris":{"android":"levelo://app?vid=da697d0f-8650-4692-bf79-3e113a530451","ios":"levelo://app?vid=da697d0f-8650-4692-bf79-3e113a530451"},"vehicle_type_id":"4","last_reported":1739513550,"current_range_meters":38000,"station_id":"ce4bgj92rcd13ifvqbd0","pricing_plan_id":"cebpf4jnsgd1na2vs0mg"},{"bike_id":"1ee49351-a32d-42a5-8df5-b60e302d37e7","system_id":"levelo_inurba_marseille","lat":43.288432,"lon":5.358467,"is_reserved":false,"is_disabled":false,"rental_uris":{"android":"levelo://app?vid=1ee49351-a32d-42a5-8df5-b60e302d37e7","ios":"levelo://app?vid=1ee49351-a32d-42a5-8df5-b60e302d37e7"},"vehicle_type_id":"4","last_reported":1739513550,"current_range_meters":31200,"station_id":"ce4bhb12rcd13ifvqem0","pricing_plan_id":"cebpf4jnsgd1na2vs0mg"},{"bike_id":"54f643f8-f9eb-4652-9c28-270841fdb53c","system_id":"levelo_inurba_marseille","lat":43.30808,"lon":5.38137,"is_reserved":false,"is_disabled":false,"rental_uris":{"android":"levelo://app?vid=54f643f8-f9eb-4652-9c28-270841fdb53c","ios":"levelo://app?vid=54f643f8-f9eb-4652-9c28-270841fdb53c"},"vehicle_type_id":"4","last_reported":1739513550,"current_range_meters":9200,"station_id":"ce4bgt12rcd13ifvqce0","pricing_plan_id":"cebpf4jnsgd1na2vs0mg"},{"bike_id":"095a2131-4184-4d96-8fd3-396e04300271","system_id":"levelo_inurba_marseille","lat":43.32038,"lon":5.41556,"is_reserved":false,"is_disabled":false,"rental_uris":{"android":"levelo://app?vid=095a2131-4184-4d96-8fd3-396e04300271","ios":"levelo://app?vid=095a2131-4184-4d96-8fd3-396e04300271"},"vehicle_type_id":"4","last_reported":1739513550,"current_range_meters":25200,"station_id":"ce4bhq92rcd13ifvqhkg","pricing_plan_id":"cebpf4jnsgd1na2vs0mg"},{"bike_id":"5bfc5a94-7c61-45d2-baab-de8799f73dc3","system_id":"levelo_inurba_marseille","lat":43.29642,"lon":5.37168,"is_reserved":false,"is_disabled":false,"rental_uris":{"android":"levelo://app?vid=5bfc5a94-7c61-45d2-baab-de8799f73dc3","ios":"levelo://app?vid=5bfc5a94-7c61-45d2-baab-de8799f73dc3"},"vehicle_type_id":"4","last_reported":1739513550,"current_range_meters":38800,"station_id":"ce4bgnh2rcd13ifvqc0g","pricing_plan_id":"cebpf4jnsgd1na2vs0mg"},{"bike_id":"5659bf41-4cae-4136-bee8-78fe202573fb","system_id":"levelo_inurba_marseille","lat":43.30466,"lon":5.37897,"is_reserved":false,"is_disabled":false,"rental_uris":{"android":"levelo://app?vid=5659bf41-4cae-4136-bee8-78fe202573fb","ios":"levelo://app?vid=5659bf41-4cae-4136-bee8-78fe202573fb"},