{"last_updated":1743430225,"ttl":60,"version":"2.2","data":{"bikes":[{"bike_id":"3965e20a-e1ab-4e11-9007-9f894e781538","system_id":"levelo_inurba_marseille","lat":43.31272,"lon":5.37012,"is_reserved":false,"is_disabled":true,"rental_uris":{"android":"levelo://app?vid=3965e20a-e1ab-4e11-9007-9f894e781538","ios":"levelo://app?vid=3965e20a-e1ab-4e11-9007-9f894e781538"},"vehicle_type_id":"4","last_reported":1743430225,"current_range_meters":0,"station_id":"","pricing_plan_id":"cebpf4jnsgd1na2vs0mg"},{"bike_id":"bc11bcf6-45a7-4586-aa66-06e7efc98c57","system_id":"levelo_inurba_marseille","lat":43.31403,"lon":5.36663,"is_reserved":false,"is_disabled":true,"rental_uris":{"android":"levelo://app?vid=bc11bcf6-45a7-4586-aa66-06e7efc98c57","ios":"levelo://app?vid=bc11bcf6-45a7-4586-aa66-06e7efc98c57"},"vehicle_type_id":"4","last_reported":1743430225,"current_range_meters":0,"station_id":"","pricing_plan_id":"cebpf4jnsgd1na2vs0mg"},{"bike_id":"f28a2132-9d11-411c-a599-c4352a550e43","system_id":"levelo_inurba_marseille","lat":43.248936,"lon":5.394059,"is_reserved":false,"is_disabled":true,"rental_uris":{"android":"levelo://app?vid=f28a2132-9d11-411c-a599-c4352a550e43","ios":"levelo://app?vid=f28a2132-9d11-411c-a599-c4352a550e43"},"vehicle_type_id":"4","last_reported":1743430225,"current_range_meters":0,"station_id":"","pricing_plan_id":"cebpf4jnsgd1na2vs0mg"},{"bike_id":"524c0a99-e50a-4944-b98a-364c85fd198c","system_id":"levelo_inurba_marseille","lat":43.28647,"lon":5.44356,"is_reserved":false,"is_disabled":true,"rental_uris":{"android":"levelo://app?vid=524c0a99-e50a-4944-b98a-364c85fd198c","ios":"levelo://app?vid=524c0a99-e50a-4944-b98a-364c85fd198c"},"vehicle_type_id":"4","last_reported":1743430225,"current_range_meters":0,"station_id":"","pricing_plan_id":"cebpf4jnsgd1na2vs0mg"},{"bike_id":"ef3ab7e4-47aa-4e48-a63f-a437355606eb","system_id":"levelo_inurba_marseille","lat":43.28091,"lon":5.42147,"is_reserved":false,"is_disabled":true,"rental_uris":{"android":"levelo://app?vid=ef3ab7e4-47aa-4e48-a63f-a437355606eb","ios":"levelo://app?vid=ef3ab7e4-47aa-4e48-a63f-a437355606eb"},"vehicle_type_id":"4","last_reported":1743430225,"current_range_meters":0,"station_id":"","pricing_plan_id":"cebpf4jnsgd1na2vs0mg"},{"bike_id":"646b4b6f-1ba9-4554-b1a7-e4dc009abba1","system_id":"levelo_inurba_marseille","lat":43.29102,"lon":5.42785,"is_reserved":false,"is_disabled":true,"rental_uris":{"android":"levelo://app?vid=646b4b6f-1ba9-4554-b1a7-e4dc009abba1","ios":"levelo://app?vid=646b4b6f-1ba9-4554-b1a7-e4dc009abba1"},"vehicle_type_id":"4","last_reported":1743430225,"current_range_meters":0,"station_id":"","pricing_plan_id":"cebpf4jnsgd1na2vs0mg"},{"bike_id":"be6725c0-5c09-4663-99b8-0b7371d27e21","system_id":"levelo_inurba_marseille","lat":43.25493,"lon":5.375,"is_reserved":false,"is_disabled":true,"rental_uris":{"android":"levelo://app?vid=be6725c0-5c09-4663-99b8-0b7371d27e21","ios":"levelo://app?vid=be6725c0-5c09-4663-99b8-0b7371d27e21"},"vehicle_type_id":"4","last_reported":1743430225,"current_range_meters":0,"station_id":"","pricing_plan_id":"cebpf4jnsgd1na2vs0mg"},{"bike_id":"579b8b66-6a37-4f4c-ad3b-0acee14f6d2d","system_id":"levelo_inurba_marseille","lat":43.29513,"lon":5.44313,"is_reserved":false,"is_disabled":true,"rental_uris":{"android":"levelo://app?vid=579b8b66-6a37-4f4c-ad3b-0acee14f6d2d","ios":"levelo://app?vid=579b8b66-6a37-4f4c-ad3b-0acee14f6d2d"},"vehicle_type_id":"4","last_reported":1743430225,"current_range_meters":0,"station_id":"","pricing_plan_id":"cebpf4jnsgd1na2vs0mg"},{"bike_id":"e4023b76-3b3e-4e0a-83d8-f1f2c86a9a1a","system_id":"levelo_inurba_marseille","lat":43.26059,"lon":5.38643,"is_reserved":false,"is_disabled":true,"rental_uris":{"android":"levelo://app?vid=e4023b76-3b3e-4e0a-83d8-f1f2c86a9a1a","ios":"levelo://app?vid=e4023b76-3b3e-4e0a-83d8-f1f2c86a9a1a"},"vehicle_type_id":"4","last_reported":1743430225,"current_range_meters":0,"station_id":"","pricing_plan_id":"cebpf4jnsgd1na2vs0mg"},{"bike_id":"addfee32-b434-4d1a-a720-7460ebc95d3d","system_id":"levelo_inurba_marseille","lat":43.265915,"lon":5.393424,"is_reserved":false,"is_disabled":true,"rental_uris":{"android":"levelo://app?vid=addfee32-b434-4d1a-a720-7460ebc95d3d","ios":"levelo://app?vid=addfee32-b434-4d1a-a720-7460ebc95d3d"},"vehicle_type_id":"4","last_reported":1743430225,"current_range_meters":0,"station_id":"","pricing_plan_id":"cebpf4jnsgd1na2vs0mg"},{"bike_id":"04d84667-80d2-430a-a2ab-b0adb0b8c9ad","system_id":"levelo_inurba_marseille","lat":43.337444,"lon":5.374475,"is_reserved":false,"is_disabled":true,"rental_uris":{"android":"levelo://app?vid=04d84667-80d2-430a-a2ab-b0adb0b8c9ad","ios":"levelo://app?vid=04d84667-80d2-430a-a2ab-b0adb0b8c9ad"},"vehicle_type_id":"4","last_reported":1743430225,"current_range_meters":0,"station_id":"","pricing_plan_id":"cebpf4jnsgd1na2vs0mg"},{"bike_id":"deb3f671-3ace-4bcf-92e5-bfca91b65c0c","system_id":"levelo_inurba_marseille","lat":43.26907,"lon":5.3932,"is_reserved":false,"is_disabled":true,"rental_uris":{"android":"levelo://app?vid=deb3f671-3ace-4bcf-92e5-bfca91b65c0c","ios":"levelo://app?vid=deb3f671-3ace-4bcf-92e5-bfca91b65c0c"},"vehicle_type_id":"4","last_reported":1743430225,"current_range_meters":0,"station_id":"","pricing_plan_id":"cebpf4jnsgd1na2vs0mg"},{"bike_id":"54ddccb5-3e82-4e09-ad9d-1f88cce9f960","system_id":"levelo_inurba_marseille","lat":43.32986,"lon":5.4387,"is_reserved":false,"is_disabled":true,"rental_uris":{"android":"levelo://app?vid=54ddccb5-3e82-4e09-ad9d-1f88cce9f960","ios":"levelo://app?vid=54ddccb5-3e82-4e09-ad9d-1f88cce9f960"},"vehicle_type_id":"4","last_reported":1743430225,"current_range_meters":0,"station_id":"","pricing_plan_id":"cebpf4jnsgd1na2vs0mg"},{"bike_id":"288bb5a4-8592-4715-9f1c-af47147cb3c6","system_id":"levelo_inurba_marseille","lat":43.26151,"lon":5.41629,"is_reserved":false,"is_disabled":true,"rental_uris":{"android":"levelo://app?vid=288bb5a4-8592-4715-9f1c-af47147cb3c6","ios":"levelo://app?vid=288bb5a4-8592-4715-9f1c-af47147cb3c6"},"vehicle_type_id":"4","last_reported":1743430225,"current_range_meters":0,"station_id":"","pricing_plan_id":"cebpf4jnsgd1na2vs0mg"},{"bike_id":"8446a077-604a-42b8-ade1-8b05c7f9c9ee","system_id":"levelo_inurba_marseille","lat":43.31233,"lon":5.36873,"is_reserved":false,"is_disabled":true,"rental_uris":{"android":"levelo://app?vid=8446a077-604a-42b8-ade1-8b05c7f9c9ee","ios":"levelo://app?vid=8446a077-604a-42b8-ade1-8b05c7f9c9ee"},"vehicle_type_id":"4","last_reported":1743430225,"current_range_meters":0,"station_id":"ce4bgl92rcd13ifvqbq0","pricing_plan_id":"cebpf4jnsgd1na2vs0mg"},{"bike_id":"8ecd67d2-213b-46b6-ab5d-14a5a1cd4a48","system_id":"levelo_inurba_marseille","lat":43.29893,"lon":5.38899,"is_reserved":false,"is_disabled":true,"rental_uris":{"android":"levelo://app?vid=8ecd67d2-213b-46b6-ab5d-14a5a1cd4a48","ios":"levelo://app?vid=8ecd67d2-213b-46b6-ab5d-14a5a1cd4a48"},"vehicle_type_id":"4","last_reported":1743430225,"current_range_meters":0,"station_id":"ce4bh392rcd13ifvqdl0","pricing_plan_id":"cebpf4jnsgd1na2vs0mg"},{"bike_id":"e865f54a-72d6-4949-8850-1addcc2c1dae","system_id":"levelo_inurba_marseille","lat":43.282531,"lon":5.385958,"is_reserved":false,"is_disabled":true,"rental_uris":{"android":"levelo://app?vid=e865f54a-72d6-4949-8850-1addcc2c1dae","ios":"levelo://app?vid=e865f54a-72d6-4949-8850-1addcc2c1dae"},"vehicle_type_id":"4","last_reported":1743430225,"current_range_meters":0,"station_id":"ce4bh392rcd13ifvqdm0","pricing_plan_id":"cebpf4jnsgd1na2vs0mg"},{"bike_id":"21774bf6-0b82-498f-8ba1-e41c0d07cd89","system_id":"levelo_inurba_marseille","lat":43.28478,"lon":5.38426,"is_reserved":false,"is_disabled":true,"rental_uris":{"android":"levelo://app?vid=21774bf6-0b82-498f-8ba1-e41c0d07cd89","ios":"levelo://app?vid=21774bf6-0b82-498f-8ba1-e41c0d07cd89"},"vehicle_type_id":"4","last_reported":1743430225,"current_range_meters":0,"station_id":"ce4bh512rcd13ifvqe3g","pricing_plan_id":"cebpf4jnsgd1na2vs0mg"},{"bike_id":"e36e9b5d-681c-4bfd-ad66-b706dbab3a4b","system_id":"levelo_inurba_marseille","lat":43.29042,"lon":5.375668,"is_reserved":false,"is_disabled":true,"rental_uris":{"android":"levelo://app?vid=e36e9b5d-681c-4bfd-ad66-b706dbab3a4b","ios":"levelo://app?vid=e36e9b5d-681c-4bfd-ad66-b706dbab3a4b"},"vehicle_type_id":"4","last_reported":1743430225,"current_range_meters":0,"station_id":"ce4bh692rcd13ifvqe90","pricing_plan_id":"cebpf4jnsgd1na2vs0mg"},{"bike_id":"8ca308a4-29fe-4654-a248-f7bf62ce9488","system_id":"levelo_inurba_marseille","lat":43.28465,"lon":5.35904,"is_reserved":false,"is_disabled":true,"rental_uris":{"android":"levelo://app?vid=8ca308a4-29fe-4654-a248-f7bf62ce9488","ios":"levelo://app?vid=8ca308a4-29fe-4654-a248-f7bf62ce9488"},"vehicle_type_id":"4","last_reported":1743430225,"current_range_meters":0,"station_id":"ce4bhah2rcd13ifvqei0","pricing_plan_id":"cebpf4jnsgd1na2vs0mg"},{"bike_id":"e0b4ba7d-fe32-4389-8e83-84390f2e348d","system_id":"levelo_inurba_marseille","lat":43.28941,"lon":5.36628,"is_reserved":false,"is_disabled":true,"rental_uris":{"android":"levelo://app?vid=e0b4ba7d-fe32-4389-8e83-84390f2e348d","ios":"levelo://app?vid=e0b4ba7d-fe32-4389-8e83-84390f2e348d"},"vehicle_type_id":"4","last_reported":1743430225,"current_range_meters":0,"station_id":"ce4bhap2rcd13ifvqek0","pricing_plan_id":"cebpf4jnsgd1na2vs0mg"},{"bike_id":"4d06d845-7460-44f1-bf62-786cb88b44cf","system_id":"levelo_inurba_marseille","lat":43.2888,"lon":5.35835,"is_reserved":false,"is_disabled":true,"rental_uris":{"android":"levelo://app?vid=4d06d845-7460-44f1-bf62-786cb88b44cf","ios":"levelo://app?vid=4d06d845-7460-44f1-bf62-786cb88b44cf"},"vehicle_type_id":"4","last_reported":1743430225,"current_range_meters":0,"station_id":"ce4bhb12rcd13ifvqem0","pricing_plan_id":"cebpf4jnsgd1na2vs0mg"},{"bike_id":"3315b904-439f-4a62-85f9-6cf1480ca796","system_id":"levelo_inurba_marseille","lat":43.29007,"lon":5.35621,"is_reserved":false,"is_disabled":true,"rental_uris":{"android":"levelo://app?vid=3315b904-439f-4a62-85f9-6cf1480ca796","ios":"levelo://app?vid=3315b904-439f-4a62-85f9-6cf1480ca796"},"vehicle_type_id":"4","last_reported":1743430225,"current_range_meters":0,"station_id":"ce4bhb92rcd13ifvqen0","pricing_plan_id":"cebpf4jnsgd1na2vs0mg"},{"bike_id":"ceb5ae43-25f8-4bad-b894-5f7b3ab98b0e","system_id":"levelo_inurba_marseille","lat":43.28271,"lon":5.35064,"is_reserved":false,"is_disabled":true,"rental_uris":{"android":"levelo://app?vid=ceb5ae43-25f8-4bad-b894-5f7b3ab98b0e","ios":"levelo://app?vid=ceb5ae43-25f8-4bad-b894-5f7b3ab98b0e"},"vehicle_type_id":"4","last_reported":1743430225,"current_range_meters":0,"station_id":"ce4bhbp2rcd13ifvqerg","pricing_plan_id":"cebpf4jnsgd1na2vs0mg"},{"bike_id":"3fb99bd2-9093-4cec-a717-e7c5d59b4d52","system_id":"levelo_inurba_marseille","lat":43.28272,"lon":5.35077,"is_reserved":false,"is_disabled":true,"rental_uris":{"android":"levelo://app?vid=3fb99bd2-9093-4cec-a717-e7c5d59b4d52","ios":"levelo://app?vid=3fb99bd2-9093-4cec-a717-e7c5d59b4d52"},"vehicle_type_id":"4","last_reported":1743430225,"current_range_meters":0,"station_id":"ce4bhbp2rcd13ifvqerg","pricing_plan_id":"cebpf4jnsgd1na2vs0mg"},{"bike_id":"a6b07114-62ee-4aa0-ac6c-4ead23eb9b31","system_id":"levelo_inurba_marseille","lat":43.26563,"lon":5.39024,"is_reserved":false,"is_disabled":true,"rental_uris":{"android":"levelo://app?vid=a6b07114-62ee-4aa0-ac6c-4ead23eb9b31","ios":"levelo://app?vid=a6b07114-62ee-4aa0-ac6c-4ead23eb9b31"},"vehicle_type_id":"4","last_reported":1743430225,"current_range_meters":0,"station_id":"ce4bhe12rcd13ifvqf30","pricing_plan_id":"cebpf4jnsgd1na2vs0mg"},{"bike_id":"18f9265f-1cec-4488-a1d3-a5de1de6b233","system_id":"levelo_inurba_marseille","lat":43.25866,"lon":5.39892,"is_reserved":false,"is_disabled":true,"rental_uris":{"android":"levelo://app?vid=18f9265f-1cec-4488-a1d3-a5de1de6b233","ios":"levelo://app?vid=18f9265f-1cec-4488-a1d3-a5de1de6b233"},"vehicle_type_id":"4","last_reported":1743430225,"current_range_meters":0,"station_id":"ce4bhl92rcd13ifvqghg","pricing_plan_id":"cebpf4jnsgd1na2vs0mg"},{"bike_id":"47e4e504-d963-437b-bf6a-89cdefa3a15b","system_id":"levelo_inurba_marseille","lat":43.30461,"lon":5.37907,"is_reserved":false,"is_disabled":true,"rental_uris":{"android":"levelo://app?vid=47e4e504-d963-437b-bf6a-89cdefa3a15b","ios":"levelo://app?vid=47e4e504-d963-437b-bf6a-89cdefa3a15b"},"vehicle_type_id":"4","last_reported":1743430225,"current_range_meters":400,"station_id":"ce4bgup2rcd13ifvqcn0","pricing_plan_id":"cebpf4jnsgd1na2vs0mg"},{"bike_id":"7a16227c-8b85-46e8-a87c-8349c4711248","system_id":"levelo_inurba_marseille","lat":43.28129,"lon":5.44603,"is_reserved":false,"is_disabled":true,"rental_uris":{"android":"levelo://app?vid=7a16227c-8b85-46e8-a87c-8349c4711248","ios":"levelo://app?vid=7a16227c-8b85-46e8-a87c-8349c4711248"},"vehicle_type_id":"4","last_reported":1743430225,"current_range_meters":800,"station_id":"","pricing_plan_id":"cebpf4jnsgd1na2vs0mg"},{"bike_id":"5321cd79-5532-48cf-975e-9eb2a2ac785e","system_id":"levelo_inurba_marseille","lat":43.29003,"lon":5.35618,"is_reserved":false,"is_disabled":true,"rental_uris":{"android":"levelo://app?vid=5321cd79-5532-48cf-975e-9eb2a2ac785e","ios":"levelo://app?vid=5321cd79-5532-48cf-975e-9eb2a2ac785e"},"vehicle_type_id":"4","last_reported":1743430225,"current_range_meters":800,"station_id":"ce4bhb92rcd13ifvqen0","pricing_plan_id":"cebpf4jnsgd1na2vs0mg"},{"bike_id":"ea79c38b-c7a7-4110-8f62-17ef9ea984ec","system_id":"levelo_inurba_marseille","lat":43.29543,"lon":5.38519,"is_reserved":false,"is_disabled":true,"rental_uris":{"android":"levelo://app?vid=ea79c38b-c7a7-4110-8f62-17ef9ea984ec","ios":"levelo://app?vid=ea79c38b-c7a7-4110-8f62-17ef9ea984ec"},"vehicle_type_id":"4","last_reported":1743430225,"current_range_meters":1200,"station_id":"ce4bgih2rcd13ifvqba0","pricing_plan_id":"cebpf4jnsgd1na2vs0mg"},{"bike_id":"e2cfe811-c3ed-4796-9943-6a0d6d14506c","system_id":"levelo_inurba_marseille","lat":43.27384,"lon":5.3627,"is_reserved":false,"is_disabled":true,"rental_uris":{"android":"levelo://app?vid=e2cfe811-c3ed-4796-9943-6a0d6d14506c","ios":"levelo://app?vid=e2cfe811-c3ed-4796-9943-6a0d6d14506c"},"vehicle_type_id":"4","last_reported":1743430225,"current_range_meters":1200,"station_id":"ce4bhbh2rcd13ifvqeo0","pricing_plan_id":"cebpf4jnsgd1na2vs0mg"},{"bike_id":"d1493dd8-00a2-49a4-a51d-1404df817651","system_id":"levelo_inurba_marseille","lat":43.26957,"lon":5.38646,"is_reserved":false,"is_disabled":true,"rental_uris":{"android":"levelo://app?vid=d1493dd8-00a2-49a4-a51d-1404df817651","ios":"levelo://app?vid=d1493dd8-00a2-49a4-a51d-1404df817651"},"vehicle_type_id":"4","last_reported":1743430225,"current_range_meters":1200,"station_id":"ce4bhh92rcd13ifvqfh0","pricing_plan_id":"cebpf4jnsgd1na2vs0mg"},{"bike_id":"1d9319ec-83a8-4424-ade9-522969802e4f","system_id":"levelo_inurba_marseille","lat":43.29902,"lon":5.43675,"is_reserved":false,"is_disabled":true,"rental_uris":{"android":"levelo://app?vid=1d9319ec-83a8-4424-ade9-522969802e4f","ios":"levelo://app?vid=1d9319ec-83a8-4424-ade9-522969802e4f"},"vehicle_type_id":"4","last_reported":1743430225,"current_range_meters":1200,"station_id":"ce4bhpp2rcd13ifvqhfg","pricing_plan_id":"cebpf4jnsgd1na2vs0mg"},{"bike_id":"7c07071e-68ba-48b9-b431-26cb6c62ac42","system_id":"levelo_inurba_marseille","lat":43.30984,"lon":5.4047,"is_reserved":false,"is_disabled":true,"rental_uris":{"android":"levelo://app?vid=7c07071e-68ba-48b9-b431-26cb6c62ac42","ios":"levelo://app?vid=7c07071e-68ba-48b9-b431-26cb6c62ac42"},"vehicle_type_id":"4","last_reported":1743430225,"current_range_meters":1600,"station_id":"","pricing_plan_id":"cebpf4jnsgd1na2vs0mg"},{"bike_id":"aa11a524-3bc9-4b0f-850e-58bba5d4dd13","system_id":"levelo_inurba_marseille","lat":43.26683,"lon":5.38275,"is_reserved":false,"is_disabled":true,"rental_uris":{"android":"levelo://app?vid=aa11a524-3bc9-4b0f-850e-58bba5d4dd13","ios":"levelo://app?vid=aa11a524-3bc9-4b0f-850e-58bba5d4dd13"},"vehicle_type_id":"4","last_reported":1743430225,"current_range_meters":1600,"station_id":"ce4bhg92rcd13ifvqf90","pricing_plan_id":"cebpf4jnsgd1na2vs0mg"},{"bike_id":"f3e527db-058e-4248-9b80-d41796e3900c","system_id":"levelo_inurba_marseille","lat":43.26206,"lon":5.37937,"is_reserved":false,"is_disabled":true,"rental_uris":{"android":"levelo://app?vid=f3e527db-058e-4248-9b80-d41796e3900c","ios":"levelo://app?vid=f3e527db-058e-4248-9b80-d41796e3900c"},"vehicle_type_id":"4","last_reported":1743430225,"current_range_meters":1600,"station_id":"ce4bhjp2rcd13ifvqg90","pricing_plan_id":"cebpf4jnsgd1na2vs0mg"},{"bike_id":"51c361f3-8b51-4b6e-8e3d-37b5c727486e","system_id":"levelo_inurba_marseille","lat":43.29294,"lon":5.37471,"is_reserved":false,"is_disabled":true,"rental_uris":{"android":"levelo://app?vid=51c361f3-8b51-4b6e-8e3d-37b5c727486e","ios":"levelo://app?vid=51c361f3-8b51-4b6e-8e3d-37b5c727486e"},"vehicle_type_id":"4","last_reported":1743430225,"current_range_meters":2000,"station_id":"ce4bgi12rcd13ifvqb70","pricing_plan_id":"cebpf4jnsgd1na2vs0mg"},{"bike_id":"82f52bfc-aac1-40c0-9342-fb36195899e3","system_id":"levelo_inurba_marseille","lat":43.30561,"lon":5.3657,"is_reserved":false,"is_disabled":true,"rental_uris":{"android":"levelo://app?vid=82f52bfc-aac1-40c0-9342-fb36195899e3","ios":"levelo://app?vid=82f52bfc-aac1-40c0-9342-fb36195899e3"},"vehicle_type_id":"4","last_reported":1743430225,"current_range_meters":2000,"station_id":"ce4bgs12rcd13ifvqcag","pricing_plan_id":"cebpf4jnsgd1na2vs0mg"},{"bike_id":"fd585f28-b54a-4128-8394-402f31513249","system_id":"levelo_inurba_marseille","lat":43.30274,"lon":5.37716,"is_reserved":false,"is_disabled":false,"rental_uris":{"android":"levelo://app?vid=fd585f28-b54a-4128-8394-402f31513249","ios":"levelo://app?vid=fd585f28-b54a-4128-8394-402f31513249"},"vehicle_type_id":"4","last_reported":1743430225,"current_range_meters":2800,"station_id":"ce4bguh2rcd13ifvqcj0","pricing_plan_id":"cebpf4jnsgd1na2vs0mg"},{"bike_id":"96ac20e8-5840-4579-b371-184ec6253952","system_id":"levelo_inurba_marseille","lat":43.27506,"lon":5.41142,"is_reserved":false,"is_disabled":false,"rental_uris":{"android":"levelo://app?vid=96ac20e8-5840-4579-b371-184ec6253952","ios":"levelo://app?vid=96ac20e8-5840-4579-b371-184ec6253952"},"vehicle_type_id":"4","last_reported":1743430225,"current_range_meters":3200,"station_id":"","pricing_plan_id":"cebpf4jnsgd1na2vs0mg"},{"bike_id":"6726ab46-bfeb-4ffa-a6d7-bb7373653dbc","system_id":"levelo_inurba_marseille","lat":43.27683,"lon":5.39525,"is_reserved":false,"is_disabled":false,"rental_uris":{"android":"levelo://app?vid=6726ab46-bfeb-4ffa-a6d7-bb7373653dbc","ios":"levelo://app?vid=6726ab46-bfeb-4ffa-a6d7-bb7373653dbc"},"vehicle_type_id":"4","last_reported":1743430225,"current_range_meters":3200,"station_id":"","pricing_plan_id":"cebpf4jnsgd1na2vs0mg"},{"bike_id":"fec946ab-79d1-48d6-85d9-a26d417f3d05","system_id":"levelo_inurba_marseille","lat":43.29854,"lon":5.36286,"is_reserved":false,"is_disabled":false,"rental_uris":{"android":"levelo://app?vid=fec946ab-79d1-48d6-85d9-a26d417f3d05","ios":"levelo://app?vid=fec946ab-79d1-48d6-85d9-a26d417f3d05"},"vehicle_type_id":"4","last_reported":1743430225,"current_range_meters":3200,"station_id":"ce4bgpp2rcd13ifvqc3g","pricing_plan_id":"cebpf4jnsgd1na2vs0mg"},{"bike_id":"488f269b-b1d6-44fd-b2ba-a0606568554b","system_id":"levelo_inurba_marseille","lat":43.28041,"lon":5.36951,"is_reserved":false,"is_disabled":false,"rental_uris":{"android":"levelo://app?vid=488f269b-b1d6-44fd-b2ba-a0606568554b","ios":"levelo://app?vid=488f269b-b1d6-44fd-b2ba-a0606568554b"},"vehicle_type_id":"4","last_reported":1743430225,"current_range_meters":3200,"station_id":"ce4bha12rcd13ifvqef0","pricing_plan_id":"cebpf4jnsgd1na2vs0mg"},{"bike_id":"885da56e-d8dc-43bf-87d7-bb5e9135c33a","system_id":"levelo_inurba_marseille","lat":43.28921,"lon":5.36366,"is_reserved":false,"is_disabled":false,"rental_uris":{"android":"levelo://app?vid=885da56e-d8dc-43bf-87d7-bb5e9135c33a","ios":"levelo://app?vid=885da56e-d8dc-43bf-87d7-bb5e9135c33a"},"vehicle_type_id":"4","last_reported":1743430225,"current_range_meters":3200,"station_id":"ce4bhc92rcd13ifvqetg","pricing_plan_id":"cebpf4jnsgd1na2vs0mg"},{"bike_id":"5f54d995-95ad-45d3-96b5-c228b377f18f","system_id":"levelo_inurba_marseille","lat":43.29257,"lon":5.37631,"is_reserved":false,"is_disabled":false,"rental_uris":{"android":"levelo://app?vid=5f54d995-95ad-45d3-96b5-c228b377f18f","ios":"levelo://app?vid=5f54d995-95ad-45d3-96b5-c228b377f18f"},"vehicle_type_id":"4","last_reported":1743430225,"current_range_meters":3600,"station_id":"ce4bgi12rcd13ifvqb80","pricing_plan_id":"cebpf4jnsgd1na2vs0mg"},{"bike_id":"d64f41b7-b68e-42f4-b223-8024bfcebce0","system_id":"levelo_inurba_marseille","lat":43.29539,"lon":5.38548,"is_reserved":false,"is_disabled":false,"rental_uris":{"android":"levelo://app?vid=d64f41b7-b68e-42f4-b223-8024bfcebce0","ios":"levelo://app?vid=d64f41b7-b68e-42f4-b223-8024bfcebce0"},"vehicle_type_id":"4","last_reported":1743430225,"current_range_meters":3600,"station_id":"ce4bgih2rcd13ifvqba0","pricing_plan_id":"cebpf4jnsgd1na2vs0mg"},{"bike_id":"cfbdea25-314d-4c52-b270-796ce5c6b0bb","system_id":"levelo_inurba_marseille","lat":43.27569,"lon":5.38421,"is_reserved":false,"is_disabled":false,"rental_uris":{"android":"levelo://app?vid=cfbdea25-314d-4c52-b270-796ce5c6b0bb","ios":"levelo://app?vid=cfbdea25-314d-4c52-b270-796ce5c6b0bb"},"vehicle_type_id":"4","last_reported":1743430225,"current_range_meters":3600,"station_id":"ce4bhh92rcd13ifvqfi0","pricing_plan_id":"cebpf4jnsgd1na2vs0mg"},{"bike_id":"bc8dcc8a-2d10-40c0-9625-d88e9e5ff3e9","system_id":"levelo_inurba_marseille","lat":43.23068,"lon":5.35489,"is_reserved":false,"is_disabled":false,"rental_uris":{"android":"levelo://app?vid=bc8dcc8a-2d10-40c0-9625-d88e9e5ff3e9","ios":"levelo://app?vid=bc8dcc8a-2d10-40c0-9625-d88e9e5ff3e9"},"vehicle_type_id":"4","last_reported":1743430225,"current_range_meters":3600,"station_id":"cpo3342slgdg3j2ifvpg","pricing_plan_id":"cebpf4jnsgd1na2vs0mg"},{"bike_id":"d0ed36b4-3c5a-4da6-8fb4-955c321dd03a","system_id":"levelo_inurba_marseille","lat":43.275116,"lon":5.410318,"is_reserved":false,"is_disabled":false,"rental_uris":{"android":"levelo://app?vid=d0ed36b4-3c5a-4da6-8fb4-955c321dd03a","ios":"levelo://app?vid=d0ed36b4-3c5a-4da6-8fb4-955c321dd03a"},"vehicle_type_id":"4","last_reported":1743430225,"current_range_meters":4000,"station_id":"","pricing_plan_id":"cebpf4jnsgd1na2vs0mg"},{"bike_id":"3513c65e-9037-444e-a060-6bd8e257e499","system_id":"levelo_inurba_marseille","lat":43.30138,"lon":5.37426,"is_reserved":false,"is_disabled":false,"rental_uris":{"android":"levelo://app?vid=3513c65e-9037-444e-a060-6bd8e257e499","ios":"levelo://app?vid=3513c65e-9037-444e-a060-6bd8e257e499"},"vehicle_type_id":"4","last_reported":1743430225,"current_range_meters":4000,"station_id":"ce4bgs92rcd13ifvqcc0","pricing_plan_id":"cebpf4jnsgd1na2vs0mg"},{"bike_id":"13e6426c-092c-4919-860d-ed6479bd8a69","system_id":"levelo_inurba_marseille","lat":43.28617,"lon":5.35115,"is_reserved":false,"is_disabled":false,"rental_uris":{"android":"levelo://app?vid=13e6426c-092c-4919-860d-ed6479bd8a69","ios":"levelo://app?vid=13e6426c-092c-4919-860d-ed6479bd8a69"},"vehicle_type_id":"4","last_reported":1743430225,"current_range_meters":4000,"station_id":"ce4bhch2rcd13ifvqeug","pricing_plan_id":"cebpf4jnsgd1na2vs0mg"},{"bike_id":"ff4e99ef-dd9f-4161-aae1-5da350acb579","system_id":"levelo_inurba_marseille","lat":43.266084,"lon":5.381585,"is_reserved":false,"is_disabled":false,"rental_uris":{"android":"levelo://app?vid=ff4e99ef-dd9f-4161-aae1-5da350acb579","ios":"levelo://app?vid=ff4e99ef-dd9f-4161-aae1-5da350acb579"},"vehicle_type_id":"4","last_reported":1743430225,"current_range_meters":4000,"station_id":"ce4bhg92rcd13ifvqf90","pricing_plan_id":"cebpf4jnsgd1na2vs0mg"},{"bike_id":"355a770b-8312-491d-83eb-2c87d968a17b","system_id":"levelo_inurba_marseille","lat":43.29531,"lon":5.3751,"is_reserved":false,"is_disabled":false,"rental_uris":{"android":"levelo://app?vid=355a770b-8312-491d-83eb-2c87d968a17b","ios":"levelo://app?vid=355a770b-8312-491d-83eb-2c87d968a17b"},"vehicle_type_id":"4","last_reported":1743430225,"current_range_meters":4400,"station_id":"ce4bgkp2rcd13ifvqbmg","pricing_plan_id":"cebpf4jnsgd1na2vs0mg"},{"bike_id":"b5526355-9c5e-43a6-9c02-c66889a7d947","system_id":"levelo_inurba_marseille","lat":43.31233,"lon":5.36859,"is_reserved":false,"is_disabled":false,"rental_uris":{"android":"levelo://app?vid=b5526355-9c5e-43a6-9c02-c66889a7d947","ios":"levelo://app?vid=b5526355-9c5e-43a6-9c02-c66889a7d947"},"vehicle_type_id":"4","last_reported":1743430225,"current_range_meters":4400,"station_id":"ce4bgl92rcd13ifvqbq0","pricing_plan_id":"cebpf4jnsgd1na2vs0mg"},{"bike_id":"3c722d15-6c7d-4298-b98c-6a1aae724935","system_id":"levelo_inurba_marseille","lat":43.28413,"lon":5.3499,"is_reserved":false,"is_disabled":false,"rental_uris":{"android":"levelo://app?vid=3c722d15-6c7d-4298-b98c-6a1aae724935","ios":"levelo://app?vid=3c722d15-6c7d-4298-b98c-6a1aae724935"},"vehicle_type_id":"4","last_reported":1743430225,"current_range_meters":4400,"station_id":"ce4bhbh2rcd13ifvqepg","pricing_plan_id":"cebpf4jnsgd1na2vs0mg"},{"bike_id":"41a8be12-969d-4c24-b7bc-57005a4fd1dc","system_id":"levelo_inurba_marseille","lat":43.25869,"lon":5.39891,"is_reserved":false,"is_disabled":false,"rental_uris":{"android":"levelo://app?vid=41a8be12-969d-4c24-b7bc-57005a4fd1dc","ios":"levelo://app?vid=41a8be12-969d-4c24-b7bc-57005a4fd1dc"},"vehicle_type_id":"4","last_reported":1743430225,"current_range_meters":4400,"station_id":"ce4bhl92rcd13ifvqghg","pricing_plan_id":"cebpf4jnsgd1na2vs0mg"},{"bike_id":"384b53be-0dd1-4ff6-96b3-76e22c52ec3c","system_id":"levelo_inurba_marseille","lat":43.27594,"lon":5.42263,"is_reserved":false,"is_disabled":false,"rental_uris":{"android":"levelo://app?vid=384b53be-0dd1-4ff6-96b3-76e22c52ec3c","ios":"levelo://app?vid=384b53be-0dd1-4ff6-96b3-76e22c52ec3c"},"vehicle_type_id":"4","last_reported":1743430225,"current_range_meters":4800,"station_id":"","pricing_plan_id":"cebpf4jnsgd1na2vs0mg"},{"bike_id":"00389922-f0f4-410b-952f-d7911d62751a","system_id":"levelo_inurba_marseille","lat":43.29956,"lon":5.37155,"is_reserved":false,"is_disabled":false,"rental_uris":{"android":"levelo://app?vid=00389922-f0f4-410b-952f-d7911d62751a","ios":"levelo://app?vid=00389922-f0f4-410b-952f-d7911d62751a"},"vehicle_type_id":"4","last_reported":1743430225,"current_range_meters":4800,"station_id":"ce4bgr92rcd13ifvqc7g","pricing_plan_id":"cebpf4jnsgd1na2vs0mg"},{"bike_id":"9aeb9f8a-b44f-47bc-85ba-b79099039b3e","system_id":"levelo_inurba_marseille","lat":43.28467,"lon":5.35889,"is_reserved":false,"is_disabled":false,"rental_uris":{"android":"levelo://app?vid=9aeb9f8a-b44f-47bc-85ba-b79099039b3e","ios":"levelo://app?vid=9aeb9f8a-b44f-47bc-85ba-b79099039b3e"},"vehicle_type_id":"4","last_reported":1743430225,"current_range_meters":4800,"station_id":"ce4bhah2rcd13ifvqei0","pricing_plan_id":"cebpf4jnsgd1na2vs0mg"},{"bike_id":"32bed53d-3723-4a8b-ba93-277684cc0493","system_id":"levelo_inurba_marseille","lat":43.282658,"lon":5.350592,"is_reserved":false,"is_disabled":false,"rental_uris":{"android":"levelo://app?vid=32bed53d-3723-4a8b-ba93-277684cc0493","ios":"levelo://app?vid=32bed53d-3723-4a8b-ba93-277684cc0493"},"vehicle_type_id":"4","last_reported":1743430225,"current_range_meters":4800,"station_id":"ce4bhbp2rcd13ifvqerg","pricing_plan_id":"cebpf4jnsgd1na2vs0mg"},{"bike_id":"961ccc4e-5600-4f15-8499-7936cfa27861","system_id":"levelo_inurba_marseille","lat":43.30889,"lon":5.37312,"is_reserved":false,"is_disabled":false,"rental_uris":{"android":"levelo://app?vid=961ccc4e-5600-4f15-8499-7936cfa27861","ios":"levelo://app?vid=961ccc4e-5600-4f15-8499-7936cfa27861"},"vehicle_type_id":"4","last_reported":1743430225,"current_range_meters":5600,"station_id":"","pricing_plan_id":"cebpf4jnsgd1na2vs0mg"},{"bike_id":"d2da6952-2684-4a68-9602-25ee465e12c3","system_id":"levelo_inurba_marseille","lat":43.30555,"lon":5.36538,"is_reserved":false,"is_disabled":false,"rental_uris":{"android":"levelo://app?vid=d2da6952-2684-4a68-9602-25ee465e12c3","ios":"levelo://app?vid=d2da6952-2684-4a68-9602-25ee465e12c3"},"vehicle_type_id":"4","last_reported":1743430225,"current_range_meters":5600,"station_id":"ce4bgs12rcd13ifvqcag","pricing_plan_id":"cebpf4jnsgd1na2vs0mg"},{"bike_id":"e05acf43-e64f-43b5-aeeb-c50b0b9fe33b","system_id":"levelo_inurba_marseille","lat":43.2906,"lon":5.37157,"is_reserved":false,"is_disabled":false,"rental_uris":{"android":"levelo://app?vid=e05acf43-e64f-43b5-aeeb-c50b0b9fe33b","ios":"levelo://app?vid=e05acf43-e64f-43b5-aeeb-c50b0b9fe33b"},"vehicle_type_id":"4","last_reported":1743430225,"current_range_meters":5600,"station_id":"ce4bh5p2rcd13ifvqe4g","pricing_plan_id":"cebpf4jnsgd1na2vs0mg"},{"bike_id":"36438f87-de35-42e6-84d1-312e6a8359ec","system_id":"levelo_inurba_marseille","lat":43.2418,"lon":5.39717,"is_reserved":false,"is_disabled":false,"rental_uris":{"android":"levelo://app?vid=36438f87-de35-42e6-84d1-312e6a8359ec","ios":"levelo://app?vid=36438f87-de35-42e6-84d1-312e6a8359ec"},"vehicle_type_id":"4","last_reported":1743430225,"current_range_meters":5600,"station_id":"ce4bhn12rcd13ifvqgpg","pricing_plan_id":"cebpf4jnsgd1na2vs0mg"},{"bike_id":"10b83b8c-7c4e-48bf-86cc-69e1337f0f9e","system_id":"levelo_inurba_marseille","lat":43.30328,"lon":5.40427,"is_reserved":false,"is_disabled":false,"rental_uris":{"android":"levelo://app?vid=10b83b8c-7c4e-48bf-86cc-69e1337f0f9e","ios":"levelo://app?vid=10b83b8c-7c4e-48bf-86cc-69e1337f0f9e"},"vehicle_type_id":"4","last_reported":1743430225,"current_range_meters":6000,"station_id":"ce4bh012rcd13ifvqd10","pricing_plan_id":"cebpf4jnsgd1na2vs0mg"},{"bike_id":"72fdb279-423e-49c8-a30b-f406d7440799","system_id":"levelo_inurba_marseille","lat":43.27376,"lon":5.36268,"is_reserved":false,"is_disabled":false,"rental_uris":{"android":"levelo://app?vid=72fdb279-423e-49c8-a30b-f406d7440799","ios":"levelo://app?vid=72fdb279-423e-49c8-a30b-f406d7440799"},"vehicle_type_id":"4","last_reported":1743430225,"current_range_meters":6000,"station_id":"ce4bhbh2rcd13ifvqeo0","pricing_plan_id":"cebpf4jnsgd1na2vs0mg"},{"bike_id":"93d63d46-7134-4110-b182-6ab13cc875ad","system_id":"levelo_inurba_marseille","lat":43.260602,"lon":5.39403,"is_reserved":false,"is_disabled":false,"rental_uris":{"android":"levelo://app?vid=93d63d46-7134-4110-b182-6ab13cc875ad","ios":"levelo://app?vid=93d63d46-7134-4110-b182-6ab13cc875ad"},"vehicle_type_id":"4","last_reported":1743430225,"current_range_meters":6000,"station_id":"ce4bhh92rcd13ifvqfj0","pricing_plan_id":"cebpf4jnsgd1na2vs0mg"},{"bike_id":"93b55f3d-b1dd-4f3f-b1f6-f78029e736da","system_id":"levelo_inurba_marseille","lat":43.23146,"lon":5.43699,"is_reserved":false,"is_disabled":false,"rental_uris":{"android":"levelo://app?vid=93b55f3d-b1dd-4f3f-b1f6-f78029e736da","ios":"levelo://app?vid=93b55f3d-b1dd-4f3f-b1f6-f78029e736da"},"vehicle_type_id":"4","last_reported":1743430225,"current_range_meters":6000,"station_id":"ce4bhmp2rcd13ifvqgog","pricing_plan_id":"cebpf4jnsgd1na2vs0mg"},{"bike_id":"2d59f2e9-2b0d-4dfb-ae4f-753d8607f23f","system_id":"levelo_inurba_marseille","lat":43.241738,"lon":5.397118,"is_reserved":false,"is_disabled":false,"rental_uris":{"android":"levelo://app?vid=2d59f2e9-2b0d-4dfb-ae4f-753d8607f23f","ios":"levelo://app?vid=2d59f2e9-2b0d-4dfb-ae4f-753d8607f23f"},"vehicle_type_id":"4","last_reported":1743430225,"current_range_meters":6000,"station_id":"ce4bhn12rcd13ifvqgpg","pricing_plan_id":"cebpf4jnsgd1na2vs0mg"},{"bike_id":"e72673f4-b2fe-426b-b390-f70125747c61","system_id":"levelo_inurba_marseille","lat":43.24083,"lon":5.37756,"is_reserved":false,"is_disabled":false,"rental_uris":{"android":"levelo://app?vid=e72673f4-b2fe-426b-b390-f70125747c61","ios":"levelo://app?vid=e72673f4-b2fe-426b-b390-f70125747c61"},"vehicle_type_id":"4","last_reported":1743430225,"current_range_meters":6000,"station_id":"ce4bhnp2rcd13ifvqgvg","pricing_plan_id":"cebpf4jnsgd1na2vs0mg"},{"bike_id":"b4f8a49c-a9d1-4682-8c09-20820c62e7e8","system_id":"levelo_inurba_marseille","lat":43.26798,"lon":5.40257,"is_reserved":false,"is_disabled":false,"rental_uris":{"android":"levelo://app?vid=b4f8a49c-a9d1-4682-8c09-20820c62e7e8","ios":"levelo://app?vid=b4f8a49c-a9d1-4682-8c09-20820c62e7e8"},"vehicle_type_id":"4","last_reported":1743430225,"current_range_meters":6000,"station_id":"ce501612rcd8frsf0b60","pricing_plan_id":"cebpf4jnsgd1na2vs0mg"},{"bike_id":"18a0240a-4b66-4de0-8774-60a112f77be3","system_id":"levelo_inurba_marseille","lat":43.31232,"lon":5.36819,"is_reserved":false,"is_disabled":false,"rental_uris":{"android":"levelo://app?vid=18a0240a-4b66-4de0-8774-60a112f77be3","ios":"levelo://app?vid=18a0240a-4b66-4de0-8774-60a112f77be3"},"vehicle_type_id":"4","last_reported":1743430225,"current_range_meters":6400,"station_id":"ce4bgl92rcd13ifvqbq0","pricing_plan_id":"cebpf4jnsgd1na2vs0mg"},{"bike_id":"2201fb24-281b-488f-b78d-a2cece1a8ca9","system_id":"levelo_inurba_marseille","lat":43.30543,"lon":5.36545,"is_reserved":false,"is_disabled":false,"rental_uris":{"android":"levelo://app?vid=2201fb24-281b-488f-b78d-a2cece1a8ca9","ios":"levelo://app?vid=2201fb24-281b-488f-b78d-a2cece1a8ca9"},"vehicle_type_id":"4","last_reported":1743430225,"current_range_meters":6400,"station_id":"ce4bgs12rcd13ifvqcag","pricing_plan_id":"cebpf4jnsgd1na2vs0mg"},{"bike_id":"6abfcf76-b46b-48ec-9741-222295465860","system_id":"levelo_inurba_marseille","lat":43.28593,"lon":5.37073,"is_reserved":false,"is_disabled":false,"rental_uris":{"android":"levelo://app?vid=6abfcf76-b46b-48ec-9741-222295465860","ios":"levelo://app?vid=6abfcf76-b46b-48ec-9741-222295465860"},"vehicle_type_id":"4","last_reported":1743430225,"current_range_meters":6400,"station_id":"ce4bh312rcd13ifvqdj0","pricing_plan_id":"cebpf4jnsgd1na2vs0mg"},{"bike_id":"700fc2e2-88a4-4627-8337-fc3b3aacf804","system_id":"levelo_inurba_marseille","lat":43.27373,"lon":5.36263,"is_reserved":false,"is_disabled":false,"rental_uris":{"android":"levelo://app?vid=700fc2e2-88a4-4627-8337-fc3b3aacf804","ios":"levelo://app?vid=700fc2e2-88a4-4627-8337-fc3b3aacf804"},"vehicle_type_id":"4","last_reported":1743430225,"current_range_meters":6400,"station_id":"ce4bhbh2rcd13ifvqeo0","pricing_plan_id":"cebpf4jnsgd1na2vs0mg"},{"bike_id":"3732dfcc-6fc9-40d4-bc55-599a099c9edb","system_id":"levelo_inurba_marseille","lat":43.26029,"lon":5.37551,"is_reserved":false,"is_disabled":false,"rental_uris":{"android":"levelo://app?vid=3732dfcc-6fc9-40d4-bc55-599a099c9edb","ios":"levelo://app?vid=3732dfcc-6fc9-40d4-bc55-599a099c9edb"},"vehicle_type_id":"4","last_reported":1743430225,"current_range_meters":6400,"station_id":"ce4bhgh2rcd13ifvqfa0","pricing_plan_id":"cebpf4jnsgd1na2vs0mg"},{"bike_id":"33a2857d-fc02-4112-94e5-d394d3d364f0","system_id":"levelo_inurba_marseille","lat":43.31212,"lon":5.36869,"is_reserved":false,"is_disabled":false,"rental_uris":{"android":"levelo://app?vid=33a2857d-fc02-4112-94e5-d394d3d364f0","ios":"levelo://app?vid=33a2857d-fc02-4112-94e5-d394d3d364f0"},"vehicle_type_id":"4","last_reported":1743430225,"current_range_meters":6800,"station_id":"ce4bgl92rcd13ifvqbq0","pricing_plan_id":"cebpf4jnsgd1na2vs0mg"},{"bike_id":"f001057d-3290-4889-8e47-2214f73b1574","system_id":"levelo_inurba_marseille","lat":43.29264,"lon":5.37658,"is_reserved":false,"is_disabled":false,"rental_uris":{"android":"levelo://app?vid=f001057d-3290-4889-8e47-2214f73b1574","ios":"levelo://app?vid=f001057d-3290-4889-8e47-2214f73b1574"},"vehicle_type_id":"4","last_reported":1743430225,"current_range_meters":7200,"station_id":"ce4bgi12rcd13ifvqb80","pricing_plan_id":"cebpf4jnsgd1na2vs0mg"},{"bike_id":"fddce401-d9b8-46c0-90c7-c86aa15eab50","system_id":"levelo_inurba_marseille","lat":43.29104,"lon":5.38116,"is_reserved":false,"is_disabled":false,"rental_uris":{"android":"levelo://app?vid=fddce401-d9b8-46c0-90c7-c86aa15eab50","ios":"levelo://app?vid=fddce401-d9b8-46c0-90c7-c86aa15eab50"},"vehicle_type_id":"4","last_reported":1743430225,"current_range_meters":7200,"station_id":"ce4bh512rcd13ifvqe2g","pricing_plan_id":"cebpf4jnsgd1na2vs0mg"},{"bike_id":"84e77cfa-24cb-45c9-9831-123be2868188","system_id":"levelo_inurba_marseille","lat":43.27376,"lon":5.36259,"is_reserved":false,"is_disabled":false,"rental_uris":{"android":"levelo://app?vid=84e77cfa-24cb-45c9-9831-123be2868188","ios":"levelo://app?vid=84e77cfa-24cb-45c9-9831-123be2868188"},"vehicle_type_id":"4","last_reported":1743430225,"current_range_meters":7200,"station_id":"ce4bhbh2rcd13ifvqeo0","pricing_plan_id":"cebpf4jnsgd1na2vs0mg"},{"bike_id":"8105ab87-f1cc-4efc-8e6e-fec6554e830d","system_id":"levelo_inurba_marseille","lat":43.28264,"lon":5.35084,"is_reserved":false,"is_disabled":false,"rental_uris":{"android":"levelo://app?vid=8105ab87-f1cc-4efc-8e6e-fec6554e830d","ios":"levelo://app?vid=8105ab87-f1cc-4efc-8e6e-fec6554e830d"},"vehicle_type_id":"4","last_reported":1743430225,"current_range_meters":7200,"station_id":"ce4bhbp2rcd13ifvqerg","pricing_plan_id":"cebpf4jnsgd1na2vs0mg"},{"bike_id":"36291f21-10e9-409f-9c08-11a98fedd09d","system_id":"levelo_inurba_marseille","lat":43.26546,"lon":5.37296,"is_reserved":false,"is_disabled":false,"rental_uris":{"android":"levelo://app?vid=36291f21-10e9-409f-9c08-11a98fedd09d","ios":"levelo://app?vid=36291f21-10e9-409f-9c08-11a98fedd09d"},"vehicle_type_id":"4","last_reported":1743430225,"current_range_meters":7200,"station_id":"ce4bhg12rcd13ifvqf70","pricing_plan_id":"cebpf4jnsgd1na2vs0mg"},{"bike_id":"6948ac7a-e66e-4391-8210-2aedec097489","system_id":"levelo_inurba_marseille","lat":43.26212,"lon":5.3744,"is_reserved":false,"is_disabled":false,"rental_uris":{"android":"levelo://app?vid=6948ac7a-e66e-4391-8210-2aedec097489","ios":"levelo://app?vid=6948ac7a-e66e-4391-8210-2aedec097489"},"vehicle_type_id":"4","last_reported":1743430225,"current_range_meters":7200,"station_id":"ce4bhgp2rcd13ifvqfc0","pricing_plan_id":"cebpf4jnsgd1na2vs0mg"},{"bike_id":"ee187d32-cd00-4336-903c-3053a91f2672","system_id":"levelo_inurba_marseille","lat":43.23151,"lon":5.43728,"is_reserved":false,"is_disabled":false,"rental_uris":{"android":"levelo://app?vid=ee187d32-cd00-4336-903c-3053a91f2672","ios":"levelo://app?vid=ee187d32-cd00-4336-903c-3053a91f2672"},"vehicle_type_id":"4","last_reported":1743430225,"current_range_meters":7200,"station_id":"ce4bhmp2rcd13ifvqgog","pricing_plan_id":"cebpf4jnsgd1na2vs0mg"},{"bike_id":"75444abe-0bed-4d8c-9358-03915080e580","system_id":"levelo_inurba_marseille","lat":43.23063,"lon":5.35493,"is_reserved":false,"is_disabled":false,"rental_uris":{"android":"levelo://app?vid=75444abe-0bed-4d8c-9358-03915080e580","ios":"levelo://app?vid=75444abe-0bed-4d8c-9358-03915080e580"},"vehicle_type_id":"4","last_reported":1743430225,"current_range_meters":7200,"station_id":"cpo3342slgdg3j2ifvpg","pricing_plan_id":"cebpf4jnsgd1na2vs0mg"},{"bike_id":"58ba954f-d3fd-4cac-abd2-623144afb52a","system_id":"levelo_inurba_marseille","lat":43.22927,"lon":5.35378,"is_reserved":false,"is_disabled":false,"rental_uris":{"android":"levelo://app?vid=58ba954f-d3fd-4cac-abd2-623144afb52a","ios":"levelo://app?vid=58ba954f-d3fd-4cac-abd2-623144afb52a"},"vehicle_type_id":"4","last_reported":1743430225,"current_range_meters":7200,"station_id":"cpo3532slgdg3j2ikp40","pricing_plan_id":"cebpf4jnsgd1na2vs0mg"},{"bike_id":"96f73177-049f-409e-8102-d49ca3ba506f","system_id":"levelo_inurba_marseille","lat":43.3128,"lon":5.36892,"is_reserved":false,"is_disabled":false,"rental_uris":{"android":"levelo://app?vid=96f73177-049f-409e-8102-d49ca3ba506f","ios":"levelo://app?vid=96f73177-049f-409e-8102-d49ca3ba506f"},"vehicle_type_id":"4","last_reported":1743430225,"current_range_meters":8000,"station_id":"","pricing_plan_id":"cebpf4jnsgd1na2vs0mg"},{"bike_id":"b5bbf360-e49e-4dc7-a3e0-f1aa0da19a20","system_id":"levelo_inurba_marseille","lat":43.3029,"lon":5.39222,"is_reserved":false,"is_disabled":false,"rental_uris":{"android":"levelo://app?vid=b5bbf360-e49e-4dc7-a3e0-f1aa0da19a20","ios":"levelo://app?vid=b5bbf360-e49e-4dc7-a3e0-f1aa0da19a20"},"vehicle_type_id":"4","last_reported":1743430225,"current_range_meters":8000,"station_id":"ce4bgkh2rcd13ifvqbk0","pricing_plan_id":"cebpf4jnsgd1na2vs0mg"},{"bike_id":"c270a7ba-d174-46a3-b308-158e7d9b1810","system_id":"levelo_inurba_marseille","lat":43.30795,"lon":5.38149,"is_reserved":false,"is_disabled":false,"rental_uris":{"android":"levelo://app?vid=c270a7ba-d174-46a3-b308-158e7d9b1810","ios":"levelo://app?vid=c270a7ba-d174-46a3-b308-158e7d9b1810"},"vehicle_type_id":"4","last_reported":1743430225,"current_range_meters":8000,"station_id":"ce4bgt12rcd13ifvqce0","pricing_plan_id":"cebpf4jnsgd1na2vs0mg"},{"bike_id":"1baafb29-9369-4ad9-ade0-92069d0b07d0","system_id":"levelo_inurba_marseille","lat":43.28111,"lon":5.367948,"is_reserved":false,"is_disabled":false,"rental_uris":{"android":"levelo://app?vid=1baafb29-9369-4ad9-ade0-92069d0b07d0","ios":"levelo://app?vid=1baafb29-9369-4ad9-ade0-92069d0b07d0"},"vehicle_type_id":"4","last_reported":1743430225,"current_range_meters":8000,"station_id":"ce4bha12rcd13ifvqef0","pricing_plan_id":"cebpf4jnsgd1na2vs0mg"},{"bike_id":"b4294206-61ae-4a68-8346-c5a24206bd63","system_id":"levelo_inurba_marseille","lat":43.26229,"lon":5.40458,"is_reserved":false,"is_disabled":false,"rental_uris":{"android":"levelo://app?vid=b4294206-61ae-4a68-8346-c5a24206bd63","ios":"levelo://app?vid=b4294206-61ae-4a68-8346-c5a24206bd63"},"vehicle_type_id":"4","last_reported":1743430225,"current_range_meters":8000,"station_id":"ce4bhmh2rcd13ifvqgmg","pricing_plan_id":"cebpf4jnsgd1na2vs0mg"},{"bike_id":"452ee7ed-aed5-4f3a-80c1-b63ab3953967","system_id":"levelo_inurba_marseille","lat":43.27933,"lon":5.41039,"is_reserved":false,"is_disabled":false,"rental_uris":{"android":"levelo://app?vid=452ee7ed-aed5-4f3a-80c1-b63ab3953967","ios":"levelo://app?vid=452ee7ed-aed5-4f3a-80c1-b63ab3953967"},"vehicle_type_id":"4","last_reported":1743430225,"current_range_meters":8000,"station_id":"ce4bhnp2rcd13ifvqh0g","pricing_plan_id":"cebpf4jnsgd1na2vs0mg"},{"bike_id":"6227088b-8ea7-4271-92b8-c845300adf9a","system_id":"levelo_inurba_marseille","lat":43.32357,"lon":5.36753,"is_reserved":false,"is_disabled":false,"rental_uris":{"android":"levelo://app?vid=6227088b-8ea7-4271-92b8-c845300adf9a","ios":"levelo://app?vid=6227088b-8ea7-4271-92b8-c845300adf9a"},"vehicle_type_id":"4","last_reported":1743430225,"current_range_meters":8000,"station_id":"ce4bhsh2rcd13ifvqi2g","pricing_plan_id":"cebpf4jnsgd1na2vs0mg"},{"bike_id":"6165c5e1-15f4-4779-ba2f-91df8ba3f8c0","system_id":"levelo_inurba_marseille","lat":43.28911,"lon":5.42989,"is_reserved":false,"is_disabled":false,"rental_uris":{"android":"levelo://app?vid=6165c5e1-15f4-4779-ba2f-91df8ba3f8c0","ios":"levelo://app?vid=6165c5e1-15f4-4779-ba2f-91df8ba3f8c0"},"vehicle_type_id":"4","last_reported":1743430225,"current_range_meters":8400,"station_id":"","pricing_plan_id":"cebpf4jnsgd1na2vs0mg"},{"bike_id":"1d0f3ce4-674e-4ec0-a180-2b3292ba5ec8","system_id":"levelo_inurba_marseille","lat":43.24173,"lon":5.39727,"is_reserved":false,"is_disabled":false,"rental_uris":{"android":"levelo://app?vid=1d0f3ce4-674e-4ec0-a180-2b3292ba5ec8","ios":"levelo://app?vid=1d0f3ce4-674e-4ec0-a180-2b3292ba5ec8"},"vehicle_type_id":"4","last_reported":1743430225,"current_range_meters":8400,"station_id":"ce4bhn12rcd13ifvqgpg","pricing_plan_id":"cebpf4jnsgd1na2vs0mg"},{"bike_id":"99e7d147-e2b6-4982-8a11-f600737d5497","system_id":"levelo_inurba_marseille","lat":43.318277,"lon":5.368103,"is_reserved":false,"is_disabled":false,"rental_uris":{"android":"levelo://app?vid=99e7d147-e2b6-4982-8a11-f600737d5497","ios":"levelo://app?vid=99e7d147-e2b6-4982-8a11-f600737d5497"},"vehicle_type_id":"4","last_reported":1743430225,"current_range_meters":8800,"station_id":"","pricing_plan_id":"cebpf4jnsgd1na2vs0mg"},{"bike_id":"204ecd7d-d79a-4494-8305-7c83c69add7d","system_id":"levelo_inurba_marseille","lat":43.25671,"lon":5.41991,"is_reserved":false,"is_disabled":false,"rental_uris":{"android":"levelo://app?vid=204ecd7d-d79a-4494-8305-7c83c69add7d","ios":"levelo://app?vid=204ecd7d-d79a-4494-8305-7c83c69add7d"},"vehicle_type_id":"4","last_reported":1743430225,"current_range_meters":8800,"station_id":"","pricing_plan_id":"cebpf4jnsgd1na2vs0mg"},{"bike_id":"9d8048cc-0c35-415c-802a-776b5f4ff1b5","system_id":"levelo_inurba_marseille","lat":43.31399,"lon":5.36723,"is_reserved":false,"is_disabled":false,"rental_uris":{"android":"levelo://app?vid=9d8048cc-0c35-415c-802a-776b5f4ff1b5","ios":"levelo://app?vid=9d8048cc-0c35-415c-802a-776b5f4ff1b5"},"vehicle_type_id":"4","last_reported":1743430225,"current_range_meters":8800,"station_id":"","pricing_plan_id":"cebpf4jnsgd1na2vs0mg"},{"bike_id":"5215a6d1-2c3d-436e-aad0-bd37aaf1e3f0","system_id":"levelo_inurba_marseille","lat":43.29256,"lon":5.37632,"is_reserved":false,"is_disabled":false,"rental_uris":{"android":"levelo://app?vid=5215a6d1-2c3d-436e-aad0-bd37aaf1e3f0","ios":"levelo://app?vid=5215a6d1-2c3d-436e-aad0-bd37aaf1e3f0"},"vehicle_type_id":"4","last_reported":1743430225,"current_range_meters":8800,"station_id":"ce4bgi12rcd13ifvqb80","pricing_plan_id":"cebpf4jnsgd1na2vs0mg"},{"bike_id":"e8dd8243-1186-43b2-b9f8-41036d8f7cfe","system_id":"levelo_inurba_marseille","lat":43.29963,"lon":5.37161,"is_reserved":false,"is_disabled":false,"rental_uris":{"android":"levelo://app?vid=e8dd8243-1186-43b2-b9f8-41036d8f7cfe","ios":"levelo://app?vid=e8dd8243-1186-43b2-b9f8-41036d8f7cfe"},"vehicle_type_id":"4","last_reported":1743430225,"current_range_meters":8800,"station_id":"ce4bgr92rcd13ifvqc7g","pricing_plan_id":"cebpf4jnsgd1na2vs0mg"},{"bike_id":"ca0583b7-5669-4753-8262-d8e09aa9fe38","system_id":"levelo_inurba_marseille","lat":43.30555,"lon":5.36498,"is_reserved":false,"is_disabled":false,"rental_uris":{"android":"levelo://app?vid=ca0583b7-5669-4753-8262-d8e09aa9fe38","ios":"levelo://app?vid=ca0583b7-5669-4753-8262-d8e09aa9fe38"},"vehicle_type_id":"4","last_reported":1743430225,"current_range_meters":8800,"station_id":"ce4bgs12rcd13ifvqcag","pricing_plan_id":"cebpf4jnsgd1na2vs0mg"},{"bike_id":"8a423c5b-57f1-4052-9547-c2b64f34ded2","system_id":"levelo_inurba_marseille","lat":43.2826,"lon":5.35067,"is_reserved":false,"is_disabled":false,"rental_uris":{"android":"levelo://app?vid=8a423c5b-57f1-4052-9547-c2b64f34ded2","ios":"levelo://app?vid=8a423c5b-57f1-4052-9547-c2b64f34ded2"},"vehicle_type_id":"4","last_reported":1743430225,"current_range_meters":8800,"station_id":"ce4bhbp2rcd13ifvqerg","pricing_plan_id":"cebpf4jnsgd1na2vs0mg"},{"bike_id":"3d6209b7-1462-4f77-9f0e-3723ab68fb7a","system_id":"levelo_inurba_marseille","lat":43.32335,"lon":5.40619,"is_reserved":false,"is_disabled":false,"rental_uris":{"android":"levelo://app?vid=3d6209b7-1462-4f77-9f0e-3723ab68fb7a","ios":"levelo://app?vid=3d6209b7-1462-4f77-9f0e-3723ab68fb7a"},"vehicle_type_id":"4","last_reported":1743430225,"current_range_meters":8800,"station_id":"ce4bhq92rcd13ifvqhjg","pricing_plan_id":"cebpf4jnsgd1na2vs0mg"},{"bike_id":"ba1107aa-9b1f-4710-bb75-05314e757fc6","system_id":"levelo_inurba_marseille","lat":43.31662,"lon":5.37201,"is_reserved":false,"is_disabled":false,"rental_uris":{"android":"levelo://app?vid=ba1107aa-9b1f-4710-bb75-05314e757fc6","ios":"levelo://app?vid=ba1107aa-9b1f-4710-bb75-05314e757fc6"},"vehicle_type_id":"4","last_reported":1743430225,"current_range_meters":9200,"station_id":"","pricing_plan_id":"cebpf4jnsgd1na2vs0mg"},{"bike_id":"c5ebec7a-8fb7-4a21-94c4-c74cc627481c","system_id":"levelo_inurba_marseille","lat":43.28618,"lon":5.35113,"is_reserved":false,"is_disabled":false,"rental_uris":{"android":"levelo://app?vid=c5ebec7a-8fb7-4a21-94c4-c74cc627481c","ios":"levelo://app?vid=c5ebec7a-8fb7-4a21-94c4-c74cc627481c"},"vehicle_type_id":"4","last_reported":1743430225,"current_range_meters":9200,"station_id":"ce4bhch2rcd13ifvqeug","pricing_plan_id":"cebpf4jnsgd1na2vs0mg"},{"bike_id":"17883c73-0f61-452e-9f07-988d5933a738","system_id":"levelo_inurba_marseille","lat":43.27072,"lon":5.42289,"is_reserved":false,"is_disabled":false,"rental_uris":{"android":"levelo://app?vid=17883c73-0f61-452e-9f07-988d5933a738","ios":"levelo://app?vid=17883c73-0f61-452e-9f07-988d5933a738"},"vehicle_type_id":"4","last_reported":1743430225,"current_range_meters":9200,"station_id":"ce4bhk92rcd13ifvqgb0","pricing_plan_id":"cebpf4jnsgd1na2vs0mg"},{"bike_id":"abe50da3-d276-4e2d-89dc-4ba535cd6c8e","system_id":"levelo_inurba_marseille","lat":43.30908,"lon":5.36845,"is_reserved":false,"is_disabled":false,"rental_uris":{"android":"levelo://app?vid=abe50da3-d276-4e2d-89dc-4ba535cd6c8e","ios":"levelo://app?vid=abe50da3-d276-4e2d-89dc-4ba535cd6c8e"},"vehicle_type_id":"4","last_reported":1743430225,"current_range_meters":9600,"station_id":"ce4bgn92rcd13ifvqbvg","pricing_plan_id":"cebpf4jnsgd1na2vs0mg"},{"bike_id":"375a0007-7743-4139-86d5-622f4e6ced24","system_id":"levelo_inurba_marseille","lat":43.3089,"lon":5.37195,"is_reserved":false,"is_disabled":false,"rental_uris":{"android":"levelo://app?vid=375a0007-7743-4139-86d5-622f4e6ced24","ios":"levelo://app?vid=375a0007-7743-4139-86d5-622f4e6ced24"},"vehicle_type_id":"4","last_reported":1743430225,"current_range_meters":9600,"station_id":"ce4bguh2rcd13ifvqckg","pricing_plan_id":"cebpf4jnsgd1na2vs0mg"},{"bike_id":"59619804-8ded-4ad0-af71-484e24142382","system_id":"levelo_inurba_marseille","lat":43.300988,"lon":5.390761,"is_reserved":false,"is_disabled":false,"rental_uris":{"android":"levelo://app?vid=59619804-8ded-4ad0-af71-484e24142382","ios":"levelo://app?vid=59619804-8ded-4ad0-af71-484e24142382"},"vehicle_type_id":"4","last_reported":1743430225,"current_range_meters":9600,"station_id":"ce4bh192rcd13ifvqdb0","pricing_plan_id":"cebpf4jnsgd1na2vs0mg"},{"bike_id":"c2bfe4e5-d6f1-44a1-80af-6375f55bf609","system_id":"levelo_inurba_marseille","lat":43.25591,"lon":5.38252,"is_reserved":false,"is_disabled":false,"rental_uris":{"android":"levelo://app?vid=c2bfe4e5-d6f1-44a1-80af-6375f55bf609","ios":"levelo://app?vid=c2bfe4e5-d6f1-44a1-80af-6375f55bf609"},"vehicle_type_id":"4","last_reported":1743430225,"current_range_meters":9600,"station_id":"ce4bhih2rcd13ifvqfs0","pricing_plan_id":"cebpf4jnsgd1na2vs0mg"},{"bike_id":"121010d1-d0ea-475b-97a6-f9054736109c","system_id":"levelo_inurba_marseille","lat":43.23191,"lon":5.39975,"is_reserved":false,"is_disabled":false,"rental_uris":{"android":"levelo://app?vid=121010d1-d0ea-475b-97a6-f9054736109c","ios":"levelo://app?vid=121010d1-d0ea-475b-97a6-f9054736109c"},"vehicle_type_id":"4","last_reported":1743430225,"current_range_meters":9600,"station_id":"ce4bhn12rcd13ifvqgqg","pricing_plan_id":"cebpf4jnsgd1na2vs0mg"},{"bike_id":"0f8f638f-6c59-4dfb-ab4f-882d40e453aa","system_id":"levelo_inurba_marseille","lat":43.29277,"lon":5.42771,"is_reserved":false,"is_disabled":false,"rental_uris":{"android":"levelo://app?vid=0f8f638f-6c59-4dfb-ab4f-882d40e453aa","ios":"levelo://app?vid=0f8f638f-6c59-4dfb-ab4f-882d40e453aa"},"vehicle_type_id":"4","last_reported":1743430225,"current_range_meters":10000,"station_id":"","pricing_plan_id":"cebpf4jnsgd1na2vs0mg"},{"bike_id":"30782900-0e53-4726-baae-e9e894c385d9","system_id":"levelo_inurba_marseille","lat":43.29783,"lon":5.37112,"is_reserved":false,"is_disabled":false,"rental_uris":{"android":"levelo://app?vid=30782900-0e53-4726-baae-e9e894c385d9","ios":"levelo://app?vid=30782900-0e53-4726-baae-e9e894c385d9"},"vehicle_type_id":"4","last_reported":1743430225,"current_range_meters":10000,"station_id":"ce4bgop2rcd13ifvqc1g","pricing_plan_id":"cebpf4jnsgd1na2vs0mg"},{"bike_id":"5fa26b37-996f-47e6-ac95-a4ff0ac8ee41","system_id":"levelo_inurba_marseille","lat":43.29846,"lon":5.36276,"is_reserved":false,"is_disabled":false,"rental_uris":{"android":"levelo://app?vid=5fa26b37-996f-47e6-ac95-a4ff0ac8ee41","ios":"levelo://app?vid=5fa26b37-996f-47e6-ac95-a4ff0ac8ee41"},"vehicle_type_id":"4","last_reported":1743430225,"current_range_meters":10000,"station_id":"ce4bgpp2rcd13ifvqc3g","pricing_plan_id":"cebpf4jnsgd1na2vs0mg"},{"bike_id":"cd4c796a-dd7d-4683-aa9e-b566ad8e8a64","system_id":"levelo_inurba_marseille","lat":43.28618,"lon":5.35102,"is_reserved":false,"is_disabled":false,"rental_uris":{"android":"levelo://app?vid=cd4c796a-dd7d-4683-aa9e-b566ad8e8a64","ios":"levelo://app?vid=cd4c796a-dd7d-4683-aa9e-b566ad8e8a64"},"vehicle_type_id":"4","last_reported":1743430225,"current_range_meters":10000,"station_id":"ce4bhch2rcd13ifvqeug","pricing_plan_id":"cebpf4jnsgd1na2vs0mg"},{"bike_id":"fbc1c0a9-d425-4eb3-ba26-c96313abb304","system_id":"levelo_inurba_marseille","lat":43.28613,"lon":5.35096,"is_reserved":false,"is_disabled":false,"rental_uris":{"android":"levelo://app?vid=fbc1c0a9-d425-4eb3-ba26-c96313abb304","ios":"levelo://app?vid=fbc1c0a9-d425-4eb3-ba26-c96313abb304"},"vehicle_type_id":"4","last_reported":1743430225,"current_range_meters":10000,"station_id":"ce4bhch2rcd13ifvqeug","pricing_plan_id":"cebpf4jnsgd1na2vs0mg"},{"bike_id":"c0b6faf4-b524-47ae-a7be-2bae4d04a860","system_id":"levelo_inurba_marseille","lat":43.26061,"lon":5.39396,"is_reserved":false,"is_disabled":false,"rental_uris":{"android":"levelo://app?vid=c0b6faf4-b524-47ae-a7be-2bae4d04a860","ios":"levelo://app?vid=c0b6faf4-b524-47ae-a7be-2bae4d04a860"},"vehicle_type_id":"4","last_reported":1743430225,"current_range_meters":10000,"station_id":"ce4bhh92rcd13ifvqfj0","pricing_plan_id":"cebpf4jnsgd1na2vs0mg"},{"bike_id":"443b1ee5-f3f9-4110-95a2-b62fcdfc5153","system_id":"levelo_inurba_marseille","lat":43.23067,"lon":5.35499,"is_reserved":false,"is_disabled":false,"rental_uris":{"android":"levelo://app?vid=443b1ee5-f3f9-4110-95a2-b62fcdfc5153","ios":"levelo://app?vid=443b1ee5-f3f9-4110-95a2-b62fcdfc5153"},"vehicle_type_id":"4","last_reported":1743430225,"current_range_meters":10000,"station_id":"cpo3342slgdg3j2ifvpg","pricing_plan_id":"cebpf4jnsgd1na2vs0mg"},{"bike_id":"2bf31f9f-c5c0-434c-ab3b-b017d7dc966d","system_id":"levelo_inurba_marseille","lat":43.23068,"lon":5.35514,"is_reserved":false,"is_disabled":false,"rental_uris":{"android":"levelo://app?vid=2bf31f9f-c5c0-434c-ab3b-b017d7dc966d","ios":"levelo://app?vid=2bf31f9f-c5c0-434c-ab3b-b017d7dc966d"},"vehicle_type_id":"4","last_reported":1743430225,"current_range_meters":10000,"station_id":"cpo3342slgdg3j2ifvpg","pricing_plan_id":"cebpf4jnsgd1na2vs0mg"},{"bike_id":"7dc61e4d-e653-4fe9-9340-c06fa21c7d32","system_id":"levelo_inurba_marseille","lat":43.29963,"lon":5.38498,"is_reserved":false,"is_disabled":false,"rental_uris":{"android":"levelo://app?vid=7dc61e4d-e653-4fe9-9340-c06fa21c7d32","ios":"levelo://app?vid=7dc61e4d-e653-4fe9-9340-c06fa21c7d32"},"vehicle_type_id":"4","last_reported":1743430225,"current_range_meters":10800,"station_id":"ce4bgj92rcd13ifvqbd0","pricing_plan_id":"cebpf4jnsgd1na2vs0mg"},{"bike_id":"c4a04f75-ee8f-4e1e-91b7-f20bfd170ca2","system_id":"levelo_inurba_marseille","lat":43.30324,"lon":5.40437,"is_reserved":false,"is_disabled":false,"rental_uris":{"android":"levelo://app?vid=c4a04f75-ee8f-4e1e-91b7-f20bfd170ca2","ios":"levelo://app?vid=c4a04f75-ee8f-4e1e-91b7-f20bfd170ca2"},"vehicle_type_id":"4","last_reported":1743430225,"current_range_meters":10800,"station_id":"ce4bh012rcd13ifvqd10","pricing_plan_id":"cebpf4jnsgd1na2vs0mg"},{"bike_id":"1b3e6dab-fcf1-4c65-8d56-bf00864d7691","system_id":"levelo_inurba_marseille","lat":43.29524,"lon":5.39403,"is_reserved":false,"is_disabled":false,"rental_uris":{"android":"levelo://app?vid=1b3e6dab-fcf1-4c65-8d56-bf00864d7691","ios":"levelo://app?vid=1b3e6dab-fcf1-4c65-8d56-bf00864d7691"},"vehicle_type_id":"4","last_reported":1743430225,"current_range_meters":10800,"station_id":"ce4bh292rcd13ifvqdf0","pricing_plan_id":"cebpf4jnsgd1na2vs0mg"},{"bike_id":"a49051c8-5f06-4471-9ba7-c2f53f6d878a","system_id":"levelo_inurba_marseille","lat":43.2841,"lon":5.34991,"is_reserved":false,"is_disabled":false,"rental_uris":{"android":"levelo://app?vid=a49051c8-5f06-4471-9ba7-c2f53f6d878a","ios":"levelo://app?vid=a49051c8-5f06-4471-9ba7-c2f53f6d878a"},"vehicle_type_id":"4","last_reported":1743430225,"current_range_meters":10800,"station_id":"ce4bhbh2rcd13ifvqepg","pricing_plan_id":"cebpf4jnsgd1na2vs0mg"},{"bike_id":"a358dfe8-8e12-4102-9fc4-95ff5ba6904c","system_id":"levelo_inurba_marseille","lat":43.28614,"lon":5.35118,"is_reserved":false,"is_disabled":false,"rental_uris":{"android":"levelo://app?vid=a358dfe8-8e12-4102-9fc4-95ff5ba6904c","ios":"levelo://app?vid=a358dfe8-8e12-4102-9fc4-95ff5ba6904c"},"vehicle_type_id":"4","last_reported":1743430225,"current_range_meters":10800,"station_id":"ce4bhch2rcd13ifvqeug","pricing_plan_id":"cebpf4jnsgd1na2vs0mg"},{"bike_id":"8fa5fb11-10c8-4bed-b75c-83f4c72259ad","system_id":"levelo_inurba_marseille","lat":43.32362,"lon":5.36726,"is_reserved":false,"is_disabled":false,"rental_uris":{"android":"levelo://app?vid=8fa5fb11-10c8-4bed-b75c-83f4c72259ad","ios":"levelo://app?vid=8fa5fb11-10c8-4bed-b75c-83f4c72259ad"},"vehicle_type_id":"4","last_reported":1743430225,"current_range_meters":10800,"station_id":"ce4bhsh2rcd13ifvqi2g","pricing_plan_id":"cebpf4jnsgd1na2vs0mg"},{"bike_id":"84d23eb6-ae3c-4087-9e07-c0437fa11ca7","system_id":"levelo_inurba_marseille","lat":43.29783,"lon":5.37094,"is_reserved":false,"is_disabled":false,"rental_uris":{"android":"levelo://app?vid=84d23eb6-ae3c-4087-9e07-c0437fa11ca7","ios":"levelo://app?vid=84d23eb6-ae3c-4087-9e07-c0437fa11ca7"},"vehicle_type_id":"4","last_reported":1743430225,"current_range_meters":11200,"station_id":"ce4bgop2rcd13ifvqc1g","pricing_plan_id":"cebpf4jnsgd1na2vs0mg"},{"bike_id":"285fa790-3775-479b-9dc1-994f548672b5","system_id":"levelo_inurba_marseille","lat":43.28424,"lon":5.34998,"is_reserved":false,"is_disabled":false,"rental_uris":{"android":"levelo://app?vid=285fa790-3775-479b-9dc1-994f548672b5","ios":"levelo://app?vid=285fa790-3775-479b-9dc1-994f548672b5"},"vehicle_type_id":"4","last_reported":1743430225,"current_range_meters":11200,"station_id":"ce4bhbh2rcd13ifvqepg","pricing_plan_id":"cebpf4jnsgd1na2vs0mg"},{"bike_id":"87d2502c-7399-4f76-ab1d-2c85ee589067","system_id":"levelo_inurba_marseille","lat":43.26206,"lon":5.37924,"is_reserved":false,"is_disabled":false,"rental_uris":{"android":"levelo://app?vid=87d2502c-7399-4f76-ab1d-2c85ee589067","ios":"levelo://app?vid=87d2502c-7399-4f76-ab1d-2c85ee589067"},"vehicle_type_id":"4","last_reported":1743430225,"current_range_meters":11200,"station_id":"ce4bhjp2rcd13ifvqg90","pricing_plan_id":"cebpf4jnsgd1na2vs0mg"},{"bike_id":"c790d13d-0251-49f6-b5c7-6c8b09141cc1","system_id":"levelo_inurba_marseille","lat":43.2707,"lon":5.42279,"is_reserved":false,"is_disabled":false,"rental_uris":{"android":"levelo://app?vid=c790d13d-0251-49f6-b5c7-6c8b09141cc1","ios":"levelo://app?vid=c790d13d-0251-49f6-b5c7-6c8b09141cc1"},"vehicle_type_id":"4","last_reported":1743430225,"current_range_meters":11200,"station_id":"ce4bhk92rcd13ifvqgb0","pricing_plan_id":"cebpf4jnsgd1na2vs0mg"},{"bike_id":"6fa97106-103e-4571-85c0-458067ed9648","system_id":"levelo_inurba_marseille","lat":43.22938,"lon":5.35376,"is_reserved":false,"is_disabled":false,"rental_uris":{"android":"levelo://app?vid=6fa97106-103e-4571-85c0-458067ed9648","ios":"levelo://app?vid=6fa97106-103e-4571-85c0-458067ed9648"},"vehicle_type_id":"4","last_reported":1743430225,"current_range_meters":11200,"station_id":"cpo3532slgdg3j2ikp40","pricing_plan_id":"cebpf4jnsgd1na2vs0mg"},{"bike_id":"92fc1d36-1fe7-4bcf-b2c5-fc0e570ebf39","system_id":"levelo_inurba_marseille","lat":43.30537,"lon":5.36523,"is_reserved":false,"is_disabled":false,"rental_uris":{"android":"levelo://app?vid=92fc1d36-1fe7-4bcf-b2c5-fc0e570ebf39","ios":"levelo://app?vid=92fc1d36-1fe7-4bcf-b2c5-fc0e570ebf39"},"vehicle_type_id":"4","last_reported":1743430225,"current_range_meters":11600,"station_id":"","pricing_plan_id":"cebpf4jnsgd1na2vs0mg"},{"bike_id":"e3ed6a7b-116d-4bce-98f8-0c4519635233","system_id":"levelo_inurba_marseille","lat":43.31972,"lon":5.37426,"is_reserved":false,"is_disabled":false,"rental_uris":{"android":"levelo://app?vid=e3ed6a7b-116d-4bce-98f8-0c4519635233","ios":"levelo://app?vid=e3ed6a7b-116d-4bce-98f8-0c4519635233"},"vehicle_type_id":"4","last_reported":1743430225,"current_range_meters":12000,"station_id":"","pricing_plan_id":"cebpf4jnsgd1na2vs0mg"},{"bike_id":"785371f9-6daa-4cd5-bc04-c93fcbae6b3f","system_id":"levelo_inurba_marseille","lat":43.29752,"lon":5.37302,"is_reserved":false,"is_disabled":false,"rental_uris":{"android":"levelo://app?vid=785371f9-6daa-4cd5-bc04-c93fcbae6b3f","ios":"levelo://app?vid=785371f9-6daa-4cd5-bc04-c93fcbae6b3f"},"vehicle_type_id":"4","last_reported":1743430225,"current_range_meters":12000,"station_id":"ce4bgr92rcd13ifvqc7g","pricing_plan_id":"cebpf4jnsgd1na2vs0mg"},{"bike_id":"64c79195-142d-4dc6-b451-114ef37b0b13","system_id":"levelo_inurba_marseille","lat":43.30189,"lon":5.36619,"is_reserved":false,"is_disabled":false,"rental_uris":{"android":"levelo://app?vid=64c79195-142d-4dc6-b451-114ef37b0b13","ios":"levelo://app?vid=64c79195-142d-4dc6-b451-114ef37b0b13"},"vehicle_type_id":"4","last_reported":1743430225,"current_range_meters":12000,"station_id":"ce4bgrh2rcd13ifvqc8g","pricing_plan_id":"cebpf4jnsgd1na2vs0mg"},{"bike_id":"aa858b0d-09f1-4836-a57b-10f5e5e53bf7","system_id":"levelo_inurba_marseille","lat":43.31362,"lon":5.38496,"is_reserved":false,"is_disabled":false,"rental_uris":{"android":"levelo://app?vid=aa858b0d-09f1-4836-a57b-10f5e5e53bf7","ios":"levelo://app?vid=aa858b0d-09f1-4836-a57b-10f5e5e53bf7"},"vehicle_type_id":"4","last_reported":1743430225,"current_range_meters":12000,"station_id":"ce4bgt92rcd13ifvqcf0","pricing_plan_id":"cebpf4jnsgd1na2vs0mg"},{"bike_id":"2d074e8b-4d89-4baa-8739-c0ace0c87b48","system_id":"levelo_inurba_marseille","lat":43.29275,"lon":5.38439,"is_reserved":false,"is_disabled":false,"rental_uris":{"android":"levelo://app?vid=2d074e8b-4d89-4baa-8739-c0ace0c87b48","ios":"levelo://app?vid=2d074e8b-4d89-4baa-8739-c0ace0c87b48"},"vehicle_type_id":"4","last_reported":1743430225,"current_range_meters":12000,"station_id":"ce4bh692rcd13ifvqea0","pricing_plan_id":"cebpf4jnsgd1na2vs0mg"},{"bike_id":"781e4fad-e8e0-41bd-9fc7-1331b936d0b1","system_id":"levelo_inurba_marseille","lat":43.28417,"lon":5.34981,"is_reserved":false,"is_disabled":false,"rental_uris":{"android":"levelo://app?vid=781e4fad-e8e0-41bd-9fc7-1331b936d0b1","ios":"levelo://app?vid=781e4fad-e8e0-41bd-9fc7-1331b936d0b1"},"vehicle_type_id":"4","last_reported":1743430225,"current_range_meters":12000,"station_id":"ce4bhbh2rcd13ifvqepg","pricing_plan_id":"cebpf4jnsgd1na2vs0mg"},{"bike_id":"371ef456-4c42-4701-a2cf-a599bd5480ce","system_id":"levelo_inurba_marseille","lat":43.24078,"lon":5.37762,"is_reserved":false,"is_disabled":false,"rental_uris":{"android":"levelo://app?vid=371ef456-4c42-4701-a2cf-a599bd5480ce","ios":"levelo://app?vid=371ef456-4c42-4701-a2cf-a599bd5480ce"},"vehicle_type_id":"4","last_reported":1743430225,"current_range_meters":12000,"station_id":"ce4bhnp2rcd13ifvqgvg","pricing_plan_id":"cebpf4jnsgd1na2vs0mg"},{"bike_id":"ac74822a-6f30-45ed-8b29-5edf5b670444","system_id":"levelo_inurba_marseille","lat":43.24089,"lon":5.37697,"is_reserved":false,"is_disabled":false,"rental_uris":{"android":"levelo://app?vid=ac74822a-6f30-45ed-8b29-5edf5b670444","ios":"levelo://app?vid=ac74822a-6f30-45ed-8b29-5edf5b670444"},"vehicle_type_id":"4","last_reported":1743430225,"current_range_meters":12400,"station_id":"","pricing_plan_id":"cebpf4jnsgd1na2vs0mg"},{"bike_id":"6074e3fa-d6da-4378-8f14-0f65641cea83","system_id":"levelo_inurba_marseille","lat":43.28106,"lon":5.37845,"is_reserved":false,"is_disabled":false,"rental_uris":{"android":"levelo://app?vid=6074e3fa-d6da-4378-8f14-0f65641cea83","ios":"levelo://app?vid=6074e3fa-d6da-4378-8f14-0f65641cea83"},"vehicle_type_id":"4","last_reported":1743430225,"current_range_meters":12400,"station_id":"ce4bha12rcd13ifvqee0","pricing_plan_id":"cebpf4jnsgd1na2vs0mg"},{"bike_id":"a454ef9c-406b-4945-ae2d-9df6ed639610","system_id":"levelo_inurba_marseille","lat":43.27418,"lon":5.39408,"is_reserved":false,"is_disabled":false,"rental_uris":{"android":"levelo://app?vid=a454ef9c-406b-4945-ae2d-9df6ed639610","ios":"levelo://app?vid=a454ef9c-406b-4945-ae2d-9df6ed639610"},"vehicle_type_id":"4","last_reported":1743430225,"current_range_meters":12400,"station_id":"ce4bhdp2rcd13ifvqf20","pricing_plan_id":"cebpf4jnsgd1na2vs0mg"},{"bike_id":"7600e00f-345b-474f-bf8f-5d0482aa16fc","system_id":"levelo_inurba_marseille","lat":43.2695,"lon":5.38629,"is_reserved":false,"is_disabled":false,"rental_uris":{"android":"levelo://app?vid=7600e00f-345b-474f-bf8f-5d0482aa16fc","ios":"levelo://app?vid=7600e00f-345b-474f-bf8f-5d0482aa16fc"},"vehicle_type_id":"4","last_reported":1743430225,"current_range_meters":12400,"station_id":"ce4bhh92rcd13ifvqfh0","pricing_plan_id":"cebpf4jnsgd1na2vs0mg"},{"bike_id":"f37d3164-e3eb-40e3-a529-6dd0e2ed7b46","system_id":"levelo_inurba_marseille","lat":43.34141,"lon":5.409,"is_reserved":false,"is_disabled":false,"rental_uris":{"android":"levelo://app?vid=f37d3164-e3eb-40e3-a529-6dd0e2ed7b46","ios":"levelo://app?vid=f37d3164-e3eb-40e3-a529-6dd0e2ed7b46"},"vehicle_type_id":"4","last_reported":1743430225,"current_range_meters":12400,"station_id":"ce4bhqh2rcd13ifvqhlg","pricing_plan_id":"cebpf4jnsgd1na2vs0mg"},{"bike_id":"71ce3f55-7859-409c-a423-4ca58717f75b","system_id":"levelo_inurba_marseille","lat":43.32338,"lon":5.38864,"is_reserved":false,"is_disabled":false,"rental_uris":{"android":"levelo://app?vid=71ce3f55-7859-409c-a423-4ca58717f75b","ios":"levelo://app?vid=71ce3f55-7859-409c-a423-4ca58717f75b"},"vehicle_type_id":"4","last_reported":1743430225,"current_range_meters":12400,"station_id":"ce4bhqp2rcd13ifvqhog","pricing_plan_id":"cebpf4jnsgd1na2vs0mg"},{"bike_id":"183cd44b-7d6a-49af-9f65-04c0cf02d415","system_id":"levelo_inurba_marseille","lat":43.28668,"lon":5.3867,"is_reserved":false,"is_disabled":false,"rental_uris":{"android":"levelo://app?vid=183cd44b-7d6a-49af-9f65-04c0cf02d415","ios":"levelo://app?vid=183cd44b-7d6a-49af-9f65-04c0cf02d415"},"vehicle_type_id":"4","last_reported":1743430225,"current_range_meters":12800,"station_id":"ce4bh492rcd13ifvqdug","pricing_plan_id":"cebpf4jnsgd1na2vs0mg"},{"bike_id":"f41e2eef-3409-4d82-b478-b6958ffb7ce8","system_id":"levelo_inurba_marseille","lat":43.2416,"lon":5.36408,"is_reserved":false,"is_disabled":false,"rental_uris":{"android":"levelo://app?vid=f41e2eef-3409-4d82-b478-b6958ffb7ce8","ios":"levelo://app?vid=f41e2eef-3409-4d82-b478-b6958ffb7ce8"},"vehicle_type_id":"4","last_reported":1743430225,"current_range_meters":12800,"station_id":"cpo36qri1sfpv3e86is0","pricing_plan_id":"cebpf4jnsgd1na2vs0mg"},{"bike_id":"4f360e51-089d-489d-91aa-705deea01db5","system_id":"levelo_inurba_marseille","lat":43.3053,"lon":5.36717,"is_reserved":false,"is_disabled":false,"rental_uris":{"android":"levelo://app?vid=4f360e51-089d-489d-91aa-705deea01db5","ios":"levelo://app?vid=4f360e51-089d-489d-91aa-705deea01db5"},"vehicle_type_id":"4","last_reported":1743430225,"current_range_meters":13600,"station_id":"ce4bgrp2rcd13ifvqc9g","pricing_plan_id":"cebpf4jnsgd1na2vs0mg"},{"bike_id":"be6ce756-6a1b-4284-b56d-e7d286a86352","system_id":"levelo_inurba_marseille","lat":43.28675,"lon":5.36351,"is_reserved":false,"is_disabled":false,"rental_uris":{"android":"levelo://app?vid=be6ce756-6a1b-4284-b56d-e7d286a86352","ios":"levelo://app?vid=be6ce756-6a1b-4284-b56d-e7d286a86352"},"vehicle_type_id":"4","last_reported":1743430225,"current_range_meters":13600,"station_id":"ce4bhah2rcd13ifvqej0","pricing_plan_id":"cebpf4jnsgd1na2vs0mg"},{"bike_id":"ac1839bf-9575-4380-a4e0-712c605d403a","system_id":"levelo_inurba_marseille","lat":43.28615,"lon":5.35116,"is_reserved":false,"is_disabled":false,"rental_uris":{"android":"levelo://app?vid=ac1839bf-9575-4380-a4e0-712c605d403a","ios":"levelo://app?vid=ac1839bf-9575-4380-a4e0-712c605d403a"},"vehicle_type_id":"4","last_reported":1743430225,"current_range_meters":13600,"station_id":"ce4bhch2rcd13ifvqeug","pricing_plan_id":"cebpf4jnsgd1na2vs0mg"},{"bike_id":"97accc6c-ec8e-434d-bd9b-278659019a9a","system_id":"levelo_inurba_marseille","lat":43.2985,"lon":5.36283,"is_reserved":false,"is_disabled":false,"rental_uris":{"android":"levelo://app?vid=97accc6c-ec8e-434d-bd9b-278659019a9a","ios":"levelo://app?vid=97accc6c-ec8e-434d-bd9b-278659019a9a"},"vehicle_type_id":"4","last_reported":1743430225,"current_range_meters":14000,"station_id":"ce4bgpp2rcd13ifvqc3g","pricing_plan_id":"cebpf4jnsgd1na2vs0mg"},{"bike_id":"b2859a9e-1c34-444e-8ae5-95896cb01a06","system_id":"levelo_inurba_marseille","lat":43.25491,"lon":5.37646,"is_reserved":false,"is_disabled":false,"rental_uris":{"android":"levelo://app?vid=b2859a9e-1c34-444e-8ae5-95896cb01a06","ios":"levelo://app?vid=b2859a9e-1c34-444e-8ae5-95896cb01a06"},"vehicle_type_id":"4","last_reported":1743430225,"current_range_meters":14000,"station_id":"ce4bhh12rcd13ifvqff0","pricing_plan_id":"cebpf4jnsgd1na2vs0mg"},{"bike_id":"030c0a51-e548-4ce8-ad0b-05ccd0210920","system_id":"levelo_inurba_marseille","lat":43.27056,"lon":5.40262,"is_reserved":false,"is_disabled":false,"rental_uris":{"android":"levelo://app?vid=030c0a51-e548-4ce8-ad0b-05ccd0210920","ios":"levelo://app?vid=030c0a51-e548-4ce8-ad0b-05ccd0210920"},"vehicle_type_id":"4","last_reported":1743430225,"current_range_meters":14000,"station_id":"ce4bhk92rcd13ifvqgc0","pricing_plan_id":"cebpf4jnsgd1na2vs0mg"},{"bike_id":"7a894edd-a4a4-40de-8b70-ca9fb3d5e3fd","system_id":"levelo_inurba_marseille","lat":43.31085,"lon":5.42441,"is_reserved":false,"is_disabled":false,"rental_uris":{"android":"levelo://app?vid=7a894edd-a4a4-40de-8b70-ca9fb3d5e3fd","ios":"levelo://app?vid=7a894edd-a4a4-40de-8b70-ca9fb3d5e3fd"},"vehicle_type_id":"4","last_reported":1743430225,"current_range_meters":14000,"station_id":"ce4bhp92rcd13ifvqhag","pricing_plan_id":"cebpf4jnsgd1na2vs0mg"},{"bike_id":"504da899-2497-444a-bbce-45266191007e","system_id":"levelo_inurba_marseille","lat":43.32367,"lon":5.38888,"is_reserved":false,"is_disabled":false,"rental_uris":{"android":"levelo://app?vid=504da899-2497-444a-bbce-45266191007e","ios":"levelo://app?vid=504da899-2497-444a-bbce-45266191007e"},"vehicle_type_id":"4","last_reported":1743430225,"current_range_meters":14000,"station_id":"ce4bhqp2rcd13ifvqhog","pricing_plan_id":"cebpf4jnsgd1na2vs0mg"},{"bike_id":"d162ab97-160b-4082-a300-c7000c41052c","system_id":"levelo_inurba_marseille","lat":43.28416,"lon":5.34994,"is_reserved":false,"is_disabled":false,"rental_uris":{"android":"levelo://app?vid=d162ab97-160b-4082-a300-c7000c41052c","ios":"levelo://app?vid=d162ab97-160b-4082-a300-c7000c41052c"},"vehicle_type_id":"4","last_reported":1743430225,"current_range_meters":14400,"station_id":"ce4bhbh2rcd13ifvqepg","pricing_plan_id":"cebpf4jnsgd1na2vs0mg"},{"bike_id":"9e85cd4e-d25d-4243-945f-dad324bc4e91","system_id":"levelo_inurba_marseille","lat":43.27811,"lon":5.40717,"is_reserved":false,"is_disabled":false,"rental_uris":{"android":"levelo://app?vid=9e85cd4e-d25d-4243-945f-dad324bc4e91","ios":"levelo://app?vid=9e85cd4e-d25d-4243-945f-dad324bc4e91"},"vehicle_type_id":"4","last_reported":1743430225,"current_range_meters":14400,"station_id":"ce4bhnh2rcd13ifvqgtg","pricing_plan_id":"cebpf4jnsgd1na2vs0mg"},{"bike_id":"009644a9-0649-4ef5-9309-4363b281eee8","system_id":"levelo_inurba_marseille","lat":43.29251,"lon":5.3762,"is_reserved":false,"is_disabled":false,"rental_uris":{"android":"levelo://app?vid=009644a9-0649-4ef5-9309-4363b281eee8","ios":"levelo://app?vid=009644a9-0649-4ef5-9309-4363b281eee8"},"vehicle_type_id":"4","last_reported":1743430225,"current_range_meters":14800,"station_id":"ce4bgi12rcd13ifvqb80","pricing_plan_id":"cebpf4jnsgd1na2vs0mg"},{"bike_id":"563f1298-5e80-43d7-bd83-8b78e60378b3","system_id":"levelo_inurba_marseille","lat":43.30518,"lon":5.36575,"is_reserved":false,"is_disabled":false,"rental_uris":{"android":"levelo://app?vid=563f1298-5e80-43d7-bd83-8b78e60378b3","ios":"levelo://app?vid=563f1298-5e80-43d7-bd83-8b78e60378b3"},"vehicle_type_id":"4","last_reported":1743430225,"current_range_meters":14800,"station_id":"ce4bgs12rcd13ifvqcag","pricing_plan_id":"cebpf4jnsgd1na2vs0mg"},{"bike_id":"ef235fe3-8fd3-4408-808e-ce111b08b859","system_id":"levelo_inurba_marseille","lat":43.31488,"lon":5.37314,"is_reserved":false,"is_disabled":false,"rental_uris":{"android":"levelo://app?vid=ef235fe3-8fd3-4408-808e-ce111b08b859","ios":"levelo://app?vid=ef235fe3-8fd3-4408-808e-ce111b08b859"},"vehicle_type_id":"4","last_reported":1743430225,"current_range_meters":14800,"station_id":"ce4bgt12rcd13ifvqcd0","pricing_plan_id":"cebpf4jnsgd1na2vs0mg"},{"bike_id":"c9961bc0-5d9e-46f7-81c9-1f905a2df4db","system_id":"levelo_inurba_marseille","lat":43.286177,"lon":5.351018,"is_reserved":false,"is_disabled":false,"rental_uris":{"android":"levelo://app?vid=c9961bc0-5d9e-46f7-81c9-1f905a2df4db","ios":"levelo://app?vid=c9961bc0-5d9e-46f7-81c9-1f905a2df4db"},"vehicle_type_id":"4","last_reported":1743430225,"current_range_meters":14800,"station_id":"ce4bh012rcd13ifvqcv0","pricing_plan_id":"cebpf4jnsgd1na2vs0mg"},{"bike_id":"0b46ebdd-8dd9-4470-beed-2ec212cf2fdb","system_id":"levelo_inurba_marseille","lat":43.314834,"lon":5.373132,"is_reserved":false,"is_disabled":false,"rental_uris":{"android":"levelo://app?vid=0b46ebdd-8dd9-4470-beed-2ec212cf2fdb","ios":"levelo://app?vid=0b46ebdd-8dd9-4470-beed-2ec212cf2fdb"},"vehicle_type_id":"4","last_reported":1743430225,"current_range_meters":14800,"station_id":"ce4bhq92rcd13ifvqhkg","pricing_plan_id":"cebpf4jnsgd1na2vs0mg"},{"bike_id":"8bcdac8d-bfbd-4e55-bc7e-a4fe1ae09e71","system_id":"levelo_inurba_marseille","lat":43.22927,"lon":5.3538,"is_reserved":false,"is_disabled":false,"rental_uris":{"android":"levelo://app?vid=8bcdac8d-bfbd-4e55-bc7e-a4fe1ae09e71","ios":"levelo://app?vid=8bcdac8d-bfbd-4e55-bc7e-a4fe1ae09e71"},"vehicle_type_id":"4","last_reported":1743430225,"current_range_meters":14800,"station_id":"cpo3532slgdg3j2ikp40","pricing_plan_id":"cebpf4jnsgd1na2vs0mg"},{"bike_id":"9f26f6b4-6f8c-41bd-9823-94cef41b22be","system_id":"levelo_inurba_marseille","lat":43.23194,"lon":5.39996,"is_reserved":false,"is_disabled":false,"rental_uris":{"android":"levelo://app?vid=9f26f6b4-6f8c-41bd-9823-94cef41b22be","ios":"levelo://app?vid=9f26f6b4-6f8c-41bd-9823-94cef41b22be"},"vehicle_type_id":"4","last_reported":1743430225,"current_range_meters":15200,"station_id":"ce4bhn12rcd13ifvqgqg","pricing_plan_id":"cebpf4jnsgd1na2vs0mg"},{"bike_id":"4f3d3684-704c-420e-8cfa-2d8b6191958f","system_id":"levelo_inurba_marseille","lat":43.33022,"lon":5.39037,"is_reserved":false,"is_disabled":false,"rental_uris":{"android":"levelo://app?vid=4f3d3684-704c-420e-8cfa-2d8b6191958f","ios":"levelo://app?vid=4f3d3684-704c-420e-8cfa-2d8b6191958f"},"vehicle_type_id":"4","last_reported":1743430225,"current_range_meters":15200,"station_id":"ce4bhr92rcd13ifvqhrg","pricing_plan_id":"cebpf4jnsgd1na2vs0mg"},{"bike_id":"f0ff8df1-930d-4d0d-87f8-1e0dc20a46cf","system_id":"levelo_inurba_marseille","lat":43.29839,"lon":5.36272,"is_reserved":false,"is_disabled":false,"rental_uris":{"android":"levelo://app?vid=f0ff8df1-930d-4d0d-87f8-1e0dc20a46cf","ios":"levelo://app?vid=f0ff8df1-930d-4d0d-87f8-1e0dc20a46cf"},"vehicle_type_id":"4","last_reported":1743430225,"current_range_meters":16000,"station_id":"ce4bgpp2rcd13ifvqc3g","pricing_plan_id":"cebpf4jnsgd1na2vs0mg"},{"bike_id":"e92ad609-999e-4855-8862-f72ff0ad2d0b","system_id":"levelo_inurba_marseille","lat":43.3015,"lon":5.3742,"is_reserved":false,"is_disabled":false,"rental_uris":{"android":"levelo://app?vid=e92ad609-999e-4855-8862-f72ff0ad2d0b","ios":"levelo://app?vid=e92ad609-999e-4855-8862-f72ff0ad2d0b"},"vehicle_type_id":"4","last_reported":1743430225,"current_range_meters":16000,"station_id":"ce4bgs92rcd13ifvqcc0","pricing_plan_id":"cebpf4jnsgd1na2vs0mg"},{"bike_id":"13e1fad9-ae4c-4b89-86c8-360ba57fa76e","system_id":"levelo_inurba_marseille","lat":43.29421,"lon":5.38624,"is_reserved":false,"is_disabled":false,"rental_uris":{"android":"levelo://app?vid=13e1fad9-ae4c-4b89-86c8-360ba57fa76e","ios":"levelo://app?vid=13e1fad9-ae4c-4b89-86c8-360ba57fa76e"},"vehicle_type_id":"4","last_reported":1743430225,"current_range_meters":16000,"station_id":"ce4bh2h2rcd13ifvqdh0","pricing_plan_id":"cebpf4jnsgd1na2vs0mg"},{"bike_id":"d555a6dd-87fb-4f1f-accb-2e9da48fe4bc","system_id":"levelo_inurba_marseille","lat":43.27378,"lon":5.36251,"is_reserved":false,"is_disabled":false,"rental_uris":{"android":"levelo://app?vid=d555a6dd-87fb-4f1f-accb-2e9da48fe4bc","ios":"levelo://app?vid=d555a6dd-87fb-4f1f-accb-2e9da48fe4bc"},"vehicle_type_id":"4","last_reported":1743430225,"current_range_meters":16000,"station_id":"ce4bhbh2rcd13ifvqeo0","pricing_plan_id":"cebpf4jnsgd1na2vs0mg"},{"bike_id":"493a4b78-c139-44e4-951d-7450f165400f","system_id":"levelo_inurba_marseille","lat":43.27314,"lon":5.39081,"is_reserved":false,"is_disabled":false,"rental_uris":{"android":"levelo://app?vid=493a4b78-c139-44e4-951d-7450f165400f","ios":"levelo://app?vid=493a4b78-c139-44e4-951d-7450f165400f"},"vehicle_type_id":"4","last_reported":1743430225,"current_range_meters":16000,"station_id":"ce4bhgp2rcd13ifvqfe0","pricing_plan_id":"cebpf4jnsgd1na2vs0mg"},{"bike_id":"faaa6d9a-bc6e-4b21-abcb-c0125701d45c","system_id":"levelo_inurba_marseille","lat":43.25928,"lon":5.40911,"is_reserved":false,"is_disabled":false,"rental_uris":{"android":"levelo://app?vid=faaa6d9a-bc6e-4b21-abcb-c0125701d45c","ios":"levelo://app?vid=faaa6d9a-bc6e-4b21-abcb-c0125701d45c"},"vehicle_type_id":"4","last_reported":1743430225,"current_range_meters":16000,"station_id":"ce4bhm92rcd13ifvqglg","pricing_plan_id":"cebpf4jnsgd1na2vs0mg"},{"bike_id":"6335296b-f3c9-4f75-bbba-e60a6054c23d","system_id":"levelo_inurba_marseille","lat":43.2694,"lon":5.4025,"is_reserved":false,"is_disabled":false,"rental_uris":{"android":"levelo://app?vid=6335296b-f3c9-4f75-bbba-e60a6054c23d","ios":"levelo://app?vid=6335296b-f3c9-4f75-bbba-e60a6054c23d"},"vehicle_type_id":"4","last_reported":1743430225,"current_range_meters":16000,"station_id":"cjm6bp8fraef2m0cb0m0","pricing_plan_id":"cebpf4jnsgd1na2vs0mg"},{"bike_id":"d2304202-8ad8-4d66-8820-046bec051ca7","system_id":"levelo_inurba_marseille","lat":43.28726,"lon":5.36082,"is_reserved":false,"is_disabled":false,"rental_uris":{"android":"levelo://app?vid=d2304202-8ad8-4d66-8820-046bec051ca7","ios":"levelo://app?vid=d2304202-8ad8-4d66-8820-046bec051ca7"},"vehicle_type_id":"4","last_reported":1743430225,"current_range_meters":16000,"station_id":"cki0cbj6b192h4jlfktg","pricing_plan_id":"cebpf4jnsgd1na2vs0mg"},{"bike_id":"e47bc61d-df2d-41b3-b26b-dd94e6e5e301","system_id":"levelo_inurba_marseille","lat":43.26242,"lon":5.42124,"is_reserved":false,"is_disabled":false,"rental_uris":{"android":"levelo://app?vid=e47bc61d-df2d-41b3-b26b-dd94e6e5e301","ios":"levelo://app?vid=e47bc61d-df2d-41b3-b26b-dd94e6e5e301"},"vehicle_type_id":"4","last_reported":1743430225,"current_range_meters":16400,"station_id":"","pricing_plan_id":"cebpf4jnsgd1na2vs0mg"},{"bike_id":"f9a2a5f0-9c98-43ac-84ca-a9b38b605fa6","system_id":"levelo_inurba_marseille","lat":43.30537,"lon":5.36711,"is_reserved":false,"is_disabled":false,"rental_uris":{"android":"levelo://app?vid=f9a2a5f0-9c98-43ac-84ca-a9b38b605fa6","ios":"levelo://app?vid=f9a2a5f0-9c98-43ac-84ca-a9b38b605fa6"},"vehicle_type_id":"4","last_reported":1743430225,"current_range_meters":16400,"station_id":"ce4bgrp2rcd13ifvqc9g","pricing_plan_id":"cebpf4jnsgd1na2vs0mg"},{"bike_id":"5b3317e2-ce4d-4867-a93b-a544e1acc1fa","system_id":"levelo_inurba_marseille","lat":43.28619,"lon":5.35111,"is_reserved":false,"is_disabled":false,"rental_uris":{"android":"levelo://app?vid=5b3317e2-ce4d-4867-a93b-a544e1acc1fa","ios":"levelo://app?vid=5b3317e2-ce4d-4867-a93b-a544e1acc1fa"},"vehicle_type_id":"4","last_reported":1743430225,"current_range_meters":16400,"station_id":"ce4bgup2rcd13ifvqcn0","pricing_plan_id":"cebpf4jnsgd1na2vs0mg"},{"bike_id":"31349135-1628-41cd-a034-49c95e388b8e","system_id":"levelo_inurba_marseille","lat":43.28268,"lon":5.35071,"is_reserved":false,"is_disabled":false,"rental_uris":{"android":"levelo://app?vid=31349135-1628-41cd-a034-49c95e388b8e","ios":"levelo://app?vid=31349135-1628-41cd-a034-49c95e388b8e"},"vehicle_type_id":"4","last_reported":1743430225,"current_range_meters":16400,"station_id":"ce4bhbp2rcd13ifvqerg","pricing_plan_id":"cebpf4jnsgd1na2vs0mg"},{"bike_id":"0a861bce-e43b-4e0f-88cb-e1f4c36e3623","system_id":"levelo_inurba_marseille","lat":43.26699,"lon":5.38264,"is_reserved":false,"is_disabled":false,"rental_uris":{"android":"levelo://app?vid=0a861bce-e43b-4e0f-88cb-e1f4c36e3623","ios":"levelo://app?vid=0a861bce-e43b-4e0f-88cb-e1f4c36e3623"},"vehicle_type_id":"4","last_reported":1743430225,"current_range_meters":16400,"station_id":"ce4bhg92rcd13ifvqf90","pricing_plan_id":"cebpf4jnsgd1na2vs0mg"},{"bike_id":"f74ab59f-be69-4dbf-bb7a-b8d19bcdb4f1","system_id":"levelo_inurba_marseille","lat":43.26159,"lon":5.37944,"is_reserved":false,"is_disabled":false,"rental_uris":{"android":"levelo://app?vid=f74ab59f-be69-4dbf-bb7a-b8d19bcdb4f1","ios":"levelo://app?vid=f74ab59f-be69-4dbf-bb7a-b8d19bcdb4f1"},"vehicle_type_id":"4","last_reported":1743430225,"current_range_meters":16400,"station_id":"ce4bhjp2rcd13ifvqg90","pricing_plan_id":"cebpf4jnsgd1na2vs0mg"},{"bike_id":"8221247b-981f-4f6f-be1c-477deae787ea","system_id":"levelo_inurba_marseille","lat":43.22931,"lon":5.35393,"is_reserved":false,"is_disabled":false,"rental_uris":{"android":"levelo://app?vid=8221247b-981f-4f6f-be1c-477deae787ea","ios":"levelo://app?vid=8221247b-981f-4f6f-be1c-477deae787ea"},"vehicle_type_id":"4","last_reported":1743430225,"current_range_meters":16400,"station_id":"cpo3532slgdg3j2ikp40","pricing_plan_id":"cebpf4jnsgd1na2vs0mg"},{"bike_id":"1b63ccb2-1298-4d96-b7f3-6ad6cace00e9","system_id":"levelo_inurba_marseille","lat":43.26205,"lon":5.40169,"is_reserved":false,"is_disabled":false,"rental_uris":{"android":"levelo://app?vid=1b63ccb2-1298-4d96-b7f3-6ad6cace00e9","ios":"levelo://app?vid=1b63ccb2-1298-4d96-b7f3-6ad6cace00e9"},"vehicle_type_id":"4","last_reported":1743430225,"current_range_meters":16800,"station_id":"","pricing_plan_id":"cebpf4jnsgd1na2vs0mg"},{"bike_id":"c4a0621b-6145-443e-a518-14a3cc56d524","system_id":"levelo_inurba_marseille","lat":43.31366,"lon":5.367009,"is_reserved":false,"is_disabled":false,"rental_uris":{"android":"levelo://app?vid=c4a0621b-6145-443e-a518-14a3cc56d524","ios":"levelo://app?vid=c4a0621b-6145-443e-a518-14a3cc56d524"},"vehicle_type_id":"4","last_reported":1743430225,"current_range_meters":16800,"station_id":"ce4bgr92rcd13ifvqc6g","pricing_plan_id":"cebpf4jnsgd1na2vs0mg"},{"bike_id":"5753b9b7-56c7-48ab-a648-d0b81f0f9aab","system_id":"levelo_inurba_marseille","lat":43.30897,"lon":5.37204,"is_reserved":false,"is_disabled":false,"rental_uris":{"android":"levelo://app?vid=5753b9b7-56c7-48ab-a648-d0b81f0f9aab","ios":"levelo://app?vid=5753b9b7-56c7-48ab-a648-d0b81f0f9aab"},"vehicle_type_id":"4","last_reported":1743430225,"current_range_meters":16800,"station_id":"ce4bguh2rcd13ifvqckg","pricing_plan_id":"cebpf4jnsgd1na2vs0mg"},{"bike_id":"a0b4d8bf-7d9f-4c06-b192-08b083389d0c","system_id":"levelo_inurba_marseille","lat":43.29888,"lon":5.38902,"is_reserved":false,"is_disabled":false,"rental_uris":{"android":"levelo://app?vid=a0b4d8bf-7d9f-4c06-b192-08b083389d0c","ios":"levelo://app?vid=a0b4d8bf-7d9f-4c06-b192-08b083389d0c"},"vehicle_type_id":"4","last_reported":1743430225,"current_range_meters":16800,"station_id":"ce4bh392rcd13ifvqdl0","pricing_plan_id":"cebpf4jnsgd1na2vs0mg"},{"bike_id":"9d518882-c7eb-4adf-9ed1-ceb4c199375a","system_id":"levelo_inurba_marseille","lat":43.26569,"lon":5.39034,"is_reserved":false,"is_disabled":false,"rental_uris":{"android":"levelo://app?vid=9d518882-c7eb-4adf-9ed1-ceb4c199375a","ios":"levelo://app?vid=9d518882-c7eb-4adf-9ed1-ceb4c199375a"},"vehicle_type_id":"4","last_reported":1743430225,"current_range_meters":16800,"station_id":"ce4bhe12rcd13ifvqf30","pricing_plan_id":"cebpf4jnsgd1na2vs0mg"},{"bike_id":"27773214-4312-4127-aa54-e74cba3d6d07","system_id":"levelo_inurba_marseille","lat":43.27796,"lon":5.40746,"is_reserved":false,"is_disabled":false,"rental_uris":{"android":"levelo://app?vid=27773214-4312-4127-aa54-e74cba3d6d07","ios":"levelo://app?vid=27773214-4312-4127-aa54-e74cba3d6d07"},"vehicle_type_id":"4","last_reported":1743430225,"current_range_meters":16800,"station_id":"ce4bhnh2rcd13ifvqgtg","pricing_plan_id":"cebpf4jnsgd1na2vs0mg"},{"bike_id":"355948eb-7d18-4df8-bd1b-591e76a949e3","system_id":"levelo_inurba_marseille","lat":43.298464,"lon":5.362759,"is_reserved":false,"is_disabled":false,"rental_uris":{"android":"levelo://app?vid=355948eb-7d18-4df8-bd1b-591e76a949e3","ios":"levelo://app?vid=355948eb-7d18-4df8-bd1b-591e76a949e3"},"vehicle_type_id":"4","last_reported":1743430225,"current_range_meters":17200,"station_id":"ce4bgpp2rcd13ifvqc3g","pricing_plan_id":"cebpf4jnsgd1na2vs0mg"},{"bike_id":"8e73c3d9-a6a5-42aa-b926-458ab18c6b60","system_id":"levelo_inurba_marseille","lat":43.31366,"lon":5.36725,"is_reserved":false,"is_disabled":false,"rental_uris":{"android":"levelo://app?vid=8e73c3d9-a6a5-42aa-b926-458ab18c6b60","ios":"levelo://app?vid=8e73c3d9-a6a5-42aa-b926-458ab18c6b60"},"vehicle_type_id":"4","last_reported":1743430225,"current_range_meters":17200,"station_id":"ce4bgr92rcd13ifvqc6g","pricing_plan_id":"cebpf4jnsgd1na2vs0mg"},{"bike_id":"ca464ee6-da2a-4ff6-aa66-cbfed9fd5edf","system_id":"levelo_inurba_marseille","lat":43.30325,"lon":5.40449,"is_reserved":false,"is_disabled":false,"rental_uris":{"android":"levelo://app?vid=ca464ee6-da2a-4ff6-aa66-cbfed9fd5edf","ios":"levelo://app?vid=ca464ee6-da2a-4ff6-aa66-cbfed9fd5edf"},"vehicle_type_id":"4","last_reported":1743430225,"current_range_meters":17200,"station_id":"ce4bh012rcd13ifvqd10","pricing_plan_id":"cebpf4jnsgd1na2vs0mg"},{"bike_id":"21fb9157-06f2-457b-93e4-ac4ff2dae987","system_id":"levelo_inurba_marseille","lat":43.29044,"lon":5.35926,"is_reserved":false,"is_disabled":false,"rental_uris":{"android":"levelo://app?vid=21fb9157-06f2-457b-93e4-ac4ff2dae987","ios":"levelo://app?vid=21fb9157-06f2-457b-93e4-ac4ff2dae987"},"vehicle_type_id":"4","last_reported":1743430225,"current_range_meters":17200,"station_id":"ce4bha92rcd13ifvqeg0","pricing_plan_id":"cebpf4jnsgd1na2vs0mg"},{"bike_id":"c7c4a409-b0a9-4372-adec-737b17e711c1","system_id":"levelo_inurba_marseille","lat":43.27372,"lon":5.36245,"is_reserved":false,"is_disabled":false,"rental_uris":{"android":"levelo://app?vid=c7c4a409-b0a9-4372-adec-737b17e711c1","ios":"levelo://app?vid=c7c4a409-b0a9-4372-adec-737b17e711c1"},"vehicle_type_id":"4","last_reported":1743430225,"current_range_meters":17200,"station_id":"ce4bhbh2rcd13ifvqeo0","pricing_plan_id":"cebpf4jnsgd1na2vs0mg"},{"bike_id":"9973b720-1452-462e-ba5d-336e8d6b17bb","system_id":"levelo_inurba_marseille","lat":43.30552,"lon":5.36557,"is_reserved":false,"is_disabled":false,"rental_uris":{"android":"levelo://app?vid=9973b720-1452-462e-ba5d-336e8d6b17bb","ios":"levelo://app?vid=9973b720-1452-462e-ba5d-336e8d6b17bb"},"vehicle_type_id":"4","last_reported":1743430225,"current_range_meters":17600,"station_id":"ce4bgs12rcd13ifvqcag","pricing_plan_id":"cebpf4jnsgd1na2vs0mg"},{"bike_id":"929dd8df-da28-4c45-bbf2-c12b03d41739","system_id":"levelo_inurba_marseille","lat":43.31163,"lon":5.38696,"is_reserved":false,"is_disabled":false,"rental_uris":{"android":"levelo://app?vid=929dd8df-da28-4c45-bbf2-c12b03d41739","ios":"levelo://app?vid=929dd8df-da28-4c45-bbf2-c12b03d41739"},"vehicle_type_id":"4","last_reported":1743430225,"current_range_meters":17600,"station_id":"ce4bgv12rcd13ifvqcp0","pricing_plan_id":"cebpf4jnsgd1na2vs0mg"},{"bike_id":"5b788417-c927-4142-8384-35d254acab69","system_id":"levelo_inurba_marseille","lat":43.29009,"lon":5.3561,"is_reserved":false,"is_disabled":false,"rental_uris":{"android":"levelo://app?vid=5b788417-c927-4142-8384-35d254acab69","ios":"levelo://app?vid=5b788417-c927-4142-8384-35d254acab69"},"vehicle_type_id":"4","last_reported":1743430225,"current_range_meters":17600,"station_id":"ce4bhb92rcd13ifvqen0","pricing_plan_id":"cebpf4jnsgd1na2vs0mg"},{"bike_id":"25de6368-9702-4dd7-af2f-4e77192b4161","system_id":"levelo_inurba_marseille","lat":43.2842,"lon":5.34996,"is_reserved":false,"is_disabled":false,"rental_uris":{"android":"levelo://app?vid=25de6368-9702-4dd7-af2f-4e77192b4161","ios":"levelo://app?vid=25de6368-9702-4dd7-af2f-4e77192b4161"},"vehicle_type_id":"4","last_reported":1743430225,"current_range_meters":17600,"station_id":"ce4bhbh2rcd13ifvqepg","pricing_plan_id":"cebpf4jnsgd1na2vs0mg"},{"bike_id":"a1a70391-636f-47f3-91d2-be838f0fbca6","system_id":"levelo_inurba_marseille","lat":43.27176,"lon":5.40993,"is_reserved":false,"is_disabled":false,"rental_uris":{"android":"levelo://app?vid=a1a70391-636f-47f3-91d2-be838f0fbca6","ios":"levelo://app?vid=a1a70391-636f-47f3-91d2-be838f0fbca6"},"vehicle_type_id":"4","last_reported":1743430225,"current_range_meters":17600,"station_id":"ce4bhl12rcd13ifvqgf0","pricing_plan_id":"cebpf4jnsgd1na2vs0mg"},{"bike_id":"03428933-f654-4911-8e5b-283f35475d09","system_id":"levelo_inurba_marseille","lat":43.24047,"lon":5.37744,"is_reserved":false,"is_disabled":false,"rental_uris":{"android":"levelo://app?vid=03428933-f654-4911-8e5b-283f35475d09","ios":"levelo://app?vid=03428933-f654-4911-8e5b-283f35475d09"},"vehicle_type_id":"4","last_reported":1743430225,"current_range_meters":17600,"station_id":"ce4bhnp2rcd13ifvqgvg","pricing_plan_id":"cebpf4jnsgd1na2vs0mg"},{"bike_id":"3b805705-c8f8-4b9b-9d7e-1377c8d6b030","system_id":"levelo_inurba_marseille","lat":43.24084,"lon":5.37751,"is_reserved":false,"is_disabled":false,"rental_uris":{"android":"levelo://app?vid=3b805705-c8f8-4b9b-9d7e-1377c8d6b030","ios":"levelo://app?vid=3b805705-c8f8-4b9b-9d7e-1377c8d6b030"},"vehicle_type_id":"4","last_reported":1743430225,"current_range_meters":17600,"station_id":"ce4bhnp2rcd13ifvqgvg","pricing_plan_id":"cebpf4jnsgd1na2vs0mg"},{"bike_id":"f7a1f547-0836-48d5-b338-2e6fec46840d","system_id":"levelo_inurba_marseille","lat":43.3015,"lon":5.38081,"is_reserved":false,"is_disabled":false,"rental_uris":{"android":"levelo://app?vid=f7a1f547-0836-48d5-b338-2e6fec46840d","ios":"levelo://app?vid=f7a1f547-0836-48d5-b338-2e6fec46840d"},"vehicle_type_id":"4","last_reported":1743430225,"current_range_meters":18000,"station_id":"ce4bgjp2rcd13ifvqbh0","pricing_plan_id":"cebpf4jnsgd1na2vs0mg"},{"bike_id":"72faa293-8256-490c-ba74-856f450759fb","system_id":"levelo_inurba_marseille","lat":43.30163,"lon":5.3743,"is_reserved":false,"is_disabled":false,"rental_uris":{"android":"levelo://app?vid=72faa293-8256-490c-ba74-856f450759fb","ios":"levelo://app?vid=72faa293-8256-490c-ba74-856f450759fb"},"vehicle_type_id":"4","last_reported":1743430225,"current_range_meters":18000,"station_id":"ce4bgs92rcd13ifvqcc0","pricing_plan_id":"cebpf4jnsgd1na2vs0mg"},{"bike_id":"94b51b82-a552-40cb-8dbf-7571571e34b6","system_id":"levelo_inurba_marseille","lat":43.28574,"lon":5.39507,"is_reserved":false,"is_disabled":false,"rental_uris":{"android":"levelo://app?vid=94b51b82-a552-40cb-8dbf-7571571e34b6","ios":"levelo://app?vid=94b51b82-a552-40cb-8dbf-7571571e34b6"},"vehicle_type_id":"4","last_reported":1743430225,"current_range_meters":18000,"station_id":"ce4bh292rcd13ifvqdg0","pricing_plan_id":"cebpf4jnsgd1na2vs0mg"},{"bike_id":"3eaa4d4e-7e25-4238-b701-86542285e028","system_id":"levelo_inurba_marseille","lat":43.29423,"lon":5.38622,"is_reserved":false,"is_disabled":false,"rental_uris":{"android":"levelo://app?vid=3eaa4d4e-7e25-4238-b701-86542285e028","ios":"levelo://app?vid=3eaa4d4e-7e25-4238-b701-86542285e028"},"vehicle_type_id":"4","last_reported":1743430225,"current_range_meters":18000,"station_id":"ce4bh2h2rcd13ifvqdh0","pricing_plan_id":"cebpf4jnsgd1na2vs0mg"},{"bike_id":"d3ba8c4f-97a0-4965-816f-88dcb9579ce1","system_id":"levelo_inurba_marseille","lat":43.29041,"lon":5.39958,"is_reserved":false,"is_disabled":false,"rental_uris":{"android":"levelo://app?vid=d3ba8c4f-97a0-4965-816f-88dcb9579ce1","ios":"levelo://app?vid=d3ba8c4f-97a0-4965-816f-88dcb9579ce1"},"vehicle_type_id":"4","last_reported":1743430225,"current_range_meters":18000,"station_id":"ce4bh392rcd13ifvqdm0","pricing_plan_id":"cebpf4jnsgd1na2vs0mg"},{"bike_id":"e151b348-49ef-4156-a047-68e694e3568a","system_id":"levelo_inurba_marseille","lat":43.28418,"lon":5.34986,"is_reserved":false,"is_disabled":false,"rental_uris":{"android":"levelo://app?vid=e151b348-49ef-4156-a047-68e694e3568a","ios":"levelo://app?vid=e151b348-49ef-4156-a047-68e694e3568a"},"vehicle_type_id":"4","last_reported":1743430225,"current_range_meters":18000,"station_id":"ce4bhbh2rcd13ifvqepg","pricing_plan_id":"cebpf4jnsgd1na2vs0mg"},{"bike_id":"e8274d65-ad2b-4646-954f-61eef6871c0d","system_id":"levelo_inurba_marseille","lat":43.23189,"lon":5.39987,"is_reserved":false,"is_disabled":false,"rental_uris":{"android":"levelo://app?vid=e8274d65-ad2b-4646-954f-61eef6871c0d","ios":"levelo://app?vid=e8274d65-ad2b-4646-954f-61eef6871c0d"},"vehicle_type_id":"4","last_reported":1743430225,"current_range_meters":18000,"station_id":"ce4bhn12rcd13ifvqgqg","pricing_plan_id":"cebpf4jnsgd1na2vs0mg"},{"bike_id":"c0473e14-f113-49a7-8a8e-bca9934034ed","system_id":"levelo_inurba_marseille","lat":43.23195,"lon":5.35555,"is_reserved":false,"is_disabled":false,"rental_uris":{"android":"levelo://app?vid=c0473e14-f113-49a7-8a8e-bca9934034ed","ios":"levelo://app?vid=c0473e14-f113-49a7-8a8e-bca9934034ed"},"vehicle_type_id":"4","last_reported":1743430225,"current_range_meters":18000,"station_id":"ce4bhu92rcd13ifvqi70","pricing_plan_id":"cebpf4jnsgd1na2vs0mg"},{"bike_id":"798dc609-2f19-4538-baf5-9cd775609dfc","system_id":"levelo_inurba_marseille","lat":43.2293,"lon":5.35373,"is_reserved":false,"is_disabled":false,"rental_uris":{"android":"levelo://app?vid=798dc609-2f19-4538-baf5-9cd775609dfc","ios":"levelo://app?vid=798dc609-2f19-4538-baf5-9cd775609dfc"},"vehicle_type_id":"4","last_reported":1743430225,"current_range_meters":18000,"station_id":"cpo3532slgdg3j2ikp40","pricing_plan_id":"cebpf4jnsgd1na2vs0mg"},{"bike_id":"033e46c1-aa74-44de-bed4-83759d1e288e","system_id":"levelo_inurba_marseille","lat":43.30688,"lon":5.3719,"is_reserved":false,"is_disabled":false,"rental_uris":{"android":"levelo://app?vid=033e46c1-aa74-44de-bed4-83759d1e288e","ios":"levelo://app?vid=033e46c1-aa74-44de-bed4-83759d1e288e"},"vehicle_type_id":"4","last_reported":1743430225,"current_range_meters":18800,"station_id":"","pricing_plan_id":"cebpf4jnsgd1na2vs0mg"},{"bike_id":"4474f66b-3eb6-4aea-af7b-d43fdaacf384","system_id":"levelo_inurba_marseille","lat":43.28016,"lon":5.40586,"is_reserved":false,"is_disabled":false,"rental_uris":{"android":"levelo://app?vid=4474f66b-3eb6-4aea-af7b-d43fdaacf384","ios":"levelo://app?vid=4474f66b-3eb6-4aea-af7b-d43fdaacf384"},"vehicle_type_id":"4","last_reported":1743430225,"current_range_meters":18800,"station_id":"","pricing_plan_id":"cebpf4jnsgd1na2vs0mg"},{"bike_id":"41d11b71-a5b9-4931-a3f5-e085ae0cf09a","system_id":"levelo_inurba_marseille","lat":43.27612,"lon":5.36124,"is_reserved":false,"is_disabled":false,"rental_uris":{"android":"levelo://app?vid=41d11b71-a5b9-4931-a3f5-e085ae0cf09a","ios":"levelo://app?vid=41d11b71-a5b9-4931-a3f5-e085ae0cf09a"},"vehicle_type_id":"4","last_reported":1743430225,"current_range_meters":18800,"station_id":"ce4bgj92rcd13ifvqbe0","pricing_plan_id":"cebpf4jnsgd1na2vs0mg"},{"bike_id":"f3cd3541-f065-4911-991b-098d2a999b2a","system_id":"levelo_inurba_marseille","lat":43.29263,"lon":5.38433,"is_reserved":false,"is_disabled":false,"rental_uris":{"android":"levelo://app?vid=f3cd3541-f065-4911-991b-098d2a999b2a","ios":"levelo://app?vid=f3cd3541-f065-4911-991b-098d2a999b2a"},"vehicle_type_id":"4","last_reported":1743430225,"current_range_meters":18800,"station_id":"ce4bh692rcd13ifvqea0","pricing_plan_id":"cebpf4jnsgd1na2vs0mg"},{"bike_id":"46adb2bd-7be2-4166-843e-69d6088fcae6","system_id":"levelo_inurba_marseille","lat":43.28036,"lon":5.36963,"is_reserved":false,"is_disabled":false,"rental_uris":{"android":"levelo://app?vid=46adb2bd-7be2-4166-843e-69d6088fcae6","ios":"levelo://app?vid=46adb2bd-7be2-4166-843e-69d6088fcae6"},"vehicle_type_id":"4","last_reported":1743430225,"current_range_meters":18800,"station_id":"ce4bha12rcd13ifvqef0","pricing_plan_id":"cebpf4jnsgd1na2vs0mg"},{"bike_id":"36ef06ae-d02f-488b-860b-beed8223fb30","system_id":"levelo_inurba_marseille","lat":43.2901,"lon":5.35607,"is_reserved":false,"is_disabled":false,"rental_uris":{"android":"levelo://app?vid=36ef06ae-d02f-488b-860b-beed8223fb30","ios":"levelo://app?vid=36ef06ae-d02f-488b-860b-beed8223fb30"},"vehicle_type_id":"4","last_reported":1743430225,"current_range_meters":18800,"station_id":"ce4bhb92rcd13ifvqen0","pricing_plan_id":"cebpf4jnsgd1na2vs0mg"},{"bike_id":"a0187dd3-c52a-4458-b1df-1145a59e6d15","system_id":"levelo_inurba_marseille","lat":43.28416,"lon":5.34996,"is_reserved":false,"is_disabled":false,"rental_uris":{"android":"levelo://app?vid=a0187dd3-c52a-4458-b1df-1145a59e6d15","ios":"levelo://app?vid=a0187dd3-c52a-4458-b1df-1145a59e6d15"},"vehicle_type_id":"4","last_reported":1743430225,"current_range_meters":18800,"station_id":"ce4bhbh2rcd13ifvqepg","pricing_plan_id":"cebpf4jnsgd1na2vs0mg"},{"bike_id":"0ddf344c-ec47-4972-b5d7-5da525fc1d4d","system_id":"levelo_inurba_marseille","lat":43.25705,"lon":5.41096,"is_reserved":false,"is_disabled":false,"rental_uris":{"android":"levelo://app?vid=0ddf344c-ec47-4972-b5d7-5da525fc1d4d","ios":"levelo://app?vid=0ddf344c-ec47-4972-b5d7-5da525fc1d4d"},"vehicle_type_id":"4","last_reported":1743430225,"current_range_meters":18800,"station_id":"ce4bhkp2rcd13ifvqgd0","pricing_plan_id":"cebpf4jnsgd1na2vs0mg"},{"bike_id":"04ab8176-8bf9-485a-b1cb-7223ecd00ee5","system_id":"levelo_inurba_marseille","lat":43.24083,"lon":5.37755,"is_reserved":false,"is_disabled":false,"rental_uris":{"android":"levelo://app?vid=04ab8176-8bf9-485a-b1cb-7223ecd00ee5","ios":"levelo://app?vid=04ab8176-8bf9-485a-b1cb-7223ecd00ee5"},"vehicle_type_id":"4","last_reported":1743430225,"current_range_meters":18800,"station_id":"ce4bhnp2rcd13ifvqgvg","pricing_plan_id":"cebpf4jnsgd1na2vs0mg"},{"bike_id":"dd3db03f-0f43-4986-9ec8-2a76818fb28c","system_id":"levelo_inurba_marseille","lat":43.232,"lon":5.35543,"is_reserved":false,"is_disabled":false,"rental_uris":{"android":"levelo://app?vid=dd3db03f-0f43-4986-9ec8-2a76818fb28c","ios":"levelo://app?vid=dd3db03f-0f43-4986-9ec8-2a76818fb28c"},"vehicle_type_id":"4","last_reported":1743430225,"current_range_meters":18800,"station_id":"ce4bhu92rcd13ifvqi70","pricing_plan_id":"cebpf4jnsgd1na2vs0mg"},{"bike_id":"ff981b15-c84c-46ed-8290-3cfa5d8a8f97","system_id":"levelo_inurba_marseille","lat":43.30917,"lon":5.36864,"is_reserved":false,"is_disabled":false,"rental_uris":{"android":"levelo://app?vid=ff981b15-c84c-46ed-8290-3cfa5d8a8f97","ios":"levelo://app?vid=ff981b15-c84c-46ed-8290-3cfa5d8a8f97"},"vehicle_type_id":"4","last_reported":1743430225,"current_range_meters":19200,"station_id":"ce4bgn92rcd13ifvqbvg","pricing_plan_id":"cebpf4jnsgd1na2vs0mg"},{"bike_id":"0123c188-9f92-4cba-9a15-3f36cab199c0","system_id":"levelo_inurba_marseille","lat":43.30944,"lon":5.39049,"is_reserved":false,"is_disabled":false,"rental_uris":{"android":"levelo://app?vid=0123c188-9f92-4cba-9a15-3f36cab199c0","ios":"levelo://app?vid=0123c188-9f92-4cba-9a15-3f36cab199c0"},"vehicle_type_id":"4","last_reported":1743430225,"current_range_meters":19200,"station_id":"ce4bgup2rcd13ifvqco0","pricing_plan_id":"cebpf4jnsgd1na2vs0mg"},{"bike_id":"579375df-567d-4bc9-8093-288c198d52fe","system_id":"levelo_inurba_marseille","lat":43.28704,"lon":5.386916,"is_reserved":false,"is_disabled":false,"rental_uris":{"android":"levelo://app?vid=579375df-567d-4bc9-8093-288c198d52fe","ios":"levelo://app?vid=579375df-567d-4bc9-8093-288c198d52fe"},"vehicle_type_id":"4","last_reported":1743430225,"current_range_meters":19200,"station_id":"ce4bh492rcd13ifvqdug","pricing_plan_id":"cebpf4jnsgd1na2vs0mg"},{"bike_id":"4e5bc548-d77e-4fdc-9721-2733fd4694bf","system_id":"levelo_inurba_marseille","lat":43.28274,"lon":5.35084,"is_reserved":false,"is_disabled":false,"rental_uris":{"android":"levelo://app?vid=4e5bc548-d77e-4fdc-9721-2733fd4694bf","ios":"levelo://app?vid=4e5bc548-d77e-4fdc-9721-2733fd4694bf"},