{"last_updated":1739103295,"ttl":60,"version":"2.2","data":{"bikes":[{"bike_id":"8bf9c0d5-b42b-43f3-ac16-58c6303bc32c","system_id":"levelo_inurba_marseille","lat":43.27065,"lon":5.42273,"is_reserved":false,"is_disabled":false,"rental_uris":{"android":"levelo://app?vid=8bf9c0d5-b42b-43f3-ac16-58c6303bc32c","ios":"levelo://app?vid=8bf9c0d5-b42b-43f3-ac16-58c6303bc32c"},"vehicle_type_id":"4","last_reported":1739103295,"current_range_meters":16800,"station_id":"ce4bhk92rcd13ifvqgb0","pricing_plan_id":"cebpf4jnsgd1na2vs0mg"},{"bike_id":"24e6347d-30fc-429d-a054-000bdfd80c76","system_id":"levelo_inurba_marseille","lat":43.28262,"lon":5.350721,"is_reserved":false,"is_disabled":false,"rental_uris":{"android":"levelo://app?vid=24e6347d-30fc-429d-a054-000bdfd80c76","ios":"levelo://app?vid=24e6347d-30fc-429d-a054-000bdfd80c76"},"vehicle_type_id":"4","last_reported":1739103295,"current_range_meters":36000,"station_id":"ce4bhbp2rcd13ifvqerg","pricing_plan_id":"cebpf4jnsgd1na2vs0mg"},{"bike_id":"05eb7be6-9d96-421b-af71-eddbdb0da360","system_id":"levelo_inurba_marseille","lat":43.30649,"lon":5.40107,"is_reserved":false,"is_disabled":true,"rental_uris":{"android":"levelo://app?vid=05eb7be6-9d96-421b-af71-eddbdb0da360","ios":"levelo://app?vid=05eb7be6-9d96-421b-af71-eddbdb0da360"},"vehicle_type_id":"4","last_reported":1739103295,"current_range_meters":0,"station_id":"ce4bh112rcd13ifvqda0","pricing_plan_id":"cebpf4jnsgd1na2vs0mg"},{"bike_id":"cfa7f1cc-5150-48ed-843c-f6960ddad1e1","system_id":"levelo_inurba_marseille","lat":43.26485,"lon":5.39559,"is_reserved":false,"is_disabled":true,"rental_uris":{"android":"levelo://app?vid=cfa7f1cc-5150-48ed-843c-f6960ddad1e1","ios":"levelo://app?vid=cfa7f1cc-5150-48ed-843c-f6960ddad1e1"},"vehicle_type_id":"4","last_reported":1739103295,"current_range_meters":9200,"station_id":"ce4bhi12rcd13ifvqfq0","pricing_plan_id":"cebpf4jnsgd1na2vs0mg"},{"bike_id":"fb0e234e-108f-4e2d-9520-e41bff530764","system_id":"levelo_inurba_marseille","lat":43.2466,"lon":5.38151,"is_reserved":false,"is_disabled":false,"rental_uris":{"android":"levelo://app?vid=fb0e234e-108f-4e2d-9520-e41bff530764","ios":"levelo://app?vid=fb0e234e-108f-4e2d-9520-e41bff530764"},"vehicle_type_id":"4","last_reported":1739103295,"current_range_meters":32000,"station_id":"ce4bhih2rcd13ifvqfr0","pricing_plan_id":"cebpf4jnsgd1na2vs0mg"},{"bike_id":"e06bad01-5d50-47d2-96c7-a75ef9dc120d","system_id":"levelo_inurba_marseille","lat":43.33766,"lon":5.37478,"is_reserved":false,"is_disabled":false,"rental_uris":{"android":"levelo://app?vid=e06bad01-5d50-47d2-96c7-a75ef9dc120d","ios":"levelo://app?vid=e06bad01-5d50-47d2-96c7-a75ef9dc120d"},"vehicle_type_id":"4","last_reported":1739103295,"current_range_meters":20800,"station_id":"","pricing_plan_id":"cebpf4jnsgd1na2vs0mg"},{"bike_id":"776aadf6-ee97-4be7-b948-331af9e9d054","system_id":"levelo_inurba_marseille","lat":43.25493,"lon":5.37685,"is_reserved":false,"is_disabled":false,"rental_uris":{"android":"levelo://app?vid=776aadf6-ee97-4be7-b948-331af9e9d054","ios":"levelo://app?vid=776aadf6-ee97-4be7-b948-331af9e9d054"},"vehicle_type_id":"4","last_reported":1739103295,"current_range_meters":16000,"station_id":"ce4bhh12rcd13ifvqff0","pricing_plan_id":"cebpf4jnsgd1na2vs0mg"},{"bike_id":"efa1ea89-c770-425f-828c-677d1cbffb23","system_id":"levelo_inurba_marseille","lat":43.33029,"lon":5.39044,"is_reserved":false,"is_disabled":false,"rental_uris":{"android":"levelo://app?vid=efa1ea89-c770-425f-828c-677d1cbffb23","ios":"levelo://app?vid=efa1ea89-c770-425f-828c-677d1cbffb23"},"vehicle_type_id":"4","last_reported":1739103295,"current_range_meters":39200,"station_id":"ce4bhr92rcd13ifvqhrg","pricing_plan_id":"cebpf4jnsgd1na2vs0mg"},{"bike_id":"9fea41fc-8f0f-48ab-9af0-fa75d6ad7f05","system_id":"levelo_inurba_marseille","lat":43.29581,"lon":5.36741,"is_reserved":false,"is_disabled":false,"rental_uris":{"android":"levelo://app?vid=9fea41fc-8f0f-48ab-9af0-fa75d6ad7f05","ios":"levelo://app?vid=9fea41fc-8f0f-48ab-9af0-fa75d6ad7f05"},"vehicle_type_id":"4","last_reported":1739103295,"current_range_meters":38000,"station_id":"ce4bgph2rcd13ifvqc2g","pricing_plan_id":"cebpf4jnsgd1na2vs0mg"},{"bike_id":"19274cc0-9432-49de-910d-59f02507cb8e","system_id":"levelo_inurba_marseille","lat":43.28935,"lon":5.36383,"is_reserved":false,"is_disabled":false,"rental_uris":{"android":"levelo://app?vid=19274cc0-9432-49de-910d-59f02507cb8e","ios":"levelo://app?vid=19274cc0-9432-49de-910d-59f02507cb8e"},"vehicle_type_id":"4","last_reported":1739103295,"current_range_meters":25200,"station_id":"ce4bhc92rcd13ifvqetg","pricing_plan_id":"cebpf4jnsgd1na2vs0mg"},{"bike_id":"952ab6ee-c71f-431a-a116-28c771dc3a24","system_id":"levelo_inurba_marseille","lat":43.27959,"lon":5.41032,"is_reserved":false,"is_disabled":true,"rental_uris":{"android":"levelo://app?vid=952ab6ee-c71f-431a-a116-28c771dc3a24","ios":"levelo://app?vid=952ab6ee-c71f-431a-a116-28c771dc3a24"},"vehicle_type_id":"4","last_reported":1739103295,"current_range_meters":0,"station_id":"ce4bhnp2rcd13ifvqh0g","pricing_plan_id":"cebpf4jnsgd1na2vs0mg"},{"bike_id":"9240ac61-cc12-4438-b9d5-ba7ba0baa7a9","system_id":"levelo_inurba_marseille","lat":43.26268,"lon":5.37404,"is_reserved":false,"is_disabled":false,"rental_uris":{"android":"levelo://app?vid=9240ac61-cc12-4438-b9d5-ba7ba0baa7a9","ios":"levelo://app?vid=9240ac61-cc12-4438-b9d5-ba7ba0baa7a9"},"vehicle_type_id":"4","last_reported":1739103295,"current_range_meters":16400,"station_id":"ce4bhgp2rcd13ifvqfc0","pricing_plan_id":"cebpf4jnsgd1na2vs0mg"},{"bike_id":"775acb38-5b67-40a7-8531-66c2f856ba4d","system_id":"levelo_inurba_marseille","lat":43.30163,"lon":5.38089,"is_reserved":false,"is_disabled":false,"rental_uris":{"android":"levelo://app?vid=775acb38-5b67-40a7-8531-66c2f856ba4d","ios":"levelo://app?vid=775acb38-5b67-40a7-8531-66c2f856ba4d"},"vehicle_type_id":"4","last_reported":1739103295,"current_range_meters":38800,"station_id":"ce4bgjp2rcd13ifvqbh0","pricing_plan_id":"cebpf4jnsgd1na2vs0mg"},{"bike_id":"1363bcc9-ac62-46aa-9a9a-4d66160c03ac","system_id":"levelo_inurba_marseille","lat":43.27319,"lon":5.39095,"is_reserved":false,"is_disabled":false,"rental_uris":{"android":"levelo://app?vid=1363bcc9-ac62-46aa-9a9a-4d66160c03ac","ios":"levelo://app?vid=1363bcc9-ac62-46aa-9a9a-4d66160c03ac"},"vehicle_type_id":"4","last_reported":1739103295,"current_range_meters":17200,"station_id":"ce4bhgp2rcd13ifvqfe0","pricing_plan_id":"cebpf4jnsgd1na2vs0mg"},{"bike_id":"c98ae867-ed46-49ea-afc8-dc2cf7c227f1","system_id":"levelo_inurba_marseille","lat":43.31328,"lon":5.39692,"is_reserved":false,"is_disabled":false,"rental_uris":{"android":"levelo://app?vid=c98ae867-ed46-49ea-afc8-dc2cf7c227f1","ios":"levelo://app?vid=c98ae867-ed46-49ea-afc8-dc2cf7c227f1"},"vehicle_type_id":"4","last_reported":1739103295,"current_range_meters":30400,"station_id":"ce4bgvp2rcd13ifvqcu0","pricing_plan_id":"cebpf4jnsgd1na2vs0mg"},{"bike_id":"36e53cc6-0052-4492-bb77-b33fe90983d1","system_id":"levelo_inurba_marseille","lat":43.28628,"lon":5.35104,"is_reserved":false,"is_disabled":false,"rental_uris":{"android":"levelo://app?vid=36e53cc6-0052-4492-bb77-b33fe90983d1","ios":"levelo://app?vid=36e53cc6-0052-4492-bb77-b33fe90983d1"},"vehicle_type_id":"4","last_reported":1739103295,"current_range_meters":30400,"station_id":"ce4bhch2rcd13ifvqeug","pricing_plan_id":"cebpf4jnsgd1na2vs0mg"},{"bike_id":"949ecb89-56e4-4c04-a100-83de2f0eaaf9","system_id":"levelo_inurba_marseille","lat":43.27817,"lon":5.40704,"is_reserved":false,"is_disabled":false,"rental_uris":{"android":"levelo://app?vid=949ecb89-56e4-4c04-a100-83de2f0eaaf9","ios":"levelo://app?vid=949ecb89-56e4-4c04-a100-83de2f0eaaf9"},"vehicle_type_id":"4","last_reported":1739103295,"current_range_meters":24800,"station_id":"ce4bhnh2rcd13ifvqgtg","pricing_plan_id":"cebpf4jnsgd1na2vs0mg"},{"bike_id":"6a3bf5dc-6406-4053-977a-019d33b4193c","system_id":"levelo_inurba_marseille","lat":43.28422,"lon":5.37536,"is_reserved":false,"is_disabled":false,"rental_uris":{"android":"levelo://app?vid=6a3bf5dc-6406-4053-977a-019d33b4193c","ios":"levelo://app?vid=6a3bf5dc-6406-4053-977a-019d33b4193c"},"vehicle_type_id":"4","last_reported":1739103295,"current_range_meters":26000,"station_id":"ce4bh412rcd13ifvqds0","pricing_plan_id":"cebpf4jnsgd1na2vs0mg"},{"bike_id":"8ec06531-f19f-4d99-a1a4-6dcbffd70e75","system_id":"levelo_inurba_marseille","lat":43.27564,"lon":5.38414,"is_reserved":false,"is_disabled":false,"rental_uris":{"android":"levelo://app?vid=8ec06531-f19f-4d99-a1a4-6dcbffd70e75","ios":"levelo://app?vid=8ec06531-f19f-4d99-a1a4-6dcbffd70e75"},"vehicle_type_id":"4","last_reported":1739103295,"current_range_meters":31200,"station_id":"ce4bhh92rcd13ifvqfi0","pricing_plan_id":"cebpf4jnsgd1na2vs0mg"},{"bike_id":"a2d4e8c0-22dd-49d9-bea2-846a1d108d9d","system_id":"levelo_inurba_marseille","lat":43.29698,"lon":5.36602,"is_reserved":false,"is_disabled":false,"rental_uris":{"android":"levelo://app?vid=a2d4e8c0-22dd-49d9-bea2-846a1d108d9d","ios":"levelo://app?vid=a2d4e8c0-22dd-49d9-bea2-846a1d108d9d"},"vehicle_type_id":"4","last_reported":1739103295,"current_range_meters":25600,"station_id":"ce4bgn12rcd13ifvqbt0","pricing_plan_id":"cebpf4jnsgd1na2vs0mg"},{"bike_id":"3a6c7e88-b63b-4304-9c98-21f0c50d2d90","system_id":"levelo_inurba_marseille","lat":43.31221,"lon":5.36847,"is_reserved":false,"is_disabled":false,"rental_uris":{"android":"levelo://app?vid=3a6c7e88-b63b-4304-9c98-21f0c50d2d90","ios":"levelo://app?vid=3a6c7e88-b63b-4304-9c98-21f0c50d2d90"},"vehicle_type_id":"4","last_reported":1739103295,"current_range_meters":8400,"station_id":"ce4bgl92rcd13ifvqbq0","pricing_plan_id":"cebpf4jnsgd1na2vs0mg"},{"bike_id":"cc5be222-f5b9-4564-8357-792e36ef3901","system_id":"levelo_inurba_marseille","lat":43.28038,"lon":5.36951,"is_reserved":false,"is_disabled":false,"rental_uris":{"android":"levelo://app?vid=cc5be222-f5b9-4564-8357-792e36ef3901","ios":"levelo://app?vid=cc5be222-f5b9-4564-8357-792e36ef3901"},"vehicle_type_id":"4","last_reported":1739103295,"current_range_meters":38800,"station_id":"ce4bha12rcd13ifvqef0","pricing_plan_id":"cebpf4jnsgd1na2vs0mg"},{"bike_id":"bf1166a6-6d02-4b59-a461-8ee8d9697ddf","system_id":"levelo_inurba_marseille","lat":43.2396,"lon":5.36649,"is_reserved":false,"is_disabled":false,"rental_uris":{"android":"levelo://app?vid=bf1166a6-6d02-4b59-a461-8ee8d9697ddf","ios":"levelo://app?vid=bf1166a6-6d02-4b59-a461-8ee8d9697ddf"},"vehicle_type_id":"4","last_reported":1739103295,"current_range_meters":8800,"station_id":"ce4bhi12rcd13ifvqfp0","pricing_plan_id":"cebpf4jnsgd1na2vs0mg"},{"bike_id":"84632040-162e-400f-b949-c724d6e1e087","system_id":"levelo_inurba_marseille","lat":43.26199,"lon":5.37446,"is_reserved":false,"is_disabled":false,"rental_uris":{"android":"levelo://app?vid=84632040-162e-400f-b949-c724d6e1e087","ios":"levelo://app?vid=84632040-162e-400f-b949-c724d6e1e087"},"vehicle_type_id":"4","last_reported":1739103295,"current_range_meters":26800,"station_id":"ce4bhgp2rcd13ifvqfc0","pricing_plan_id":"cebpf4jnsgd1na2vs0mg"},{"bike_id":"c7214087-f338-4aa0-87d4-4c782ee32a35","system_id":"levelo_inurba_marseille","lat":43.23961,"lon":5.36642,"is_reserved":false,"is_disabled":false,"rental_uris":{"android":"levelo://app?vid=c7214087-f338-4aa0-87d4-4c782ee32a35","ios":"levelo://app?vid=c7214087-f338-4aa0-87d4-4c782ee32a35"},"vehicle_type_id":"4","last_reported":1739103295,"current_range_meters":12000,"station_id":"ce4bhi12rcd13ifvqfp0","pricing_plan_id":"cebpf4jnsgd1na2vs0mg"},{"bike_id":"9232cd87-0823-43a9-b923-e060fb0c5759","system_id":"levelo_inurba_marseille","lat":43.29555,"lon":5.42301,"is_reserved":false,"is_disabled":false,"rental_uris":{"android":"levelo://app?vid=9232cd87-0823-43a9-b923-e060fb0c5759","ios":"levelo://app?vid=9232cd87-0823-43a9-b923-e060fb0c5759"},"vehicle_type_id":"4","last_reported":1739103295,"current_range_meters":37600,"station_id":"ce4bhph2rcd13ifvqhdg","pricing_plan_id":"cebpf4jnsgd1na2vs0mg"},{"bike_id":"d4487369-0195-444c-afeb-c4fba3a9e41f","system_id":"levelo_inurba_marseille","lat":43.23963,"lon":5.36636,"is_reserved":false,"is_disabled":false,"rental_uris":{"android":"levelo://app?vid=d4487369-0195-444c-afeb-c4fba3a9e41f","ios":"levelo://app?vid=d4487369-0195-444c-afeb-c4fba3a9e41f"},"vehicle_type_id":"4","last_reported":1739103295,"current_range_meters":12400,"station_id":"ce4bhi12rcd13ifvqfp0","pricing_plan_id":"cebpf4jnsgd1na2vs0mg"},{"bike_id":"1b91739e-6bd2-4273-8c8f-c0534d5b551b","system_id":"levelo_inurba_marseille","lat":43.23964,"lon":5.36625,"is_reserved":false,"is_disabled":false,"rental_uris":{"android":"levelo://app?vid=1b91739e-6bd2-4273-8c8f-c0534d5b551b","ios":"levelo://app?vid=1b91739e-6bd2-4273-8c8f-c0534d5b551b"},"vehicle_type_id":"4","last_reported":1739103295,"current_range_meters":29600,"station_id":"ce4bhi12rcd13ifvqfp0","pricing_plan_id":"cebpf4jnsgd1na2vs0mg"},{"bike_id":"8055405a-4747-4bdd-94d4-2b5afab82475","system_id":"levelo_inurba_marseille","lat":43.28096,"lon":5.37856,"is_reserved":false,"is_disabled":false,"rental_uris":{"android":"levelo://app?vid=8055405a-4747-4bdd-94d4-2b5afab82475","ios":"levelo://app?vid=8055405a-4747-4bdd-94d4-2b5afab82475"},"vehicle_type_id":"4","last_reported":1739103295,"current_range_meters":17600,"station_id":"ce4bha12rcd13ifvqee0","pricing_plan_id":"cebpf4jnsgd1na2vs0mg"},{"bike_id":"131a231e-f87b-4a19-b215-3c107c31e242","system_id":"levelo_inurba_marseille","lat":43.27372,"lon":5.39118,"is_reserved":false,"is_disabled":false,"rental_uris":{"android":"levelo://app?vid=131a231e-f87b-4a19-b215-3c107c31e242","ios":"levelo://app?vid=131a231e-f87b-4a19-b215-3c107c31e242"},"vehicle_type_id":"4","last_reported":1739103295,"current_range_meters":27600,"station_id":"ce4bhgp2rcd13ifvqfe0","pricing_plan_id":"cebpf4jnsgd1na2vs0mg"},{"bike_id":"e0de3e4d-b8ee-4dbf-8326-ce3719792655","system_id":"levelo_inurba_marseille","lat":43.25579,"lon":5.38239,"is_reserved":false,"is_disabled":false,"rental_uris":{"android":"levelo://app?vid=e0de3e4d-b8ee-4dbf-8326-ce3719792655","ios":"levelo://app?vid=e0de3e4d-b8ee-4dbf-8326-ce3719792655"},"vehicle_type_id":"4","last_reported":1739103295,"current_range_meters":18800,"station_id":"ce4bhih2rcd13ifvqfs0","pricing_plan_id":"cebpf4jnsgd1na2vs0mg"},{"bike_id":"2d6a2e4c-47bb-4bf8-8e22-1e9c987f8b16","system_id":"levelo_inurba_marseille","lat":43.23969,"lon":5.36634,"is_reserved":false,"is_disabled":false,"rental_uris":{"android":"levelo://app?vid=2d6a2e4c-47bb-4bf8-8e22-1e9c987f8b16","ios":"levelo://app?vid=2d6a2e4c-47bb-4bf8-8e22-1e9c987f8b16"},"vehicle_type_id":"4","last_reported":1739103295,"current_range_meters":8000,"station_id":"ce4bhi12rcd13ifvqfp0","pricing_plan_id":"cebpf4jnsgd1na2vs0mg"},{"bike_id":"c196e166-e8fe-4556-a530-0d3c1a963fe3","system_id":"levelo_inurba_marseille","lat":43.2969,"lon":5.37299,"is_reserved":false,"is_disabled":false,"rental_uris":{"android":"levelo://app?vid=c196e166-e8fe-4556-a530-0d3c1a963fe3","ios":"levelo://app?vid=c196e166-e8fe-4556-a530-0d3c1a963fe3"},"vehicle_type_id":"4","last_reported":1739103295,"current_range_meters":33600,"station_id":"ce4bgk12rcd13ifvqbj0","pricing_plan_id":"cebpf4jnsgd1na2vs0mg"},{"bike_id":"48483b79-018d-42ae-93fe-ee72254ddcd6","system_id":"levelo_inurba_marseille","lat":43.30219,"lon":5.39068,"is_reserved":false,"is_disabled":false,"rental_uris":{"android":"levelo://app?vid=48483b79-018d-42ae-93fe-ee72254ddcd6","ios":"levelo://app?vid=48483b79-018d-42ae-93fe-ee72254ddcd6"},"vehicle_type_id":"4","last_reported":1739103295,"current_range_meters":28000,"station_id":"ce4bgqh2rcd13ifvqc4g","pricing_plan_id":"cebpf4jnsgd1na2vs0mg"},{"bike_id":"caf26979-fb1e-40fc-9542-2d73cd945194","system_id":"levelo_inurba_marseille","lat":43.29726,"lon":5.36581,"is_reserved":false,"is_disabled":false,"rental_uris":{"android":"levelo://app?vid=caf26979-fb1e-40fc-9542-2d73cd945194","ios":"levelo://app?vid=caf26979-fb1e-40fc-9542-2d73cd945194"},"vehicle_type_id":"4","last_reported":1739103295,"current_range_meters":10800,"station_id":"ce4bgn12rcd13ifvqbt0","pricing_plan_id":"cebpf4jnsgd1na2vs0mg"},{"bike_id":"098d220b-e449-43ea-8d6d-9fc78e0abad9","system_id":"levelo_inurba_marseille","lat":43.2293,"lon":5.35383,"is_reserved":false,"is_disabled":false,"rental_uris":{"android":"levelo://app?vid=098d220b-e449-43ea-8d6d-9fc78e0abad9","ios":"levelo://app?vid=098d220b-e449-43ea-8d6d-9fc78e0abad9"},"vehicle_type_id":"4","last_reported":1739103295,"current_range_meters":38800,"station_id":"cpo3532slgdg3j2ikp40","pricing_plan_id":"cebpf4jnsgd1na2vs0mg"},{"bike_id":"206b044f-638d-4c7a-aa69-bbee71179c84","system_id":"levelo_inurba_marseille","lat":43.29355,"lon":5.37862,"is_reserved":false,"is_disabled":false,"rental_uris":{"android":"levelo://app?vid=206b044f-638d-4c7a-aa69-bbee71179c84","ios":"levelo://app?vid=206b044f-638d-4c7a-aa69-bbee71179c84"},"vehicle_type_id":"4","last_reported":1739103295,"current_range_meters":38000,"station_id":"ce4bgjh2rcd13ifvqbf0","pricing_plan_id":"cebpf4jnsgd1na2vs0mg"},{"bike_id":"08ed4501-1b89-4dd5-9c5b-8cada105c494","system_id":"levelo_inurba_marseille","lat":43.28991,"lon":5.35607,"is_reserved":false,"is_disabled":false,"rental_uris":{"android":"levelo://app?vid=08ed4501-1b89-4dd5-9c5b-8cada105c494","ios":"levelo://app?vid=08ed4501-1b89-4dd5-9c5b-8cada105c494"},"vehicle_type_id":"4","last_reported":1739103295,"current_range_meters":26800,"station_id":"ce4bhb92rcd13ifvqen0","pricing_plan_id":"cebpf4jnsgd1na2vs0mg"},{"bike_id":"6e4211e5-f61d-48a8-9a3a-370ad923a5ac","system_id":"levelo_inurba_marseille","lat":43.25083,"lon":5.39506,"is_reserved":false,"is_disabled":false,"rental_uris":{"android":"levelo://app?vid=6e4211e5-f61d-48a8-9a3a-370ad923a5ac","ios":"levelo://app?vid=6e4211e5-f61d-48a8-9a3a-370ad923a5ac"},"vehicle_type_id":"4","last_reported":1739103295,"current_range_meters":29600,"station_id":"ce4bhm12rcd13ifvqgkg","pricing_plan_id":"cebpf4jnsgd1na2vs0mg"},{"bike_id":"156ea94b-36f5-4ee3-b1b2-16c507ebbc8e","system_id":"levelo_inurba_marseille","lat":43.23964,"lon":5.36634,"is_reserved":false,"is_disabled":false,"rental_uris":{"android":"levelo://app?vid=156ea94b-36f5-4ee3-b1b2-16c507ebbc8e","ios":"levelo://app?vid=156ea94b-36f5-4ee3-b1b2-16c507ebbc8e"},"vehicle_type_id":"4","last_reported":1739103295,"current_range_meters":35200,"station_id":"ce4bhi12rcd13ifvqfp0","pricing_plan_id":"cebpf4jnsgd1na2vs0mg"},{"bike_id":"109d8d07-d605-45c4-912d-3e7b38f9a9ae","system_id":"levelo_inurba_marseille","lat":43.24167,"lon":5.36406,"is_reserved":false,"is_disabled":false,"rental_uris":{"android":"levelo://app?vid=109d8d07-d605-45c4-912d-3e7b38f9a9ae","ios":"levelo://app?vid=109d8d07-d605-45c4-912d-3e7b38f9a9ae"},"vehicle_type_id":"4","last_reported":1739103295,"current_range_meters":9200,"station_id":"cpo36qri1sfpv3e86is0","pricing_plan_id":"cebpf4jnsgd1na2vs0mg"},{"bike_id":"25942210-cb49-4e7b-986a-27edd939ad3b","system_id":"levelo_inurba_marseille","lat":43.28995,"lon":5.35625,"is_reserved":false,"is_disabled":false,"rental_uris":{"android":"levelo://app?vid=25942210-cb49-4e7b-986a-27edd939ad3b","ios":"levelo://app?vid=25942210-cb49-4e7b-986a-27edd939ad3b"},"vehicle_type_id":"4","last_reported":1739103295,"current_range_meters":38800,"station_id":"ce4bhb92rcd13ifvqen0","pricing_plan_id":"cebpf4jnsgd1na2vs0mg"},{"bike_id":"2ebd233c-fd15-4f13-9700-c155c053523f","system_id":"levelo_inurba_marseille","lat":43.25931,"lon":5.40891,"is_reserved":false,"is_disabled":true,"rental_uris":{"android":"levelo://app?vid=2ebd233c-fd15-4f13-9700-c155c053523f","ios":"levelo://app?vid=2ebd233c-fd15-4f13-9700-c155c053523f"},"vehicle_type_id":"4","last_reported":1739103295,"current_range_meters":18800,"station_id":"ce4bhm92rcd13ifvqglg","pricing_plan_id":"cebpf4jnsgd1na2vs0mg"},{"bike_id":"b76b80a4-ff95-4c8b-ba39-e983a8872cf2","system_id":"levelo_inurba_marseille","lat":43.30164,"lon":5.38088,"is_reserved":false,"is_disabled":false,"rental_uris":{"android":"levelo://app?vid=b76b80a4-ff95-4c8b-ba39-e983a8872cf2","ios":"levelo://app?vid=b76b80a4-ff95-4c8b-ba39-e983a8872cf2"},"vehicle_type_id":"4","last_reported":1739103295,"current_range_meters":30400,"station_id":"ce4bgjp2rcd13ifvqbh0","pricing_plan_id":"cebpf4jnsgd1na2vs0mg"},{"bike_id":"578610f3-4953-4a37-ac19-cd0bad477923","system_id":"levelo_inurba_marseille","lat":43.31311,"lon":5.39665,"is_reserved":false,"is_disabled":false,"rental_uris":{"android":"levelo://app?vid=578610f3-4953-4a37-ac19-cd0bad477923","ios":"levelo://app?vid=578610f3-4953-4a37-ac19-cd0bad477923"},"vehicle_type_id":"4","last_reported":1739103295,"current_range_meters":26000,"station_id":"ce4bgvp2rcd13ifvqcu0","pricing_plan_id":"cebpf4jnsgd1na2vs0mg"},{"bike_id":"8fdc9d99-5dd6-46ed-933b-a92898878e61","system_id":"levelo_inurba_marseille","lat":43.280998,"lon":5.37865,"is_reserved":false,"is_disabled":false,"rental_uris":{"android":"levelo://app?vid=8fdc9d99-5dd6-46ed-933b-a92898878e61","ios":"levelo://app?vid=8fdc9d99-5dd6-46ed-933b-a92898878e61"},"vehicle_type_id":"4","last_reported":1739103295,"current_range_meters":38800,"station_id":"ce4bha12rcd13ifvqee0","pricing_plan_id":"cebpf4jnsgd1na2vs0mg"},{"bike_id":"c13ae62e-d5d6-4d3f-b979-0be4fe4644ed","system_id":"levelo_inurba_marseille","lat":43.24659,"lon":5.38273,"is_reserved":false,"is_disabled":false,"rental_uris":{"android":"levelo://app?vid=c13ae62e-d5d6-4d3f-b979-0be4fe4644ed","ios":"levelo://app?vid=c13ae62e-d5d6-4d3f-b979-0be4fe4644ed"},"vehicle_type_id":"4","last_reported":1739103295,"current_range_meters":16000,"station_id":"ce4bhih2rcd13ifvqfr0","pricing_plan_id":"cebpf4jnsgd1na2vs0mg"},{"bike_id":"52903de9-70f0-4e1d-962c-f2dd54b59ea4","system_id":"levelo_inurba_marseille","lat":43.2872,"lon":5.36084,"is_reserved":false,"is_disabled":false,"rental_uris":{"android":"levelo://app?vid=52903de9-70f0-4e1d-962c-f2dd54b59ea4","ios":"levelo://app?vid=52903de9-70f0-4e1d-962c-f2dd54b59ea4"},"vehicle_type_id":"4","last_reported":1739103295,"current_range_meters":28000,"station_id":"cki0cbj6b192h4jlfktg","pricing_plan_id":"cebpf4jnsgd1na2vs0mg"},{"bike_id":"84f159e2-b4af-4eaf-9957-1f13cad660e4","system_id":"levelo_inurba_marseille","lat":43.31177,"lon":5.38716,"is_reserved":false,"is_disabled":false,"rental_uris":{"android":"levelo://app?vid=84f159e2-b4af-4eaf-9957-1f13cad660e4","ios":"levelo://app?vid=84f159e2-b4af-4eaf-9957-1f13cad660e4"},"vehicle_type_id":"4","last_reported":1739103295,"current_range_meters":26000,"station_id":"ce4bgv12rcd13ifvqcp0","pricing_plan_id":"cebpf4jnsgd1na2vs0mg"},{"bike_id":"a5a002b6-a257-47c5-aa17-011a49f423c9","system_id":"levelo_inurba_marseille","lat":43.25579,"lon":5.38236,"is_reserved":false,"is_disabled":false,"rental_uris":{"android":"levelo://app?vid=a5a002b6-a257-47c5-aa17-011a49f423c9","ios":"levelo://app?vid=a5a002b6-a257-47c5-aa17-011a49f423c9"},"vehicle_type_id":"4","last_reported":1739103295,"current_range_meters":25600,"station_id":"ce4bhih2rcd13ifvqfs0","pricing_plan_id":"cebpf4jnsgd1na2vs0mg"},{"bike_id":"1d9b9c9d-363a-40b7-904e-bb37859e7849","system_id":"levelo_inurba_marseille","lat":43.248035,"lon":5.374851,"is_reserved":false,"is_disabled":false,"rental_uris":{"android":"levelo://app?vid=1d9b9c9d-363a-40b7-904e-bb37859e7849","ios":"levelo://app?vid=1d9b9c9d-363a-40b7-904e-bb37859e7849"},"vehicle_type_id":"4","last_reported":1739103295,"current_range_meters":24400,"station_id":"ce4bhgh2rcd13ifvqfb0","pricing_plan_id":"cebpf4jnsgd1na2vs0mg"},{"bike_id":"0e21fd9b-c8ed-40f7-93de-fef88c8b1a35","system_id":"levelo_inurba_marseille","lat":43.230562,"lon":5.35492,"is_reserved":false,"is_disabled":false,"rental_uris":{"android":"levelo://app?vid=0e21fd9b-c8ed-40f7-93de-fef88c8b1a35","ios":"levelo://app?vid=0e21fd9b-c8ed-40f7-93de-fef88c8b1a35"},"vehicle_type_id":"4","last_reported":1739103295,"current_range_meters":38000,"station_id":"cpo3342slgdg3j2ifvpg","pricing_plan_id":"cebpf4jnsgd1na2vs0mg"},{"bike_id":"21d898ed-92c5-464c-963a-ac66ea2225fd","system_id":"levelo_inurba_marseille","lat":43.286242,"lon":5.351038,"is_reserved":false,"is_disabled":false,"rental_uris":{"android":"levelo://app?vid=21d898ed-92c5-464c-963a-ac66ea2225fd","ios":"levelo://app?vid=21d898ed-92c5-464c-963a-ac66ea2225fd"},"vehicle_type_id":"4","last_reported":1739103295,"current_range_meters":28400,"station_id":"ce4bhch2rcd13ifvqeug","pricing_plan_id":"cebpf4jnsgd1na2vs0mg"},{"bike_id":"89912e32-c5f0-448f-82d2-e236e4d6d653","system_id":"levelo_inurba_marseille","lat":43.2826,"lon":5.40785,"is_reserved":false,"is_disabled":true,"rental_uris":{"android":"levelo://app?vid=89912e32-c5f0-448f-82d2-e236e4d6d653","ios":"levelo://app?vid=89912e32-c5f0-448f-82d2-e236e4d6d653"},"vehicle_type_id":"4","last_reported":1739103295,"current_range_meters":0,"station_id":"","pricing_plan_id":"cebpf4jnsgd1na2vs0mg"},{"bike_id":"e7e14db6-3bef-453a-aab6-06ade3cdd6b0","system_id":"levelo_inurba_marseille","lat":43.24397,"lon":5.44108,"is_reserved":false,"is_disabled":true,"rental_uris":{"android":"levelo://app?vid=e7e14db6-3bef-453a-aab6-06ade3cdd6b0","ios":"levelo://app?vid=e7e14db6-3bef-453a-aab6-06ade3cdd6b0"},"vehicle_type_id":"4","last_reported":1739103295,"current_range_meters":0,"station_id":"","pricing_plan_id":"cebpf4jnsgd1na2vs0mg"},{"bike_id":"da760776-bbdd-4e56-9867-4f9119d697fa","system_id":"levelo_inurba_marseille","lat":43.29874,"lon":5.39749,"is_reserved":false,"is_disabled":false,"rental_uris":{"android":"levelo://app?vid=da760776-bbdd-4e56-9867-4f9119d697fa","ios":"levelo://app?vid=da760776-bbdd-4e56-9867-4f9119d697fa"},"vehicle_type_id":"4","last_reported":1739103295,"current_range_meters":37600,"station_id":"ce4bh0h2rcd13ifvqd50","pricing_plan_id":"cebpf4jnsgd1na2vs0mg"},{"bike_id":"fb5a704f-a51b-458c-a6e9-f5586a789b94","system_id":"levelo_inurba_marseille","lat":43.24173,"lon":5.36398,"is_reserved":false,"is_disabled":false,"rental_uris":{"android":"levelo://app?vid=fb5a704f-a51b-458c-a6e9-f5586a789b94","ios":"levelo://app?vid=fb5a704f-a51b-458c-a6e9-f5586a789b94"},"vehicle_type_id":"4","last_reported":1739103295,"current_range_meters":34000,"station_id":"cpo36qri1sfpv3e86is0","pricing_plan_id":"cebpf4jnsgd1na2vs0mg"},{"bike_id":"badda3c4-70ef-41fb-b835-c3b6b3ba2d76","system_id":"levelo_inurba_marseille","lat":43.26493,"lon":5.39589,"is_reserved":false,"is_disabled":false,"rental_uris":{"android":"levelo://app?vid=badda3c4-70ef-41fb-b835-c3b6b3ba2d76","ios":"levelo://app?vid=badda3c4-70ef-41fb-b835-c3b6b3ba2d76"},"vehicle_type_id":"4","last_reported":1739103295,"current_range_meters":34800,"station_id":"ce4bhi12rcd13ifvqfq0","pricing_plan_id":"cebpf4jnsgd1na2vs0mg"},{"bike_id":"ab54e2d0-4c2c-486a-84c7-811ed9008ddc","system_id":"levelo_inurba_marseille","lat":43.2797,"lon":5.42369,"is_reserved":false,"is_disabled":true,"rental_uris":{"android":"levelo://app?vid=ab54e2d0-4c2c-486a-84c7-811ed9008ddc","ios":"levelo://app?vid=ab54e2d0-4c2c-486a-84c7-811ed9008ddc"},"vehicle_type_id":"4","last_reported":1739103295,"current_range_meters":0,"station_id":"","pricing_plan_id":"cebpf4jnsgd1na2vs0mg"},{"bike_id":"04e9976f-fc67-4b3f-9a5f-08268a5eb49c","system_id":"levelo_inurba_marseille","lat":43.294166,"lon":5.386193,"is_reserved":false,"is_disabled":true,"rental_uris":{"android":"levelo://app?vid=04e9976f-fc67-4b3f-9a5f-08268a5eb49c","ios":"levelo://app?vid=04e9976f-fc67-4b3f-9a5f-08268a5eb49c"},"vehicle_type_id":"4","last_reported":1739103295,"current_range_meters":36800,"station_id":"ce4bh2h2rcd13ifvqdh0","pricing_plan_id":"cebpf4jnsgd1na2vs0mg"},{"bike_id":"c446fe99-7ab5-4250-9743-1aee425c6247","system_id":"levelo_inurba_marseille","lat":43.25575,"lon":5.38253,"is_reserved":false,"is_disabled":false,"rental_uris":{"android":"levelo://app?vid=c446fe99-7ab5-4250-9743-1aee425c6247","ios":"levelo://app?vid=c446fe99-7ab5-4250-9743-1aee425c6247"},"vehicle_type_id":"4","last_reported":1739103295,"current_range_meters":25200,"station_id":"ce4bhih2rcd13ifvqfs0","pricing_plan_id":"cebpf4jnsgd1na2vs0mg"},{"bike_id":"c68163ed-9542-4ac1-a2e7-7b48ec52b60f","system_id":"levelo_inurba_marseille","lat":43.29046,"lon":5.39954,"is_reserved":false,"is_disabled":true,"rental_uris":{"android":"levelo://app?vid=c68163ed-9542-4ac1-a2e7-7b48ec52b60f","ios":"levelo://app?vid=c68163ed-9542-4ac1-a2e7-7b48ec52b60f"},"vehicle_type_id":"4","last_reported":1739103295,"current_range_meters":38400,"station_id":"ce4bh392rcd13ifvqdm0","pricing_plan_id":"cebpf4jnsgd1na2vs0mg"},{"bike_id":"b5135d91-2dbc-4326-bda2-20e06e74cbe2","system_id":"levelo_inurba_marseille","lat":43.29584,"lon":5.37026,"is_reserved":false,"is_disabled":false,"rental_uris":{"android":"levelo://app?vid=b5135d91-2dbc-4326-bda2-20e06e74cbe2","ios":"levelo://app?vid=b5135d91-2dbc-4326-bda2-20e06e74cbe2"},"vehicle_type_id":"4","last_reported":1739103295,"current_range_meters":16400,"station_id":"","pricing_plan_id":"cebpf4jnsgd1na2vs0mg"},{"bike_id":"6835673f-f138-4499-8bdd-83c3f3bccf33","system_id":"levelo_inurba_marseille","lat":43.27987,"lon":5.40048,"is_reserved":false,"is_disabled":false,"rental_uris":{"android":"levelo://app?vid=6835673f-f138-4499-8bdd-83c3f3bccf33","ios":"levelo://app?vid=6835673f-f138-4499-8bdd-83c3f3bccf33"},"vehicle_type_id":"4","last_reported":1739103295,"current_range_meters":30000,"station_id":"ce4bho92rcd13ifvqh4g","pricing_plan_id":"cebpf4jnsgd1na2vs0mg"},{"bike_id":"bb1bab95-412e-41ba-879a-c483b6ec0924","system_id":"levelo_inurba_marseille","lat":43.278203,"lon":5.407241,"is_reserved":false,"is_disabled":false,"rental_uris":{"android":"levelo://app?vid=bb1bab95-412e-41ba-879a-c483b6ec0924","ios":"levelo://app?vid=bb1bab95-412e-41ba-879a-c483b6ec0924"},"vehicle_type_id":"4","last_reported":1739103295,"current_range_meters":9200,"station_id":"ce4bhnh2rcd13ifvqgtg","pricing_plan_id":"cebpf4jnsgd1na2vs0mg"},{"bike_id":"6e358927-ff7d-49ba-8b74-937ec069bd4e","system_id":"levelo_inurba_marseille","lat":43.286204,"lon":5.351026,"is_reserved":false,"is_disabled":false,"rental_uris":{"android":"levelo://app?vid=6e358927-ff7d-49ba-8b74-937ec069bd4e","ios":"levelo://app?vid=6e358927-ff7d-49ba-8b74-937ec069bd4e"},"vehicle_type_id":"4","last_reported":1739103295,"current_range_meters":16800,"station_id":"ce4bhch2rcd13ifvqeug","pricing_plan_id":"cebpf4jnsgd1na2vs0mg"},{"bike_id":"6a58dd11-a579-4519-84ef-72d462a0e689","system_id":"levelo_inurba_marseille","lat":43.32646,"lon":5.42861,"is_reserved":false,"is_disabled":false,"rental_uris":{"android":"levelo://app?vid=6a58dd11-a579-4519-84ef-72d462a0e689","ios":"levelo://app?vid=6a58dd11-a579-4519-84ef-72d462a0e689"},"vehicle_type_id":"4","last_reported":1739103295,"current_range_meters":16400,"station_id":"","pricing_plan_id":"cebpf4jnsgd1na2vs0mg"},{"bike_id":"3600cf6e-b370-46a9-a53c-871abbc03398","system_id":"levelo_inurba_marseille","lat":43.28268,"lon":5.35077,"is_reserved":false,"is_disabled":true,"rental_uris":{"android":"levelo://app?vid=3600cf6e-b370-46a9-a53c-871abbc03398","ios":"levelo://app?vid=3600cf6e-b370-46a9-a53c-871abbc03398"},"vehicle_type_id":"4","last_reported":1739103295,"current_range_meters":6400,"station_id":"ce4bhbp2rcd13ifvqerg","pricing_plan_id":"cebpf4jnsgd1na2vs0mg"},{"bike_id":"9ee17cc6-94b6-42f9-a180-22e25ec3ed8d","system_id":"levelo_inurba_marseille","lat":43.2871,"lon":5.37378,"is_reserved":false,"is_disabled":true,"rental_uris":{"android":"levelo://app?vid=9ee17cc6-94b6-42f9-a180-22e25ec3ed8d","ios":"levelo://app?vid=9ee17cc6-94b6-42f9-a180-22e25ec3ed8d"},"vehicle_type_id":"4","last_reported":1739103295,"current_range_meters":8800,"station_id":"ce4bh3p2rcd13ifvqdq0","pricing_plan_id":"cebpf4jnsgd1na2vs0mg"},{"bike_id":"599ac96d-0531-436c-8d87-3a3fbbacb74c","system_id":"levelo_inurba_marseille","lat":43.23073,"lon":5.43697,"is_reserved":false,"is_disabled":true,"rental_uris":{"android":"levelo://app?vid=599ac96d-0531-436c-8d87-3a3fbbacb74c","ios":"levelo://app?vid=599ac96d-0531-436c-8d87-3a3fbbacb74c"},"vehicle_type_id":"4","last_reported":1739103295,"current_range_meters":800,"station_id":"ce4bhmp2rcd13ifvqgog","pricing_plan_id":"cebpf4jnsgd1na2vs0mg"},{"bike_id":"a56ddd66-7610-4b94-beb2-83224404b398","system_id":"levelo_inurba_marseille","lat":43.32116,"lon":5.3677,"is_reserved":false,"is_disabled":false,"rental_uris":{"android":"levelo://app?vid=a56ddd66-7610-4b94-beb2-83224404b398","ios":"levelo://app?vid=a56ddd66-7610-4b94-beb2-83224404b398"},"vehicle_type_id":"4","last_reported":1739103295,"current_range_meters":36800,"station_id":"ce4bhrh2rcd13ifvqhug","pricing_plan_id":"cebpf4jnsgd1na2vs0mg"},{"bike_id":"e8b7cbed-fad1-419f-9c2a-669ed36174e5","system_id":"levelo_inurba_marseille","lat":43.29711,"lon":5.36583,"is_reserved":false,"is_disabled":false,"rental_uris":{"android":"levelo://app?vid=e8b7cbed-fad1-419f-9c2a-669ed36174e5","ios":"levelo://app?vid=e8b7cbed-fad1-419f-9c2a-669ed36174e5"},"vehicle_type_id":"4","last_reported":1739103295,"current_range_meters":36000,"station_id":"ce4bgn12rcd13ifvqbt0","pricing_plan_id":"cebpf4jnsgd1na2vs0mg"},{"bike_id":"6e55f6b2-de3d-41aa-9621-b9d4915806e6","system_id":"levelo_inurba_marseille","lat":43.28258,"lon":5.35072,"is_reserved":false,"is_disabled":false,"rental_uris":{"android":"levelo://app?vid=6e55f6b2-de3d-41aa-9621-b9d4915806e6","ios":"levelo://app?vid=6e55f6b2-de3d-41aa-9621-b9d4915806e6"},"vehicle_type_id":"4","last_reported":1739103295,"current_range_meters":31200,"station_id":"ce4bhbp2rcd13ifvqerg","pricing_plan_id":"cebpf4jnsgd1na2vs0mg"},{"bike_id":"c7e188dc-da0a-41c9-a6f2-335dbe6c5b96","system_id":"levelo_inurba_marseille","lat":43.30383,"lon":5.37684,"is_reserved":false,"is_disabled":false,"rental_uris":{"android":"levelo://app?vid=c7e188dc-da0a-41c9-a6f2-335dbe6c5b96","ios":"levelo://app?vid=c7e188dc-da0a-41c9-a6f2-335dbe6c5b96"},"vehicle_type_id":"4","last_reported":1739103295,"current_range_meters":38800,"station_id":"ce4bguh2rcd13ifvqcj0","pricing_plan_id":"cebpf4jnsgd1na2vs0mg"},{"bike_id":"7ef9a74b-edf1-4395-923d-d8360f9ba4db","system_id":"levelo_inurba_marseille","lat":43.30421,"lon":5.41287,"is_reserved":false,"is_disabled":false,"rental_uris":{"android":"levelo://app?vid=7ef9a74b-edf1-4395-923d-d8360f9ba4db","ios":"levelo://app?vid=7ef9a74b-edf1-4395-923d-d8360f9ba4db"},"vehicle_type_id":"4","last_reported":1739103295,"current_range_meters":15200,"station_id":"ce4bhop2rcd13ifvqh8g","pricing_plan_id":"cebpf4jnsgd1na2vs0mg"},{"bike_id":"187375a2-49e4-46d1-b02c-429ac3db4d24","system_id":"levelo_inurba_marseille","lat":43.2862,"lon":5.35107,"is_reserved":false,"is_disabled":false,"rental_uris":{"android":"levelo://app?vid=187375a2-49e4-46d1-b02c-429ac3db4d24","ios":"levelo://app?vid=187375a2-49e4-46d1-b02c-429ac3db4d24"},"vehicle_type_id":"4","last_reported":1739103295,"current_range_meters":24000,"station_id":"ce4bhch2rcd13ifvqeug","pricing_plan_id":"cebpf4jnsgd1na2vs0mg"},{"bike_id":"3d54c931-f1b9-42ec-be28-13d06ff7ef2d","system_id":"levelo_inurba_marseille","lat":43.3046,"lon":5.37912,"is_reserved":false,"is_disabled":false,"rental_uris":{"android":"levelo://app?vid=3d54c931-f1b9-42ec-be28-13d06ff7ef2d","ios":"levelo://app?vid=3d54c931-f1b9-42ec-be28-13d06ff7ef2d"},"vehicle_type_id":"4","last_reported":1739103295,"current_range_meters":31200,"station_id":"ce4bgup2rcd13ifvqcn0","pricing_plan_id":"cebpf4jnsgd1na2vs0mg"},{"bike_id":"0ccae692-16fa-48e3-88e0-236b5491d838","system_id":"levelo_inurba_marseille","lat":43.33732,"lon":5.39196,"is_reserved":false,"is_disabled":false,"rental_uris":{"android":"levelo://app?vid=0ccae692-16fa-48e3-88e0-236b5491d838","ios":"levelo://app?vid=0ccae692-16fa-48e3-88e0-236b5491d838"},"vehicle_type_id":"4","last_reported":1739103295,"current_range_meters":39200,"station_id":"ce4bhr92rcd13ifvqhsg","pricing_plan_id":"cebpf4jnsgd1na2vs0mg"},{"bike_id":"c5b8b027-9bf6-441c-a68a-dc9052c14d78","system_id":"levelo_inurba_marseille","lat":43.25582,"lon":5.38241,"is_reserved":false,"is_disabled":false,"rental_uris":{"android":"levelo://app?vid=c5b8b027-9bf6-441c-a68a-dc9052c14d78","ios":"levelo://app?vid=c5b8b027-9bf6-441c-a68a-dc9052c14d78"},"vehicle_type_id":"4","last_reported":1739103295,"current_range_meters":14800,"station_id":"ce4bhih2rcd13ifvqfs0","pricing_plan_id":"cebpf4jnsgd1na2vs0mg"},{"bike_id":"fb4ff991-8c44-4e6e-9881-23d19b1c7472","system_id":"levelo_inurba_marseille","lat":43.29084,"lon":5.38166,"is_reserved":false,"is_disabled":true,"rental_uris":{"android":"levelo://app?vid=fb4ff991-8c44-4e6e-9881-23d19b1c7472","ios":"levelo://app?vid=fb4ff991-8c44-4e6e-9881-23d19b1c7472"},"vehicle_type_id":"4","last_reported":1739103295,"current_range_meters":36400,"station_id":"ce4bh512rcd13ifvqe2g","pricing_plan_id":"cebpf4jnsgd1na2vs0mg"},{"bike_id":"11462a5d-f3b5-4ed0-8ffe-90ff24433c8c","system_id":"levelo_inurba_marseille","lat":43.28414,"lon":5.34995,"is_reserved":false,"is_disabled":false,"rental_uris":{"android":"levelo://app?vid=11462a5d-f3b5-4ed0-8ffe-90ff24433c8c","ios":"levelo://app?vid=11462a5d-f3b5-4ed0-8ffe-90ff24433c8c"},"vehicle_type_id":"4","last_reported":1739103295,"current_range_meters":26000,"station_id":"ce4bhbh2rcd13ifvqepg","pricing_plan_id":"cebpf4jnsgd1na2vs0mg"},{"bike_id":"d9e6dff6-132b-4d19-a26e-1c2ac101b6b5","system_id":"levelo_inurba_marseille","lat":43.27205,"lon":5.39189,"is_reserved":false,"is_disabled":false,"rental_uris":{"android":"levelo://app?vid=d9e6dff6-132b-4d19-a26e-1c2ac101b6b5","ios":"levelo://app?vid=d9e6dff6-132b-4d19-a26e-1c2ac101b6b5"},"vehicle_type_id":"4","last_reported":1739103295,"current_range_meters":34000,"station_id":"ce4bhhp2rcd13ifvqfm0","pricing_plan_id":"cebpf4jnsgd1na2vs0mg"},{"bike_id":"5bc71d75-3593-48b6-a39c-852caefe1c85","system_id":"levelo_inurba_marseille","lat":43.26947,"lon":5.38646,"is_reserved":false,"is_disabled":false,"rental_uris":{"android":"levelo://app?vid=5bc71d75-3593-48b6-a39c-852caefe1c85","ios":"levelo://app?vid=5bc71d75-3593-48b6-a39c-852caefe1c85"},"vehicle_type_id":"4","last_reported":1739103295,"current_range_meters":34000,"station_id":"ce4bhh92rcd13ifvqfh0","pricing_plan_id":"cebpf4jnsgd1na2vs0mg"},{"bike_id":"767abe10-f6fd-4a71-a21f-02aadb380fdf","system_id":"levelo_inurba_marseille","lat":43.29512,"lon":5.37511,"is_reserved":false,"is_disabled":true,"rental_uris":{"android":"levelo://app?vid=767abe10-f6fd-4a71-a21f-02aadb380fdf","ios":"levelo://app?vid=767abe10-f6fd-4a71-a21f-02aadb380fdf"},"vehicle_type_id":"4","last_reported":1739103295,"current_range_meters":32800,"station_id":"ce4bgkp2rcd13ifvqbmg","pricing_plan_id":"cebpf4jnsgd1na2vs0mg"},{"bike_id":"0e83b365-6dc2-4bd3-a9f0-472f67dc989e","system_id":"levelo_inurba_marseille","lat":43.25014,"lon":5.38929,"is_reserved":false,"is_disabled":false,"rental_uris":{"android":"levelo://app?vid=0e83b365-6dc2-4bd3-a9f0-472f67dc989e","ios":"levelo://app?vid=0e83b365-6dc2-4bd3-a9f0-472f67dc989e"},"vehicle_type_id":"4","last_reported":1739103295,"current_range_meters":39200,"station_id":"ce4bhgp2rcd13ifvqfd0","pricing_plan_id":"cebpf4jnsgd1na2vs0mg"},{"bike_id":"dc625009-1bac-4e4b-ba17-18aa46e0808e","system_id":"levelo_inurba_marseille","lat":43.29793,"lon":5.38101,"is_reserved":false,"is_disabled":false,"rental_uris":{"android":"levelo://app?vid=dc625009-1bac-4e4b-ba17-18aa46e0808e","ios":"levelo://app?vid=dc625009-1bac-4e4b-ba17-18aa46e0808e"},"vehicle_type_id":"4","last_reported":1739103295,"current_range_meters":36800,"station_id":"ce4bgip2rcd13ifvqbb0","pricing_plan_id":"cebpf4jnsgd1na2vs0mg"},{"bike_id":"115e0a04-50fe-4da0-98ee-5c0ef3c534f4","system_id":"levelo_inurba_marseille","lat":43.3303,"lon":5.39032,"is_reserved":false,"is_disabled":false,"rental_uris":{"android":"levelo://app?vid=115e0a04-50fe-4da0-98ee-5c0ef3c534f4","ios":"levelo://app?vid=115e0a04-50fe-4da0-98ee-5c0ef3c534f4"},"vehicle_type_id":"4","last_reported":1739103295,"current_range_meters":39200,"station_id":"ce4bhr92rcd13ifvqhrg","pricing_plan_id":"cebpf4jnsgd1na2vs0mg"},{"bike_id":"f67b7531-6c63-4f46-a9d4-4fdf588facb0","system_id":"levelo_inurba_marseille","lat":43.27873,"lon":5.40602,"is_reserved":false,"is_disabled":true,"rental_uris":{"android":"levelo://app?vid=f67b7531-6c63-4f46-a9d4-4fdf588facb0","ios":"levelo://app?vid=f67b7531-6c63-4f46-a9d4-4fdf588facb0"},"vehicle_type_id":"4","last_reported":1739103295,"current_range_meters":0,"station_id":"","pricing_plan_id":"cebpf4jnsgd1na2vs0mg"},{"bike_id":"28bc2108-0dbe-4972-a4ae-3060201c5ec2","system_id":"levelo_inurba_marseille","lat":43.284017,"lon":5.349867,"is_reserved":false,"is_disabled":false,"rental_uris":{"android":"levelo://app?vid=28bc2108-0dbe-4972-a4ae-3060201c5ec2","ios":"levelo://app?vid=28bc2108-0dbe-4972-a4ae-3060201c5ec2"},"vehicle_type_id":"4","last_reported":1739103295,"current_range_meters":23200,"station_id":"ce4bhbh2rcd13ifvqepg","pricing_plan_id":"cebpf4jnsgd1na2vs0mg"},{"bike_id":"d0bee17d-b0f7-4e5a-bca2-61a48dfb9b14","system_id":"levelo_inurba_marseille","lat":43.27817,"lon":5.40717,"is_reserved":false,"is_disabled":false,"rental_uris":{"android":"levelo://app?vid=d0bee17d-b0f7-4e5a-bca2-61a48dfb9b14","ios":"levelo://app?vid=d0bee17d-b0f7-4e5a-bca2-61a48dfb9b14"},"vehicle_type_id":"4","last_reported":1739103295,"current_range_meters":11200,"station_id":"ce4bhnh2rcd13ifvqgtg","pricing_plan_id":"cebpf4jnsgd1na2vs0mg"},{"bike_id":"a1ff6a73-36b2-4a61-a88f-8f0cc16371c7","system_id":"levelo_inurba_marseille","lat":43.262231,"lon":5.404553,"is_reserved":false,"is_disabled":false,"rental_uris":{"android":"levelo://app?vid=a1ff6a73-36b2-4a61-a88f-8f0cc16371c7","ios":"levelo://app?vid=a1ff6a73-36b2-4a61-a88f-8f0cc16371c7"},"vehicle_type_id":"4","last_reported":1739103295,"current_range_meters":28800,"station_id":"ce4bhmh2rcd13ifvqgmg","pricing_plan_id":"cebpf4jnsgd1na2vs0mg"},{"bike_id":"74dda318-1b0b-46a6-82cc-20741b70a914","system_id":"levelo_inurba_marseille","lat":43.29317,"lon":5.37438,"is_reserved":false,"is_disabled":true,"rental_uris":{"android":"levelo://app?vid=74dda318-1b0b-46a6-82cc-20741b70a914","ios":"levelo://app?vid=74dda318-1b0b-46a6-82cc-20741b70a914"},"vehicle_type_id":"4","last_reported":1739103295,"current_range_meters":22000,"station_id":"ce4bgi12rcd13ifvqb70","pricing_plan_id":"cebpf4jnsgd1na2vs0mg"},{"bike_id":"9d2ea34e-93c4-4a02-8f0c-13ccde1a7290","system_id":"levelo_inurba_marseille","lat":43.29754,"lon":5.37675,"is_reserved":false,"is_disabled":false,"rental_uris":{"android":"levelo://app?vid=9d2ea34e-93c4-4a02-8f0c-13ccde1a7290","ios":"levelo://app?vid=9d2ea34e-93c4-4a02-8f0c-13ccde1a7290"},"vehicle_type_id":"4","last_reported":1739103295,"current_range_meters":30000,"station_id":"ce4bgkh2rcd13ifvqbl0","pricing_plan_id":"cebpf4jnsgd1na2vs0mg"},{"bike_id":"40b221ed-8398-44a6-9294-97ea8af9ebdc","system_id":"levelo_inurba_marseille","lat":43.28031,"lon":5.36957,"is_reserved":false,"is_disabled":false,"rental_uris":{"android":"levelo://app?vid=40b221ed-8398-44a6-9294-97ea8af9ebdc","ios":"levelo://app?vid=40b221ed-8398-44a6-9294-97ea8af9ebdc"},"vehicle_type_id":"4","last_reported":1739103295,"current_range_meters":28400,"station_id":"ce4bha12rcd13ifvqef0","pricing_plan_id":"cebpf4jnsgd1na2vs0mg"},{"bike_id":"488c0f88-f522-4244-bd79-131e248eb6f1","system_id":"levelo_inurba_marseille","lat":43.27374,"lon":5.36257,"is_reserved":false,"is_disabled":false,"rental_uris":{"android":"levelo://app?vid=488c0f88-f522-4244-bd79-131e248eb6f1","ios":"levelo://app?vid=488c0f88-f522-4244-bd79-131e248eb6f1"},"vehicle_type_id":"4","last_reported":1739103295,"current_range_meters":22400,"station_id":"ce4bhbh2rcd13ifvqeo0","pricing_plan_id":"cebpf4jnsgd1na2vs0mg"},{"bike_id":"1c006256-7530-4a56-a25d-dca64c3573d8","system_id":"levelo_inurba_marseille","lat":43.28701,"lon":5.39978,"is_reserved":false,"is_disabled":true,"rental_uris":{"android":"levelo://app?vid=1c006256-7530-4a56-a25d-dca64c3573d8","ios":"levelo://app?vid=1c006256-7530-4a56-a25d-dca64c3573d8"},"vehicle_type_id":"4","last_reported":1739103295,"current_range_meters":38800,"station_id":"ce4bho92rcd13ifvqh3g","pricing_plan_id":"cebpf4jnsgd1na2vs0mg"},{"bike_id":"4eb3e4dc-f626-45fe-a9b5-0f560bf8a650","system_id":"levelo_inurba_marseille","lat":43.29424,"lon":5.38637,"is_reserved":false,"is_disabled":false,"rental_uris":{"android":"levelo://app?vid=4eb3e4dc-f626-45fe-a9b5-0f560bf8a650","ios":"levelo://app?vid=4eb3e4dc-f626-45fe-a9b5-0f560bf8a650"},"vehicle_type_id":"4","last_reported":1739103295,"current_range_meters":28400,"station_id":"ce4bh2h2rcd13ifvqdh0","pricing_plan_id":"cebpf4jnsgd1na2vs0mg"},{"bike_id":"eeb1626b-d9a7-4181-8530-ac28fa96e047","system_id":"levelo_inurba_marseille","lat":43.29048,"lon":5.35919,"is_reserved":false,"is_disabled":false,"rental_uris":{"android":"levelo://app?vid=eeb1626b-d9a7-4181-8530-ac28fa96e047","ios":"levelo://app?vid=eeb1626b-d9a7-4181-8530-ac28fa96e047"},"vehicle_type_id":"4","last_reported":1739103295,"current_range_meters":31200,"station_id":"ce4bha92rcd13ifvqeg0","pricing_plan_id":"cebpf4jnsgd1na2vs0mg"},{"bike_id":"5c7479b7-7263-4b4c-a3b1-0d7fb0f411f8","system_id":"levelo_inurba_marseille","lat":43.30321,"lon":5.40454,"is_reserved":false,"is_disabled":true,"rental_uris":{"android":"levelo://app?vid=5c7479b7-7263-4b4c-a3b1-0d7fb0f411f8","ios":"levelo://app?vid=5c7479b7-7263-4b4c-a3b1-0d7fb0f411f8"},"vehicle_type_id":"4","last_reported":1739103295,"current_range_meters":37600,"station_id":"ce4bh012rcd13ifvqd10","pricing_plan_id":"cebpf4jnsgd1na2vs0mg"},{"bike_id":"23644462-c1de-4e99-a2e9-4d0c9cf86788","system_id":"levelo_inurba_marseille","lat":43.312375,"lon":5.368768,"is_reserved":false,"is_disabled":false,"rental_uris":{"android":"levelo://app?vid=23644462-c1de-4e99-a2e9-4d0c9cf86788","ios":"levelo://app?vid=23644462-c1de-4e99-a2e9-4d0c9cf86788"},"vehicle_type_id":"4","last_reported":1739103295,"current_range_meters":30800,"station_id":"ce4bgl92rcd13ifvqbq0","pricing_plan_id":"cebpf4jnsgd1na2vs0mg"},{"bike_id":"343ebb60-bf1d-48dd-867d-86d5a3c5f765","system_id":"levelo_inurba_marseille","lat":43.23495,"lon":5.35908,"is_reserved":false,"is_disabled":false,"rental_uris":{"android":"levelo://app?vid=343ebb60-bf1d-48dd-867d-86d5a3c5f765","ios":"levelo://app?vid=343ebb60-bf1d-48dd-867d-86d5a3c5f765"},"vehicle_type_id":"4","last_reported":1739103295,"current_range_meters":9200,"station_id":"","pricing_plan_id":"cebpf4jnsgd1na2vs0mg"},{"bike_id":"81b3839d-5686-4714-9e79-1d82f278c31c","system_id":"levelo_inurba_marseille","lat":43.30348,"lon":5.41883,"is_reserved":false,"is_disabled":false,"rental_uris":{"android":"levelo://app?vid=81b3839d-5686-4714-9e79-1d82f278c31c","ios":"levelo://app?vid=81b3839d-5686-4714-9e79-1d82f278c31c"},"vehicle_type_id":"4","last_reported":1739103295,"current_range_meters":28400,"station_id":"ce4bhop2rcd13ifvqh7g","pricing_plan_id":"cebpf4jnsgd1na2vs0mg"},{"bike_id":"2c6360f9-495f-4a4d-8bd3-978b23f16274","system_id":"levelo_inurba_marseille","lat":43.29308,"lon":5.37175,"is_reserved":false,"is_disabled":false,"rental_uris":{"android":"levelo://app?vid=2c6360f9-495f-4a4d-8bd3-978b23f16274","ios":"levelo://app?vid=2c6360f9-495f-4a4d-8bd3-978b23f16274"},"vehicle_type_id":"4","last_reported":1739103295,"current_range_meters":38800,"station_id":"ce4bgh92rcd13ifvqb40","pricing_plan_id":"cebpf4jnsgd1na2vs0mg"},{"bike_id":"6ba0b9c0-c8c1-471b-80f3-1b962f084541","system_id":"levelo_inurba_marseille","lat":43.2719,"lon":5.40981,"is_reserved":false,"is_disabled":false,"rental_uris":{"android":"levelo://app?vid=6ba0b9c0-c8c1-471b-80f3-1b962f084541","ios":"levelo://app?vid=6ba0b9c0-c8c1-471b-80f3-1b962f084541"},"vehicle_type_id":"4","last_reported":1739103295,"current_range_meters":38800,"station_id":"ce4bhl12rcd13ifvqgf0","pricing_plan_id":"cebpf4jnsgd1na2vs0mg"},{"bike_id":"22669ad6-c05b-49c6-864d-bb442ac14c15","system_id":"levelo_inurba_marseille","lat":43.25898,"lon":5.40923,"is_reserved":false,"is_disabled":false,"rental_uris":{"android":"levelo://app?vid=22669ad6-c05b-49c6-864d-bb442ac14c15","ios":"levelo://app?vid=22669ad6-c05b-49c6-864d-bb442ac14c15"},"vehicle_type_id":"4","last_reported":1739103295,"current_range_meters":30400,"station_id":"ce4bhm92rcd13ifvqglg","pricing_plan_id":"cebpf4jnsgd1na2vs0mg"},{"bike_id":"22219a69-ff6e-4128-9c66-6e0ba4f7f3c6","system_id":"levelo_inurba_marseille","lat":43.26201,"lon":5.37925,"is_reserved":false,"is_disabled":false,"rental_uris":{"android":"levelo://app?vid=22219a69-ff6e-4128-9c66-6e0ba4f7f3c6","ios":"levelo://app?vid=22219a69-ff6e-4128-9c66-6e0ba4f7f3c6"},"vehicle_type_id":"4","last_reported":1739103295,"current_range_meters":38400,"station_id":"ce4bhjp2rcd13ifvqg90","pricing_plan_id":"cebpf4jnsgd1na2vs0mg"},{"bike_id":"d65f63cc-0642-4df2-b1d3-b11f204a36a0","system_id":"levelo_inurba_marseille","lat":43.30147,"lon":5.38095,"is_reserved":false,"is_disabled":false,"rental_uris":{"android":"levelo://app?vid=d65f63cc-0642-4df2-b1d3-b11f204a36a0","ios":"levelo://app?vid=d65f63cc-0642-4df2-b1d3-b11f204a36a0"},"vehicle_type_id":"4","last_reported":1739103295,"current_range_meters":20800,"station_id":"ce4bgjp2rcd13ifvqbh0","pricing_plan_id":"cebpf4jnsgd1na2vs0mg"},{"bike_id":"7acedcb0-a26d-4e76-a0f1-661494c1c033","system_id":"levelo_inurba_marseille","lat":43.30907,"lon":5.36842,"is_reserved":false,"is_disabled":false,"rental_uris":{"android":"levelo://app?vid=7acedcb0-a26d-4e76-a0f1-661494c1c033","ios":"levelo://app?vid=7acedcb0-a26d-4e76-a0f1-661494c1c033"},"vehicle_type_id":"4","last_reported":1739103295,"current_range_meters":16800,"station_id":"ce4bgn92rcd13ifvqbvg","pricing_plan_id":"cebpf4jnsgd1na2vs0mg"},{"bike_id":"c6fc4b4a-5347-4905-8d96-67ea4d004656","system_id":"levelo_inurba_marseille","lat":43.232056,"lon":5.355516,"is_reserved":false,"is_disabled":false,"rental_uris":{"android":"levelo://app?vid=c6fc4b4a-5347-4905-8d96-67ea4d004656","ios":"levelo://app?vid=c6fc4b4a-5347-4905-8d96-67ea4d004656"},"vehicle_type_id":"4","last_reported":1739103295,"current_range_meters":38800,"station_id":"ce4bhu92rcd13ifvqi70","pricing_plan_id":"cebpf4jnsgd1na2vs0mg"},{"bike_id":"1da8b17b-ad28-4780-a711-431647c244ed","system_id":"levelo_inurba_marseille","lat":43.239599,"lon":5.36635,"is_reserved":false,"is_disabled":false,"rental_uris":{"android":"levelo://app?vid=1da8b17b-ad28-4780-a711-431647c244ed","ios":"levelo://app?vid=1da8b17b-ad28-4780-a711-431647c244ed"},"vehicle_type_id":"4","last_reported":1739103295,"current_range_meters":20400,"station_id":"ce4bhi12rcd13ifvqfp0","pricing_plan_id":"cebpf4jnsgd1na2vs0mg"},{"bike_id":"ea770d56-f280-4edb-b95c-97949f7faa10","system_id":"levelo_inurba_marseille","lat":43.28858,"lon":5.39324,"is_reserved":false,"is_disabled":false,"rental_uris":{"android":"levelo://app?vid=ea770d56-f280-4edb-b95c-97949f7faa10","ios":"levelo://app?vid=ea770d56-f280-4edb-b95c-97949f7faa10"},"vehicle_type_id":"4","last_reported":1739103295,"current_range_meters":38800,"station_id":"ce4bh2p2rcd13ifvqdi0","pricing_plan_id":"cebpf4jnsgd1na2vs0mg"},{"bike_id":"f78952aa-a1e4-42f8-b5d2-31338580d315","system_id":"levelo_inurba_marseille","lat":43.23956,"lon":5.3665,"is_reserved":false,"is_disabled":false,"rental_uris":{"android":"levelo://app?vid=f78952aa-a1e4-42f8-b5d2-31338580d315","ios":"levelo://app?vid=f78952aa-a1e4-42f8-b5d2-31338580d315"},"vehicle_type_id":"4","last_reported":1739103295,"current_range_meters":12000,"station_id":"ce4bhi12rcd13ifvqfp0","pricing_plan_id":"cebpf4jnsgd1na2vs0mg"},{"bike_id":"985ea620-1838-4cc4-9f45-6622855b2de9","system_id":"levelo_inurba_marseille","lat":43.27987,"lon":5.40028,"is_reserved":false,"is_disabled":false,"rental_uris":{"android":"levelo://app?vid=985ea620-1838-4cc4-9f45-6622855b2de9","ios":"levelo://app?vid=985ea620-1838-4cc4-9f45-6622855b2de9"},"vehicle_type_id":"4","last_reported":1739103295,"current_range_meters":38400,"station_id":"ce4bho92rcd13ifvqh4g","pricing_plan_id":"cebpf4jnsgd1na2vs0mg"},{"bike_id":"f55e3389-66f8-45b8-b7bd-f60b1f1af047","system_id":"levelo_inurba_marseille","lat":43.30598,"lon":5.37244,"is_reserved":false,"is_disabled":false,"rental_uris":{"android":"levelo://app?vid=f55e3389-66f8-45b8-b7bd-f60b1f1af047","ios":"levelo://app?vid=f55e3389-66f8-45b8-b7bd-f60b1f1af047"},"vehicle_type_id":"4","last_reported":1739103295,"current_range_meters":28400,"station_id":"ce4bgqh2rcd13ifvqc4g","pricing_plan_id":"cebpf4jnsgd1na2vs0mg"},{"bike_id":"e897fb4c-c9e2-42ca-8ce0-bf3216e4eddd","system_id":"levelo_inurba_marseille","lat":43.26502,"lon":5.39538,"is_reserved":false,"is_disabled":false,"rental_uris":{"android":"levelo://app?vid=e897fb4c-c9e2-42ca-8ce0-bf3216e4eddd","ios":"levelo://app?vid=e897fb4c-c9e2-42ca-8ce0-bf3216e4eddd"},"vehicle_type_id":"4","last_reported":1739103295,"current_range_meters":25600,"station_id":"ce4bhi12rcd13ifvqfq0","pricing_plan_id":"cebpf4jnsgd1na2vs0mg"},{"bike_id":"44c009d3-c0dc-4027-abdf-110ade9a1957","system_id":"levelo_inurba_marseille","lat":43.3304,"lon":5.3904,"is_reserved":false,"is_disabled":false,"rental_uris":{"android":"levelo://app?vid=44c009d3-c0dc-4027-abdf-110ade9a1957","ios":"levelo://app?vid=44c009d3-c0dc-4027-abdf-110ade9a1957"},"vehicle_type_id":"4","last_reported":1739103295,"current_range_meters":37600,"station_id":"ce4bhr92rcd13ifvqhrg","pricing_plan_id":"cebpf4jnsgd1na2vs0mg"},{"bike_id":"28ec708f-b9d6-4f04-ab7e-a6ccbf662666","system_id":"levelo_inurba_marseille","lat":43.26506,"lon":5.39532,"is_reserved":false,"is_disabled":false,"rental_uris":{"android":"levelo://app?vid=28ec708f-b9d6-4f04-ab7e-a6ccbf662666","ios":"levelo://app?vid=28ec708f-b9d6-4f04-ab7e-a6ccbf662666"},"vehicle_type_id":"4","last_reported":1739103295,"current_range_meters":38800,"station_id":"ce4bhi12rcd13ifvqfq0","pricing_plan_id":"cebpf4jnsgd1na2vs0mg"},{"bike_id":"c8467e20-c52a-4fa4-90f2-f69c646cb59f","system_id":"levelo_inurba_marseille","lat":43.30803,"lon":5.43521,"is_reserved":false,"is_disabled":false,"rental_uris":{"android":"levelo://app?vid=c8467e20-c52a-4fa4-90f2-f69c646cb59f","ios":"levelo://app?vid=c8467e20-c52a-4fa4-90f2-f69c646cb59f"},"vehicle_type_id":"4","last_reported":1739103295,"current_range_meters":24800,"station_id":"ce4bhph2rcd13ifvqheg","pricing_plan_id":"cebpf4jnsgd1na2vs0mg"},{"bike_id":"8e23ca53-8441-437b-83d1-b66bbe688f88","system_id":"levelo_inurba_marseille","lat":43.26807,"lon":5.40252,"is_reserved":false,"is_disabled":false,"rental_uris":{"android":"levelo://app?vid=8e23ca53-8441-437b-83d1-b66bbe688f88","ios":"levelo://app?vid=8e23ca53-8441-437b-83d1-b66bbe688f88"},"vehicle_type_id":"4","last_reported":1739103295,"current_range_meters":39200,"station_id":"ce501612rcd8frsf0b60","pricing_plan_id":"cebpf4jnsgd1na2vs0mg"},{"bike_id":"2ceac124-3981-41ba-88bd-6e918853c153","system_id":"levelo_inurba_marseille","lat":43.250003,"lon":5.389281,"is_reserved":false,"is_disabled":false,"rental_uris":{"android":"levelo://app?vid=2ceac124-3981-41ba-88bd-6e918853c153","ios":"levelo://app?vid=2ceac124-3981-41ba-88bd-6e918853c153"},"vehicle_type_id":"4","last_reported":1739103295,"current_range_meters":38800,"station_id":"ce4bhgp2rcd13ifvqfd0","pricing_plan_id":"cebpf4jnsgd1na2vs0mg"},{"bike_id":"922d539c-2364-4390-af5c-92a5adedf8a7","system_id":"levelo_inurba_marseille","lat":43.29436,"lon":5.39764,"is_reserved":false,"is_disabled":false,"rental_uris":{"android":"levelo://app?vid=922d539c-2364-4390-af5c-92a5adedf8a7","ios":"levelo://app?vid=922d539c-2364-4390-af5c-92a5adedf8a7"},"vehicle_type_id":"4","last_reported":1739103295,"current_range_meters":38800,"station_id":"ce4bh3h2rcd13ifvqdo0","pricing_plan_id":"cebpf4jnsgd1na2vs0mg"},{"bike_id":"97b84f59-58a9-4d7a-9ae2-fff2af1d4168","system_id":"levelo_inurba_marseille","lat":43.28986,"lon":5.37835,"is_reserved":false,"is_disabled":false,"rental_uris":{"android":"levelo://app?vid=97b84f59-58a9-4d7a-9ae2-fff2af1d4168","ios":"levelo://app?vid=97b84f59-58a9-4d7a-9ae2-fff2af1d4168"},"vehicle_type_id":"4","last_reported":1739103295,"current_range_meters":37600,"station_id":"ce4bh9p2rcd13ifvqed0","pricing_plan_id":"cebpf4jnsgd1na2vs0mg"},{"bike_id":"5c3e58d0-3647-4d94-8959-cff21bd78632","system_id":"levelo_inurba_marseille","lat":43.29716,"lon":5.36581,"is_reserved":false,"is_disabled":false,"rental_uris":{"android":"levelo://app?vid=5c3e58d0-3647-4d94-8959-cff21bd78632","ios":"levelo://app?vid=5c3e58d0-3647-4d94-8959-cff21bd78632"},"vehicle_type_id":"4","last_reported":1739103295,"current_range_meters":38400,"station_id":"ce4bgn12rcd13ifvqbt0","pricing_plan_id":"cebpf4jnsgd1na2vs0mg"},{"bike_id":"afd073ab-b7d7-4d06-a610-4d1b18b5fb42","system_id":"levelo_inurba_marseille","lat":43.27685,"lon":5.38927,"is_reserved":false,"is_disabled":false,"rental_uris":{"android":"levelo://app?vid=afd073ab-b7d7-4d06-a610-4d1b18b5fb42","ios":"levelo://app?vid=afd073ab-b7d7-4d06-a610-4d1b18b5fb42"},"vehicle_type_id":"4","last_reported":1739103295,"current_range_meters":38800,"station_id":"ce4bhi12rcd13ifvqfo0","pricing_plan_id":"cebpf4jnsgd1na2vs0mg"},{"bike_id":"fd7f60dd-1b52-46f9-9b6b-de4b0fe7477f","system_id":"levelo_inurba_marseille","lat":43.270634,"lon":5.422814,"is_reserved":false,"is_disabled":true,"rental_uris":{"android":"levelo://app?vid=fd7f60dd-1b52-46f9-9b6b-de4b0fe7477f","ios":"levelo://app?vid=fd7f60dd-1b52-46f9-9b6b-de4b0fe7477f"},"vehicle_type_id":"4","last_reported":1739103295,"current_range_meters":34800,"station_id":"ce4bhk92rcd13ifvqgb0","pricing_plan_id":"cebpf4jnsgd1na2vs0mg"},{"bike_id":"b77293ea-57bc-4088-ba4a-87100c2d79e0","system_id":"levelo_inurba_marseille","lat":43.26553,"lon":5.37292,"is_reserved":false,"is_disabled":true,"rental_uris":{"android":"levelo://app?vid=b77293ea-57bc-4088-ba4a-87100c2d79e0","ios":"levelo://app?vid=b77293ea-57bc-4088-ba4a-87100c2d79e0"},"vehicle_type_id":"4","last_reported":1739103295,"current_range_meters":0,"station_id":"ce4bhg12rcd13ifvqf70","pricing_plan_id":"cebpf4jnsgd1na2vs0mg"},{"bike_id":"71af4c3a-fa26-4039-9ee7-f5d24e009142","system_id":"levelo_inurba_marseille","lat":43.24807,"lon":5.37454,"is_reserved":false,"is_disabled":false,"rental_uris":{"android":"levelo://app?vid=71af4c3a-fa26-4039-9ee7-f5d24e009142","ios":"levelo://app?vid=71af4c3a-fa26-4039-9ee7-f5d24e009142"},"vehicle_type_id":"4","last_reported":1739103295,"current_range_meters":39200,"station_id":"ce4bhgh2rcd13ifvqfb0","pricing_plan_id":"cebpf4jnsgd1na2vs0mg"},{"bike_id":"ab718d08-fa73-4b37-8fd0-bd8c0a26cdbd","system_id":"levelo_inurba_marseille","lat":43.2614,"lon":5.37473,"is_reserved":false,"is_disabled":false,"rental_uris":{"android":"levelo://app?vid=ab718d08-fa73-4b37-8fd0-bd8c0a26cdbd","ios":"levelo://app?vid=ab718d08-fa73-4b37-8fd0-bd8c0a26cdbd"},"vehicle_type_id":"4","last_reported":1739103295,"current_range_meters":2800,"station_id":"ce4bgj92rcd13ifvqbe0","pricing_plan_id":"cebpf4jnsgd1na2vs0mg"},{"bike_id":"474fc83d-ff3b-42a4-b5b4-a3742fba0261","system_id":"levelo_inurba_marseille","lat":43.29222,"lon":5.3606,"is_reserved":false,"is_disabled":false,"rental_uris":{"android":"levelo://app?vid=474fc83d-ff3b-42a4-b5b4-a3742fba0261","ios":"levelo://app?vid=474fc83d-ff3b-42a4-b5b4-a3742fba0261"},"vehicle_type_id":"4","last_reported":1739103295,"current_range_meters":6800,"station_id":"ce4bhbh2rcd13ifvqeqg","pricing_plan_id":"cebpf4jnsgd1na2vs0mg"},{"bike_id":"d4aed399-0d88-46d5-8778-3c2b39e20f06","system_id":"levelo_inurba_marseille","lat":43.24677,"lon":5.38162,"is_reserved":false,"is_disabled":false,"rental_uris":{"android":"levelo://app?vid=d4aed399-0d88-46d5-8778-3c2b39e20f06","ios":"levelo://app?vid=d4aed399-0d88-46d5-8778-3c2b39e20f06"},"vehicle_type_id":"4","last_reported":1739103295,"current_range_meters":39200,"station_id":"ce4bhih2rcd13ifvqfr0","pricing_plan_id":"cebpf4jnsgd1na2vs0mg"},{"bike_id":"86e7fe57-f8b6-4306-adb2-c48a1d6d6515","system_id":"levelo_inurba_marseille","lat":43.2573,"lon":5.41109,"is_reserved":false,"is_disabled":false,"rental_uris":{"android":"levelo://app?vid=86e7fe57-f8b6-4306-adb2-c48a1d6d6515","ios":"levelo://app?vid=86e7fe57-f8b6-4306-adb2-c48a1d6d6515"},"vehicle_type_id":"4","last_reported":1739103295,"current_range_meters":38800,"station_id":"ce4bhkp2rcd13ifvqgd0","pricing_plan_id":"cebpf4jnsgd1na2vs0mg"},{"bike_id":"244783fc-e553-4b13-97c4-77dee0149449","system_id":"levelo_inurba_marseille","lat":43.31332,"lon":5.39696,"is_reserved":false,"is_disabled":false,"rental_uris":{"android":"levelo://app?vid=244783fc-e553-4b13-97c4-77dee0149449","ios":"levelo://app?vid=244783fc-e553-4b13-97c4-77dee0149449"},"vehicle_type_id":"4","last_reported":1739103295,"current_range_meters":25200,"station_id":"ce4bgvp2rcd13ifvqcu0","pricing_plan_id":"cebpf4jnsgd1na2vs0mg"},{"bike_id":"2d93e85a-65e7-4a5b-a324-00f4511865a9","system_id":"levelo_inurba_marseille","lat":43.24392,"lon":5.37052,"is_reserved":false,"is_disabled":false,"rental_uris":{"android":"levelo://app?vid=2d93e85a-65e7-4a5b-a324-00f4511865a9","ios":"levelo://app?vid=2d93e85a-65e7-4a5b-a324-00f4511865a9"},"vehicle_type_id":"4","last_reported":1739103295,"current_range_meters":38800,"station_id":"ce4bhhh2rcd13ifvqfk0","pricing_plan_id":"cebpf4jnsgd1na2vs0mg"},{"bike_id":"f0cf9417-5968-4224-8d9d-cfbb5c3c25d9","system_id":"levelo_inurba_marseille","lat":43.30548,"lon":5.36699,"is_reserved":false,"is_disabled":false,"rental_uris":{"android":"levelo://app?vid=f0cf9417-5968-4224-8d9d-cfbb5c3c25d9","ios":"levelo://app?vid=f0cf9417-5968-4224-8d9d-cfbb5c3c25d9"},"vehicle_type_id":"4","last_reported":1739103295,"current_range_meters":38800,"station_id":"ce4bgrp2rcd13ifvqc9g","pricing_plan_id":"cebpf4jnsgd1na2vs0mg"},{"bike_id":"11d6b9b5-7b2d-4d9c-94ae-c5691054c46f","system_id":"levelo_inurba_marseille","lat":43.28929,"lon":5.38387,"is_reserved":false,"is_disabled":false,"rental_uris":{"android":"levelo://app?vid=11d6b9b5-7b2d-4d9c-94ae-c5691054c46f","ios":"levelo://app?vid=11d6b9b5-7b2d-4d9c-94ae-c5691054c46f"},"vehicle_type_id":"4","last_reported":1739103295,"current_range_meters":18800,"station_id":"ce4bh612rcd13ifvqe6g","pricing_plan_id":"cebpf4jnsgd1na2vs0mg"},{"bike_id":"c7a8015c-d7b3-41ec-ad94-ffbb198280a1","system_id":"levelo_inurba_marseille","lat":43.30595,"lon":5.39357,"is_reserved":false,"is_disabled":false,"rental_uris":{"android":"levelo://app?vid=c7a8015c-d7b3-41ec-ad94-ffbb198280a1","ios":"levelo://app?vid=c7a8015c-d7b3-41ec-ad94-ffbb198280a1"},"vehicle_type_id":"4","last_reported":1739103295,"current_range_meters":37600,"station_id":"ce4bh0p2rcd13ifvqd80","pricing_plan_id":"cebpf4jnsgd1na2vs0mg"},{"bike_id":"d5fd2a14-8ff1-4b6e-a72e-8f7d6ba6ec2f","system_id":"levelo_inurba_marseille","lat":43.28272,"lon":5.35066,"is_reserved":false,"is_disabled":false,"rental_uris":{"android":"levelo://app?vid=d5fd2a14-8ff1-4b6e-a72e-8f7d6ba6ec2f","ios":"levelo://app?vid=d5fd2a14-8ff1-4b6e-a72e-8f7d6ba6ec2f"},"vehicle_type_id":"4","last_reported":1739103295,"current_range_meters":22800,"station_id":"ce4bhbp2rcd13ifvqerg","pricing_plan_id":"cebpf4jnsgd1na2vs0mg"},{"bike_id":"4383798e-9d8f-4fa2-9f8a-880092a478b7","system_id":"levelo_inurba_marseille","lat":43.2696,"lon":5.40245,"is_reserved":false,"is_disabled":false,"rental_uris":{"android":"levelo://app?vid=4383798e-9d8f-4fa2-9f8a-880092a478b7","ios":"levelo://app?vid=4383798e-9d8f-4fa2-9f8a-880092a478b7"},"vehicle_type_id":"4","last_reported":1739103295,"current_range_meters":28800,"station_id":"cjm6bp8fraef2m0cb0m0","pricing_plan_id":"cebpf4jnsgd1na2vs0mg"},{"bike_id":"723aa799-1ffb-49ff-bda7-8ee9a6a4583c","system_id":"levelo_inurba_marseille","lat":43.24977,"lon":5.40501,"is_reserved":false,"is_disabled":false,"rental_uris":{"android":"levelo://app?vid=723aa799-1ffb-49ff-bda7-8ee9a6a4583c","ios":"levelo://app?vid=723aa799-1ffb-49ff-bda7-8ee9a6a4583c"},"vehicle_type_id":"4","last_reported":1739103295,"current_range_meters":38800,"station_id":"","pricing_plan_id":"cebpf4jnsgd1na2vs0mg"},{"bike_id":"c6f92ca4-91f7-4b27-a97d-0ada5b4e29ae","system_id":"levelo_inurba_marseille","lat":43.24668,"lon":5.38157,"is_reserved":false,"is_disabled":false,"rental_uris":{"android":"levelo://app?vid=c6f92ca4-91f7-4b27-a97d-0ada5b4e29ae","ios":"levelo://app?vid=c6f92ca4-91f7-4b27-a97d-0ada5b4e29ae"},"vehicle_type_id":"4","last_reported":1739103295,"current_range_meters":24800,"station_id":"ce4bhih2rcd13ifvqfr0","pricing_plan_id":"cebpf4jnsgd1na2vs0mg"},{"bike_id":"dc2380f1-2eb7-46a3-ae22-c9e2fe5ac43b","system_id":"levelo_inurba_marseille","lat":43.28268,"lon":5.35064,"is_reserved":false,"is_disabled":false,"rental_uris":{"android":"levelo://app?vid=dc2380f1-2eb7-46a3-ae22-c9e2fe5ac43b","ios":"levelo://app?vid=dc2380f1-2eb7-46a3-ae22-c9e2fe5ac43b"},"vehicle_type_id":"4","last_reported":1739103295,"current_range_meters":35200,"station_id":"ce4bhbp2rcd13ifvqerg","pricing_plan_id":"cebpf4jnsgd1na2vs0mg"},{"bike_id":"f335f4ea-f372-4b4d-97e9-cf4e01ad5b70","system_id":"levelo_inurba_marseille","lat":43.32228,"lon":5.38931,"is_reserved":false,"is_disabled":false,"rental_uris":{"android":"levelo://app?vid=f335f4ea-f372-4b4d-97e9-cf4e01ad5b70","ios":"levelo://app?vid=f335f4ea-f372-4b4d-97e9-cf4e01ad5b70"},"vehicle_type_id":"4","last_reported":1739103295,"current_range_meters":17600,"station_id":"","pricing_plan_id":"cebpf4jnsgd1na2vs0mg"},{"bike_id":"110b5397-d612-4b43-9970-8f955358b259","system_id":"levelo_inurba_marseille","lat":43.23963,"lon":5.3664,"is_reserved":false,"is_disabled":false,"rental_uris":{"android":"levelo://app?vid=110b5397-d612-4b43-9970-8f955358b259","ios":"levelo://app?vid=110b5397-d612-4b43-9970-8f955358b259"},"vehicle_type_id":"4","last_reported":1739103295,"current_range_meters":8000,"station_id":"ce4bhi12rcd13ifvqfp0","pricing_plan_id":"cebpf4jnsgd1na2vs0mg"},{"bike_id":"1beb558c-f111-4e54-bf6e-6dc6f6e3f715","system_id":"levelo_inurba_marseille","lat":43.24179,"lon":5.39718,"is_reserved":false,"is_disabled":false,"rental_uris":{"android":"levelo://app?vid=1beb558c-f111-4e54-bf6e-6dc6f6e3f715","ios":"levelo://app?vid=1beb558c-f111-4e54-bf6e-6dc6f6e3f715"},"vehicle_type_id":"4","last_reported":1739103295,"current_range_meters":37600,"station_id":"ce4bhn12rcd13ifvqgpg","pricing_plan_id":"cebpf4jnsgd1na2vs0mg"},{"bike_id":"c5d44a3a-c0d4-413d-abd6-5d633623f413","system_id":"levelo_inurba_marseille","lat":43.31207,"lon":5.36821,"is_reserved":false,"is_disabled":false,"rental_uris":{"android":"levelo://app?vid=c5d44a3a-c0d4-413d-abd6-5d633623f413","ios":"levelo://app?vid=c5d44a3a-c0d4-413d-abd6-5d633623f413"},"vehicle_type_id":"4","last_reported":1739103295,"current_range_meters":38800,"station_id":"ce4bgl92rcd13ifvqbq0","pricing_plan_id":"cebpf4jnsgd1na2vs0mg"},{"bike_id":"00acf672-47c1-42d5-ae81-0c2dd5fc2c7a","system_id":"levelo_inurba_marseille","lat":43.279254,"lon":5.410635,"is_reserved":false,"is_disabled":false,"rental_uris":{"android":"levelo://app?vid=00acf672-47c1-42d5-ae81-0c2dd5fc2c7a","ios":"levelo://app?vid=00acf672-47c1-42d5-ae81-0c2dd5fc2c7a"},"vehicle_type_id":"4","last_reported":1739103295,"current_range_meters":27600,"station_id":"ce4bhnp2rcd13ifvqh0g","pricing_plan_id":"cebpf4jnsgd1na2vs0mg"},{"bike_id":"c5789181-d252-4c46-b75d-908f3a6a38fe","system_id":"levelo_inurba_marseille","lat":43.33738,"lon":5.39196,"is_reserved":false,"is_disabled":false,"rental_uris":{"android":"levelo://app?vid=c5789181-d252-4c46-b75d-908f3a6a38fe","ios":"levelo://app?vid=c5789181-d252-4c46-b75d-908f3a6a38fe"},"vehicle_type_id":"4","last_reported":1739103295,"current_range_meters":38000,"station_id":"ce4bhr92rcd13ifvqhsg","pricing_plan_id":"cebpf4jnsgd1na2vs0mg"},{"bike_id":"8613db78-efe7-4d09-9b25-be05e9cdde1b","system_id":"levelo_inurba_marseille","lat":43.31379,"lon":5.38485,"is_reserved":false,"is_disabled":false,"rental_uris":{"android":"levelo://app?vid=8613db78-efe7-4d09-9b25-be05e9cdde1b","ios":"levelo://app?vid=8613db78-efe7-4d09-9b25-be05e9cdde1b"},"vehicle_type_id":"4","last_reported":1739103295,"current_range_meters":33200,"station_id":"ce4bgt92rcd13ifvqcf0","pricing_plan_id":"cebpf4jnsgd1na2vs0mg"},{"bike_id":"339eef05-ac39-4941-b4a2-f27bc529ea4c","system_id":"levelo_inurba_marseille","lat":43.26783,"lon":5.3942,"is_reserved":false,"is_disabled":false,"rental_uris":{"android":"levelo://app?vid=339eef05-ac39-4941-b4a2-f27bc529ea4c","ios":"levelo://app?vid=339eef05-ac39-4941-b4a2-f27bc529ea4c"},"vehicle_type_id":"4","last_reported":1739103295,"current_range_meters":38800,"station_id":"ce4bhh12rcd13ifvqfg0","pricing_plan_id":"cebpf4jnsgd1na2vs0mg"},{"bike_id":"0d3e6358-f538-48e4-97b5-cfd7ffaf7479","system_id":"levelo_inurba_marseille","lat":43.27204,"lon":5.4099,"is_reserved":false,"is_disabled":false,"rental_uris":{"android":"levelo://app?vid=0d3e6358-f538-48e4-97b5-cfd7ffaf7479","ios":"levelo://app?vid=0d3e6358-f538-48e4-97b5-cfd7ffaf7479"},"vehicle_type_id":"4","last_reported":1739103295,"current_range_meters":38800,"station_id":"ce4bhl12rcd13ifvqgf0","pricing_plan_id":"cebpf4jnsgd1na2vs0mg"},{"bike_id":"4b346763-af4b-47bb-8f20-016bb4fee202","system_id":"levelo_inurba_marseille","lat":43.27821,"lon":5.40712,"is_reserved":false,"is_disabled":false,"rental_uris":{"android":"levelo://app?vid=4b346763-af4b-47bb-8f20-016bb4fee202","ios":"levelo://app?vid=4b346763-af4b-47bb-8f20-016bb4fee202"},"vehicle_type_id":"4","last_reported":1739103295,"current_range_meters":38800,"station_id":"ce4bhnh2rcd13ifvqgtg","pricing_plan_id":"cebpf4jnsgd1na2vs0mg"},{"bike_id":"a3017e08-da34-45be-bc47-d338c3dee81a","system_id":"levelo_inurba_marseille","lat":43.26602,"lon":5.39385,"is_reserved":false,"is_disabled":false,"rental_uris":{"android":"levelo://app?vid=a3017e08-da34-45be-bc47-d338c3dee81a","ios":"levelo://app?vid=a3017e08-da34-45be-bc47-d338c3dee81a"},"vehicle_type_id":"4","last_reported":1739103295,"current_range_meters":38400,"station_id":"","pricing_plan_id":"cebpf4jnsgd1na2vs0mg"},{"bike_id":"a0e4aa32-2930-4b3f-a9c9-c8d667116e7d","system_id":"levelo_inurba_marseille","lat":43.30199,"lon":5.39671,"is_reserved":false,"is_disabled":false,"rental_uris":{"android":"levelo://app?vid=a0e4aa32-2930-4b3f-a9c9-c8d667116e7d","ios":"levelo://app?vid=a0e4aa32-2930-4b3f-a9c9-c8d667116e7d"},"vehicle_type_id":"4","last_reported":1739103295,"current_range_meters":24800,"station_id":"","pricing_plan_id":"cebpf4jnsgd1na2vs0mg"},{"bike_id":"09710415-4dac-4e4c-a5b2-403eafa59e89","system_id":"levelo_inurba_marseille","lat":43.23966,"lon":5.36637,"is_reserved":false,"is_disabled":false,"rental_uris":{"android":"levelo://app?vid=09710415-4dac-4e4c-a5b2-403eafa59e89","ios":"levelo://app?vid=09710415-4dac-4e4c-a5b2-403eafa59e89"},"vehicle_type_id":"4","last_reported":1739103295,"current_range_meters":35600,"station_id":"ce4bhi12rcd13ifvqfp0","pricing_plan_id":"cebpf4jnsgd1na2vs0mg"},{"bike_id":"cda70a47-1966-4606-a6ee-e81748054c04","system_id":"levelo_inurba_marseille","lat":43.23954,"lon":5.36649,"is_reserved":false,"is_disabled":false,"rental_uris":{"android":"levelo://app?vid=cda70a47-1966-4606-a6ee-e81748054c04","ios":"levelo://app?vid=cda70a47-1966-4606-a6ee-e81748054c04"},"vehicle_type_id":"4","last_reported":1739103295,"current_range_meters":32000,"station_id":"ce4bhi12rcd13ifvqfp0","pricing_plan_id":"cebpf4jnsgd1na2vs0mg"},{"bike_id":"11fb8b8a-e2f0-4df9-8d01-2d7793fba192","system_id":"levelo_inurba_marseille","lat":43.27291,"lon":5.39017,"is_reserved":false,"is_disabled":false,"rental_uris":{"android":"levelo://app?vid=11fb8b8a-e2f0-4df9-8d01-2d7793fba192","ios":"levelo://app?vid=11fb8b8a-e2f0-4df9-8d01-2d7793fba192"},"vehicle_type_id":"4","last_reported":1739103295,"current_range_meters":38800,"station_id":"ce4bhgp2rcd13ifvqfe0","pricing_plan_id":"cebpf4jnsgd1na2vs0mg"},{"bike_id":"d127a229-8836-4c0f-a071-964ec5978504","system_id":"levelo_inurba_marseille","lat":43.27249,"lon":5.40982,"is_reserved":false,"is_disabled":false,"rental_uris":{"android":"levelo://app?vid=d127a229-8836-4c0f-a071-964ec5978504","ios":"levelo://app?vid=d127a229-8836-4c0f-a071-964ec5978504"},"vehicle_type_id":"4","last_reported":1739103295,"current_range_meters":38800,"station_id":"","pricing_plan_id":"cebpf4jnsgd1na2vs0mg"},{"bike_id":"118b1d9a-bc00-428d-ac60-6949e2e1ff6b","system_id":"levelo_inurba_marseille","lat":43.24802,"lon":5.37448,"is_reserved":false,"is_disabled":false,"rental_uris":{"android":"levelo://app?vid=118b1d9a-bc00-428d-ac60-6949e2e1ff6b","ios":"levelo://app?vid=118b1d9a-bc00-428d-ac60-6949e2e1ff6b"},"vehicle_type_id":"4","last_reported":1739103295,"current_range_meters":28800,"station_id":"ce4bhgh2rcd13ifvqfb0","pricing_plan_id":"cebpf4jnsgd1na2vs0mg"},{"bike_id":"656b3b3b-ebfa-4345-b7c9-9eedd9381155","system_id":"levelo_inurba_marseille","lat":43.30804,"lon":5.40012,"is_reserved":false,"is_disabled":false,"rental_uris":{"android":"levelo://app?vid=656b3b3b-ebfa-4345-b7c9-9eedd9381155","ios":"levelo://app?vid=656b3b3b-ebfa-4345-b7c9-9eedd9381155"},"vehicle_type_id":"4","last_reported":1739103295,"current_range_meters":11600,"station_id":"","pricing_plan_id":"cebpf4jnsgd1na2vs0mg"},{"bike_id":"f572c4d0-7db4-4c29-925c-f9578f18219d","system_id":"levelo_inurba_marseille","lat":43.28418,"lon":5.34992,"is_reserved":false,"is_disabled":false,"rental_uris":{"android":"levelo://app?vid=f572c4d0-7db4-4c29-925c-f9578f18219d","ios":"levelo://app?vid=f572c4d0-7db4-4c29-925c-f9578f18219d"},"vehicle_type_id":"4","last_reported":1739103295,"current_range_meters":26000,"station_id":"ce4bhbh2rcd13ifvqepg","pricing_plan_id":"cebpf4jnsgd1na2vs0mg"},{"bike_id":"4629e9f4-a92f-4ed3-922c-a17bf2af3cae","system_id":"levelo_inurba_marseille","lat":43.25114,"lon":5.40326,"is_reserved":false,"is_disabled":false,"rental_uris":{"android":"levelo://app?vid=4629e9f4-a92f-4ed3-922c-a17bf2af3cae","ios":"levelo://app?vid=4629e9f4-a92f-4ed3-922c-a17bf2af3cae"},"vehicle_type_id":"4","last_reported":1739103295,"current_range_meters":38800,"station_id":"ce4bhlh2rcd13ifvqgig","pricing_plan_id":"cebpf4jnsgd1na2vs0mg"},{"bike_id":"15620aa9-d57b-49b0-a465-273e58125809","system_id":"levelo_inurba_marseille","lat":43.28414,"lon":5.34976,"is_reserved":false,"is_disabled":false,"rental_uris":{"android":"levelo://app?vid=15620aa9-d57b-49b0-a465-273e58125809","ios":"levelo://app?vid=15620aa9-d57b-49b0-a465-273e58125809"},"vehicle_type_id":"4","last_reported":1739103295,"current_range_meters":25200,"station_id":"ce4bhbh2rcd13ifvqepg","pricing_plan_id":"cebpf4jnsgd1na2vs0mg"},{"bike_id":"b51e142c-de4a-4e92-bd38-22dc3a4cd001","system_id":"levelo_inurba_marseille","lat":43.26553,"lon":5.39073,"is_reserved":false,"is_disabled":false,"rental_uris":{"android":"levelo://app?vid=b51e142c-de4a-4e92-bd38-22dc3a4cd001","ios":"levelo://app?vid=b51e142c-de4a-4e92-bd38-22dc3a4cd001"},"vehicle_type_id":"4","last_reported":1739103295,"current_range_meters":17200,"station_id":"ce4bho92rcd13ifvqh3g","pricing_plan_id":"cebpf4jnsgd1na2vs0mg"},{"bike_id":"64e8e2e3-8984-4256-ae2a-ac9cd49207f0","system_id":"levelo_inurba_marseille","lat":43.2828,"lon":5.35078,"is_reserved":false,"is_disabled":false,"rental_uris":{"android":"levelo://app?vid=64e8e2e3-8984-4256-ae2a-ac9cd49207f0","ios":"levelo://app?vid=64e8e2e3-8984-4256-ae2a-ac9cd49207f0"},"vehicle_type_id":"4","last_reported":1739103295,"current_range_meters":37600,"station_id":"ce4bhbp2rcd13ifvqerg","pricing_plan_id":"cebpf4jnsgd1na2vs0mg"},{"bike_id":"61527143-ffda-49eb-a506-812bd03ad92b","system_id":"levelo_inurba_marseille","lat":43.2827,"lon":5.35063,"is_reserved":false,"is_disabled":true,"rental_uris":{"android":"levelo://app?vid=61527143-ffda-49eb-a506-812bd03ad92b","ios":"levelo://app?vid=61527143-ffda-49eb-a506-812bd03ad92b"},"vehicle_type_id":"4","last_reported":1739103295,"current_range_meters":0,"station_id":"ce4bhbp2rcd13ifvqerg","pricing_plan_id":"cebpf4jnsgd1na2vs0mg"},{"bike_id":"7f2deb56-183c-436c-981c-cfbcfece13e6","system_id":"levelo_inurba_marseille","lat":43.2396,"lon":5.36639,"is_reserved":false,"is_disabled":false,"rental_uris":{"android":"levelo://app?vid=7f2deb56-183c-436c-981c-cfbcfece13e6","ios":"levelo://app?vid=7f2deb56-183c-436c-981c-cfbcfece13e6"},"vehicle_type_id":"4","last_reported":1739103295,"current_range_meters":36000,"station_id":"ce4bhi12rcd13ifvqfp0","pricing_plan_id":"cebpf4jnsgd1na2vs0mg"},{"bike_id":"aac5a4ca-b8d0-4641-93c3-6c5e80d60918","system_id":"levelo_inurba_marseille","lat":43.31295,"lon":5.36806,"is_reserved":false,"is_disabled":false,"rental_uris":{"android":"levelo://app?vid=aac5a4ca-b8d0-4641-93c3-6c5e80d60918","ios":"levelo://app?vid=aac5a4ca-b8d0-4641-93c3-6c5e80d60918"},"vehicle_type_id":"4","last_reported":1739103295,"current_range_meters":38800,"station_id":"","pricing_plan_id":"cebpf4jnsgd1na2vs0mg"},{"bike_id":"4247d448-c996-453e-88de-edbb3a34b124","system_id":"levelo_inurba_marseille","lat":43.30154,"lon":5.38087,"is_reserved":false,"is_disabled":false,"rental_uris":{"android":"levelo://app?vid=4247d448-c996-453e-88de-edbb3a34b124","ios":"levelo://app?vid=4247d448-c996-453e-88de-edbb3a34b124"},"vehicle_type_id":"4","last_reported":1739103295,"current_range_meters":27600,"station_id":"ce4bgjp2rcd13ifvqbh0","pricing_plan_id":"cebpf4jnsgd1na2vs0mg"},{"bike_id":"6186afb6-fd6f-42d8-8215-07291eb97707","system_id":"levelo_inurba_marseille","lat":43.24171,"lon":5.39724,"is_reserved":false,"is_disabled":false,"rental_uris":{"android":"levelo://app?vid=6186afb6-fd6f-42d8-8215-07291eb97707","ios":"levelo://app?vid=6186afb6-fd6f-42d8-8215-07291eb97707"},"vehicle_type_id":"4","last_reported":1739103295,"current_range_meters":22800,"station_id":"ce4bhn12rcd13ifvqgpg","pricing_plan_id":"cebpf4jnsgd1na2vs0mg"},{"bike_id":"5223a8ab-1759-4199-88f8-4ead011cc81e","system_id":"levelo_inurba_marseille","lat":43.27561,"lon":5.38457,"is_reserved":false,"is_disabled":false,"rental_uris":{"android":"levelo://app?vid=5223a8ab-1759-4199-88f8-4ead011cc81e","ios":"levelo://app?vid=5223a8ab-1759-4199-88f8-4ead011cc81e"},"vehicle_type_id":"4","last_reported":1739103295,"current_range_meters":38800,"station_id":"ce4bhh92rcd13ifvqfi0","pricing_plan_id":"cebpf4jnsgd1na2vs0mg"},{"bike_id":"abed809c-e7f0-4d2e-ba0b-e3aca6e38076","system_id":"levelo_inurba_marseille","lat":43.27964,"lon":5.40572,"is_reserved":false,"is_disabled":false,"rental_uris":{"android":"levelo://app?vid=abed809c-e7f0-4d2e-ba0b-e3aca6e38076","ios":"levelo://app?vid=abed809c-e7f0-4d2e-ba0b-e3aca6e38076"},"vehicle_type_id":"4","last_reported":1739103295,"current_range_meters":17600,"station_id":"","pricing_plan_id":"cebpf4jnsgd1na2vs0mg"},{"bike_id":"f2df57fd-48fb-42b4-9b53-5e639c9b06ad","system_id":"levelo_inurba_marseille","lat":43.32348,"lon":5.38911,"is_reserved":false,"is_disabled":false,"rental_uris":{"android":"levelo://app?vid=f2df57fd-48fb-42b4-9b53-5e639c9b06ad","ios":"levelo://app?vid=f2df57fd-48fb-42b4-9b53-5e639c9b06ad"},"vehicle_type_id":"4","last_reported":1739103295,"current_range_meters":30000,"station_id":"ce4bhqp2rcd13ifvqhog","pricing_plan_id":"cebpf4jnsgd1na2vs0mg"},{"bike_id":"9f7cf945-ba46-4a30-a487-0537ff799f4a","system_id":"levelo_inurba_marseille","lat":43.27995,"lon":5.4006,"is_reserved":false,"is_disabled":false,"rental_uris":{"android":"levelo://app?vid=9f7cf945-ba46-4a30-a487-0537ff799f4a","ios":"levelo://app?vid=9f7cf945-ba46-4a30-a487-0537ff799f4a"},"vehicle_type_id":"4","last_reported":1739103295,"current_range_meters":16000,"station_id":"ce4bho92rcd13ifvqh4g","pricing_plan_id":"cebpf4jnsgd1na2vs0mg"},{"bike_id":"59db9156-837c-4bef-bdf0-6cb05d00fb23","system_id":"levelo_inurba_marseille","lat":43.24147,"lon":5.36431,"is_reserved":false,"is_disabled":false,"rental_uris":{"android":"levelo://app?vid=59db9156-837c-4bef-bdf0-6cb05d00fb23","ios":"levelo://app?vid=59db9156-837c-4bef-bdf0-6cb05d00fb23"},"vehicle_type_id":"4","last_reported":1739103295,"current_range_meters":24400,"station_id":"cpo36qri1sfpv3e86is0","pricing_plan_id":"cebpf4jnsgd1na2vs0mg"},{"bike_id":"7486797d-9c17-426c-8b8d-0ccea1b61cf7","system_id":"levelo_inurba_marseille","lat":43.24809,"lon":5.37459,"is_reserved":false,"is_disabled":false,"rental_uris":{"android":"levelo://app?vid=7486797d-9c17-426c-8b8d-0ccea1b61cf7","ios":"levelo://app?vid=7486797d-9c17-426c-8b8d-0ccea1b61cf7"},"vehicle_type_id":"4","last_reported":1739103295,"current_range_meters":38800,"station_id":"ce4bhgh2rcd13ifvqfb0","pricing_plan_id":"cebpf4jnsgd1na2vs0mg"},{"bike_id":"b3fa1a07-709c-46d9-9b6e-34f5bd37a1f0","system_id":"levelo_inurba_marseille","lat":43.29574,"lon":5.39965,"is_reserved":false,"is_disabled":false,"rental_uris":{"android":"levelo://app?vid=b3fa1a07-709c-46d9-9b6e-34f5bd37a1f0","ios":"levelo://app?vid=b3fa1a07-709c-46d9-9b6e-34f5bd37a1f0"},"vehicle_type_id":"4","last_reported":1739103295,"current_range_meters":36000,"station_id":"ce4bh312rcd13ifvqdj0","pricing_plan_id":"cebpf4jnsgd1na2vs0mg"},{"bike_id":"f1e9b514-8d63-4512-92a1-4bc9d87c157b","system_id":"levelo_inurba_marseille","lat":43.31715,"lon":5.437,"is_reserved":false,"is_disabled":true,"rental_uris":{"android":"levelo://app?vid=f1e9b514-8d63-4512-92a1-4bc9d87c157b","ios":"levelo://app?vid=f1e9b514-8d63-4512-92a1-4bc9d87c157b"},"vehicle_type_id":"4","last_reported":1739103295,"current_range_meters":800,"station_id":"ce4bhp92rcd13ifvqhcg","pricing_plan_id":"cebpf4jnsgd1na2vs0mg"},{"bike_id":"a0074d74-cecf-48cb-88d9-dfdc2b2fa810","system_id":"levelo_inurba_marseille","lat":43.23936,"lon":5.3666,"is_reserved":false,"is_disabled":false,"rental_uris":{"android":"levelo://app?vid=a0074d74-cecf-48cb-88d9-dfdc2b2fa810","ios":"levelo://app?vid=a0074d74-cecf-48cb-88d9-dfdc2b2fa810"},"vehicle_type_id":"4","last_reported":1739103295,"current_range_meters":17600,"station_id":"ce4bhi12rcd13ifvqfp0","pricing_plan_id":"cebpf4jnsgd1na2vs0mg"},{"bike_id":"41adc636-c40b-4034-8cc3-3dcdbb0d3eaf","system_id":"levelo_inurba_marseille","lat":43.32536,"lon":5.41473,"is_reserved":false,"is_disabled":false,"rental_uris":{"android":"levelo://app?vid=41adc636-c40b-4034-8cc3-3dcdbb0d3eaf","ios":"levelo://app?vid=41adc636-c40b-4034-8cc3-3dcdbb0d3eaf"},"vehicle_type_id":"4","last_reported":1739103295,"current_range_meters":38800,"station_id":"ce4bhq12rcd13ifvqhhg","pricing_plan_id":"cebpf4jnsgd1na2vs0mg"},{"bike_id":"fc8d00e4-07c7-4fd1-8ff2-0a261feae6ed","system_id":"levelo_inurba_marseille","lat":43.28611,"lon":5.3511,"is_reserved":false,"is_disabled":false,"rental_uris":{"android":"levelo://app?vid=fc8d00e4-07c7-4fd1-8ff2-0a261feae6ed","ios":"levelo://app?vid=fc8d00e4-07c7-4fd1-8ff2-0a261feae6ed"},"vehicle_type_id":"4","last_reported":1739103295,"current_range_meters":37600,"station_id":"ce4bhch2rcd13ifvqeug","pricing_plan_id":"cebpf4jnsgd1na2vs0mg"},{"bike_id":"7e424a35-8cf7-4c71-b98f-4231461d22a0","system_id":"levelo_inurba_marseille","lat":43.27491,"lon":5.38989,"is_reserved":false,"is_disabled":false,"rental_uris":{"android":"levelo://app?vid=7e424a35-8cf7-4c71-b98f-4231461d22a0","ios":"levelo://app?vid=7e424a35-8cf7-4c71-b98f-4231461d22a0"},"vehicle_type_id":"4","last_reported":1739103295,"current_range_meters":34800,"station_id":"","pricing_plan_id":"cebpf4jnsgd1na2vs0mg"},{"bike_id":"5bdf4a7a-73e7-421a-9397-7f985b521133","system_id":"levelo_inurba_marseille","lat":43.28456,"lon":5.35888,"is_reserved":false,"is_disabled":false,"rental_uris":{"android":"levelo://app?vid=5bdf4a7a-73e7-421a-9397-7f985b521133","ios":"levelo://app?vid=5bdf4a7a-73e7-421a-9397-7f985b521133"},"vehicle_type_id":"4","last_reported":1739103295,"current_range_meters":28000,"station_id":"ce4bhah2rcd13ifvqei0","pricing_plan_id":"cebpf4jnsgd1na2vs0mg"},{"bike_id":"9189e0cd-d5d1-46a9-97ed-08ec6d7d8cc9","system_id":"levelo_inurba_marseille","lat":43.29967,"lon":5.38482,"is_reserved":false,"is_disabled":true,"rental_uris":{"android":"levelo://app?vid=9189e0cd-d5d1-46a9-97ed-08ec6d7d8cc9","ios":"levelo://app?vid=9189e0cd-d5d1-46a9-97ed-08ec6d7d8cc9"},"vehicle_type_id":"4","last_reported":1739103295,"current_range_meters":38800,"station_id":"ce4bgj92rcd13ifvqbd0","pricing_plan_id":"cebpf4jnsgd1na2vs0mg"},{"bike_id":"688cb102-28ba-4c7e-885f-41414f9433e9","system_id":"levelo_inurba_marseille","lat":43.25571,"lon":5.38248,"is_reserved":false,"is_disabled":false,"rental_uris":{"android":"levelo://app?vid=688cb102-28ba-4c7e-885f-41414f9433e9","ios":"levelo://app?vid=688cb102-28ba-4c7e-885f-41414f9433e9"},"vehicle_type_id":"4","last_reported":1739103295,"current_range_meters":18800,"station_id":"ce4bhih2rcd13ifvqfs0","pricing_plan_id":"cebpf4jnsgd1na2vs0mg"},{"bike_id":"9c3ed8fb-7268-418c-ac09-3f255c9e9b5e","system_id":"levelo_inurba_marseille","lat":43.280368,"lon":5.369441,"is_reserved":false,"is_disabled":false,"rental_uris":{"android":"levelo://app?vid=9c3ed8fb-7268-418c-ac09-3f255c9e9b5e","ios":"levelo://app?vid=9c3ed8fb-7268-418c-ac09-3f255c9e9b5e"},"vehicle_type_id":"4","last_reported":1739103295,"current_range_meters":37600,"station_id":"ce4bha12rcd13ifvqef0","pricing_plan_id":"cebpf4jnsgd1na2vs0mg"},{"bike_id":"c9ddcdca-0c8e-40e1-86b9-4707dbafeb2e","system_id":"levelo_inurba_marseille","lat":43.28406,"lon":5.34993,"is_reserved":false,"is_disabled":false,"rental_uris":{"android":"levelo://app?vid=c9ddcdca-0c8e-40e1-86b9-4707dbafeb2e","ios":"levelo://app?vid=c9ddcdca-0c8e-40e1-86b9-4707dbafeb2e"},"vehicle_type_id":"4","last_reported":1739103295,"current_range_meters":26000,"station_id":"ce4bhbh2rcd13ifvqepg","pricing_plan_id":"cebpf4jnsgd1na2vs0mg"},{"bike_id":"16f12e8d-10b1-49e6-a814-bca684947f57","system_id":"levelo_inurba_marseille","lat":43.30151,"lon":5.38075,"is_reserved":false,"is_disabled":false,"rental_uris":{"android":"levelo://app?vid=16f12e8d-10b1-49e6-a814-bca684947f57","ios":"levelo://app?vid=16f12e8d-10b1-49e6-a814-bca684947f57"},"vehicle_type_id":"4","last_reported":1739103295,"current_range_meters":38800,"station_id":"ce4bgjp2rcd13ifvqbh0","pricing_plan_id":"cebpf4jnsgd1na2vs0mg"},{"bike_id":"7a230c4d-3963-4b09-8c58-f19ddcbd8c5e","system_id":"levelo_inurba_marseille","lat":43.28607,"lon":5.37064,"is_reserved":false,"is_disabled":false,"rental_uris":{"android":"levelo://app?vid=7a230c4d-3963-4b09-8c58-f19ddcbd8c5e","ios":"levelo://app?vid=7a230c4d-3963-4b09-8c58-f19ddcbd8c5e"},"vehicle_type_id":"4","last_reported":1739103295,"current_range_meters":34800,"station_id":"ce4bht12rcd13ifvqi60","pricing_plan_id":"cebpf4jnsgd1na2vs0mg"},{"bike_id":"482bb069-4c30-4f2c-a988-23832f72e762","system_id":"levelo_inurba_marseille","lat":43.28946,"lon":5.39643,"is_reserved":false,"is_disabled":false,"rental_uris":{"android":"levelo://app?vid=482bb069-4c30-4f2c-a988-23832f72e762","ios":"levelo://app?vid=482bb069-4c30-4f2c-a988-23832f72e762"},"vehicle_type_id":"4","last_reported":1739103295,"current_range_meters":20800,"station_id":"ce4bh3h2rcd13ifvqdn0","pricing_plan_id":"cebpf4jnsgd1na2vs0mg"},{"bike_id":"6ff781d1-2621-44d1-b299-83b571f09432","system_id":"levelo_inurba_marseille","lat":43.34059,"lon":5.38515,"is_reserved":false,"is_disabled":true,"rental_uris":{"android":"levelo://app?vid=6ff781d1-2621-44d1-b299-83b571f09432","ios":"levelo://app?vid=6ff781d1-2621-44d1-b299-83b571f09432"},"vehicle_type_id":"4","last_reported":1739103295,"current_range_meters":0,"station_id":"","pricing_plan_id":"cebpf4jnsgd1na2vs0mg"},{"bike_id":"12a5adf2-053c-4a9b-a118-e30c811e4f95","system_id":"levelo_inurba_marseille","lat":43.2843,"lon":5.34997,"is_reserved":false,"is_disabled":false,"rental_uris":{"android":"levelo://app?vid=12a5adf2-053c-4a9b-a118-e30c811e4f95","ios":"levelo://app?vid=12a5adf2-053c-4a9b-a118-e30c811e4f95"},"vehicle_type_id":"4","last_reported":1739103295,"current_range_meters":36400,"station_id":"ce4bhbh2rcd13ifvqepg","pricing_plan_id":"cebpf4jnsgd1na2vs0mg"},{"bike_id":"f2354b3b-9398-430a-991c-0c108e9a4c6a","system_id":"levelo_inurba_marseille","lat":43.30299,"lon":5.3921,"is_reserved":false,"is_disabled":true,"rental_uris":{"android":"levelo://app?vid=f2354b3b-9398-430a-991c-0c108e9a4c6a","ios":"levelo://app?vid=f2354b3b-9398-430a-991c-0c108e9a4c6a"},"vehicle_type_id":"4","last_reported":1739103295,"current_range_meters":38800,"station_id":"ce4bgkh2rcd13ifvqbk0","pricing_plan_id":"cebpf4jnsgd1na2vs0mg"},{"bike_id":"023da4ba-3275-433f-9c20-6aa1fe5c1824","system_id":"levelo_inurba_marseille","lat":43.24069,"lon":5.37761,"is_reserved":false,"is_disabled":false,"rental_uris":{"android":"levelo://app?vid=023da4ba-3275-433f-9c20-6aa1fe5c1824","ios":"levelo://app?vid=023da4ba-3275-433f-9c20-6aa1fe5c1824"},"vehicle_type_id":"4","last_reported":1739103295,"current_range_meters":35200,"station_id":"ce4bhnp2rcd13ifvqgvg","pricing_plan_id":"cebpf4jnsgd1na2vs0mg"},{"bike_id":"b6b3a746-44ea-413e-abf1-53a85b29d182","system_id":"levelo_inurba_marseille","lat":43.25714,"lon":5.41125,"is_reserved":false,"is_disabled":false,"rental_uris":{"android":"levelo://app?vid=b6b3a746-44ea-413e-abf1-53a85b29d182","ios":"levelo://app?vid=b6b3a746-44ea-413e-abf1-53a85b29d182"},"vehicle_type_id":"4","last_reported":1739103295,"current_range_meters":12800,"station_id":"ce4bhkp2rcd13ifvqgd0","pricing_plan_id":"cebpf4jnsgd1na2vs0mg"},{"bike_id":"fc27cc67-0de9-4972-9ba4-f0b467e96b7c","system_id":"levelo_inurba_marseille","lat":43.246597,"lon":5.381753,"is_reserved":false,"is_disabled":false,"rental_uris":{"android":"levelo://app?vid=fc27cc67-0de9-4972-9ba4-f0b467e96b7c","ios":"levelo://app?vid=fc27cc67-0de9-4972-9ba4-f0b467e96b7c"},"vehicle_type_id":"4","last_reported":1739103295,"current_range_meters":38800,"station_id":"ce4bhih2rcd13ifvqfr0","pricing_plan_id":"cebpf4jnsgd1na2vs0mg"},{"bike_id":"e7c9102f-de83-43c3-a871-1b6285552687","system_id":"levelo_inurba_marseille","lat":43.30173,"lon":5.38067,"is_reserved":false,"is_disabled":false,"rental_uris":{"android":"levelo://app?vid=e7c9102f-de83-43c3-a871-1b6285552687","ios":"levelo://app?vid=e7c9102f-de83-43c3-a871-1b6285552687"},"vehicle_type_id":"4","last_reported":1739103295,"current_range_meters":35200,"station_id":"ce4bgjp2rcd13ifvqbh0","pricing_plan_id":"cebpf4jnsgd1na2vs0mg"},{"bike_id":"b8d0144c-5988-493e-8ab4-2cbecc574522","system_id":"levelo_inurba_marseille","lat":43.27998,"lon":5.40017,"is_reserved":false,"is_disabled":false,"rental_uris":{"android":"levelo://app?vid=b8d0144c-5988-493e-8ab4-2cbecc574522","ios":"levelo://app?vid=b8d0144c-5988-493e-8ab4-2cbecc574522"},"vehicle_type_id":"4","last_reported":1739103295,"current_range_meters":31200,"station_id":"ce4bho92rcd13ifvqh4g","pricing_plan_id":"cebpf4jnsgd1na2vs0mg"},{"bike_id":"4eb76448-eaf5-41bb-bffe-e4bd1b60aaf0","system_id":"levelo_inurba_marseille","lat":43.26557,"lon":5.37301,"is_reserved":false,"is_disabled":true,"rental_uris":{"android":"levelo://app?vid=4eb76448-eaf5-41bb-bffe-e4bd1b60aaf0","ios":"levelo://app?vid=4eb76448-eaf5-41bb-bffe-e4bd1b60aaf0"},"vehicle_type_id":"4","last_reported":1739103295,"current_range_meters":36800,"station_id":"ce4bhg12rcd13ifvqf70","pricing_plan_id":"cebpf4jnsgd1na2vs0mg"},{"bike_id":"e2200dc8-d2f7-4f30-b1b2-4f395de74e61","system_id":"levelo_inurba_marseille","lat":43.3114,"lon":5.37769,"is_reserved":false,"is_disabled":false,"rental_uris":{"android":"levelo://app?vid=e2200dc8-d2f7-4f30-b1b2-4f395de74e61","ios":"levelo://app?vid=e2200dc8-d2f7-4f30-b1b2-4f395de74e61"},"vehicle_type_id":"4","last_reported":1739103295,"current_range_meters":25600,"station_id":"ce4bgt92rcd13ifvqcg0","pricing_plan_id":"cebpf4jnsgd1na2vs0mg"},{"bike_id":"581f27e3-16d8-45cf-a156-a70dbf2559a1","system_id":"levelo_inurba_marseille","lat":43.240587,"lon":5.377731,"is_reserved":false,"is_disabled":false,"rental_uris":{"android":"levelo://app?vid=581f27e3-16d8-45cf-a156-a70dbf2559a1","ios":"levelo://app?vid=581f27e3-16d8-45cf-a156-a70dbf2559a1"},"vehicle_type_id":"4","last_reported":1739103295,"current_range_meters":20400,"station_id":"ce4bhnp2rcd13ifvqgvg","pricing_plan_id":"cebpf4jnsgd1na2vs0mg"},{"bike_id":"ccc01d27-0460-40f9-ba6c-5b58d25f17ea","system_id":"levelo_inurba_marseille","lat":43.27896,"lon":5.38005,"is_reserved":false,"is_disabled":false,"rental_uris":{"android":"levelo://app?vid=ccc01d27-0460-40f9-ba6c-5b58d25f17ea","ios":"levelo://app?vid=ccc01d27-0460-40f9-ba6c-5b58d25f17ea"},"vehicle_type_id":"4","last_reported":1739103295,"current_range_meters":29600,"station_id":"ce4bhf92rcd13ifvqf50","pricing_plan_id":"cebpf4jnsgd1na2vs0mg"},{"bike_id":"1c7cae22-5146-431c-8881-113a6b238f65","system_id":"levelo_inurba_marseille","lat":43.29367,"lon":5.37844,"is_reserved":false,"is_disabled":false,"rental_uris":{"android":"levelo://app?vid=1c7cae22-5146-431c-8881-113a6b238f65","ios":"levelo://app?vid=1c7cae22-5146-431c-8881-113a6b238f65"},"vehicle_type_id":"4","last_reported":1739103295,"current_range_meters":9600,"station_id":"ce4bgjh2rcd13ifvqbf0","pricing_plan_id":"cebpf4jnsgd1na2vs0mg"},{"bike_id":"891e205f-edb6-4417-95d0-d323fb0f946a","system_id":"levelo_inurba_marseille","lat":43.30541,"lon":5.36703,"is_reserved":false,"is_disabled":false,"rental_uris":{"android":"levelo://app?vid=891e205f-edb6-4417-95d0-d323fb0f946a","ios":"levelo://app?vid=891e205f-edb6-4417-95d0-d323fb0f946a"},"vehicle_type_id":"4","last_reported":1739103295,"current_range_meters":36400,"station_id":"ce4bgrp2rcd13ifvqc9g","pricing_plan_id":"cebpf4jnsgd1na2vs0mg"},{"bike_id":"5548099f-3d20-4527-ac00-8c94cf8efa93","system_id":"levelo_inurba_marseille","lat":43.29625,"lon":5.3715,"is_reserved":false,"is_disabled":false,"rental_uris":{"android":"levelo://app?vid=5548099f-3d20-4527-ac00-8c94cf8efa93","ios":"levelo://app?vid=5548099f-3d20-4527-ac00-8c94cf8efa93"},"vehicle_type_id":"4","last_reported":1739103295,"current_range_meters":16400,"station_id":"ce4bgnh2rcd13ifvqc0g","pricing_plan_id":"cebpf4jnsgd1na2vs0mg"},{"bike_id":"ad230dc4-5a6a-4c85-9471-2a7c52ef0c97","system_id":"levelo_inurba_marseille","lat":43.30416,"lon":5.39755,"is_reserved":false,"is_disabled":false,"rental_uris":{"android":"levelo://app?vid=ad230dc4-5a6a-4c85-9471-2a7c52ef0c97","ios":"levelo://app?vid=ad230dc4-5a6a-4c85-9471-2a7c52ef0c97"},"vehicle_type_id":"4","last_reported":1739103295,"current_range_meters":28800,"station_id":"ce4bh092rcd13ifvqd20","pricing_plan_id":"cebpf4jnsgd1na2vs0mg"},{"bike_id":"b3463cd4-ee6a-4d8d-b069-09f3e724a0c0","system_id":"levelo_inurba_marseille","lat":43.26255,"lon":5.40415,"is_reserved":false,"is_disabled":false,"rental_uris":{"android":"levelo://app?vid=b3463cd4-ee6a-4d8d-b069-09f3e724a0c0","ios":"levelo://app?vid=b3463cd4-ee6a-4d8d-b069-09f3e724a0c0"},"vehicle_type_id":"4","last_reported":1739103295,"current_range_meters":32000,"station_id":"","pricing_plan_id":"cebpf4jnsgd1na2vs0mg"},{"bike_id":"54821b8f-03ba-4360-abc1-91db00db4644","system_id":"levelo_inurba_marseille","lat":43.25507,"lon":5.37649,"is_reserved":false,"is_disabled":false,"rental_uris":{"android":"levelo://app?vid=54821b8f-03ba-4360-abc1-91db00db4644","ios":"levelo://app?vid=54821b8f-03ba-4360-abc1-91db00db4644"},"vehicle_type_id":"4","last_reported":1739103295,"current_range_meters":38800,"station_id":"ce4bhh12rcd13ifvqff0","pricing_plan_id":"cebpf4jnsgd1na2vs0mg"},{"bike_id":"48cfa1b6-cea4-46a9-9cd0-36a8c7915375","system_id":"levelo_inurba_marseille","lat":43.27062,"lon":5.40262,"is_reserved":false,"is_disabled":false,"rental_uris":{"android":"levelo://app?vid=48cfa1b6-cea4-46a9-9cd0-36a8c7915375","ios":"levelo://app?vid=48cfa1b6-cea4-46a9-9cd0-36a8c7915375"},"vehicle_type_id":"4","last_reported":1739103295,"current_range_meters":38800,"station_id":"ce4bhk92rcd13ifvqgc0","pricing_plan_id":"cebpf4jnsgd1na2vs0mg"},{"bike_id":"66a32674-0e22-4208-bc59-e57e45db52af","system_id":"levelo_inurba_marseille","lat":43.25009,"lon":5.38958,"is_reserved":false,"is_disabled":false,"rental_uris":{"android":"levelo://app?vid=66a32674-0e22-4208-bc59-e57e45db52af","ios":"levelo://app?vid=66a32674-0e22-4208-bc59-e57e45db52af"},"vehicle_type_id":"4","last_reported":1739103295,"current_range_meters":28400,"station_id":"ce4bhgp2rcd13ifvqfd0","pricing_plan_id":"cebpf4jnsgd1na2vs0mg"},{"bike_id":"811b596f-d366-4ba7-8bb7-6aab07e70a55","system_id":"levelo_inurba_marseille","lat":43.28284,"lon":5.35087,"is_reserved":false,"is_disabled":false,"rental_uris":{"android":"levelo://app?vid=811b596f-d366-4ba7-8bb7-6aab07e70a55","ios":"levelo://app?vid=811b596f-d366-4ba7-8bb7-6aab07e70a55"},"vehicle_type_id":"4","last_reported":1739103295,"current_range_meters":16000,"station_id":"ce4bhbp2rcd13ifvqerg","pricing_plan_id":"cebpf4jnsgd1na2vs0mg"},{"bike_id":"213121fc-8105-4127-83ce-0c8d78bb7544","system_id":"levelo_inurba_marseille","lat":43.3136,"lon":5.39722,"is_reserved":false,"is_disabled":false,"rental_uris":{"android":"levelo://app?vid=213121fc-8105-4127-83ce-0c8d78bb7544","ios":"levelo://app?vid=213121fc-8105-4127-83ce-0c8d78bb7544"},"vehicle_type_id":"4","last_reported":1739103295,"current_range_meters":25600,"station_id":"ce4bgvp2rcd13ifvqcu0","pricing_plan_id":"cebpf4jnsgd1na2vs0mg"},{"bike_id":"add99ff6-f54a-4f52-b2a1-c4071c3f0d53","system_id":"levelo_inurba_marseille","lat":43.26689,"lon":5.38264,"is_reserved":false,"is_disabled":false,"rental_uris":{"android":"levelo://app?vid=add99ff6-f54a-4f52-b2a1-c4071c3f0d53","ios":"levelo://app?vid=add99ff6-f54a-4f52-b2a1-c4071c3f0d53"},"vehicle_type_id":"4","last_reported":1739103295,"current_range_meters":27600,"station_id":"ce4bhg92rcd13ifvqf90","pricing_plan_id":"cebpf4jnsgd1na2vs0mg"},{"bike_id":"d8f62340-4eca-4551-9614-e0d9ad9e8911","system_id":"levelo_inurba_marseille","lat":43.2695,"lon":5.386365,"is_reserved":false,"is_disabled":false,"rental_uris":{"android":"levelo://app?vid=d8f62340-4eca-4551-9614-e0d9ad9e8911","ios":"levelo://app?vid=d8f62340-4eca-4551-9614-e0d9ad9e8911"},"vehicle_type_id":"4","last_reported":1739103295,"current_range_meters":14400,"station_id":"ce4bhh92rcd13ifvqfh0","pricing_plan_id":"cebpf4jnsgd1na2vs0mg"},{"bike_id":"25abaf33-067a-4b80-89fd-6dd825a080ab","system_id":"levelo_inurba_marseille","lat":43.30168,"lon":5.38083,"is_reserved":false,"is_disabled":false,"rental_uris":{"android":"levelo://app?vid=25abaf33-067a-4b80-89fd-6dd825a080ab","ios":"levelo://app?vid=25abaf33-067a-4b80-89fd-6dd825a080ab"},"vehicle_type_id":"4","last_reported":1739103295,"current_range_meters":38800,"station_id":"ce4bgjp2rcd13ifvqbh0","pricing_plan_id":"cebpf4jnsgd1na2vs0mg"},{"bike_id":"c54adf54-2f88-445c-8d8e-45419eb2600c","system_id":"levelo_inurba_marseille","lat":43.30668,"lon":5.37353,"is_reserved":false,"is_disabled":false,"rental_uris":{"android":"levelo://app?vid=c54adf54-2f88-445c-8d8e-45419eb2600c","ios":"levelo://app?vid=c54adf54-2f88-445c-8d8e-45419eb2600c"},"vehicle_type_id":"4","last_reported":1739103295,"current_range_meters":8000,"station_id":"","pricing_plan_id":"cebpf4jnsgd1na2vs0mg"},{"bike_id":"06b81e0b-f59f-442b-8367-23cebd52cf43","system_id":"levelo_inurba_marseille","lat":43.27406,"lon":5.39397,"is_reserved":false,"is_disabled":false,"rental_uris":{"android":"levelo://app?vid=06b81e0b-f59f-442b-8367-23cebd52cf43","ios":"levelo://app?vid=06b81e0b-f59f-442b-8367-23cebd52cf43"},"vehicle_type_id":"4","last_reported":1739103295,"current_range_meters":38800,"station_id":"ce4bhdp2rcd13ifvqf20","pricing_plan_id":"cebpf4jnsgd1na2vs0mg"},{"bike_id":"455a36df-3663-418c-af3b-ce691823bf7f","system_id":"levelo_inurba_marseille","lat":43.30167,"lon":5.38077,"is_reserved":false,"is_disabled":false,"rental_uris":{"android":"levelo://app?vid=455a36df-3663-418c-af3b-ce691823bf7f","ios":"levelo://app?vid=455a36df-3663-418c-af3b-ce691823bf7f"},"vehicle_type_id":"4","last_reported":1739103295,"current_range_meters":38800,"station_id":"ce4bgjp2rcd13ifvqbh0","pricing_plan_id":"cebpf4jnsgd1na2vs0mg"},{"bike_id":"be61678a-055f-4cad-87b0-c5a707ca2316","system_id":"levelo_inurba_marseille","lat":43.28614,"lon":5.35101,"is_reserved":false,"is_disabled":false,"rental_uris":{"android":"levelo://app?vid=be61678a-055f-4cad-87b0-c5a707ca2316","ios":"levelo://app?vid=be61678a-055f-4cad-87b0-c5a707ca2316"},"vehicle_type_id":"4","last_reported":1739103295,"current_range_meters":34000,"station_id":"ce4bhch2rcd13ifvqeug","pricing_plan_id":"cebpf4jnsgd1na2vs0mg"},{"bike_id":"f9438944-6d7f-4d99-b575-fb4f3f5cf680","system_id":"levelo_inurba_marseille","lat":43.24802,"lon":5.37461,"is_reserved":false,"is_disabled":false,"rental_uris":{"android":"levelo://app?vid=f9438944-6d7f-4d99-b575-fb4f3f5cf680","ios":"levelo://app?vid=f9438944-6d7f-4d99-b575-fb4f3f5cf680"},"vehicle_type_id":"4","last_reported":1739103295,"current_range_meters":8400,"station_id":"ce4bhgh2rcd13ifvqfb0","pricing_plan_id":"cebpf4jnsgd1na2vs0mg"},{"bike_id":"49ad4b8c-5d5c-4a58-a784-a97fe60e5f1d","system_id":"levelo_inurba_marseille","lat":43.2694,"lon":5.40257,"is_reserved":false,"is_disabled":false,"rental_uris":{"android":"levelo://app?vid=49ad4b8c-5d5c-4a58-a784-a97fe60e5f1d","ios":"levelo://app?vid=49ad4b8c-5d5c-4a58-a784-a97fe60e5f1d"},