{"last_updated":1737104989,"ttl":60,"version":"2.2","data":{"bikes":[{"bike_id":"bf61f872-c7c0-4fc9-a695-cd372fc44eec","system_id":"levelo_inurba_marseille","lat":43.29616,"lon":5.37733,"is_reserved":false,"is_disabled":false,"rental_uris":{"android":"levelo://app?vid=bf61f872-c7c0-4fc9-a695-cd372fc44eec","ios":"levelo://app?vid=bf61f872-c7c0-4fc9-a695-cd372fc44eec"},"vehicle_type_id":"4","last_reported":1737104989,"current_range_meters":17200,"station_id":"ce4bgi92rcd13ifvqb90","pricing_plan_id":"cebpf4jnsgd1na2vs0mg"},{"bike_id":"93643766-213d-48d1-a499-bff31fcc86e4","system_id":"levelo_inurba_marseille","lat":43.25152,"lon":5.40317,"is_reserved":false,"is_disabled":true,"rental_uris":{"android":"levelo://app?vid=93643766-213d-48d1-a499-bff31fcc86e4","ios":"levelo://app?vid=93643766-213d-48d1-a499-bff31fcc86e4"},"vehicle_type_id":"4","last_reported":1737104989,"current_range_meters":38800,"station_id":"","pricing_plan_id":"cebpf4jnsgd1na2vs0mg"},{"bike_id":"e5286821-3788-4028-9a69-b47d06f8b759","system_id":"levelo_inurba_marseille","lat":43.30239,"lon":5.40057,"is_reserved":false,"is_disabled":false,"rental_uris":{"android":"levelo://app?vid=e5286821-3788-4028-9a69-b47d06f8b759","ios":"levelo://app?vid=e5286821-3788-4028-9a69-b47d06f8b759"},"vehicle_type_id":"4","last_reported":1737104989,"current_range_meters":8000,"station_id":"ce4bgvh2rcd13ifvqcs0","pricing_plan_id":"cebpf4jnsgd1na2vs0mg"},{"bike_id":"fef9d69f-eb11-4ee8-adea-2d8ab5ebd976","system_id":"levelo_inurba_marseille","lat":43.27491,"lon":5.42467,"is_reserved":false,"is_disabled":false,"rental_uris":{"android":"levelo://app?vid=fef9d69f-eb11-4ee8-adea-2d8ab5ebd976","ios":"levelo://app?vid=fef9d69f-eb11-4ee8-adea-2d8ab5ebd976"},"vehicle_type_id":"4","last_reported":1737104989,"current_range_meters":30800,"station_id":"ce4bhn92rcd13ifvqgrg","pricing_plan_id":"cebpf4jnsgd1na2vs0mg"},{"bike_id":"753ccb49-949e-4f76-bbe4-861c2515eec4","system_id":"levelo_inurba_marseille","lat":43.29913,"lon":5.37488,"is_reserved":false,"is_disabled":false,"rental_uris":{"android":"levelo://app?vid=753ccb49-949e-4f76-bbe4-861c2515eec4","ios":"levelo://app?vid=753ccb49-949e-4f76-bbe4-861c2515eec4"},"vehicle_type_id":"4","last_reported":1737104989,"current_range_meters":38800,"station_id":"ce4bgjh2rcd13ifvqbg0","pricing_plan_id":"cebpf4jnsgd1na2vs0mg"},{"bike_id":"a39c946b-f215-435b-b58f-d6dc4c7b0aaf","system_id":"levelo_inurba_marseille","lat":43.28139,"lon":5.42657,"is_reserved":false,"is_disabled":true,"rental_uris":{"android":"levelo://app?vid=a39c946b-f215-435b-b58f-d6dc4c7b0aaf","ios":"levelo://app?vid=a39c946b-f215-435b-b58f-d6dc4c7b0aaf"},"vehicle_type_id":"4","last_reported":1737104989,"current_range_meters":35200,"station_id":"ce4bhnh2rcd13ifvqgug","pricing_plan_id":"cebpf4jnsgd1na2vs0mg"},{"bike_id":"0b3db7fa-f56f-431e-9413-b99a7fab1950","system_id":"levelo_inurba_marseille","lat":43.29268,"lon":5.36854,"is_reserved":false,"is_disabled":false,"rental_uris":{"android":"levelo://app?vid=0b3db7fa-f56f-431e-9413-b99a7fab1950","ios":"levelo://app?vid=0b3db7fa-f56f-431e-9413-b99a7fab1950"},"vehicle_type_id":"4","last_reported":1737104989,"current_range_meters":33600,"station_id":"ce4bhbp2rcd13ifvqesg","pricing_plan_id":"cebpf4jnsgd1na2vs0mg"},{"bike_id":"391cf486-142c-4be0-bb26-f8b8acd9896a","system_id":"levelo_inurba_marseille","lat":43.29027,"lon":5.39972,"is_reserved":false,"is_disabled":false,"rental_uris":{"android":"levelo://app?vid=391cf486-142c-4be0-bb26-f8b8acd9896a","ios":"levelo://app?vid=391cf486-142c-4be0-bb26-f8b8acd9896a"},"vehicle_type_id":"4","last_reported":1737104989,"current_range_meters":22400,"station_id":"ce4bh392rcd13ifvqdm0","pricing_plan_id":"cebpf4jnsgd1na2vs0mg"},{"bike_id":"622d0e13-9c3a-4a69-ab66-003feb5d4340","system_id":"levelo_inurba_marseille","lat":43.26955,"lon":5.38628,"is_reserved":false,"is_disabled":false,"rental_uris":{"android":"levelo://app?vid=622d0e13-9c3a-4a69-ab66-003feb5d4340","ios":"levelo://app?vid=622d0e13-9c3a-4a69-ab66-003feb5d4340"},"vehicle_type_id":"4","last_reported":1737104989,"current_range_meters":28800,"station_id":"ce4bhh92rcd13ifvqfh0","pricing_plan_id":"cebpf4jnsgd1na2vs0mg"},{"bike_id":"352789ba-5de3-4f6e-84a8-32c41d59996f","system_id":"levelo_inurba_marseille","lat":43.30284,"lon":5.377,"is_reserved":false,"is_disabled":false,"rental_uris":{"android":"levelo://app?vid=352789ba-5de3-4f6e-84a8-32c41d59996f","ios":"levelo://app?vid=352789ba-5de3-4f6e-84a8-32c41d59996f"},"vehicle_type_id":"4","last_reported":1737104989,"current_range_meters":16400,"station_id":"ce4bguh2rcd13ifvqcj0","pricing_plan_id":"cebpf4jnsgd1na2vs0mg"},{"bike_id":"25b01166-8b4c-49d6-8386-8f83eb8111f5","system_id":"levelo_inurba_marseille","lat":43.25821,"lon":5.3942,"is_reserved":false,"is_disabled":false,"rental_uris":{"android":"levelo://app?vid=25b01166-8b4c-49d6-8386-8f83eb8111f5","ios":"levelo://app?vid=25b01166-8b4c-49d6-8386-8f83eb8111f5"},"vehicle_type_id":"4","last_reported":1737104989,"current_range_meters":38800,"station_id":"ce4bhip2rcd13ifvqft0","pricing_plan_id":"cebpf4jnsgd1na2vs0mg"},{"bike_id":"a4cea0cb-baac-4ddb-a6b2-572f0d25b4ba","system_id":"levelo_inurba_marseille","lat":43.30951,"lon":5.39035,"is_reserved":false,"is_disabled":false,"rental_uris":{"android":"levelo://app?vid=a4cea0cb-baac-4ddb-a6b2-572f0d25b4ba","ios":"levelo://app?vid=a4cea0cb-baac-4ddb-a6b2-572f0d25b4ba"},"vehicle_type_id":"4","last_reported":1737104989,"current_range_meters":12800,"station_id":"ce4bgup2rcd13ifvqco0","pricing_plan_id":"cebpf4jnsgd1na2vs0mg"},{"bike_id":"75af83de-4768-4db0-966d-e644eadea2da","system_id":"levelo_inurba_marseille","lat":43.25,"lon":5.38934,"is_reserved":false,"is_disabled":false,"rental_uris":{"android":"levelo://app?vid=75af83de-4768-4db0-966d-e644eadea2da","ios":"levelo://app?vid=75af83de-4768-4db0-966d-e644eadea2da"},"vehicle_type_id":"4","last_reported":1737104989,"current_range_meters":23200,"station_id":"ce4bhgp2rcd13ifvqfd0","pricing_plan_id":"cebpf4jnsgd1na2vs0mg"},{"bike_id":"8c5e0a5d-35be-4e1e-a55d-e41acd54cf77","system_id":"levelo_inurba_marseille","lat":43.24039,"lon":5.37753,"is_reserved":false,"is_disabled":false,"rental_uris":{"android":"levelo://app?vid=8c5e0a5d-35be-4e1e-a55d-e41acd54cf77","ios":"levelo://app?vid=8c5e0a5d-35be-4e1e-a55d-e41acd54cf77"},"vehicle_type_id":"4","last_reported":1737104989,"current_range_meters":25600,"station_id":"ce4bhnp2rcd13ifvqgvg","pricing_plan_id":"cebpf4jnsgd1na2vs0mg"},{"bike_id":"9564712b-78a3-4ed3-8291-2e2ae6c0de18","system_id":"levelo_inurba_marseille","lat":43.30527,"lon":5.36535,"is_reserved":false,"is_disabled":false,"rental_uris":{"android":"levelo://app?vid=9564712b-78a3-4ed3-8291-2e2ae6c0de18","ios":"levelo://app?vid=9564712b-78a3-4ed3-8291-2e2ae6c0de18"},"vehicle_type_id":"4","last_reported":1737104989,"current_range_meters":38800,"station_id":"ce4bgs12rcd13ifvqcag","pricing_plan_id":"cebpf4jnsgd1na2vs0mg"},{"bike_id":"ec628bb1-7486-496e-9453-1f0ffdb389fc","system_id":"levelo_inurba_marseille","lat":43.26949,"lon":5.38642,"is_reserved":false,"is_disabled":false,"rental_uris":{"android":"levelo://app?vid=ec628bb1-7486-496e-9453-1f0ffdb389fc","ios":"levelo://app?vid=ec628bb1-7486-496e-9453-1f0ffdb389fc"},"vehicle_type_id":"4","last_reported":1737104989,"current_range_meters":29600,"station_id":"ce4bhh92rcd13ifvqfh0","pricing_plan_id":"cebpf4jnsgd1na2vs0mg"},{"bike_id":"c1c86519-f5cc-47e9-b005-50914b54ad15","system_id":"levelo_inurba_marseille","lat":43.29048,"lon":5.37576,"is_reserved":false,"is_disabled":false,"rental_uris":{"android":"levelo://app?vid=c1c86519-f5cc-47e9-b005-50914b54ad15","ios":"levelo://app?vid=c1c86519-f5cc-47e9-b005-50914b54ad15"},"vehicle_type_id":"4","last_reported":1737104989,"current_range_meters":32000,"station_id":"ce4bh692rcd13ifvqe90","pricing_plan_id":"cebpf4jnsgd1na2vs0mg"},{"bike_id":"ab67834a-26d7-4518-8349-5d073114b8c1","system_id":"levelo_inurba_marseille","lat":43.30281,"lon":5.37704,"is_reserved":false,"is_disabled":false,"rental_uris":{"android":"levelo://app?vid=ab67834a-26d7-4518-8349-5d073114b8c1","ios":"levelo://app?vid=ab67834a-26d7-4518-8349-5d073114b8c1"},"vehicle_type_id":"4","last_reported":1737104989,"current_range_meters":36800,"station_id":"ce4bguh2rcd13ifvqcj0","pricing_plan_id":"cebpf4jnsgd1na2vs0mg"},{"bike_id":"7f02950a-6af8-4077-8bd4-f17cb739a40e","system_id":"levelo_inurba_marseille","lat":43.27069,"lon":5.42278,"is_reserved":false,"is_disabled":false,"rental_uris":{"android":"levelo://app?vid=7f02950a-6af8-4077-8bd4-f17cb739a40e","ios":"levelo://app?vid=7f02950a-6af8-4077-8bd4-f17cb739a40e"},"vehicle_type_id":"4","last_reported":1737104989,"current_range_meters":16800,"station_id":"ce4bhk92rcd13ifvqgb0","pricing_plan_id":"cebpf4jnsgd1na2vs0mg"},{"bike_id":"d0790979-642c-4578-9799-6dcaf9a868a4","system_id":"levelo_inurba_marseille","lat":43.305386,"lon":5.365471,"is_reserved":false,"is_disabled":false,"rental_uris":{"android":"levelo://app?vid=d0790979-642c-4578-9799-6dcaf9a868a4","ios":"levelo://app?vid=d0790979-642c-4578-9799-6dcaf9a868a4"},"vehicle_type_id":"4","last_reported":1737104989,"current_range_meters":30800,"station_id":"ce4bgs12rcd13ifvqcag","pricing_plan_id":"cebpf4jnsgd1na2vs0mg"},{"bike_id":"4c641f70-5b8d-4281-a1a7-59dd680ce73d","system_id":"levelo_inurba_marseille","lat":43.31348,"lon":5.3672,"is_reserved":false,"is_disabled":false,"rental_uris":{"android":"levelo://app?vid=4c641f70-5b8d-4281-a1a7-59dd680ce73d","ios":"levelo://app?vid=4c641f70-5b8d-4281-a1a7-59dd680ce73d"},"vehicle_type_id":"4","last_reported":1737104989,"current_range_meters":39200,"station_id":"ce4bgr92rcd13ifvqc6g","pricing_plan_id":"cebpf4jnsgd1na2vs0mg"},{"bike_id":"e173ad86-c1af-446f-b053-2c886638ed46","system_id":"levelo_inurba_marseille","lat":43.29581,"lon":5.37507,"is_reserved":false,"is_disabled":false,"rental_uris":{"android":"levelo://app?vid=e173ad86-c1af-446f-b053-2c886638ed46","ios":"levelo://app?vid=e173ad86-c1af-446f-b053-2c886638ed46"},"vehicle_type_id":"4","last_reported":1737104989,"current_range_meters":38800,"station_id":"ce4bgh92rcd13ifvqb50","pricing_plan_id":"cebpf4jnsgd1na2vs0mg"},{"bike_id":"995dead0-2394-4106-8318-d0249f2ca238","system_id":"levelo_inurba_marseille","lat":43.30186,"lon":5.36615,"is_reserved":false,"is_disabled":false,"rental_uris":{"android":"levelo://app?vid=995dead0-2394-4106-8318-d0249f2ca238","ios":"levelo://app?vid=995dead0-2394-4106-8318-d0249f2ca238"},"vehicle_type_id":"4","last_reported":1737104989,"current_range_meters":36800,"station_id":"ce4bgrh2rcd13ifvqc8g","pricing_plan_id":"cebpf4jnsgd1na2vs0mg"},{"bike_id":"aa1c2cd9-ddaa-4aee-8c47-810e68694606","system_id":"levelo_inurba_marseille","lat":43.31643,"lon":5.37755,"is_reserved":false,"is_disabled":false,"rental_uris":{"android":"levelo://app?vid=aa1c2cd9-ddaa-4aee-8c47-810e68694606","ios":"levelo://app?vid=aa1c2cd9-ddaa-4aee-8c47-810e68694606"},"vehicle_type_id":"4","last_reported":1737104989,"current_range_meters":20400,"station_id":"ce4bgth2rcd13ifvqch0","pricing_plan_id":"cebpf4jnsgd1na2vs0mg"},{"bike_id":"e04049e7-2716-4433-bca0-88346a635364","system_id":"levelo_inurba_marseille","lat":43.29583,"lon":5.36732,"is_reserved":false,"is_disabled":false,"rental_uris":{"android":"levelo://app?vid=e04049e7-2716-4433-bca0-88346a635364","ios":"levelo://app?vid=e04049e7-2716-4433-bca0-88346a635364"},"vehicle_type_id":"4","last_reported":1737104989,"current_range_meters":33600,"station_id":"ce4bgph2rcd13ifvqc2g","pricing_plan_id":"cebpf4jnsgd1na2vs0mg"},{"bike_id":"085a8c52-8b5f-474b-8062-33a4233a26a4","system_id":"levelo_inurba_marseille","lat":43.26949,"lon":5.38635,"is_reserved":false,"is_disabled":false,"rental_uris":{"android":"levelo://app?vid=085a8c52-8b5f-474b-8062-33a4233a26a4","ios":"levelo://app?vid=085a8c52-8b5f-474b-8062-33a4233a26a4"},"vehicle_type_id":"4","last_reported":1737104989,"current_range_meters":38400,"station_id":"ce4bhh92rcd13ifvqfh0","pricing_plan_id":"cebpf4jnsgd1na2vs0mg"},{"bike_id":"c4fc9679-1008-473b-9e9b-26f1ed62312e","system_id":"levelo_inurba_marseille","lat":43.22937,"lon":5.35405,"is_reserved":false,"is_disabled":false,"rental_uris":{"android":"levelo://app?vid=c4fc9679-1008-473b-9e9b-26f1ed62312e","ios":"levelo://app?vid=c4fc9679-1008-473b-9e9b-26f1ed62312e"},"vehicle_type_id":"4","last_reported":1737104989,"current_range_meters":19200,"station_id":"cpo3532slgdg3j2ikp40","pricing_plan_id":"cebpf4jnsgd1na2vs0mg"},{"bike_id":"c480a62a-a1e2-49fd-a96f-a4971dd05af2","system_id":"levelo_inurba_marseille","lat":43.29596,"lon":5.381,"is_reserved":false,"is_disabled":false,"rental_uris":{"android":"levelo://app?vid=c480a62a-a1e2-49fd-a96f-a4971dd05af2","ios":"levelo://app?vid=c480a62a-a1e2-49fd-a96f-a4971dd05af2"},"vehicle_type_id":"4","last_reported":1737104989,"current_range_meters":35200,"station_id":"ce4bgl12rcd13ifvqbo0","pricing_plan_id":"cebpf4jnsgd1na2vs0mg"},{"bike_id":"b1920697-5fee-4327-8d3c-4c5ded6c448a","system_id":"levelo_inurba_marseille","lat":43.29626,"lon":5.37746,"is_reserved":false,"is_disabled":false,"rental_uris":{"android":"levelo://app?vid=b1920697-5fee-4327-8d3c-4c5ded6c448a","ios":"levelo://app?vid=b1920697-5fee-4327-8d3c-4c5ded6c448a"},"vehicle_type_id":"4","last_reported":1737104989,"current_range_meters":33200,"station_id":"ce4bgi92rcd13ifvqb90","pricing_plan_id":"cebpf4jnsgd1na2vs0mg"},{"bike_id":"d2a859b8-3f91-4b5b-89f4-40a6a11a76b6","system_id":"levelo_inurba_marseille","lat":43.24077,"lon":5.37765,"is_reserved":false,"is_disabled":false,"rental_uris":{"android":"levelo://app?vid=d2a859b8-3f91-4b5b-89f4-40a6a11a76b6","ios":"levelo://app?vid=d2a859b8-3f91-4b5b-89f4-40a6a11a76b6"},"vehicle_type_id":"4","last_reported":1737104989,"current_range_meters":38800,"station_id":"ce4bhnp2rcd13ifvqgvg","pricing_plan_id":"cebpf4jnsgd1na2vs0mg"},{"bike_id":"e1946575-3ecd-46f3-b0df-b2f21711c5a7","system_id":"levelo_inurba_marseille","lat":43.2917,"lon":5.37169,"is_reserved":false,"is_disabled":true,"rental_uris":{"android":"levelo://app?vid=e1946575-3ecd-46f3-b0df-b2f21711c5a7","ios":"levelo://app?vid=e1946575-3ecd-46f3-b0df-b2f21711c5a7"},"vehicle_type_id":"4","last_reported":1737104989,"current_range_meters":34800,"station_id":"ce4bha92rcd13ifvqeh0","pricing_plan_id":"cebpf4jnsgd1na2vs0mg"},{"bike_id":"1b617085-74cb-4784-a5dd-128208a078f4","system_id":"levelo_inurba_marseille","lat":43.31332,"lon":5.36717,"is_reserved":false,"is_disabled":false,"rental_uris":{"android":"levelo://app?vid=1b617085-74cb-4784-a5dd-128208a078f4","ios":"levelo://app?vid=1b617085-74cb-4784-a5dd-128208a078f4"},"vehicle_type_id":"4","last_reported":1737104989,"current_range_meters":38800,"station_id":"ce4bgr92rcd13ifvqc6g","pricing_plan_id":"cebpf4jnsgd1na2vs0mg"},{"bike_id":"7bff6b70-c347-452a-86fc-ce3998f9f599","system_id":"levelo_inurba_marseille","lat":43.24083,"lon":5.37763,"is_reserved":false,"is_disabled":false,"rental_uris":{"android":"levelo://app?vid=7bff6b70-c347-452a-86fc-ce3998f9f599","ios":"levelo://app?vid=7bff6b70-c347-452a-86fc-ce3998f9f599"},"vehicle_type_id":"4","last_reported":1737104989,"current_range_meters":28400,"station_id":"ce4bhnp2rcd13ifvqgvg","pricing_plan_id":"cebpf4jnsgd1na2vs0mg"},{"bike_id":"f61c646b-0179-4915-a723-88e34c4672e9","system_id":"levelo_inurba_marseille","lat":43.29095,"lon":5.38114,"is_reserved":false,"is_disabled":false,"rental_uris":{"android":"levelo://app?vid=f61c646b-0179-4915-a723-88e34c4672e9","ios":"levelo://app?vid=f61c646b-0179-4915-a723-88e34c4672e9"},"vehicle_type_id":"4","last_reported":1737104989,"current_range_meters":38800,"station_id":"ce4bh512rcd13ifvqe2g","pricing_plan_id":"cebpf4jnsgd1na2vs0mg"},{"bike_id":"4c95b24d-5e81-4bcc-9c3f-8e13fb6505af","system_id":"levelo_inurba_marseille","lat":43.27309,"lon":5.39962,"is_reserved":false,"is_disabled":false,"rental_uris":{"android":"levelo://app?vid=4c95b24d-5e81-4bcc-9c3f-8e13fb6505af","ios":"levelo://app?vid=4c95b24d-5e81-4bcc-9c3f-8e13fb6505af"},"vehicle_type_id":"4","last_reported":1737104989,"current_range_meters":36400,"station_id":"","pricing_plan_id":"cebpf4jnsgd1na2vs0mg"},{"bike_id":"017e8f80-df95-465a-8d42-b37cd001e8aa","system_id":"levelo_inurba_marseille","lat":43.31351,"lon":5.36721,"is_reserved":false,"is_disabled":false,"rental_uris":{"android":"levelo://app?vid=017e8f80-df95-465a-8d42-b37cd001e8aa","ios":"levelo://app?vid=017e8f80-df95-465a-8d42-b37cd001e8aa"},"vehicle_type_id":"4","last_reported":1737104989,"current_range_meters":31200,"station_id":"ce4bgr92rcd13ifvqc6g","pricing_plan_id":"cebpf4jnsgd1na2vs0mg"},{"bike_id":"c9e5a279-a061-48b4-b2c7-1a8c16816dcc","system_id":"levelo_inurba_marseille","lat":43.27956,"lon":5.38695,"is_reserved":false,"is_disabled":false,"rental_uris":{"android":"levelo://app?vid=c9e5a279-a061-48b4-b2c7-1a8c16816dcc","ios":"levelo://app?vid=c9e5a279-a061-48b4-b2c7-1a8c16816dcc"},"vehicle_type_id":"4","last_reported":1737104989,"current_range_meters":31200,"station_id":"ce4bhg12rcd13ifvqf80","pricing_plan_id":"cebpf4jnsgd1na2vs0mg"},{"bike_id":"66065961-8f66-46c8-be70-f9092a8345b6","system_id":"levelo_inurba_marseille","lat":43.29096,"lon":5.38129,"is_reserved":false,"is_disabled":false,"rental_uris":{"android":"levelo://app?vid=66065961-8f66-46c8-be70-f9092a8345b6","ios":"levelo://app?vid=66065961-8f66-46c8-be70-f9092a8345b6"},"vehicle_type_id":"4","last_reported":1737104989,"current_range_meters":36000,"station_id":"ce4bh512rcd13ifvqe2g","pricing_plan_id":"cebpf4jnsgd1na2vs0mg"},{"bike_id":"a8513bfd-4fd3-4342-a553-667ab2f2734a","system_id":"levelo_inurba_marseille","lat":43.31492,"lon":5.37274,"is_reserved":false,"is_disabled":false,"rental_uris":{"android":"levelo://app?vid=a8513bfd-4fd3-4342-a553-667ab2f2734a","ios":"levelo://app?vid=a8513bfd-4fd3-4342-a553-667ab2f2734a"},"vehicle_type_id":"4","last_reported":1737104989,"current_range_meters":29600,"station_id":"ce4bgt12rcd13ifvqcd0","pricing_plan_id":"cebpf4jnsgd1na2vs0mg"},{"bike_id":"7ddbdcc7-9159-4005-b875-ec2d7fc85593","system_id":"levelo_inurba_marseille","lat":43.30192,"lon":5.38099,"is_reserved":false,"is_disabled":false,"rental_uris":{"android":"levelo://app?vid=7ddbdcc7-9159-4005-b875-ec2d7fc85593","ios":"levelo://app?vid=7ddbdcc7-9159-4005-b875-ec2d7fc85593"},"vehicle_type_id":"4","last_reported":1737104989,"current_range_meters":38400,"station_id":"","pricing_plan_id":"cebpf4jnsgd1na2vs0mg"},{"bike_id":"66ec8711-3dbc-48f7-b091-25773ac6b77c","system_id":"levelo_inurba_marseille","lat":43.28118,"lon":5.44195,"is_reserved":false,"is_disabled":true,"rental_uris":{"android":"levelo://app?vid=66ec8711-3dbc-48f7-b091-25773ac6b77c","ios":"levelo://app?vid=66ec8711-3dbc-48f7-b091-25773ac6b77c"},"vehicle_type_id":"4","last_reported":1737104989,"current_range_meters":0,"station_id":"","pricing_plan_id":"cebpf4jnsgd1na2vs0mg"},{"bike_id":"8e6b34b1-09d8-4268-a365-e43071a71869","system_id":"levelo_inurba_marseille","lat":43.27501,"lon":5.42451,"is_reserved":false,"is_disabled":false,"rental_uris":{"android":"levelo://app?vid=8e6b34b1-09d8-4268-a365-e43071a71869","ios":"levelo://app?vid=8e6b34b1-09d8-4268-a365-e43071a71869"},"vehicle_type_id":"4","last_reported":1737104989,"current_range_meters":6800,"station_id":"ce4bhn92rcd13ifvqgrg","pricing_plan_id":"cebpf4jnsgd1na2vs0mg"},{"bike_id":"7e25d448-626b-4f11-934a-f8911b1b0c6c","system_id":"levelo_inurba_marseille","lat":43.25104,"lon":5.40327,"is_reserved":false,"is_disabled":false,"rental_uris":{"android":"levelo://app?vid=7e25d448-626b-4f11-934a-f8911b1b0c6c","ios":"levelo://app?vid=7e25d448-626b-4f11-934a-f8911b1b0c6c"},"vehicle_type_id":"4","last_reported":1737104989,"current_range_meters":37600,"station_id":"ce4bhlh2rcd13ifvqgig","pricing_plan_id":"cebpf4jnsgd1na2vs0mg"},{"bike_id":"d185996c-e9f6-41dd-8dd9-81acc7e1c6b3","system_id":"levelo_inurba_marseille","lat":43.26928,"lon":5.38926,"is_reserved":false,"is_disabled":false,"rental_uris":{"android":"levelo://app?vid=d185996c-e9f6-41dd-8dd9-81acc7e1c6b3","ios":"levelo://app?vid=d185996c-e9f6-41dd-8dd9-81acc7e1c6b3"},"vehicle_type_id":"4","last_reported":1737104989,"current_range_meters":37600,"station_id":"ce4bhhh2rcd13ifvqfl0","pricing_plan_id":"cebpf4jnsgd1na2vs0mg"},{"bike_id":"7ee992e0-93b5-4e29-85a4-fc8532af4206","system_id":"levelo_inurba_marseille","lat":43.26946,"lon":5.38659,"is_reserved":false,"is_disabled":false,"rental_uris":{"android":"levelo://app?vid=7ee992e0-93b5-4e29-85a4-fc8532af4206","ios":"levelo://app?vid=7ee992e0-93b5-4e29-85a4-fc8532af4206"},"vehicle_type_id":"4","last_reported":1737104989,"current_range_meters":38800,"station_id":"ce4bhh92rcd13ifvqfh0","pricing_plan_id":"cebpf4jnsgd1na2vs0mg"},{"bike_id":"35aa5bd9-3f42-40f5-9886-d40962fd7bbe","system_id":"levelo_inurba_marseille","lat":43.3042,"lon":5.38886,"is_reserved":false,"is_disabled":false,"rental_uris":{"android":"levelo://app?vid=35aa5bd9-3f42-40f5-9886-d40962fd7bbe","ios":"levelo://app?vid=35aa5bd9-3f42-40f5-9886-d40962fd7bbe"},"vehicle_type_id":"4","last_reported":1737104989,"current_range_meters":24000,"station_id":"ce4bgk12rcd13ifvqbi0","pricing_plan_id":"cebpf4jnsgd1na2vs0mg"},{"bike_id":"954b17d3-0d50-4d1d-9755-857bdc284020","system_id":"levelo_inurba_marseille","lat":43.28129,"lon":5.42608,"is_reserved":false,"is_disabled":false,"rental_uris":{"android":"levelo://app?vid=954b17d3-0d50-4d1d-9755-857bdc284020","ios":"levelo://app?vid=954b17d3-0d50-4d1d-9755-857bdc284020"},"vehicle_type_id":"4","last_reported":1737104989,"current_range_meters":26000,"station_id":"ce4bhnh2rcd13ifvqgug","pricing_plan_id":"cebpf4jnsgd1na2vs0mg"},{"bike_id":"4d4fb849-358e-4e69-8f06-e8383debd841","system_id":"levelo_inurba_marseille","lat":43.29086,"lon":5.38134,"is_reserved":false,"is_disabled":false,"rental_uris":{"android":"levelo://app?vid=4d4fb849-358e-4e69-8f06-e8383debd841","ios":"levelo://app?vid=4d4fb849-358e-4e69-8f06-e8383debd841"},"vehicle_type_id":"4","last_reported":1737104989,"current_range_meters":32400,"station_id":"ce4bh512rcd13ifvqe2g","pricing_plan_id":"cebpf4jnsgd1na2vs0mg"},{"bike_id":"0321cd6b-aaff-46d7-aacd-a1fa403e5c50","system_id":"levelo_inurba_marseille","lat":43.33103,"lon":5.38229,"is_reserved":false,"is_disabled":false,"rental_uris":{"android":"levelo://app?vid=0321cd6b-aaff-46d7-aacd-a1fa403e5c50","ios":"levelo://app?vid=0321cd6b-aaff-46d7-aacd-a1fa403e5c50"},"vehicle_type_id":"4","last_reported":1737104989,"current_range_meters":2800,"station_id":"","pricing_plan_id":"cebpf4jnsgd1na2vs0mg"},{"bike_id":"91900ac4-47c8-4400-a455-eba2ccf2e7e7","system_id":"levelo_inurba_marseille","lat":43.29621,"lon":5.37155,"is_reserved":false,"is_disabled":false,"rental_uris":{"android":"levelo://app?vid=91900ac4-47c8-4400-a455-eba2ccf2e7e7","ios":"levelo://app?vid=91900ac4-47c8-4400-a455-eba2ccf2e7e7"},"vehicle_type_id":"4","last_reported":1737104989,"current_range_meters":28800,"station_id":"ce4bgnh2rcd13ifvqc0g","pricing_plan_id":"cebpf4jnsgd1na2vs0mg"},{"bike_id":"4e35cf4a-cf01-46dc-b1de-35f4b9a2c120","system_id":"levelo_inurba_marseille","lat":43.28664,"lon":5.3635,"is_reserved":false,"is_disabled":false,"rental_uris":{"android":"levelo://app?vid=4e35cf4a-cf01-46dc-b1de-35f4b9a2c120","ios":"levelo://app?vid=4e35cf4a-cf01-46dc-b1de-35f4b9a2c120"},"vehicle_type_id":"4","last_reported":1737104989,"current_range_meters":24400,"station_id":"ce4bhah2rcd13ifvqej0","pricing_plan_id":"cebpf4jnsgd1na2vs0mg"},{"bike_id":"b77635c2-d457-45ab-b71f-64500c249917","system_id":"levelo_inurba_marseille","lat":43.2466,"lon":5.38167,"is_reserved":false,"is_disabled":false,"rental_uris":{"android":"levelo://app?vid=b77635c2-d457-45ab-b71f-64500c249917","ios":"levelo://app?vid=b77635c2-d457-45ab-b71f-64500c249917"},"vehicle_type_id":"4","last_reported":1737104989,"current_range_meters":16000,"station_id":"ce4bhih2rcd13ifvqfr0","pricing_plan_id":"cebpf4jnsgd1na2vs0mg"},{"bike_id":"f49bbacb-e58b-4943-bbd1-f99a8960938f","system_id":"levelo_inurba_marseille","lat":43.24037,"lon":5.3778,"is_reserved":false,"is_disabled":false,"rental_uris":{"android":"levelo://app?vid=f49bbacb-e58b-4943-bbd1-f99a8960938f","ios":"levelo://app?vid=f49bbacb-e58b-4943-bbd1-f99a8960938f"},"vehicle_type_id":"4","last_reported":1737104989,"current_range_meters":16000,"station_id":"ce4bhnp2rcd13ifvqgvg","pricing_plan_id":"cebpf4jnsgd1na2vs0mg"},{"bike_id":"4d21a537-3816-432c-8aec-6acfffac2e27","system_id":"levelo_inurba_marseille","lat":43.31899,"lon":5.4072,"is_reserved":false,"is_disabled":false,"rental_uris":{"android":"levelo://app?vid=4d21a537-3816-432c-8aec-6acfffac2e27","ios":"levelo://app?vid=4d21a537-3816-432c-8aec-6acfffac2e27"},"vehicle_type_id":"4","last_reported":1737104989,"current_range_meters":36800,"station_id":"ce4bhq12rcd13ifvqhig","pricing_plan_id":"cebpf4jnsgd1na2vs0mg"},{"bike_id":"fa53afd0-c3c0-46c2-be7e-d056eb14f6b8","system_id":"levelo_inurba_marseille","lat":43.26067,"lon":5.3941,"is_reserved":false,"is_disabled":false,"rental_uris":{"android":"levelo://app?vid=fa53afd0-c3c0-46c2-be7e-d056eb14f6b8","ios":"levelo://app?vid=fa53afd0-c3c0-46c2-be7e-d056eb14f6b8"},"vehicle_type_id":"4","last_reported":1737104989,"current_range_meters":36800,"station_id":"ce4bhh92rcd13ifvqfj0","pricing_plan_id":"cebpf4jnsgd1na2vs0mg"},{"bike_id":"9d83d881-f930-40f7-9f50-d3683ac69753","system_id":"levelo_inurba_marseille","lat":43.33612,"lon":5.40983,"is_reserved":false,"is_disabled":false,"rental_uris":{"android":"levelo://app?vid=9d83d881-f930-40f7-9f50-d3683ac69753","ios":"levelo://app?vid=9d83d881-f930-40f7-9f50-d3683ac69753"},"vehicle_type_id":"4","last_reported":1737104989,"current_range_meters":10800,"station_id":"ce4bhqh2rcd13ifvqhmg","pricing_plan_id":"cebpf4jnsgd1na2vs0mg"},{"bike_id":"2df6eb78-b32f-46c4-8940-96de9e75d441","system_id":"levelo_inurba_marseille","lat":43.30308,"lon":5.369,"is_reserved":false,"is_disabled":false,"rental_uris":{"android":"levelo://app?vid=2df6eb78-b32f-46c4-8940-96de9e75d441","ios":"levelo://app?vid=2df6eb78-b32f-46c4-8940-96de9e75d441"},"vehicle_type_id":"4","last_reported":1737104989,"current_range_meters":38400,"station_id":"ce4bgqh2rcd13ifvqc5g","pricing_plan_id":"cebpf4jnsgd1na2vs0mg"},{"bike_id":"9fe4d3f0-b368-45ba-abe3-bba1045c6477","system_id":"levelo_inurba_marseille","lat":43.30605,"lon":5.39358,"is_reserved":false,"is_disabled":false,"rental_uris":{"android":"levelo://app?vid=9fe4d3f0-b368-45ba-abe3-bba1045c6477","ios":"levelo://app?vid=9fe4d3f0-b368-45ba-abe3-bba1045c6477"},"vehicle_type_id":"4","last_reported":1737104989,"current_range_meters":38800,"station_id":"ce4bh0p2rcd13ifvqd80","pricing_plan_id":"cebpf4jnsgd1na2vs0mg"},{"bike_id":"4d1588c9-64ed-41be-b140-0319498e7791","system_id":"levelo_inurba_marseille","lat":43.2942,"lon":5.38607,"is_reserved":false,"is_disabled":true,"rental_uris":{"android":"levelo://app?vid=4d1588c9-64ed-41be-b140-0319498e7791","ios":"levelo://app?vid=4d1588c9-64ed-41be-b140-0319498e7791"},"vehicle_type_id":"4","last_reported":1737104989,"current_range_meters":0,"station_id":"ce4bh2h2rcd13ifvqdh0","pricing_plan_id":"cebpf4jnsgd1na2vs0mg"},{"bike_id":"93233641-e6db-4ffb-9a63-45199e050c05","system_id":"levelo_inurba_marseille","lat":43.27503,"lon":5.42447,"is_reserved":false,"is_disabled":false,"rental_uris":{"android":"levelo://app?vid=93233641-e6db-4ffb-9a63-45199e050c05","ios":"levelo://app?vid=93233641-e6db-4ffb-9a63-45199e050c05"},"vehicle_type_id":"4","last_reported":1737104989,"current_range_meters":23200,"station_id":"ce4bhn92rcd13ifvqgrg","pricing_plan_id":"cebpf4jnsgd1na2vs0mg"},{"bike_id":"ae120008-324c-42c2-ac43-e141f6add790","system_id":"levelo_inurba_marseille","lat":43.24075,"lon":5.37752,"is_reserved":false,"is_disabled":false,"rental_uris":{"android":"levelo://app?vid=ae120008-324c-42c2-ac43-e141f6add790","ios":"levelo://app?vid=ae120008-324c-42c2-ac43-e141f6add790"},"vehicle_type_id":"4","last_reported":1737104989,"current_range_meters":38800,"station_id":"ce4bhnp2rcd13ifvqgvg","pricing_plan_id":"cebpf4jnsgd1na2vs0mg"},{"bike_id":"6a84e70c-1d6b-4338-aca6-3b2f3cab2611","system_id":"levelo_inurba_marseille","lat":43.30437,"lon":5.37892,"is_reserved":false,"is_disabled":false,"rental_uris":{"android":"levelo://app?vid=6a84e70c-1d6b-4338-aca6-3b2f3cab2611","ios":"levelo://app?vid=6a84e70c-1d6b-4338-aca6-3b2f3cab2611"},"vehicle_type_id":"4","last_reported":1737104989,"current_range_meters":36800,"station_id":"ce4bgup2rcd13ifvqcn0","pricing_plan_id":"cebpf4jnsgd1na2vs0mg"},{"bike_id":"d1862250-c49b-4fd7-98c4-e6bf2e57b9d5","system_id":"levelo_inurba_marseille","lat":43.26951,"lon":5.38642,"is_reserved":false,"is_disabled":false,"rental_uris":{"android":"levelo://app?vid=d1862250-c49b-4fd7-98c4-e6bf2e57b9d5","ios":"levelo://app?vid=d1862250-c49b-4fd7-98c4-e6bf2e57b9d5"},"vehicle_type_id":"4","last_reported":1737104989,"current_range_meters":22400,"station_id":"ce4bhh92rcd13ifvqfh0","pricing_plan_id":"cebpf4jnsgd1na2vs0mg"},{"bike_id":"45782423-ed10-4589-9a98-4c4f7bdbf4c0","system_id":"levelo_inurba_marseille","lat":43.29763,"lon":5.38111,"is_reserved":false,"is_disabled":true,"rental_uris":{"android":"levelo://app?vid=45782423-ed10-4589-9a98-4c4f7bdbf4c0","ios":"levelo://app?vid=45782423-ed10-4589-9a98-4c4f7bdbf4c0"},"vehicle_type_id":"4","last_reported":1737104989,"current_range_meters":26000,"station_id":"ce4bgip2rcd13ifvqbb0","pricing_plan_id":"cebpf4jnsgd1na2vs0mg"},{"bike_id":"0b675b41-a046-4e18-81b6-68a5dbe252dd","system_id":"levelo_inurba_marseille","lat":43.28936,"lon":5.39624,"is_reserved":false,"is_disabled":false,"rental_uris":{"android":"levelo://app?vid=0b675b41-a046-4e18-81b6-68a5dbe252dd","ios":"levelo://app?vid=0b675b41-a046-4e18-81b6-68a5dbe252dd"},"vehicle_type_id":"4","last_reported":1737104989,"current_range_meters":38800,"station_id":"ce4bh3h2rcd13ifvqdn0","pricing_plan_id":"cebpf4jnsgd1na2vs0mg"},{"bike_id":"f835befa-e0c4-4cbe-a2f0-932b8650c0b0","system_id":"levelo_inurba_marseille","lat":43.23188,"lon":5.39985,"is_reserved":false,"is_disabled":false,"rental_uris":{"android":"levelo://app?vid=f835befa-e0c4-4cbe-a2f0-932b8650c0b0","ios":"levelo://app?vid=f835befa-e0c4-4cbe-a2f0-932b8650c0b0"},"vehicle_type_id":"4","last_reported":1737104989,"current_range_meters":12400,"station_id":"ce4bhn12rcd13ifvqgqg","pricing_plan_id":"cebpf4jnsgd1na2vs0mg"},{"bike_id":"41b0b4ec-7526-4290-96f9-44cbe4cd1ada","system_id":"levelo_inurba_marseille","lat":43.26779,"lon":5.39424,"is_reserved":false,"is_disabled":false,"rental_uris":{"android":"levelo://app?vid=41b0b4ec-7526-4290-96f9-44cbe4cd1ada","ios":"levelo://app?vid=41b0b4ec-7526-4290-96f9-44cbe4cd1ada"},"vehicle_type_id":"4","last_reported":1737104989,"current_range_meters":17600,"station_id":"ce4bhh12rcd13ifvqfg0","pricing_plan_id":"cebpf4jnsgd1na2vs0mg"},{"bike_id":"322ecd73-e5f5-4aad-b4f7-f855303ab3fb","system_id":"levelo_inurba_marseille","lat":43.29516,"lon":5.37502,"is_reserved":false,"is_disabled":false,"rental_uris":{"android":"levelo://app?vid=322ecd73-e5f5-4aad-b4f7-f855303ab3fb","ios":"levelo://app?vid=322ecd73-e5f5-4aad-b4f7-f855303ab3fb"},"vehicle_type_id":"4","last_reported":1737104989,"current_range_meters":33200,"station_id":"ce4bgkp2rcd13ifvqbmg","pricing_plan_id":"cebpf4jnsgd1na2vs0mg"},{"bike_id":"e68c7314-2d4d-4221-957b-f9c281dd52f3","system_id":"levelo_inurba_marseille","lat":43.337444,"lon":5.374475,"is_reserved":false,"is_disabled":false,"rental_uris":{"android":"levelo://app?vid=e68c7314-2d4d-4221-957b-f9c281dd52f3","ios":"levelo://app?vid=e68c7314-2d4d-4221-957b-f9c281dd52f3"},"vehicle_type_id":"4","last_reported":1737104989,"current_range_meters":19600,"station_id":"","pricing_plan_id":"cebpf4jnsgd1na2vs0mg"},{"bike_id":"19e2bfd8-ca33-4704-86dc-3f1d3d02625c","system_id":"levelo_inurba_marseille","lat":43.30892,"lon":5.37193,"is_reserved":false,"is_disabled":false,"rental_uris":{"android":"levelo://app?vid=19e2bfd8-ca33-4704-86dc-3f1d3d02625c","ios":"levelo://app?vid=19e2bfd8-ca33-4704-86dc-3f1d3d02625c"},"vehicle_type_id":"4","last_reported":1737104989,"current_range_meters":36400,"station_id":"ce4bguh2rcd13ifvqckg","pricing_plan_id":"cebpf4jnsgd1na2vs0mg"},{"bike_id":"1e081522-133c-445b-9bc5-833fa6b07c64","system_id":"levelo_inurba_marseille","lat":43.27212,"lon":5.39176,"is_reserved":false,"is_disabled":false,"rental_uris":{"android":"levelo://app?vid=1e081522-133c-445b-9bc5-833fa6b07c64","ios":"levelo://app?vid=1e081522-133c-445b-9bc5-833fa6b07c64"},"vehicle_type_id":"4","last_reported":1737104989,"current_range_meters":24800,"station_id":"ce4bhhp2rcd13ifvqfm0","pricing_plan_id":"cebpf4jnsgd1na2vs0mg"},{"bike_id":"d5aa4c54-17bc-426e-9fd4-608d73dede53","system_id":"levelo_inurba_marseille","lat":43.27219,"lon":5.39176,"is_reserved":false,"is_disabled":true,"rental_uris":{"android":"levelo://app?vid=d5aa4c54-17bc-426e-9fd4-608d73dede53","ios":"levelo://app?vid=d5aa4c54-17bc-426e-9fd4-608d73dede53"},"vehicle_type_id":"4","last_reported":1737104989,"current_range_meters":0,"station_id":"ce4bhhp2rcd13ifvqfm0","pricing_plan_id":"cebpf4jnsgd1na2vs0mg"},{"bike_id":"9dd5eb0e-e4b7-4224-8da7-7d77946e21bf","system_id":"levelo_inurba_marseille","lat":43.30469,"lon":5.37909,"is_reserved":false,"is_disabled":false,"rental_uris":{"android":"levelo://app?vid=9dd5eb0e-e4b7-4224-8da7-7d77946e21bf","ios":"levelo://app?vid=9dd5eb0e-e4b7-4224-8da7-7d77946e21bf"},"vehicle_type_id":"4","last_reported":1737104989,"current_range_meters":34000,"station_id":"ce4bgup2rcd13ifvqcn0","pricing_plan_id":"cebpf4jnsgd1na2vs0mg"},{"bike_id":"2c839bfc-228b-4afd-9c45-0e54b8f36672","system_id":"levelo_inurba_marseille","lat":43.24649,"lon":5.38911,"is_reserved":false,"is_disabled":false,"rental_uris":{"android":"levelo://app?vid=2c839bfc-228b-4afd-9c45-0e54b8f36672","ios":"levelo://app?vid=2c839bfc-228b-4afd-9c45-0e54b8f36672"},"vehicle_type_id":"4","last_reported":1737104989,"current_range_meters":38400,"station_id":"ce4bhg12rcd13ifvqf60","pricing_plan_id":"cebpf4jnsgd1na2vs0mg"},{"bike_id":"35bacf61-442e-4f08-b164-1d627f5b24e1","system_id":"levelo_inurba_marseille","lat":43.32534,"lon":5.41448,"is_reserved":false,"is_disabled":false,"rental_uris":{"android":"levelo://app?vid=35bacf61-442e-4f08-b164-1d627f5b24e1","ios":"levelo://app?vid=35bacf61-442e-4f08-b164-1d627f5b24e1"},"vehicle_type_id":"4","last_reported":1737104989,"current_range_meters":15200,"station_id":"ce4bhq12rcd13ifvqhhg","pricing_plan_id":"cebpf4jnsgd1na2vs0mg"},{"bike_id":"4a814b76-0e5f-484f-bcdd-b8c1e114479c","system_id":"levelo_inurba_marseille","lat":43.26948,"lon":5.38626,"is_reserved":false,"is_disabled":false,"rental_uris":{"android":"levelo://app?vid=4a814b76-0e5f-484f-bcdd-b8c1e114479c","ios":"levelo://app?vid=4a814b76-0e5f-484f-bcdd-b8c1e114479c"},"vehicle_type_id":"4","last_reported":1737104989,"current_range_meters":14800,"station_id":"ce4bhh92rcd13ifvqfh0","pricing_plan_id":"cebpf4jnsgd1na2vs0mg"},{"bike_id":"357eaeda-fef2-41f2-9ad0-621ae2cc5c09","system_id":"levelo_inurba_marseille","lat":43.33756,"lon":5.37487,"is_reserved":false,"is_disabled":false,"rental_uris":{"android":"levelo://app?vid=357eaeda-fef2-41f2-9ad0-621ae2cc5c09","ios":"levelo://app?vid=357eaeda-fef2-41f2-9ad0-621ae2cc5c09"},"vehicle_type_id":"4","last_reported":1737104989,"current_range_meters":36000,"station_id":"","pricing_plan_id":"cebpf4jnsgd1na2vs0mg"},{"bike_id":"fed11d0f-977e-443b-a693-d5ff6345bfde","system_id":"levelo_inurba_marseille","lat":43.24073,"lon":5.37787,"is_reserved":false,"is_disabled":false,"rental_uris":{"android":"levelo://app?vid=fed11d0f-977e-443b-a693-d5ff6345bfde","ios":"levelo://app?vid=fed11d0f-977e-443b-a693-d5ff6345bfde"},"vehicle_type_id":"4","last_reported":1737104989,"current_range_meters":26800,"station_id":"ce4bhnp2rcd13ifvqgvg","pricing_plan_id":"cebpf4jnsgd1na2vs0mg"},{"bike_id":"36852f13-aa6c-409c-99d3-7142866f7549","system_id":"levelo_inurba_marseille","lat":43.30479,"lon":5.37915,"is_reserved":false,"is_disabled":false,"rental_uris":{"android":"levelo://app?vid=36852f13-aa6c-409c-99d3-7142866f7549","ios":"levelo://app?vid=36852f13-aa6c-409c-99d3-7142866f7549"},"vehicle_type_id":"4","last_reported":1737104989,"current_range_meters":36400,"station_id":"ce4bgup2rcd13ifvqcn0","pricing_plan_id":"cebpf4jnsgd1na2vs0mg"},{"bike_id":"9850ecce-4b23-4d74-866e-c4332dd24547","system_id":"levelo_inurba_marseille","lat":43.29301,"lon":5.40134,"is_reserved":false,"is_disabled":false,"rental_uris":{"android":"levelo://app?vid=9850ecce-4b23-4d74-866e-c4332dd24547","ios":"levelo://app?vid=9850ecce-4b23-4d74-866e-c4332dd24547"},"vehicle_type_id":"4","last_reported":1737104989,"current_range_meters":39200,"station_id":"ce4bh312rcd13ifvqdk0","pricing_plan_id":"cebpf4jnsgd1na2vs0mg"},{"bike_id":"7c7fb340-91d3-481f-bef7-3c012bdf7da2","system_id":"levelo_inurba_marseille","lat":43.27983,"lon":5.41662,"is_reserved":false,"is_disabled":true,"rental_uris":{"android":"levelo://app?vid=7c7fb340-91d3-481f-bef7-3c012bdf7da2","ios":"levelo://app?vid=7c7fb340-91d3-481f-bef7-3c012bdf7da2"},"vehicle_type_id":"4","last_reported":1737104989,"current_range_meters":36800,"station_id":"ce4bho12rcd13ifvqh1g","pricing_plan_id":"cebpf4jnsgd1na2vs0mg"},{"bike_id":"e7dc697e-118e-4bf1-a663-6defc9eb320d","system_id":"levelo_inurba_marseille","lat":43.28726,"lon":5.36099,"is_reserved":false,"is_disabled":false,"rental_uris":{"android":"levelo://app?vid=e7dc697e-118e-4bf1-a663-6defc9eb320d","ios":"levelo://app?vid=e7dc697e-118e-4bf1-a663-6defc9eb320d"},"vehicle_type_id":"4","last_reported":1737104989,"current_range_meters":37600,"station_id":"cki0cbj6b192h4jlfktg","pricing_plan_id":"cebpf4jnsgd1na2vs0mg"},{"bike_id":"beb934a8-669e-45c0-a57b-432659c27ac4","system_id":"levelo_inurba_marseille","lat":43.29482,"lon":5.37468,"is_reserved":false,"is_disabled":false,"rental_uris":{"android":"levelo://app?vid=beb934a8-669e-45c0-a57b-432659c27ac4","ios":"levelo://app?vid=beb934a8-669e-45c0-a57b-432659c27ac4"},"vehicle_type_id":"4","last_reported":1737104989,"current_range_meters":9600,"station_id":"","pricing_plan_id":"cebpf4jnsgd1na2vs0mg"},{"bike_id":"222cb133-5b42-4b57-8acc-6982b2c8d4d0","system_id":"levelo_inurba_marseille","lat":43.33604,"lon":5.41034,"is_reserved":false,"is_disabled":false,"rental_uris":{"android":"levelo://app?vid=222cb133-5b42-4b57-8acc-6982b2c8d4d0","ios":"levelo://app?vid=222cb133-5b42-4b57-8acc-6982b2c8d4d0"},"vehicle_type_id":"4","last_reported":1737104989,"current_range_meters":27200,"station_id":"ce4bhqh2rcd13ifvqhmg","pricing_plan_id":"cebpf4jnsgd1na2vs0mg"},{"bike_id":"726d4d95-3596-4dcd-a0ae-7ee43e499334","system_id":"levelo_inurba_marseille","lat":43.25933,"lon":5.409147,"is_reserved":false,"is_disabled":false,"rental_uris":{"android":"levelo://app?vid=726d4d95-3596-4dcd-a0ae-7ee43e499334","ios":"levelo://app?vid=726d4d95-3596-4dcd-a0ae-7ee43e499334"},"vehicle_type_id":"4","last_reported":1737104989,"current_range_meters":16400,"station_id":"ce4bhm92rcd13ifvqglg","pricing_plan_id":"cebpf4jnsgd1na2vs0mg"},{"bike_id":"0f736ebc-b87e-42e4-bd96-a6e49d99dc0b","system_id":"levelo_inurba_marseille","lat":43.292852,"lon":5.368552,"is_reserved":false,"is_disabled":true,"rental_uris":{"android":"levelo://app?vid=0f736ebc-b87e-42e4-bd96-a6e49d99dc0b","ios":"levelo://app?vid=0f736ebc-b87e-42e4-bd96-a6e49d99dc0b"},"vehicle_type_id":"4","last_reported":1737104989,"current_range_meters":9200,"station_id":"ce4bhbp2rcd13ifvqesg","pricing_plan_id":"cebpf4jnsgd1na2vs0mg"},{"bike_id":"183b833f-ee41-4372-bde3-7e2ce43df59a","system_id":"levelo_inurba_marseille","lat":43.30783,"lon":5.37655,"is_reserved":false,"is_disabled":false,"rental_uris":{"android":"levelo://app?vid=183b833f-ee41-4372-bde3-7e2ce43df59a","ios":"levelo://app?vid=183b833f-ee41-4372-bde3-7e2ce43df59a"},"vehicle_type_id":"4","last_reported":1737104989,"current_range_meters":35600,"station_id":"ce4bgv92rcd13ifvqcq0","pricing_plan_id":"cebpf4jnsgd1na2vs0mg"},{"bike_id":"5208b449-76f8-45f6-9277-6154bc3d1c88","system_id":"levelo_inurba_marseille","lat":43.3043,"lon":5.38889,"is_reserved":false,"is_disabled":false,"rental_uris":{"android":"levelo://app?vid=5208b449-76f8-45f6-9277-6154bc3d1c88","ios":"levelo://app?vid=5208b449-76f8-45f6-9277-6154bc3d1c88"},"vehicle_type_id":"4","last_reported":1737104989,"current_range_meters":24400,"station_id":"ce4bgk12rcd13ifvqbi0","pricing_plan_id":"cebpf4jnsgd1na2vs0mg"},{"bike_id":"ca3154b0-750e-4c64-8e75-fc83b6c8b5fb","system_id":"levelo_inurba_marseille","lat":43.24083,"lon":5.3774,"is_reserved":false,"is_disabled":false,"rental_uris":{"android":"levelo://app?vid=ca3154b0-750e-4c64-8e75-fc83b6c8b5fb","ios":"levelo://app?vid=ca3154b0-750e-4c64-8e75-fc83b6c8b5fb"},"vehicle_type_id":"4","last_reported":1737104989,"current_range_meters":38800,"station_id":"ce4bhnp2rcd13ifvqgvg","pricing_plan_id":"cebpf4jnsgd1na2vs0mg"},{"bike_id":"94688445-fffa-45d6-a9e0-7a288617c48e","system_id":"levelo_inurba_marseille","lat":43.30146,"lon":5.37416,"is_reserved":false,"is_disabled":false,"rental_uris":{"android":"levelo://app?vid=94688445-fffa-45d6-a9e0-7a288617c48e","ios":"levelo://app?vid=94688445-fffa-45d6-a9e0-7a288617c48e"},"vehicle_type_id":"4","last_reported":1737104989,"current_range_meters":38800,"station_id":"ce4bgs92rcd13ifvqcc0","pricing_plan_id":"cebpf4jnsgd1na2vs0mg"},{"bike_id":"e6d52744-fcef-4b04-b3e0-4aafb92377b1","system_id":"levelo_inurba_marseille","lat":43.30546,"lon":5.36705,"is_reserved":false,"is_disabled":true,"rental_uris":{"android":"levelo://app?vid=e6d52744-fcef-4b04-b3e0-4aafb92377b1","ios":"levelo://app?vid=e6d52744-fcef-4b04-b3e0-4aafb92377b1"},"vehicle_type_id":"4","last_reported":1737104989,"current_range_meters":32800,"station_id":"ce4bgrp2rcd13ifvqc9g","pricing_plan_id":"cebpf4jnsgd1na2vs0mg"},{"bike_id":"078fa2d8-b6e2-4689-814d-1564c1917c5d","system_id":"levelo_inurba_marseille","lat":43.24048,"lon":5.37698,"is_reserved":false,"is_disabled":false,"rental_uris":{"android":"levelo://app?vid=078fa2d8-b6e2-4689-814d-1564c1917c5d","ios":"levelo://app?vid=078fa2d8-b6e2-4689-814d-1564c1917c5d"},"vehicle_type_id":"4","last_reported":1737104989,"current_range_meters":38000,"station_id":"","pricing_plan_id":"cebpf4jnsgd1na2vs0mg"},{"bike_id":"9be957d2-26d1-49a4-9f85-b06ee3432064","system_id":"levelo_inurba_marseille","lat":43.33737,"lon":5.39216,"is_reserved":false,"is_disabled":false,"rental_uris":{"android":"levelo://app?vid=9be957d2-26d1-49a4-9f85-b06ee3432064","ios":"levelo://app?vid=9be957d2-26d1-49a4-9f85-b06ee3432064"},"vehicle_type_id":"4","last_reported":1737104989,"current_range_meters":30800,"station_id":"ce4bhr92rcd13ifvqhsg","pricing_plan_id":"cebpf4jnsgd1na2vs0mg"},{"bike_id":"99a31782-c2ee-4a27-b493-d0450f1fbc77","system_id":"levelo_inurba_marseille","lat":43.31498,"lon":5.37319,"is_reserved":false,"is_disabled":false,"rental_uris":{"android":"levelo://app?vid=99a31782-c2ee-4a27-b493-d0450f1fbc77","ios":"levelo://app?vid=99a31782-c2ee-4a27-b493-d0450f1fbc77"},"vehicle_type_id":"4","last_reported":1737104989,"current_range_meters":38800,"station_id":"ce4bgt12rcd13ifvqcd0","pricing_plan_id":"cebpf4jnsgd1na2vs0mg"},{"bike_id":"ece2ae38-fa22-411a-b4b6-2bec87a39b75","system_id":"levelo_inurba_marseille","lat":43.32547,"lon":5.41424,"is_reserved":false,"is_disabled":false,"rental_uris":{"android":"levelo://app?vid=ece2ae38-fa22-411a-b4b6-2bec87a39b75","ios":"levelo://app?vid=ece2ae38-fa22-411a-b4b6-2bec87a39b75"},"vehicle_type_id":"4","last_reported":1737104989,"current_range_meters":39200,"station_id":"ce4bhq12rcd13ifvqhhg","pricing_plan_id":"cebpf4jnsgd1na2vs0mg"},{"bike_id":"83c8d078-ef35-4953-badf-b92a41702d66","system_id":"levelo_inurba_marseille","lat":43.29417,"lon":5.38614,"is_reserved":false,"is_disabled":true,"rental_uris":{"android":"levelo://app?vid=83c8d078-ef35-4953-badf-b92a41702d66","ios":"levelo://app?vid=83c8d078-ef35-4953-badf-b92a41702d66"},"vehicle_type_id":"4","last_reported":1737104989,"current_range_meters":0,"station_id":"ce4bh2h2rcd13ifvqdh0","pricing_plan_id":"cebpf4jnsgd1na2vs0mg"},{"bike_id":"4a4bdb5d-7f2d-4b22-a0dd-b6ee22b2db6e","system_id":"levelo_inurba_marseille","lat":43.25086,"lon":5.39516,"is_reserved":false,"is_disabled":false,"rental_uris":{"android":"levelo://app?vid=4a4bdb5d-7f2d-4b22-a0dd-b6ee22b2db6e","ios":"levelo://app?vid=4a4bdb5d-7f2d-4b22-a0dd-b6ee22b2db6e"},"vehicle_type_id":"4","last_reported":1737104989,"current_range_meters":38000,"station_id":"ce4bhm12rcd13ifvqgkg","pricing_plan_id":"cebpf4jnsgd1na2vs0mg"},{"bike_id":"ebef2392-10b2-41df-b8a0-55dde9f8633c","system_id":"levelo_inurba_marseille","lat":43.28716,"lon":5.37943,"is_reserved":false,"is_disabled":false,"rental_uris":{"android":"levelo://app?vid=ebef2392-10b2-41df-b8a0-55dde9f8633c","ios":"levelo://app?vid=ebef2392-10b2-41df-b8a0-55dde9f8633c"},"vehicle_type_id":"4","last_reported":1737104989,"current_range_meters":24800,"station_id":"ce4bh9p2rcd13ifvqec0","pricing_plan_id":"cebpf4jnsgd1na2vs0mg"},{"bike_id":"6691d7b5-893f-49fd-babf-60f7317b3915","system_id":"levelo_inurba_marseille","lat":43.31903,"lon":5.40772,"is_reserved":false,"is_disabled":false,"rental_uris":{"android":"levelo://app?vid=6691d7b5-893f-49fd-babf-60f7317b3915","ios":"levelo://app?vid=6691d7b5-893f-49fd-babf-60f7317b3915"},"vehicle_type_id":"4","last_reported":1737104989,"current_range_meters":34000,"station_id":"ce4bhq12rcd13ifvqhig","pricing_plan_id":"cebpf4jnsgd1na2vs0mg"},{"bike_id":"40e1a1cf-6140-4eba-aac0-88613aef0f2c","system_id":"levelo_inurba_marseille","lat":43.29259,"lon":5.38443,"is_reserved":false,"is_disabled":false,"rental_uris":{"android":"levelo://app?vid=40e1a1cf-6140-4eba-aac0-88613aef0f2c","ios":"levelo://app?vid=40e1a1cf-6140-4eba-aac0-88613aef0f2c"},"vehicle_type_id":"4","last_reported":1737104989,"current_range_meters":38800,"station_id":"ce4bh692rcd13ifvqea0","pricing_plan_id":"cebpf4jnsgd1na2vs0mg"},{"bike_id":"61d33c90-a781-4a26-bf58-4b4a4778ca8e","system_id":"levelo_inurba_marseille","lat":43.24093,"lon":5.37785,"is_reserved":false,"is_disabled":false,"rental_uris":{"android":"levelo://app?vid=61d33c90-a781-4a26-bf58-4b4a4778ca8e","ios":"levelo://app?vid=61d33c90-a781-4a26-bf58-4b4a4778ca8e"},"vehicle_type_id":"4","last_reported":1737104989,"current_range_meters":38800,"station_id":"ce4bhnp2rcd13ifvqgvg","pricing_plan_id":"cebpf4jnsgd1na2vs0mg"},{"bike_id":"290bb7a0-ec80-4aa8-b334-b5919c2684c8","system_id":"levelo_inurba_marseille","lat":43.29779,"lon":5.3712,"is_reserved":false,"is_disabled":false,"rental_uris":{"android":"levelo://app?vid=290bb7a0-ec80-4aa8-b334-b5919c2684c8","ios":"levelo://app?vid=290bb7a0-ec80-4aa8-b334-b5919c2684c8"},"vehicle_type_id":"4","last_reported":1737104989,"current_range_meters":19600,"station_id":"ce4bgop2rcd13ifvqc1g","pricing_plan_id":"cebpf4jnsgd1na2vs0mg"},{"bike_id":"973b3e89-6c9f-40a1-a4b6-bb170831cc79","system_id":"levelo_inurba_marseille","lat":43.24068,"lon":5.37761,"is_reserved":false,"is_disabled":false,"rental_uris":{"android":"levelo://app?vid=973b3e89-6c9f-40a1-a4b6-bb170831cc79","ios":"levelo://app?vid=973b3e89-6c9f-40a1-a4b6-bb170831cc79"},"vehicle_type_id":"4","last_reported":1737104989,"current_range_meters":17200,"station_id":"ce4bhnp2rcd13ifvqgvg","pricing_plan_id":"cebpf4jnsgd1na2vs0mg"},{"bike_id":"27ecb2bf-4502-451d-a88a-bcdf6d918795","system_id":"levelo_inurba_marseille","lat":43.28855,"lon":5.39323,"is_reserved":false,"is_disabled":false,"rental_uris":{"android":"levelo://app?vid=27ecb2bf-4502-451d-a88a-bcdf6d918795","ios":"levelo://app?vid=27ecb2bf-4502-451d-a88a-bcdf6d918795"},"vehicle_type_id":"4","last_reported":1737104989,"current_range_meters":38800,"station_id":"ce4bh2p2rcd13ifvqdi0","pricing_plan_id":"cebpf4jnsgd1na2vs0mg"},{"bike_id":"ceaa1458-83a9-43c8-aed6-e72ea07fb43a","system_id":"levelo_inurba_marseille","lat":43.31579,"lon":5.38909,"is_reserved":false,"is_disabled":false,"rental_uris":{"android":"levelo://app?vid=ceaa1458-83a9-43c8-aed6-e72ea07fb43a","ios":"levelo://app?vid=ceaa1458-83a9-43c8-aed6-e72ea07fb43a"},"vehicle_type_id":"4","last_reported":1737104989,"current_range_meters":10000,"station_id":"","pricing_plan_id":"cebpf4jnsgd1na2vs0mg"},{"bike_id":"c7b548c0-92b1-4b91-b606-2d963bec61ed","system_id":"levelo_inurba_marseille","lat":43.27498,"lon":5.42458,"is_reserved":false,"is_disabled":false,"rental_uris":{"android":"levelo://app?vid=c7b548c0-92b1-4b91-b606-2d963bec61ed","ios":"levelo://app?vid=c7b548c0-92b1-4b91-b606-2d963bec61ed"},"vehicle_type_id":"4","last_reported":1737104989,"current_range_meters":16400,"station_id":"ce4bhn92rcd13ifvqgrg","pricing_plan_id":"cebpf4jnsgd1na2vs0mg"},{"bike_id":"227e2104-9342-467a-bb13-dc81a29065f7","system_id":"levelo_inurba_marseille","lat":43.28471,"lon":5.38946,"is_reserved":false,"is_disabled":false,"rental_uris":{"android":"levelo://app?vid=227e2104-9342-467a-bb13-dc81a29065f7","ios":"levelo://app?vid=227e2104-9342-467a-bb13-dc81a29065f7"},"vehicle_type_id":"4","last_reported":1737104989,"current_range_meters":27600,"station_id":"","pricing_plan_id":"cebpf4jnsgd1na2vs0mg"},{"bike_id":"5896eaa0-79bf-4df7-b9e4-e2cbb9bda5cd","system_id":"levelo_inurba_marseille","lat":43.28665,"lon":5.38647,"is_reserved":false,"is_disabled":false,"rental_uris":{"android":"levelo://app?vid=5896eaa0-79bf-4df7-b9e4-e2cbb9bda5cd","ios":"levelo://app?vid=5896eaa0-79bf-4df7-b9e4-e2cbb9bda5cd"},"vehicle_type_id":"4","last_reported":1737104989,"current_range_meters":32400,"station_id":"ce4bh492rcd13ifvqdug","pricing_plan_id":"cebpf4jnsgd1na2vs0mg"},{"bike_id":"516e6204-9dad-4554-93fc-892569dbc06c","system_id":"levelo_inurba_marseille","lat":43.29045,"lon":5.39965,"is_reserved":false,"is_disabled":false,"rental_uris":{"android":"levelo://app?vid=516e6204-9dad-4554-93fc-892569dbc06c","ios":"levelo://app?vid=516e6204-9dad-4554-93fc-892569dbc06c"},"vehicle_type_id":"4","last_reported":1737104989,"current_range_meters":36800,"station_id":"ce4bh392rcd13ifvqdm0","pricing_plan_id":"cebpf4jnsgd1na2vs0mg"},{"bike_id":"33b9daa8-650f-4e97-b8f8-0947c5972927","system_id":"levelo_inurba_marseille","lat":43.32536,"lon":5.41447,"is_reserved":false,"is_disabled":false,"rental_uris":{"android":"levelo://app?vid=33b9daa8-650f-4e97-b8f8-0947c5972927","ios":"levelo://app?vid=33b9daa8-650f-4e97-b8f8-0947c5972927"},"vehicle_type_id":"4","last_reported":1737104989,"current_range_meters":26000,"station_id":"ce4bhq12rcd13ifvqhhg","pricing_plan_id":"cebpf4jnsgd1na2vs0mg"},{"bike_id":"c4803fef-55d0-4454-9be6-3ef47edfaec0","system_id":"levelo_inurba_marseille","lat":43.29018,"lon":5.40044,"is_reserved":false,"is_disabled":false,"rental_uris":{"android":"levelo://app?vid=c4803fef-55d0-4454-9be6-3ef47edfaec0","ios":"levelo://app?vid=c4803fef-55d0-4454-9be6-3ef47edfaec0"},"vehicle_type_id":"4","last_reported":1737104989,"current_range_meters":38800,"station_id":"","pricing_plan_id":"cebpf4jnsgd1na2vs0mg"},{"bike_id":"52967bef-3ac3-43d5-807a-9cfd1e60392e","system_id":"levelo_inurba_marseille","lat":43.26939,"lon":5.38633,"is_reserved":false,"is_disabled":false,"rental_uris":{"android":"levelo://app?vid=52967bef-3ac3-43d5-807a-9cfd1e60392e","ios":"levelo://app?vid=52967bef-3ac3-43d5-807a-9cfd1e60392e"},"vehicle_type_id":"4","last_reported":1737104989,"current_range_meters":35200,"station_id":"ce4bhh92rcd13ifvqfh0","pricing_plan_id":"cebpf4jnsgd1na2vs0mg"},{"bike_id":"06847a7c-81a3-47a7-969a-ce10f7980e65","system_id":"levelo_inurba_marseille","lat":43.23149,"lon":5.43724,"is_reserved":false,"is_disabled":true,"rental_uris":{"android":"levelo://app?vid=06847a7c-81a3-47a7-969a-ce10f7980e65","ios":"levelo://app?vid=06847a7c-81a3-47a7-969a-ce10f7980e65"},"vehicle_type_id":"4","last_reported":1737104989,"current_range_meters":34800,"station_id":"ce4bhmp2rcd13ifvqgog","pricing_plan_id":"cebpf4jnsgd1na2vs0mg"},{"bike_id":"61478a87-30f0-49fb-bc83-f40e90c542c7","system_id":"levelo_inurba_marseille","lat":43.30196,"lon":5.37425,"is_reserved":false,"is_disabled":false,"rental_uris":{"android":"levelo://app?vid=61478a87-30f0-49fb-bc83-f40e90c542c7","ios":"levelo://app?vid=61478a87-30f0-49fb-bc83-f40e90c542c7"},"vehicle_type_id":"4","last_reported":1737104989,"current_range_meters":24400,"station_id":"","pricing_plan_id":"cebpf4jnsgd1na2vs0mg"},{"bike_id":"13692a24-fa14-4270-86ad-88f1c1d9b123","system_id":"levelo_inurba_marseille","lat":43.29222,"lon":5.36091,"is_reserved":false,"is_disabled":false,"rental_uris":{"android":"levelo://app?vid=13692a24-fa14-4270-86ad-88f1c1d9b123","ios":"levelo://app?vid=13692a24-fa14-4270-86ad-88f1c1d9b123"},"vehicle_type_id":"4","last_reported":1737104989,"current_range_meters":19200,"station_id":"ce4bhbh2rcd13ifvqeqg","pricing_plan_id":"cebpf4jnsgd1na2vs0mg"},{"bike_id":"10d4a44b-4ac4-4905-b7ec-86d014e96ec1","system_id":"levelo_inurba_marseille","lat":43.32482,"lon":5.36567,"is_reserved":false,"is_disabled":false,"rental_uris":{"android":"levelo://app?vid=10d4a44b-4ac4-4905-b7ec-86d014e96ec1","ios":"levelo://app?vid=10d4a44b-4ac4-4905-b7ec-86d014e96ec1"},"vehicle_type_id":"4","last_reported":1737104989,"current_range_meters":30800,"station_id":"ce4bhs12rcd13ifvqhvg","pricing_plan_id":"cebpf4jnsgd1na2vs0mg"},{"bike_id":"cba7e599-141a-43a0-bda9-8c38f559cacc","system_id":"levelo_inurba_marseille","lat":43.29363,"lon":5.37839,"is_reserved":false,"is_disabled":false,"rental_uris":{"android":"levelo://app?vid=cba7e599-141a-43a0-bda9-8c38f559cacc","ios":"levelo://app?vid=cba7e599-141a-43a0-bda9-8c38f559cacc"},"vehicle_type_id":"4","last_reported":1737104989,"current_range_meters":24400,"station_id":"ce4bgjh2rcd13ifvqbf0","pricing_plan_id":"cebpf4jnsgd1na2vs0mg"},{"bike_id":"193d15e5-1f81-4e8f-8917-faccf8a77786","system_id":"levelo_inurba_marseille","lat":43.31165,"lon":5.38727,"is_reserved":false,"is_disabled":false,"rental_uris":{"android":"levelo://app?vid=193d15e5-1f81-4e8f-8917-faccf8a77786","ios":"levelo://app?vid=193d15e5-1f81-4e8f-8917-faccf8a77786"},"vehicle_type_id":"4","last_reported":1737104989,"current_range_meters":30000,"station_id":"ce4bgv12rcd13ifvqcp0","pricing_plan_id":"cebpf4jnsgd1na2vs0mg"},{"bike_id":"531ca6fb-072a-4a2c-8d49-fd42078dd318","system_id":"levelo_inurba_marseille","lat":43.32049,"lon":5.4158,"is_reserved":false,"is_disabled":false,"rental_uris":{"android":"levelo://app?vid=531ca6fb-072a-4a2c-8d49-fd42078dd318","ios":"levelo://app?vid=531ca6fb-072a-4a2c-8d49-fd42078dd318"},"vehicle_type_id":"4","last_reported":1737104989,"current_range_meters":26800,"station_id":"ce4bhq92rcd13ifvqhkg","pricing_plan_id":"cebpf4jnsgd1na2vs0mg"},{"bike_id":"450e4b2e-2717-46bb-9250-32754d000e21","system_id":"levelo_inurba_marseille","lat":43.31701,"lon":5.37755,"is_reserved":false,"is_disabled":false,"rental_uris":{"android":"levelo://app?vid=450e4b2e-2717-46bb-9250-32754d000e21","ios":"levelo://app?vid=450e4b2e-2717-46bb-9250-32754d000e21"},"vehicle_type_id":"4","last_reported":1737104989,"current_range_meters":38800,"station_id":"ce4bgth2rcd13ifvqch0","pricing_plan_id":"cebpf4jnsgd1na2vs0mg"},{"bike_id":"67c549d5-ce81-408a-a146-d43915340e7f","system_id":"levelo_inurba_marseille","lat":43.33736,"lon":5.39182,"is_reserved":false,"is_disabled":false,"rental_uris":{"android":"levelo://app?vid=67c549d5-ce81-408a-a146-d43915340e7f","ios":"levelo://app?vid=67c549d5-ce81-408a-a146-d43915340e7f"},"vehicle_type_id":"4","last_reported":1737104989,"current_range_meters":28000,"station_id":"ce4bhr92rcd13ifvqhsg","pricing_plan_id":"cebpf4jnsgd1na2vs0mg"},{"bike_id":"efd05c32-4d50-4342-9945-bb25c7efcd6f","system_id":"levelo_inurba_marseille","lat":43.2797,"lon":5.38696,"is_reserved":false,"is_disabled":false,"rental_uris":{"android":"levelo://app?vid=efd05c32-4d50-4342-9945-bb25c7efcd6f","ios":"levelo://app?vid=efd05c32-4d50-4342-9945-bb25c7efcd6f"},"vehicle_type_id":"4","last_reported":1737104989,"current_range_meters":38800,"station_id":"ce4bhg12rcd13ifvqf80","pricing_plan_id":"cebpf4jnsgd1na2vs0mg"},{"bike_id":"26b2b9d0-0f40-4411-b5b2-7f27a5b691d0","system_id":"levelo_inurba_marseille","lat":43.25007,"lon":5.38952,"is_reserved":false,"is_disabled":false,"rental_uris":{"android":"levelo://app?vid=26b2b9d0-0f40-4411-b5b2-7f27a5b691d0","ios":"levelo://app?vid=26b2b9d0-0f40-4411-b5b2-7f27a5b691d0"},"vehicle_type_id":"4","last_reported":1737104989,"current_range_meters":16800,"station_id":"ce4bhgp2rcd13ifvqfd0","pricing_plan_id":"cebpf4jnsgd1na2vs0mg"},{"bike_id":"f21955f8-a46c-4890-be70-66409620de02","system_id":"levelo_inurba_marseille","lat":43.2318,"lon":5.39975,"is_reserved":false,"is_disabled":false,"rental_uris":{"android":"levelo://app?vid=f21955f8-a46c-4890-be70-66409620de02","ios":"levelo://app?vid=f21955f8-a46c-4890-be70-66409620de02"},"vehicle_type_id":"4","last_reported":1737104989,"current_range_meters":6800,"station_id":"ce4bhn12rcd13ifvqgqg","pricing_plan_id":"cebpf4jnsgd1na2vs0mg"},{"bike_id":"34709e64-d1c8-4538-88a5-33805792c0a5","system_id":"levelo_inurba_marseille","lat":43.2582,"lon":5.3944,"is_reserved":false,"is_disabled":false,"rental_uris":{"android":"levelo://app?vid=34709e64-d1c8-4538-88a5-33805792c0a5","ios":"levelo://app?vid=34709e64-d1c8-4538-88a5-33805792c0a5"},"vehicle_type_id":"4","last_reported":1737104989,"current_range_meters":38400,"station_id":"ce4bhip2rcd13ifvqft0","pricing_plan_id":"cebpf4jnsgd1na2vs0mg"},{"bike_id":"d4c5158e-511e-4c0e-af6f-6a3bbf5cc0e5","system_id":"levelo_inurba_marseille","lat":43.27069,"lon":5.42285,"is_reserved":false,"is_disabled":true,"rental_uris":{"android":"levelo://app?vid=d4c5158e-511e-4c0e-af6f-6a3bbf5cc0e5","ios":"levelo://app?vid=d4c5158e-511e-4c0e-af6f-6a3bbf5cc0e5"},"vehicle_type_id":"4","last_reported":1737104989,"current_range_meters":400,"station_id":"ce4bhk92rcd13ifvqgb0","pricing_plan_id":"cebpf4jnsgd1na2vs0mg"},{"bike_id":"abd30ffe-8285-44ab-ac2a-53be6498a2ea","system_id":"levelo_inurba_marseille","lat":43.27211,"lon":5.39174,"is_reserved":false,"is_disabled":false,"rental_uris":{"android":"levelo://app?vid=abd30ffe-8285-44ab-ac2a-53be6498a2ea","ios":"levelo://app?vid=abd30ffe-8285-44ab-ac2a-53be6498a2ea"},"vehicle_type_id":"4","last_reported":1737104989,"current_range_meters":28800,"station_id":"ce4bhhp2rcd13ifvqfm0","pricing_plan_id":"cebpf4jnsgd1na2vs0mg"},{"bike_id":"faad4747-6efd-41c2-96f3-dfd0165e7e75","system_id":"levelo_inurba_marseille","lat":43.29683,"lon":5.37282,"is_reserved":false,"is_disabled":false,"rental_uris":{"android":"levelo://app?vid=faad4747-6efd-41c2-96f3-dfd0165e7e75","ios":"levelo://app?vid=faad4747-6efd-41c2-96f3-dfd0165e7e75"},"vehicle_type_id":"4","last_reported":1737104989,"current_range_meters":37600,"station_id":"ce4bgk12rcd13ifvqbj0","pricing_plan_id":"cebpf4jnsgd1na2vs0mg"},{"bike_id":"58059c20-35ab-411a-9814-0374fc5d25fb","system_id":"levelo_inurba_marseille","lat":43.30531,"lon":5.36701,"is_reserved":false,"is_disabled":false,"rental_uris":{"android":"levelo://app?vid=58059c20-35ab-411a-9814-0374fc5d25fb","ios":"levelo://app?vid=58059c20-35ab-411a-9814-0374fc5d25fb"},"vehicle_type_id":"4","last_reported":1737104989,"current_range_meters":38800,"station_id":"ce4bgrp2rcd13ifvqc9g","pricing_plan_id":"cebpf4jnsgd1na2vs0mg"},{"bike_id":"3d0bb5c0-7066-448c-b9c2-0728f3c5eaa1","system_id":"levelo_inurba_marseille","lat":43.32476,"lon":5.36564,"is_reserved":false,"is_disabled":false,"rental_uris":{"android":"levelo://app?vid=3d0bb5c0-7066-448c-b9c2-0728f3c5eaa1","ios":"levelo://app?vid=3d0bb5c0-7066-448c-b9c2-0728f3c5eaa1"},"vehicle_type_id":"4","last_reported":1737104989,"current_range_meters":32000,"station_id":"ce4bhs12rcd13ifvqhvg","pricing_plan_id":"cebpf4jnsgd1na2vs0mg"},{"bike_id":"5dc88dba-495e-484f-9b04-2299461d7f8a","system_id":"levelo_inurba_marseille","lat":43.26063,"lon":5.39367,"is_reserved":false,"is_disabled":false,"rental_uris":{"android":"levelo://app?vid=5dc88dba-495e-484f-9b04-2299461d7f8a","ios":"levelo://app?vid=5dc88dba-495e-484f-9b04-2299461d7f8a"},"vehicle_type_id":"4","last_reported":1737104989,"current_range_meters":23200,"station_id":"ce4bhh92rcd13ifvqfj0","pricing_plan_id":"cebpf4jnsgd1na2vs0mg"},{"bike_id":"56b8e9bc-f750-4815-bc98-9098414d16db","system_id":"levelo_inurba_marseille","lat":43.2319,"lon":5.35557,"is_reserved":false,"is_disabled":true,"rental_uris":{"android":"levelo://app?vid=56b8e9bc-f750-4815-bc98-9098414d16db","ios":"levelo://app?vid=56b8e9bc-f750-4815-bc98-9098414d16db"},"vehicle_type_id":"4","last_reported":1737104989,"current_range_meters":0,"station_id":"ce4bhu92rcd13ifvqi70","pricing_plan_id":"cebpf4jnsgd1na2vs0mg"},{"bike_id":"7afc75e8-5d7c-4ba4-a0f2-3359809a76fc","system_id":"levelo_inurba_marseille","lat":43.2594,"lon":5.40902,"is_reserved":false,"is_disabled":false,"rental_uris":{"android":"levelo://app?vid=7afc75e8-5d7c-4ba4-a0f2-3359809a76fc","ios":"levelo://app?vid=7afc75e8-5d7c-4ba4-a0f2-3359809a76fc"},"vehicle_type_id":"4","last_reported":1737104989,"current_range_meters":18000,"station_id":"ce4bhm92rcd13ifvqglg","pricing_plan_id":"cebpf4jnsgd1na2vs0mg"},{"bike_id":"50d78c67-99a9-4efd-85a9-dc2f8648249c","system_id":"levelo_inurba_marseille","lat":43.29358,"lon":5.37835,"is_reserved":false,"is_disabled":false,"rental_uris":{"android":"levelo://app?vid=50d78c67-99a9-4efd-85a9-dc2f8648249c","ios":"levelo://app?vid=50d78c67-99a9-4efd-85a9-dc2f8648249c"},"vehicle_type_id":"4","last_reported":1737104989,"current_range_meters":32000,"station_id":"ce4bgjh2rcd13ifvqbf0","pricing_plan_id":"cebpf4jnsgd1na2vs0mg"},{"bike_id":"d7a710b0-adff-4c5c-bf44-f4013363962c","system_id":"levelo_inurba_marseille","lat":43.24683,"lon":5.3944,"is_reserved":false,"is_disabled":false,"rental_uris":{"android":"levelo://app?vid=d7a710b0-adff-4c5c-bf44-f4013363962c","ios":"levelo://app?vid=d7a710b0-adff-4c5c-bf44-f4013363962c"},"vehicle_type_id":"4","last_reported":1737104989,"current_range_meters":38400,"station_id":"","pricing_plan_id":"cebpf4jnsgd1na2vs0mg"},{"bike_id":"90e69b3d-55be-4c48-a806-bcdf6e4f5ea3","system_id":"levelo_inurba_marseille","lat":43.29072,"lon":5.40034,"is_reserved":false,"is_disabled":false,"rental_uris":{"android":"levelo://app?vid=90e69b3d-55be-4c48-a806-bcdf6e4f5ea3","ios":"levelo://app?vid=90e69b3d-55be-4c48-a806-bcdf6e4f5ea3"},"vehicle_type_id":"4","last_reported":1737104989,"current_range_meters":23200,"station_id":"","pricing_plan_id":"cebpf4jnsgd1na2vs0mg"},{"bike_id":"da2a2638-3097-453e-a344-6640d36d21c1","system_id":"levelo_inurba_marseille","lat":43.27496,"lon":5.42458,"is_reserved":false,"is_disabled":false,"rental_uris":{"android":"levelo://app?vid=da2a2638-3097-453e-a344-6640d36d21c1","ios":"levelo://app?vid=da2a2638-3097-453e-a344-6640d36d21c1"},"vehicle_type_id":"4","last_reported":1737104989,"current_range_meters":12400,"station_id":"ce4bhn92rcd13ifvqgrg","pricing_plan_id":"cebpf4jnsgd1na2vs0mg"},{"bike_id":"60c469fc-3d82-43ea-8ec4-fc0b26db70e6","system_id":"levelo_inurba_marseille","lat":43.24168,"lon":5.39737,"is_reserved":false,"is_disabled":false,"rental_uris":{"android":"levelo://app?vid=60c469fc-3d82-43ea-8ec4-fc0b26db70e6","ios":"levelo://app?vid=60c469fc-3d82-43ea-8ec4-fc0b26db70e6"},"vehicle_type_id":"4","last_reported":1737104989,"current_range_meters":25200,"station_id":"ce4bhn12rcd13ifvqgpg","pricing_plan_id":"cebpf4jnsgd1na2vs0mg"},{"bike_id":"1b0abdf0-ebc9-477b-9a5c-20d604bc88e3","system_id":"levelo_inurba_marseille","lat":43.25087,"lon":5.39512,"is_reserved":false,"is_disabled":false,"rental_uris":{"android":"levelo://app?vid=1b0abdf0-ebc9-477b-9a5c-20d604bc88e3","ios":"levelo://app?vid=1b0abdf0-ebc9-477b-9a5c-20d604bc88e3"},"vehicle_type_id":"4","last_reported":1737104989,"current_range_meters":32000,"station_id":"ce4bhm12rcd13ifvqgkg","pricing_plan_id":"cebpf4jnsgd1na2vs0mg"},{"bike_id":"1582d5c2-6c6c-41a9-8bdc-61be04b2faca","system_id":"levelo_inurba_marseille","lat":43.30308,"lon":5.36902,"is_reserved":false,"is_disabled":false,"rental_uris":{"android":"levelo://app?vid=1582d5c2-6c6c-41a9-8bdc-61be04b2faca","ios":"levelo://app?vid=1582d5c2-6c6c-41a9-8bdc-61be04b2faca"},"vehicle_type_id":"4","last_reported":1737104989,"current_range_meters":4400,"station_id":"ce4bgqh2rcd13ifvqc5g","pricing_plan_id":"cebpf4jnsgd1na2vs0mg"},{"bike_id":"7497d04d-f5a5-4c5c-80db-3387d8d360fa","system_id":"levelo_inurba_marseille","lat":43.29042,"lon":5.39961,"is_reserved":false,"is_disabled":false,"rental_uris":{"android":"levelo://app?vid=7497d04d-f5a5-4c5c-80db-3387d8d360fa","ios":"levelo://app?vid=7497d04d-f5a5-4c5c-80db-3387d8d360fa"},"vehicle_type_id":"4","last_reported":1737104989,"current_range_meters":23200,"station_id":"ce4bh392rcd13ifvqdm0","pricing_plan_id":"cebpf4jnsgd1na2vs0mg"},{"bike_id":"1aa811cc-358a-4b03-b561-da225e090eaf","system_id":"levelo_inurba_marseille","lat":43.29036,"lon":5.40043,"is_reserved":false,"is_disabled":false,"rental_uris":{"android":"levelo://app?vid=1aa811cc-358a-4b03-b561-da225e090eaf","ios":"levelo://app?vid=1aa811cc-358a-4b03-b561-da225e090eaf"},"vehicle_type_id":"4","last_reported":1737104989,"current_range_meters":30800,"station_id":"ce4bh392rcd13ifvqdm0","pricing_plan_id":"cebpf4jnsgd1na2vs0mg"},{"bike_id":"22465212-93af-4e0b-b803-6ee82bba56d5","system_id":"levelo_inurba_marseille","lat":43.33751,"lon":5.3751,"is_reserved":false,"is_disabled":false,"rental_uris":{"android":"levelo://app?vid=22465212-93af-4e0b-b803-6ee82bba56d5","ios":"levelo://app?vid=22465212-93af-4e0b-b803-6ee82bba56d5"},"vehicle_type_id":"4","last_reported":1737104989,"current_range_meters":32000,"station_id":"","pricing_plan_id":"cebpf4jnsgd1na2vs0mg"},{"bike_id":"65738d62-b35b-4989-a509-3ac269e67ca5","system_id":"levelo_inurba_marseille","lat":43.30547,"lon":5.36704,"is_reserved":false,"is_disabled":false,"rental_uris":{"android":"levelo://app?vid=65738d62-b35b-4989-a509-3ac269e67ca5","ios":"levelo://app?vid=65738d62-b35b-4989-a509-3ac269e67ca5"},"vehicle_type_id":"4","last_reported":1737104989,"current_range_meters":39200,"station_id":"ce4bgrp2rcd13ifvqc9g","pricing_plan_id":"cebpf4jnsgd1na2vs0mg"},{"bike_id":"90ca4579-674c-43d3-860e-27aea3851351","system_id":"levelo_inurba_marseille","lat":43.30639,"lon":5.40094,"is_reserved":false,"is_disabled":false,"rental_uris":{"android":"levelo://app?vid=90ca4579-674c-43d3-860e-27aea3851351","ios":"levelo://app?vid=90ca4579-674c-43d3-860e-27aea3851351"},"vehicle_type_id":"4","last_reported":1737104989,"current_range_meters":38000,"station_id":"ce4bh112rcd13ifvqda0","pricing_plan_id":"cebpf4jnsgd1na2vs0mg"},{"bike_id":"950bc21b-63fe-44c1-b3fa-5c243fc9e8a8","system_id":"levelo_inurba_marseille","lat":43.28272,"lon":5.35068,"is_reserved":false,"is_disabled":false,"rental_uris":{"android":"levelo://app?vid=950bc21b-63fe-44c1-b3fa-5c243fc9e8a8","ios":"levelo://app?vid=950bc21b-63fe-44c1-b3fa-5c243fc9e8a8"},"vehicle_type_id":"4","last_reported":1737104989,"current_range_meters":24400,"station_id":"ce4bhbp2rcd13ifvqerg","pricing_plan_id":"cebpf4jnsgd1na2vs0mg"},{"bike_id":"6a8dfc8c-1e03-47d2-b56e-99064ec40b22","system_id":"levelo_inurba_marseille","lat":43.27494,"lon":5.4246,"is_reserved":false,"is_disabled":false,"rental_uris":{"android":"levelo://app?vid=6a8dfc8c-1e03-47d2-b56e-99064ec40b22","ios":"levelo://app?vid=6a8dfc8c-1e03-47d2-b56e-99064ec40b22"},"vehicle_type_id":"4","last_reported":1737104989,"current_range_meters":15200,"station_id":"ce4bhn92rcd13ifvqgrg","pricing_plan_id":"cebpf4jnsgd1na2vs0mg"},{"bike_id":"84708e74-0fe7-4fb2-addd-7c044bcdb32e","system_id":"levelo_inurba_marseille","lat":43.31987,"lon":5.38147,"is_reserved":false,"is_disabled":false,"rental_uris":{"android":"levelo://app?vid=84708e74-0fe7-4fb2-addd-7c044bcdb32e","ios":"levelo://app?vid=84708e74-0fe7-4fb2-addd-7c044bcdb32e"},"vehicle_type_id":"4","last_reported":1737104989,"current_range_meters":29600,"station_id":"ce4bhr12rcd13ifvqhpg","pricing_plan_id":"cebpf4jnsgd1na2vs0mg"},{"bike_id":"9b3f5263-092a-42a3-985e-303e3ee0becf","system_id":"levelo_inurba_marseille","lat":43.2649,"lon":5.39562,"is_reserved":false,"is_disabled":true,"rental_uris":{"android":"levelo://app?vid=9b3f5263-092a-42a3-985e-303e3ee0becf","ios":"levelo://app?vid=9b3f5263-092a-42a3-985e-303e3ee0becf"},"vehicle_type_id":"4","last_reported":1737104989,"current_range_meters":0,"station_id":"ce4bhi12rcd13ifvqfq0","pricing_plan_id":"cebpf4jnsgd1na2vs0mg"},{"bike_id":"ba3f556c-cf6a-4039-a072-0e6118db4c47","system_id":"levelo_inurba_marseille","lat":43.23146,"lon":5.43744,"is_reserved":false,"is_disabled":false,"rental_uris":{"android":"levelo://app?vid=ba3f556c-cf6a-4039-a072-0e6118db4c47","ios":"levelo://app?vid=ba3f556c-cf6a-4039-a072-0e6118db4c47"},"vehicle_type_id":"4","last_reported":1737104989,"current_range_meters":9200,"station_id":"ce4bhmp2rcd13ifvqgog","pricing_plan_id":"cebpf4jnsgd1na2vs0mg"},{"bike_id":"40d9f560-f7c6-43f3-93ac-8f917c9c0a7d","system_id":"levelo_inurba_marseille","lat":43.25916,"lon":5.40924,"is_reserved":false,"is_disabled":false,"rental_uris":{"android":"levelo://app?vid=40d9f560-f7c6-43f3-93ac-8f917c9c0a7d","ios":"levelo://app?vid=40d9f560-f7c6-43f3-93ac-8f917c9c0a7d"},"vehicle_type_id":"4","last_reported":1737104989,"current_range_meters":38800,"station_id":"ce4bhm92rcd13ifvqglg","pricing_plan_id":"cebpf4jnsgd1na2vs0mg"},{"bike_id":"b126266b-2228-4a43-9222-e2ee66eb7535","system_id":"levelo_inurba_marseille","lat":43.29046,"lon":5.39949,"is_reserved":false,"is_disabled":false,"rental_uris":{"android":"levelo://app?vid=b126266b-2228-4a43-9222-e2ee66eb7535","ios":"levelo://app?vid=b126266b-2228-4a43-9222-e2ee66eb7535"},"vehicle_type_id":"4","last_reported":1737104989,"current_range_meters":37600,"station_id":"ce4bh392rcd13ifvqdm0","pricing_plan_id":"cebpf4jnsgd1na2vs0mg"},{"bike_id":"16764f9e-b1b9-4d6f-9dca-0161489fba20","system_id":"levelo_inurba_marseille","lat":43.30161,"lon":5.38086,"is_reserved":false,"is_disabled":false,"rental_uris":{"android":"levelo://app?vid=16764f9e-b1b9-4d6f-9dca-0161489fba20","ios":"levelo://app?vid=16764f9e-b1b9-4d6f-9dca-0161489fba20"},"vehicle_type_id":"4","last_reported":1737104989,"current_range_meters":28800,"station_id":"ce4bgjp2rcd13ifvqbh0","pricing_plan_id":"cebpf4jnsgd1na2vs0mg"},{"bike_id":"24bcc0cf-8c95-40af-8068-dc3c48d5cf59","system_id":"levelo_inurba_marseille","lat":43.33602,"lon":5.41015,"is_reserved":false,"is_disabled":false,"rental_uris":{"android":"levelo://app?vid=24bcc0cf-8c95-40af-8068-dc3c48d5cf59","ios":"levelo://app?vid=24bcc0cf-8c95-40af-8068-dc3c48d5cf59"},"vehicle_type_id":"4","last_reported":1737104989,"current_range_meters":39200,"station_id":"ce4bhqh2rcd13ifvqhmg","pricing_plan_id":"cebpf4jnsgd1na2vs0mg"},{"bike_id":"6a7366d7-ed8c-4629-bf0c-70c2abcda36d","system_id":"levelo_inurba_marseille","lat":43.23197,"lon":5.35555,"is_reserved":false,"is_disabled":false,"rental_uris":{"android":"levelo://app?vid=6a7366d7-ed8c-4629-bf0c-70c2abcda36d","ios":"levelo://app?vid=6a7366d7-ed8c-4629-bf0c-70c2abcda36d"},"vehicle_type_id":"4","last_reported":1737104989,"current_range_meters":8400,"station_id":"ce4bhu92rcd13ifvqi70","pricing_plan_id":"cebpf4jnsgd1na2vs0mg"},{"bike_id":"e354da03-924f-4370-a6bd-3bd3c66ca100","system_id":"levelo_inurba_marseille","lat":43.24072,"lon":5.37769,"is_reserved":false,"is_disabled":false,"rental_uris":{"android":"levelo://app?vid=e354da03-924f-4370-a6bd-3bd3c66ca100","ios":"levelo://app?vid=e354da03-924f-4370-a6bd-3bd3c66ca100"},"vehicle_type_id":"4","last_reported":1737104989,"current_range_meters":38400,"station_id":"ce4bhnp2rcd13ifvqgvg","pricing_plan_id":"cebpf4jnsgd1na2vs0mg"},{"bike_id":"2d7f3353-743b-41e1-85f2-e32181d4ae48","system_id":"levelo_inurba_marseille","lat":43.32013,"lon":5.38189,"is_reserved":false,"is_disabled":false,"rental_uris":{"android":"levelo://app?vid=2d7f3353-743b-41e1-85f2-e32181d4ae48","ios":"levelo://app?vid=2d7f3353-743b-41e1-85f2-e32181d4ae48"},"vehicle_type_id":"4","last_reported":1737104989,"current_range_meters":28800,"station_id":"ce4bhr12rcd13ifvqhpg","pricing_plan_id":"cebpf4jnsgd1na2vs0mg"},{"bike_id":"573076c8-1172-47e5-b129-cb987286e5ee","system_id":"levelo_inurba_marseille","lat":43.278152,"lon":5.407118,"is_reserved":false,"is_disabled":false,"rental_uris":{"android":"levelo://app?vid=573076c8-1172-47e5-b129-cb987286e5ee","ios":"levelo://app?vid=573076c8-1172-47e5-b129-cb987286e5ee"},"vehicle_type_id":"4","last_reported":1737104989,"current_range_meters":38400,"station_id":"ce4bhnh2rcd13ifvqgtg","pricing_plan_id":"cebpf4jnsgd1na2vs0mg"},{"bike_id":"79494a98-fe80-43b1-bc08-c41a9419a992","system_id":"levelo_inurba_marseille","lat":43.3199,"lon":5.38165,"is_reserved":false,"is_disabled":false,"rental_uris":{"android":"levelo://app?vid=79494a98-fe80-43b1-bc08-c41a9419a992","ios":"levelo://app?vid=79494a98-fe80-43b1-bc08-c41a9419a992"},"vehicle_type_id":"4","last_reported":1737104989,"current_range_meters":3600,"station_id":"ce4bhr12rcd13ifvqhpg","pricing_plan_id":"cebpf4jnsgd1na2vs0mg"},{"bike_id":"35deb437-7ef2-4ee7-9ea5-27ce0001ca7b","system_id":"levelo_inurba_marseille","lat":43.2606,"lon":5.39399,"is_reserved":false,"is_disabled":false,"rental_uris":{"android":"levelo://app?vid=35deb437-7ef2-4ee7-9ea5-27ce0001ca7b","ios":"levelo://app?vid=35deb437-7ef2-4ee7-9ea5-27ce0001ca7b"},"vehicle_type_id":"4","last_reported":1737104989,"current_range_meters":39200,"station_id":"ce4bhh92rcd13ifvqfj0","pricing_plan_id":"cebpf4jnsgd1na2vs0mg"},{"bike_id":"9d57abc3-ea43-43ec-8af5-ee074139083e","system_id":"levelo_inurba_marseille","lat":43.30944,"lon":5.39056,"is_reserved":false,"is_disabled":false,"rental_uris":{"android":"levelo://app?vid=9d57abc3-ea43-43ec-8af5-ee074139083e","ios":"levelo://app?vid=9d57abc3-ea43-43ec-8af5-ee074139083e"},"vehicle_type_id":"4","last_reported":1737104989,"current_range_meters":39200,"station_id":"ce4bgup2rcd13ifvqco0","pricing_plan_id":"cebpf4jnsgd1na2vs0mg"},{"bike_id":"eb227dcb-56d4-43f1-b286-b0cd1aa490f5","system_id":"levelo_inurba_marseille","lat":43.29899,"lon":5.38136,"is_reserved":false,"is_disabled":true,"rental_uris":{"android":"levelo://app?vid=eb227dcb-56d4-43f1-b286-b0cd1aa490f5","ios":"levelo://app?vid=eb227dcb-56d4-43f1-b286-b0cd1aa490f5"},"vehicle_type_id":"4","last_reported":1737104989,"current_range_meters":400,"station_id":"ce4bgj12rcd13ifvqbc0","pricing_plan_id":"cebpf4jnsgd1na2vs0mg"},{"bike_id":"8154d294-bad5-4c57-bcee-7640029c7268","system_id":"levelo_inurba_marseille","lat":43.26058,"lon":5.39394,"is_reserved":false,"is_disabled":false,"rental_uris":{"android":"levelo://app?vid=8154d294-bad5-4c57-bcee-7640029c7268","ios":"levelo://app?vid=8154d294-bad5-4c57-bcee-7640029c7268"},"vehicle_type_id":"4","last_reported":1737104989,"current_range_meters":29600,"station_id":"ce4bhh92rcd13ifvqfj0","pricing_plan_id":"cebpf4jnsgd1na2vs0mg"},{"bike_id":"6bdea331-32f7-46ff-a178-aa3ec9a6cbb8","system_id":"levelo_inurba_marseille","lat":43.31891,"lon":5.4074,"is_reserved":false,"is_disabled":false,"rental_uris":{"android":"levelo://app?vid=6bdea331-32f7-46ff-a178-aa3ec9a6cbb8","ios":"levelo://app?vid=6bdea331-32f7-46ff-a178-aa3ec9a6cbb8"},"vehicle_type_id":"4","last_reported":1737104989,"current_range_meters":14400,"station_id":"ce4bhq12rcd13ifvqhig","pricing_plan_id":"cebpf4jnsgd1na2vs0mg"},{"bike_id":"82acf521-6f00-4e3a-b1c2-102af9533800","system_id":"levelo_inurba_marseille","lat":43.29579,"lon":5.36742,"is_reserved":false,"is_disabled":false,"rental_uris":{"android":"levelo://app?vid=82acf521-6f00-4e3a-b1c2-102af9533800","ios":"levelo://app?vid=82acf521-6f00-4e3a-b1c2-102af9533800"},"vehicle_type_id":"4","last_reported":1737104989,"current_range_meters":39200,"station_id":"ce4bgph2rcd13ifvqc2g","pricing_plan_id":"cebpf4jnsgd1na2vs0mg"},{"bike_id":"bf989edc-c671-4558-86c0-ca2a191ec8f3","system_id":"levelo_inurba_marseille","lat":43.32542,"lon":5.41435,"is_reserved":false,"is_disabled":false,"rental_uris":{"android":"levelo://app?vid=bf989edc-c671-4558-86c0-ca2a191ec8f3","ios":"levelo://app?vid=bf989edc-c671-4558-86c0-ca2a191ec8f3"},"vehicle_type_id":"4","last_reported":1737104989,"current_range_meters":36400,"station_id":"ce4bhq12rcd13ifvqhhg","pricing_plan_id":"cebpf4jnsgd1na2vs0mg"},{"bike_id":"503f40db-f7c5-4ce1-bf83-744d8dd98023","system_id":"levelo_inurba_marseille","lat":43.2996,"lon":5.37178,"is_reserved":false,"is_disabled":false,"rental_uris":{"android":"levelo://app?vid=503f40db-f7c5-4ce1-bf83-744d8dd98023","ios":"levelo://app?vid=503f40db-f7c5-4ce1-bf83-744d8dd98023"},"vehicle_type_id":"4","last_reported":1737104989,"current_range_meters":20400,"station_id":"ce4bgr92rcd13ifvqc7g","pricing_plan_id":"cebpf4jnsgd1na2vs0mg"},{"bike_id":"5d42a98e-bef8-43af-946e-751274f82d4c","system_id":"levelo_inurba_marseille","lat":43.23657,"lon":5.43598,"is_reserved":false,"is_disabled":true,"rental_uris":{"android":"levelo://app?vid=5d42a98e-bef8-43af-946e-751274f82d4c","ios":"levelo://app?vid=5d42a98e-bef8-43af-946e-751274f82d4c"},"vehicle_type_id":"4","last_reported":1737104989,"current_range_meters":28400,"station_id":"","pricing_plan_id":"cebpf4jnsgd1na2vs0mg"},{"bike_id":"9fef62c1-09f6-4d53-ab83-76888bceebbd","system_id":"levelo_inurba_marseille","lat":43.261874,"lon":5.420763,"is_reserved":false,"is_disabled":false,"rental_uris":{"android":"levelo://app?vid=9fef62c1-09f6-4d53-ab83-76888bceebbd","ios":"levelo://app?vid=9fef62c1-09f6-4d53-ab83-76888bceebbd"},"vehicle_type_id":"4","last_reported":1737104989,"current_range_meters":25200,"station_id":"","pricing_plan_id":"cebpf4jnsgd1na2vs0mg"},{"bike_id":"10561a23-a6b3-43d9-a4da-938f77e97362","system_id":"levelo_inurba_marseille","lat":43.26191,"lon":5.37463,"is_reserved":false,"is_disabled":false,"rental_uris":{"android":"levelo://app?vid=10561a23-a6b3-43d9-a4da-938f77e97362","ios":"levelo://app?vid=10561a23-a6b3-43d9-a4da-938f77e97362"},"vehicle_type_id":"4","last_reported":1737104989,"current_range_meters":38400,"station_id":"ce4bhgp2rcd13ifvqfc0","pricing_plan_id":"cebpf4jnsgd1na2vs0mg"},{"bike_id":"1bc46916-ca74-498d-8d82-1e7f9a99ebb2","system_id":"levelo_inurba_marseille","lat":43.29032,"lon":5.4,"is_reserved":false,"is_disabled":false,"rental_uris":{"android":"levelo://app?vid=1bc46916-ca74-498d-8d82-1e7f9a99ebb2","ios":"levelo://app?vid=1bc46916-ca74-498d-8d82-1e7f9a99ebb2"},"vehicle_type_id":"4","last_reported":1737104989,"current_range_meters":39200,"station_id":"ce4bh392rcd13ifvqdm0","pricing_plan_id":"cebpf4jnsgd1na2vs0mg"},{"bike_id":"b6302f08-ccde-4d2a-a38c-30a7c75f9b1c","system_id":"levelo_inurba_marseille","lat":43.30771,"lon":5.37654,"is_reserved":false,"is_disabled":false,"rental_uris":{"android":"levelo://app?vid=b6302f08-ccde-4d2a-a38c-30a7c75f9b1c","ios":"levelo://app?vid=b6302f08-ccde-4d2a-a38c-30a7c75f9b1c"},"vehicle_type_id":"4","last_reported":1737104989,"current_range_meters":24800,"station_id":"ce4bgv92rcd13ifvqcq0","pricing_plan_id":"cebpf4jnsgd1na2vs0mg"},{"bike_id":"8eca6891-282f-4f00-9432-07553d6fed7f","system_id":"levelo_inurba_marseille","lat":43.33016,"lon":5.39051,"is_reserved":false,"is_disabled":false,"rental_uris":{"android":"levelo://app?vid=8eca6891-282f-4f00-9432-07553d6fed7f","ios":"levelo://app?vid=8eca6891-282f-4f00-9432-07553d6fed7f"},"vehicle_type_id":"4","last_reported":1737104989,"current_range_meters":21600,"station_id":"ce4bhr92rcd13ifvqhrg","pricing_plan_id":"cebpf4jnsgd1na2vs0mg"},{"bike_id":"931e3968-6d09-488c-8fce-e4a6b5894e56","system_id":"levelo_inurba_marseille","lat":43.33612,"lon":5.41038,"is_reserved":false,"is_disabled":false,"rental_uris":{"android":"levelo://app?vid=931e3968-6d09-488c-8fce-e4a6b5894e56","ios":"levelo://app?vid=931e3968-6d09-488c-8fce-e4a6b5894e56"},"vehicle_type_id":"4","last_reported":1737104989,"current_range_meters":38800,"station_id":"ce4bhqh2rcd13ifvqhmg","pricing_plan_id":"cebpf4jnsgd1na2vs0mg"},{"bike_id":"2a6ab64b-e3fb-4698-9a6a-f78a3a1e741f","system_id":"levelo_inurba_marseille","lat":43.26675,"lon":5.38266,"is_reserved":false,"is_disabled":false,"rental_uris":{"android":"levelo://app?vid=2a6ab64b-e3fb-4698-9a6a-f78a3a1e741f","ios":"levelo://app?vid=2a6ab64b-e3fb-4698-9a6a-f78a3a1e741f"},"vehicle_type_id":"4","last_reported":1737104989,"current_range_meters":19200,"station_id":"ce4bhg92rcd13ifvqf90","pricing_plan_id":"cebpf4jnsgd1na2vs0mg"},{"bike_id":"63dfc929-5908-4760-8f8c-67c2a20f91ac","system_id":"levelo_inurba_marseille","lat":43.30953,"lon":5.39026,"is_reserved":false,"is_disabled":false,"rental_uris":{"android":"levelo://app?vid=63dfc929-5908-4760-8f8c-67c2a20f91ac","ios":"levelo://app?vid=63dfc929-5908-4760-8f8c-67c2a20f91ac"},"vehicle_type_id":"4","last_reported":1737104989,"current_range_meters":34000,"station_id":"ce4bgup2rcd13ifvqco0","pricing_plan_id":"cebpf4jnsgd1na2vs0mg"},{"bike_id":"5b3e2687-53f3-4872-aea9-c615e16029aa","system_id":"levelo_inurba_marseille","lat":43.30952,"lon":5.39049,"is_reserved":false,"is_disabled":false,"rental_uris":{"android":"levelo://app?vid=5b3e2687-53f3-4872-aea9-c615e16029aa","ios":"levelo://app?vid=5b3e2687-53f3-4872-aea9-c615e16029aa"},"vehicle_type_id":"4","last_reported":1737104989,"current_range_meters":39200,"station_id":"ce4bgup2rcd13ifvqco0","pricing_plan_id":"cebpf4jnsgd1na2vs0mg"},{"bike_id":"e0787909-909a-4c51-bfbe-adb28f26837d","system_id":"levelo_inurba_marseille","lat":43.23965,"lon":5.36633,"is_reserved":false,"is_disabled":false,"rental_uris":{"android":"levelo://app?vid=e0787909-909a-4c51-bfbe-adb28f26837d","ios":"levelo://app?vid=e0787909-909a-4c51-bfbe-adb28f26837d"},"vehicle_type_id":"4","last_reported":1737104989,"current_range_meters":28800,"station_id":"ce4bhi12rcd13ifvqfp0","pricing_plan_id":"cebpf4jnsgd1na2vs0mg"},{"bike_id":"08651aa7-3b96-4acf-818e-074b84f36b09","system_id":"levelo_inurba_marseille","lat":43.34154,"lon":5.40937,"is_reserved":false,"is_disabled":false,"rental_uris":{"android":"levelo://app?vid=08651aa7-3b96-4acf-818e-074b84f36b09","ios":"levelo://app?vid=08651aa7-3b96-4acf-818e-074b84f36b09"},"vehicle_type_id":"4","last_reported":1737104989,"current_range_meters":39200,"station_id":"ce4bhqh2rcd13ifvqhlg","pricing_plan_id":"cebpf4jnsgd1na2vs0mg"},{"bike_id":"ea68a76e-b4c6-4be9-ab98-1a2f34b18dea","system_id":"levelo_inurba_marseille","lat":43.24173,"lon":5.39737,"is_reserved":false,"is_disabled":true,"rental_uris":{"android":"levelo://app?vid=ea68a76e-b4c6-4be9-ab98-1a2f34b18dea","ios":"levelo://app?vid=ea68a76e-b4c6-4be9-ab98-1a2f34b18dea"},"vehicle_type_id":"4","last_reported":1737104989,"current_range_meters":16000,"station_id":"ce4bhn12rcd13ifvqgpg","pricing_plan_id":"cebpf4jnsgd1na2vs0mg"},{"bike_id":"963ada89-2813-41bb-a83b-b411c2ffb6f5","system_id":"levelo_inurba_marseille","lat":43.25936,"lon":5.40906,"is_reserved":false,"is_disabled":false,"rental_uris":{"android":"levelo://app?vid=963ada89-2813-41bb-a83b-b411c2ffb6f5","ios":"levelo://app?vid=963ada89-2813-41bb-a83b-b411c2ffb6f5"},"vehicle_type_id":"4","last_reported":1737104989,"current_range_meters":16800,"station_id":"ce4bhm92rcd13ifvqglg","pricing_plan_id":"cebpf4jnsgd1na2vs0mg"},{"bike_id":"fafda47e-f2ad-447c-b5eb-b7460634d9bc","system_id":"levelo_inurba_marseille","lat":43.2749,"lon":5.42469,"is_reserved":false,"is_disabled":false,"rental_uris":{"android":"levelo://app?vid=fafda47e-f2ad-447c-b5eb-b7460634d9bc","ios":"levelo://app?vid=fafda47e-f2ad-447c-b5eb-b7460634d9bc"},"vehicle_type_id":"4","last_reported":1737104989,"current_range_meters":10000,"station_id":"ce4bhn92rcd13ifvqgrg","pricing_plan_id":"cebpf4jnsgd1na2vs0mg"},{"bike_id":"0d23080e-06c3-45fa-a0a0-35b9e701809a","system_id":"levelo_inurba_marseille","lat":43.29808,"lon":5.37154,"is_reserved":false,"is_disabled":false,"rental_uris":{"android":"levelo://app?vid=0d23080e-06c3-45fa-a0a0-35b9e701809a","ios":"levelo://app?vid=0d23080e-06c3-45fa-a0a0-35b9e701809a"},"vehicle_type_id":"4","last_reported":1737104989,"current_range_meters":36000,"station_id":"","pricing_plan_id":"cebpf4jnsgd1na2vs0mg"},{"bike_id":"7383474c-b45a-4438-837c-99d7ae866fe7","system_id":"levelo_inurba_marseille","lat":43.26059,"lon":5.39409,"is_reserved":false,"is_disabled":false,"rental_uris":{"android":"levelo://app?vid=7383474c-b45a-4438-837c-99d7ae866fe7","ios":"levelo://app?vid=7383474c-b45a-4438-837c-99d7ae866fe7"},"vehicle_type_id":"4","last_reported":1737104989,"current_range_meters":38400,"station_id":"ce4bhh92rcd13ifvqfj0","pricing_plan_id":"cebpf4jnsgd1na2vs0mg"},{"bike_id":"d3545d69-4e5e-4319-b5c6-c93b1341a9d3","system_id":"levelo_inurba_marseille","lat":43.26196,"lon":5.37935,"is_reserved":false,"is_disabled":false,"rental_uris":{"android":"levelo://app?vid=d3545d69-4e5e-4319-b5c6-c93b1341a9d3","ios":"levelo://app?vid=d3545d69-4e5e-4319-b5c6-c93b1341a9d3"},"vehicle_type_id":"4","last_reported":1737104989,"current_range_meters":38000,"station_id":"ce4bhjp2rcd13ifvqg90","pricing_plan_id":"cebpf4jnsgd1na2vs0mg"},{"bike_id":"dc88b6b1-eb03-4885-9794-761910451a48","system_id":"levelo_inurba_marseille","lat":43.23145,"lon":5.43724,"is_reserved":false,"is_disabled":false,"rental_uris":{"android":"levelo://app?vid=dc88b6b1-eb03-4885-9794-761910451a48","ios":"levelo://app?vid=dc88b6b1-eb03-4885-9794-761910451a48"},"vehicle_type_id":"4","last_reported":1737104989,"current_range_meters":30400,"station_id":"ce4bhmp2rcd13ifvqgog","pricing_plan_id":"cebpf4jnsgd1na2vs0mg"},{"bike_id":"2c552a9c-3c5d-4a58-acbd-cad0d3bb2aaf","system_id":"levelo_inurba_marseille","lat":43.30949,"lon":5.39043,"is_reserved":false,"is_disabled":false,"rental_uris":{"android":"levelo://app?vid=2c552a9c-3c5d-4a58-acbd-cad0d3bb2aaf","ios":"levelo://app?vid=2c552a9c-3c5d-4a58-acbd-cad0d3bb2aaf"},"vehicle_type_id":"4","last_reported":1737104989,"current_range_meters":27200,"station_id":"ce4bgup2rcd13ifvqco0","pricing_plan_id":"cebpf4jnsgd1na2vs0mg"},{"bike_id":"0f1639ab-90d2-4609-9441-a7cee18da212","system_id":"levelo_inurba_marseille","lat":43.27489,"lon":5.42466,"is_reserved":false,"is_disabled":false,"rental_uris":{"android":"levelo://app?vid=0f1639ab-90d2-4609-9441-a7cee18da212","ios":"levelo://app?vid=0f1639ab-90d2-4609-9441-a7cee18da212"},"vehicle_type_id":"4","last_reported":1737104989,"current_range_meters":30400,"station_id":"ce4bhn92rcd13ifvqgrg","pricing_plan_id":"cebpf4jnsgd1na2vs0mg"},{"bike_id":"e53050ed-b123-4742-8c99-39c68f542f94","system_id":"levelo_inurba_marseille","lat":43.30094,"lon":5.39863,"is_reserved":false,"is_disabled":false,"rental_uris":{"android":"levelo://app?vid=e53050ed-b123-4742-8c99-39c68f542f94","ios":"levelo://app?vid=e53050ed-b123-4742-8c99-39c68f542f94"},"vehicle_type_id":"4","last_reported":1737104989,"current_range_meters":39200,"station_id":"ce4bh0h2rcd13ifvqd40","pricing_plan_id":"cebpf4jnsgd1na2vs0mg"},{"bike_id":"e8c4874f-0328-465e-8b32-f88c2a33622b","system_id":"levelo_inurba_marseille","lat":43.29697,"lon":5.36609,"is_reserved":false,"is_disabled":false,"rental_uris":{"android":"levelo://app?vid=e8c4874f-0328-465e-8b32-f88c2a33622b","ios":"levelo://app?vid=e8c4874f-0328-465e-8b32-f88c2a33622b"},"vehicle_type_id":"4","last_reported":1737104989,"current_range_meters":14000,"station_id":"ce4bgn12rcd13ifvqbt0","pricing_plan_id":"cebpf4jnsgd1na2vs0mg"},{"bike_id":"0dd19019-f68e-4196-b969-e64a3d920187","system_id":"levelo_inurba_marseille","lat":43.30524,"lon":5.36699,"is_reserved":false,"is_disabled":false,"rental_uris":{"android":"levelo://app?vid=0dd19019-f68e-4196-b969-e64a3d920187","ios":"levelo://app?vid=0dd19019-f68e-4196-b969-e64a3d920187"},"vehicle_type_id":"4","last_reported":1737104989,"current_range_meters":29600,"station_id":"ce4bgrp2rcd13ifvqc9g","pricing_plan_id":"cebpf4jnsgd1na2vs0mg"},{"bike_id":"22ccf45d-452d-45b0-ab56-995b2e477ec6","system_id":"levelo_inurba_marseille","lat":43.31478,"lon":5.37359,"is_reserved":false,"is_disabled":false,"rental_uris":{"android":"levelo://app?vid=22ccf45d-452d-45b0-ab56-995b2e477ec6","ios":"levelo://app?vid=22ccf45d-452d-45b0-ab56-995b2e477ec6"},"vehicle_type_id":"4","last_reported":1737104989,"current_range_meters":8400,"station_id":"ce4bgt12rcd13ifvqcd0","pricing_plan_id":"cebpf4jnsgd1na2vs0mg"},{"bike_id":"44721705-52d0-4eba-b0b2-b41ea9586411","system_id":"levelo_inurba_marseille","lat":43.231996,"lon":5.355566,"is_reserved":false,"is_disabled":false,"rental_uris":{"android":"levelo://app?vid=44721705-52d0-4eba-b0b2-b41ea9586411","ios":"levelo://app?vid=44721705-52d0-4eba-b0b2-b41ea9586411"},"vehicle_type_id":"4","last_reported":1737104989,"current_range_meters":30800,"station_id":"ce4bhu92rcd13ifvqi70","pricing_plan_id":"cebpf4jnsgd1na2vs0mg"},{"bike_id":"bca8ca0e-e6bb-4c30-9c0f-003d202e822c","system_id":"levelo_inurba_marseille","lat":43.27326,"lon":5.39092,"is_reserved":false,"is_disabled":false,"rental_uris":{"android":"levelo://app?vid=bca8ca0e-e6bb-4c30-9c0f-003d202e822c","ios":"levelo://app?vid=bca8ca0e-e6bb-4c30-9c0f-003d202e822c"},"vehicle_type_id":"4","last_reported":1737104989,"current_range_meters":39200,"station_id":"ce4bhgp2rcd13ifvqfe0","pricing_plan_id":"cebpf4jnsgd1na2vs0mg"},{"bike_id":"fe4ca2de-39b1-4c54-a18c-5b9311dc9a5e","system_id":"levelo_inurba_marseille","lat":43.30521,"lon":5.3655,"is_reserved":false,"is_disabled":false,"rental_uris":{"android":"levelo://app?vid=fe4ca2de-39b1-4c54-a18c-5b9311dc9a5e","ios":"levelo://app?vid=fe4ca2de-39b1-4c54-a18c-5b9311dc9a5e"},"vehicle_type_id":"4","last_reported":1737104989,"current_range_meters":39200,"station_id":"ce4bgs12rcd13ifvqcag","pricing_plan_id":"cebpf4jnsgd1na2vs0mg"},{"bike_id":"7138f953-e5b4-4a72-b4e7-3913f820a576","system_id":"levelo_inurba_marseille","lat":43.27183,"lon":5.4101,"is_reserved":false,"is_disabled":false,"rental_uris":{"android":"levelo://app?vid=7138f953-e5b4-4a72-b4e7-3913f820a576","ios":"levelo://app?vid=7138f953-e5b4-4a72-b4e7-3913f820a576"},"vehicle_type_id":"4","last_reported":1737104989,"current_range_meters":38800,"station_id":"ce4bhl12rcd13ifvqgf0","pricing_plan_id":"cebpf4jnsgd1na2vs0mg"},{"bike_id":"56245a8a-0771-4764-b271-bc067c058109","system_id":"levelo_inurba_marseille","lat":43.30947,"lon":5.39037,"is_reserved":false,"is_disabled":false,"rental_uris":{"android":"levelo://app?vid=56245a8a-0771-4764-b271-bc067c058109","ios":"levelo://app?vid=56245a8a-0771-4764-b271-bc067c058109"},"vehicle_type_id":"4","last_reported":1737104989,"current_range_meters":27200,"station_id":"ce4bgup2rcd13ifvqco0","pricing_plan_id":"cebpf4jnsgd1na2vs0mg"},{"bike_id":"1b6b7ffd-1198-465a-82b8-c33775fecaff","system_id":"levelo_inurba_marseille","lat":43.26192,"lon":5.37451,"is_reserved":false,"is_disabled":false,"rental_uris":{"android":"levelo://app?vid=1b6b7ffd-1198-465a-82b8-c33775fecaff","ios":"levelo://app?vid=1b6b7ffd-1198-465a-82b8-c33775fecaff"},"vehicle_type_id":"4","last_reported":1737104989,"current_range_meters":38800,"station_id":"ce4bhgp2rcd13ifvqfc0","pricing_plan_id":"cebpf4jnsgd1na2vs0mg"},{"bike_id":"1cb33b50-cfa2-4024-bca9-6a8271582b2e","system_id":"levelo_inurba_marseille","lat":43.29802,"lon":5.38105,"is_reserved":false,"is_disabled":false,"rental_uris":{"android":"levelo://app?vid=1cb33b50-cfa2-4024-bca9-6a8271582b2e","ios":"levelo://app?vid=1cb33b50-cfa2-4024-bca9-6a8271582b2e"},"vehicle_type_id":"4","last_reported":1737104989,"current_range_meters":27600,"station_id":"ce4bgip2rcd13ifvqbb0","pricing_plan_id":"cebpf4jnsgd1na2vs0mg"},{"bike_id":"3e669806-dbc2-4ed4-a074-c81594b7cb7c","system_id":"levelo_inurba_marseille","lat":43.29033,"lon":5.39959,"is_reserved":false,"is_disabled":false,"rental_uris":{"android":"levelo://app?vid=3e669806-dbc2-4ed4-a074-c81594b7cb7c","ios":"levelo://app?vid=3e669806-dbc2-4ed4-a074-c81594b7cb7c"},"vehicle_type_id":"4","last_reported":1737104989,"current_range_meters":4400,"station_id":"ce4bh392rcd13ifvqdm0","pricing_plan_id":"cebpf4jnsgd1na2vs0mg"},{"bike_id":"e1f9a0b5-1419-4e67-ab24-a72ee45dfd85","system_id":"levelo_inurba_marseille","lat":43.24174,"lon":5.36405,"is_reserved":false,"is_disabled":false,"rental_uris":{"android":"levelo://app?vid=e1f9a0b5-1419-4e67-ab24-a72ee45dfd85","ios":"levelo://app?vid=e1f9a0b5-1419-4e67-ab24-a72ee45dfd85"},"vehicle_type_id":"4","last_reported":1737104989,"current_range_meters":16800,"station_id":"cpo36qri1sfpv3e86is0","pricing_plan_id":"cebpf4jnsgd1na2vs0mg"},{"bike_id":"8f614e1f-84f3-4dcd-b94a-4b22991f6e04","system_id":"levelo_inurba_marseille","lat":43.29225,"lon":5.36068,"is_reserved":false,"is_disabled":true,"rental_uris":{"android":"levelo://app?vid=8f614e1f-84f3-4dcd-b94a-4b22991f6e04","ios":"levelo://app?vid=8f614e1f-84f3-4dcd-b94a-4b22991f6e04"},"vehicle_type_id":"4","last_reported":1737104989,"current_range_meters":24000,"station_id":"ce4bhbh2rcd13ifvqeqg","pricing_plan_id":"cebpf4jnsgd1na2vs0mg"},{"bike_id":"882e3c20-dd13-45c9-b2cc-b9e0e7c63a64","system_id":"levelo_inurba_marseille","lat":43.30547,"lon":5.36518,"is_reserved":false,"is_disabled":false,"rental_uris":{"android":"levelo://app?vid=882e3c20-dd13-45c9-b2cc-b9e0e7c63a64","ios":"levelo://app?vid=882e3c20-dd13-45c9-b2cc-b9e0e7c63a64"},"vehicle_type_id":"4","last_reported":1737104989,"current_range_meters":39200,"station_id":"ce4bgs12rcd13ifvqcag","pricing_plan_id":"cebpf4jnsgd1na2vs0mg"},{"bike_id":"c3de6877-1f6c-46f2-8ace-6b8834abcbb4","system_id":"levelo_inurba_marseille","lat":43.29027,"lon":5.37193,"is_reserved":false,"is_disabled":true,"rental_uris":{"android":"levelo://app?vid=c3de6877-1f6c-46f2-8ace-6b8834abcbb4","ios":"levelo://app?vid=c3de6877-1f6c-46f2-8ace-6b8834abcbb4"},"vehicle_type_id":"4","last_reported":1737104989,"current_range_meters":27200,"station_id":"ce4bh5p2rcd13ifvqe4g","pricing_plan_id":"cebpf4jnsgd1na2vs0mg"},{"bike_id":"6e220c80-72f8-4d3e-871d-c980ceb80b9d","system_id":"levelo_inurba_marseille","lat":43.26815,"lon":5.39436,"is_reserved":false,"is_disabled":false,"rental_uris":{"android":"levelo://app?vid=6e220c80-72f8-4d3e-871d-c980ceb80b9d","ios":"levelo://app?vid=6e220c80-72f8-4d3e-871d-c980ceb80b9d"},"vehicle_type_id":"4","last_reported":1737104989,"current_range_meters":4800,"station_id":"ce4bhh12rcd13ifvqfg0","pricing_plan_id":"cebpf4jnsgd1na2vs0mg"},{"bike_id":"12431ba9-19ae-4a65-9c95-5eeaaf8820fa","system_id":"levelo_inurba_marseille","lat":43.25112,"lon":5.40371,"is_reserved":false,"is_disabled":false,"rental_uris":{"android":"levelo://app?vid=12431ba9-19ae-4a65-9c95-5eeaaf8820fa","ios":"levelo://app?vid=12431ba9-19ae-4a65-9c95-5eeaaf8820fa"},"vehicle_type_id":"4","last_reported":1737104989,"current_range_meters":28800,"station_id":"ce4bhlh2rcd13ifvqgig","pricing_plan_id":"cebpf4jnsgd1na2vs0mg"},{"bike_id":"e0b58fdf-8c8f-454b-8926-2f8df7a5baaf","system_id":"levelo_inurba_marseille","lat":43.23627,"lon":5.39211,"is_reserved":false,"is_disabled":false,"rental_uris":{"android":"levelo://app?vid=e0b58fdf-8c8f-454b-8926-2f8df7a5baaf","ios":"levelo://app?vid=e0b58fdf-8c8f-454b-8926-2f8df7a5baaf"},"vehicle_type_id":"4","last_reported":1737104989,"current_range_meters":14800,"station_id":"","pricing_plan_id":"cebpf4jnsgd1na2vs0mg"},{"bike_id":"6cbf59e6-0bb3-4821-85b9-5e1365575a2a","system_id":"levelo_inurba_marseille","lat":43.25822,"lon":5.39431,"is_reserved":false,"is_disabled":false,"rental_uris":{"android":"levelo://app?vid=6cbf59e6-0bb3-4821-85b9-5e1365575a2a","ios":"levelo://app?vid=6cbf59e6-0bb3-4821-85b9-5e1365575a2a"},"vehicle_type_id":"4","last_reported":1737104989,"current_range_meters":23200,"station_id":"ce4bhip2rcd13ifvqft0","pricing_plan_id":"cebpf4jnsgd1na2vs0mg"},{"bike_id":"53d0db46-3b8c-4298-96d7-03a0d6fafab4","system_id":"levelo_inurba_marseille","lat":43.30555,"lon":5.36532,"is_reserved":false,"is_disabled":false,"rental_uris":{"android":"levelo://app?vid=53d0db46-3b8c-4298-96d7-03a0d6fafab4","ios":"levelo://app?vid=53d0db46-3b8c-4298-96d7-03a0d6fafab4"},"vehicle_type_id":"4","last_reported":1737104989,"current_range_meters":37600,"station_id":"ce4bgs12rcd13ifvqcag","pricing_plan_id":"cebpf4jnsgd1na2vs0mg"},{"bike_id":"9fd67735-0e42-4ea3-ba49-b3e72ffcfb28","system_id":"levelo_inurba_marseille","lat":43.30533,"lon":5.36706,"is_reserved":false,"is_disabled":false,"rental_uris":{"android":"levelo://app?vid=9fd67735-0e42-4ea3-ba49-b3e72ffcfb28","ios":"levelo://app?vid=9fd67735-0e42-4ea3-ba49-b3e72ffcfb28"},"vehicle_type_id":"4","last_reported":1737104989,"current_range_meters":39200,"station_id":"ce4bgrp2rcd13ifvqc9g","pricing_plan_id":"cebpf4jnsgd1na2vs0mg"},{"bike_id":"58816f06-6b5d-4f25-9ea2-ac8707506d12","system_id":"levelo_inurba_marseille","lat":43.26186,"lon":5.37453,"is_reserved":false,"is_disabled":true,"rental_uris":{"android":"levelo://app?vid=58816f06-6b5d-4f25-9ea2-ac8707506d12","ios":"levelo://app?vid=58816f06-6b5d-4f25-9ea2-ac8707506d12"},"vehicle_type_id":"4","last_reported":1737104989,"current_range_meters":1200,"station_id":"ce4bhgp2rcd13ifvqfc0","pricing_plan_id":"cebpf4jnsgd1na2vs0mg"},{"bike_id":"fd25e04d-765d-4a5d-8002-3ffd14d2460e","system_id":"levelo_inurba_marseille","lat":43.30144,"lon":5.38821,"is_reserved":false,"is_disabled":false,"rental_uris":{"android":"levelo://app?vid=fd25e04d-765d-4a5d-8002-3ffd14d2460e","ios":"levelo://app?vid=fd25e04d-765d-4a5d-8002-3ffd14d2460e"},"vehicle_type_id":"4","last_reported":1737104989,"current_range_meters":38000,"station_id":"ce4bhoh2rcd13ifvqh6g","pricing_plan_id":"cebpf4jnsgd1na2vs0mg"},{"bike_id":"f5863b18-13a1-4c6e-92de-5668ea912ad3","system_id":"levelo_inurba_marseille","lat":43.26229,"lon":5.40404,"is_reserved":false,"is_disabled":true,"rental_uris":{"android":"levelo://app?vid=f5863b18-13a1-4c6e-92de-5668ea912ad3","ios":"levelo://app?vid=f5863b18-13a1-4c6e-92de-5668ea912ad3"},"vehicle_type_id":"4","last_reported":1737104989,"current_range_meters":0,"station_id":"","pricing_plan_id":"cebpf4jnsgd1na2vs0mg"},{"bike_id":"bbf725a3-843a-42c1-8fd8-b53dad5cabfe","system_id":"levelo_inurba_marseille","lat":43.27207,"lon":5.39182,"is_reserved":false,"is_disabled":false,"rental_uris":{"android":"levelo://app?vid=bbf725a3-843a-42c1-8fd8-b53dad5cabfe","ios":"levelo://app?vid=bbf725a3-843a-42c1-8fd8-b53dad5cabfe"},"vehicle_type_id":"4","last_reported":1737104989,"current_range_meters":38000,"station_id":"ce4bhhp2rcd13ifvqfm0","pricing_plan_id":"cebpf4jnsgd1na2vs0mg"},{"bike_id":"a8fad254-19bb-48fe-801d-9e93d4767cef","system_id":"levelo_inurba_marseille","lat":43.31436,"lon":5.37414,"is_reserved":false,"is_disabled":true,"rental_uris":{"android":"levelo://app?vid=a8fad254-19bb-48fe-801d-9e93d4767cef","ios":"levelo://app?vid=a8fad254-19bb-48fe-801d-9e93d4767cef"},"vehicle_type_id":"4","last_reported":1737104989,"current_range_meters":0,"station_id":"","pricing_plan_id":"cebpf4jnsgd1na2vs0mg"},{"bike_id":"a7595b6a-cccc-4e99-a784-dc6b65610f55","system_id":"levelo_inurba_marseille","lat":43.29092,"lon":5.38147,"is_reserved":false,"is_disabled":false,"rental_uris":{"android":"levelo://app?vid=a7595b6a-cccc-4e99-a784-dc6b65610f55","ios":"levelo://app?vid=a7595b6a-cccc-4e99-a784-dc6b65610f55"},"vehicle_type_id":"4","last_reported":1737104989,"current_range_meters":11600,"station_id":"ce4bh512rcd13ifvqe2g","pricing_plan_id":"cebpf4jnsgd1na2vs0mg"},{"bike_id":"c1725ead-01c3-4f75-84f2-0e37ba1865ed","system_id":"levelo_inurba_marseille","lat":43.32481,"lon":5.36567,"is_reserved":false,"is_disabled":false,"rental_uris":{"android":"levelo://app?vid=c1725ead-01c3-4f75-84f2-0e37ba1865ed","ios":"levelo://app?vid=c1725ead-01c3-4f75-84f2-0e37ba1865ed"},"vehicle_type_id":"4","last_reported":1737104989,"current_range_meters":32400,"station_id":"ce4bhs12rcd13ifvqhvg","pricing_plan_id":"cebpf4jnsgd1na2vs0mg"},{"bike_id":"e5f71037-c3e2-4a5c-b185-51bcddd625d8","system_id":"levelo_inurba_marseille","lat":43.2306,"lon":5.35496,"is_reserved":false,"is_disabled":false,"rental_uris":{"android":"levelo://app?vid=e5f71037-c3e2-4a5c-b185-51bcddd625d8","ios":"levelo://app?vid=e5f71037-c3e2-4a5c-b185-51bcddd625d8"},"vehicle_type_id":"4","last_reported":1737104989,"current_range_meters":5600,"station_id":"cpo3342slgdg3j2ifvpg","pricing_plan_id":"cebpf4jnsgd1na2vs0mg"},{"bike_id":"72f8ee02-1d29-43ad-a697-adf204966d5c","system_id":"levelo_inurba_marseille","lat":43.30165,"lon":5.38092,"is_reserved":false,"is_disabled":false,"rental_uris":{"android":"levelo://app?vid=72f8ee02-1d29-43ad-a697-adf204966d5c","ios":"levelo://app?vid=72f8ee02-1d29-43ad-a697-adf204966d5c"},"vehicle_type_id":"4","last_reported":1737104989,"current_range_meters":16800,"station_id":"ce4bgjp2rcd13ifvqbh0","pricing_plan_id":"cebpf4jnsgd1na2vs0mg"},{"bike_id":"8b954a74-c458-4cec-adae-9bb8c1a95635","system_id":"levelo_inurba_marseille","lat":43.240721,"lon":5.37761,"is_reserved":false,"is_disabled":false,"rental_uris":{"android":"levelo://app?vid=8b954a74-c458-4cec-adae-9bb8c1a95635","ios":"levelo://app?vid=8b954a74-c458-4cec-adae-9bb8c1a95635"},