{"last_updated":1723327680,"ttl":30,"version":"2.2","data":{"bikes":[{"bike_id":"f83b16bd-d544-4b12-aafb-c8ce5dad7c7a","system_id":"levelo_inurba_marseille","lat":43.313391,"lon":5.36706,"is_reserved":false,"is_disabled":false,"rental_uris":{"android":"levelo://app?vid=f83b16bd-d544-4b12-aafb-c8ce5dad7c7a","ios":"levelo://app?vid=f83b16bd-d544-4b12-aafb-c8ce5dad7c7a"},"vehicle_type_id":"4","last_reported":1723327680,"current_range_meters":19600,"station_id":"ce4bgr92rcd13ifvqc6g","pricing_plan_id":"cebpf4jnsgd1na2vs0mg"},{"bike_id":"89b684e2-7ffc-45b8-bbe6-d71e0534c40d","system_id":"levelo_inurba_marseille","lat":43.312239,"lon":5.368562,"is_reserved":false,"is_disabled":false,"rental_uris":{"android":"levelo://app?vid=89b684e2-7ffc-45b8-bbe6-d71e0534c40d","ios":"levelo://app?vid=89b684e2-7ffc-45b8-bbe6-d71e0534c40d"},"vehicle_type_id":"4","last_reported":1723327680,"current_range_meters":29200,"station_id":"ce4bgl92rcd13ifvqbq0","pricing_plan_id":"cebpf4jnsgd1na2vs0mg"},{"bike_id":"9a66fa04-615e-4147-b11e-21ccc9cb9bde","system_id":"levelo_inurba_marseille","lat":43.312239,"lon":5.368562,"is_reserved":false,"is_disabled":false,"rental_uris":{"android":"levelo://app?vid=9a66fa04-615e-4147-b11e-21ccc9cb9bde","ios":"levelo://app?vid=9a66fa04-615e-4147-b11e-21ccc9cb9bde"},"vehicle_type_id":"4","last_reported":1723327680,"current_range_meters":19200,"station_id":"ce4bgl92rcd13ifvqbq0","pricing_plan_id":"cebpf4jnsgd1na2vs0mg"},{"bike_id":"1d8cd8ae-7f98-4be9-8378-a49954575452","system_id":"levelo_inurba_marseille","lat":43.31324,"lon":5.3694,"is_reserved":false,"is_disabled":false,"rental_uris":{"android":"levelo://app?vid=1d8cd8ae-7f98-4be9-8378-a49954575452","ios":"levelo://app?vid=1d8cd8ae-7f98-4be9-8378-a49954575452"},"vehicle_type_id":"4","last_reported":1723327680,"current_range_meters":9600,"station_id":"","pricing_plan_id":"cebpf4jnsgd1na2vs0mg"},{"bike_id":"ebbf3be5-f3b3-4ece-ae5c-5bb4f8ce8968","system_id":"levelo_inurba_marseille","lat":43.309076,"lon":5.368465,"is_reserved":false,"is_disabled":false,"rental_uris":{"android":"levelo://app?vid=ebbf3be5-f3b3-4ece-ae5c-5bb4f8ce8968","ios":"levelo://app?vid=ebbf3be5-f3b3-4ece-ae5c-5bb4f8ce8968"},"vehicle_type_id":"4","last_reported":1723327680,"current_range_meters":3600,"station_id":"ce4bgn92rcd13ifvqbvg","pricing_plan_id":"cebpf4jnsgd1na2vs0mg"},{"bike_id":"9f2c0050-6fe7-466b-88d0-f3425eba67db","system_id":"levelo_inurba_marseille","lat":43.314811,"lon":5.373103,"is_reserved":false,"is_disabled":false,"rental_uris":{"android":"levelo://app?vid=9f2c0050-6fe7-466b-88d0-f3425eba67db","ios":"levelo://app?vid=9f2c0050-6fe7-466b-88d0-f3425eba67db"},"vehicle_type_id":"4","last_reported":1723327680,"current_range_meters":18000,"station_id":"ce4bgt12rcd13ifvqcd0","pricing_plan_id":"cebpf4jnsgd1na2vs0mg"},{"bike_id":"de74bec8-6eaa-461a-8eeb-4cd4e6f9475c","system_id":"levelo_inurba_marseille","lat":43.314811,"lon":5.373103,"is_reserved":false,"is_disabled":false,"rental_uris":{"android":"levelo://app?vid=de74bec8-6eaa-461a-8eeb-4cd4e6f9475c","ios":"levelo://app?vid=de74bec8-6eaa-461a-8eeb-4cd4e6f9475c"},"vehicle_type_id":"4","last_reported":1723327680,"current_range_meters":10400,"station_id":"ce4bgt12rcd13ifvqcd0","pricing_plan_id":"cebpf4jnsgd1na2vs0mg"},{"bike_id":"0e58667c-b1c9-4a3f-8288-e3517c50eb51","system_id":"levelo_inurba_marseille","lat":43.314811,"lon":5.373103,"is_reserved":false,"is_disabled":false,"rental_uris":{"android":"levelo://app?vid=0e58667c-b1c9-4a3f-8288-e3517c50eb51","ios":"levelo://app?vid=0e58667c-b1c9-4a3f-8288-e3517c50eb51"},"vehicle_type_id":"4","last_reported":1723327680,"current_range_meters":30000,"station_id":"ce4bgt12rcd13ifvqcd0","pricing_plan_id":"cebpf4jnsgd1na2vs0mg"},{"bike_id":"8c8a8d1e-7570-40f5-ab02-5142a2e2b83a","system_id":"levelo_inurba_marseille","lat":43.31497,"lon":5.37305,"is_reserved":false,"is_disabled":false,"rental_uris":{"android":"levelo://app?vid=8c8a8d1e-7570-40f5-ab02-5142a2e2b83a","ios":"levelo://app?vid=8c8a8d1e-7570-40f5-ab02-5142a2e2b83a"},"vehicle_type_id":"4","last_reported":1723327680,"current_range_meters":31200,"station_id":"ce4bgt12rcd13ifvqcd0","pricing_plan_id":"cebpf4jnsgd1na2vs0mg"},{"bike_id":"5a8e6765-e48d-4a4d-ba3b-7a721465e630","system_id":"levelo_inurba_marseille","lat":43.3149,"lon":5.37312,"is_reserved":false,"is_disabled":false,"rental_uris":{"android":"levelo://app?vid=5a8e6765-e48d-4a4d-ba3b-7a721465e630","ios":"levelo://app?vid=5a8e6765-e48d-4a4d-ba3b-7a721465e630"},"vehicle_type_id":"4","last_reported":1723327680,"current_range_meters":19200,"station_id":"ce4bgt12rcd13ifvqcd0","pricing_plan_id":"cebpf4jnsgd1na2vs0mg"},{"bike_id":"9266ad83-6ca8-4387-80e0-b0b8fe59bc2a","system_id":"levelo_inurba_marseille","lat":43.31494,"lon":5.37313,"is_reserved":false,"is_disabled":false,"rental_uris":{"android":"levelo://app?vid=9266ad83-6ca8-4387-80e0-b0b8fe59bc2a","ios":"levelo://app?vid=9266ad83-6ca8-4387-80e0-b0b8fe59bc2a"},"vehicle_type_id":"4","last_reported":1723327680,"current_range_meters":3200,"station_id":"ce4bgt12rcd13ifvqcd0","pricing_plan_id":"cebpf4jnsgd1na2vs0mg"},{"bike_id":"4010eec7-077b-402d-88ba-dd7ff164ffe9","system_id":"levelo_inurba_marseille","lat":43.309039,"lon":5.371797,"is_reserved":false,"is_disabled":false,"rental_uris":{"android":"levelo://app?vid=4010eec7-077b-402d-88ba-dd7ff164ffe9","ios":"levelo://app?vid=4010eec7-077b-402d-88ba-dd7ff164ffe9"},"vehicle_type_id":"4","last_reported":1723327680,"current_range_meters":18400,"station_id":"ce4bguh2rcd13ifvqckg","pricing_plan_id":"cebpf4jnsgd1na2vs0mg"},{"bike_id":"d844294d-3eae-417b-b98e-e119f1d12abf","system_id":"levelo_inurba_marseille","lat":43.30887,"lon":5.372024,"is_reserved":false,"is_disabled":false,"rental_uris":{"android":"levelo://app?vid=d844294d-3eae-417b-b98e-e119f1d12abf","ios":"levelo://app?vid=d844294d-3eae-417b-b98e-e119f1d12abf"},"vehicle_type_id":"4","last_reported":1723327680,"current_range_meters":29600,"station_id":"ce4bguh2rcd13ifvqckg","pricing_plan_id":"cebpf4jnsgd1na2vs0mg"},{"bike_id":"087fae70-8afe-404d-b206-51d12336968b","system_id":"levelo_inurba_marseille","lat":43.30885,"lon":5.37201,"is_reserved":false,"is_disabled":false,"rental_uris":{"android":"levelo://app?vid=087fae70-8afe-404d-b206-51d12336968b","ios":"levelo://app?vid=087fae70-8afe-404d-b206-51d12336968b"},"vehicle_type_id":"4","last_reported":1723327680,"current_range_meters":14800,"station_id":"ce4bguh2rcd13ifvqckg","pricing_plan_id":"cebpf4jnsgd1na2vs0mg"},{"bike_id":"edfe2f12-4ee7-4926-9ff4-b13c16478e48","system_id":"levelo_inurba_marseille","lat":43.30882,"lon":5.37201,"is_reserved":false,"is_disabled":false,"rental_uris":{"android":"levelo://app?vid=edfe2f12-4ee7-4926-9ff4-b13c16478e48","ios":"levelo://app?vid=edfe2f12-4ee7-4926-9ff4-b13c16478e48"},"vehicle_type_id":"4","last_reported":1723327680,"current_range_meters":26800,"station_id":"ce4bguh2rcd13ifvqckg","pricing_plan_id":"cebpf4jnsgd1na2vs0mg"},{"bike_id":"310471e9-1c31-4511-a006-d4e5e5cb2947","system_id":"levelo_inurba_marseille","lat":43.30537,"lon":5.367345,"is_reserved":false,"is_disabled":false,"rental_uris":{"android":"levelo://app?vid=310471e9-1c31-4511-a006-d4e5e5cb2947","ios":"levelo://app?vid=310471e9-1c31-4511-a006-d4e5e5cb2947"},"vehicle_type_id":"4","last_reported":1723327680,"current_range_meters":1200,"station_id":"ce4bgrp2rcd13ifvqc9g","pricing_plan_id":"cebpf4jnsgd1na2vs0mg"},{"bike_id":"9e393a8b-5aeb-4321-b1f3-ad90617a6c33","system_id":"levelo_inurba_marseille","lat":43.305712,"lon":5.365641,"is_reserved":false,"is_disabled":false,"rental_uris":{"android":"levelo://app?vid=9e393a8b-5aeb-4321-b1f3-ad90617a6c33","ios":"levelo://app?vid=9e393a8b-5aeb-4321-b1f3-ad90617a6c33"},"vehicle_type_id":"4","last_reported":1723327680,"current_range_meters":24000,"station_id":"ce4bgs12rcd13ifvqcag","pricing_plan_id":"cebpf4jnsgd1na2vs0mg"},{"bike_id":"9828a359-ed7c-42be-ab68-aa3ac7d20cbc","system_id":"levelo_inurba_marseille","lat":43.305706,"lon":5.365654,"is_reserved":false,"is_disabled":false,"rental_uris":{"android":"levelo://app?vid=9828a359-ed7c-42be-ab68-aa3ac7d20cbc","ios":"levelo://app?vid=9828a359-ed7c-42be-ab68-aa3ac7d20cbc"},"vehicle_type_id":"4","last_reported":1723327680,"current_range_meters":12800,"station_id":"ce4bgs12rcd13ifvqcag","pricing_plan_id":"cebpf4jnsgd1na2vs0mg"},{"bike_id":"7de7e8d6-5e4b-4d11-9ffe-f4e178518393","system_id":"levelo_inurba_marseille","lat":43.311125,"lon":5.377624,"is_reserved":false,"is_disabled":false,"rental_uris":{"android":"levelo://app?vid=7de7e8d6-5e4b-4d11-9ffe-f4e178518393","ios":"levelo://app?vid=7de7e8d6-5e4b-4d11-9ffe-f4e178518393"},"vehicle_type_id":"4","last_reported":1723327680,"current_range_meters":25600,"station_id":"ce4bgt92rcd13ifvqcg0","pricing_plan_id":"cebpf4jnsgd1na2vs0mg"},{"bike_id":"fe4f07e0-a3ee-43c2-b0b7-d0e6e8e43789","system_id":"levelo_inurba_marseille","lat":43.304913,"lon":5.369519,"is_reserved":false,"is_disabled":false,"rental_uris":{"android":"levelo://app?vid=fe4f07e0-a3ee-43c2-b0b7-d0e6e8e43789","ios":"levelo://app?vid=fe4f07e0-a3ee-43c2-b0b7-d0e6e8e43789"},"vehicle_type_id":"4","last_reported":1723327680,"current_range_meters":17600,"station_id":"","pricing_plan_id":"cebpf4jnsgd1na2vs0mg"},{"bike_id":"4735c366-4f57-4e99-8076-1c9cd16f5d07","system_id":"levelo_inurba_marseille","lat":43.307945,"lon":5.376487,"is_reserved":false,"is_disabled":false,"rental_uris":{"android":"levelo://app?vid=4735c366-4f57-4e99-8076-1c9cd16f5d07","ios":"levelo://app?vid=4735c366-4f57-4e99-8076-1c9cd16f5d07"},"vehicle_type_id":"4","last_reported":1723327680,"current_range_meters":21200,"station_id":"ce4bgv92rcd13ifvqcq0","pricing_plan_id":"cebpf4jnsgd1na2vs0mg"},{"bike_id":"93352def-8152-451c-a82f-97cf5235f06d","system_id":"levelo_inurba_marseille","lat":43.307945,"lon":5.376487,"is_reserved":false,"is_disabled":false,"rental_uris":{"android":"levelo://app?vid=93352def-8152-451c-a82f-97cf5235f06d","ios":"levelo://app?vid=93352def-8152-451c-a82f-97cf5235f06d"},"vehicle_type_id":"4","last_reported":1723327680,"current_range_meters":11200,"station_id":"ce4bgv92rcd13ifvqcq0","pricing_plan_id":"cebpf4jnsgd1na2vs0mg"},{"bike_id":"d0a3ab1c-a08f-4ba4-806c-e71766fb2af5","system_id":"levelo_inurba_marseille","lat":43.307945,"lon":5.376487,"is_reserved":false,"is_disabled":false,"rental_uris":{"android":"levelo://app?vid=d0a3ab1c-a08f-4ba4-806c-e71766fb2af5","ios":"levelo://app?vid=d0a3ab1c-a08f-4ba4-806c-e71766fb2af5"},"vehicle_type_id":"4","last_reported":1723327680,"current_range_meters":6000,"station_id":"ce4bgv92rcd13ifvqcq0","pricing_plan_id":"cebpf4jnsgd1na2vs0mg"},{"bike_id":"7347f015-e6ba-4dd9-8df3-92847299b574","system_id":"levelo_inurba_marseille","lat":43.31707,"lon":5.37739,"is_reserved":false,"is_disabled":false,"rental_uris":{"android":"levelo://app?vid=7347f015-e6ba-4dd9-8df3-92847299b574","ios":"levelo://app?vid=7347f015-e6ba-4dd9-8df3-92847299b574"},"vehicle_type_id":"4","last_reported":1723327680,"current_range_meters":30400,"station_id":"ce4bgth2rcd13ifvqch0","pricing_plan_id":"cebpf4jnsgd1na2vs0mg"},{"bike_id":"f0427ece-42a1-479c-95f3-63e91234fed4","system_id":"levelo_inurba_marseille","lat":43.315289,"lon":5.380349,"is_reserved":false,"is_disabled":false,"rental_uris":{"android":"levelo://app?vid=f0427ece-42a1-479c-95f3-63e91234fed4","ios":"levelo://app?vid=f0427ece-42a1-479c-95f3-63e91234fed4"},"vehicle_type_id":"4","last_reported":1723327680,"current_range_meters":18400,"station_id":"ce4bhsp2rcd13ifvqi50","pricing_plan_id":"cebpf4jnsgd1na2vs0mg"},{"bike_id":"7d5604fe-5701-460d-8fcf-e3efb455da5c","system_id":"levelo_inurba_marseille","lat":43.317075,"lon":5.377367,"is_reserved":false,"is_disabled":false,"rental_uris":{"android":"levelo://app?vid=7d5604fe-5701-460d-8fcf-e3efb455da5c","ios":"levelo://app?vid=7d5604fe-5701-460d-8fcf-e3efb455da5c"},"vehicle_type_id":"4","last_reported":1723327680,"current_range_meters":29600,"station_id":"ce4bgth2rcd13ifvqch0","pricing_plan_id":"cebpf4jnsgd1na2vs0mg"},{"bike_id":"ef5123d3-8b0c-42ef-999d-7f2c4f3323e2","system_id":"levelo_inurba_marseille","lat":43.313571,"lon":5.384829,"is_reserved":false,"is_disabled":false,"rental_uris":{"android":"levelo://app?vid=ef5123d3-8b0c-42ef-999d-7f2c4f3323e2","ios":"levelo://app?vid=ef5123d3-8b0c-42ef-999d-7f2c4f3323e2"},"vehicle_type_id":"4","last_reported":1723327680,"current_range_meters":8400,"station_id":"ce4bgt92rcd13ifvqcf0","pricing_plan_id":"cebpf4jnsgd1na2vs0mg"},{"bike_id":"68d76b6e-b8b0-437c-80a8-b0cc039d8bf2","system_id":"levelo_inurba_marseille","lat":43.30348,"lon":5.36506,"is_reserved":false,"is_disabled":false,"rental_uris":{"android":"levelo://app?vid=68d76b6e-b8b0-437c-80a8-b0cc039d8bf2","ios":"levelo://app?vid=68d76b6e-b8b0-437c-80a8-b0cc039d8bf2"},"vehicle_type_id":"4","last_reported":1723327680,"current_range_meters":0,"station_id":"","pricing_plan_id":"cebpf4jnsgd1na2vs0mg"},{"bike_id":"c88723ee-f24c-4c53-b692-7ab029b3a3f7","system_id":"levelo_inurba_marseille","lat":43.315289,"lon":5.380349,"is_reserved":false,"is_disabled":false,"rental_uris":{"android":"levelo://app?vid=c88723ee-f24c-4c53-b692-7ab029b3a3f7","ios":"levelo://app?vid=c88723ee-f24c-4c53-b692-7ab029b3a3f7"},"vehicle_type_id":"4","last_reported":1723327680,"current_range_meters":0,"station_id":"ce4bhsp2rcd13ifvqi50","pricing_plan_id":"cebpf4jnsgd1na2vs0mg"},{"bike_id":"af654b9d-74ce-454c-a057-a3cd4035d8d3","system_id":"levelo_inurba_marseille","lat":43.315289,"lon":5.380349,"is_reserved":false,"is_disabled":false,"rental_uris":{"android":"levelo://app?vid=af654b9d-74ce-454c-a057-a3cd4035d8d3","ios":"levelo://app?vid=af654b9d-74ce-454c-a057-a3cd4035d8d3"},"vehicle_type_id":"4","last_reported":1723327680,"current_range_meters":7200,"station_id":"ce4bhsp2rcd13ifvqi50","pricing_plan_id":"cebpf4jnsgd1na2vs0mg"},{"bike_id":"837786d6-fc1a-4789-ad52-fbf3403384ae","system_id":"levelo_inurba_marseille","lat":43.301939,"lon":5.366286,"is_reserved":false,"is_disabled":false,"rental_uris":{"android":"levelo://app?vid=837786d6-fc1a-4789-ad52-fbf3403384ae","ios":"levelo://app?vid=837786d6-fc1a-4789-ad52-fbf3403384ae"},"vehicle_type_id":"4","last_reported":1723327680,"current_range_meters":11600,"station_id":"ce4bgrh2rcd13ifvqc8g","pricing_plan_id":"cebpf4jnsgd1na2vs0mg"},{"bike_id":"10c173e6-036a-46bf-b30c-06f55f5c0c83","system_id":"levelo_inurba_marseille","lat":43.308012,"lon":5.381511,"is_reserved":false,"is_disabled":false,"rental_uris":{"android":"levelo://app?vid=10c173e6-036a-46bf-b30c-06f55f5c0c83","ios":"levelo://app?vid=10c173e6-036a-46bf-b30c-06f55f5c0c83"},"vehicle_type_id":"4","last_reported":1723327680,"current_range_meters":22400,"station_id":"ce4bgt12rcd13ifvqce0","pricing_plan_id":"cebpf4jnsgd1na2vs0mg"},{"bike_id":"de0a4bf0-1742-4829-ac9b-90320ba12a79","system_id":"levelo_inurba_marseille","lat":43.304606,"lon":5.379026,"is_reserved":false,"is_disabled":false,"rental_uris":{"android":"levelo://app?vid=de0a4bf0-1742-4829-ac9b-90320ba12a79","ios":"levelo://app?vid=de0a4bf0-1742-4829-ac9b-90320ba12a79"},"vehicle_type_id":"4","last_reported":1723327680,"current_range_meters":29600,"station_id":"ce4bgup2rcd13ifvqcn0","pricing_plan_id":"cebpf4jnsgd1na2vs0mg"},{"bike_id":"b7c7470e-d02c-4f72-8b9d-2fd75489c834","system_id":"levelo_inurba_marseille","lat":43.324771,"lon":5.36557,"is_reserved":false,"is_disabled":false,"rental_uris":{"android":"levelo://app?vid=b7c7470e-d02c-4f72-8b9d-2fd75489c834","ios":"levelo://app?vid=b7c7470e-d02c-4f72-8b9d-2fd75489c834"},"vehicle_type_id":"4","last_reported":1723327680,"current_range_meters":0,"station_id":"ce4bhs12rcd13ifvqhvg","pricing_plan_id":"cebpf4jnsgd1na2vs0mg"},{"bike_id":"f509acdd-4e2b-4412-ba87-b355900b35f8","system_id":"levelo_inurba_marseille","lat":43.324771,"lon":5.36557,"is_reserved":false,"is_disabled":false,"rental_uris":{"android":"levelo://app?vid=f509acdd-4e2b-4412-ba87-b355900b35f8","ios":"levelo://app?vid=f509acdd-4e2b-4412-ba87-b355900b35f8"},"vehicle_type_id":"4","last_reported":1723327680,"current_range_meters":800,"station_id":"ce4bhs12rcd13ifvqhvg","pricing_plan_id":"cebpf4jnsgd1na2vs0mg"},{"bike_id":"e808a47c-f1ab-49c8-9868-162ce164be9e","system_id":"levelo_inurba_marseille","lat":43.324771,"lon":5.36557,"is_reserved":false,"is_disabled":false,"rental_uris":{"android":"levelo://app?vid=e808a47c-f1ab-49c8-9868-162ce164be9e","ios":"levelo://app?vid=e808a47c-f1ab-49c8-9868-162ce164be9e"},"vehicle_type_id":"4","last_reported":1723327680,"current_range_meters":16000,"station_id":"ce4bhs12rcd13ifvqhvg","pricing_plan_id":"cebpf4jnsgd1na2vs0mg"},{"bike_id":"717ad590-270b-47cb-ad0b-54077cbf7e53","system_id":"levelo_inurba_marseille","lat":43.324771,"lon":5.36557,"is_reserved":false,"is_disabled":false,"rental_uris":{"android":"levelo://app?vid=717ad590-270b-47cb-ad0b-54077cbf7e53","ios":"levelo://app?vid=717ad590-270b-47cb-ad0b-54077cbf7e53"},"vehicle_type_id":"4","last_reported":1723327680,"current_range_meters":28000,"station_id":"ce4bhs12rcd13ifvqhvg","pricing_plan_id":"cebpf4jnsgd1na2vs0mg"},{"bike_id":"0c46650d-acbb-452c-8551-83b678600d8e","system_id":"levelo_inurba_marseille","lat":43.324771,"lon":5.36557,"is_reserved":false,"is_disabled":false,"rental_uris":{"android":"levelo://app?vid=0c46650d-acbb-452c-8551-83b678600d8e","ios":"levelo://app?vid=0c46650d-acbb-452c-8551-83b678600d8e"},"vehicle_type_id":"4","last_reported":1723327680,"current_range_meters":21200,"station_id":"ce4bhs12rcd13ifvqhvg","pricing_plan_id":"cebpf4jnsgd1na2vs0mg"},{"bike_id":"e5000063-db07-4064-adf1-e6b77f0e18ee","system_id":"levelo_inurba_marseille","lat":43.324771,"lon":5.36557,"is_reserved":false,"is_disabled":false,"rental_uris":{"android":"levelo://app?vid=e5000063-db07-4064-adf1-e6b77f0e18ee","ios":"levelo://app?vid=e5000063-db07-4064-adf1-e6b77f0e18ee"},"vehicle_type_id":"4","last_reported":1723327680,"current_range_meters":20000,"station_id":"ce4bhs12rcd13ifvqhvg","pricing_plan_id":"cebpf4jnsgd1na2vs0mg"},{"bike_id":"a7107ef9-55f0-477a-b52b-a987c265ac12","system_id":"levelo_inurba_marseille","lat":43.324771,"lon":5.36557,"is_reserved":false,"is_disabled":false,"rental_uris":{"android":"levelo://app?vid=a7107ef9-55f0-477a-b52b-a987c265ac12","ios":"levelo://app?vid=a7107ef9-55f0-477a-b52b-a987c265ac12"},"vehicle_type_id":"4","last_reported":1723327680,"current_range_meters":13600,"station_id":"ce4bhs12rcd13ifvqhvg","pricing_plan_id":"cebpf4jnsgd1na2vs0mg"},{"bike_id":"ec393dbe-335d-4dbc-9a5a-59329fb0b4f1","system_id":"levelo_inurba_marseille","lat":43.324771,"lon":5.36557,"is_reserved":false,"is_disabled":false,"rental_uris":{"android":"levelo://app?vid=ec393dbe-335d-4dbc-9a5a-59329fb0b4f1","ios":"levelo://app?vid=ec393dbe-335d-4dbc-9a5a-59329fb0b4f1"},"vehicle_type_id":"4","last_reported":1723327680,"current_range_meters":10800,"station_id":"ce4bhs12rcd13ifvqhvg","pricing_plan_id":"cebpf4jnsgd1na2vs0mg"},{"bike_id":"fc590896-1ef2-4d20-aa58-87c2f9cc0567","system_id":"levelo_inurba_marseille","lat":43.324771,"lon":5.36557,"is_reserved":false,"is_disabled":false,"rental_uris":{"android":"levelo://app?vid=fc590896-1ef2-4d20-aa58-87c2f9cc0567","ios":"levelo://app?vid=fc590896-1ef2-4d20-aa58-87c2f9cc0567"},"vehicle_type_id":"4","last_reported":1723327680,"current_range_meters":2000,"station_id":"ce4bhs12rcd13ifvqhvg","pricing_plan_id":"cebpf4jnsgd1na2vs0mg"},{"bike_id":"8d62cf42-ded4-40b6-a339-928240cb973a","system_id":"levelo_inurba_marseille","lat":43.324771,"lon":5.36557,"is_reserved":false,"is_disabled":false,"rental_uris":{"android":"levelo://app?vid=8d62cf42-ded4-40b6-a339-928240cb973a","ios":"levelo://app?vid=8d62cf42-ded4-40b6-a339-928240cb973a"},"vehicle_type_id":"4","last_reported":1723327680,"current_range_meters":1200,"station_id":"ce4bhs12rcd13ifvqhvg","pricing_plan_id":"cebpf4jnsgd1na2vs0mg"},{"bike_id":"b1733948-b5b9-45d7-af58-2f52b42c90cd","system_id":"levelo_inurba_marseille","lat":43.32485,"lon":5.36564,"is_reserved":false,"is_disabled":false,"rental_uris":{"android":"levelo://app?vid=b1733948-b5b9-45d7-af58-2f52b42c90cd","ios":"levelo://app?vid=b1733948-b5b9-45d7-af58-2f52b42c90cd"},"vehicle_type_id":"4","last_reported":1723327680,"current_range_meters":14000,"station_id":"ce4bhs12rcd13ifvqhvg","pricing_plan_id":"cebpf4jnsgd1na2vs0mg"},{"bike_id":"76436274-bfb3-4ec8-ba78-d4d266a1eb0d","system_id":"levelo_inurba_marseille","lat":43.310804,"lon":5.38359,"is_reserved":false,"is_disabled":false,"rental_uris":{"android":"levelo://app?vid=76436274-bfb3-4ec8-ba78-d4d266a1eb0d","ios":"levelo://app?vid=76436274-bfb3-4ec8-ba78-d4d266a1eb0d"},"vehicle_type_id":"4","last_reported":1723327680,"current_range_meters":12000,"station_id":"ce4bgv92rcd13ifvqcr0","pricing_plan_id":"cebpf4jnsgd1na2vs0mg"},{"bike_id":"620cf760-93c2-46b1-88bb-9a12e066140d","system_id":"levelo_inurba_marseille","lat":43.310804,"lon":5.38359,"is_reserved":false,"is_disabled":false,"rental_uris":{"android":"levelo://app?vid=620cf760-93c2-46b1-88bb-9a12e066140d","ios":"levelo://app?vid=620cf760-93c2-46b1-88bb-9a12e066140d"},"vehicle_type_id":"4","last_reported":1723327680,"current_range_meters":11200,"station_id":"ce4bgv92rcd13ifvqcr0","pricing_plan_id":"cebpf4jnsgd1na2vs0mg"},{"bike_id":"8347cc31-c3cf-4cb6-9f60-eadbb35009f7","system_id":"levelo_inurba_marseille","lat":43.310804,"lon":5.38359,"is_reserved":false,"is_disabled":false,"rental_uris":{"android":"levelo://app?vid=8347cc31-c3cf-4cb6-9f60-eadbb35009f7","ios":"levelo://app?vid=8347cc31-c3cf-4cb6-9f60-eadbb35009f7"},"vehicle_type_id":"4","last_reported":1723327680,"current_range_meters":11600,"station_id":"ce4bgv92rcd13ifvqcr0","pricing_plan_id":"cebpf4jnsgd1na2vs0mg"},{"bike_id":"44d5ee01-17cf-4298-b152-f9324636a5f3","system_id":"levelo_inurba_marseille","lat":43.310804,"lon":5.38359,"is_reserved":false,"is_disabled":false,"rental_uris":{"android":"levelo://app?vid=44d5ee01-17cf-4298-b152-f9324636a5f3","ios":"levelo://app?vid=44d5ee01-17cf-4298-b152-f9324636a5f3"},"vehicle_type_id":"4","last_reported":1723327680,"current_range_meters":26400,"station_id":"ce4bgv92rcd13ifvqcr0","pricing_plan_id":"cebpf4jnsgd1na2vs0mg"},{"bike_id":"2b418b33-522e-436c-839c-8c724f789d8e","system_id":"levelo_inurba_marseille","lat":43.310804,"lon":5.38359,"is_reserved":false,"is_disabled":false,"rental_uris":{"android":"levelo://app?vid=2b418b33-522e-436c-839c-8c724f789d8e","ios":"levelo://app?vid=2b418b33-522e-436c-839c-8c724f789d8e"},"vehicle_type_id":"4","last_reported":1723327680,"current_range_meters":24000,"station_id":"ce4bgv92rcd13ifvqcr0","pricing_plan_id":"cebpf4jnsgd1na2vs0mg"},{"bike_id":"f9e5303c-7ddd-4fcb-9fca-b3ae6c975122","system_id":"levelo_inurba_marseille","lat":43.310804,"lon":5.38359,"is_reserved":false,"is_disabled":false,"rental_uris":{"android":"levelo://app?vid=f9e5303c-7ddd-4fcb-9fca-b3ae6c975122","ios":"levelo://app?vid=f9e5303c-7ddd-4fcb-9fca-b3ae6c975122"},"vehicle_type_id":"4","last_reported":1723327680,"current_range_meters":16000,"station_id":"ce4bgv92rcd13ifvqcr0","pricing_plan_id":"cebpf4jnsgd1na2vs0mg"},{"bike_id":"e0facb38-3368-476b-b795-e1823a5f98a1","system_id":"levelo_inurba_marseille","lat":43.310804,"lon":5.38359,"is_reserved":false,"is_disabled":false,"rental_uris":{"android":"levelo://app?vid=e0facb38-3368-476b-b795-e1823a5f98a1","ios":"levelo://app?vid=e0facb38-3368-476b-b795-e1823a5f98a1"},"vehicle_type_id":"4","last_reported":1723327680,"current_range_meters":23200,"station_id":"ce4bgv92rcd13ifvqcr0","pricing_plan_id":"cebpf4jnsgd1na2vs0mg"},{"bike_id":"f7623e45-75b5-4e38-a0ed-461ca477d795","system_id":"levelo_inurba_marseille","lat":43.302784,"lon":5.377158,"is_reserved":false,"is_disabled":false,"rental_uris":{"android":"levelo://app?vid=f7623e45-75b5-4e38-a0ed-461ca477d795","ios":"levelo://app?vid=f7623e45-75b5-4e38-a0ed-461ca477d795"},"vehicle_type_id":"4","last_reported":1723327680,"current_range_meters":25200,"station_id":"ce4bguh2rcd13ifvqcj0","pricing_plan_id":"cebpf4jnsgd1na2vs0mg"},{"bike_id":"98297881-a12d-45e8-b0ef-c2e5bbb8de01","system_id":"levelo_inurba_marseille","lat":43.301429,"lon":5.37413,"is_reserved":false,"is_disabled":false,"rental_uris":{"android":"levelo://app?vid=98297881-a12d-45e8-b0ef-c2e5bbb8de01","ios":"levelo://app?vid=98297881-a12d-45e8-b0ef-c2e5bbb8de01"},"vehicle_type_id":"4","last_reported":1723327680,"current_range_meters":30800,"station_id":"ce4bgs92rcd13ifvqcc0","pricing_plan_id":"cebpf4jnsgd1na2vs0mg"},{"bike_id":"8ae5e7ac-001d-4d72-9f5b-d26aefe4f408","system_id":"levelo_inurba_marseille","lat":43.30137,"lon":5.37432,"is_reserved":false,"is_disabled":false,"rental_uris":{"android":"levelo://app?vid=8ae5e7ac-001d-4d72-9f5b-d26aefe4f408","ios":"levelo://app?vid=8ae5e7ac-001d-4d72-9f5b-d26aefe4f408"},"vehicle_type_id":"4","last_reported":1723327680,"current_range_meters":0,"station_id":"ce4bgs92rcd13ifvqcc0","pricing_plan_id":"cebpf4jnsgd1na2vs0mg"},{"bike_id":"6a5e8d9c-3afe-4a66-90dc-076c2f5385fa","system_id":"levelo_inurba_marseille","lat":43.304606,"lon":5.379026,"is_reserved":false,"is_disabled":false,"rental_uris":{"android":"levelo://app?vid=6a5e8d9c-3afe-4a66-90dc-076c2f5385fa","ios":"levelo://app?vid=6a5e8d9c-3afe-4a66-90dc-076c2f5385fa"},"vehicle_type_id":"4","last_reported":1723327680,"current_range_meters":16400,"station_id":"ce4bgup2rcd13ifvqcn0","pricing_plan_id":"cebpf4jnsgd1na2vs0mg"},{"bike_id":"8c79c022-8c18-41a4-8907-6b170d277d74","system_id":"levelo_inurba_marseille","lat":43.319898,"lon":5.3815,"is_reserved":false,"is_disabled":false,"rental_uris":{"android":"levelo://app?vid=8c79c022-8c18-41a4-8907-6b170d277d74","ios":"levelo://app?vid=8c79c022-8c18-41a4-8907-6b170d277d74"},"vehicle_type_id":"4","last_reported":1723327680,"current_range_meters":0,"station_id":"ce4bhr12rcd13ifvqhpg","pricing_plan_id":"cebpf4jnsgd1na2vs0mg"},{"bike_id":"b4a9172d-27bb-47be-9892-5fca7a05f397","system_id":"levelo_inurba_marseille","lat":43.319935,"lon":5.381699,"is_reserved":false,"is_disabled":false,"rental_uris":{"android":"levelo://app?vid=b4a9172d-27bb-47be-9892-5fca7a05f397","ios":"levelo://app?vid=b4a9172d-27bb-47be-9892-5fca7a05f397"},"vehicle_type_id":"4","last_reported":1723327680,"current_range_meters":21600,"station_id":"ce4bhr12rcd13ifvqhpg","pricing_plan_id":"cebpf4jnsgd1na2vs0mg"},{"bike_id":"41598aff-7486-4b78-b5b0-f67a76fc3110","system_id":"levelo_inurba_marseille","lat":43.319935,"lon":5.381699,"is_reserved":false,"is_disabled":false,"rental_uris":{"android":"levelo://app?vid=41598aff-7486-4b78-b5b0-f67a76fc3110","ios":"levelo://app?vid=41598aff-7486-4b78-b5b0-f67a76fc3110"},"vehicle_type_id":"4","last_reported":1723327680,"current_range_meters":30400,"station_id":"ce4bhr12rcd13ifvqhpg","pricing_plan_id":"cebpf4jnsgd1na2vs0mg"},{"bike_id":"ff39d0c8-ba61-4ae1-abef-c721ee1fd9c8","system_id":"levelo_inurba_marseille","lat":43.313817,"lon":5.384573,"is_reserved":false,"is_disabled":false,"rental_uris":{"android":"levelo://app?vid=ff39d0c8-ba61-4ae1-abef-c721ee1fd9c8","ios":"levelo://app?vid=ff39d0c8-ba61-4ae1-abef-c721ee1fd9c8"},"vehicle_type_id":"4","last_reported":1723327680,"current_range_meters":11600,"station_id":"ce4bgt92rcd13ifvqcf0","pricing_plan_id":"cebpf4jnsgd1na2vs0mg"},{"bike_id":"697ebc78-9884-4219-9309-172f0c36792c","system_id":"levelo_inurba_marseille","lat":43.319935,"lon":5.381699,"is_reserved":false,"is_disabled":false,"rental_uris":{"android":"levelo://app?vid=697ebc78-9884-4219-9309-172f0c36792c","ios":"levelo://app?vid=697ebc78-9884-4219-9309-172f0c36792c"},"vehicle_type_id":"4","last_reported":1723327680,"current_range_meters":5600,"station_id":"ce4bhr12rcd13ifvqhpg","pricing_plan_id":"cebpf4jnsgd1na2vs0mg"},{"bike_id":"3d114eed-18c0-4b2e-b8bb-4d4c7370bceb","system_id":"levelo_inurba_marseille","lat":43.319935,"lon":5.381699,"is_reserved":false,"is_disabled":false,"rental_uris":{"android":"levelo://app?vid=3d114eed-18c0-4b2e-b8bb-4d4c7370bceb","ios":"levelo://app?vid=3d114eed-18c0-4b2e-b8bb-4d4c7370bceb"},"vehicle_type_id":"4","last_reported":1723327680,"current_range_meters":21600,"station_id":"ce4bhr12rcd13ifvqhpg","pricing_plan_id":"cebpf4jnsgd1na2vs0mg"},{"bike_id":"1d9aaee0-2c32-4270-881d-b24c740922d0","system_id":"levelo_inurba_marseille","lat":43.313571,"lon":5.384829,"is_reserved":false,"is_disabled":false,"rental_uris":{"android":"levelo://app?vid=1d9aaee0-2c32-4270-881d-b24c740922d0","ios":"levelo://app?vid=1d9aaee0-2c32-4270-881d-b24c740922d0"},"vehicle_type_id":"4","last_reported":1723327680,"current_range_meters":23200,"station_id":"ce4bgt92rcd13ifvqcf0","pricing_plan_id":"cebpf4jnsgd1na2vs0mg"},{"bike_id":"24454880-cac3-42cc-8ffe-ff3ee204848b","system_id":"levelo_inurba_marseille","lat":43.313571,"lon":5.384829,"is_reserved":false,"is_disabled":false,"rental_uris":{"android":"levelo://app?vid=24454880-cac3-42cc-8ffe-ff3ee204848b","ios":"levelo://app?vid=24454880-cac3-42cc-8ffe-ff3ee204848b"},"vehicle_type_id":"4","last_reported":1723327680,"current_range_meters":6000,"station_id":"ce4bgt92rcd13ifvqcf0","pricing_plan_id":"cebpf4jnsgd1na2vs0mg"},{"bike_id":"6a70f459-275d-46f9-be50-7836023741f7","system_id":"levelo_inurba_marseille","lat":43.313571,"lon":5.384829,"is_reserved":false,"is_disabled":false,"rental_uris":{"android":"levelo://app?vid=6a70f459-275d-46f9-be50-7836023741f7","ios":"levelo://app?vid=6a70f459-275d-46f9-be50-7836023741f7"},"vehicle_type_id":"4","last_reported":1723327680,"current_range_meters":8400,"station_id":"ce4bgt92rcd13ifvqcf0","pricing_plan_id":"cebpf4jnsgd1na2vs0mg"},{"bike_id":"c2206d55-fe0a-450c-868a-872c0d57765f","system_id":"levelo_inurba_marseille","lat":43.313571,"lon":5.384829,"is_reserved":false,"is_disabled":false,"rental_uris":{"android":"levelo://app?vid=c2206d55-fe0a-450c-868a-872c0d57765f","ios":"levelo://app?vid=c2206d55-fe0a-450c-868a-872c0d57765f"},"vehicle_type_id":"4","last_reported":1723327680,"current_range_meters":8800,"station_id":"ce4bgt92rcd13ifvqcf0","pricing_plan_id":"cebpf4jnsgd1na2vs0mg"},{"bike_id":"44491f15-1eeb-4951-a4dd-04041b45eaf5","system_id":"levelo_inurba_marseille","lat":43.313571,"lon":5.384829,"is_reserved":false,"is_disabled":false,"rental_uris":{"android":"levelo://app?vid=44491f15-1eeb-4951-a4dd-04041b45eaf5","ios":"levelo://app?vid=44491f15-1eeb-4951-a4dd-04041b45eaf5"},"vehicle_type_id":"4","last_reported":1723327680,"current_range_meters":20400,"station_id":"ce4bgt92rcd13ifvqcf0","pricing_plan_id":"cebpf4jnsgd1na2vs0mg"},{"bike_id":"af813829-6e3e-4e84-8a52-c841c22cd3e7","system_id":"levelo_inurba_marseille","lat":43.313571,"lon":5.384829,"is_reserved":false,"is_disabled":false,"rental_uris":{"android":"levelo://app?vid=af813829-6e3e-4e84-8a52-c841c22cd3e7","ios":"levelo://app?vid=af813829-6e3e-4e84-8a52-c841c22cd3e7"},"vehicle_type_id":"4","last_reported":1723327680,"current_range_meters":27200,"station_id":"ce4bgt92rcd13ifvqcf0","pricing_plan_id":"cebpf4jnsgd1na2vs0mg"},{"bike_id":"2f6270c1-7bb2-42da-9bca-2cf2e2dc24f8","system_id":"levelo_inurba_marseille","lat":43.313571,"lon":5.384829,"is_reserved":false,"is_disabled":false,"rental_uris":{"android":"levelo://app?vid=2f6270c1-7bb2-42da-9bca-2cf2e2dc24f8","ios":"levelo://app?vid=2f6270c1-7bb2-42da-9bca-2cf2e2dc24f8"},"vehicle_type_id":"4","last_reported":1723327680,"current_range_meters":20800,"station_id":"ce4bgt92rcd13ifvqcf0","pricing_plan_id":"cebpf4jnsgd1na2vs0mg"},{"bike_id":"747ca38d-de40-4111-8446-a10f70e9855b","system_id":"levelo_inurba_marseille","lat":43.313571,"lon":5.384829,"is_reserved":false,"is_disabled":false,"rental_uris":{"android":"levelo://app?vid=747ca38d-de40-4111-8446-a10f70e9855b","ios":"levelo://app?vid=747ca38d-de40-4111-8446-a10f70e9855b"},"vehicle_type_id":"4","last_reported":1723327680,"current_range_meters":26000,"station_id":"ce4bgt92rcd13ifvqcf0","pricing_plan_id":"cebpf4jnsgd1na2vs0mg"},{"bike_id":"403018b8-48b2-461f-85b4-1fa837144b32","system_id":"levelo_inurba_marseille","lat":43.313571,"lon":5.384829,"is_reserved":false,"is_disabled":false,"rental_uris":{"android":"levelo://app?vid=403018b8-48b2-461f-85b4-1fa837144b32","ios":"levelo://app?vid=403018b8-48b2-461f-85b4-1fa837144b32"},"vehicle_type_id":"4","last_reported":1723327680,"current_range_meters":19600,"station_id":"ce4bgt92rcd13ifvqcf0","pricing_plan_id":"cebpf4jnsgd1na2vs0mg"},{"bike_id":"ec0d832b-844e-439d-b9f8-3cbe464a7612","system_id":"levelo_inurba_marseille","lat":43.313571,"lon":5.384829,"is_reserved":false,"is_disabled":false,"rental_uris":{"android":"levelo://app?vid=ec0d832b-844e-439d-b9f8-3cbe464a7612","ios":"levelo://app?vid=ec0d832b-844e-439d-b9f8-3cbe464a7612"},"vehicle_type_id":"4","last_reported":1723327680,"current_range_meters":6000,"station_id":"ce4bgt92rcd13ifvqcf0","pricing_plan_id":"cebpf4jnsgd1na2vs0mg"},{"bike_id":"5080b465-a7cd-4a52-9072-1d729a211905","system_id":"levelo_inurba_marseille","lat":43.313571,"lon":5.384829,"is_reserved":false,"is_disabled":false,"rental_uris":{"android":"levelo://app?vid=5080b465-a7cd-4a52-9072-1d729a211905","ios":"levelo://app?vid=5080b465-a7cd-4a52-9072-1d729a211905"},"vehicle_type_id":"4","last_reported":1723327680,"current_range_meters":10400,"station_id":"ce4bgt92rcd13ifvqcf0","pricing_plan_id":"cebpf4jnsgd1na2vs0mg"},{"bike_id":"61dd1e01-45a0-479d-8707-eeb45b4c44c7","system_id":"levelo_inurba_marseille","lat":43.313571,"lon":5.384829,"is_reserved":false,"is_disabled":false,"rental_uris":{"android":"levelo://app?vid=61dd1e01-45a0-479d-8707-eeb45b4c44c7","ios":"levelo://app?vid=61dd1e01-45a0-479d-8707-eeb45b4c44c7"},"vehicle_type_id":"4","last_reported":1723327680,"current_range_meters":400,"station_id":"ce4bgt92rcd13ifvqcf0","pricing_plan_id":"cebpf4jnsgd1na2vs0mg"},{"bike_id":"16653490-21fe-40ea-be65-e1daa0e0d5ed","system_id":"levelo_inurba_marseille","lat":43.313571,"lon":5.384829,"is_reserved":false,"is_disabled":false,"rental_uris":{"android":"levelo://app?vid=16653490-21fe-40ea-be65-e1daa0e0d5ed","ios":"levelo://app?vid=16653490-21fe-40ea-be65-e1daa0e0d5ed"},"vehicle_type_id":"4","last_reported":1723327680,"current_range_meters":5600,"station_id":"ce4bgt92rcd13ifvqcf0","pricing_plan_id":"cebpf4jnsgd1na2vs0mg"},{"bike_id":"2845d926-96c8-4b7a-9b88-20a09371c93f","system_id":"levelo_inurba_marseille","lat":43.313571,"lon":5.384829,"is_reserved":false,"is_disabled":false,"rental_uris":{"android":"levelo://app?vid=2845d926-96c8-4b7a-9b88-20a09371c93f","ios":"levelo://app?vid=2845d926-96c8-4b7a-9b88-20a09371c93f"},"vehicle_type_id":"4","last_reported":1723327680,"current_range_meters":19200,"station_id":"ce4bgt92rcd13ifvqcf0","pricing_plan_id":"cebpf4jnsgd1na2vs0mg"},{"bike_id":"ecff5150-8451-423d-b235-215b9c0b2ff6","system_id":"levelo_inurba_marseille","lat":43.313571,"lon":5.384829,"is_reserved":false,"is_disabled":false,"rental_uris":{"android":"levelo://app?vid=ecff5150-8451-423d-b235-215b9c0b2ff6","ios":"levelo://app?vid=ecff5150-8451-423d-b235-215b9c0b2ff6"},"vehicle_type_id":"4","last_reported":1723327680,"current_range_meters":7200,"station_id":"ce4bgt92rcd13ifvqcf0","pricing_plan_id":"cebpf4jnsgd1na2vs0mg"},{"bike_id":"65ff51ce-c011-4b2d-b49e-5842a6b1e44b","system_id":"levelo_inurba_marseille","lat":43.313571,"lon":5.384829,"is_reserved":false,"is_disabled":false,"rental_uris":{"android":"levelo://app?vid=65ff51ce-c011-4b2d-b49e-5842a6b1e44b","ios":"levelo://app?vid=65ff51ce-c011-4b2d-b49e-5842a6b1e44b"},"vehicle_type_id":"4","last_reported":1723327680,"current_range_meters":22400,"station_id":"ce4bgt92rcd13ifvqcf0","pricing_plan_id":"cebpf4jnsgd1na2vs0mg"},{"bike_id":"e0b2aa96-9397-469d-8381-b36a766aff71","system_id":"levelo_inurba_marseille","lat":43.31357,"lon":5.38502,"is_reserved":false,"is_disabled":false,"rental_uris":{"android":"levelo://app?vid=e0b2aa96-9397-469d-8381-b36a766aff71","ios":"levelo://app?vid=e0b2aa96-9397-469d-8381-b36a766aff71"},"vehicle_type_id":"4","last_reported":1723327680,"current_range_meters":0,"station_id":"ce4bgt92rcd13ifvqcf0","pricing_plan_id":"cebpf4jnsgd1na2vs0mg"},{"bike_id":"7b0ca955-8946-464e-8706-a7559a9ec7cf","system_id":"levelo_inurba_marseille","lat":43.313571,"lon":5.384829,"is_reserved":false,"is_disabled":false,"rental_uris":{"android":"levelo://app?vid=7b0ca955-8946-464e-8706-a7559a9ec7cf","ios":"levelo://app?vid=7b0ca955-8946-464e-8706-a7559a9ec7cf"},"vehicle_type_id":"4","last_reported":1723327680,"current_range_meters":11200,"station_id":"ce4bgt92rcd13ifvqcf0","pricing_plan_id":"cebpf4jnsgd1na2vs0mg"},{"bike_id":"62d22cfe-b1cb-4800-a7f1-35177b9d0164","system_id":"levelo_inurba_marseille","lat":43.313571,"lon":5.384829,"is_reserved":false,"is_disabled":false,"rental_uris":{"android":"levelo://app?vid=62d22cfe-b1cb-4800-a7f1-35177b9d0164","ios":"levelo://app?vid=62d22cfe-b1cb-4800-a7f1-35177b9d0164"},"vehicle_type_id":"4","last_reported":1723327680,"current_range_meters":26000,"station_id":"ce4bgt92rcd13ifvqcf0","pricing_plan_id":"cebpf4jnsgd1na2vs0mg"},{"bike_id":"0dc8309a-6d0a-4d5b-8c71-d4e71dac74f4","system_id":"levelo_inurba_marseille","lat":43.313571,"lon":5.384829,"is_reserved":false,"is_disabled":false,"rental_uris":{"android":"levelo://app?vid=0dc8309a-6d0a-4d5b-8c71-d4e71dac74f4","ios":"levelo://app?vid=0dc8309a-6d0a-4d5b-8c71-d4e71dac74f4"},"vehicle_type_id":"4","last_reported":1723327680,"current_range_meters":4800,"station_id":"ce4bgt92rcd13ifvqcf0","pricing_plan_id":"cebpf4jnsgd1na2vs0mg"},{"bike_id":"5a4eee09-da0c-4a63-af74-134208aa88ad","system_id":"levelo_inurba_marseille","lat":43.313573,"lon":5.385065,"is_reserved":false,"is_disabled":false,"rental_uris":{"android":"levelo://app?vid=5a4eee09-da0c-4a63-af74-134208aa88ad","ios":"levelo://app?vid=5a4eee09-da0c-4a63-af74-134208aa88ad"},"vehicle_type_id":"4","last_reported":1723327680,"current_range_meters":11200,"station_id":"ce4bgt92rcd13ifvqcf0","pricing_plan_id":"cebpf4jnsgd1na2vs0mg"},{"bike_id":"9ab58eba-1d57-473c-84ad-0c1f3320d1f1","system_id":"levelo_inurba_marseille","lat":43.299222,"lon":5.365554,"is_reserved":false,"is_disabled":false,"rental_uris":{"android":"levelo://app?vid=9ab58eba-1d57-473c-84ad-0c1f3320d1f1","ios":"levelo://app?vid=9ab58eba-1d57-473c-84ad-0c1f3320d1f1"},"vehicle_type_id":"4","last_reported":1723327680,"current_range_meters":0,"station_id":"ce4bgm92rcd13ifvqbr0","pricing_plan_id":"cebpf4jnsgd1na2vs0mg"},{"bike_id":"5ab85cd4-5dcb-48a8-8eb6-df11ce148b4e","system_id":"levelo_inurba_marseille","lat":43.29895,"lon":5.36325,"is_reserved":false,"is_disabled":false,"rental_uris":{"android":"levelo://app?vid=5ab85cd4-5dcb-48a8-8eb6-df11ce148b4e","ios":"levelo://app?vid=5ab85cd4-5dcb-48a8-8eb6-df11ce148b4e"},"vehicle_type_id":"4","last_reported":1723327680,"current_range_meters":23600,"station_id":"","pricing_plan_id":"cebpf4jnsgd1na2vs0mg"},{"bike_id":"7397ac86-a2d5-4f25-a5ff-9f89bcc07392","system_id":"levelo_inurba_marseille","lat":43.305364,"lon":5.384119,"is_reserved":false,"is_disabled":false,"rental_uris":{"android":"levelo://app?vid=7397ac86-a2d5-4f25-a5ff-9f89bcc07392","ios":"levelo://app?vid=7397ac86-a2d5-4f25-a5ff-9f89bcc07392"},"vehicle_type_id":"4","last_reported":1723327680,"current_range_meters":12000,"station_id":"ce4bgg92rcd13ifvqb30","pricing_plan_id":"cebpf4jnsgd1na2vs0mg"},{"bike_id":"153c8e6b-8566-481f-98f4-8e5b63719b2e","system_id":"levelo_inurba_marseille","lat":43.299243,"lon":5.37481,"is_reserved":false,"is_disabled":false,"rental_uris":{"android":"levelo://app?vid=153c8e6b-8566-481f-98f4-8e5b63719b2e","ios":"levelo://app?vid=153c8e6b-8566-481f-98f4-8e5b63719b2e"},"vehicle_type_id":"4","last_reported":1723327680,"current_range_meters":21200,"station_id":"ce4bgjh2rcd13ifvqbg0","pricing_plan_id":"cebpf4jnsgd1na2vs0mg"},{"bike_id":"03e2ee4b-834e-49a7-a361-913777866410","system_id":"levelo_inurba_marseille","lat":43.299243,"lon":5.37481,"is_reserved":false,"is_disabled":false,"rental_uris":{"android":"levelo://app?vid=03e2ee4b-834e-49a7-a361-913777866410","ios":"levelo://app?vid=03e2ee4b-834e-49a7-a361-913777866410"},"vehicle_type_id":"4","last_reported":1723327680,"current_range_meters":12000,"station_id":"ce4bgjh2rcd13ifvqbg0","pricing_plan_id":"cebpf4jnsgd1na2vs0mg"},{"bike_id":"c9216bf5-8d16-4f18-978d-1cfba4e3f3a5","system_id":"levelo_inurba_marseille","lat":43.299243,"lon":5.37481,"is_reserved":false,"is_disabled":false,"rental_uris":{"android":"levelo://app?vid=c9216bf5-8d16-4f18-978d-1cfba4e3f3a5","ios":"levelo://app?vid=c9216bf5-8d16-4f18-978d-1cfba4e3f3a5"},"vehicle_type_id":"4","last_reported":1723327680,"current_range_meters":12800,"station_id":"ce4bgjh2rcd13ifvqbg0","pricing_plan_id":"cebpf4jnsgd1na2vs0mg"},{"bike_id":"ee34fa09-3a54-461d-9469-a5e788242455","system_id":"levelo_inurba_marseille","lat":43.299243,"lon":5.374807,"is_reserved":false,"is_disabled":false,"rental_uris":{"android":"levelo://app?vid=ee34fa09-3a54-461d-9469-a5e788242455","ios":"levelo://app?vid=ee34fa09-3a54-461d-9469-a5e788242455"},"vehicle_type_id":"4","last_reported":1723327680,"current_range_meters":23200,"station_id":"ce4bgjh2rcd13ifvqbg0","pricing_plan_id":"cebpf4jnsgd1na2vs0mg"},{"bike_id":"216240ef-238f-48ba-bd26-5d1c9cf540df","system_id":"levelo_inurba_marseille","lat":43.31456,"lon":5.38784,"is_reserved":false,"is_disabled":false,"rental_uris":{"android":"levelo://app?vid=216240ef-238f-48ba-bd26-5d1c9cf540df","ios":"levelo://app?vid=216240ef-238f-48ba-bd26-5d1c9cf540df"},"vehicle_type_id":"4","last_reported":1723327680,"current_range_meters":0,"station_id":"","pricing_plan_id":"cebpf4jnsgd1na2vs0mg"},{"bike_id":"66237b2c-22a4-4f02-b1ce-c683675b14fe","system_id":"levelo_inurba_marseille","lat":43.297163,"lon":5.365866,"is_reserved":false,"is_disabled":false,"rental_uris":{"android":"levelo://app?vid=66237b2c-22a4-4f02-b1ce-c683675b14fe","ios":"levelo://app?vid=66237b2c-22a4-4f02-b1ce-c683675b14fe"},"vehicle_type_id":"4","last_reported":1723327680,"current_range_meters":10400,"station_id":"ce4bgn12rcd13ifvqbt0","pricing_plan_id":"cebpf4jnsgd1na2vs0mg"},{"bike_id":"1a6265e4-e061-46e3-af90-6b239e169fef","system_id":"levelo_inurba_marseille","lat":43.297163,"lon":5.365866,"is_reserved":false,"is_disabled":false,"rental_uris":{"android":"levelo://app?vid=1a6265e4-e061-46e3-af90-6b239e169fef","ios":"levelo://app?vid=1a6265e4-e061-46e3-af90-6b239e169fef"},"vehicle_type_id":"4","last_reported":1723327680,"current_range_meters":17600,"station_id":"ce4bgn12rcd13ifvqbt0","pricing_plan_id":"cebpf4jnsgd1na2vs0mg"},{"bike_id":"e780ddd8-b2c6-4415-9134-478f685f5874","system_id":"levelo_inurba_marseille","lat":43.29723,"lon":5.36233,"is_reserved":false,"is_disabled":false,"rental_uris":{"android":"levelo://app?vid=e780ddd8-b2c6-4415-9134-478f685f5874","ios":"levelo://app?vid=e780ddd8-b2c6-4415-9134-478f685f5874"},"vehicle_type_id":"4","last_reported":1723327680,"current_range_meters":29200,"station_id":"","pricing_plan_id":"cebpf4jnsgd1na2vs0mg"},{"bike_id":"1328f1ea-03c5-4c13-a668-21e74583960b","system_id":"levelo_inurba_marseille","lat":43.29703,"lon":5.37079,"is_reserved":false,"is_disabled":false,"rental_uris":{"android":"levelo://app?vid=1328f1ea-03c5-4c13-a668-21e74583960b","ios":"levelo://app?vid=1328f1ea-03c5-4c13-a668-21e74583960b"},"vehicle_type_id":"4","last_reported":1723327680,"current_range_meters":800,"station_id":"","pricing_plan_id":"cebpf4jnsgd1na2vs0mg"},{"bike_id":"8fd9569c-6223-4902-900a-474718104b53","system_id":"levelo_inurba_marseille","lat":43.29573,"lon":5.367355,"is_reserved":false,"is_disabled":false,"rental_uris":{"android":"levelo://app?vid=8fd9569c-6223-4902-900a-474718104b53","ios":"levelo://app?vid=8fd9569c-6223-4902-900a-474718104b53"},"vehicle_type_id":"4","last_reported":1723327680,"current_range_meters":24800,"station_id":"ce4bgph2rcd13ifvqc2g","pricing_plan_id":"cebpf4jnsgd1na2vs0mg"},{"bike_id":"572fc090-fea9-41fe-93e7-9d149e88eae5","system_id":"levelo_inurba_marseille","lat":43.311722,"lon":5.387247,"is_reserved":false,"is_disabled":false,"rental_uris":{"android":"levelo://app?vid=572fc090-fea9-41fe-93e7-9d149e88eae5","ios":"levelo://app?vid=572fc090-fea9-41fe-93e7-9d149e88eae5"},"vehicle_type_id":"4","last_reported":1723327680,"current_range_meters":3200,"station_id":"ce4bgv12rcd13ifvqcp0","pricing_plan_id":"cebpf4jnsgd1na2vs0mg"},{"bike_id":"0208aee2-640c-4674-a9ab-4c776f55249e","system_id":"levelo_inurba_marseille","lat":43.299028,"lon":5.381509,"is_reserved":false,"is_disabled":false,"rental_uris":{"android":"levelo://app?vid=0208aee2-640c-4674-a9ab-4c776f55249e","ios":"levelo://app?vid=0208aee2-640c-4674-a9ab-4c776f55249e"},"vehicle_type_id":"4","last_reported":1723327680,"current_range_meters":17200,"station_id":"ce4bgj12rcd13ifvqbc0","pricing_plan_id":"cebpf4jnsgd1na2vs0mg"},{"bike_id":"c568f253-f437-40d7-91e0-8a0c20115011","system_id":"levelo_inurba_marseille","lat":43.32154,"lon":5.387258,"is_reserved":false,"is_disabled":false,"rental_uris":{"android":"levelo://app?vid=c568f253-f437-40d7-91e0-8a0c20115011","ios":"levelo://app?vid=c568f253-f437-40d7-91e0-8a0c20115011"},"vehicle_type_id":"4","last_reported":1723327680,"current_range_meters":13600,"station_id":"","pricing_plan_id":"cebpf4jnsgd1na2vs0mg"},{"bike_id":"7f82c06c-d6fb-4bc5-b1ad-40d450a8cba3","system_id":"levelo_inurba_marseille","lat":43.309589,"lon":5.390258,"is_reserved":false,"is_disabled":false,"rental_uris":{"android":"levelo://app?vid=7f82c06c-d6fb-4bc5-b1ad-40d450a8cba3","ios":"levelo://app?vid=7f82c06c-d6fb-4bc5-b1ad-40d450a8cba3"},"vehicle_type_id":"4","last_reported":1723327680,"current_range_meters":31200,"station_id":"ce4bgup2rcd13ifvqco0","pricing_plan_id":"cebpf4jnsgd1na2vs0mg"},{"bike_id":"00b3220d-4d51-44a4-95d8-963dcdeb3a2e","system_id":"levelo_inurba_marseille","lat":43.296935,"lon":5.376544,"is_reserved":false,"is_disabled":false,"rental_uris":{"android":"levelo://app?vid=00b3220d-4d51-44a4-95d8-963dcdeb3a2e","ios":"levelo://app?vid=00b3220d-4d51-44a4-95d8-963dcdeb3a2e"},"vehicle_type_id":"4","last_reported":1723327680,"current_range_meters":18400,"station_id":"ce4bgkh2rcd13ifvqbl0","pricing_plan_id":"cebpf4jnsgd1na2vs0mg"},{"bike_id":"d9de6cf1-f9e1-4c8b-a443-5dcd59a46220","system_id":"levelo_inurba_marseille","lat":43.30116,"lon":5.38471,"is_reserved":false,"is_disabled":false,"rental_uris":{"android":"levelo://app?vid=d9de6cf1-f9e1-4c8b-a443-5dcd59a46220","ios":"levelo://app?vid=d9de6cf1-f9e1-4c8b-a443-5dcd59a46220"},"vehicle_type_id":"4","last_reported":1723327680,"current_range_meters":25600,"station_id":"","pricing_plan_id":"cebpf4jnsgd1na2vs0mg"},{"bike_id":"3f6034b6-53da-4f5d-91b6-9337ee426ef3","system_id":"levelo_inurba_marseille","lat":43.296921,"lon":5.376579,"is_reserved":false,"is_disabled":false,"rental_uris":{"android":"levelo://app?vid=3f6034b6-53da-4f5d-91b6-9337ee426ef3","ios":"levelo://app?vid=3f6034b6-53da-4f5d-91b6-9337ee426ef3"},"vehicle_type_id":"4","last_reported":1723327680,"current_range_meters":14800,"station_id":"ce4bgkh2rcd13ifvqbl0","pricing_plan_id":"cebpf4jnsgd1na2vs0mg"},{"bike_id":"e45cd997-6365-4259-8418-6ba3166e4266","system_id":"levelo_inurba_marseille","lat":43.299,"lon":5.38154,"is_reserved":false,"is_disabled":false,"rental_uris":{"android":"levelo://app?vid=e45cd997-6365-4259-8418-6ba3166e4266","ios":"levelo://app?vid=e45cd997-6365-4259-8418-6ba3166e4266"},"vehicle_type_id":"4","last_reported":1723327680,"current_range_meters":24000,"station_id":"","pricing_plan_id":"cebpf4jnsgd1na2vs0mg"},{"bike_id":"4ce94e67-70a1-4867-96a1-41d82b3dcfc8","system_id":"levelo_inurba_marseille","lat":43.31754,"lon":5.39007,"is_reserved":false,"is_disabled":false,"rental_uris":{"android":"levelo://app?vid=4ce94e67-70a1-4867-96a1-41d82b3dcfc8","ios":"levelo://app?vid=4ce94e67-70a1-4867-96a1-41d82b3dcfc8"},"vehicle_type_id":"4","last_reported":1723327680,"current_range_meters":18800,"station_id":"ce4bhqp2rcd13ifvqhng","pricing_plan_id":"cebpf4jnsgd1na2vs0mg"},{"bike_id":"23122c95-2c84-47e9-b652-836c29f900a0","system_id":"levelo_inurba_marseille","lat":43.31752,"lon":5.39017,"is_reserved":false,"is_disabled":false,"rental_uris":{"android":"levelo://app?vid=23122c95-2c84-47e9-b652-836c29f900a0","ios":"levelo://app?vid=23122c95-2c84-47e9-b652-836c29f900a0"},"vehicle_type_id":"4","last_reported":1723327680,"current_range_meters":15600,"station_id":"ce4bhqp2rcd13ifvqhng","pricing_plan_id":"cebpf4jnsgd1na2vs0mg"},{"bike_id":"03e98c6c-dc3f-4b5e-bff7-365645aa07d5","system_id":"levelo_inurba_marseille","lat":43.31761,"lon":5.39016,"is_reserved":false,"is_disabled":false,"rental_uris":{"android":"levelo://app?vid=03e98c6c-dc3f-4b5e-bff7-365645aa07d5","ios":"levelo://app?vid=03e98c6c-dc3f-4b5e-bff7-365645aa07d5"},"vehicle_type_id":"4","last_reported":1723327680,"current_range_meters":16000,"station_id":"ce4bhqp2rcd13ifvqhng","pricing_plan_id":"cebpf4jnsgd1na2vs0mg"},{"bike_id":"ccf43fdd-8d62-4180-b9cf-1585627d948d","system_id":"levelo_inurba_marseille","lat":43.31759,"lon":5.39018,"is_reserved":false,"is_disabled":false,"rental_uris":{"android":"levelo://app?vid=ccf43fdd-8d62-4180-b9cf-1585627d948d","ios":"levelo://app?vid=ccf43fdd-8d62-4180-b9cf-1585627d948d"},"vehicle_type_id":"4","last_reported":1723327680,"current_range_meters":800,"station_id":"ce4bhqp2rcd13ifvqhng","pricing_plan_id":"cebpf4jnsgd1na2vs0mg"},{"bike_id":"80f9f110-4ffc-4297-bf57-2bf2a710da39","system_id":"levelo_inurba_marseille","lat":43.321579,"lon":5.388316,"is_reserved":false,"is_disabled":false,"rental_uris":{"android":"levelo://app?vid=80f9f110-4ffc-4297-bf57-2bf2a710da39","ios":"levelo://app?vid=80f9f110-4ffc-4297-bf57-2bf2a710da39"},"vehicle_type_id":"4","last_reported":1723327680,"current_range_meters":14000,"station_id":"","pricing_plan_id":"cebpf4jnsgd1na2vs0mg"},{"bike_id":"5f385842-e6bc-412b-a26c-0c076946c14a","system_id":"levelo_inurba_marseille","lat":43.29556,"lon":5.37464,"is_reserved":false,"is_disabled":false,"rental_uris":{"android":"levelo://app?vid=5f385842-e6bc-412b-a26c-0c076946c14a","ios":"levelo://app?vid=5f385842-e6bc-412b-a26c-0c076946c14a"},"vehicle_type_id":"4","last_reported":1723327680,"current_range_meters":21600,"station_id":"","pricing_plan_id":"cebpf4jnsgd1na2vs0mg"},{"bike_id":"cfb6a074-8d1b-4656-9f62-a32a85651c7f","system_id":"levelo_inurba_marseille","lat":43.304274,"lon":5.388873,"is_reserved":false,"is_disabled":false,"rental_uris":{"android":"levelo://app?vid=cfb6a074-8d1b-4656-9f62-a32a85651c7f","ios":"levelo://app?vid=cfb6a074-8d1b-4656-9f62-a32a85651c7f"},"vehicle_type_id":"4","last_reported":1723327680,"current_range_meters":5200,"station_id":"ce4bgk12rcd13ifvqbi0","pricing_plan_id":"cebpf4jnsgd1na2vs0mg"},{"bike_id":"1bc14485-594b-4869-a03c-4acbaf5ec0fd","system_id":"levelo_inurba_marseille","lat":43.298764,"lon":5.388973,"is_reserved":false,"is_disabled":false,"rental_uris":{"android":"levelo://app?vid=1bc14485-594b-4869-a03c-4acbaf5ec0fd","ios":"levelo://app?vid=1bc14485-594b-4869-a03c-4acbaf5ec0fd"},"vehicle_type_id":"4","last_reported":1723327680,"current_range_meters":7600,"station_id":"ce4bh392rcd13ifvqdl0","pricing_plan_id":"cebpf4jnsgd1na2vs0mg"},{"bike_id":"31541964-98f4-443e-bbe9-f5169d4febfb","system_id":"levelo_inurba_marseille","lat":43.296263,"lon":5.377094,"is_reserved":false,"is_disabled":false,"rental_uris":{"android":"levelo://app?vid=31541964-98f4-443e-bbe9-f5169d4febfb","ios":"levelo://app?vid=31541964-98f4-443e-bbe9-f5169d4febfb"},"vehicle_type_id":"4","last_reported":1723327680,"current_range_meters":26400,"station_id":"ce4bgi92rcd13ifvqb90","pricing_plan_id":"cebpf4jnsgd1na2vs0mg"},{"bike_id":"46438a9f-7e66-4487-863c-dd62afe83c4c","system_id":"levelo_inurba_marseille","lat":43.296263,"lon":5.377094,"is_reserved":false,"is_disabled":false,"rental_uris":{"android":"levelo://app?vid=46438a9f-7e66-4487-863c-dd62afe83c4c","ios":"levelo://app?vid=46438a9f-7e66-4487-863c-dd62afe83c4c"},"vehicle_type_id":"4","last_reported":1723327680,"current_range_meters":9600,"station_id":"ce4bgi92rcd13ifvqb90","pricing_plan_id":"cebpf4jnsgd1na2vs0mg"},{"bike_id":"8951f92e-f922-479a-ac78-7db09d104f84","system_id":"levelo_inurba_marseille","lat":43.299707,"lon":5.384859,"is_reserved":false,"is_disabled":false,"rental_uris":{"android":"levelo://app?vid=8951f92e-f922-479a-ac78-7db09d104f84","ios":"levelo://app?vid=8951f92e-f922-479a-ac78-7db09d104f84"},"vehicle_type_id":"4","last_reported":1723327680,"current_range_meters":31600,"station_id":"ce4bgj92rcd13ifvqbd0","pricing_plan_id":"cebpf4jnsgd1na2vs0mg"},{"bike_id":"876fe638-c22e-4ba1-93f8-861dd142d79d","system_id":"levelo_inurba_marseille","lat":43.299707,"lon":5.384859,"is_reserved":false,"is_disabled":false,"rental_uris":{"android":"levelo://app?vid=876fe638-c22e-4ba1-93f8-861dd142d79d","ios":"levelo://app?vid=876fe638-c22e-4ba1-93f8-861dd142d79d"},"vehicle_type_id":"4","last_reported":1723327680,"current_range_meters":19600,"station_id":"ce4bgj92rcd13ifvqbd0","pricing_plan_id":"cebpf4jnsgd1na2vs0mg"},{"bike_id":"b1397767-1042-4fa4-8838-e14c9068310c","system_id":"levelo_inurba_marseille","lat":43.299707,"lon":5.384859,"is_reserved":false,"is_disabled":false,"rental_uris":{"android":"levelo://app?vid=b1397767-1042-4fa4-8838-e14c9068310c","ios":"levelo://app?vid=b1397767-1042-4fa4-8838-e14c9068310c"},"vehicle_type_id":"4","last_reported":1723327680,"current_range_meters":31600,"station_id":"ce4bgj92rcd13ifvqbd0","pricing_plan_id":"cebpf4jnsgd1na2vs0mg"},{"bike_id":"a998cebb-867c-4b39-a8a4-534b5b44af20","system_id":"levelo_inurba_marseille","lat":43.299707,"lon":5.384859,"is_reserved":false,"is_disabled":false,"rental_uris":{"android":"levelo://app?vid=a998cebb-867c-4b39-a8a4-534b5b44af20","ios":"levelo://app?vid=a998cebb-867c-4b39-a8a4-534b5b44af20"},"vehicle_type_id":"4","last_reported":1723327680,"current_range_meters":25200,"station_id":"ce4bgj92rcd13ifvqbd0","pricing_plan_id":"cebpf4jnsgd1na2vs0mg"},{"bike_id":"d9006c76-ec0b-4e9c-9e88-7959a7b7ecac","system_id":"levelo_inurba_marseille","lat":43.299707,"lon":5.384859,"is_reserved":false,"is_disabled":false,"rental_uris":{"android":"levelo://app?vid=d9006c76-ec0b-4e9c-9e88-7959a7b7ecac","ios":"levelo://app?vid=d9006c76-ec0b-4e9c-9e88-7959a7b7ecac"},"vehicle_type_id":"4","last_reported":1723327680,"current_range_meters":31200,"station_id":"ce4bgj92rcd13ifvqbd0","pricing_plan_id":"cebpf4jnsgd1na2vs0mg"},{"bike_id":"79e5db6d-a188-4688-9e3e-31522e20bd1b","system_id":"levelo_inurba_marseille","lat":43.29529,"lon":5.385581,"is_reserved":false,"is_disabled":false,"rental_uris":{"android":"levelo://app?vid=79e5db6d-a188-4688-9e3e-31522e20bd1b","ios":"levelo://app?vid=79e5db6d-a188-4688-9e3e-31522e20bd1b"},"vehicle_type_id":"4","last_reported":1723327680,"current_range_meters":23600,"station_id":"ce4bgih2rcd13ifvqba0","pricing_plan_id":"cebpf4jnsgd1na2vs0mg"},{"bike_id":"c1604f82-1130-41b9-84f9-d1c2742e05ec","system_id":"levelo_inurba_marseille","lat":43.3236,"lon":5.38881,"is_reserved":false,"is_disabled":false,"rental_uris":{"android":"levelo://app?vid=c1604f82-1130-41b9-84f9-d1c2742e05ec","ios":"levelo://app?vid=c1604f82-1130-41b9-84f9-d1c2742e05ec"},"vehicle_type_id":"4","last_reported":1723327680,"current_range_meters":12400,"station_id":"ce4bhqp2rcd13ifvqhog","pricing_plan_id":"cebpf4jnsgd1na2vs0mg"},{"bike_id":"f57dac92-b2b9-49e0-bd0a-e7f405720d9d","system_id":"levelo_inurba_marseille","lat":43.32362,"lon":5.38884,"is_reserved":false,"is_disabled":false,"rental_uris":{"android":"levelo://app?vid=f57dac92-b2b9-49e0-bd0a-e7f405720d9d","ios":"levelo://app?vid=f57dac92-b2b9-49e0-bd0a-e7f405720d9d"},"vehicle_type_id":"4","last_reported":1723327680,"current_range_meters":800,"station_id":"ce4bhqp2rcd13ifvqhog","pricing_plan_id":"cebpf4jnsgd1na2vs0mg"},{"bike_id":"df7496e0-21de-4f25-b3a0-35095825935c","system_id":"levelo_inurba_marseille","lat":43.32367,"lon":5.388836,"is_reserved":false,"is_disabled":false,"rental_uris":{"android":"levelo://app?vid=df7496e0-21de-4f25-b3a0-35095825935c","ios":"levelo://app?vid=df7496e0-21de-4f25-b3a0-35095825935c"},"vehicle_type_id":"4","last_reported":1723327680,"current_range_meters":3600,"station_id":"ce4bhqp2rcd13ifvqhog","pricing_plan_id":"cebpf4jnsgd1na2vs0mg"},{"bike_id":"1549410c-77e4-49ce-8d77-0fa592b89430","system_id":"levelo_inurba_marseille","lat":43.32367,"lon":5.388836,"is_reserved":false,"is_disabled":false,"rental_uris":{"android":"levelo://app?vid=1549410c-77e4-49ce-8d77-0fa592b89430","ios":"levelo://app?vid=1549410c-77e4-49ce-8d77-0fa592b89430"},"vehicle_type_id":"4","last_reported":1723327680,"current_range_meters":17600,"station_id":"ce4bhqp2rcd13ifvqhog","pricing_plan_id":"cebpf4jnsgd1na2vs0mg"},{"bike_id":"7f5db8f7-d21e-4f45-a211-477ce47516f7","system_id":"levelo_inurba_marseille","lat":43.32367,"lon":5.388836,"is_reserved":false,"is_disabled":false,"rental_uris":{"android":"levelo://app?vid=7f5db8f7-d21e-4f45-a211-477ce47516f7","ios":"levelo://app?vid=7f5db8f7-d21e-4f45-a211-477ce47516f7"},"vehicle_type_id":"4","last_reported":1723327680,"current_range_meters":1200,"station_id":"ce4bhqp2rcd13ifvqhog","pricing_plan_id":"cebpf4jnsgd1na2vs0mg"},{"bike_id":"23949995-c082-4641-b949-9d2000457f7a","system_id":"levelo_inurba_marseille","lat":43.32385,"lon":5.38923,"is_reserved":false,"is_disabled":false,"rental_uris":{"android":"levelo://app?vid=23949995-c082-4641-b949-9d2000457f7a","ios":"levelo://app?vid=23949995-c082-4641-b949-9d2000457f7a"},"vehicle_type_id":"4","last_reported":1723327680,"current_range_meters":0,"station_id":"ce4bhqp2rcd13ifvqhog","pricing_plan_id":"cebpf4jnsgd1na2vs0mg"},{"bike_id":"5ece8942-8bcd-45a7-adbe-2d36139faf17","system_id":"levelo_inurba_marseille","lat":43.305994,"lon":5.393687,"is_reserved":false,"is_disabled":false,"rental_uris":{"android":"levelo://app?vid=5ece8942-8bcd-45a7-adbe-2d36139faf17","ios":"levelo://app?vid=5ece8942-8bcd-45a7-adbe-2d36139faf17"},"vehicle_type_id":"4","last_reported":1723327680,"current_range_meters":10800,"station_id":"ce4bh0p2rcd13ifvqd80","pricing_plan_id":"cebpf4jnsgd1na2vs0mg"},{"bike_id":"42e1912c-892a-4c36-bc5f-d762a0720af9","system_id":"levelo_inurba_marseille","lat":43.305994,"lon":5.393687,"is_reserved":false,"is_disabled":false,"rental_uris":{"android":"levelo://app?vid=42e1912c-892a-4c36-bc5f-d762a0720af9","ios":"levelo://app?vid=42e1912c-892a-4c36-bc5f-d762a0720af9"},"vehicle_type_id":"4","last_reported":1723327680,"current_range_meters":1600,"station_id":"ce4bh0p2rcd13ifvqd80","pricing_plan_id":"cebpf4jnsgd1na2vs0mg"},{"bike_id":"05287523-ec21-4358-b4bc-154aa4ca91cd","system_id":"levelo_inurba_marseille","lat":43.30595,"lon":5.39357,"is_reserved":false,"is_disabled":false,"rental_uris":{"android":"levelo://app?vid=05287523-ec21-4358-b4bc-154aa4ca91cd","ios":"levelo://app?vid=05287523-ec21-4358-b4bc-154aa4ca91cd"},"vehicle_type_id":"4","last_reported":1723327680,"current_range_meters":22800,"station_id":"ce4bh0p2rcd13ifvqd80","pricing_plan_id":"cebpf4jnsgd1na2vs0mg"},{"bike_id":"8d37495d-9961-45f8-ba67-ee81725ae3ae","system_id":"levelo_inurba_marseille","lat":43.29228,"lon":5.36363,"is_reserved":false,"is_disabled":false,"rental_uris":{"android":"levelo://app?vid=8d37495d-9961-45f8-ba67-ee81725ae3ae","ios":"levelo://app?vid=8d37495d-9961-45f8-ba67-ee81725ae3ae"},"vehicle_type_id":"4","last_reported":1723327680,"current_range_meters":7600,"station_id":"","pricing_plan_id":"cebpf4jnsgd1na2vs0mg"},{"bike_id":"3f233f48-d6dc-4846-8944-17febf7b124c","system_id":"levelo_inurba_marseille","lat":43.303002,"lon":5.392142,"is_reserved":false,"is_disabled":false,"rental_uris":{"android":"levelo://app?vid=3f233f48-d6dc-4846-8944-17febf7b124c","ios":"levelo://app?vid=3f233f48-d6dc-4846-8944-17febf7b124c"},"vehicle_type_id":"4","last_reported":1723327680,"current_range_meters":31600,"station_id":"ce4bgkh2rcd13ifvqbk0","pricing_plan_id":"cebpf4jnsgd1na2vs0mg"},{"bike_id":"5f7a2099-a782-4f1a-ac38-733361f5ef92","system_id":"levelo_inurba_marseille","lat":43.302992,"lon":5.392136,"is_reserved":false,"is_disabled":false,"rental_uris":{"android":"levelo://app?vid=5f7a2099-a782-4f1a-ac38-733361f5ef92","ios":"levelo://app?vid=5f7a2099-a782-4f1a-ac38-733361f5ef92"},"vehicle_type_id":"4","last_reported":1723327680,"current_range_meters":29600,"station_id":"ce4bgkh2rcd13ifvqbk0","pricing_plan_id":"cebpf4jnsgd1na2vs0mg"},{"bike_id":"17a197d7-2f15-4d06-9c3a-eea98df2e470","system_id":"levelo_inurba_marseille","lat":43.2936,"lon":5.37835,"is_reserved":false,"is_disabled":false,"rental_uris":{"android":"levelo://app?vid=17a197d7-2f15-4d06-9c3a-eea98df2e470","ios":"levelo://app?vid=17a197d7-2f15-4d06-9c3a-eea98df2e470"},"vehicle_type_id":"4","last_reported":1723327680,"current_range_meters":13200,"station_id":"ce4bgjh2rcd13ifvqbf0","pricing_plan_id":"cebpf4jnsgd1na2vs0mg"},{"bike_id":"9cac6a6b-7826-4c0b-9cdb-38b0ed213735","system_id":"levelo_inurba_marseille","lat":43.292311,"lon":5.360731,"is_reserved":false,"is_disabled":false,"rental_uris":{"android":"levelo://app?vid=9cac6a6b-7826-4c0b-9cdb-38b0ed213735","ios":"levelo://app?vid=9cac6a6b-7826-4c0b-9cdb-38b0ed213735"},"vehicle_type_id":"4","last_reported":1723327680,"current_range_meters":30400,"station_id":"ce4bhbh2rcd13ifvqeqg","pricing_plan_id":"cebpf4jnsgd1na2vs0mg"},{"bike_id":"f3f82854-59a6-4e72-9a3f-02b80f768068","system_id":"levelo_inurba_marseille","lat":43.298764,"lon":5.388973,"is_reserved":false,"is_disabled":false,"rental_uris":{"android":"levelo://app?vid=f3f82854-59a6-4e72-9a3f-02b80f768068","ios":"levelo://app?vid=f3f82854-59a6-4e72-9a3f-02b80f768068"},"vehicle_type_id":"4","last_reported":1723327680,"current_range_meters":9600,"station_id":"ce4bh392rcd13ifvqdl0","pricing_plan_id":"cebpf4jnsgd1na2vs0mg"},{"bike_id":"16c4a809-31c6-43a1-bbb5-a818cb71fc1d","system_id":"levelo_inurba_marseille","lat":43.298764,"lon":5.388973,"is_reserved":false,"is_disabled":false,"rental_uris":{"android":"levelo://app?vid=16c4a809-31c6-43a1-bbb5-a818cb71fc1d","ios":"levelo://app?vid=16c4a809-31c6-43a1-bbb5-a818cb71fc1d"},"vehicle_type_id":"4","last_reported":1723327680,"current_range_meters":28800,"station_id":"ce4bh392rcd13ifvqdl0","pricing_plan_id":"cebpf4jnsgd1na2vs0mg"},{"bike_id":"14758ee7-a828-45e5-9f49-8e7f0135b7f9","system_id":"levelo_inurba_marseille","lat":43.30085,"lon":5.390856,"is_reserved":false,"is_disabled":false,"rental_uris":{"android":"levelo://app?vid=14758ee7-a828-45e5-9f49-8e7f0135b7f9","ios":"levelo://app?vid=14758ee7-a828-45e5-9f49-8e7f0135b7f9"},"vehicle_type_id":"4","last_reported":1723327680,"current_range_meters":13200,"station_id":"ce4bh192rcd13ifvqdb0","pricing_plan_id":"cebpf4jnsgd1na2vs0mg"},{"bike_id":"7de71c17-1272-4591-9e12-606f8849e3a5","system_id":"levelo_inurba_marseille","lat":43.298764,"lon":5.388973,"is_reserved":false,"is_disabled":false,"rental_uris":{"android":"levelo://app?vid=7de71c17-1272-4591-9e12-606f8849e3a5","ios":"levelo://app?vid=7de71c17-1272-4591-9e12-606f8849e3a5"},"vehicle_type_id":"4","last_reported":1723327680,"current_range_meters":19200,"station_id":"ce4bh392rcd13ifvqdl0","pricing_plan_id":"cebpf4jnsgd1na2vs0mg"},{"bike_id":"4834d323-b86c-4a93-b48f-910dd1a93c1f","system_id":"levelo_inurba_marseille","lat":43.298764,"lon":5.388973,"is_reserved":false,"is_disabled":false,"rental_uris":{"android":"levelo://app?vid=4834d323-b86c-4a93-b48f-910dd1a93c1f","ios":"levelo://app?vid=4834d323-b86c-4a93-b48f-910dd1a93c1f"},"vehicle_type_id":"4","last_reported":1723327680,"current_range_meters":17200,"station_id":"ce4bh392rcd13ifvqdl0","pricing_plan_id":"cebpf4jnsgd1na2vs0mg"},{"bike_id":"35726b4b-0839-4fda-9729-721e9942b8de","system_id":"levelo_inurba_marseille","lat":43.298764,"lon":5.388973,"is_reserved":false,"is_disabled":false,"rental_uris":{"android":"levelo://app?vid=35726b4b-0839-4fda-9729-721e9942b8de","ios":"levelo://app?vid=35726b4b-0839-4fda-9729-721e9942b8de"},"vehicle_type_id":"4","last_reported":1723327680,"current_range_meters":24000,"station_id":"ce4bh392rcd13ifvqdl0","pricing_plan_id":"cebpf4jnsgd1na2vs0mg"},{"bike_id":"c309af1b-33e7-43f1-bf6e-09ab2dbfa983","system_id":"levelo_inurba_marseille","lat":43.298764,"lon":5.388973,"is_reserved":false,"is_disabled":false,"rental_uris":{"android":"levelo://app?vid=c309af1b-33e7-43f1-bf6e-09ab2dbfa983","ios":"levelo://app?vid=c309af1b-33e7-43f1-bf6e-09ab2dbfa983"},"vehicle_type_id":"4","last_reported":1723327680,"current_range_meters":31600,"station_id":"ce4bh392rcd13ifvqdl0","pricing_plan_id":"cebpf4jnsgd1na2vs0mg"},{"bike_id":"8978b305-65e9-4bc0-87bf-d387c27ea192","system_id":"levelo_inurba_marseille","lat":43.298764,"lon":5.388973,"is_reserved":false,"is_disabled":false,"rental_uris":{"android":"levelo://app?vid=8978b305-65e9-4bc0-87bf-d387c27ea192","ios":"levelo://app?vid=8978b305-65e9-4bc0-87bf-d387c27ea192"},"vehicle_type_id":"4","last_reported":1723327680,"current_range_meters":28800,"station_id":"ce4bh392rcd13ifvqdl0","pricing_plan_id":"cebpf4jnsgd1na2vs0mg"},{"bike_id":"016aba76-ac48-48dd-a6b6-e8c819f5fad1","system_id":"levelo_inurba_marseille","lat":43.298764,"lon":5.388973,"is_reserved":false,"is_disabled":false,"rental_uris":{"android":"levelo://app?vid=016aba76-ac48-48dd-a6b6-e8c819f5fad1","ios":"levelo://app?vid=016aba76-ac48-48dd-a6b6-e8c819f5fad1"},"vehicle_type_id":"4","last_reported":1723327680,"current_range_meters":10400,"station_id":"ce4bh392rcd13ifvqdl0","pricing_plan_id":"cebpf4jnsgd1na2vs0mg"},{"bike_id":"89772762-2021-4f7b-92e8-60efef0fdb02","system_id":"levelo_inurba_marseille","lat":43.298764,"lon":5.388973,"is_reserved":false,"is_disabled":false,"rental_uris":{"android":"levelo://app?vid=89772762-2021-4f7b-92e8-60efef0fdb02","ios":"levelo://app?vid=89772762-2021-4f7b-92e8-60efef0fdb02"},"vehicle_type_id":"4","last_reported":1723327680,"current_range_meters":28400,"station_id":"ce4bh392rcd13ifvqdl0","pricing_plan_id":"cebpf4jnsgd1na2vs0mg"},{"bike_id":"8669c215-f64f-4991-918a-38e605b47e3d","system_id":"levelo_inurba_marseille","lat":43.29286,"lon":5.35552,"is_reserved":false,"is_disabled":false,"rental_uris":{"android":"levelo://app?vid=8669c215-f64f-4991-918a-38e605b47e3d","ios":"levelo://app?vid=8669c215-f64f-4991-918a-38e605b47e3d"},"vehicle_type_id":"4","last_reported":1723327680,"current_range_meters":6000,"station_id":"","pricing_plan_id":"cebpf4jnsgd1na2vs0mg"},{"bike_id":"5492a69c-e456-40ef-b30c-6d8cfc4b6f68","system_id":"levelo_inurba_marseille","lat":43.309038,"lon":5.396546,"is_reserved":false,"is_disabled":false,"rental_uris":{"android":"levelo://app?vid=5492a69c-e456-40ef-b30c-6d8cfc4b6f68","ios":"levelo://app?vid=5492a69c-e456-40ef-b30c-6d8cfc4b6f68"},"vehicle_type_id":"4","last_reported":1723327680,"current_range_meters":22000,"station_id":"ce4bh012rcd13ifvqcv0","pricing_plan_id":"cebpf4jnsgd1na2vs0mg"},{"bike_id":"9d4b68a5-c93f-4844-a235-5ff4a055b660","system_id":"levelo_inurba_marseille","lat":43.292385,"lon":5.37767,"is_reserved":false,"is_disabled":false,"rental_uris":{"android":"levelo://app?vid=9d4b68a5-c93f-4844-a235-5ff4a055b660","ios":"levelo://app?vid=9d4b68a5-c93f-4844-a235-5ff4a055b660"},"vehicle_type_id":"4","last_reported":1723327680,"current_range_meters":10400,"station_id":"","pricing_plan_id":"cebpf4jnsgd1na2vs0mg"},{"bike_id":"4ff34ef7-ea1d-4a4c-bc84-77db934606fc","system_id":"levelo_inurba_marseille","lat":43.31331,"lon":5.3969,"is_reserved":false,"is_disabled":false,"rental_uris":{"android":"levelo://app?vid=4ff34ef7-ea1d-4a4c-bc84-77db934606fc","ios":"levelo://app?vid=4ff34ef7-ea1d-4a4c-bc84-77db934606fc"},"vehicle_type_id":"4","last_reported":1723327680,"current_range_meters":0,"station_id":"ce4bgvp2rcd13ifvqcu0","pricing_plan_id":"cebpf4jnsgd1na2vs0mg"},{"bike_id":"bea8175d-2309-478c-8eca-b48f447fe400","system_id":"levelo_inurba_marseille","lat":43.313291,"lon":5.396838,"is_reserved":false,"is_disabled":false,"rental_uris":{"android":"levelo://app?vid=bea8175d-2309-478c-8eca-b48f447fe400","ios":"levelo://app?vid=bea8175d-2309-478c-8eca-b48f447fe400"},"vehicle_type_id":"4","last_reported":1723327680,"current_range_meters":8000,"station_id":"ce4bgvp2rcd13ifvqcu0","pricing_plan_id":"cebpf4jnsgd1na2vs0mg"},{"bike_id":"cb065c9b-a672-4326-8da4-0c43ffb5581a","system_id":"levelo_inurba_marseille","lat":43.313291,"lon":5.396838,"is_reserved":false,"is_disabled":false,"rental_uris":{"android":"levelo://app?vid=cb065c9b-a672-4326-8da4-0c43ffb5581a","ios":"levelo://app?vid=cb065c9b-a672-4326-8da4-0c43ffb5581a"},"vehicle_type_id":"4","last_reported":1723327680,"current_range_meters":16000,"station_id":"ce4bgvp2rcd13ifvqcu0","pricing_plan_id":"cebpf4jnsgd1na2vs0mg"},{"bike_id":"7c65c7db-69b1-4e97-b6a9-194f6e9d0a16","system_id":"levelo_inurba_marseille","lat":43.313291,"lon":5.396838,"is_reserved":false,"is_disabled":false,"rental_uris":{"android":"levelo://app?vid=7c65c7db-69b1-4e97-b6a9-194f6e9d0a16","ios":"levelo://app?vid=7c65c7db-69b1-4e97-b6a9-194f6e9d0a16"},"vehicle_type_id":"4","last_reported":1723327680,"current_range_meters":18800,"station_id":"ce4bgvp2rcd13ifvqcu0","pricing_plan_id":"cebpf4jnsgd1na2vs0mg"},{"bike_id":"c3e4deaa-5d66-4859-813e-0c79c7b7bbb1","system_id":"levelo_inurba_marseille","lat":43.313291,"lon":5.396838,"is_reserved":false,"is_disabled":false,"rental_uris":{"android":"levelo://app?vid=c3e4deaa-5d66-4859-813e-0c79c7b7bbb1","ios":"levelo://app?vid=c3e4deaa-5d66-4859-813e-0c79c7b7bbb1"},"vehicle_type_id":"4","last_reported":1723327680,"current_range_meters":4400,"station_id":"ce4bgvp2rcd13ifvqcu0","pricing_plan_id":"cebpf4jnsgd1na2vs0mg"},{"bike_id":"3729367e-76eb-42d8-96ec-8141a14f9703","system_id":"levelo_inurba_marseille","lat":43.290319,"lon":5.375732,"is_reserved":false,"is_disabled":false,"rental_uris":{"android":"levelo://app?vid=3729367e-76eb-42d8-96ec-8141a14f9703","ios":"levelo://app?vid=3729367e-76eb-42d8-96ec-8141a14f9703"},"vehicle_type_id":"4","last_reported":1723327680,"current_range_meters":800,"station_id":"ce4bh692rcd13ifvqe90","pricing_plan_id":"cebpf4jnsgd1na2vs0mg"},{"bike_id":"c154b90e-bd11-400f-b522-f8a73cbc1c2f","system_id":"levelo_inurba_marseille","lat":43.313291,"lon":5.396838,"is_reserved":false,"is_disabled":false,"rental_uris":{"android":"levelo://app?vid=c154b90e-bd11-400f-b522-f8a73cbc1c2f","ios":"levelo://app?vid=c154b90e-bd11-400f-b522-f8a73cbc1c2f"},"vehicle_type_id":"4","last_reported":1723327680,"current_range_meters":24000,"station_id":"ce4bgvp2rcd13ifvqcu0","pricing_plan_id":"cebpf4jnsgd1na2vs0mg"},{"bike_id":"d4ac3923-1187-4ae8-9e37-511671f1157e","system_id":"levelo_inurba_marseille","lat":43.31329,"lon":5.397,"is_reserved":false,"is_disabled":false,"rental_uris":{"android":"levelo://app?vid=d4ac3923-1187-4ae8-9e37-511671f1157e","ios":"levelo://app?vid=d4ac3923-1187-4ae8-9e37-511671f1157e"},"vehicle_type_id":"4","last_reported":1723327680,"current_range_meters":0,"station_id":"ce4bgvp2rcd13ifvqcu0","pricing_plan_id":"cebpf4jnsgd1na2vs0mg"},{"bike_id":"79eaf1c0-6392-4164-8baa-10e1b8ba75dd","system_id":"levelo_inurba_marseille","lat":43.309038,"lon":5.396546,"is_reserved":false,"is_disabled":false,"rental_uris":{"android":"levelo://app?vid=79eaf1c0-6392-4164-8baa-10e1b8ba75dd","ios":"levelo://app?vid=79eaf1c0-6392-4164-8baa-10e1b8ba75dd"},"vehicle_type_id":"4","last_reported":1723327680,"current_range_meters":28400,"station_id":"ce4bh012rcd13ifvqcv0","pricing_plan_id":"cebpf4jnsgd1na2vs0mg"},{"bike_id":"5bc94beb-e295-4bcb-a770-06894fc5bbb5","system_id":"levelo_inurba_marseille","lat":43.29529,"lon":5.385581,"is_reserved":false,"is_disabled":false,"rental_uris":{"android":"levelo://app?vid=5bc94beb-e295-4bcb-a770-06894fc5bbb5","ios":"levelo://app?vid=5bc94beb-e295-4bcb-a770-06894fc5bbb5"},"vehicle_type_id":"4","last_reported":1723327680,"current_range_meters":22000,"station_id":"ce4bgih2rcd13ifvqba0","pricing_plan_id":"cebpf4jnsgd1na2vs0mg"},{"bike_id":"b03b65e4-fa4f-412f-8e9b-bb81673e96f0","system_id":"levelo_inurba_marseille","lat":43.313291,"lon":5.396838,"is_reserved":false,"is_disabled":false,"rental_uris":{"android":"levelo://app?vid=b03b65e4-fa4f-412f-8e9b-bb81673e96f0","ios":"levelo://app?vid=b03b65e4-fa4f-412f-8e9b-bb81673e96f0"},"vehicle_type_id":"4","last_reported":1723327680,"current_range_meters":13600,"station_id":"ce4bgvp2rcd13ifvqcu0","pricing_plan_id":"cebpf4jnsgd1na2vs0mg"},{"bike_id":"e3a7c06e-1003-4fff-b509-4e423bd6b793","system_id":"levelo_inurba_marseille","lat":43.29529,"lon":5.385581,"is_reserved":false,"is_disabled":false,"rental_uris":{"android":"levelo://app?vid=e3a7c06e-1003-4fff-b509-4e423bd6b793","ios":"levelo://app?vid=e3a7c06e-1003-4fff-b509-4e423bd6b793"},"vehicle_type_id":"4","last_reported":1723327680,"current_range_meters":27200,"station_id":"ce4bgih2rcd13ifvqba0","pricing_plan_id":"cebpf4jnsgd1na2vs0mg"},{"bike_id":"2d58a3f7-3bf3-4924-bb07-ddf046378da2","system_id":"levelo_inurba_marseille","lat":43.29529,"lon":5.385581,"is_reserved":false,"is_disabled":false,"rental_uris":{"android":"levelo://app?vid=2d58a3f7-3bf3-4924-bb07-ddf046378da2","ios":"levelo://app?vid=2d58a3f7-3bf3-4924-bb07-ddf046378da2"},"vehicle_type_id":"4","last_reported":1723327680,"current_range_meters":23200,"station_id":"ce4bgih2rcd13ifvqba0","pricing_plan_id":"cebpf4jnsgd1na2vs0mg"},{"bike_id":"5928b10f-bf12-441d-b003-65c0a9b6baec","system_id":"levelo_inurba_marseille","lat":43.29529,"lon":5.385581,"is_reserved":false,"is_disabled":false,"rental_uris":{"android":"levelo://app?vid=5928b10f-bf12-441d-b003-65c0a9b6baec","ios":"levelo://app?vid=5928b10f-bf12-441d-b003-65c0a9b6baec"},"vehicle_type_id":"4","last_reported":1723327680,"current_range_meters":9200,"station_id":"ce4bgih2rcd13ifvqba0","pricing_plan_id":"cebpf4jnsgd1na2vs0mg"},{"bike_id":"06924bce-00f6-4e27-966a-cae17345fda4","system_id":"levelo_inurba_marseille","lat":43.29529,"lon":5.385581,"is_reserved":false,"is_disabled":false,"rental_uris":{"android":"levelo://app?vid=06924bce-00f6-4e27-966a-cae17345fda4","ios":"levelo://app?vid=06924bce-00f6-4e27-966a-cae17345fda4"},"vehicle_type_id":"4","last_reported":1723327680,"current_range_meters":6400,"station_id":"ce4bgih2rcd13ifvqba0","pricing_plan_id":"cebpf4jnsgd1na2vs0mg"},{"bike_id":"41eb90b1-ba31-4c31-abce-5124737f984c","system_id":"levelo_inurba_marseille","lat":43.29529,"lon":5.385581,"is_reserved":false,"is_disabled":false,"rental_uris":{"android":"levelo://app?vid=41eb90b1-ba31-4c31-abce-5124737f984c","ios":"levelo://app?vid=41eb90b1-ba31-4c31-abce-5124737f984c"},"vehicle_type_id":"4","last_reported":1723327680,"current_range_meters":31200,"station_id":"ce4bgih2rcd13ifvqba0","pricing_plan_id":"cebpf4jnsgd1na2vs0mg"},{"bike_id":"81cb5f60-2455-4299-91c3-8e31f59c3c60","system_id":"levelo_inurba_marseille","lat":43.29531,"lon":5.38547,"is_reserved":false,"is_disabled":false,"rental_uris":{"android":"levelo://app?vid=81cb5f60-2455-4299-91c3-8e31f59c3c60","ios":"levelo://app?vid=81cb5f60-2455-4299-91c3-8e31f59c3c60"},"vehicle_type_id":"4","last_reported":1723327680,"current_range_meters":12000,"station_id":"ce4bgih2rcd13ifvqba0","pricing_plan_id":"cebpf4jnsgd1na2vs0mg"},{"bike_id":"f9ad4c09-c305-436a-9878-0551b4d9706f","system_id":"levelo_inurba_marseille","lat":43.29529,"lon":5.385581,"is_reserved":false,"is_disabled":false,"rental_uris":{"android":"levelo://app?vid=f9ad4c09-c305-436a-9878-0551b4d9706f","ios":"levelo://app?vid=f9ad4c09-c305-436a-9878-0551b4d9706f"},"vehicle_type_id":"4","last_reported":1723327680,"current_range_meters":15600,"station_id":"ce4bgih2rcd13ifvqba0","pricing_plan_id":"cebpf4jnsgd1na2vs0mg"},{"bike_id":"1b9f09ef-9bf7-476a-9ce4-bd4b735df013","system_id":"levelo_inurba_marseille","lat":43.29529,"lon":5.385581,"is_reserved":false,"is_disabled":false,"rental_uris":{"android":"levelo://app?vid=1b9f09ef-9bf7-476a-9ce4-bd4b735df013","ios":"levelo://app?vid=1b9f09ef-9bf7-476a-9ce4-bd4b735df013"},"vehicle_type_id":"4","last_reported":1723327680,"current_range_meters":18800,"station_id":"ce4bgih2rcd13ifvqba0","pricing_plan_id":"cebpf4jnsgd1na2vs0mg"},{"bike_id":"7629c304-676e-4c90-a4ef-438173a895c8","system_id":"levelo_inurba_marseille","lat":43.29529,"lon":5.38545,"is_reserved":false,"is_disabled":false,"rental_uris":{"android":"levelo://app?vid=7629c304-676e-4c90-a4ef-438173a895c8","ios":"levelo://app?vid=7629c304-676e-4c90-a4ef-438173a895c8"},"vehicle_type_id":"4","last_reported":1723327680,"current_range_meters":30400,"station_id":"ce4bgih2rcd13ifvqba0","pricing_plan_id":"cebpf4jnsgd1na2vs0mg"},{"bike_id":"99de3053-5933-422d-bc8b-1d534645eebc","system_id":"levelo_inurba_marseille","lat":43.29529,"lon":5.385581,"is_reserved":false,"is_disabled":false,"rental_uris":{"android":"levelo://app?vid=99de3053-5933-422d-bc8b-1d534645eebc","ios":"levelo://app?vid=99de3053-5933-422d-bc8b-1d534645eebc"},"vehicle_type_id":"4","last_reported":1723327680,"current_range_meters":29200,"station_id":"ce4bgih2rcd13ifvqba0","pricing_plan_id":"cebpf4jnsgd1na2vs0mg"},{"bike_id":"45457029-4650-4e7c-a877-ccb1ab69b439","system_id":"levelo_inurba_marseille","lat":43.29531,"lon":5.38552,"is_reserved":false,"is_disabled":false,"rental_uris":{"android":"levelo://app?vid=45457029-4650-4e7c-a877-ccb1ab69b439","ios":"levelo://app?vid=45457029-4650-4e7c-a877-ccb1ab69b439"},"vehicle_type_id":"4","last_reported":1723327680,"current_range_meters":31200,"station_id":"ce4bgih2rcd13ifvqba0","pricing_plan_id":"cebpf4jnsgd1na2vs0mg"},{"bike_id":"9b41eea0-0e83-447c-b484-d875c50f10d4","system_id":"levelo_inurba_marseille","lat":43.295293,"lon":5.3855,"is_reserved":false,"is_disabled":false,"rental_uris":{"android":"levelo://app?vid=9b41eea0-0e83-447c-b484-d875c50f10d4","ios":"levelo://app?vid=9b41eea0-0e83-447c-b484-d875c50f10d4"},"vehicle_type_id":"4","last_reported":1723327680,"current_range_meters":31200,"station_id":"ce4bgih2rcd13ifvqba0","pricing_plan_id":"cebpf4jnsgd1na2vs0mg"},{"bike_id":"f7bad830-3104-4a4a-989a-c8574c08de5c","system_id":"levelo_inurba_marseille","lat":43.29529,"lon":5.385581,"is_reserved":false,"is_disabled":false,"rental_uris":{"android":"levelo://app?vid=f7bad830-3104-4a4a-989a-c8574c08de5c","ios":"levelo://app?vid=f7bad830-3104-4a4a-989a-c8574c08de5c"},"vehicle_type_id":"4","last_reported":1723327680,"current_range_meters":22000,"station_id":"ce4bgih2rcd13ifvqba0","pricing_plan_id":"cebpf4jnsgd1na2vs0mg"},{"bike_id":"f130d722-8abd-4519-b664-dfdff5f9ba4f","system_id":"levelo_inurba_marseille","lat":43.29529,"lon":5.385581,"is_reserved":false,"is_disabled":false,"rental_uris":{"android":"levelo://app?vid=f130d722-8abd-4519-b664-dfdff5f9ba4f","ios":"levelo://app?vid=f130d722-8abd-4519-b664-dfdff5f9ba4f"},"vehicle_type_id":"4","last_reported":1723327680,"current_range_meters":21600,"station_id":"ce4bgih2rcd13ifvqba0","pricing_plan_id":"cebpf4jnsgd1na2vs0mg"},{"bike_id":"0b9e0dc8-a6dd-408f-9c8a-19d137f6e73c","system_id":"levelo_inurba_marseille","lat":43.29529,"lon":5.385581,"is_reserved":false,"is_disabled":false,"rental_uris":{"android":"levelo://app?vid=0b9e0dc8-a6dd-408f-9c8a-19d137f6e73c","ios":"levelo://app?vid=0b9e0dc8-a6dd-408f-9c8a-19d137f6e73c"},"vehicle_type_id":"4","last_reported":1723327680,"current_range_meters":3600,"station_id":"ce4bgih2rcd13ifvqba0","pricing_plan_id":"cebpf4jnsgd1na2vs0mg"},{"bike_id":"90db2387-2b93-4909-b5c0-36f1e7662b31","system_id":"levelo_inurba_marseille","lat":43.29529,"lon":5.385581,"is_reserved":false,"is_disabled":false,"rental_uris":{"android":"levelo://app?vid=90db2387-2b93-4909-b5c0-36f1e7662b31","ios":"levelo://app?vid=90db2387-2b93-4909-b5c0-36f1e7662b31"},"vehicle_type_id":"4","last_reported":1723327680,"current_range_meters":6800,"station_id":"ce4bgih2rcd13ifvqba0","pricing_plan_id":"cebpf4jnsgd1na2vs0mg"},{"bike_id":"1e7f6ce7-b49e-40c0-859d-ef4a39b4d40f","system_id":"levelo_inurba_marseille","lat":43.29529,"lon":5.385581,"is_reserved":false,"is_disabled":false,"rental_uris":{"android":"levelo://app?vid=1e7f6ce7-b49e-40c0-859d-ef4a39b4d40f","ios":"levelo://app?vid=1e7f6ce7-b49e-40c0-859d-ef4a39b4d40f"},"vehicle_type_id":"4","last_reported":1723327680,"current_range_meters":19600,"station_id":"ce4bgih2rcd13ifvqba0","pricing_plan_id":"cebpf4jnsgd1na2vs0mg"},{"bike_id":"765133b3-5c49-4ffd-8c2e-c86b183a8d3b","system_id":"levelo_inurba_marseille","lat":43.290779,"lon":5.371482,"is_reserved":false,"is_disabled":false,"rental_uris":{"android":"levelo://app?vid=765133b3-5c49-4ffd-8c2e-c86b183a8d3b","ios":"levelo://app?vid=765133b3-5c49-4ffd-8c2e-c86b183a8d3b"},"vehicle_type_id":"4","last_reported":1723327680,"current_range_meters":9600,"station_id":"ce4bh5p2rcd13ifvqe4g","pricing_plan_id":"cebpf4jnsgd1na2vs0mg"},{"bike_id":"32a9fdc8-afea-4465-ba78-3997299fea2f","system_id":"levelo_inurba_marseille","lat":43.29529,"lon":5.385581,"is_reserved":false,"is_disabled":false,"rental_uris":{"android":"levelo://app?vid=32a9fdc8-afea-4465-ba78-3997299fea2f","ios":"levelo://app?vid=32a9fdc8-afea-4465-ba78-3997299fea2f"},"vehicle_type_id":"4","last_reported":1723327680,"current_range_meters":5600,"station_id":"ce4bgih2rcd13ifvqba0","pricing_plan_id":"cebpf4jnsgd1na2vs0mg"},{"bike_id":"2cdd5755-2c04-47b3-8fe8-5e07f720a497","system_id":"levelo_inurba_marseille","lat":43.29526,"lon":5.38556,"is_reserved":false,"is_disabled":false,"rental_uris":{"android":"levelo://app?vid=2cdd5755-2c04-47b3-8fe8-5e07f720a497","ios":"levelo://app?vid=2cdd5755-2c04-47b3-8fe8-5e07f720a497"},"vehicle_type_id":"4","last_reported":1723327680,"current_range_meters":27600,"station_id":"ce4bgih2rcd13ifvqba0","pricing_plan_id":"cebpf4jnsgd1na2vs0mg"},{"bike_id":"e0776920-273e-4ab6-8fee-dddf4bbac847","system_id":"levelo_inurba_marseille","lat":43.29529,"lon":5.385581,"is_reserved":false,"is_disabled":false,"rental_uris":{"android":"levelo://app?vid=e0776920-273e-4ab6-8fee-dddf4bbac847","ios":"levelo://app?vid=e0776920-273e-4ab6-8fee-dddf4bbac847"},"vehicle_type_id":"4","last_reported":1723327680,"current_range_meters":5600,"station_id":"ce4bgih2rcd13ifvqba0","pricing_plan_id":"cebpf4jnsgd1na2vs0mg"},{"bike_id":"673a0a0b-6a1e-409f-a6c6-8b8cec23ca93","system_id":"levelo_inurba_marseille","lat":43.29521,"lon":5.38555,"is_reserved":false,"is_disabled":false,"rental_uris":{"android":"levelo://app?vid=673a0a0b-6a1e-409f-a6c6-8b8cec23ca93","ios":"levelo://app?vid=673a0a0b-6a1e-409f-a6c6-8b8cec23ca93"},"vehicle_type_id":"4","last_reported":1723327680,"current_range_meters":21600,"station_id":"ce4bgih2rcd13ifvqba0","pricing_plan_id":"cebpf4jnsgd1na2vs0mg"},{"bike_id":"14db183a-a990-46bd-a943-1aee19ff4d24","system_id":"levelo_inurba_marseille","lat":43.290779,"lon":5.371482,"is_reserved":false,"is_disabled":false,"rental_uris":{"android":"levelo://app?vid=14db183a-a990-46bd-a943-1aee19ff4d24","ios":"levelo://app?vid=14db183a-a990-46bd-a943-1aee19ff4d24"},"vehicle_type_id":"4","last_reported":1723327680,"current_range_meters":9200,"station_id":"ce4bh5p2rcd13ifvqe4g","pricing_plan_id":"cebpf4jnsgd1na2vs0mg"},{"bike_id":"48844f95-429a-4414-9bc4-ebdaf58c869a","system_id":"levelo_inurba_marseille","lat":43.290753,"lon":5.371662,"is_reserved":false,"is_disabled":false,"rental_uris":{"android":"levelo://app?vid=48844f95-429a-4414-9bc4-ebdaf58c869a","ios":"levelo://app?vid=48844f95-429a-4414-9bc4-ebdaf58c869a"},"vehicle_type_id":"4","last_reported":1723327680,"current_range_meters":0,"station_id":"ce4bh5p2rcd13ifvqe4g","pricing_plan_id":"cebpf4jnsgd1na2vs0mg"},{"bike_id":"6027ea4f-daaa-454c-afb1-12397cfd4ba8","system_id":"levelo_inurba_marseille","lat":43.290779,"lon":5.371482,"is_reserved":false,"is_disabled":false,"rental_uris":{"android":"levelo://app?vid=6027ea4f-daaa-454c-afb1-12397cfd4ba8","ios":"levelo://app?vid=6027ea4f-daaa-454c-afb1-12397cfd4ba8"},"vehicle_type_id":"4","last_reported":1723327680,"current_range_meters":28800,"station_id":"ce4bh5p2rcd13ifvqe4g","pricing_plan_id":"cebpf4jnsgd1na2vs0mg"},{"bike_id":"df3bdf3e-cc2d-4eec-8ff4-a19bae4dd05e","system_id":"levelo_inurba_marseille","lat":43.290779,"lon":5.371482,"is_reserved":false,"is_disabled":false,"rental_uris":{"android":"levelo://app?vid=df3bdf3e-cc2d-4eec-8ff4-a19bae4dd05e","ios":"levelo://app?vid=df3bdf3e-cc2d-4eec-8ff4-a19bae4dd05e"},"vehicle_type_id":"4","last_reported":1723327680,"current_range_meters":30400,"station_id":"ce4bh5p2rcd13ifvqe4g","pricing_plan_id":"cebpf4jnsgd1na2vs0mg"},{"bike_id":"d6796064-85b9-4b59-baa3-dbb174745834","system_id":"levelo_inurba_marseille","lat":43.294153,"lon":5.386305,"is_reserved":false,"is_disabled":false,"rental_uris":{"android":"levelo://app?vid=d6796064-85b9-4b59-baa3-dbb174745834","ios":"levelo://app?vid=d6796064-85b9-4b59-baa3-dbb174745834"},"vehicle_type_id":"4","last_reported":1723327680,"current_range_meters":31200,"station_id":"ce4bh2h2rcd13ifvqdh0","pricing_plan_id":"cebpf4jnsgd1na2vs0mg"},{"bike_id":"b24938de-4bb8-40f9-b8ba-7eba257aa9e3","system_id":"levelo_inurba_marseille","lat":43.29422,"lon":5.3862,"is_reserved":false,"is_disabled":false,"rental_uris":{"android":"levelo://app?vid=b24938de-4bb8-40f9-b8ba-7eba257aa9e3","ios":"levelo://app?vid=b24938de-4bb8-40f9-b8ba-7eba257aa9e3"},"vehicle_type_id":"4","last_reported":1723327680,"current_range_meters":0,"station_id":"ce4bh2h2rcd13ifvqdh0","pricing_plan_id":"cebpf4jnsgd1na2vs0mg"},{"bike_id":"157c7710-eb9f-4bfb-b0c5-d60e2ea0d025","system_id":"levelo_inurba_marseille","lat":43.29419,"lon":5.38624,"is_reserved":false,"is_disabled":false,"rental_uris":{"android":"levelo://app?vid=157c7710-eb9f-4bfb-b0c5-d60e2ea0d025","ios":"levelo://app?vid=157c7710-eb9f-4bfb-b0c5-d60e2ea0d025"},"vehicle_type_id":"4","last_reported":1723327680,"current_range_meters":30000,"station_id":"ce4bh2h2rcd13ifvqdh0","pricing_plan_id":"cebpf4jnsgd1na2vs0mg"},{"bike_id":"b80405df-35f6-430a-a632-a7c36df34004","system_id":"levelo_inurba_marseille","lat":43.29418,"lon":5.38625,"is_reserved":false,"is_disabled":false,"rental_uris":{"android":"levelo://app?vid=b80405df-35f6-430a-a632-a7c36df34004","ios":"levelo://app?vid=b80405df-35f6-430a-a632-a7c36df34004"},"vehicle_type_id":"4","last_reported":1723327680,"current_range_meters":26800,"station_id":"ce4bh2h2rcd13ifvqdh0","pricing_plan_id":"cebpf4jnsgd1na2vs0mg"},{"bike_id":"3a478198-fd45-4405-a686-092aa68cf9d1","system_id":"levelo_inurba_marseille","lat":43.29417,"lon":5.38625,"is_reserved":false,"is_disabled":false,"rental_uris":{"android":"levelo://app?vid=3a478198-fd45-4405-a686-092aa68cf9d1","ios":"levelo://app?vid=3a478198-fd45-4405-a686-092aa68cf9d1"},"vehicle_type_id":"4","last_reported":1723327680,"current_range_meters":4800,"station_id":"ce4bh2h2rcd13ifvqdh0","pricing_plan_id":"cebpf4jnsgd1na2vs0mg"},{"bike_id":"fcdece8d-ef44-4ec2-8876-c4279758b58a","system_id":"levelo_inurba_marseille","lat":43.289184,"lon":5.366408,"is_reserved":false,"is_disabled":false,"rental_uris":{"android":"levelo://app?vid=fcdece8d-ef44-4ec2-8876-c4279758b58a","ios":"levelo://app?vid=fcdece8d-ef44-4ec2-8876-c4279758b58a"},"vehicle_type_id":"4","last_reported":1723327680,"current_range_meters":0,"station_id":"ce4bhap2rcd13ifvqek0","pricing_plan_id":"cebpf4jnsgd1na2vs0mg"},{"bike_id":"5fc82e47-f41f-42ec-b91b-5116bf99d017","system_id":"levelo_inurba_marseille","lat":43.29416,"lon":5.38635,"is_reserved":false,"is_disabled":false,"rental_uris":{"android":"levelo://app?vid=5fc82e47-f41f-42ec-b91b-5116bf99d017","ios":"levelo://app?vid=5fc82e47-f41f-42ec-b91b-5116bf99d017"},"vehicle_type_id":"4","last_reported":1723327680,"current_range_meters":0,"station_id":"ce4bh2h2rcd13ifvqdh0","pricing_plan_id":"cebpf4jnsgd1na2vs0mg"},{"bike_id":"315fdbf1-e157-4807-9e32-a4087e458146","system_id":"levelo_inurba_marseille","lat":43.289184,"lon":5.366408,"is_reserved":false,"is_disabled":false,"rental_uris":{"android":"levelo://app?vid=315fdbf1-e157-4807-9e32-a4087e458146","ios":"levelo://app?vid=315fdbf1-e157-4807-9e32-a4087e458146"},"vehicle_type_id":"4","last_reported":1723327680,"current_range_meters":800,"station_id":"ce4bhap2rcd13ifvqek0","pricing_plan_id":"cebpf4jnsgd1na2vs0mg"},{"bike_id":"4da2bedb-5236-4087-9a61-ac9272e1a555","system_id":"levelo_inurba_marseille","lat":43.289184,"lon":5.366408,"is_reserved":false,"is_disabled":false,"rental_uris":{"android":"levelo://app?vid=4da2bedb-5236-4087-9a61-ac9272e1a555","ios":"levelo://app?vid=4da2bedb-5236-4087-9a61-ac9272e1a555"},"vehicle_type_id":"4","last_reported":1723327680,"current_range_meters":24400,"station_id":"ce4bhap2rcd13ifvqek0","pricing_plan_id":"cebpf4jnsgd1na2vs0mg"},{"bike_id":"cece2f88-2820-410e-bf33-1c5176c12f71","system_id":"levelo_inurba_marseille","lat":43.29411,"lon":5.38635,"is_reserved":false,"is_disabled":false,"rental_uris":{"android":"levelo://app?vid=cece2f88-2820-410e-bf33-1c5176c12f71","ios":"levelo://app?vid=cece2f88-2820-410e-bf33-1c5176c12f71"},"vehicle_type_id":"4","last_reported":1723327680,"current_range_meters":12400,"station_id":"ce4bh2h2rcd13ifvqdh0","pricing_plan_id":"cebpf4jnsgd1na2vs0mg"},{"bike_id":"5d2999fd-49b7-42c0-b8a6-220c5cc0a599","system_id":"levelo_inurba_marseille","lat":43.289468,"lon":5.363719,"is_reserved":false,"is_disabled":false,"rental_uris":{"android":"levelo://app?vid=5d2999fd-49b7-42c0-b8a6-220c5cc0a599","ios":"levelo://app?vid=5d2999fd-49b7-42c0-b8a6-220c5cc0a599"},"vehicle_type_id":"4","last_reported":1723327680,"current_range_meters":24400,"station_id":"ce4bhc92rcd13ifvqetg","pricing_plan_id":"cebpf4jnsgd1na2vs0mg"},{"bike_id":"10ea9d6a-0c63-4c79-8f81-1104a4b392d9","system_id":"levelo_inurba_marseille","lat":43.28914,"lon":5.36403,"is_reserved":false,"is_disabled":false,"rental_uris":{"android":"levelo://app?vid=10ea9d6a-0c63-4c79-8f81-1104a4b392d9","ios":"levelo://app?vid=10ea9d6a-0c63-4c79-8f81-1104a4b392d9"},"vehicle_type_id":"4","last_reported":1723327680,"current_range_meters":0,"station_id":"ce4bhc92rcd13ifvqetg","pricing_plan_id":"cebpf4jnsgd1na2vs0mg"},{"bike_id":"5b45e0c3-b743-47cb-b931-9e7b5178207a","system_id":"levelo_inurba_marseille","lat":43.292644,"lon":5.384257,"is_reserved":false,"is_disabled":false,"rental_uris":{"android":"levelo://app?vid=5b45e0c3-b743-47cb-b931-9e7b5178207a","ios":"levelo://app?vid=5b45e0c3-b743-47cb-b931-9e7b5178207a"},"vehicle_type_id":"4","last_reported":1723327680,"current_range_meters":8000,"station_id":"ce4bh692rcd13ifvqea0","pricing_plan_id":"cebpf4jnsgd1na2vs0mg"},{"bike_id":"6c6c6406-df13-4c2d-9078-4610c60d4028","system_id":"levelo_inurba_marseille","lat":43.292644,"lon":5.384257,"is_reserved":false,"is_disabled":false,"rental_uris":{"android":"levelo://app?vid=6c6c6406-df13-4c2d-9078-4610c60d4028","ios":"levelo://app?vid=6c6c6406-df13-4c2d-9078-4610c60d4028"},"vehicle_type_id":"4","last_reported":1723327680,"current_range_meters":29200,"station_id":"ce4bh692rcd13ifvqea0","pricing_plan_id":"cebpf4jnsgd1na2vs0mg"},{"bike_id":"0d5382da-5ba4-4aa6-b41e-3b5c3068d2f2","system_id":"levelo_inurba_marseille","lat":43.292642,"lon":5.384254,"is_reserved":false,"is_disabled":false,"rental_uris":{"android":"levelo://app?vid=0d5382da-5ba4-4aa6-b41e-3b5c3068d2f2","ios":"levelo://app?vid=0d5382da-5ba4-4aa6-b41e-3b5c3068d2f2"},"vehicle_type_id":"4","last_reported":1723327680,"current_range_meters":11600,"station_id":"ce4bh692rcd13ifvqea0","pricing_plan_id":"cebpf4jnsgd1na2vs0mg"},{"bike_id":"40d8b94a-a4a7-463a-aaa0-a9a241288356","system_id":"levelo_inurba_marseille","lat":43.292644,"lon":5.384257,"is_reserved":false,"is_disabled":false,"rental_uris":{"android":"levelo://app?vid=40d8b94a-a4a7-463a-aaa0-a9a241288356","ios":"levelo://app?vid=40d8b94a-a4a7-463a-aaa0-a9a241288356"},"vehicle_type_id":"4","last_reported":1723327680,"current_range_meters":0,"station_id":"ce4bh692rcd13ifvqea0","pricing_plan_id":"cebpf4jnsgd1na2vs0mg"},{"bike_id":"8ec362f2-7655-4465-884b-52276490cd4c","system_id":"levelo_inurba_marseille","lat":43.292642,"lon":5.384254,"is_reserved":false,"is_disabled":false,"rental_uris":{"android":"levelo://app?vid=8ec362f2-7655-4465-884b-52276490cd4c","ios":"levelo://app?vid=8ec362f2-7655-4465-884b-52276490cd4c"},"vehicle_type_id":"4","last_reported":1723327680,"current_range_meters":28800,"station_id":"ce4bh692rcd13ifvqea0","pricing_plan_id":"cebpf4jnsgd1na2vs0mg"},{"bike_id":"10053b48-9400-4823-b544-fa7f086d7548","system_id":"levelo_inurba_marseille","lat":43.292642,"lon":5.384254,"is_reserved":false,"is_disabled":false,"rental_uris":{"android":"levelo://app?vid=10053b48-9400-4823-b544-fa7f086d7548","ios":"levelo://app?vid=10053b48-9400-4823-b544-fa7f086d7548"},"vehicle_type_id":"4","last_reported":1723327680,"current_range_meters":0,"station_id":"ce4bh692rcd13ifvqea0","pricing_plan_id":"cebpf4jnsgd1na2vs0mg"},{"bike_id":"6f479627-55e5-475c-ba2b-eab0905e9fc7","system_id":"levelo_inurba_marseille","lat":43.292644,"lon":5.384257,"is_reserved":false,"is_disabled":false,"rental_uris":{"android":"levelo://app?vid=6f479627-55e5-475c-ba2b-eab0905e9fc7","ios":"levelo://app?vid=6f479627-55e5-475c-ba2b-eab0905e9fc7"},"vehicle_type_id":"4","last_reported":1723327680,"current_range_meters":19600,"station_id":"ce4bh692rcd13ifvqea0","pricing_plan_id":"cebpf4jnsgd1na2vs0mg"},{"bike_id":"5e3fac80-af79-4d92-84d5-1dad421bee18","system_id":"levelo_inurba_marseille","lat":43.304296,"lon":5.397513,"is_reserved":false,"is_disabled":false,"rental_uris":{"android":"levelo://app?vid=5e3fac80-af79-4d92-84d5-1dad421bee18","ios":"levelo://app?vid=5e3fac80-af79-4d92-84d5-1dad421bee18"},"vehicle_type_id":"4","last_reported":1723327680,"current_range_meters":6800,"station_id":"ce4bh092rcd13ifvqd20","pricing_plan_id":"cebpf4jnsgd1na2vs0mg"},{"bike_id":"1eab864a-edf4-40c5-80ac-6266c633b790","system_id":"levelo_inurba_marseille","lat":43.29262,"lon":5.38446,"is_reserved":false,"is_disabled":false,"rental_uris":{"android":"levelo://app?vid=1eab864a-edf4-40c5-80ac-6266c633b790","ios":"levelo://app?vid=1eab864a-edf4-40c5-80ac-6266c633b790"},"vehicle_type_id":"4","last_reported":1723327680,"current_range_meters":24000,"station_id":"ce4bh692rcd13ifvqea0","pricing_plan_id":"cebpf4jnsgd1na2vs0mg"},{"bike_id":"83e69f52-be4f-43b6-9c2e-9eee1ef5eaf7","system_id":"levelo_inurba_marseille","lat":43.304296,"lon":5.397513,"is_reserved":false,"is_disabled":false,"rental_uris":{"android":"levelo://app?vid=83e69f52-be4f-43b6-9c2e-9eee1ef5eaf7","ios":"levelo://app?vid=83e69f52-be4f-43b6-9c2e-9eee1ef5eaf7"},"vehicle_type_id":"4","last_reported":1723327680,"current_range_meters":19200,"station_id":"ce4bh092rcd13ifvqd20","pricing_plan_id":"cebpf4jnsgd1na2vs0mg"},{"bike_id":"a0380bf5-6d55-4284-a6cb-750a00e1ee18","system_id":"levelo_inurba_marseille","lat":43.29261,"lon":5.38445,"is_reserved":false,"is_disabled":false,"rental_uris":{"android":"levelo://app?vid=a0380bf5-6d55-4284-a6cb-750a00e1ee18","ios":"levelo://app?vid=a0380bf5-6d55-4284-a6cb-750a00e1ee18"},"vehicle_type_id":"4","last_reported":1723327680,"current_range_meters":1600,"station_id":"ce4bh692rcd13ifvqea0","pricing_plan_id":"cebpf4jnsgd1na2vs0mg"},{"bike_id":"ca7a4539-6677-4a36-9aac-d9cb29ead260","system_id":"levelo_inurba_marseille","lat":43.292644,"lon":5.384257,"is_reserved":false,"is_disabled":false,"rental_uris":{"android":"levelo://app?vid=ca7a4539-6677-4a36-9aac-d9cb29ead260","ios":"levelo://app?vid=ca7a4539-6677-4a36-9aac-d9cb29ead260"},"vehicle_type_id":"4","last_reported":1723327680,"current_range_meters":28800,"station_id":"ce4bh692rcd13ifvqea0","pricing_plan_id":"cebpf4jnsgd1na2vs0mg"},{"bike_id":"524405c6-3f6e-40b9-8786-154ae9479ee9","system_id":"levelo_inurba_marseille","lat":43.29257,"lon":5.3844,"is_reserved":false,"is_disabled":false,"rental_uris":{"android":"levelo://app?vid=524405c6-3f6e-40b9-8786-154ae9479ee9","ios":"levelo://app?vid=524405c6-3f6e-40b9-8786-154ae9479ee9"},"vehicle_type_id":"4","last_reported":1723327680,"current_range_meters":0,"station_id":"ce4bh692rcd13ifvqea0","pricing_plan_id":"cebpf4jnsgd1na2vs0mg"},{"bike_id":"623a01e5-f415-4de4-8fe4-de2e87376e03","system_id":"levelo_inurba_marseille","lat":43.292644,"lon":5.384257,"is_reserved":false,"is_disabled":false,"rental_uris":{"android":"levelo://app?vid=623a01e5-f415-4de4-8fe4-de2e87376e03","ios":"levelo://app?vid=623a01e5-f415-4de4-8fe4-de2e87376e03"},"vehicle_type_id":"4","last_reported":1723327680,"current_range_meters":20000,"station_id":"ce4bh692rcd13ifvqea0","pricing_plan_id":"cebpf4jnsgd1na2vs0mg"},{"bike_id":"67641448-7cfb-4c0d-a9db-fcd57f3e69cd","system_id":"levelo_inurba_marseille","lat":43.292644,"lon":5.384257,"is_reserved":false,"is_disabled":false,"rental_uris":{"android":"levelo://app?vid=67641448-7cfb-4c0d-a9db-fcd57f3e69cd","ios":"levelo://app?vid=67641448-7cfb-4c0d-a9db-fcd57f3e69cd"},"vehicle_type_id":"4","last_reported":1723327680,"current_range_meters":28400,"station_id":"ce4bh692rcd13ifvqea0","pricing_plan_id":"cebpf4jnsgd1na2vs0mg"},{"bike_id":"12d82fe3-1c83-4c5a-a83f-4dd8b4092465","system_id":"levelo_inurba_marseille","lat":43.292644,"lon":5.384257,"is_reserved":false,"is_disabled":false,"rental_uris":{"android":"levelo://app?vid=12d82fe3-1c83-4c5a-a83f-4dd8b4092465","ios":"levelo://app?vid=12d82fe3-1c83-4c5a-a83f-4dd8b4092465"},"vehicle_type_id":"4","last_reported":1723327680,"current_range_meters":1200,"station_id":"ce4bh692rcd13ifvqea0","pricing_plan_id":"cebpf4jnsgd1na2vs0mg"},{"bike_id":"4df60419-7fcf-4f15-b883-b9640900e565","system_id":"levelo_inurba_marseille","lat":43.292644,"lon":5.384257,"is_reserved":false,"is_disabled":false,"rental_uris":{"android":"levelo://app?vid=4df60419-7fcf-4f15-b883-b9640900e565","ios":"levelo://app?vid=4df60419-7fcf-4f15-b883-b9640900e565"},"vehicle_type_id":"4","last_reported":1723327680,"current_range_meters":11200,"station_id":"ce4bh692rcd13ifvqea0","pricing_plan_id":"cebpf4jnsgd1na2vs0mg"},{"bike_id":"b5b3f557-6e3b-462b-879b-0d956ff65a2c","system_id":"levelo_inurba_marseille","lat":43.292644,"lon":5.384257,"is_reserved":false,"is_disabled":false,"rental_uris":{"android":"levelo://app?vid=b5b3f557-6e3b-462b-879b-0d956ff65a2c","ios":"levelo://app?vid=b5b3f557-6e3b-462b-879b-0d956ff65a2c"},"vehicle_type_id":"4","last_reported":1723327680,"current_range_meters":27600,"station_id":"ce4bh692rcd13ifvqea0","pricing_plan_id":"cebpf4jnsgd1na2vs0mg"},{"bike_id":"acfce0fc-0174-430c-955b-6ddfb378d868","system_id":"levelo_inurba_marseille","lat":43.292644,"lon":5.384257,"is_reserved":false,"is_disabled":false,"rental_uris":{"android":"levelo://app?vid=acfce0fc-0174-430c-955b-6ddfb378d868","ios":"levelo://app?vid=acfce0fc-0174-430c-955b-6ddfb378d868"},"vehicle_type_id":"4","last_reported":1723327680,"current_range_meters":30000,"station_id":"ce4bh692rcd13ifvqea0","pricing_plan_id":"cebpf4jnsgd1na2vs0mg"},{"bike_id":"ba63f7fc-762f-418f-8c4e-9e2d5da33407","system_id":"levelo_inurba_marseille","lat":43.29251,"lon":5.38456,"is_reserved":false,"is_disabled":false,"rental_uris":{"android":"levelo://app?vid=ba63f7fc-762f-418f-8c4e-9e2d5da33407","ios":"levelo://app?vid=ba63f7fc-762f-418f-8c4e-9e2d5da33407"},"vehicle_type_id":"4","last_reported":1723327680,"current_range_meters":20400,"station_id":"ce4bh692rcd13ifvqea0","pricing_plan_id":"cebpf4jnsgd1na2vs0mg"},{"bike_id":"1637ef25-ea9f-4fca-a187-7aeba045ca9e","system_id":"levelo_inurba_marseille","lat":43.290103,"lon":5.356114,"is_reserved":false,"is_disabled":false,"rental_uris":{"android":"levelo://app?vid=1637ef25-ea9f-4fca-a187-7aeba045ca9e","ios":"levelo://app?vid=1637ef25-ea9f-4fca-a187-7aeba045ca9e"},"vehicle_type_id":"4","last_reported":1723327680,"current_range_meters":31200,"station_id":"ce4bhb92rcd13ifvqen0","pricing_plan_id":"cebpf4jnsgd1na2vs0mg"},{"bike_id":"4ef6e7e8-f9dc-41b4-94af-91dbcd2b5839","system_id":"levelo_inurba_marseille","lat":43.290103,"lon":5.356114,"is_reserved":false,"is_disabled":false,"rental_uris":{"android":"levelo://app?vid=4ef6e7e8-f9dc-41b4-94af-91dbcd2b5839","ios":"levelo://app?vid=4ef6e7e8-f9dc-41b4-94af-91dbcd2b5839"},"vehicle_type_id":"4","last_reported":1723327680,"current_range_meters":16000,"station_id":"ce4bhb92rcd13ifvqen0","pricing_plan_id":"cebpf4jnsgd1na2vs0mg"},{"bike_id":"8ebc7aca-9a78-4a9d-bb8a-db1fae2b801c","system_id":"levelo_inurba_marseille","lat":43.290995,"lon":5.381361,"is_reserved":false,"is_disabled":false,"rental_uris":{"android":"levelo://app?vid=8ebc7aca-9a78-4a9d-bb8a-db1fae2b801c","ios":"levelo://app?vid=8ebc7aca-9a78-4a9d-bb8a-db1fae2b801c"},"vehicle_type_id":"4","last_reported":1723327680,"current_range_meters":30800,"station_id":"ce4bh512rcd13ifvqe2g","pricing_plan_id":"cebpf4jnsgd1na2vs0mg"},{"bike_id":"6a4a0b3c-849d-48ca-ae59-98ef3c201e20","system_id":"levelo_inurba_marseille","lat":43.290995,"lon":5.381361,"is_reserved":false,"is_disabled":false,"rental_uris":{"android":"levelo://app?vid=6a4a0b3c-849d-48ca-ae59-98ef3c201e20","ios":"levelo://app?vid=6a4a0b3c-849d-48ca-ae59-98ef3c201e20"},