{"last_updated":1739279848,"ttl":60,"version":"2.2","data":{"bikes":[{"bike_id":"5cda301b-bce8-41d3-abea-2e981f99524e","system_id":"levelo_inurba_marseille","lat":43.29857,"lon":5.36303,"is_reserved":false,"is_disabled":false,"rental_uris":{"android":"levelo://app?vid=5cda301b-bce8-41d3-abea-2e981f99524e","ios":"levelo://app?vid=5cda301b-bce8-41d3-abea-2e981f99524e"},"vehicle_type_id":"4","last_reported":1739279848,"current_range_meters":25200,"station_id":"ce4bgpp2rcd13ifvqc3g","pricing_plan_id":"cebpf4jnsgd1na2vs0mg"},{"bike_id":"7fb4884e-ca18-48ed-b622-6f387ba3eb6c","system_id":"levelo_inurba_marseille","lat":43.288223,"lon":5.393087,"is_reserved":false,"is_disabled":false,"rental_uris":{"android":"levelo://app?vid=7fb4884e-ca18-48ed-b622-6f387ba3eb6c","ios":"levelo://app?vid=7fb4884e-ca18-48ed-b622-6f387ba3eb6c"},"vehicle_type_id":"4","last_reported":1739279848,"current_range_meters":16000,"station_id":"ce4bh2p2rcd13ifvqdi0","pricing_plan_id":"cebpf4jnsgd1na2vs0mg"},{"bike_id":"2eb427ba-c8bf-4469-8ed4-76ec13ff6139","system_id":"levelo_inurba_marseille","lat":43.31236,"lon":5.36866,"is_reserved":false,"is_disabled":false,"rental_uris":{"android":"levelo://app?vid=2eb427ba-c8bf-4469-8ed4-76ec13ff6139","ios":"levelo://app?vid=2eb427ba-c8bf-4469-8ed4-76ec13ff6139"},"vehicle_type_id":"4","last_reported":1739279848,"current_range_meters":26800,"station_id":"ce4bgl92rcd13ifvqbq0","pricing_plan_id":"cebpf4jnsgd1na2vs0mg"},{"bike_id":"fb43bb94-e5db-4a8d-af8f-4cbc30517cb0","system_id":"levelo_inurba_marseille","lat":43.30611,"lon":5.37268,"is_reserved":false,"is_disabled":false,"rental_uris":{"android":"levelo://app?vid=fb43bb94-e5db-4a8d-af8f-4cbc30517cb0","ios":"levelo://app?vid=fb43bb94-e5db-4a8d-af8f-4cbc30517cb0"},"vehicle_type_id":"4","last_reported":1739279848,"current_range_meters":30800,"station_id":"ce4bgqh2rcd13ifvqc4g","pricing_plan_id":"cebpf4jnsgd1na2vs0mg"},{"bike_id":"b068362a-3288-489d-9388-78d1aec4149d","system_id":"levelo_inurba_marseille","lat":43.26567,"lon":5.39016,"is_reserved":false,"is_disabled":false,"rental_uris":{"android":"levelo://app?vid=b068362a-3288-489d-9388-78d1aec4149d","ios":"levelo://app?vid=b068362a-3288-489d-9388-78d1aec4149d"},"vehicle_type_id":"4","last_reported":1739279848,"current_range_meters":36800,"station_id":"ce4bhe12rcd13ifvqf30","pricing_plan_id":"cebpf4jnsgd1na2vs0mg"},{"bike_id":"303c204d-dbda-4820-96ef-c8aeee180d2d","system_id":"levelo_inurba_marseille","lat":43.30891,"lon":5.39633,"is_reserved":false,"is_disabled":false,"rental_uris":{"android":"levelo://app?vid=303c204d-dbda-4820-96ef-c8aeee180d2d","ios":"levelo://app?vid=303c204d-dbda-4820-96ef-c8aeee180d2d"},"vehicle_type_id":"4","last_reported":1739279848,"current_range_meters":38800,"station_id":"ce4bh012rcd13ifvqcv0","pricing_plan_id":"cebpf4jnsgd1na2vs0mg"},{"bike_id":"ff82c756-e844-400d-9da8-77b6dc6ec13e","system_id":"levelo_inurba_marseille","lat":43.29039,"lon":5.39957,"is_reserved":false,"is_disabled":false,"rental_uris":{"android":"levelo://app?vid=ff82c756-e844-400d-9da8-77b6dc6ec13e","ios":"levelo://app?vid=ff82c756-e844-400d-9da8-77b6dc6ec13e"},"vehicle_type_id":"4","last_reported":1739279848,"current_range_meters":28400,"station_id":"ce4bh392rcd13ifvqdm0","pricing_plan_id":"cebpf4jnsgd1na2vs0mg"},{"bike_id":"1b55b18f-1692-4157-bfa9-3449b6f203e3","system_id":"levelo_inurba_marseille","lat":43.26684,"lon":5.38276,"is_reserved":false,"is_disabled":false,"rental_uris":{"android":"levelo://app?vid=1b55b18f-1692-4157-bfa9-3449b6f203e3","ios":"levelo://app?vid=1b55b18f-1692-4157-bfa9-3449b6f203e3"},"vehicle_type_id":"4","last_reported":1739279848,"current_range_meters":30800,"station_id":"ce4bhg92rcd13ifvqf90","pricing_plan_id":"cebpf4jnsgd1na2vs0mg"},{"bike_id":"0f149d2f-ba73-4b0f-9a5d-b13fe31751e2","system_id":"levelo_inurba_marseille","lat":43.26483,"lon":5.3955,"is_reserved":false,"is_disabled":false,"rental_uris":{"android":"levelo://app?vid=0f149d2f-ba73-4b0f-9a5d-b13fe31751e2","ios":"levelo://app?vid=0f149d2f-ba73-4b0f-9a5d-b13fe31751e2"},"vehicle_type_id":"4","last_reported":1739279848,"current_range_meters":28800,"station_id":"ce4bhi12rcd13ifvqfq0","pricing_plan_id":"cebpf4jnsgd1na2vs0mg"},{"bike_id":"6ad12fed-a7c3-4ded-a0c5-213958e34b8e","system_id":"levelo_inurba_marseille","lat":43.32483,"lon":5.36563,"is_reserved":false,"is_disabled":false,"rental_uris":{"android":"levelo://app?vid=6ad12fed-a7c3-4ded-a0c5-213958e34b8e","ios":"levelo://app?vid=6ad12fed-a7c3-4ded-a0c5-213958e34b8e"},"vehicle_type_id":"4","last_reported":1739279848,"current_range_meters":39200,"station_id":"ce4bhs12rcd13ifvqhvg","pricing_plan_id":"cebpf4jnsgd1na2vs0mg"},{"bike_id":"b8a80ca3-e077-4f8d-8eeb-a46296a4bd5f","system_id":"levelo_inurba_marseille","lat":43.29033,"lon":5.39953,"is_reserved":false,"is_disabled":false,"rental_uris":{"android":"levelo://app?vid=b8a80ca3-e077-4f8d-8eeb-a46296a4bd5f","ios":"levelo://app?vid=b8a80ca3-e077-4f8d-8eeb-a46296a4bd5f"},"vehicle_type_id":"4","last_reported":1739279848,"current_range_meters":30800,"station_id":"ce4bh392rcd13ifvqdm0","pricing_plan_id":"cebpf4jnsgd1na2vs0mg"},{"bike_id":"070ded19-db45-4133-9e69-a50aacceab14","system_id":"levelo_inurba_marseille","lat":43.26804,"lon":5.40268,"is_reserved":false,"is_disabled":false,"rental_uris":{"android":"levelo://app?vid=070ded19-db45-4133-9e69-a50aacceab14","ios":"levelo://app?vid=070ded19-db45-4133-9e69-a50aacceab14"},"vehicle_type_id":"4","last_reported":1739279848,"current_range_meters":39200,"station_id":"ce501612rcd8frsf0b60","pricing_plan_id":"cebpf4jnsgd1na2vs0mg"},{"bike_id":"f759837a-69cc-4770-96c2-faf60f712aca","system_id":"levelo_inurba_marseille","lat":43.30554,"lon":5.36526,"is_reserved":false,"is_disabled":false,"rental_uris":{"android":"levelo://app?vid=f759837a-69cc-4770-96c2-faf60f712aca","ios":"levelo://app?vid=f759837a-69cc-4770-96c2-faf60f712aca"},"vehicle_type_id":"4","last_reported":1739279848,"current_range_meters":10800,"station_id":"ce4bgs12rcd13ifvqcag","pricing_plan_id":"cebpf4jnsgd1na2vs0mg"},{"bike_id":"9cebbfac-f2bd-4a25-81be-e499c5a5f4c8","system_id":"levelo_inurba_marseille","lat":43.30284,"lon":5.37704,"is_reserved":false,"is_disabled":false,"rental_uris":{"android":"levelo://app?vid=9cebbfac-f2bd-4a25-81be-e499c5a5f4c8","ios":"levelo://app?vid=9cebbfac-f2bd-4a25-81be-e499c5a5f4c8"},"vehicle_type_id":"4","last_reported":1739279848,"current_range_meters":38800,"station_id":"ce4bguh2rcd13ifvqcj0","pricing_plan_id":"cebpf4jnsgd1na2vs0mg"},{"bike_id":"0497d784-c056-45f5-a997-c997e3fb1a75","system_id":"levelo_inurba_marseille","lat":43.31721,"lon":5.40487,"is_reserved":false,"is_disabled":true,"rental_uris":{"android":"levelo://app?vid=0497d784-c056-45f5-a997-c997e3fb1a75","ios":"levelo://app?vid=0497d784-c056-45f5-a997-c997e3fb1a75"},"vehicle_type_id":"4","last_reported":1739279848,"current_range_meters":38800,"station_id":"ce4bh012rcd13ifvqd00","pricing_plan_id":"cebpf4jnsgd1na2vs0mg"},{"bike_id":"9e4564f0-0519-46c9-beea-73f529a3ce6a","system_id":"levelo_inurba_marseille","lat":43.2482,"lon":5.37461,"is_reserved":false,"is_disabled":false,"rental_uris":{"android":"levelo://app?vid=9e4564f0-0519-46c9-beea-73f529a3ce6a","ios":"levelo://app?vid=9e4564f0-0519-46c9-beea-73f529a3ce6a"},"vehicle_type_id":"4","last_reported":1739279848,"current_range_meters":32800,"station_id":"ce4bhgh2rcd13ifvqfb0","pricing_plan_id":"cebpf4jnsgd1na2vs0mg"},{"bike_id":"46e433ac-b519-4d59-9231-189aeeb0c3a5","system_id":"levelo_inurba_marseille","lat":43.30611,"lon":5.37254,"is_reserved":false,"is_disabled":false,"rental_uris":{"android":"levelo://app?vid=46e433ac-b519-4d59-9231-189aeeb0c3a5","ios":"levelo://app?vid=46e433ac-b519-4d59-9231-189aeeb0c3a5"},"vehicle_type_id":"4","last_reported":1739279848,"current_range_meters":39200,"station_id":"ce4bgqh2rcd13ifvqc4g","pricing_plan_id":"cebpf4jnsgd1na2vs0mg"},{"bike_id":"a94d2018-f678-4713-bf2d-5da0b28f3e59","system_id":"levelo_inurba_marseille","lat":43.29781,"lon":5.37129,"is_reserved":false,"is_disabled":false,"rental_uris":{"android":"levelo://app?vid=a94d2018-f678-4713-bf2d-5da0b28f3e59","ios":"levelo://app?vid=a94d2018-f678-4713-bf2d-5da0b28f3e59"},"vehicle_type_id":"4","last_reported":1739279848,"current_range_meters":37600,"station_id":"ce4bgop2rcd13ifvqc1g","pricing_plan_id":"cebpf4jnsgd1na2vs0mg"},{"bike_id":"6e1261de-61ca-45f3-8263-50cd9c374486","system_id":"levelo_inurba_marseille","lat":43.2959,"lon":5.37737,"is_reserved":false,"is_disabled":false,"rental_uris":{"android":"levelo://app?vid=6e1261de-61ca-45f3-8263-50cd9c374486","ios":"levelo://app?vid=6e1261de-61ca-45f3-8263-50cd9c374486"},"vehicle_type_id":"4","last_reported":1739279848,"current_range_meters":36400,"station_id":"ce4bgi92rcd13ifvqb90","pricing_plan_id":"cebpf4jnsgd1na2vs0mg"},{"bike_id":"3df3041b-27b7-4def-8d60-99d6191bfdce","system_id":"levelo_inurba_marseille","lat":43.27491,"lon":5.42445,"is_reserved":false,"is_disabled":false,"rental_uris":{"android":"levelo://app?vid=3df3041b-27b7-4def-8d60-99d6191bfdce","ios":"levelo://app?vid=3df3041b-27b7-4def-8d60-99d6191bfdce"},"vehicle_type_id":"4","last_reported":1739279848,"current_range_meters":39200,"station_id":"ce4bhn92rcd13ifvqgrg","pricing_plan_id":"cebpf4jnsgd1na2vs0mg"},{"bike_id":"e1b7c5bc-ba1c-42b9-a842-0b329d2cd64c","system_id":"levelo_inurba_marseille","lat":43.29038,"lon":5.43257,"is_reserved":false,"is_disabled":false,"rental_uris":{"android":"levelo://app?vid=e1b7c5bc-ba1c-42b9-a842-0b329d2cd64c","ios":"levelo://app?vid=e1b7c5bc-ba1c-42b9-a842-0b329d2cd64c"},"vehicle_type_id":"4","last_reported":1739279848,"current_range_meters":32400,"station_id":"","pricing_plan_id":"cebpf4jnsgd1na2vs0mg"},{"bike_id":"8258c8e4-7775-45b7-a1f1-6659658d08a6","system_id":"levelo_inurba_marseille","lat":43.26562,"lon":5.37277,"is_reserved":false,"is_disabled":false,"rental_uris":{"android":"levelo://app?vid=8258c8e4-7775-45b7-a1f1-6659658d08a6","ios":"levelo://app?vid=8258c8e4-7775-45b7-a1f1-6659658d08a6"},"vehicle_type_id":"4","last_reported":1739279848,"current_range_meters":5600,"station_id":"ce4bhg12rcd13ifvqf70","pricing_plan_id":"cebpf4jnsgd1na2vs0mg"},{"bike_id":"03e763eb-2ea5-4191-8380-138ad06f19b1","system_id":"levelo_inurba_marseille","lat":43.32501,"lon":5.36568,"is_reserved":false,"is_disabled":false,"rental_uris":{"android":"levelo://app?vid=03e763eb-2ea5-4191-8380-138ad06f19b1","ios":"levelo://app?vid=03e763eb-2ea5-4191-8380-138ad06f19b1"},"vehicle_type_id":"4","last_reported":1739279848,"current_range_meters":30000,"station_id":"ce4bhs12rcd13ifvqhvg","pricing_plan_id":"cebpf4jnsgd1na2vs0mg"},{"bike_id":"77e86cb1-f1a3-4755-a56d-bbd621328d95","system_id":"levelo_inurba_marseille","lat":43.28074,"lon":5.39655,"is_reserved":false,"is_disabled":false,"rental_uris":{"android":"levelo://app?vid=77e86cb1-f1a3-4755-a56d-bbd621328d95","ios":"levelo://app?vid=77e86cb1-f1a3-4755-a56d-bbd621328d95"},"vehicle_type_id":"4","last_reported":1739279848,"current_range_meters":12000,"station_id":"ce4bho12rcd13ifvqh2g","pricing_plan_id":"cebpf4jnsgd1na2vs0mg"},{"bike_id":"26c79ef5-6f5f-49d9-b4aa-17fb6a7df4bb","system_id":"levelo_inurba_marseille","lat":43.2985,"lon":5.36285,"is_reserved":false,"is_disabled":false,"rental_uris":{"android":"levelo://app?vid=26c79ef5-6f5f-49d9-b4aa-17fb6a7df4bb","ios":"levelo://app?vid=26c79ef5-6f5f-49d9-b4aa-17fb6a7df4bb"},"vehicle_type_id":"4","last_reported":1739279848,"current_range_meters":30800,"station_id":"ce4bgpp2rcd13ifvqc3g","pricing_plan_id":"cebpf4jnsgd1na2vs0mg"},{"bike_id":"39e55a90-fe76-4904-bf9c-9841fe168f13","system_id":"levelo_inurba_marseille","lat":43.33732,"lon":5.39181,"is_reserved":false,"is_disabled":false,"rental_uris":{"android":"levelo://app?vid=39e55a90-fe76-4904-bf9c-9841fe168f13","ios":"levelo://app?vid=39e55a90-fe76-4904-bf9c-9841fe168f13"},"vehicle_type_id":"4","last_reported":1739279848,"current_range_meters":39200,"station_id":"ce4bhr92rcd13ifvqhsg","pricing_plan_id":"cebpf4jnsgd1na2vs0mg"},{"bike_id":"ea5224b0-be52-429b-9eba-b42da3f37eae","system_id":"levelo_inurba_marseille","lat":43.29529,"lon":5.38553,"is_reserved":false,"is_disabled":false,"rental_uris":{"android":"levelo://app?vid=ea5224b0-be52-429b-9eba-b42da3f37eae","ios":"levelo://app?vid=ea5224b0-be52-429b-9eba-b42da3f37eae"},"vehicle_type_id":"4","last_reported":1739279848,"current_range_meters":11600,"station_id":"ce4bgih2rcd13ifvqba0","pricing_plan_id":"cebpf4jnsgd1na2vs0mg"},{"bike_id":"f798cbc4-a869-471f-bce8-f64397eebe81","system_id":"levelo_inurba_marseille","lat":43.23959,"lon":5.36633,"is_reserved":false,"is_disabled":false,"rental_uris":{"android":"levelo://app?vid=f798cbc4-a869-471f-bce8-f64397eebe81","ios":"levelo://app?vid=f798cbc4-a869-471f-bce8-f64397eebe81"},"vehicle_type_id":"4","last_reported":1739279848,"current_range_meters":22000,"station_id":"ce4bhi12rcd13ifvqfp0","pricing_plan_id":"cebpf4jnsgd1na2vs0mg"},{"bike_id":"bf01f2e6-9a78-4aff-9ec5-6001cb076458","system_id":"levelo_inurba_marseille","lat":43.2985,"lon":5.36285,"is_reserved":false,"is_disabled":false,"rental_uris":{"android":"levelo://app?vid=bf01f2e6-9a78-4aff-9ec5-6001cb076458","ios":"levelo://app?vid=bf01f2e6-9a78-4aff-9ec5-6001cb076458"},"vehicle_type_id":"4","last_reported":1739279848,"current_range_meters":7200,"station_id":"ce4bgpp2rcd13ifvqc3g","pricing_plan_id":"cebpf4jnsgd1na2vs0mg"},{"bike_id":"28413155-a714-4c6f-956c-f41cd00ef255","system_id":"levelo_inurba_marseille","lat":43.30435,"lon":5.39742,"is_reserved":false,"is_disabled":false,"rental_uris":{"android":"levelo://app?vid=28413155-a714-4c6f-956c-f41cd00ef255","ios":"levelo://app?vid=28413155-a714-4c6f-956c-f41cd00ef255"},"vehicle_type_id":"4","last_reported":1739279848,"current_range_meters":19600,"station_id":"ce4bh092rcd13ifvqd20","pricing_plan_id":"cebpf4jnsgd1na2vs0mg"},{"bike_id":"30e15755-4421-4ffd-b252-ccac53c81cda","system_id":"levelo_inurba_marseille","lat":43.27896,"lon":5.38005,"is_reserved":false,"is_disabled":false,"rental_uris":{"android":"levelo://app?vid=30e15755-4421-4ffd-b252-ccac53c81cda","ios":"levelo://app?vid=30e15755-4421-4ffd-b252-ccac53c81cda"},"vehicle_type_id":"4","last_reported":1739279848,"current_range_meters":30400,"station_id":"ce4bhf92rcd13ifvqf50","pricing_plan_id":"cebpf4jnsgd1na2vs0mg"},{"bike_id":"feb6c479-182a-4385-b702-31f972970a37","system_id":"levelo_inurba_marseille","lat":43.2962,"lon":5.37723,"is_reserved":false,"is_disabled":false,"rental_uris":{"android":"levelo://app?vid=feb6c479-182a-4385-b702-31f972970a37","ios":"levelo://app?vid=feb6c479-182a-4385-b702-31f972970a37"},"vehicle_type_id":"4","last_reported":1739279848,"current_range_meters":10000,"station_id":"ce4bgi92rcd13ifvqb90","pricing_plan_id":"cebpf4jnsgd1na2vs0mg"},{"bike_id":"0cae99a9-3858-4c93-b1c0-f89f6c914bab","system_id":"levelo_inurba_marseille","lat":43.30595,"lon":5.3722,"is_reserved":false,"is_disabled":false,"rental_uris":{"android":"levelo://app?vid=0cae99a9-3858-4c93-b1c0-f89f6c914bab","ios":"levelo://app?vid=0cae99a9-3858-4c93-b1c0-f89f6c914bab"},"vehicle_type_id":"4","last_reported":1739279848,"current_range_meters":38800,"station_id":"ce4bgqh2rcd13ifvqc4g","pricing_plan_id":"cebpf4jnsgd1na2vs0mg"},{"bike_id":"a369bb54-407f-495a-be0b-8567cf014a7d","system_id":"levelo_inurba_marseille","lat":43.30445,"lon":5.38889,"is_reserved":false,"is_disabled":false,"rental_uris":{"android":"levelo://app?vid=a369bb54-407f-495a-be0b-8567cf014a7d","ios":"levelo://app?vid=a369bb54-407f-495a-be0b-8567cf014a7d"},"vehicle_type_id":"4","last_reported":1739279848,"current_range_meters":38800,"station_id":"ce4bgk12rcd13ifvqbi0","pricing_plan_id":"cebpf4jnsgd1na2vs0mg"},{"bike_id":"bf8cd02e-ccdc-4523-894a-3fce83d782e3","system_id":"levelo_inurba_marseille","lat":43.3373,"lon":5.39179,"is_reserved":false,"is_disabled":false,"rental_uris":{"android":"levelo://app?vid=bf8cd02e-ccdc-4523-894a-3fce83d782e3","ios":"levelo://app?vid=bf8cd02e-ccdc-4523-894a-3fce83d782e3"},"vehicle_type_id":"4","last_reported":1739279848,"current_range_meters":39200,"station_id":"ce4bhr92rcd13ifvqhsg","pricing_plan_id":"cebpf4jnsgd1na2vs0mg"},{"bike_id":"44250f9a-32b8-422c-ac24-5176fa2a88b0","system_id":"levelo_inurba_marseille","lat":43.29362,"lon":5.3784,"is_reserved":false,"is_disabled":false,"rental_uris":{"android":"levelo://app?vid=44250f9a-32b8-422c-ac24-5176fa2a88b0","ios":"levelo://app?vid=44250f9a-32b8-422c-ac24-5176fa2a88b0"},"vehicle_type_id":"4","last_reported":1739279848,"current_range_meters":38000,"station_id":"ce4bgjh2rcd13ifvqbf0","pricing_plan_id":"cebpf4jnsgd1na2vs0mg"},{"bike_id":"e17f1cd8-f838-4373-8131-060c8b8ad57e","system_id":"levelo_inurba_marseille","lat":43.29001,"lon":5.35585,"is_reserved":false,"is_disabled":false,"rental_uris":{"android":"levelo://app?vid=e17f1cd8-f838-4373-8131-060c8b8ad57e","ios":"levelo://app?vid=e17f1cd8-f838-4373-8131-060c8b8ad57e"},"vehicle_type_id":"4","last_reported":1739279848,"current_range_meters":38800,"station_id":"ce4bhb92rcd13ifvqen0","pricing_plan_id":"cebpf4jnsgd1na2vs0mg"},{"bike_id":"2de2f146-f7f7-4372-bf86-bd7c99aeb810","system_id":"levelo_inurba_marseille","lat":43.3031,"lon":5.36895,"is_reserved":false,"is_disabled":false,"rental_uris":{"android":"levelo://app?vid=2de2f146-f7f7-4372-bf86-bd7c99aeb810","ios":"levelo://app?vid=2de2f146-f7f7-4372-bf86-bd7c99aeb810"},"vehicle_type_id":"4","last_reported":1739279848,"current_range_meters":17600,"station_id":"ce4bgqh2rcd13ifvqc5g","pricing_plan_id":"cebpf4jnsgd1na2vs0mg"},{"bike_id":"7363b34c-f4e3-4a4d-a370-ef3739411451","system_id":"levelo_inurba_marseille","lat":43.26803,"lon":5.4026,"is_reserved":false,"is_disabled":false,"rental_uris":{"android":"levelo://app?vid=7363b34c-f4e3-4a4d-a370-ef3739411451","ios":"levelo://app?vid=7363b34c-f4e3-4a4d-a370-ef3739411451"},"vehicle_type_id":"4","last_reported":1739279848,"current_range_meters":38800,"station_id":"ce501612rcd8frsf0b60","pricing_plan_id":"cebpf4jnsgd1na2vs0mg"},{"bike_id":"c179f179-1614-4d6a-9586-627695823c73","system_id":"levelo_inurba_marseille","lat":43.26802,"lon":5.40257,"is_reserved":false,"is_disabled":false,"rental_uris":{"android":"levelo://app?vid=c179f179-1614-4d6a-9586-627695823c73","ios":"levelo://app?vid=c179f179-1614-4d6a-9586-627695823c73"},"vehicle_type_id":"4","last_reported":1739279848,"current_range_meters":30000,"station_id":"ce501612rcd8frsf0b60","pricing_plan_id":"cebpf4jnsgd1na2vs0mg"},{"bike_id":"c573048d-b0bb-4a11-b456-07d3f804372d","system_id":"levelo_inurba_marseille","lat":43.28842,"lon":5.39331,"is_reserved":false,"is_disabled":false,"rental_uris":{"android":"levelo://app?vid=c573048d-b0bb-4a11-b456-07d3f804372d","ios":"levelo://app?vid=c573048d-b0bb-4a11-b456-07d3f804372d"},"vehicle_type_id":"4","last_reported":1739279848,"current_range_meters":34000,"station_id":"","pricing_plan_id":"cebpf4jnsgd1na2vs0mg"},{"bike_id":"542c162a-2c01-4221-88ba-bc0cf2c81047","system_id":"levelo_inurba_marseille","lat":43.268097,"lon":5.40261,"is_reserved":false,"is_disabled":false,"rental_uris":{"android":"levelo://app?vid=542c162a-2c01-4221-88ba-bc0cf2c81047","ios":"levelo://app?vid=542c162a-2c01-4221-88ba-bc0cf2c81047"},"vehicle_type_id":"4","last_reported":1739279848,"current_range_meters":38800,"station_id":"ce501612rcd8frsf0b60","pricing_plan_id":"cebpf4jnsgd1na2vs0mg"},{"bike_id":"18ab6661-7f05-48fe-b693-65f1fab70ba8","system_id":"levelo_inurba_marseille","lat":43.31285,"lon":5.40172,"is_reserved":false,"is_disabled":false,"rental_uris":{"android":"levelo://app?vid=18ab6661-7f05-48fe-b693-65f1fab70ba8","ios":"levelo://app?vid=18ab6661-7f05-48fe-b693-65f1fab70ba8"},"vehicle_type_id":"4","last_reported":1739279848,"current_range_meters":38800,"station_id":"ce4bh092rcd13ifvqd30","pricing_plan_id":"cebpf4jnsgd1na2vs0mg"},{"bike_id":"9836b973-7234-4581-b5b7-19d8b751167e","system_id":"levelo_inurba_marseille","lat":43.24172,"lon":5.39743,"is_reserved":false,"is_disabled":false,"rental_uris":{"android":"levelo://app?vid=9836b973-7234-4581-b5b7-19d8b751167e","ios":"levelo://app?vid=9836b973-7234-4581-b5b7-19d8b751167e"},"vehicle_type_id":"4","last_reported":1739279848,"current_range_meters":38400,"station_id":"ce4bhn12rcd13ifvqgpg","pricing_plan_id":"cebpf4jnsgd1na2vs0mg"},{"bike_id":"63daab5d-a4aa-4bd6-b32f-6f3deb287e93","system_id":"levelo_inurba_marseille","lat":43.25866,"lon":5.39896,"is_reserved":false,"is_disabled":false,"rental_uris":{"android":"levelo://app?vid=63daab5d-a4aa-4bd6-b32f-6f3deb287e93","ios":"levelo://app?vid=63daab5d-a4aa-4bd6-b32f-6f3deb287e93"},"vehicle_type_id":"4","last_reported":1739279848,"current_range_meters":26000,"station_id":"ce4bhl92rcd13ifvqghg","pricing_plan_id":"cebpf4jnsgd1na2vs0mg"},{"bike_id":"1add35ea-4fc7-486b-99a6-cfb5eca5d89c","system_id":"levelo_inurba_marseille","lat":43.30214,"lon":5.39472,"is_reserved":false,"is_disabled":false,"rental_uris":{"android":"levelo://app?vid=1add35ea-4fc7-486b-99a6-cfb5eca5d89c","ios":"levelo://app?vid=1add35ea-4fc7-486b-99a6-cfb5eca5d89c"},"vehicle_type_id":"4","last_reported":1739279848,"current_range_meters":33200,"station_id":"ce4bh0p2rcd13ifvqd70","pricing_plan_id":"cebpf4jnsgd1na2vs0mg"},{"bike_id":"8dc60ba6-d690-49b8-8adf-a6261b5bfebb","system_id":"levelo_inurba_marseille","lat":43.24388,"lon":5.37061,"is_reserved":false,"is_disabled":false,"rental_uris":{"android":"levelo://app?vid=8dc60ba6-d690-49b8-8adf-a6261b5bfebb","ios":"levelo://app?vid=8dc60ba6-d690-49b8-8adf-a6261b5bfebb"},"vehicle_type_id":"4","last_reported":1739279848,"current_range_meters":33200,"station_id":"ce4bhhh2rcd13ifvqfk0","pricing_plan_id":"cebpf4jnsgd1na2vs0mg"},{"bike_id":"82d07d61-3a0e-48f1-afd3-ceffdad3e8b0","system_id":"levelo_inurba_marseille","lat":43.29025,"lon":5.35938,"is_reserved":false,"is_disabled":false,"rental_uris":{"android":"levelo://app?vid=82d07d61-3a0e-48f1-afd3-ceffdad3e8b0","ios":"levelo://app?vid=82d07d61-3a0e-48f1-afd3-ceffdad3e8b0"},"vehicle_type_id":"4","last_reported":1739279848,"current_range_meters":37600,"station_id":"ce4bha92rcd13ifvqeg0","pricing_plan_id":"cebpf4jnsgd1na2vs0mg"},{"bike_id":"61c74845-33f6-4eda-89fa-862dac9c0120","system_id":"levelo_inurba_marseille","lat":43.2511,"lon":5.40321,"is_reserved":false,"is_disabled":false,"rental_uris":{"android":"levelo://app?vid=61c74845-33f6-4eda-89fa-862dac9c0120","ios":"levelo://app?vid=61c74845-33f6-4eda-89fa-862dac9c0120"},"vehicle_type_id":"4","last_reported":1739279848,"current_range_meters":39200,"station_id":"ce4bhlh2rcd13ifvqgig","pricing_plan_id":"cebpf4jnsgd1na2vs0mg"},{"bike_id":"8d9024d1-e65d-448c-be5d-fcc051bd95bc","system_id":"levelo_inurba_marseille","lat":43.30127,"lon":5.38773,"is_reserved":false,"is_disabled":false,"rental_uris":{"android":"levelo://app?vid=8d9024d1-e65d-448c-be5d-fcc051bd95bc","ios":"levelo://app?vid=8d9024d1-e65d-448c-be5d-fcc051bd95bc"},"vehicle_type_id":"4","last_reported":1739279848,"current_range_meters":39200,"station_id":"ce4bghh2rcd13ifvqb60","pricing_plan_id":"cebpf4jnsgd1na2vs0mg"},{"bike_id":"6e1b6112-cd26-421f-b157-6ac716f542d7","system_id":"levelo_inurba_marseille","lat":43.272,"lon":5.41013,"is_reserved":false,"is_disabled":false,"rental_uris":{"android":"levelo://app?vid=6e1b6112-cd26-421f-b157-6ac716f542d7","ios":"levelo://app?vid=6e1b6112-cd26-421f-b157-6ac716f542d7"},"vehicle_type_id":"4","last_reported":1739279848,"current_range_meters":33600,"station_id":"ce4bhl12rcd13ifvqgf0","pricing_plan_id":"cebpf4jnsgd1na2vs0mg"},{"bike_id":"e169a236-33c1-4557-8a4d-0eca73ad1806","system_id":"levelo_inurba_marseille","lat":43.27998,"lon":5.40016,"is_reserved":false,"is_disabled":false,"rental_uris":{"android":"levelo://app?vid=e169a236-33c1-4557-8a4d-0eca73ad1806","ios":"levelo://app?vid=e169a236-33c1-4557-8a4d-0eca73ad1806"},"vehicle_type_id":"4","last_reported":1739279848,"current_range_meters":26800,"station_id":"ce4bho92rcd13ifvqh4g","pricing_plan_id":"cebpf4jnsgd1na2vs0mg"},{"bike_id":"b41d8475-1b61-4022-b648-2777adae10ea","system_id":"levelo_inurba_marseille","lat":43.241719,"lon":5.36392,"is_reserved":false,"is_disabled":false,"rental_uris":{"android":"levelo://app?vid=b41d8475-1b61-4022-b648-2777adae10ea","ios":"levelo://app?vid=b41d8475-1b61-4022-b648-2777adae10ea"},"vehicle_type_id":"4","last_reported":1739279848,"current_range_meters":26000,"station_id":"cpo36qri1sfpv3e86is0","pricing_plan_id":"cebpf4jnsgd1na2vs0mg"},{"bike_id":"f96d9290-7566-4c01-a4f3-765d931e8a38","system_id":"levelo_inurba_marseille","lat":43.29779,"lon":5.38126,"is_reserved":false,"is_disabled":false,"rental_uris":{"android":"levelo://app?vid=f96d9290-7566-4c01-a4f3-765d931e8a38","ios":"levelo://app?vid=f96d9290-7566-4c01-a4f3-765d931e8a38"},"vehicle_type_id":"4","last_reported":1739279848,"current_range_meters":28400,"station_id":"ce4bgip2rcd13ifvqbb0","pricing_plan_id":"cebpf4jnsgd1na2vs0mg"},{"bike_id":"76ebc75d-2fe5-45e0-9f44-dea2f5f86814","system_id":"levelo_inurba_marseille","lat":43.24394,"lon":5.37054,"is_reserved":false,"is_disabled":false,"rental_uris":{"android":"levelo://app?vid=76ebc75d-2fe5-45e0-9f44-dea2f5f86814","ios":"levelo://app?vid=76ebc75d-2fe5-45e0-9f44-dea2f5f86814"},"vehicle_type_id":"4","last_reported":1739279848,"current_range_meters":32800,"station_id":"ce4bhhh2rcd13ifvqfk0","pricing_plan_id":"cebpf4jnsgd1na2vs0mg"},{"bike_id":"7d106cb9-068f-49c0-877f-e5a636bf088d","system_id":"levelo_inurba_marseille","lat":43.28712,"lon":5.39983,"is_reserved":false,"is_disabled":false,"rental_uris":{"android":"levelo://app?vid=7d106cb9-068f-49c0-877f-e5a636bf088d","ios":"levelo://app?vid=7d106cb9-068f-49c0-877f-e5a636bf088d"},"vehicle_type_id":"4","last_reported":1739279848,"current_range_meters":27600,"station_id":"ce4bho92rcd13ifvqh3g","pricing_plan_id":"cebpf4jnsgd1na2vs0mg"},{"bike_id":"b631c779-5d30-4794-b09b-2a14ab4ffd5d","system_id":"levelo_inurba_marseille","lat":43.2571,"lon":5.41099,"is_reserved":false,"is_disabled":false,"rental_uris":{"android":"levelo://app?vid=b631c779-5d30-4794-b09b-2a14ab4ffd5d","ios":"levelo://app?vid=b631c779-5d30-4794-b09b-2a14ab4ffd5d"},"vehicle_type_id":"4","last_reported":1739279848,"current_range_meters":39200,"station_id":"ce4bhkp2rcd13ifvqgd0","pricing_plan_id":"cebpf4jnsgd1na2vs0mg"},{"bike_id":"5cc1c40c-0cfa-47bf-8c35-a147fbb523c6","system_id":"levelo_inurba_marseille","lat":43.33032,"lon":5.39242,"is_reserved":false,"is_disabled":false,"rental_uris":{"android":"levelo://app?vid=5cc1c40c-0cfa-47bf-8c35-a147fbb523c6","ios":"levelo://app?vid=5cc1c40c-0cfa-47bf-8c35-a147fbb523c6"},"vehicle_type_id":"4","last_reported":1739279848,"current_range_meters":36400,"station_id":"","pricing_plan_id":"cebpf4jnsgd1na2vs0mg"},{"bike_id":"51ab7186-5043-4bed-baca-73708608a302","system_id":"levelo_inurba_marseille","lat":43.29584,"lon":5.37026,"is_reserved":false,"is_disabled":true,"rental_uris":{"android":"levelo://app?vid=51ab7186-5043-4bed-baca-73708608a302","ios":"levelo://app?vid=51ab7186-5043-4bed-baca-73708608a302"},"vehicle_type_id":"4","last_reported":1739279848,"current_range_meters":7200,"station_id":"","pricing_plan_id":"cebpf4jnsgd1na2vs0mg"},{"bike_id":"cbcc5ab0-2725-4dbd-bc30-80aae2934308","system_id":"levelo_inurba_marseille","lat":43.301434,"lon":5.374214,"is_reserved":false,"is_disabled":false,"rental_uris":{"android":"levelo://app?vid=cbcc5ab0-2725-4dbd-bc30-80aae2934308","ios":"levelo://app?vid=cbcc5ab0-2725-4dbd-bc30-80aae2934308"},"vehicle_type_id":"4","last_reported":1739279848,"current_range_meters":32400,"station_id":"ce4bgs92rcd13ifvqcc0","pricing_plan_id":"cebpf4jnsgd1na2vs0mg"},{"bike_id":"c4038e97-41ca-4def-a28d-f02b6208ecc2","system_id":"levelo_inurba_marseille","lat":43.29511,"lon":5.37498,"is_reserved":false,"is_disabled":false,"rental_uris":{"android":"levelo://app?vid=c4038e97-41ca-4def-a28d-f02b6208ecc2","ios":"levelo://app?vid=c4038e97-41ca-4def-a28d-f02b6208ecc2"},"vehicle_type_id":"4","last_reported":1739279848,"current_range_meters":24800,"station_id":"ce4bgkp2rcd13ifvqbmg","pricing_plan_id":"cebpf4jnsgd1na2vs0mg"},{"bike_id":"2df9ea44-1468-43c2-82ec-de1fd1b84b65","system_id":"levelo_inurba_marseille","lat":43.269423,"lon":5.402397,"is_reserved":false,"is_disabled":false,"rental_uris":{"android":"levelo://app?vid=2df9ea44-1468-43c2-82ec-de1fd1b84b65","ios":"levelo://app?vid=2df9ea44-1468-43c2-82ec-de1fd1b84b65"},"vehicle_type_id":"4","last_reported":1739279848,"current_range_meters":28000,"station_id":"cjm6bp8fraef2m0cb0m0","pricing_plan_id":"cebpf4jnsgd1na2vs0mg"},{"bike_id":"e9d6d52e-ae73-4562-b275-f61781a951b6","system_id":"levelo_inurba_marseille","lat":43.28462,"lon":5.38406,"is_reserved":false,"is_disabled":false,"rental_uris":{"android":"levelo://app?vid=e9d6d52e-ae73-4562-b275-f61781a951b6","ios":"levelo://app?vid=e9d6d52e-ae73-4562-b275-f61781a951b6"},"vehicle_type_id":"4","last_reported":1739279848,"current_range_meters":34000,"station_id":"ce4bh512rcd13ifvqe3g","pricing_plan_id":"cebpf4jnsgd1na2vs0mg"},{"bike_id":"5f18bd7f-07eb-4b1a-bd30-3819fff5fcc5","system_id":"levelo_inurba_marseille","lat":43.299,"lon":5.38148,"is_reserved":false,"is_disabled":false,"rental_uris":{"android":"levelo://app?vid=5f18bd7f-07eb-4b1a-bd30-3819fff5fcc5","ios":"levelo://app?vid=5f18bd7f-07eb-4b1a-bd30-3819fff5fcc5"},"vehicle_type_id":"4","last_reported":1739279848,"current_range_meters":38800,"station_id":"ce4bgj12rcd13ifvqbc0","pricing_plan_id":"cebpf4jnsgd1na2vs0mg"},{"bike_id":"79009f4e-d6ab-4421-b79f-aa84067c324b","system_id":"levelo_inurba_marseille","lat":43.24161,"lon":5.39712,"is_reserved":false,"is_disabled":false,"rental_uris":{"android":"levelo://app?vid=79009f4e-d6ab-4421-b79f-aa84067c324b","ios":"levelo://app?vid=79009f4e-d6ab-4421-b79f-aa84067c324b"},"vehicle_type_id":"4","last_reported":1739279848,"current_range_meters":27600,"station_id":"ce4bhn12rcd13ifvqgpg","pricing_plan_id":"cebpf4jnsgd1na2vs0mg"},{"bike_id":"0cdcc8f7-f674-43f1-9b73-0f1949650402","system_id":"levelo_inurba_marseille","lat":43.23958,"lon":5.36626,"is_reserved":false,"is_disabled":false,"rental_uris":{"android":"levelo://app?vid=0cdcc8f7-f674-43f1-9b73-0f1949650402","ios":"levelo://app?vid=0cdcc8f7-f674-43f1-9b73-0f1949650402"},"vehicle_type_id":"4","last_reported":1739279848,"current_range_meters":35600,"station_id":"ce4bhi12rcd13ifvqfp0","pricing_plan_id":"cebpf4jnsgd1na2vs0mg"},{"bike_id":"d5869c17-5b8b-41a1-b409-a2400118fc7a","system_id":"levelo_inurba_marseille","lat":43.30272,"lon":5.37707,"is_reserved":false,"is_disabled":false,"rental_uris":{"android":"levelo://app?vid=d5869c17-5b8b-41a1-b409-a2400118fc7a","ios":"levelo://app?vid=d5869c17-5b8b-41a1-b409-a2400118fc7a"},"vehicle_type_id":"4","last_reported":1739279848,"current_range_meters":31200,"station_id":"ce4bguh2rcd13ifvqcj0","pricing_plan_id":"cebpf4jnsgd1na2vs0mg"},{"bike_id":"de77abfa-6f74-40e9-8131-b7884eda37eb","system_id":"levelo_inurba_marseille","lat":43.29945,"lon":5.39413,"is_reserved":false,"is_disabled":false,"rental_uris":{"android":"levelo://app?vid=de77abfa-6f74-40e9-8131-b7884eda37eb","ios":"levelo://app?vid=de77abfa-6f74-40e9-8131-b7884eda37eb"},"vehicle_type_id":"4","last_reported":1739279848,"current_range_meters":28800,"station_id":"","pricing_plan_id":"cebpf4jnsgd1na2vs0mg"},{"bike_id":"ba7f9e16-87e4-4884-b219-10693d0d2aa0","system_id":"levelo_inurba_marseille","lat":43.29626,"lon":5.40585,"is_reserved":false,"is_disabled":false,"rental_uris":{"android":"levelo://app?vid=ba7f9e16-87e4-4884-b219-10693d0d2aa0","ios":"levelo://app?vid=ba7f9e16-87e4-4884-b219-10693d0d2aa0"},"vehicle_type_id":"4","last_reported":1739279848,"current_range_meters":32400,"station_id":"ce4bh0h2rcd13ifvqd60","pricing_plan_id":"cebpf4jnsgd1na2vs0mg"},{"bike_id":"aa081435-b5f9-4834-b16c-7f35c836b33a","system_id":"levelo_inurba_marseille","lat":43.30157,"lon":5.37404,"is_reserved":false,"is_disabled":false,"rental_uris":{"android":"levelo://app?vid=aa081435-b5f9-4834-b16c-7f35c836b33a","ios":"levelo://app?vid=aa081435-b5f9-4834-b16c-7f35c836b33a"},"vehicle_type_id":"4","last_reported":1739279848,"current_range_meters":38800,"station_id":"ce4bgs92rcd13ifvqcc0","pricing_plan_id":"cebpf4jnsgd1na2vs0mg"},{"bike_id":"ee079ffa-4416-4a91-bc98-3bd665acea3b","system_id":"levelo_inurba_marseille","lat":43.33721,"lon":5.39159,"is_reserved":false,"is_disabled":false,"rental_uris":{"android":"levelo://app?vid=ee079ffa-4416-4a91-bc98-3bd665acea3b","ios":"levelo://app?vid=ee079ffa-4416-4a91-bc98-3bd665acea3b"},"vehicle_type_id":"4","last_reported":1739279848,"current_range_meters":39200,"station_id":"ce4bhr92rcd13ifvqhsg","pricing_plan_id":"cebpf4jnsgd1na2vs0mg"},{"bike_id":"1fa82dc6-47d4-4356-bbca-393bf4461726","system_id":"levelo_inurba_marseille","lat":43.23955,"lon":5.36627,"is_reserved":false,"is_disabled":false,"rental_uris":{"android":"levelo://app?vid=1fa82dc6-47d4-4356-bbca-393bf4461726","ios":"levelo://app?vid=1fa82dc6-47d4-4356-bbca-393bf4461726"},"vehicle_type_id":"4","last_reported":1739279848,"current_range_meters":18000,"station_id":"ce4bhi12rcd13ifvqfp0","pricing_plan_id":"cebpf4jnsgd1na2vs0mg"},{"bike_id":"8f27805b-e45e-482f-800b-3745204b0141","system_id":"levelo_inurba_marseille","lat":43.2466,"lon":5.38165,"is_reserved":false,"is_disabled":false,"rental_uris":{"android":"levelo://app?vid=8f27805b-e45e-482f-800b-3745204b0141","ios":"levelo://app?vid=8f27805b-e45e-482f-800b-3745204b0141"},"vehicle_type_id":"4","last_reported":1739279848,"current_range_meters":28000,"station_id":"ce4bhih2rcd13ifvqfr0","pricing_plan_id":"cebpf4jnsgd1na2vs0mg"},{"bike_id":"bcb645d7-c598-4777-888d-2e2637a0a4f2","system_id":"levelo_inurba_marseille","lat":43.27899,"lon":5.38006,"is_reserved":false,"is_disabled":false,"rental_uris":{"android":"levelo://app?vid=bcb645d7-c598-4777-888d-2e2637a0a4f2","ios":"levelo://app?vid=bcb645d7-c598-4777-888d-2e2637a0a4f2"},"vehicle_type_id":"4","last_reported":1739279848,"current_range_meters":34000,"station_id":"ce4bhf92rcd13ifvqf50","pricing_plan_id":"cebpf4jnsgd1na2vs0mg"},{"bike_id":"43d9c899-b698-4010-980b-b17004dc2d7c","system_id":"levelo_inurba_marseille","lat":43.29987,"lon":5.37191,"is_reserved":false,"is_disabled":false,"rental_uris":{"android":"levelo://app?vid=43d9c899-b698-4010-980b-b17004dc2d7c","ios":"levelo://app?vid=43d9c899-b698-4010-980b-b17004dc2d7c"},"vehicle_type_id":"4","last_reported":1739279848,"current_range_meters":39200,"station_id":"ce4bgr92rcd13ifvqc7g","pricing_plan_id":"cebpf4jnsgd1na2vs0mg"},{"bike_id":"67c77a93-95e0-4dde-b030-1b6a0f65cf9a","system_id":"levelo_inurba_marseille","lat":43.27186,"lon":5.40997,"is_reserved":false,"is_disabled":false,"rental_uris":{"android":"levelo://app?vid=67c77a93-95e0-4dde-b030-1b6a0f65cf9a","ios":"levelo://app?vid=67c77a93-95e0-4dde-b030-1b6a0f65cf9a"},"vehicle_type_id":"4","last_reported":1739279848,"current_range_meters":8400,"station_id":"ce4bhl12rcd13ifvqgf0","pricing_plan_id":"cebpf4jnsgd1na2vs0mg"},{"bike_id":"78850cd1-3f23-4e2d-b033-f72c6653650a","system_id":"levelo_inurba_marseille","lat":43.269362,"lon":5.389206,"is_reserved":false,"is_disabled":false,"rental_uris":{"android":"levelo://app?vid=78850cd1-3f23-4e2d-b033-f72c6653650a","ios":"levelo://app?vid=78850cd1-3f23-4e2d-b033-f72c6653650a"},"vehicle_type_id":"4","last_reported":1739279848,"current_range_meters":38800,"station_id":"ce4bhhh2rcd13ifvqfl0","pricing_plan_id":"cebpf4jnsgd1na2vs0mg"},{"bike_id":"d4cc9099-d6fa-474e-ae72-0973f57da119","system_id":"levelo_inurba_marseille","lat":43.30275,"lon":5.37695,"is_reserved":false,"is_disabled":false,"rental_uris":{"android":"levelo://app?vid=d4cc9099-d6fa-474e-ae72-0973f57da119","ios":"levelo://app?vid=d4cc9099-d6fa-474e-ae72-0973f57da119"},"vehicle_type_id":"4","last_reported":1739279848,"current_range_meters":38800,"station_id":"ce4bguh2rcd13ifvqcj0","pricing_plan_id":"cebpf4jnsgd1na2vs0mg"},{"bike_id":"496fa2ad-a547-4095-b8b9-a29f1a78ab4b","system_id":"levelo_inurba_marseille","lat":43.27821,"lon":5.40712,"is_reserved":false,"is_disabled":true,"rental_uris":{"android":"levelo://app?vid=496fa2ad-a547-4095-b8b9-a29f1a78ab4b","ios":"levelo://app?vid=496fa2ad-a547-4095-b8b9-a29f1a78ab4b"},"vehicle_type_id":"4","last_reported":1739279848,"current_range_meters":36800,"station_id":"ce4bhnh2rcd13ifvqgtg","pricing_plan_id":"cebpf4jnsgd1na2vs0mg"},{"bike_id":"75d80e4d-7f8e-4044-969a-f39ce5a84fed","system_id":"levelo_inurba_marseille","lat":43.27052,"lon":5.40273,"is_reserved":false,"is_disabled":false,"rental_uris":{"android":"levelo://app?vid=75d80e4d-7f8e-4044-969a-f39ce5a84fed","ios":"levelo://app?vid=75d80e4d-7f8e-4044-969a-f39ce5a84fed"},"vehicle_type_id":"4","last_reported":1739279848,"current_range_meters":17600,"station_id":"ce4bhk92rcd13ifvqgc0","pricing_plan_id":"cebpf4jnsgd1na2vs0mg"},{"bike_id":"3db29e58-0383-464f-82dd-fb2e9d4db242","system_id":"levelo_inurba_marseille","lat":43.28099,"lon":5.37849,"is_reserved":false,"is_disabled":false,"rental_uris":{"android":"levelo://app?vid=3db29e58-0383-464f-82dd-fb2e9d4db242","ios":"levelo://app?vid=3db29e58-0383-464f-82dd-fb2e9d4db242"},"vehicle_type_id":"4","last_reported":1739279848,"current_range_meters":35600,"station_id":"ce4bha12rcd13ifvqee0","pricing_plan_id":"cebpf4jnsgd1na2vs0mg"},{"bike_id":"05f6ac8f-0127-4e39-bd11-d53a74225ef8","system_id":"levelo_inurba_marseille","lat":43.27874,"lon":5.40597,"is_reserved":false,"is_disabled":true,"rental_uris":{"android":"levelo://app?vid=05f6ac8f-0127-4e39-bd11-d53a74225ef8","ios":"levelo://app?vid=05f6ac8f-0127-4e39-bd11-d53a74225ef8"},"vehicle_type_id":"4","last_reported":1739279848,"current_range_meters":0,"station_id":"","pricing_plan_id":"cebpf4jnsgd1na2vs0mg"},{"bike_id":"1fdbf306-dac4-41aa-b9f7-aa0209be1a7a","system_id":"levelo_inurba_marseille","lat":43.2694,"lon":5.40246,"is_reserved":false,"is_disabled":false,"rental_uris":{"android":"levelo://app?vid=1fdbf306-dac4-41aa-b9f7-aa0209be1a7a","ios":"levelo://app?vid=1fdbf306-dac4-41aa-b9f7-aa0209be1a7a"},"vehicle_type_id":"4","last_reported":1739279848,"current_range_meters":34000,"station_id":"cjm6bp8fraef2m0cb0m0","pricing_plan_id":"cebpf4jnsgd1na2vs0mg"},{"bike_id":"a3d2302b-9b93-49df-85ba-bce6080207a0","system_id":"levelo_inurba_marseille","lat":43.231445,"lon":5.437336,"is_reserved":false,"is_disabled":false,"rental_uris":{"android":"levelo://app?vid=a3d2302b-9b93-49df-85ba-bce6080207a0","ios":"levelo://app?vid=a3d2302b-9b93-49df-85ba-bce6080207a0"},"vehicle_type_id":"4","last_reported":1739279848,"current_range_meters":4800,"station_id":"ce4bhmp2rcd13ifvqgog","pricing_plan_id":"cebpf4jnsgd1na2vs0mg"},{"bike_id":"1a977b22-108e-45ce-bfbb-a16bbbb07843","system_id":"levelo_inurba_marseille","lat":43.30539,"lon":5.3652,"is_reserved":false,"is_disabled":false,"rental_uris":{"android":"levelo://app?vid=1a977b22-108e-45ce-bfbb-a16bbbb07843","ios":"levelo://app?vid=1a977b22-108e-45ce-bfbb-a16bbbb07843"},"vehicle_type_id":"4","last_reported":1739279848,"current_range_meters":24400,"station_id":"ce4bgs12rcd13ifvqcag","pricing_plan_id":"cebpf4jnsgd1na2vs0mg"},{"bike_id":"40081917-3005-4a83-9ca6-ce489aee1dc8","system_id":"levelo_inurba_marseille","lat":43.29308,"lon":5.37455,"is_reserved":false,"is_disabled":false,"rental_uris":{"android":"levelo://app?vid=40081917-3005-4a83-9ca6-ce489aee1dc8","ios":"levelo://app?vid=40081917-3005-4a83-9ca6-ce489aee1dc8"},"vehicle_type_id":"4","last_reported":1739279848,"current_range_meters":34800,"station_id":"ce4bgi12rcd13ifvqb70","pricing_plan_id":"cebpf4jnsgd1na2vs0mg"},{"bike_id":"a2a3b079-e389-4fc3-ae81-e5da880d0a04","system_id":"levelo_inurba_marseille","lat":43.2572,"lon":5.4109,"is_reserved":false,"is_disabled":false,"rental_uris":{"android":"levelo://app?vid=a2a3b079-e389-4fc3-ae81-e5da880d0a04","ios":"levelo://app?vid=a2a3b079-e389-4fc3-ae81-e5da880d0a04"},"vehicle_type_id":"4","last_reported":1739279848,"current_range_meters":38800,"station_id":"ce4bhkp2rcd13ifvqgd0","pricing_plan_id":"cebpf4jnsgd1na2vs0mg"},{"bike_id":"3d01ee57-be5d-4165-815d-c5b06c8be331","system_id":"levelo_inurba_marseille","lat":43.24998,"lon":5.38928,"is_reserved":false,"is_disabled":false,"rental_uris":{"android":"levelo://app?vid=3d01ee57-be5d-4165-815d-c5b06c8be331","ios":"levelo://app?vid=3d01ee57-be5d-4165-815d-c5b06c8be331"},"vehicle_type_id":"4","last_reported":1739279848,"current_range_meters":38800,"station_id":"ce4bhgp2rcd13ifvqfd0","pricing_plan_id":"cebpf4jnsgd1na2vs0mg"},{"bike_id":"0b863fd7-fbaa-41ae-ab45-faf8ecc50b8c","system_id":"levelo_inurba_marseille","lat":43.30639,"lon":5.39771,"is_reserved":false,"is_disabled":false,"rental_uris":{"android":"levelo://app?vid=0b863fd7-fbaa-41ae-ab45-faf8ecc50b8c","ios":"levelo://app?vid=0b863fd7-fbaa-41ae-ab45-faf8ecc50b8c"},"vehicle_type_id":"4","last_reported":1739279848,"current_range_meters":23200,"station_id":"","pricing_plan_id":"cebpf4jnsgd1na2vs0mg"},{"bike_id":"721f5fb6-7349-49b7-a109-77ff84c72bdd","system_id":"levelo_inurba_marseille","lat":43.30223,"lon":5.39483,"is_reserved":false,"is_disabled":false,"rental_uris":{"android":"levelo://app?vid=721f5fb6-7349-49b7-a109-77ff84c72bdd","ios":"levelo://app?vid=721f5fb6-7349-49b7-a109-77ff84c72bdd"},"vehicle_type_id":"4","last_reported":1739279848,"current_range_meters":39200,"station_id":"ce4bh0p2rcd13ifvqd70","pricing_plan_id":"cebpf4jnsgd1na2vs0mg"},{"bike_id":"76ed4e97-7fa9-4836-bcd3-e52753ef31b4","system_id":"levelo_inurba_marseille","lat":43.29841,"lon":5.36281,"is_reserved":false,"is_disabled":false,"rental_uris":{"android":"levelo://app?vid=76ed4e97-7fa9-4836-bcd3-e52753ef31b4","ios":"levelo://app?vid=76ed4e97-7fa9-4836-bcd3-e52753ef31b4"},"vehicle_type_id":"4","last_reported":1739279848,"current_range_meters":38400,"station_id":"ce4bgpp2rcd13ifvqc3g","pricing_plan_id":"cebpf4jnsgd1na2vs0mg"},{"bike_id":"fd7cd6eb-8023-4160-9061-39fa556cf25c","system_id":"levelo_inurba_marseille","lat":43.30316,"lon":5.40436,"is_reserved":false,"is_disabled":true,"rental_uris":{"android":"levelo://app?vid=fd7cd6eb-8023-4160-9061-39fa556cf25c","ios":"levelo://app?vid=fd7cd6eb-8023-4160-9061-39fa556cf25c"},"vehicle_type_id":"4","last_reported":1739279848,"current_range_meters":28400,"station_id":"ce4bh012rcd13ifvqd10","pricing_plan_id":"cebpf4jnsgd1na2vs0mg"},{"bike_id":"a42ba881-2f8e-46fb-b945-3ec298fb1b87","system_id":"levelo_inurba_marseille","lat":43.28857,"lon":5.39353,"is_reserved":false,"is_disabled":false,"rental_uris":{"android":"levelo://app?vid=a42ba881-2f8e-46fb-b945-3ec298fb1b87","ios":"levelo://app?vid=a42ba881-2f8e-46fb-b945-3ec298fb1b87"},"vehicle_type_id":"4","last_reported":1739279848,"current_range_meters":38000,"station_id":"ce4bh2p2rcd13ifvqdi0","pricing_plan_id":"cebpf4jnsgd1na2vs0mg"},{"bike_id":"d32849cf-4c14-4032-9063-172d06d3f04f","system_id":"levelo_inurba_marseille","lat":43.23188,"lon":5.3555,"is_reserved":false,"is_disabled":false,"rental_uris":{"android":"levelo://app?vid=d32849cf-4c14-4032-9063-172d06d3f04f","ios":"levelo://app?vid=d32849cf-4c14-4032-9063-172d06d3f04f"},"vehicle_type_id":"4","last_reported":1739279848,"current_range_meters":35200,"station_id":"ce4bhu92rcd13ifvqi70","pricing_plan_id":"cebpf4jnsgd1na2vs0mg"},{"bike_id":"38c676ae-1841-4003-b85a-9ec5d0cad1e7","system_id":"levelo_inurba_marseille","lat":43.25708,"lon":5.411,"is_reserved":false,"is_disabled":false,"rental_uris":{"android":"levelo://app?vid=38c676ae-1841-4003-b85a-9ec5d0cad1e7","ios":"levelo://app?vid=38c676ae-1841-4003-b85a-9ec5d0cad1e7"},"vehicle_type_id":"4","last_reported":1739279848,"current_range_meters":38400,"station_id":"ce4bhkp2rcd13ifvqgd0","pricing_plan_id":"cebpf4jnsgd1na2vs0mg"},{"bike_id":"09a31e22-31a3-4a8b-a8f3-c6b84a9cc357","system_id":"levelo_inurba_marseille","lat":43.27556,"lon":5.38418,"is_reserved":false,"is_disabled":false,"rental_uris":{"android":"levelo://app?vid=09a31e22-31a3-4a8b-a8f3-c6b84a9cc357","ios":"levelo://app?vid=09a31e22-31a3-4a8b-a8f3-c6b84a9cc357"},"vehicle_type_id":"4","last_reported":1739279848,"current_range_meters":27600,"station_id":"ce4bhh92rcd13ifvqfi0","pricing_plan_id":"cebpf4jnsgd1na2vs0mg"},{"bike_id":"b7cfafc0-fba3-47fa-8c3d-d96c6bee1f7a","system_id":"levelo_inurba_marseille","lat":43.24393,"lon":5.37064,"is_reserved":false,"is_disabled":false,"rental_uris":{"android":"levelo://app?vid=b7cfafc0-fba3-47fa-8c3d-d96c6bee1f7a","ios":"levelo://app?vid=b7cfafc0-fba3-47fa-8c3d-d96c6bee1f7a"},"vehicle_type_id":"4","last_reported":1739279848,"current_range_meters":33600,"station_id":"ce4bhhh2rcd13ifvqfk0","pricing_plan_id":"cebpf4jnsgd1na2vs0mg"},{"bike_id":"9ba133ba-7b58-4607-8737-7fb5bce66e58","system_id":"levelo_inurba_marseille","lat":43.24391,"lon":5.37059,"is_reserved":false,"is_disabled":false,"rental_uris":{"android":"levelo://app?vid=9ba133ba-7b58-4607-8737-7fb5bce66e58","ios":"levelo://app?vid=9ba133ba-7b58-4607-8737-7fb5bce66e58"},"vehicle_type_id":"4","last_reported":1739279848,"current_range_meters":38800,"station_id":"ce4bhhh2rcd13ifvqfk0","pricing_plan_id":"cebpf4jnsgd1na2vs0mg"},{"bike_id":"ecdfe505-0b95-40f1-b982-8e170cccca5d","system_id":"levelo_inurba_marseille","lat":43.32651,"lon":5.40996,"is_reserved":false,"is_disabled":false,"rental_uris":{"android":"levelo://app?vid=ecdfe505-0b95-40f1-b982-8e170cccca5d","ios":"levelo://app?vid=ecdfe505-0b95-40f1-b982-8e170cccca5d"},"vehicle_type_id":"4","last_reported":1739279848,"current_range_meters":29600,"station_id":"ce4bhpp2rcd13ifvqhgg","pricing_plan_id":"cebpf4jnsgd1na2vs0mg"},{"bike_id":"8008ff65-2546-4a6c-be32-725bd4baf944","system_id":"levelo_inurba_marseille","lat":43.27361,"lon":5.36245,"is_reserved":false,"is_disabled":false,"rental_uris":{"android":"levelo://app?vid=8008ff65-2546-4a6c-be32-725bd4baf944","ios":"levelo://app?vid=8008ff65-2546-4a6c-be32-725bd4baf944"},"vehicle_type_id":"4","last_reported":1739279848,"current_range_meters":38800,"station_id":"ce4bhbh2rcd13ifvqeo0","pricing_plan_id":"cebpf4jnsgd1na2vs0mg"},{"bike_id":"de251e58-f443-4138-ba16-d0ddc1c92875","system_id":"levelo_inurba_marseille","lat":43.23198,"lon":5.3556,"is_reserved":false,"is_disabled":false,"rental_uris":{"android":"levelo://app?vid=de251e58-f443-4138-ba16-d0ddc1c92875","ios":"levelo://app?vid=de251e58-f443-4138-ba16-d0ddc1c92875"},"vehicle_type_id":"4","last_reported":1739279848,"current_range_meters":9200,"station_id":"ce4bhu92rcd13ifvqi70","pricing_plan_id":"cebpf4jnsgd1na2vs0mg"},{"bike_id":"14b2070b-6ddc-42e3-b1e8-9c0cbc081f72","system_id":"levelo_inurba_marseille","lat":43.33737,"lon":5.39162,"is_reserved":false,"is_disabled":false,"rental_uris":{"android":"levelo://app?vid=14b2070b-6ddc-42e3-b1e8-9c0cbc081f72","ios":"levelo://app?vid=14b2070b-6ddc-42e3-b1e8-9c0cbc081f72"},"vehicle_type_id":"4","last_reported":1739279848,"current_range_meters":38000,"station_id":"ce4bhr92rcd13ifvqhsg","pricing_plan_id":"cebpf4jnsgd1na2vs0mg"},{"bike_id":"b77c7e50-06df-4ffc-a729-93e9447b5157","system_id":"levelo_inurba_marseille","lat":43.29545,"lon":5.385523,"is_reserved":false,"is_disabled":false,"rental_uris":{"android":"levelo://app?vid=b77c7e50-06df-4ffc-a729-93e9447b5157","ios":"levelo://app?vid=b77c7e50-06df-4ffc-a729-93e9447b5157"},"vehicle_type_id":"4","last_reported":1739279848,"current_range_meters":35600,"station_id":"ce4bgih2rcd13ifvqba0","pricing_plan_id":"cebpf4jnsgd1na2vs0mg"},{"bike_id":"3ad78980-d954-4439-b88d-56e0dcfe7b89","system_id":"levelo_inurba_marseille","lat":43.23964,"lon":5.36642,"is_reserved":false,"is_disabled":false,"rental_uris":{"android":"levelo://app?vid=3ad78980-d954-4439-b88d-56e0dcfe7b89","ios":"levelo://app?vid=3ad78980-d954-4439-b88d-56e0dcfe7b89"},"vehicle_type_id":"4","last_reported":1739279848,"current_range_meters":9600,"station_id":"ce4bhi12rcd13ifvqfp0","pricing_plan_id":"cebpf4jnsgd1na2vs0mg"},{"bike_id":"f654d2d3-817a-4c55-8ebd-8025694bc89f","system_id":"levelo_inurba_marseille","lat":43.30159,"lon":5.3809,"is_reserved":false,"is_disabled":false,"rental_uris":{"android":"levelo://app?vid=f654d2d3-817a-4c55-8ebd-8025694bc89f","ios":"levelo://app?vid=f654d2d3-817a-4c55-8ebd-8025694bc89f"},"vehicle_type_id":"4","last_reported":1739279848,"current_range_meters":27200,"station_id":"ce4bgjp2rcd13ifvqbh0","pricing_plan_id":"cebpf4jnsgd1na2vs0mg"},{"bike_id":"db8b58be-191d-4164-b428-bcfd2534e69f","system_id":"levelo_inurba_marseille","lat":43.29055,"lon":5.35915,"is_reserved":false,"is_disabled":false,"rental_uris":{"android":"levelo://app?vid=db8b58be-191d-4164-b428-bcfd2534e69f","ios":"levelo://app?vid=db8b58be-191d-4164-b428-bcfd2534e69f"},"vehicle_type_id":"4","last_reported":1739279848,"current_range_meters":36400,"station_id":"ce4bha92rcd13ifvqeg0","pricing_plan_id":"cebpf4jnsgd1na2vs0mg"},{"bike_id":"80add0e5-578d-4fa0-bbf3-9381574c8b08","system_id":"levelo_inurba_marseille","lat":43.29026,"lon":5.37567,"is_reserved":false,"is_disabled":false,"rental_uris":{"android":"levelo://app?vid=80add0e5-578d-4fa0-bbf3-9381574c8b08","ios":"levelo://app?vid=80add0e5-578d-4fa0-bbf3-9381574c8b08"},"vehicle_type_id":"4","last_reported":1739279848,"current_range_meters":25200,"station_id":"ce4bh692rcd13ifvqe90","pricing_plan_id":"cebpf4jnsgd1na2vs0mg"},{"bike_id":"98048d63-f49f-4c3f-8003-cce2d5b9b33d","system_id":"levelo_inurba_marseille","lat":43.30917,"lon":5.36856,"is_reserved":false,"is_disabled":false,"rental_uris":{"android":"levelo://app?vid=98048d63-f49f-4c3f-8003-cce2d5b9b33d","ios":"levelo://app?vid=98048d63-f49f-4c3f-8003-cce2d5b9b33d"},"vehicle_type_id":"4","last_reported":1739279848,"current_range_meters":32000,"station_id":"ce4bgn92rcd13ifvqbvg","pricing_plan_id":"cebpf4jnsgd1na2vs0mg"},{"bike_id":"b507b4d5-abc0-4e38-97c9-745526e1e06d","system_id":"levelo_inurba_marseille","lat":43.27316,"lon":5.39094,"is_reserved":false,"is_disabled":false,"rental_uris":{"android":"levelo://app?vid=b507b4d5-abc0-4e38-97c9-745526e1e06d","ios":"levelo://app?vid=b507b4d5-abc0-4e38-97c9-745526e1e06d"},"vehicle_type_id":"4","last_reported":1739279848,"current_range_meters":14000,"station_id":"ce4bhgp2rcd13ifvqfe0","pricing_plan_id":"cebpf4jnsgd1na2vs0mg"},{"bike_id":"2f9fa20d-f7ac-4209-b2dc-c07725e33917","system_id":"levelo_inurba_marseille","lat":43.31702,"lon":5.37787,"is_reserved":false,"is_disabled":false,"rental_uris":{"android":"levelo://app?vid=2f9fa20d-f7ac-4209-b2dc-c07725e33917","ios":"levelo://app?vid=2f9fa20d-f7ac-4209-b2dc-c07725e33917"},"vehicle_type_id":"4","last_reported":1739279848,"current_range_meters":39200,"station_id":"ce4bgth2rcd13ifvqch0","pricing_plan_id":"cebpf4jnsgd1na2vs0mg"},{"bike_id":"22d74d04-1961-4f7f-92af-3cd3da99f40b","system_id":"levelo_inurba_marseille","lat":43.29602,"lon":5.381,"is_reserved":false,"is_disabled":false,"rental_uris":{"android":"levelo://app?vid=22d74d04-1961-4f7f-92af-3cd3da99f40b","ios":"levelo://app?vid=22d74d04-1961-4f7f-92af-3cd3da99f40b"},"vehicle_type_id":"4","last_reported":1739279848,"current_range_meters":24800,"station_id":"ce4bgl12rcd13ifvqbo0","pricing_plan_id":"cebpf4jnsgd1na2vs0mg"},{"bike_id":"a59b1799-366c-4f90-b175-fea2f17ac49c","system_id":"levelo_inurba_marseille","lat":43.3062,"lon":5.36655,"is_reserved":false,"is_disabled":false,"rental_uris":{"android":"levelo://app?vid=a59b1799-366c-4f90-b175-fea2f17ac49c","ios":"levelo://app?vid=a59b1799-366c-4f90-b175-fea2f17ac49c"},"vehicle_type_id":"4","last_reported":1739279848,"current_range_meters":36400,"station_id":"ce4bgs12rcd13ifvqcag","pricing_plan_id":"cebpf4jnsgd1na2vs0mg"},{"bike_id":"201b14f4-65c7-45ff-8010-fe136e6675ac","system_id":"levelo_inurba_marseille","lat":43.24163,"lon":5.39719,"is_reserved":false,"is_disabled":false,"rental_uris":{"android":"levelo://app?vid=201b14f4-65c7-45ff-8010-fe136e6675ac","ios":"levelo://app?vid=201b14f4-65c7-45ff-8010-fe136e6675ac"},"vehicle_type_id":"4","last_reported":1739279848,"current_range_meters":25600,"station_id":"ce4bhn12rcd13ifvqgpg","pricing_plan_id":"cebpf4jnsgd1na2vs0mg"},{"bike_id":"9207b0f3-9707-4707-b4f6-b2339a5ec8ff","system_id":"levelo_inurba_marseille","lat":43.28162,"lon":5.42656,"is_reserved":false,"is_disabled":false,"rental_uris":{"android":"levelo://app?vid=9207b0f3-9707-4707-b4f6-b2339a5ec8ff","ios":"levelo://app?vid=9207b0f3-9707-4707-b4f6-b2339a5ec8ff"},"vehicle_type_id":"4","last_reported":1739279848,"current_range_meters":36400,"station_id":"ce4bhnh2rcd13ifvqgug","pricing_plan_id":"cebpf4jnsgd1na2vs0mg"},{"bike_id":"8e1e0f28-c56b-406c-8b35-b22f9b1b11e2","system_id":"levelo_inurba_marseille","lat":43.2885,"lon":5.39315,"is_reserved":false,"is_disabled":false,"rental_uris":{"android":"levelo://app?vid=8e1e0f28-c56b-406c-8b35-b22f9b1b11e2","ios":"levelo://app?vid=8e1e0f28-c56b-406c-8b35-b22f9b1b11e2"},"vehicle_type_id":"4","last_reported":1739279848,"current_range_meters":8800,"station_id":"ce4bh2p2rcd13ifvqdi0","pricing_plan_id":"cebpf4jnsgd1na2vs0mg"},{"bike_id":"56533ae9-01e0-4fbd-a2eb-8ec6e6269a75","system_id":"levelo_inurba_marseille","lat":43.27029,"lon":5.40263,"is_reserved":false,"is_disabled":false,"rental_uris":{"android":"levelo://app?vid=56533ae9-01e0-4fbd-a2eb-8ec6e6269a75","ios":"levelo://app?vid=56533ae9-01e0-4fbd-a2eb-8ec6e6269a75"},"vehicle_type_id":"4","last_reported":1739279848,"current_range_meters":26000,"station_id":"ce4bhk92rcd13ifvqgc0","pricing_plan_id":"cebpf4jnsgd1na2vs0mg"},{"bike_id":"4044c475-d5ce-4138-885c-26c9aabe4961","system_id":"levelo_inurba_marseille","lat":43.29788,"lon":5.38091,"is_reserved":false,"is_disabled":false,"rental_uris":{"android":"levelo://app?vid=4044c475-d5ce-4138-885c-26c9aabe4961","ios":"levelo://app?vid=4044c475-d5ce-4138-885c-26c9aabe4961"},"vehicle_type_id":"4","last_reported":1739279848,"current_range_meters":36400,"station_id":"ce4bgip2rcd13ifvqbb0","pricing_plan_id":"cebpf4jnsgd1na2vs0mg"},{"bike_id":"ddbfc913-16cf-4d9f-a892-35d08e1e6767","system_id":"levelo_inurba_marseille","lat":43.29587,"lon":5.36753,"is_reserved":false,"is_disabled":false,"rental_uris":{"android":"levelo://app?vid=ddbfc913-16cf-4d9f-a892-35d08e1e6767","ios":"levelo://app?vid=ddbfc913-16cf-4d9f-a892-35d08e1e6767"},"vehicle_type_id":"4","last_reported":1739279848,"current_range_meters":16400,"station_id":"ce4bgph2rcd13ifvqc2g","pricing_plan_id":"cebpf4jnsgd1na2vs0mg"},{"bike_id":"a3d3e759-ab29-4062-a50c-3dba63550269","system_id":"levelo_inurba_marseille","lat":43.27371,"lon":5.3626,"is_reserved":false,"is_disabled":false,"rental_uris":{"android":"levelo://app?vid=a3d3e759-ab29-4062-a50c-3dba63550269","ios":"levelo://app?vid=a3d3e759-ab29-4062-a50c-3dba63550269"},"vehicle_type_id":"4","last_reported":1739279848,"current_range_meters":37600,"station_id":"ce4bhbh2rcd13ifvqeo0","pricing_plan_id":"cebpf4jnsgd1na2vs0mg"},{"bike_id":"2f9bd2bf-a185-422b-bd75-db406051386b","system_id":"levelo_inurba_marseille","lat":43.28458,"lon":5.38422,"is_reserved":false,"is_disabled":false,"rental_uris":{"android":"levelo://app?vid=2f9bd2bf-a185-422b-bd75-db406051386b","ios":"levelo://app?vid=2f9bd2bf-a185-422b-bd75-db406051386b"},"vehicle_type_id":"4","last_reported":1739279848,"current_range_meters":38800,"station_id":"ce4bh512rcd13ifvqe3g","pricing_plan_id":"cebpf4jnsgd1na2vs0mg"},{"bike_id":"d718e3db-d027-494c-bf5e-deb6a7b98077","system_id":"levelo_inurba_marseille","lat":43.30917,"lon":5.36857,"is_reserved":false,"is_disabled":false,"rental_uris":{"android":"levelo://app?vid=d718e3db-d027-494c-bf5e-deb6a7b98077","ios":"levelo://app?vid=d718e3db-d027-494c-bf5e-deb6a7b98077"},"vehicle_type_id":"4","last_reported":1739279848,"current_range_meters":9600,"station_id":"ce4bgn92rcd13ifvqbvg","pricing_plan_id":"cebpf4jnsgd1na2vs0mg"},{"bike_id":"c2250f20-2283-4e17-b7ce-382f2f740aa1","system_id":"levelo_inurba_marseille","lat":43.24792,"lon":5.37436,"is_reserved":false,"is_disabled":false,"rental_uris":{"android":"levelo://app?vid=c2250f20-2283-4e17-b7ce-382f2f740aa1","ios":"levelo://app?vid=c2250f20-2283-4e17-b7ce-382f2f740aa1"},"vehicle_type_id":"4","last_reported":1739279848,"current_range_meters":39200,"station_id":"ce4bhgh2rcd13ifvqfb0","pricing_plan_id":"cebpf4jnsgd1na2vs0mg"},{"bike_id":"3a01bbb1-684c-4e4c-b05b-7e07b6a17705","system_id":"levelo_inurba_marseille","lat":43.28476,"lon":5.38559,"is_reserved":false,"is_disabled":false,"rental_uris":{"android":"levelo://app?vid=3a01bbb1-684c-4e4c-b05b-7e07b6a17705","ios":"levelo://app?vid=3a01bbb1-684c-4e4c-b05b-7e07b6a17705"},"vehicle_type_id":"4","last_reported":1739279848,"current_range_meters":38800,"station_id":"ce4bh8p2rcd13ifvqeb0","pricing_plan_id":"cebpf4jnsgd1na2vs0mg"},{"bike_id":"a7553041-8337-41cf-859f-54b65f7556fc","system_id":"levelo_inurba_marseille","lat":43.26795,"lon":5.40251,"is_reserved":false,"is_disabled":false,"rental_uris":{"android":"levelo://app?vid=a7553041-8337-41cf-859f-54b65f7556fc","ios":"levelo://app?vid=a7553041-8337-41cf-859f-54b65f7556fc"},"vehicle_type_id":"4","last_reported":1739279848,"current_range_meters":28400,"station_id":"ce501612rcd8frsf0b60","pricing_plan_id":"cebpf4jnsgd1na2vs0mg"},{"bike_id":"b02787c6-1773-463a-b894-5d28034066fe","system_id":"levelo_inurba_marseille","lat":43.27435,"lon":5.3943,"is_reserved":false,"is_disabled":false,"rental_uris":{"android":"levelo://app?vid=b02787c6-1773-463a-b894-5d28034066fe","ios":"levelo://app?vid=b02787c6-1773-463a-b894-5d28034066fe"},"vehicle_type_id":"4","last_reported":1739279848,"current_range_meters":39200,"station_id":"ce4bhdp2rcd13ifvqf20","pricing_plan_id":"cebpf4jnsgd1na2vs0mg"},{"bike_id":"3a46e6af-4441-4eb5-9ea7-9d3a275672cd","system_id":"levelo_inurba_marseille","lat":43.27664,"lon":5.38886,"is_reserved":false,"is_disabled":false,"rental_uris":{"android":"levelo://app?vid=3a46e6af-4441-4eb5-9ea7-9d3a275672cd","ios":"levelo://app?vid=3a46e6af-4441-4eb5-9ea7-9d3a275672cd"},"vehicle_type_id":"4","last_reported":1739279848,"current_range_meters":38000,"station_id":"ce4bhi12rcd13ifvqfo0","pricing_plan_id":"cebpf4jnsgd1na2vs0mg"},{"bike_id":"441756a0-4bd6-444f-844a-706673d06d5d","system_id":"levelo_inurba_marseille","lat":43.28136,"lon":5.39843,"is_reserved":false,"is_disabled":false,"rental_uris":{"android":"levelo://app?vid=441756a0-4bd6-444f-844a-706673d06d5d","ios":"levelo://app?vid=441756a0-4bd6-444f-844a-706673d06d5d"},"vehicle_type_id":"4","last_reported":1739279848,"current_range_meters":8800,"station_id":"","pricing_plan_id":"cebpf4jnsgd1na2vs0mg"},{"bike_id":"17f93049-824d-4858-baba-35715db42193","system_id":"levelo_inurba_marseille","lat":43.30472,"lon":5.37912,"is_reserved":false,"is_disabled":false,"rental_uris":{"android":"levelo://app?vid=17f93049-824d-4858-baba-35715db42193","ios":"levelo://app?vid=17f93049-824d-4858-baba-35715db42193"},"vehicle_type_id":"4","last_reported":1739279848,"current_range_meters":17200,"station_id":"ce4bgup2rcd13ifvqcn0","pricing_plan_id":"cebpf4jnsgd1na2vs0mg"},{"bike_id":"f85fd452-5bde-4296-ab83-dac7111c9b77","system_id":"levelo_inurba_marseille","lat":43.32537,"lon":5.41425,"is_reserved":false,"is_disabled":false,"rental_uris":{"android":"levelo://app?vid=f85fd452-5bde-4296-ab83-dac7111c9b77","ios":"levelo://app?vid=f85fd452-5bde-4296-ab83-dac7111c9b77"},"vehicle_type_id":"4","last_reported":1739279848,"current_range_meters":38000,"station_id":"ce4bhq12rcd13ifvqhhg","pricing_plan_id":"cebpf4jnsgd1na2vs0mg"},{"bike_id":"5ed462ca-5484-4187-94ca-ad667fc288b6","system_id":"levelo_inurba_marseille","lat":43.30272,"lon":5.40066,"is_reserved":false,"is_disabled":false,"rental_uris":{"android":"levelo://app?vid=5ed462ca-5484-4187-94ca-ad667fc288b6","ios":"levelo://app?vid=5ed462ca-5484-4187-94ca-ad667fc288b6"},"vehicle_type_id":"4","last_reported":1739279848,"current_range_meters":21600,"station_id":"ce4bgvh2rcd13ifvqcs0","pricing_plan_id":"cebpf4jnsgd1na2vs0mg"},{"bike_id":"bd8af203-772b-458c-bcf0-dcfd44b2f594","system_id":"levelo_inurba_marseille","lat":43.25581,"lon":5.38237,"is_reserved":false,"is_disabled":false,"rental_uris":{"android":"levelo://app?vid=bd8af203-772b-458c-bcf0-dcfd44b2f594","ios":"levelo://app?vid=bd8af203-772b-458c-bcf0-dcfd44b2f594"},"vehicle_type_id":"4","last_reported":1739279848,"current_range_meters":21600,"station_id":"ce4bhih2rcd13ifvqfs0","pricing_plan_id":"cebpf4jnsgd1na2vs0mg"},{"bike_id":"067ba3d4-945d-46bd-acfd-e8487ec8718d","system_id":"levelo_inurba_marseille","lat":43.28932,"lon":5.36389,"is_reserved":false,"is_disabled":false,"rental_uris":{"android":"levelo://app?vid=067ba3d4-945d-46bd-acfd-e8487ec8718d","ios":"levelo://app?vid=067ba3d4-945d-46bd-acfd-e8487ec8718d"},"vehicle_type_id":"4","last_reported":1739279848,"current_range_meters":30800,"station_id":"ce4bhc92rcd13ifvqetg","pricing_plan_id":"cebpf4jnsgd1na2vs0mg"},{"bike_id":"39519f5b-272a-429f-ba9f-e8cf270820e0","system_id":"levelo_inurba_marseille","lat":43.31324,"lon":5.39694,"is_reserved":false,"is_disabled":false,"rental_uris":{"android":"levelo://app?vid=39519f5b-272a-429f-ba9f-e8cf270820e0","ios":"levelo://app?vid=39519f5b-272a-429f-ba9f-e8cf270820e0"},"vehicle_type_id":"4","last_reported":1739279848,"current_range_meters":38800,"station_id":"ce4bgvp2rcd13ifvqcu0","pricing_plan_id":"cebpf4jnsgd1na2vs0mg"},{"bike_id":"4345084b-b3cf-40da-a4d8-e7555f59c79d","system_id":"levelo_inurba_marseille","lat":43.3044,"lon":5.38895,"is_reserved":false,"is_disabled":false,"rental_uris":{"android":"levelo://app?vid=4345084b-b3cf-40da-a4d8-e7555f59c79d","ios":"levelo://app?vid=4345084b-b3cf-40da-a4d8-e7555f59c79d"},"vehicle_type_id":"4","last_reported":1739279848,"current_range_meters":23200,"station_id":"ce4bgk12rcd13ifvqbi0","pricing_plan_id":"cebpf4jnsgd1na2vs0mg"},{"bike_id":"b393cac2-0380-439e-8dbe-90b874c04f41","system_id":"levelo_inurba_marseille","lat":43.2766,"lon":5.38862,"is_reserved":false,"is_disabled":false,"rental_uris":{"android":"levelo://app?vid=b393cac2-0380-439e-8dbe-90b874c04f41","ios":"levelo://app?vid=b393cac2-0380-439e-8dbe-90b874c04f41"},"vehicle_type_id":"4","last_reported":1739279848,"current_range_meters":16400,"station_id":"ce4bhi12rcd13ifvqfo0","pricing_plan_id":"cebpf4jnsgd1na2vs0mg"},{"bike_id":"ac3db915-85ff-460a-b948-c32ecd7db728","system_id":"levelo_inurba_marseille","lat":43.30206,"lon":5.3809,"is_reserved":false,"is_disabled":false,"rental_uris":{"android":"levelo://app?vid=ac3db915-85ff-460a-b948-c32ecd7db728","ios":"levelo://app?vid=ac3db915-85ff-460a-b948-c32ecd7db728"},"vehicle_type_id":"4","last_reported":1739279848,"current_range_meters":38400,"station_id":"","pricing_plan_id":"cebpf4jnsgd1na2vs0mg"},{"bike_id":"29da08aa-d631-4732-ad37-1e1d9d8e3c6c","system_id":"levelo_inurba_marseille","lat":43.29939,"lon":5.36531,"is_reserved":false,"is_disabled":true,"rental_uris":{"android":"levelo://app?vid=29da08aa-d631-4732-ad37-1e1d9d8e3c6c","ios":"levelo://app?vid=29da08aa-d631-4732-ad37-1e1d9d8e3c6c"},"vehicle_type_id":"4","last_reported":1739279848,"current_range_meters":0,"station_id":"ce4bgm92rcd13ifvqbr0","pricing_plan_id":"cebpf4jnsgd1na2vs0mg"},{"bike_id":"1d2000e3-6e82-4c8d-9a0a-5d8181e36eb3","system_id":"levelo_inurba_marseille","lat":43.25021,"lon":5.38921,"is_reserved":false,"is_disabled":false,"rental_uris":{"android":"levelo://app?vid=1d2000e3-6e82-4c8d-9a0a-5d8181e36eb3","ios":"levelo://app?vid=1d2000e3-6e82-4c8d-9a0a-5d8181e36eb3"},"vehicle_type_id":"4","last_reported":1739279848,"current_range_meters":38800,"station_id":"ce4bhgp2rcd13ifvqfd0","pricing_plan_id":"cebpf4jnsgd1na2vs0mg"},{"bike_id":"e751fec8-ce90-4689-8321-cb99c419f236","system_id":"levelo_inurba_marseille","lat":43.30314,"lon":5.36912,"is_reserved":false,"is_disabled":false,"rental_uris":{"android":"levelo://app?vid=e751fec8-ce90-4689-8321-cb99c419f236","ios":"levelo://app?vid=e751fec8-ce90-4689-8321-cb99c419f236"},"vehicle_type_id":"4","last_reported":1739279848,"current_range_meters":38800,"station_id":"ce4bgqh2rcd13ifvqc5g","pricing_plan_id":"cebpf4jnsgd1na2vs0mg"},{"bike_id":"1ecb6694-20ff-4bc8-ac28-3228262fb33f","system_id":"levelo_inurba_marseille","lat":43.24076,"lon":5.37758,"is_reserved":false,"is_disabled":false,"rental_uris":{"android":"levelo://app?vid=1ecb6694-20ff-4bc8-ac28-3228262fb33f","ios":"levelo://app?vid=1ecb6694-20ff-4bc8-ac28-3228262fb33f"},"vehicle_type_id":"4","last_reported":1739279848,"current_range_meters":37600,"station_id":"ce4bhnp2rcd13ifvqgvg","pricing_plan_id":"cebpf4jnsgd1na2vs0mg"},{"bike_id":"e673b253-bd7c-45ce-a06f-ff88a62a7e4e","system_id":"levelo_inurba_marseille","lat":43.301617,"lon":5.380911,"is_reserved":false,"is_disabled":false,"rental_uris":{"android":"levelo://app?vid=e673b253-bd7c-45ce-a06f-ff88a62a7e4e","ios":"levelo://app?vid=e673b253-bd7c-45ce-a06f-ff88a62a7e4e"},"vehicle_type_id":"4","last_reported":1739279848,"current_range_meters":38800,"station_id":"ce4bgjp2rcd13ifvqbh0","pricing_plan_id":"cebpf4jnsgd1na2vs0mg"},{"bike_id":"114230f1-fda9-4a9e-962b-4f7a3ae198a2","system_id":"levelo_inurba_marseille","lat":43.27418,"lon":5.39421,"is_reserved":false,"is_disabled":false,"rental_uris":{"android":"levelo://app?vid=114230f1-fda9-4a9e-962b-4f7a3ae198a2","ios":"levelo://app?vid=114230f1-fda9-4a9e-962b-4f7a3ae198a2"},"vehicle_type_id":"4","last_reported":1739279848,"current_range_meters":39200,"station_id":"ce4bhdp2rcd13ifvqf20","pricing_plan_id":"cebpf4jnsgd1na2vs0mg"},{"bike_id":"a76c7d73-686f-4a71-a421-b010005502c6","system_id":"levelo_inurba_marseille","lat":43.29888,"lon":5.38144,"is_reserved":false,"is_disabled":false,"rental_uris":{"android":"levelo://app?vid=a76c7d73-686f-4a71-a421-b010005502c6","ios":"levelo://app?vid=a76c7d73-686f-4a71-a421-b010005502c6"},"vehicle_type_id":"4","last_reported":1739279848,"current_range_meters":30800,"station_id":"ce4bgj12rcd13ifvqbc0","pricing_plan_id":"cebpf4jnsgd1na2vs0mg"},{"bike_id":"9ea74c1b-ab27-4bdb-912c-be6a1d1f78f5","system_id":"levelo_inurba_marseille","lat":43.29032,"lon":5.39965,"is_reserved":false,"is_disabled":false,"rental_uris":{"android":"levelo://app?vid=9ea74c1b-ab27-4bdb-912c-be6a1d1f78f5","ios":"levelo://app?vid=9ea74c1b-ab27-4bdb-912c-be6a1d1f78f5"},"vehicle_type_id":"4","last_reported":1739279848,"current_range_meters":39200,"station_id":"ce4bh392rcd13ifvqdm0","pricing_plan_id":"cebpf4jnsgd1na2vs0mg"},{"bike_id":"8f958795-1d0e-4a72-96cf-46fac3cf00bf","system_id":"levelo_inurba_marseille","lat":43.25514,"lon":5.39416,"is_reserved":false,"is_disabled":false,"rental_uris":{"android":"levelo://app?vid=8f958795-1d0e-4a72-96cf-46fac3cf00bf","ios":"levelo://app?vid=8f958795-1d0e-4a72-96cf-46fac3cf00bf"},"vehicle_type_id":"4","last_reported":1739279848,"current_range_meters":28000,"station_id":"","pricing_plan_id":"cebpf4jnsgd1na2vs0mg"},{"bike_id":"6eb6fb30-73bf-4c49-8756-98542290164f","system_id":"levelo_inurba_marseille","lat":43.27679,"lon":5.38924,"is_reserved":false,"is_disabled":false,"rental_uris":{"android":"levelo://app?vid=6eb6fb30-73bf-4c49-8756-98542290164f","ios":"levelo://app?vid=6eb6fb30-73bf-4c49-8756-98542290164f"},"vehicle_type_id":"4","last_reported":1739279848,"current_range_meters":12400,"station_id":"ce4bhi12rcd13ifvqfo0","pricing_plan_id":"cebpf4jnsgd1na2vs0mg"},{"bike_id":"1c79f670-fe1b-4cc2-81f9-16f2c2b2a051","system_id":"levelo_inurba_marseille","lat":43.26202,"lon":5.37928,"is_reserved":false,"is_disabled":false,"rental_uris":{"android":"levelo://app?vid=1c79f670-fe1b-4cc2-81f9-16f2c2b2a051","ios":"levelo://app?vid=1c79f670-fe1b-4cc2-81f9-16f2c2b2a051"},"vehicle_type_id":"4","last_reported":1739279848,"current_range_meters":5600,"station_id":"ce4bhjp2rcd13ifvqg90","pricing_plan_id":"cebpf4jnsgd1na2vs0mg"},{"bike_id":"04d4b8ab-1d4d-44ab-9d49-e10f569c0553","system_id":"levelo_inurba_marseille","lat":43.29816,"lon":5.36215,"is_reserved":false,"is_disabled":false,"rental_uris":{"android":"levelo://app?vid=04d4b8ab-1d4d-44ab-9d49-e10f569c0553","ios":"levelo://app?vid=04d4b8ab-1d4d-44ab-9d49-e10f569c0553"},"vehicle_type_id":"4","last_reported":1739279848,"current_range_meters":38800,"station_id":"ce4bgpp2rcd13ifvqc3g","pricing_plan_id":"cebpf4jnsgd1na2vs0mg"},{"bike_id":"1aa20f28-8d10-4408-8fc5-fd6e535e6f55","system_id":"levelo_inurba_marseille","lat":43.308,"lon":5.43523,"is_reserved":false,"is_disabled":false,"rental_uris":{"android":"levelo://app?vid=1aa20f28-8d10-4408-8fc5-fd6e535e6f55","ios":"levelo://app?vid=1aa20f28-8d10-4408-8fc5-fd6e535e6f55"},"vehicle_type_id":"4","last_reported":1739279848,"current_range_meters":22000,"station_id":"ce4bhph2rcd13ifvqheg","pricing_plan_id":"cebpf4jnsgd1na2vs0mg"},{"bike_id":"c45f9736-f76b-4736-bb35-6ea7285877a3","system_id":"levelo_inurba_marseille","lat":43.25696,"lon":5.41115,"is_reserved":false,"is_disabled":false,"rental_uris":{"android":"levelo://app?vid=c45f9736-f76b-4736-bb35-6ea7285877a3","ios":"levelo://app?vid=c45f9736-f76b-4736-bb35-6ea7285877a3"},"vehicle_type_id":"4","last_reported":1739279848,"current_range_meters":38800,"station_id":"ce4bhkp2rcd13ifvqgd0","pricing_plan_id":"cebpf4jnsgd1na2vs0mg"},{"bike_id":"b965b493-8ca8-44e5-a19e-6ca9c8cd5cf0","system_id":"levelo_inurba_marseille","lat":43.26804,"lon":5.40255,"is_reserved":false,"is_disabled":false,"rental_uris":{"android":"levelo://app?vid=b965b493-8ca8-44e5-a19e-6ca9c8cd5cf0","ios":"levelo://app?vid=b965b493-8ca8-44e5-a19e-6ca9c8cd5cf0"},"vehicle_type_id":"4","last_reported":1739279848,"current_range_meters":38800,"station_id":"ce501612rcd8frsf0b60","pricing_plan_id":"cebpf4jnsgd1na2vs0mg"},{"bike_id":"43f04ac6-ceb2-4485-a3ec-1eb06afcdf11","system_id":"levelo_inurba_marseille","lat":43.34155,"lon":5.40899,"is_reserved":false,"is_disabled":false,"rental_uris":{"android":"levelo://app?vid=43f04ac6-ceb2-4485-a3ec-1eb06afcdf11","ios":"levelo://app?vid=43f04ac6-ceb2-4485-a3ec-1eb06afcdf11"},"vehicle_type_id":"4","last_reported":1739279848,"current_range_meters":32400,"station_id":"ce4bhqh2rcd13ifvqhlg","pricing_plan_id":"cebpf4jnsgd1na2vs0mg"},{"bike_id":"c4813b27-4250-43ea-8be5-ccd7321d2af3","system_id":"levelo_inurba_marseille","lat":43.28226,"lon":5.36987,"is_reserved":false,"is_disabled":false,"rental_uris":{"android":"levelo://app?vid=c4813b27-4250-43ea-8be5-ccd7321d2af3","ios":"levelo://app?vid=c4813b27-4250-43ea-8be5-ccd7321d2af3"},"vehicle_type_id":"4","last_reported":1739279848,"current_range_meters":22000,"station_id":"","pricing_plan_id":"cebpf4jnsgd1na2vs0mg"},{"bike_id":"93bc07c8-c5e8-4508-b353-1c2773c131f8","system_id":"levelo_inurba_marseille","lat":43.33609,"lon":5.40994,"is_reserved":false,"is_disabled":false,"rental_uris":{"android":"levelo://app?vid=93bc07c8-c5e8-4508-b353-1c2773c131f8","ios":"levelo://app?vid=93bc07c8-c5e8-4508-b353-1c2773c131f8"},"vehicle_type_id":"4","last_reported":1739279848,"current_range_meters":39200,"station_id":"ce4bhqh2rcd13ifvqhmg","pricing_plan_id":"cebpf4jnsgd1na2vs0mg"},{"bike_id":"42f49824-5dbd-4245-b0ef-e9b83256b3c9","system_id":"levelo_inurba_marseille","lat":43.27964,"lon":5.41051,"is_reserved":false,"is_disabled":true,"rental_uris":{"android":"levelo://app?vid=42f49824-5dbd-4245-b0ef-e9b83256b3c9","ios":"levelo://app?vid=42f49824-5dbd-4245-b0ef-e9b83256b3c9"},"vehicle_type_id":"4","last_reported":1739279848,"current_range_meters":24000,"station_id":"ce4bhnp2rcd13ifvqh0g","pricing_plan_id":"cebpf4jnsgd1na2vs0mg"},{"bike_id":"5651dbd9-7919-4c59-8fd5-233950585563","system_id":"levelo_inurba_marseille","lat":43.29196,"lon":5.39313,"is_reserved":false,"is_disabled":false,"rental_uris":{"android":"levelo://app?vid=5651dbd9-7919-4c59-8fd5-233950585563","ios":"levelo://app?vid=5651dbd9-7919-4c59-8fd5-233950585563"},"vehicle_type_id":"4","last_reported":1739279848,"current_range_meters":12800,"station_id":"ce4bh192rcd13ifvqdd0","pricing_plan_id":"cebpf4jnsgd1na2vs0mg"},{"bike_id":"78f49bd4-6869-486b-9ffa-cb207074720d","system_id":"levelo_inurba_marseille","lat":43.29427,"lon":5.38633,"is_reserved":false,"is_disabled":false,"rental_uris":{"android":"levelo://app?vid=78f49bd4-6869-486b-9ffa-cb207074720d","ios":"levelo://app?vid=78f49bd4-6869-486b-9ffa-cb207074720d"},"vehicle_type_id":"4","last_reported":1739279848,"current_range_meters":17200,"station_id":"ce4bh2h2rcd13ifvqdh0","pricing_plan_id":"cebpf4jnsgd1na2vs0mg"},{"bike_id":"ee2423fb-0f0a-4ce5-b2e1-9b25d95103a3","system_id":"levelo_inurba_marseille","lat":43.3046,"lon":5.37899,"is_reserved":false,"is_disabled":true,"rental_uris":{"android":"levelo://app?vid=ee2423fb-0f0a-4ce5-b2e1-9b25d95103a3","ios":"levelo://app?vid=ee2423fb-0f0a-4ce5-b2e1-9b25d95103a3"},"vehicle_type_id":"4","last_reported":1739279848,"current_range_meters":23200,"station_id":"ce4bho92rcd13ifvqh3g","pricing_plan_id":"cebpf4jnsgd1na2vs0mg"},{"bike_id":"b67d0500-a2a9-480e-97b8-c0c618addbd3","system_id":"levelo_inurba_marseille","lat":43.33603,"lon":5.41015,"is_reserved":false,"is_disabled":false,"rental_uris":{"android":"levelo://app?vid=b67d0500-a2a9-480e-97b8-c0c618addbd3","ios":"levelo://app?vid=b67d0500-a2a9-480e-97b8-c0c618addbd3"},"vehicle_type_id":"4","last_reported":1739279848,"current_range_meters":22800,"station_id":"ce4bhqh2rcd13ifvqhmg","pricing_plan_id":"cebpf4jnsgd1na2vs0mg"},{"bike_id":"1112ea29-891b-4d9d-ae75-55b3895e2352","system_id":"levelo_inurba_marseille","lat":43.30088,"lon":5.39078,"is_reserved":false,"is_disabled":false,"rental_uris":{"android":"levelo://app?vid=1112ea29-891b-4d9d-ae75-55b3895e2352","ios":"levelo://app?vid=1112ea29-891b-4d9d-ae75-55b3895e2352"},"vehicle_type_id":"4","last_reported":1739279848,"current_range_meters":38800,"station_id":"ce4bh192rcd13ifvqdb0","pricing_plan_id":"cebpf4jnsgd1na2vs0mg"},{"bike_id":"e248b555-0cf9-4bc5-9401-e097b890f55e","system_id":"levelo_inurba_marseille","lat":43.28854,"lon":5.39312,"is_reserved":false,"is_disabled":false,"rental_uris":{"android":"levelo://app?vid=e248b555-0cf9-4bc5-9401-e097b890f55e","ios":"levelo://app?vid=e248b555-0cf9-4bc5-9401-e097b890f55e"},"vehicle_type_id":"4","last_reported":1739279848,"current_range_meters":35600,"station_id":"ce4bh2p2rcd13ifvqdi0","pricing_plan_id":"cebpf4jnsgd1na2vs0mg"},{"bike_id":"260e9838-2399-4eb1-b0ca-e79e7c0785e4","system_id":"levelo_inurba_marseille","lat":43.29826,"lon":5.36251,"is_reserved":false,"is_disabled":false,"rental_uris":{"android":"levelo://app?vid=260e9838-2399-4eb1-b0ca-e79e7c0785e4","ios":"levelo://app?vid=260e9838-2399-4eb1-b0ca-e79e7c0785e4"},"vehicle_type_id":"4","last_reported":1739279848,"current_range_meters":14800,"station_id":"ce4bgpp2rcd13ifvqc3g","pricing_plan_id":"cebpf4jnsgd1na2vs0mg"},{"bike_id":"1c6a7151-1bd6-44de-a259-d8e0a6ed2bd0","system_id":"levelo_inurba_marseille","lat":43.28458,"lon":5.35891,"is_reserved":false,"is_disabled":false,"rental_uris":{"android":"levelo://app?vid=1c6a7151-1bd6-44de-a259-d8e0a6ed2bd0","ios":"levelo://app?vid=1c6a7151-1bd6-44de-a259-d8e0a6ed2bd0"},"vehicle_type_id":"4","last_reported":1739279848,"current_range_meters":33600,"station_id":"ce4bhah2rcd13ifvqei0","pricing_plan_id":"cebpf4jnsgd1na2vs0mg"},{"bike_id":"841e0f04-b00a-44de-83b7-b9b92c40d93b","system_id":"levelo_inurba_marseille","lat":43.28185,"lon":5.42622,"is_reserved":false,"is_disabled":false,"rental_uris":{"android":"levelo://app?vid=841e0f04-b00a-44de-83b7-b9b92c40d93b","ios":"levelo://app?vid=841e0f04-b00a-44de-83b7-b9b92c40d93b"},"vehicle_type_id":"4","last_reported":1739279848,"current_range_meters":13600,"station_id":"ce4bhnh2rcd13ifvqgug","pricing_plan_id":"cebpf4jnsgd1na2vs0mg"},{"bike_id":"e18b3ea6-dbf2-4570-a530-097b6a661633","system_id":"levelo_inurba_marseille","lat":43.29714,"lon":5.37675,"is_reserved":false,"is_disabled":false,"rental_uris":{"android":"levelo://app?vid=e18b3ea6-dbf2-4570-a530-097b6a661633","ios":"levelo://app?vid=e18b3ea6-dbf2-4570-a530-097b6a661633"},"vehicle_type_id":"4","last_reported":1739279848,"current_range_meters":30000,"station_id":"ce4bgkh2rcd13ifvqbl0","pricing_plan_id":"cebpf4jnsgd1na2vs0mg"},{"bike_id":"30c0885a-ee3f-424b-8753-d2f0c1a6c3c4","system_id":"levelo_inurba_marseille","lat":43.317,"lon":5.37772,"is_reserved":false,"is_disabled":false,"rental_uris":{"android":"levelo://app?vid=30c0885a-ee3f-424b-8753-d2f0c1a6c3c4","ios":"levelo://app?vid=30c0885a-ee3f-424b-8753-d2f0c1a6c3c4"},"vehicle_type_id":"4","last_reported":1739279848,"current_range_meters":38800,"station_id":"ce4bgth2rcd13ifvqch0","pricing_plan_id":"cebpf4jnsgd1na2vs0mg"},{"bike_id":"d672dfd1-eb49-41bd-98e9-cf0079bce74f","system_id":"levelo_inurba_marseille","lat":43.31211,"lon":5.36855,"is_reserved":false,"is_disabled":false,"rental_uris":{"android":"levelo://app?vid=d672dfd1-eb49-41bd-98e9-cf0079bce74f","ios":"levelo://app?vid=d672dfd1-eb49-41bd-98e9-cf0079bce74f"},"vehicle_type_id":"4","last_reported":1739279848,"current_range_meters":38800,"station_id":"ce4bgl92rcd13ifvqbq0","pricing_plan_id":"cebpf4jnsgd1na2vs0mg"},{"bike_id":"d32bc138-b248-4cf7-b985-ba46be6bfdf5","system_id":"levelo_inurba_marseille","lat":43.29572,"lon":5.37495,"is_reserved":false,"is_disabled":false,"rental_uris":{"android":"levelo://app?vid=d32bc138-b248-4cf7-b985-ba46be6bfdf5","ios":"levelo://app?vid=d32bc138-b248-4cf7-b985-ba46be6bfdf5"},"vehicle_type_id":"4","last_reported":1739279848,"current_range_meters":25600,"station_id":"ce4bgh92rcd13ifvqb50","pricing_plan_id":"cebpf4jnsgd1na2vs0mg"},{"bike_id":"fe78b94e-f222-4874-95c6-4426b673572a","system_id":"levelo_inurba_marseille","lat":43.31349,"lon":5.36716,"is_reserved":false,"is_disabled":false,"rental_uris":{"android":"levelo://app?vid=fe78b94e-f222-4874-95c6-4426b673572a","ios":"levelo://app?vid=fe78b94e-f222-4874-95c6-4426b673572a"},"vehicle_type_id":"4","last_reported":1739279848,"current_range_meters":17200,"station_id":"ce4bgr92rcd13ifvqc6g","pricing_plan_id":"cebpf4jnsgd1na2vs0mg"},{"bike_id":"1ec14052-2d33-4aa1-9ab8-58cc71db74d1","system_id":"levelo_inurba_marseille","lat":43.241801,"lon":5.363932,"is_reserved":false,"is_disabled":false,"rental_uris":{"android":"levelo://app?vid=1ec14052-2d33-4aa1-9ab8-58cc71db74d1","ios":"levelo://app?vid=1ec14052-2d33-4aa1-9ab8-58cc71db74d1"},"vehicle_type_id":"4","last_reported":1739279848,"current_range_meters":14400,"station_id":"cpo36qri1sfpv3e86is0","pricing_plan_id":"cebpf4jnsgd1na2vs0mg"},{"bike_id":"a0928365-d4c2-4f4f-958c-38c61dee8f57","system_id":"levelo_inurba_marseille","lat":43.29527,"lon":5.38544,"is_reserved":false,"is_disabled":false,"rental_uris":{"android":"levelo://app?vid=a0928365-d4c2-4f4f-958c-38c61dee8f57","ios":"levelo://app?vid=a0928365-d4c2-4f4f-958c-38c61dee8f57"},"vehicle_type_id":"4","last_reported":1739279848,"current_range_meters":30400,"station_id":"ce4bgih2rcd13ifvqba0","pricing_plan_id":"cebpf4jnsgd1na2vs0mg"},{"bike_id":"b3b45130-4456-4f49-a726-9923bcb61db7","system_id":"levelo_inurba_marseille","lat":43.26946,"lon":5.38651,"is_reserved":false,"is_disabled":false,"rental_uris":{"android":"levelo://app?vid=b3b45130-4456-4f49-a726-9923bcb61db7","ios":"levelo://app?vid=b3b45130-4456-4f49-a726-9923bcb61db7"},"vehicle_type_id":"4","last_reported":1739279848,"current_range_meters":38800,"station_id":"ce4bhh92rcd13ifvqfh0","pricing_plan_id":"cebpf4jnsgd1na2vs0mg"},{"bike_id":"8913abcd-46a2-4291-9109-3db319aed34e","system_id":"levelo_inurba_marseille","lat":43.29302,"lon":5.37161,"is_reserved":false,"is_disabled":false,"rental_uris":{"android":"levelo://app?vid=8913abcd-46a2-4291-9109-3db319aed34e","ios":"levelo://app?vid=8913abcd-46a2-4291-9109-3db319aed34e"},"vehicle_type_id":"4","last_reported":1739279848,"current_range_meters":36000,"station_id":"ce4bgh92rcd13ifvqb40","pricing_plan_id":"cebpf4jnsgd1na2vs0mg"},{"bike_id":"605182cb-1623-4c1f-bb48-a7e822f9d2c7","system_id":"levelo_inurba_marseille","lat":43.33604,"lon":5.41014,"is_reserved":false,"is_disabled":false,"rental_uris":{"android":"levelo://app?vid=605182cb-1623-4c1f-bb48-a7e822f9d2c7","ios":"levelo://app?vid=605182cb-1623-4c1f-bb48-a7e822f9d2c7"},"vehicle_type_id":"4","last_reported":1739279848,"current_range_meters":22800,"station_id":"ce4bhqh2rcd13ifvqhmg","pricing_plan_id":"cebpf4jnsgd1na2vs0mg"},{"bike_id":"347897ed-9a6b-4171-ba6b-f9aefaee5b0a","system_id":"levelo_inurba_marseille","lat":43.28076,"lon":5.39651,"is_reserved":false,"is_disabled":false,"rental_uris":{"android":"levelo://app?vid=347897ed-9a6b-4171-ba6b-f9aefaee5b0a","ios":"levelo://app?vid=347897ed-9a6b-4171-ba6b-f9aefaee5b0a"},"vehicle_type_id":"4","last_reported":1739279848,"current_range_meters":22000,"station_id":"ce4bho12rcd13ifvqh2g","pricing_plan_id":"cebpf4jnsgd1na2vs0mg"},{"bike_id":"79df8d93-a019-4f4d-ad9b-607d770a7910","system_id":"levelo_inurba_marseille","lat":43.293881,"lon":5.388976,"is_reserved":false,"is_disabled":false,"rental_uris":{"android":"levelo://app?vid=79df8d93-a019-4f4d-ad9b-607d770a7910","ios":"levelo://app?vid=79df8d93-a019-4f4d-ad9b-607d770a7910"},"vehicle_type_id":"4","last_reported":1739279848,"current_range_meters":26000,"station_id":"","pricing_plan_id":"cebpf4jnsgd1na2vs0mg"},{"bike_id":"fbb98623-bd6f-4427-9463-8f7fc3b3bd20","system_id":"levelo_inurba_marseille","lat":43.2803,"lon":5.36939,"is_reserved":false,"is_disabled":false,"rental_uris":{"android":"levelo://app?vid=fbb98623-bd6f-4427-9463-8f7fc3b3bd20","ios":"levelo://app?vid=fbb98623-bd6f-4427-9463-8f7fc3b3bd20"},"vehicle_type_id":"4","last_reported":1739279848,"current_range_meters":28400,"station_id":"ce4bha12rcd13ifvqef0","pricing_plan_id":"cebpf4jnsgd1na2vs0mg"},{"bike_id":"32e858a5-3299-416f-927b-3bd4d844d89b","system_id":"levelo_inurba_marseille","lat":43.29568,"lon":5.37512,"is_reserved":false,"is_disabled":false,"rental_uris":{"android":"levelo://app?vid=32e858a5-3299-416f-927b-3bd4d844d89b","ios":"levelo://app?vid=32e858a5-3299-416f-927b-3bd4d844d89b"},"vehicle_type_id":"4","last_reported":1739279848,"current_range_meters":9600,"station_id":"ce4bgh92rcd13ifvqb50","pricing_plan_id":"cebpf4jnsgd1na2vs0mg"},{"bike_id":"854805d2-36c9-4a45-8e66-d1c1896f7875","system_id":"levelo_inurba_marseille","lat":43.27204,"lon":5.40988,"is_reserved":false,"is_disabled":false,"rental_uris":{"android":"levelo://app?vid=854805d2-36c9-4a45-8e66-d1c1896f7875","ios":"levelo://app?vid=854805d2-36c9-4a45-8e66-d1c1896f7875"},"vehicle_type_id":"4","last_reported":1739279848,"current_range_meters":37600,"station_id":"ce4bhl12rcd13ifvqgf0","pricing_plan_id":"cebpf4jnsgd1na2vs0mg"},{"bike_id":"e91cc092-a630-4129-985b-fa7fc3ce488f","system_id":"levelo_inurba_marseille","lat":43.30551,"lon":5.3653,"is_reserved":false,"is_disabled":false,"rental_uris":{"android":"levelo://app?vid=e91cc092-a630-4129-985b-fa7fc3ce488f","ios":"levelo://app?vid=e91cc092-a630-4129-985b-fa7fc3ce488f"},"vehicle_type_id":"4","last_reported":1739279848,"current_range_meters":30400,"station_id":"ce4bgs12rcd13ifvqcag","pricing_plan_id":"cebpf4jnsgd1na2vs0mg"},{"bike_id":"01fc8b9c-db19-4997-a641-dc1567e7e334","system_id":"levelo_inurba_marseille","lat":43.29013,"lon":5.38125,"is_reserved":false,"is_disabled":false,"rental_uris":{"android":"levelo://app?vid=01fc8b9c-db19-4997-a641-dc1567e7e334","ios":"levelo://app?vid=01fc8b9c-db19-4997-a641-dc1567e7e334"},"vehicle_type_id":"4","last_reported":1739279848,"current_range_meters":37600,"station_id":"ce4bh4p2rcd13ifvqe1g","pricing_plan_id":"cebpf4jnsgd1na2vs0mg"},{"bike_id":"f5367e16-2b1a-40ad-b8ae-cf66861eaa3e","system_id":"levelo_inurba_marseille","lat":43.31343,"lon":5.36715,"is_reserved":false,"is_disabled":false,"rental_uris":{"android":"levelo://app?vid=f5367e16-2b1a-40ad-b8ae-cf66861eaa3e","ios":"levelo://app?vid=f5367e16-2b1a-40ad-b8ae-cf66861eaa3e"},"vehicle_type_id":"4","last_reported":1739279848,"current_range_meters":36800,"station_id":"ce4bgr92rcd13ifvqc6g","pricing_plan_id":"cebpf4jnsgd1na2vs0mg"},{"bike_id":"e74edd37-0ec7-4f56-b77f-e7249fd01314","system_id":"levelo_inurba_marseille","lat":43.30558,"lon":5.36535,"is_reserved":false,"is_disabled":false,"rental_uris":{"android":"levelo://app?vid=e74edd37-0ec7-4f56-b77f-e7249fd01314","ios":"levelo://app?vid=e74edd37-0ec7-4f56-b77f-e7249fd01314"},"vehicle_type_id":"4","last_reported":1739279848,"current_range_meters":12800,"station_id":"ce4bgs12rcd13ifvqcag","pricing_plan_id":"cebpf4jnsgd1na2vs0mg"},{"bike_id":"fa55914f-96a1-4fa2-9ccb-a6cf23d5b031","system_id":"levelo_inurba_marseille","lat":43.2992,"lon":5.37481,"is_reserved":false,"is_disabled":false,"rental_uris":{"android":"levelo://app?vid=fa55914f-96a1-4fa2-9ccb-a6cf23d5b031","ios":"levelo://app?vid=fa55914f-96a1-4fa2-9ccb-a6cf23d5b031"},"vehicle_type_id":"4","last_reported":1739279848,"current_range_meters":39200,"station_id":"ce4bgjh2rcd13ifvqbg0","pricing_plan_id":"cebpf4jnsgd1na2vs0mg"},{"bike_id":"06d6ff22-1c53-40c5-b6dc-dd605f998fbb","system_id":"levelo_inurba_marseille","lat":43.30287,"lon":5.37695,"is_reserved":false,"is_disabled":false,"rental_uris":{"android":"levelo://app?vid=06d6ff22-1c53-40c5-b6dc-dd605f998fbb","ios":"levelo://app?vid=06d6ff22-1c53-40c5-b6dc-dd605f998fbb"},"vehicle_type_id":"4","last_reported":1739279848,"current_range_meters":28000,"station_id":"ce4bguh2rcd13ifvqcj0","pricing_plan_id":"cebpf4jnsgd1na2vs0mg"},{"bike_id":"ca63d75f-d551-49cb-bec7-e060cadddd73","system_id":"levelo_inurba_marseille","lat":43.28164,"lon":5.44204,"is_reserved":false,"is_disabled":false,"rental_uris":{"android":"levelo://app?vid=ca63d75f-d551-49cb-bec7-e060cadddd73","ios":"levelo://app?vid=ca63d75f-d551-49cb-bec7-e060cadddd73"},"vehicle_type_id":"4","last_reported":1739279848,"current_range_meters":14400,"station_id":"","pricing_plan_id":"cebpf4jnsgd1na2vs0mg"},{"bike_id":"f7ae9a97-641a-4598-bcd7-5d3ae922b145","system_id":"levelo_inurba_marseille","lat":43.30427,"lon":5.39739,"is_reserved":false,"is_disabled":false,"rental_uris":{"android":"levelo://app?vid=f7ae9a97-641a-4598-bcd7-5d3ae922b145","ios":"levelo://app?vid=f7ae9a97-641a-4598-bcd7-5d3ae922b145"},"vehicle_type_id":"4","last_reported":1739279848,"current_range_meters":38400,"station_id":"ce4bh092rcd13ifvqd20","pricing_plan_id":"cebpf4jnsgd1na2vs0mg"},{"bike_id":"dda775b3-736d-4baa-abf6-7212c4f9bf6d","system_id":"levelo_inurba_marseille","lat":43.29448,"lon":5.3976,"is_reserved":false,"is_disabled":false,"rental_uris":{"android":"levelo://app?vid=dda775b3-736d-4baa-abf6-7212c4f9bf6d","ios":"levelo://app?vid=dda775b3-736d-4baa-abf6-7212c4f9bf6d"},"vehicle_type_id":"4","last_reported":1739279848,"current_range_meters":37600,"station_id":"ce4bh3h2rcd13ifvqdo0","pricing_plan_id":"cebpf4jnsgd1na2vs0mg"},{"bike_id":"dd7e4e2f-f2db-4c41-9b95-8e20b6da1267","system_id":"levelo_inurba_marseille","lat":43.32481,"lon":5.36556,"is_reserved":false,"is_disabled":false,"rental_uris":{"android":"levelo://app?vid=dd7e4e2f-f2db-4c41-9b95-8e20b6da1267","ios":"levelo://app?vid=dd7e4e2f-f2db-4c41-9b95-8e20b6da1267"},"vehicle_type_id":"4","last_reported":1739279848,"current_range_meters":17200,"station_id":"ce4bhs12rcd13ifvqhvg","pricing_plan_id":"cebpf4jnsgd1na2vs0mg"},{"bike_id":"5baf39dd-07ca-4c36-b84d-55d91f868a26","system_id":"levelo_inurba_marseille","lat":43.29562,"lon":5.38244,"is_reserved":false,"is_disabled":true,"rental_uris":{"android":"levelo://app?vid=5baf39dd-07ca-4c36-b84d-55d91f868a26","ios":"levelo://app?vid=5baf39dd-07ca-4c36-b84d-55d91f868a26"},"vehicle_type_id":"4","last_reported":1739279848,"current_range_meters":32800,"station_id":"","pricing_plan_id":"cebpf4jnsgd1na2vs0mg"},{"bike_id":"d06b3b54-dc24-493e-97db-e54b37ab5416","system_id":"levelo_inurba_marseille","lat":43.30532,"lon":5.36557,"is_reserved":false,"is_disabled":false,"rental_uris":{"android":"levelo://app?vid=d06b3b54-dc24-493e-97db-e54b37ab5416","ios":"levelo://app?vid=d06b3b54-dc24-493e-97db-e54b37ab5416"},"vehicle_type_id":"4","last_reported":1739279848,"current_range_meters":29600,"station_id":"ce4bgs12rcd13ifvqcag","pricing_plan_id":"cebpf4jnsgd1na2vs0mg"},{"bike_id":"91f8274d-f215-4cef-97ab-b8259e58eb3d","system_id":"levelo_inurba_marseille","lat":43.30432,"lon":5.39738,"is_reserved":false,"is_disabled":false,"rental_uris":{"android":"levelo://app?vid=91f8274d-f215-4cef-97ab-b8259e58eb3d","ios":"levelo://app?vid=91f8274d-f215-4cef-97ab-b8259e58eb3d"},"vehicle_type_id":"4","last_reported":1739279848,"current_range_meters":38400,"station_id":"ce4bh092rcd13ifvqd20","pricing_plan_id":"cebpf4jnsgd1na2vs0mg"},{"bike_id":"5100eee9-2f8a-4904-8328-bc8929ad02ad","system_id":"levelo_inurba_marseille","lat":43.30135,"lon":5.39879,"is_reserved":false,"is_disabled":true,"rental_uris":{"android":"levelo://app?vid=5100eee9-2f8a-4904-8328-bc8929ad02ad","ios":"levelo://app?vid=5100eee9-2f8a-4904-8328-bc8929ad02ad"},"vehicle_type_id":"4","last_reported":1739279848,"current_range_meters":32000,"station_id":"ce4bh0h2rcd13ifvqd40","pricing_plan_id":"cebpf4jnsgd1na2vs0mg"},{"bike_id":"9b8abd08-e44c-4856-b389-4f5ff2f6b096","system_id":"levelo_inurba_marseille","lat":43.292,"lon":5.37549,"is_reserved":false,"is_disabled":false,"rental_uris":{"android":"levelo://app?vid=9b8abd08-e44c-4856-b389-4f5ff2f6b096","ios":"levelo://app?vid=9b8abd08-e44c-4856-b389-4f5ff2f6b096"},"vehicle_type_id":"4","last_reported":1739279848,"current_range_meters":11200,"station_id":"","pricing_plan_id":"cebpf4jnsgd1na2vs0mg"},{"bike_id":"debbad9f-290b-4c06-b4b6-2a3155046c21","system_id":"levelo_inurba_marseille","lat":43.29635,"lon":5.40603,"is_reserved":false,"is_disabled":true,"rental_uris":{"android":"levelo://app?vid=debbad9f-290b-4c06-b4b6-2a3155046c21","ios":"levelo://app?vid=debbad9f-290b-4c06-b4b6-2a3155046c21"},"vehicle_type_id":"4","last_reported":1739279848,"current_range_meters":1200,"station_id":"ce4bh0h2rcd13ifvqd60","pricing_plan_id":"cebpf4jnsgd1na2vs0mg"},{"bike_id":"118acaa8-c377-4759-a8f9-c3303973ef34","system_id":"levelo_inurba_marseille","lat":43.2987,"lon":5.38896,"is_reserved":false,"is_disabled":false,"rental_uris":{"android":"levelo://app?vid=118acaa8-c377-4759-a8f9-c3303973ef34","ios":"levelo://app?vid=118acaa8-c377-4759-a8f9-c3303973ef34"},"vehicle_type_id":"4","last_reported":1739279848,"current_range_meters":24800,"station_id":"ce4bh392rcd13ifvqdl0","pricing_plan_id":"cebpf4jnsgd1na2vs0mg"},{"bike_id":"fbd03bc5-eeec-43a8-9a4b-c9d5079b4f48","system_id":"levelo_inurba_marseille","lat":43.25926,"lon":5.40881,"is_reserved":false,"is_disabled":false,"rental_uris":{"android":"levelo://app?vid=fbd03bc5-eeec-43a8-9a4b-c9d5079b4f48","ios":"levelo://app?vid=fbd03bc5-eeec-43a8-9a4b-c9d5079b4f48"},"vehicle_type_id":"4","last_reported":1739279848,"current_range_meters":23200,"station_id":"ce4bhm92rcd13ifvqglg","pricing_plan_id":"cebpf4jnsgd1na2vs0mg"},{"bike_id":"8e4a1bfa-cffb-4104-8241-5f2c62d3067b","system_id":"levelo_inurba_marseille","lat":43.28351,"lon":5.3811,"is_reserved":false,"is_disabled":false,"rental_uris":{"android":"levelo://app?vid=8e4a1bfa-cffb-4104-8241-5f2c62d3067b","ios":"levelo://app?vid=8e4a1bfa-cffb-4104-8241-5f2c62d3067b"},"vehicle_type_id":"4","last_reported":1739279848,"current_range_meters":39200,"station_id":"ce4bh412rcd13ifvqdr0","pricing_plan_id":"cebpf4jnsgd1na2vs0mg"},{"bike_id":"e476b422-69b1-4f74-9e6f-2e8608063c5f","system_id":"levelo_inurba_marseille","lat":43.30526,"lon":5.36536,"is_reserved":false,"is_disabled":false,"rental_uris":{"android":"levelo://app?vid=e476b422-69b1-4f74-9e6f-2e8608063c5f","ios":"levelo://app?vid=e476b422-69b1-4f74-9e6f-2e8608063c5f"},"vehicle_type_id":"4","last_reported":1739279848,"current_range_meters":18000,"station_id":"ce4bgs12rcd13ifvqcag","pricing_plan_id":"cebpf4jnsgd1na2vs0mg"},{"bike_id":"bb2c3666-e655-4322-865e-a1fcfe1f8a0c","system_id":"levelo_inurba_marseille","lat":43.30162,"lon":5.38094,"is_reserved":false,"is_disabled":false,"rental_uris":{"android":"levelo://app?vid=bb2c3666-e655-4322-865e-a1fcfe1f8a0c","ios":"levelo://app?vid=bb2c3666-e655-4322-865e-a1fcfe1f8a0c"},"vehicle_type_id":"4","last_reported":1739279848,"current_range_meters":32800,"station_id":"ce4bgjp2rcd13ifvqbh0","pricing_plan_id":"cebpf4jnsgd1na2vs0mg"},{"bike_id":"54ce597b-1ca1-4d62-923d-d4b29eec04b3","system_id":"levelo_inurba_marseille","lat":43.31131,"lon":5.38261,"is_reserved":false,"is_disabled":false,"rental_uris":{"android":"levelo://app?vid=54ce597b-1ca1-4d62-923d-d4b29eec04b3","ios":"levelo://app?vid=54ce597b-1ca1-4d62-923d-d4b29eec04b3"},"vehicle_type_id":"4","last_reported":1739279848,"current_range_meters":20400,"station_id":"","pricing_plan_id":"cebpf4jnsgd1na2vs0mg"},{"bike_id":"b4765ae2-b7fb-4718-bf68-ce7ba2c817f9","system_id":"levelo_inurba_marseille","lat":43.27061,"lon":5.42281,"is_reserved":false,"is_disabled":false,"rental_uris":{"android":"levelo://app?vid=b4765ae2-b7fb-4718-bf68-ce7ba2c817f9","ios":"levelo://app?vid=b4765ae2-b7fb-4718-bf68-ce7ba2c817f9"},"vehicle_type_id":"4","last_reported":1739279848,"current_range_meters":24000,"station_id":"ce4bhk92rcd13ifvqgb0","pricing_plan_id":"cebpf4jnsgd1na2vs0mg"},{"bike_id":"ace7c7c4-55ef-471c-935e-108dd26488b5","system_id":"levelo_inurba_marseille","lat":43.24548,"lon":5.3953,"is_reserved":false,"is_disabled":false,"rental_uris":{"android":"levelo://app?vid=ace7c7c4-55ef-471c-935e-108dd26488b5","ios":"levelo://app?vid=ace7c7c4-55ef-471c-935e-108dd26488b5"},"vehicle_type_id":"4","last_reported":1739279848,"current_range_meters":30800,"station_id":"ce4bhlp2rcd13ifvqgjg","pricing_plan_id":"cebpf4jnsgd1na2vs0mg"},{"bike_id":"ed22b738-1280-4e28-bdfe-5a8aa889b31d","system_id":"levelo_inurba_marseille","lat":43.30434,"lon":5.38882,"is_reserved":false,"is_disabled":false,"rental_uris":{"android":"levelo://app?vid=ed22b738-1280-4e28-bdfe-5a8aa889b31d","ios":"levelo://app?vid=ed22b738-1280-4e28-bdfe-5a8aa889b31d"},"vehicle_type_id":"4","last_reported":1739279848,"current_range_meters":39200,"station_id":"ce4bgk12rcd13ifvqbi0","pricing_plan_id":"cebpf4jnsgd1na2vs0mg"},{"bike_id":"6781aa85-34f7-4835-bddc-391492c4d5fe","system_id":"levelo_inurba_marseille","lat":43.25001,"lon":5.38946,"is_reserved":false,"is_disabled":false,"rental_uris":{"android":"levelo://app?vid=6781aa85-34f7-4835-bddc-391492c4d5fe","ios":"levelo://app?vid=6781aa85-34f7-4835-bddc-391492c4d5fe"},"vehicle_type_id":"4","last_reported":1739279848,"current_range_meters":38800,"station_id":"ce4bhgp2rcd13ifvqfd0","pricing_plan_id":"cebpf4jnsgd1na2vs0mg"},{"bike_id":"ec670ee5-ec68-4784-935c-203a78cbc136","system_id":"levelo_inurba_marseille","lat":43.33015,"lon":5.39034,"is_reserved":false,"is_disabled":false,"rental_uris":{"android":"levelo://app?vid=ec670ee5-ec68-4784-935c-203a78cbc136","ios":"levelo://app?vid=ec670ee5-ec68-4784-935c-203a78cbc136"},"vehicle_type_id":"4","last_reported":1739279848,"current_range_meters":38400,"station_id":"ce4bhr92rcd13ifvqhrg","pricing_plan_id":"cebpf4jnsgd1na2vs0mg"},{"bike_id":"9112eddc-eacc-4c4a-92c5-2489699fbb37","system_id":"levelo_inurba_marseille","lat":43.27665,"lon":5.38873,"is_reserved":false,"is_disabled":false,"rental_uris":{"android":"levelo://app?vid=9112eddc-eacc-4c4a-92c5-2489699fbb37","ios":"levelo://app?vid=9112eddc-eacc-4c4a-92c5-2489699fbb37"},"vehicle_type_id":"4","last_reported":1739279848,"current_range_meters":37600,"station_id":"ce4bhi12rcd13ifvqfo0","pricing_plan_id":"cebpf4jnsgd1na2vs0mg"},{"bike_id":"d53a558b-0c38-4c69-b0fe-36512d9e5c19","system_id":"levelo_inurba_marseille","lat":43.31203,"lon":5.36845,"is_reserved":false,"is_disabled":false,"rental_uris":{"android":"levelo://app?vid=d53a558b-0c38-4c69-b0fe-36512d9e5c19","ios":"levelo://app?vid=d53a558b-0c38-4c69-b0fe-36512d9e5c19"},"vehicle_type_id":"4","last_reported":1739279848,"current_range_meters":19200,"station_id":"ce4bgl92rcd13ifvqbq0","pricing_plan_id":"cebpf4jnsgd1na2vs0mg"},{"bike_id":"fc479000-304d-4768-beaf-09b2fa754270","system_id":"levelo_inurba_marseille","lat":43.27054,"lon":5.40256,"is_reserved":false,"is_disabled":false,"rental_uris":{"android":"levelo://app?vid=fc479000-304d-4768-beaf-09b2fa754270","ios":"levelo://app?vid=fc479000-304d-4768-beaf-09b2fa754270"},"vehicle_type_id":"4","last_reported":1739279848,"current_range_meters":11600,"station_id":"ce4bhk92rcd13ifvqgc0","pricing_plan_id":"cebpf4jnsgd1na2vs0mg"},{"bike_id":"6ddc67a1-e7a6-4418-af2d-aa1d54b32514","system_id":"levelo_inurba_marseille","lat":43.31883,"lon":5.40743,"is_reserved":false,"is_disabled":false,"rental_uris":{"android":"levelo://app?vid=6ddc67a1-e7a6-4418-af2d-aa1d54b32514","ios":"levelo://app?vid=6ddc67a1-e7a6-4418-af2d-aa1d54b32514"},"vehicle_type_id":"4","last_reported":1739279848,"current_range_meters":34000,"station_id":"ce4bhq12rcd13ifvqhig","pricing_plan_id":"cebpf4jnsgd1na2vs0mg"},{"bike_id":"65eb2482-d77a-4233-a001-e85a90d7ac92","system_id":"levelo_inurba_marseille","lat":43.31355,"lon":5.36712,"is_reserved":false,"is_disabled":false,"rental_uris":{"android":"levelo://app?vid=65eb2482-d77a-4233-a001-e85a90d7ac92","ios":"levelo://app?vid=65eb2482-d77a-4233-a001-e85a90d7ac92"},"vehicle_type_id":"4","last_reported":1739279848,"current_range_meters":39200,"station_id":"ce4bgr92rcd13ifvqc6g","pricing_plan_id":"cebpf4jnsgd1na2vs0mg"},{"bike_id":"b52aa3e3-94bd-4882-94b1-fcae3eb86e1d","system_id":"levelo_inurba_marseille","lat":43.2621,"lon":5.37443,"is_reserved":false,"is_disabled":true,"rental_uris":{"android":"levelo://app?vid=b52aa3e3-94bd-4882-94b1-fcae3eb86e1d","ios":"levelo://app?vid=b52aa3e3-94bd-4882-94b1-fcae3eb86e1d"},"vehicle_type_id":"4","last_reported":1739279848,"current_range_meters":28400,"station_id":"ce4bhgp2rcd13ifvqfc0","pricing_plan_id":"cebpf4jnsgd1na2vs0mg"},{"bike_id":"aab4804f-5aed-4d66-91a7-87685a4c27c3","system_id":"levelo_inurba_marseille","lat":43.29513,"lon":5.37498,"is_reserved":false,"is_disabled":false,"rental_uris":{"android":"levelo://app?vid=aab4804f-5aed-4d66-91a7-87685a4c27c3","ios":"levelo://app?vid=aab4804f-5aed-4d66-91a7-87685a4c27c3"},"vehicle_type_id":"4","last_reported":1739279848,"current_range_meters":38800,"station_id":"ce4bgkp2rcd13ifvqbmg","pricing_plan_id":"cebpf4jnsgd1na2vs0mg"},{"bike_id":"05aea084-9309-4129-88a8-0007d66f184f","system_id":"levelo_inurba_marseille","lat":43.32536,"lon":5.41428,"is_reserved":false,"is_disabled":false,"rental_uris":{"android":"levelo://app?vid=05aea084-9309-4129-88a8-0007d66f184f","ios":"levelo://app?vid=05aea084-9309-4129-88a8-0007d66f184f"},"vehicle_type_id":"4","last_reported":1739279848,"current_range_meters":30000,"station_id":"ce4bhq12rcd13ifvqhhg","pricing_plan_id":"cebpf4jnsgd1na2vs0mg"},{"bike_id":"8c0b5f54-1535-430b-ad55-6ccb272e24d7","system_id":"levelo_inurba_marseille","lat":43.30429,"lon":5.39739,"is_reserved":false,"is_disabled":false,"rental_uris":{"android":"levelo://app?vid=8c0b5f54-1535-430b-ad55-6ccb272e24d7","ios":"levelo://app?vid=8c0b5f54-1535-430b-ad55-6ccb272e24d7"},"vehicle_type_id":"4","last_reported":1739279848,"current_range_meters":13600,"station_id":"ce4bh092rcd13ifvqd20","pricing_plan_id":"cebpf4jnsgd1na2vs0mg"},{"bike_id":"8ed07919-99e2-44b2-8a0c-c0e435f36567","system_id":"levelo_inurba_marseille","lat":43.3133,"lon":5.39691,"is_reserved":false,"is_disabled":false,"rental_uris":{"android":"levelo://app?vid=8ed07919-99e2-44b2-8a0c-c0e435f36567","ios":"levelo://app?vid=8ed07919-99e2-44b2-8a0c-c0e435f36567"},"vehicle_type_id":"4","last_reported":1739279848,"current_range_meters":20800,"station_id":"ce4bgvp2rcd13ifvqcu0","pricing_plan_id":"cebpf4jnsgd1na2vs0mg"},{"bike_id":"49e9d985-ed08-4871-b429-7eba37a2e633","system_id":"levelo_inurba_marseille","lat":43.24076,"lon":5.37755,"is_reserved":false,"is_disabled":false,"rental_uris":{"android":"levelo://app?vid=49e9d985-ed08-4871-b429-7eba37a2e633","ios":"levelo://app?vid=49e9d985-ed08-4871-b429-7eba37a2e633"},"vehicle_type_id":"4","last_reported":1739279848,"current_range_meters":21600,"station_id":"ce4bhnp2rcd13ifvqgvg","pricing_plan_id":"cebpf4jnsgd1na2vs0mg"},{"bike_id":"7b37eb36-5784-4f91-a2b1-df3773c900b7","system_id":"levelo_inurba_marseille","lat":43.27987,"lon":5.40017,"is_reserved":false,"is_disabled":false,"rental_uris":{"android":"levelo://app?vid=7b37eb36-5784-4f91-a2b1-df3773c900b7","ios":"levelo://app?vid=7b37eb36-5784-4f91-a2b1-df3773c900b7"},"vehicle_type_id":"4","last_reported":1739279848,"current_range_meters":34800,"station_id":"ce4bho92rcd13ifvqh4g","pricing_plan_id":"cebpf4jnsgd1na2vs0mg"},{"bike_id":"4e6ba098-f4cc-46cc-b55d-0f84839622e1","system_id":"levelo_inurba_marseille","lat":43.29013,"lon":5.38618,"is_reserved":false,"is_disabled":false,"rental_uris":{"android":"levelo://app?vid=4e6ba098-f4cc-46cc-b55d-0f84839622e1","ios":"levelo://app?vid=4e6ba098-f4cc-46cc-b55d-0f84839622e1"},"vehicle_type_id":"4","last_reported":1739279848,"current_range_meters":38400,"station_id":"ce4bh4p2rcd13ifvqe0g","pricing_plan_id":"cebpf4jnsgd1na2vs0mg"},