{"last_updated":1740409828,"ttl":60,"version":"2.2","data":{"bikes":[{"bike_id":"a9972ece-cfd0-47b1-b0dd-1febf931f35b","system_id":"levelo_inurba_marseille","lat":43.28714,"lon":5.37944,"is_reserved":false,"is_disabled":false,"rental_uris":{"android":"levelo://app?vid=a9972ece-cfd0-47b1-b0dd-1febf931f35b","ios":"levelo://app?vid=a9972ece-cfd0-47b1-b0dd-1febf931f35b"},"vehicle_type_id":"4","last_reported":1740409828,"current_range_meters":0,"station_id":"ce4bh9p2rcd13ifvqec0","pricing_plan_id":"cebpf4jnsgd1na2vs0mg"},{"bike_id":"39e4aacf-089f-4c46-a7e5-282b804d84cc","system_id":"levelo_inurba_marseille","lat":43.24547,"lon":5.39527,"is_reserved":false,"is_disabled":false,"rental_uris":{"android":"levelo://app?vid=39e4aacf-089f-4c46-a7e5-282b804d84cc","ios":"levelo://app?vid=39e4aacf-089f-4c46-a7e5-282b804d84cc"},"vehicle_type_id":"4","last_reported":1740409828,"current_range_meters":3200,"station_id":"ce4bhlp2rcd13ifvqgjg","pricing_plan_id":"cebpf4jnsgd1na2vs0mg"},{"bike_id":"f1075aed-0c1f-4362-b184-4e5bc77fa624","system_id":"levelo_inurba_marseille","lat":43.31241,"lon":5.36864,"is_reserved":false,"is_disabled":false,"rental_uris":{"android":"levelo://app?vid=f1075aed-0c1f-4362-b184-4e5bc77fa624","ios":"levelo://app?vid=f1075aed-0c1f-4362-b184-4e5bc77fa624"},"vehicle_type_id":"4","last_reported":1740409828,"current_range_meters":4400,"station_id":"ce4bgl92rcd13ifvqbq0","pricing_plan_id":"cebpf4jnsgd1na2vs0mg"},{"bike_id":"fcfa5fc2-ad69-4680-88fc-c002ac5c92aa","system_id":"levelo_inurba_marseille","lat":43.29192,"lon":5.39326,"is_reserved":false,"is_disabled":false,"rental_uris":{"android":"levelo://app?vid=fcfa5fc2-ad69-4680-88fc-c002ac5c92aa","ios":"levelo://app?vid=fcfa5fc2-ad69-4680-88fc-c002ac5c92aa"},"vehicle_type_id":"4","last_reported":1740409828,"current_range_meters":4800,"station_id":"ce4bh192rcd13ifvqdd0","pricing_plan_id":"cebpf4jnsgd1na2vs0mg"},{"bike_id":"aa5bca6f-9c0b-4666-aded-01ad3565a5e9","system_id":"levelo_inurba_marseille","lat":43.28158,"lon":5.42651,"is_reserved":false,"is_disabled":false,"rental_uris":{"android":"levelo://app?vid=aa5bca6f-9c0b-4666-aded-01ad3565a5e9","ios":"levelo://app?vid=aa5bca6f-9c0b-4666-aded-01ad3565a5e9"},"vehicle_type_id":"4","last_reported":1740409828,"current_range_meters":4400,"station_id":"ce4bhnh2rcd13ifvqgug","pricing_plan_id":"cebpf4jnsgd1na2vs0mg"},{"bike_id":"68293ac2-13d4-43d4-93f3-b4730d6a9f2f","system_id":"levelo_inurba_marseille","lat":43.31078,"lon":5.38354,"is_reserved":false,"is_disabled":false,"rental_uris":{"android":"levelo://app?vid=68293ac2-13d4-43d4-93f3-b4730d6a9f2f","ios":"levelo://app?vid=68293ac2-13d4-43d4-93f3-b4730d6a9f2f"},"vehicle_type_id":"4","last_reported":1740409828,"current_range_meters":4800,"station_id":"ce4bgv92rcd13ifvqcr0","pricing_plan_id":"cebpf4jnsgd1na2vs0mg"},{"bike_id":"413dc171-4546-4050-9354-c607ae4433bf","system_id":"levelo_inurba_marseille","lat":43.301747,"lon":5.395963,"is_reserved":false,"is_disabled":true,"rental_uris":{"android":"levelo://app?vid=413dc171-4546-4050-9354-c607ae4433bf","ios":"levelo://app?vid=413dc171-4546-4050-9354-c607ae4433bf"},"vehicle_type_id":"4","last_reported":1740409828,"current_range_meters":5600,"station_id":"","pricing_plan_id":"cebpf4jnsgd1na2vs0mg"},{"bike_id":"5dd5cb78-4c00-4b34-a63e-3d21a0bf15fd","system_id":"levelo_inurba_marseille","lat":43.24392,"lon":5.37062,"is_reserved":false,"is_disabled":false,"rental_uris":{"android":"levelo://app?vid=5dd5cb78-4c00-4b34-a63e-3d21a0bf15fd","ios":"levelo://app?vid=5dd5cb78-4c00-4b34-a63e-3d21a0bf15fd"},"vehicle_type_id":"4","last_reported":1740409828,"current_range_meters":4800,"station_id":"ce4bhhh2rcd13ifvqfk0","pricing_plan_id":"cebpf4jnsgd1na2vs0mg"},{"bike_id":"50a03b29-b76f-4fb2-91d7-00d2a75d785c","system_id":"levelo_inurba_marseille","lat":43.29276,"lon":5.3762,"is_reserved":false,"is_disabled":true,"rental_uris":{"android":"levelo://app?vid=50a03b29-b76f-4fb2-91d7-00d2a75d785c","ios":"levelo://app?vid=50a03b29-b76f-4fb2-91d7-00d2a75d785c"},"vehicle_type_id":"4","last_reported":1740409828,"current_range_meters":4800,"station_id":"ce4bgi12rcd13ifvqb80","pricing_plan_id":"cebpf4jnsgd1na2vs0mg"},{"bike_id":"eec006dc-8c6e-4e91-bb38-0cbea1583e3b","system_id":"levelo_inurba_marseille","lat":43.28157,"lon":5.42653,"is_reserved":false,"is_disabled":false,"rental_uris":{"android":"levelo://app?vid=eec006dc-8c6e-4e91-bb38-0cbea1583e3b","ios":"levelo://app?vid=eec006dc-8c6e-4e91-bb38-0cbea1583e3b"},"vehicle_type_id":"4","last_reported":1740409828,"current_range_meters":6000,"station_id":"ce4bhnh2rcd13ifvqgug","pricing_plan_id":"cebpf4jnsgd1na2vs0mg"},{"bike_id":"b5df4af8-831a-4857-9f3f-07ad07b18f6b","system_id":"levelo_inurba_marseille","lat":43.28351,"lon":5.38103,"is_reserved":false,"is_disabled":false,"rental_uris":{"android":"levelo://app?vid=b5df4af8-831a-4857-9f3f-07ad07b18f6b","ios":"levelo://app?vid=b5df4af8-831a-4857-9f3f-07ad07b18f6b"},"vehicle_type_id":"4","last_reported":1740409828,"current_range_meters":8000,"station_id":"ce4bh412rcd13ifvqdr0","pricing_plan_id":"cebpf4jnsgd1na2vs0mg"},{"bike_id":"45b4f8a7-9e34-4ff8-8336-0f6d7ac3111a","system_id":"levelo_inurba_marseille","lat":43.306707,"lon":5.371976,"is_reserved":false,"is_disabled":false,"rental_uris":{"android":"levelo://app?vid=45b4f8a7-9e34-4ff8-8336-0f6d7ac3111a","ios":"levelo://app?vid=45b4f8a7-9e34-4ff8-8336-0f6d7ac3111a"},"vehicle_type_id":"4","last_reported":1740409828,"current_range_meters":6400,"station_id":"ce4bgqh2rcd13ifvqc4g","pricing_plan_id":"cebpf4jnsgd1na2vs0mg"},{"bike_id":"8883ca8e-f847-4e39-b5a1-4a08c1bc0e6d","system_id":"levelo_inurba_marseille","lat":43.287113,"lon":5.399855,"is_reserved":false,"is_disabled":false,"rental_uris":{"android":"levelo://app?vid=8883ca8e-f847-4e39-b5a1-4a08c1bc0e6d","ios":"levelo://app?vid=8883ca8e-f847-4e39-b5a1-4a08c1bc0e6d"},"vehicle_type_id":"4","last_reported":1740409828,"current_range_meters":6400,"station_id":"ce4bho92rcd13ifvqh3g","pricing_plan_id":"cebpf4jnsgd1na2vs0mg"},{"bike_id":"de48a781-af72-40a6-aed1-693e99d56c27","system_id":"levelo_inurba_marseille","lat":43.32107,"lon":5.36771,"is_reserved":false,"is_disabled":false,"rental_uris":{"android":"levelo://app?vid=de48a781-af72-40a6-aed1-693e99d56c27","ios":"levelo://app?vid=de48a781-af72-40a6-aed1-693e99d56c27"},"vehicle_type_id":"4","last_reported":1740409828,"current_range_meters":0,"station_id":"ce4bhrh2rcd13ifvqhug","pricing_plan_id":"cebpf4jnsgd1na2vs0mg"},{"bike_id":"90df2f38-669c-48e4-aa95-258b0a030130","system_id":"levelo_inurba_marseille","lat":43.31221,"lon":5.36886,"is_reserved":false,"is_disabled":false,"rental_uris":{"android":"levelo://app?vid=90df2f38-669c-48e4-aa95-258b0a030130","ios":"levelo://app?vid=90df2f38-669c-48e4-aa95-258b0a030130"},"vehicle_type_id":"4","last_reported":1740409828,"current_range_meters":6400,"station_id":"ce4bgl92rcd13ifvqbq0","pricing_plan_id":"cebpf4jnsgd1na2vs0mg"},{"bike_id":"c552a86f-68c6-47f8-88dd-91de8f2f2c22","system_id":"levelo_inurba_marseille","lat":43.25495,"lon":5.37649,"is_reserved":false,"is_disabled":false,"rental_uris":{"android":"levelo://app?vid=c552a86f-68c6-47f8-88dd-91de8f2f2c22","ios":"levelo://app?vid=c552a86f-68c6-47f8-88dd-91de8f2f2c22"},"vehicle_type_id":"4","last_reported":1740409828,"current_range_meters":6800,"station_id":"ce4bhh12rcd13ifvqff0","pricing_plan_id":"cebpf4jnsgd1na2vs0mg"},{"bike_id":"3095385b-d4a0-4cfe-b50e-c3aacbb0c915","system_id":"levelo_inurba_marseille","lat":43.26047,"lon":5.37541,"is_reserved":false,"is_disabled":false,"rental_uris":{"android":"levelo://app?vid=3095385b-d4a0-4cfe-b50e-c3aacbb0c915","ios":"levelo://app?vid=3095385b-d4a0-4cfe-b50e-c3aacbb0c915"},"vehicle_type_id":"4","last_reported":1740409828,"current_range_meters":7200,"station_id":"ce4bhgh2rcd13ifvqfa0","pricing_plan_id":"cebpf4jnsgd1na2vs0mg"},{"bike_id":"2453796b-c7d6-4ccf-90df-34fa673cdc2c","system_id":"levelo_inurba_marseille","lat":43.2958,"lon":5.36742,"is_reserved":false,"is_disabled":false,"rental_uris":{"android":"levelo://app?vid=2453796b-c7d6-4ccf-90df-34fa673cdc2c","ios":"levelo://app?vid=2453796b-c7d6-4ccf-90df-34fa673cdc2c"},"vehicle_type_id":"4","last_reported":1740409828,"current_range_meters":7200,"station_id":"ce4bgph2rcd13ifvqc2g","pricing_plan_id":"cebpf4jnsgd1na2vs0mg"},{"bike_id":"5b59a4bc-b28e-4ca0-b490-9361b75beff5","system_id":"levelo_inurba_marseille","lat":43.28709,"lon":5.37393,"is_reserved":false,"is_disabled":false,"rental_uris":{"android":"levelo://app?vid=5b59a4bc-b28e-4ca0-b490-9361b75beff5","ios":"levelo://app?vid=5b59a4bc-b28e-4ca0-b490-9361b75beff5"},"vehicle_type_id":"4","last_reported":1740409828,"current_range_meters":7200,"station_id":"ce4bh3p2rcd13ifvqdq0","pricing_plan_id":"cebpf4jnsgd1na2vs0mg"},{"bike_id":"bb20187c-9bef-4e3e-8996-29220e69e389","system_id":"levelo_inurba_marseille","lat":43.24075,"lon":5.37767,"is_reserved":false,"is_disabled":false,"rental_uris":{"android":"levelo://app?vid=bb20187c-9bef-4e3e-8996-29220e69e389","ios":"levelo://app?vid=bb20187c-9bef-4e3e-8996-29220e69e389"},"vehicle_type_id":"4","last_reported":1740409828,"current_range_meters":8000,"station_id":"ce4bhnp2rcd13ifvqgvg","pricing_plan_id":"cebpf4jnsgd1na2vs0mg"},{"bike_id":"3b55226e-b04d-4b6d-b4a2-125e51299c76","system_id":"levelo_inurba_marseille","lat":43.29512,"lon":5.37512,"is_reserved":false,"is_disabled":false,"rental_uris":{"android":"levelo://app?vid=3b55226e-b04d-4b6d-b4a2-125e51299c76","ios":"levelo://app?vid=3b55226e-b04d-4b6d-b4a2-125e51299c76"},"vehicle_type_id":"4","last_reported":1740409828,"current_range_meters":7200,"station_id":"ce4bgkp2rcd13ifvqbmg","pricing_plan_id":"cebpf4jnsgd1na2vs0mg"},{"bike_id":"77717982-9fc3-4f64-a0b8-40da5537281f","system_id":"levelo_inurba_marseille","lat":43.29983,"lon":5.37181,"is_reserved":false,"is_disabled":false,"rental_uris":{"android":"levelo://app?vid=77717982-9fc3-4f64-a0b8-40da5537281f","ios":"levelo://app?vid=77717982-9fc3-4f64-a0b8-40da5537281f"},"vehicle_type_id":"4","last_reported":1740409828,"current_range_meters":7200,"station_id":"ce4bgr92rcd13ifvqc7g","pricing_plan_id":"cebpf4jnsgd1na2vs0mg"},{"bike_id":"1326d9b4-d75b-41ff-a03c-09842b045553","system_id":"levelo_inurba_marseille","lat":43.24068,"lon":5.37778,"is_reserved":false,"is_disabled":false,"rental_uris":{"android":"levelo://app?vid=1326d9b4-d75b-41ff-a03c-09842b045553","ios":"levelo://app?vid=1326d9b4-d75b-41ff-a03c-09842b045553"},"vehicle_type_id":"4","last_reported":1740409828,"current_range_meters":8000,"station_id":"ce4bhnp2rcd13ifvqgvg","pricing_plan_id":"cebpf4jnsgd1na2vs0mg"},{"bike_id":"6c3a88c0-e0e1-410d-b361-46c660cc98ca","system_id":"levelo_inurba_marseille","lat":43.25828,"lon":5.39435,"is_reserved":false,"is_disabled":false,"rental_uris":{"android":"levelo://app?vid=6c3a88c0-e0e1-410d-b361-46c660cc98ca","ios":"levelo://app?vid=6c3a88c0-e0e1-410d-b361-46c660cc98ca"},"vehicle_type_id":"4","last_reported":1740409828,"current_range_meters":8000,"station_id":"ce4bhip2rcd13ifvqft0","pricing_plan_id":"cebpf4jnsgd1na2vs0mg"},{"bike_id":"52a224e1-4322-4d75-86ce-26047d582c32","system_id":"levelo_inurba_marseille","lat":43.2657,"lon":5.39015,"is_reserved":false,"is_disabled":false,"rental_uris":{"android":"levelo://app?vid=52a224e1-4322-4d75-86ce-26047d582c32","ios":"levelo://app?vid=52a224e1-4322-4d75-86ce-26047d582c32"},"vehicle_type_id":"4","last_reported":1740409828,"current_range_meters":8000,"station_id":"ce4bhe12rcd13ifvqf30","pricing_plan_id":"cebpf4jnsgd1na2vs0mg"},{"bike_id":"c1a7b9fc-f9d9-43fe-a6d2-2df1526ca53b","system_id":"levelo_inurba_marseille","lat":43.25575,"lon":5.38228,"is_reserved":false,"is_disabled":false,"rental_uris":{"android":"levelo://app?vid=c1a7b9fc-f9d9-43fe-a6d2-2df1526ca53b","ios":"levelo://app?vid=c1a7b9fc-f9d9-43fe-a6d2-2df1526ca53b"},"vehicle_type_id":"4","last_reported":1740409828,"current_range_meters":8000,"station_id":"ce4bhih2rcd13ifvqfs0","pricing_plan_id":"cebpf4jnsgd1na2vs0mg"},{"bike_id":"80db1b4f-c760-4c08-9e24-fb96115d5e2c","system_id":"levelo_inurba_marseille","lat":43.32112,"lon":5.36802,"is_reserved":false,"is_disabled":false,"rental_uris":{"android":"levelo://app?vid=80db1b4f-c760-4c08-9e24-fb96115d5e2c","ios":"levelo://app?vid=80db1b4f-c760-4c08-9e24-fb96115d5e2c"},"vehicle_type_id":"4","last_reported":1740409828,"current_range_meters":8000,"station_id":"ce4bhrh2rcd13ifvqhug","pricing_plan_id":"cebpf4jnsgd1na2vs0mg"},{"bike_id":"30448c64-de0f-421d-884d-4b25f509b2dd","system_id":"levelo_inurba_marseille","lat":43.27058,"lon":5.40261,"is_reserved":false,"is_disabled":false,"rental_uris":{"android":"levelo://app?vid=30448c64-de0f-421d-884d-4b25f509b2dd","ios":"levelo://app?vid=30448c64-de0f-421d-884d-4b25f509b2dd"},"vehicle_type_id":"4","last_reported":1740409828,"current_range_meters":11600,"station_id":"ce4bhk92rcd13ifvqgc0","pricing_plan_id":"cebpf4jnsgd1na2vs0mg"},{"bike_id":"f824cb01-8026-4b65-b32f-b9b53c92d523","system_id":"levelo_inurba_marseille","lat":43.25027,"lon":5.38888,"is_reserved":false,"is_disabled":false,"rental_uris":{"android":"levelo://app?vid=f824cb01-8026-4b65-b32f-b9b53c92d523","ios":"levelo://app?vid=f824cb01-8026-4b65-b32f-b9b53c92d523"},"vehicle_type_id":"4","last_reported":1740409828,"current_range_meters":8000,"station_id":"ce4bhgp2rcd13ifvqfd0","pricing_plan_id":"cebpf4jnsgd1na2vs0mg"},{"bike_id":"7b40ad61-3b15-4e99-bd49-0cc339095e8f","system_id":"levelo_inurba_marseille","lat":43.29938,"lon":5.36555,"is_reserved":false,"is_disabled":false,"rental_uris":{"android":"levelo://app?vid=7b40ad61-3b15-4e99-bd49-0cc339095e8f","ios":"levelo://app?vid=7b40ad61-3b15-4e99-bd49-0cc339095e8f"},"vehicle_type_id":"4","last_reported":1740409828,"current_range_meters":8000,"station_id":"ce4bgm92rcd13ifvqbr0","pricing_plan_id":"cebpf4jnsgd1na2vs0mg"},{"bike_id":"ecf50bd2-27cb-4325-8621-4aa73a702e8c","system_id":"levelo_inurba_marseille","lat":43.27941,"lon":5.41049,"is_reserved":false,"is_disabled":false,"rental_uris":{"android":"levelo://app?vid=ecf50bd2-27cb-4325-8621-4aa73a702e8c","ios":"levelo://app?vid=ecf50bd2-27cb-4325-8621-4aa73a702e8c"},"vehicle_type_id":"4","last_reported":1740409828,"current_range_meters":6000,"station_id":"ce4bhnp2rcd13ifvqh0g","pricing_plan_id":"cebpf4jnsgd1na2vs0mg"},{"bike_id":"5fe384d2-658d-4b5a-9a85-7b06d2d330f7","system_id":"levelo_inurba_marseille","lat":43.249939,"lon":5.389251,"is_reserved":false,"is_disabled":false,"rental_uris":{"android":"levelo://app?vid=5fe384d2-658d-4b5a-9a85-7b06d2d330f7","ios":"levelo://app?vid=5fe384d2-658d-4b5a-9a85-7b06d2d330f7"},"vehicle_type_id":"4","last_reported":1740409828,"current_range_meters":8400,"station_id":"ce4bhgp2rcd13ifvqfd0","pricing_plan_id":"cebpf4jnsgd1na2vs0mg"},{"bike_id":"4949cbbd-196e-4a86-b925-857e3d2c2733","system_id":"levelo_inurba_marseille","lat":43.26683,"lon":5.38272,"is_reserved":false,"is_disabled":false,"rental_uris":{"android":"levelo://app?vid=4949cbbd-196e-4a86-b925-857e3d2c2733","ios":"levelo://app?vid=4949cbbd-196e-4a86-b925-857e3d2c2733"},"vehicle_type_id":"4","last_reported":1740409828,"current_range_meters":8400,"station_id":"ce4bhg92rcd13ifvqf90","pricing_plan_id":"cebpf4jnsgd1na2vs0mg"},{"bike_id":"beb48d2a-3d61-40cf-9e5b-d06409a4227f","system_id":"levelo_inurba_marseille","lat":43.29376,"lon":5.37844,"is_reserved":false,"is_disabled":false,"rental_uris":{"android":"levelo://app?vid=beb48d2a-3d61-40cf-9e5b-d06409a4227f","ios":"levelo://app?vid=beb48d2a-3d61-40cf-9e5b-d06409a4227f"},"vehicle_type_id":"4","last_reported":1740409828,"current_range_meters":9200,"station_id":"ce4bgjh2rcd13ifvqbf0","pricing_plan_id":"cebpf4jnsgd1na2vs0mg"},{"bike_id":"a27cdbc4-4d9b-4650-9943-78a4c1eb6dd1","system_id":"levelo_inurba_marseille","lat":43.32108,"lon":5.36768,"is_reserved":false,"is_disabled":false,"rental_uris":{"android":"levelo://app?vid=a27cdbc4-4d9b-4650-9943-78a4c1eb6dd1","ios":"levelo://app?vid=a27cdbc4-4d9b-4650-9943-78a4c1eb6dd1"},"vehicle_type_id":"4","last_reported":1740409828,"current_range_meters":9600,"station_id":"ce4bhrh2rcd13ifvqhug","pricing_plan_id":"cebpf4jnsgd1na2vs0mg"},{"bike_id":"bd1c9204-109d-453d-a655-cc2878aad0c5","system_id":"levelo_inurba_marseille","lat":43.29905,"lon":5.43668,"is_reserved":false,"is_disabled":false,"rental_uris":{"android":"levelo://app?vid=bd1c9204-109d-453d-a655-cc2878aad0c5","ios":"levelo://app?vid=bd1c9204-109d-453d-a655-cc2878aad0c5"},"vehicle_type_id":"4","last_reported":1740409828,"current_range_meters":8800,"station_id":"ce4bhpp2rcd13ifvqhfg","pricing_plan_id":"cebpf4jnsgd1na2vs0mg"},{"bike_id":"92612a50-ca9d-4f20-9e47-88f08b7e6808","system_id":"levelo_inurba_marseille","lat":43.28169,"lon":5.42654,"is_reserved":false,"is_disabled":false,"rental_uris":{"android":"levelo://app?vid=92612a50-ca9d-4f20-9e47-88f08b7e6808","ios":"levelo://app?vid=92612a50-ca9d-4f20-9e47-88f08b7e6808"},"vehicle_type_id":"4","last_reported":1740409828,"current_range_meters":8800,"station_id":"ce4bhnh2rcd13ifvqgug","pricing_plan_id":"cebpf4jnsgd1na2vs0mg"},{"bike_id":"aafb2de2-239d-4559-8818-bc0425d1e24f","system_id":"levelo_inurba_marseille","lat":43.24548,"lon":5.39522,"is_reserved":false,"is_disabled":false,"rental_uris":{"android":"levelo://app?vid=aafb2de2-239d-4559-8818-bc0425d1e24f","ios":"levelo://app?vid=aafb2de2-239d-4559-8818-bc0425d1e24f"},"vehicle_type_id":"4","last_reported":1740409828,"current_range_meters":8800,"station_id":"ce4bhlp2rcd13ifvqgjg","pricing_plan_id":"cebpf4jnsgd1na2vs0mg"},{"bike_id":"243758a6-c08c-4f05-a708-338a05b43e7c","system_id":"levelo_inurba_marseille","lat":43.29583,"lon":5.36737,"is_reserved":false,"is_disabled":false,"rental_uris":{"android":"levelo://app?vid=243758a6-c08c-4f05-a708-338a05b43e7c","ios":"levelo://app?vid=243758a6-c08c-4f05-a708-338a05b43e7c"},"vehicle_type_id":"4","last_reported":1740409828,"current_range_meters":9200,"station_id":"ce4bgph2rcd13ifvqc2g","pricing_plan_id":"cebpf4jnsgd1na2vs0mg"},{"bike_id":"d205081a-fefd-4fe8-8999-fd8844057bca","system_id":"levelo_inurba_marseille","lat":43.29852,"lon":5.36278,"is_reserved":false,"is_disabled":false,"rental_uris":{"android":"levelo://app?vid=d205081a-fefd-4fe8-8999-fd8844057bca","ios":"levelo://app?vid=d205081a-fefd-4fe8-8999-fd8844057bca"},"vehicle_type_id":"4","last_reported":1740409828,"current_range_meters":8800,"station_id":"ce4bgpp2rcd13ifvqc3g","pricing_plan_id":"cebpf4jnsgd1na2vs0mg"},{"bike_id":"87bbda1f-0db0-4d79-a046-a87b5e94995a","system_id":"levelo_inurba_marseille","lat":43.24167,"lon":5.3639,"is_reserved":false,"is_disabled":false,"rental_uris":{"android":"levelo://app?vid=87bbda1f-0db0-4d79-a046-a87b5e94995a","ios":"levelo://app?vid=87bbda1f-0db0-4d79-a046-a87b5e94995a"},"vehicle_type_id":"4","last_reported":1740409828,"current_range_meters":9200,"station_id":"cpo36qri1sfpv3e86is0","pricing_plan_id":"cebpf4jnsgd1na2vs0mg"},{"bike_id":"1e02fef8-5fd4-407c-af05-3bfb83b6bd78","system_id":"levelo_inurba_marseille","lat":43.32128,"lon":5.36739,"is_reserved":false,"is_disabled":false,"rental_uris":{"android":"levelo://app?vid=1e02fef8-5fd4-407c-af05-3bfb83b6bd78","ios":"levelo://app?vid=1e02fef8-5fd4-407c-af05-3bfb83b6bd78"},"vehicle_type_id":"4","last_reported":1740409828,"current_range_meters":9200,"station_id":"ce4bhrh2rcd13ifvqhug","pricing_plan_id":"cebpf4jnsgd1na2vs0mg"},{"bike_id":"3437f868-4313-4959-9701-44244b0bd81b","system_id":"levelo_inurba_marseille","lat":43.27497,"lon":5.42445,"is_reserved":false,"is_disabled":false,"rental_uris":{"android":"levelo://app?vid=3437f868-4313-4959-9701-44244b0bd81b","ios":"levelo://app?vid=3437f868-4313-4959-9701-44244b0bd81b"},"vehicle_type_id":"4","last_reported":1740409828,"current_range_meters":9200,"station_id":"ce4bhn92rcd13ifvqgrg","pricing_plan_id":"cebpf4jnsgd1na2vs0mg"},{"bike_id":"f80a79d6-1c74-4e76-8ed2-23203ade1d35","system_id":"levelo_inurba_marseille","lat":43.27811,"lon":5.40697,"is_reserved":false,"is_disabled":false,"rental_uris":{"android":"levelo://app?vid=f80a79d6-1c74-4e76-8ed2-23203ade1d35","ios":"levelo://app?vid=f80a79d6-1c74-4e76-8ed2-23203ade1d35"},"vehicle_type_id":"4","last_reported":1740409828,"current_range_meters":8000,"station_id":"ce4bhnh2rcd13ifvqgtg","pricing_plan_id":"cebpf4jnsgd1na2vs0mg"},{"bike_id":"a50c52e3-b068-49e2-a5f4-b2186745267c","system_id":"levelo_inurba_marseille","lat":43.284876,"lon":5.393096,"is_reserved":false,"is_disabled":false,"rental_uris":{"android":"levelo://app?vid=a50c52e3-b068-49e2-a5f4-b2186745267c","ios":"levelo://app?vid=a50c52e3-b068-49e2-a5f4-b2186745267c"},"vehicle_type_id":"4","last_reported":1740409828,"current_range_meters":9200,"station_id":"ce4bhoh2rcd13ifvqh5g","pricing_plan_id":"cebpf4jnsgd1na2vs0mg"},{"bike_id":"68ec4436-10d9-4ad2-a592-8f326c5c5f2f","system_id":"levelo_inurba_marseille","lat":43.2827,"lon":5.35073,"is_reserved":false,"is_disabled":false,"rental_uris":{"android":"levelo://app?vid=68ec4436-10d9-4ad2-a592-8f326c5c5f2f","ios":"levelo://app?vid=68ec4436-10d9-4ad2-a592-8f326c5c5f2f"},"vehicle_type_id":"4","last_reported":1740409828,"current_range_meters":9200,"station_id":"ce4bhbp2rcd13ifvqerg","pricing_plan_id":"cebpf4jnsgd1na2vs0mg"},{"bike_id":"b21c77a5-e540-4cda-8ea5-f87eb6cea310","system_id":"levelo_inurba_marseille","lat":43.2931,"lon":5.37436,"is_reserved":false,"is_disabled":true,"rental_uris":{"android":"levelo://app?vid=b21c77a5-e540-4cda-8ea5-f87eb6cea310","ios":"levelo://app?vid=b21c77a5-e540-4cda-8ea5-f87eb6cea310"},"vehicle_type_id":"4","last_reported":1740409828,"current_range_meters":9200,"station_id":"ce4bgi12rcd13ifvqb70","pricing_plan_id":"cebpf4jnsgd1na2vs0mg"},{"bike_id":"fda3a3b4-0cf3-4e7f-8450-c2cc06a47379","system_id":"levelo_inurba_marseille","lat":43.24168,"lon":5.39713,"is_reserved":false,"is_disabled":false,"rental_uris":{"android":"levelo://app?vid=fda3a3b4-0cf3-4e7f-8450-c2cc06a47379","ios":"levelo://app?vid=fda3a3b4-0cf3-4e7f-8450-c2cc06a47379"},"vehicle_type_id":"4","last_reported":1740409828,"current_range_meters":9200,"station_id":"ce4bhlh2rcd13ifvqgig","pricing_plan_id":"cebpf4jnsgd1na2vs0mg"},{"bike_id":"7764cb33-5426-4b94-909c-ac480986db17","system_id":"levelo_inurba_marseille","lat":43.29337,"lon":5.3725,"is_reserved":false,"is_disabled":false,"rental_uris":{"android":"levelo://app?vid=7764cb33-5426-4b94-909c-ac480986db17","ios":"levelo://app?vid=7764cb33-5426-4b94-909c-ac480986db17"},"vehicle_type_id":"4","last_reported":1740409828,"current_range_meters":9200,"station_id":"","pricing_plan_id":"cebpf4jnsgd1na2vs0mg"},{"bike_id":"7e26a3e9-4c57-4918-aa17-698a0ce4ac78","system_id":"levelo_inurba_marseille","lat":43.30682,"lon":5.37519,"is_reserved":false,"is_disabled":false,"rental_uris":{"android":"levelo://app?vid=7e26a3e9-4c57-4918-aa17-698a0ce4ac78","ios":"levelo://app?vid=7e26a3e9-4c57-4918-aa17-698a0ce4ac78"},"vehicle_type_id":"4","last_reported":1740409828,"current_range_meters":9200,"station_id":"","pricing_plan_id":"cebpf4jnsgd1na2vs0mg"},{"bike_id":"b86048c4-f305-4d68-ad78-087443649aaa","system_id":"levelo_inurba_marseille","lat":43.23133,"lon":5.43724,"is_reserved":false,"is_disabled":false,"rental_uris":{"android":"levelo://app?vid=b86048c4-f305-4d68-ad78-087443649aaa","ios":"levelo://app?vid=b86048c4-f305-4d68-ad78-087443649aaa"},"vehicle_type_id":"4","last_reported":1740409828,"current_range_meters":9200,"station_id":"ce4bhmp2rcd13ifvqgog","pricing_plan_id":"cebpf4jnsgd1na2vs0mg"},{"bike_id":"2f27be1b-5998-425e-bfe3-7c34ec43118e","system_id":"levelo_inurba_marseille","lat":43.30538,"lon":5.36557,"is_reserved":false,"is_disabled":false,"rental_uris":{"android":"levelo://app?vid=2f27be1b-5998-425e-bfe3-7c34ec43118e","ios":"levelo://app?vid=2f27be1b-5998-425e-bfe3-7c34ec43118e"},"vehicle_type_id":"4","last_reported":1740409828,"current_range_meters":9600,"station_id":"ce4bgs12rcd13ifvqcag","pricing_plan_id":"cebpf4jnsgd1na2vs0mg"},{"bike_id":"868b2082-bc90-4be9-9aac-694920928b7b","system_id":"levelo_inurba_marseille","lat":43.30894,"lon":5.37189,"is_reserved":false,"is_disabled":false,"rental_uris":{"android":"levelo://app?vid=868b2082-bc90-4be9-9aac-694920928b7b","ios":"levelo://app?vid=868b2082-bc90-4be9-9aac-694920928b7b"},"vehicle_type_id":"4","last_reported":1740409828,"current_range_meters":9600,"station_id":"ce4bguh2rcd13ifvqckg","pricing_plan_id":"cebpf4jnsgd1na2vs0mg"},{"bike_id":"216bb77f-c769-4011-8970-e66d63254aa2","system_id":"levelo_inurba_marseille","lat":43.29922,"lon":5.37847,"is_reserved":false,"is_disabled":false,"rental_uris":{"android":"levelo://app?vid=216bb77f-c769-4011-8970-e66d63254aa2","ios":"levelo://app?vid=216bb77f-c769-4011-8970-e66d63254aa2"},"vehicle_type_id":"4","last_reported":1740409828,"current_range_meters":9600,"station_id":"","pricing_plan_id":"cebpf4jnsgd1na2vs0mg"},{"bike_id":"73f98104-d216-4e82-b499-5ee1d7648ac2","system_id":"levelo_inurba_marseille","lat":43.30357,"lon":5.41879,"is_reserved":false,"is_disabled":false,"rental_uris":{"android":"levelo://app?vid=73f98104-d216-4e82-b499-5ee1d7648ac2","ios":"levelo://app?vid=73f98104-d216-4e82-b499-5ee1d7648ac2"},"vehicle_type_id":"4","last_reported":1740409828,"current_range_meters":9600,"station_id":"ce4bhop2rcd13ifvqh7g","pricing_plan_id":"cebpf4jnsgd1na2vs0mg"},{"bike_id":"b3daf4f4-b605-42a7-bd4b-531ddf848fbd","system_id":"levelo_inurba_marseille","lat":43.308079,"lon":5.381981,"is_reserved":false,"is_disabled":false,"rental_uris":{"android":"levelo://app?vid=b3daf4f4-b605-42a7-bd4b-531ddf848fbd","ios":"levelo://app?vid=b3daf4f4-b605-42a7-bd4b-531ddf848fbd"},"vehicle_type_id":"4","last_reported":1740409828,"current_range_meters":10000,"station_id":"ce4bgt12rcd13ifvqce0","pricing_plan_id":"cebpf4jnsgd1na2vs0mg"},{"bike_id":"18ef55be-849b-4d56-a344-234d88ed46b1","system_id":"levelo_inurba_marseille","lat":43.30079,"lon":5.39082,"is_reserved":false,"is_disabled":false,"rental_uris":{"android":"levelo://app?vid=18ef55be-849b-4d56-a344-234d88ed46b1","ios":"levelo://app?vid=18ef55be-849b-4d56-a344-234d88ed46b1"},"vehicle_type_id":"4","last_reported":1740409828,"current_range_meters":10800,"station_id":"ce4bh192rcd13ifvqdb0","pricing_plan_id":"cebpf4jnsgd1na2vs0mg"},{"bike_id":"cb398a6c-bb66-4c6f-82db-8a9b1baf3cd6","system_id":"levelo_inurba_marseille","lat":43.30924,"lon":5.36878,"is_reserved":false,"is_disabled":false,"rental_uris":{"android":"levelo://app?vid=cb398a6c-bb66-4c6f-82db-8a9b1baf3cd6","ios":"levelo://app?vid=cb398a6c-bb66-4c6f-82db-8a9b1baf3cd6"},"vehicle_type_id":"4","last_reported":1740409828,"current_range_meters":10000,"station_id":"ce4bgn92rcd13ifvqbvg","pricing_plan_id":"cebpf4jnsgd1na2vs0mg"},{"bike_id":"db32a95e-9e79-4d3f-acdb-caa1b0a8896d","system_id":"levelo_inurba_marseille","lat":43.29301,"lon":5.37454,"is_reserved":false,"is_disabled":false,"rental_uris":{"android":"levelo://app?vid=db32a95e-9e79-4d3f-acdb-caa1b0a8896d","ios":"levelo://app?vid=db32a95e-9e79-4d3f-acdb-caa1b0a8896d"},"vehicle_type_id":"4","last_reported":1740409828,"current_range_meters":10000,"station_id":"ce4bgi12rcd13ifvqb70","pricing_plan_id":"cebpf4jnsgd1na2vs0mg"},{"bike_id":"b8e69f52-0ef4-47cd-a136-635055d28066","system_id":"levelo_inurba_marseille","lat":43.23154,"lon":5.43729,"is_reserved":false,"is_disabled":false,"rental_uris":{"android":"levelo://app?vid=b8e69f52-0ef4-47cd-a136-635055d28066","ios":"levelo://app?vid=b8e69f52-0ef4-47cd-a136-635055d28066"},"vehicle_type_id":"4","last_reported":1740409828,"current_range_meters":11200,"station_id":"ce4bhmp2rcd13ifvqgog","pricing_plan_id":"cebpf4jnsgd1na2vs0mg"},{"bike_id":"83c3112c-67c1-4d82-b727-cd842d9ab071","system_id":"levelo_inurba_marseille","lat":43.24391,"lon":5.37107,"is_reserved":false,"is_disabled":false,"rental_uris":{"android":"levelo://app?vid=83c3112c-67c1-4d82-b727-cd842d9ab071","ios":"levelo://app?vid=83c3112c-67c1-4d82-b727-cd842d9ab071"},"vehicle_type_id":"4","last_reported":1740409828,"current_range_meters":11600,"station_id":"ce4bhhh2rcd13ifvqfk0","pricing_plan_id":"cebpf4jnsgd1na2vs0mg"},{"bike_id":"734f28fb-4a9a-40a3-9d66-f28f686ab40d","system_id":"levelo_inurba_marseille","lat":43.27955,"lon":5.41037,"is_reserved":false,"is_disabled":false,"rental_uris":{"android":"levelo://app?vid=734f28fb-4a9a-40a3-9d66-f28f686ab40d","ios":"levelo://app?vid=734f28fb-4a9a-40a3-9d66-f28f686ab40d"},"vehicle_type_id":"4","last_reported":1740409828,"current_range_meters":10800,"station_id":"ce4bhnp2rcd13ifvqh0g","pricing_plan_id":"cebpf4jnsgd1na2vs0mg"},{"bike_id":"8ff551a1-229e-4006-801e-19ea1c094368","system_id":"levelo_inurba_marseille","lat":43.23144,"lon":5.43716,"is_reserved":false,"is_disabled":false,"rental_uris":{"android":"levelo://app?vid=8ff551a1-229e-4006-801e-19ea1c094368","ios":"levelo://app?vid=8ff551a1-229e-4006-801e-19ea1c094368"},"vehicle_type_id":"4","last_reported":1740409828,"current_range_meters":10800,"station_id":"ce4bhmp2rcd13ifvqgog","pricing_plan_id":"cebpf4jnsgd1na2vs0mg"},{"bike_id":"c76e994b-b749-486d-911d-a2dc96902185","system_id":"levelo_inurba_marseille","lat":43.29182,"lon":5.39314,"is_reserved":false,"is_disabled":false,"rental_uris":{"android":"levelo://app?vid=c76e994b-b749-486d-911d-a2dc96902185","ios":"levelo://app?vid=c76e994b-b749-486d-911d-a2dc96902185"},"vehicle_type_id":"4","last_reported":1740409828,"current_range_meters":10800,"station_id":"ce4bh192rcd13ifvqdd0","pricing_plan_id":"cebpf4jnsgd1na2vs0mg"},{"bike_id":"a12f4e57-f8a5-463b-8328-bb48722cffef","system_id":"levelo_inurba_marseille","lat":43.28663,"lon":5.36337,"is_reserved":false,"is_disabled":false,"rental_uris":{"android":"levelo://app?vid=a12f4e57-f8a5-463b-8328-bb48722cffef","ios":"levelo://app?vid=a12f4e57-f8a5-463b-8328-bb48722cffef"},"vehicle_type_id":"4","last_reported":1740409828,"current_range_meters":10800,"station_id":"ce4bhah2rcd13ifvqej0","pricing_plan_id":"cebpf4jnsgd1na2vs0mg"},{"bike_id":"fb6a8be3-dc0e-4d4f-a97c-8ba1e88733e2","system_id":"levelo_inurba_marseille","lat":43.24073,"lon":5.37754,"is_reserved":false,"is_disabled":false,"rental_uris":{"android":"levelo://app?vid=fb6a8be3-dc0e-4d4f-a97c-8ba1e88733e2","ios":"levelo://app?vid=fb6a8be3-dc0e-4d4f-a97c-8ba1e88733e2"},"vehicle_type_id":"4","last_reported":1740409828,"current_range_meters":11200,"station_id":"ce4bhnp2rcd13ifvqgvg","pricing_plan_id":"cebpf4jnsgd1na2vs0mg"},{"bike_id":"e4f5c3da-3985-4ab1-b203-b73989fb17e3","system_id":"levelo_inurba_marseille","lat":43.29794,"lon":5.38093,"is_reserved":false,"is_disabled":false,"rental_uris":{"android":"levelo://app?vid=e4f5c3da-3985-4ab1-b203-b73989fb17e3","ios":"levelo://app?vid=e4f5c3da-3985-4ab1-b203-b73989fb17e3"},"vehicle_type_id":"4","last_reported":1740409828,"current_range_meters":11200,"station_id":"ce4bgip2rcd13ifvqbb0","pricing_plan_id":"cebpf4jnsgd1na2vs0mg"},{"bike_id":"8e6a2dd2-48b1-4a5c-8b2a-edcef25ed492","system_id":"levelo_inurba_marseille","lat":43.29638,"lon":5.40598,"is_reserved":false,"is_disabled":false,"rental_uris":{"android":"levelo://app?vid=8e6a2dd2-48b1-4a5c-8b2a-edcef25ed492","ios":"levelo://app?vid=8e6a2dd2-48b1-4a5c-8b2a-edcef25ed492"},"vehicle_type_id":"4","last_reported":1740409828,"current_range_meters":8400,"station_id":"ce4bh0h2rcd13ifvqd60","pricing_plan_id":"cebpf4jnsgd1na2vs0mg"},{"bike_id":"f6468d22-bfcf-4aae-977e-7a101a758641","system_id":"levelo_inurba_marseille","lat":43.285203,"lon":5.367348,"is_reserved":false,"is_disabled":false,"rental_uris":{"android":"levelo://app?vid=f6468d22-bfcf-4aae-977e-7a101a758641","ios":"levelo://app?vid=f6468d22-bfcf-4aae-977e-7a101a758641"},"vehicle_type_id":"4","last_reported":1740409828,"current_range_meters":11600,"station_id":"ce4bha12rcd13ifvqef0","pricing_plan_id":"cebpf4jnsgd1na2vs0mg"},{"bike_id":"1a0b050f-f33f-48d2-9894-613d93a341cc","system_id":"levelo_inurba_marseille","lat":43.23193,"lon":5.39989,"is_reserved":false,"is_disabled":false,"rental_uris":{"android":"levelo://app?vid=1a0b050f-f33f-48d2-9894-613d93a341cc","ios":"levelo://app?vid=1a0b050f-f33f-48d2-9894-613d93a341cc"},"vehicle_type_id":"4","last_reported":1740409828,"current_range_meters":11600,"station_id":"ce4bhn12rcd13ifvqgqg","pricing_plan_id":"cebpf4jnsgd1na2vs0mg"},{"bike_id":"aba4b0ca-bd7e-473e-a7a5-13d43db8a4b2","system_id":"levelo_inurba_marseille","lat":43.3237,"lon":5.3677,"is_reserved":false,"is_disabled":false,"rental_uris":{"android":"levelo://app?vid=aba4b0ca-bd7e-473e-a7a5-13d43db8a4b2","ios":"levelo://app?vid=aba4b0ca-bd7e-473e-a7a5-13d43db8a4b2"},"vehicle_type_id":"4","last_reported":1740409828,"current_range_meters":12000,"station_id":"ce4bhsh2rcd13ifvqi2g","pricing_plan_id":"cebpf4jnsgd1na2vs0mg"},{"bike_id":"e5deb594-c1a2-4437-84f4-04984020f537","system_id":"levelo_inurba_marseille","lat":43.29934,"lon":5.36545,"is_reserved":false,"is_disabled":false,"rental_uris":{"android":"levelo://app?vid=e5deb594-c1a2-4437-84f4-04984020f537","ios":"levelo://app?vid=e5deb594-c1a2-4437-84f4-04984020f537"},"vehicle_type_id":"4","last_reported":1740409828,"current_range_meters":12400,"station_id":"ce4bgm92rcd13ifvqbr0","pricing_plan_id":"cebpf4jnsgd1na2vs0mg"},{"bike_id":"ff9a9f67-436b-4222-b4c8-5839a21fa570","system_id":"levelo_inurba_marseille","lat":43.29374,"lon":5.37859,"is_reserved":false,"is_disabled":false,"rental_uris":{"android":"levelo://app?vid=ff9a9f67-436b-4222-b4c8-5839a21fa570","ios":"levelo://app?vid=ff9a9f67-436b-4222-b4c8-5839a21fa570"},"vehicle_type_id":"4","last_reported":1740409828,"current_range_meters":12400,"station_id":"ce4bgjh2rcd13ifvqbf0","pricing_plan_id":"cebpf4jnsgd1na2vs0mg"},{"bike_id":"062ec78a-3e79-498e-a817-44e9d81393c1","system_id":"levelo_inurba_marseille","lat":43.24393,"lon":5.37065,"is_reserved":false,"is_disabled":false,"rental_uris":{"android":"levelo://app?vid=062ec78a-3e79-498e-a817-44e9d81393c1","ios":"levelo://app?vid=062ec78a-3e79-498e-a817-44e9d81393c1"},"vehicle_type_id":"4","last_reported":1740409828,"current_range_meters":12400,"station_id":"ce4bhhh2rcd13ifvqfk0","pricing_plan_id":"cebpf4jnsgd1na2vs0mg"},{"bike_id":"a9b44e3b-8947-4f36-8eb9-0094799f2df2","system_id":"levelo_inurba_marseille","lat":43.30541,"lon":5.36727,"is_reserved":false,"is_disabled":false,"rental_uris":{"android":"levelo://app?vid=a9b44e3b-8947-4f36-8eb9-0094799f2df2","ios":"levelo://app?vid=a9b44e3b-8947-4f36-8eb9-0094799f2df2"},"vehicle_type_id":"4","last_reported":1740409828,"current_range_meters":12000,"station_id":"ce4bgrp2rcd13ifvqc9g","pricing_plan_id":"cebpf4jnsgd1na2vs0mg"},{"bike_id":"24c6700b-e604-4be3-8696-2fb4e3ab9985","system_id":"levelo_inurba_marseille","lat":43.25723,"lon":5.4112,"is_reserved":false,"is_disabled":false,"rental_uris":{"android":"levelo://app?vid=24c6700b-e604-4be3-8696-2fb4e3ab9985","ios":"levelo://app?vid=24c6700b-e604-4be3-8696-2fb4e3ab9985"},"vehicle_type_id":"4","last_reported":1740409828,"current_range_meters":12800,"station_id":"ce4bhkp2rcd13ifvqgd0","pricing_plan_id":"cebpf4jnsgd1na2vs0mg"},{"bike_id":"643fc280-ca54-48e7-a137-f1a059dd085c","system_id":"levelo_inurba_marseille","lat":43.24182,"lon":5.39737,"is_reserved":false,"is_disabled":false,"rental_uris":{"android":"levelo://app?vid=643fc280-ca54-48e7-a137-f1a059dd085c","ios":"levelo://app?vid=643fc280-ca54-48e7-a137-f1a059dd085c"},"vehicle_type_id":"4","last_reported":1740409828,"current_range_meters":12800,"station_id":"ce4bhn12rcd13ifvqgpg","pricing_plan_id":"cebpf4jnsgd1na2vs0mg"},{"bike_id":"b32b2208-421b-42ed-9379-1b1cf20aa27f","system_id":"levelo_inurba_marseille","lat":43.31395,"lon":5.3848,"is_reserved":false,"is_disabled":false,"rental_uris":{"android":"levelo://app?vid=b32b2208-421b-42ed-9379-1b1cf20aa27f","ios":"levelo://app?vid=b32b2208-421b-42ed-9379-1b1cf20aa27f"},"vehicle_type_id":"4","last_reported":1740409828,"current_range_meters":12800,"station_id":"ce4bgt92rcd13ifvqcf0","pricing_plan_id":"cebpf4jnsgd1na2vs0mg"},{"bike_id":"857c6d7d-b13c-43c4-80a3-1c3fc70cc702","system_id":"levelo_inurba_marseille","lat":43.2828,"lon":5.35065,"is_reserved":false,"is_disabled":false,"rental_uris":{"android":"levelo://app?vid=857c6d7d-b13c-43c4-80a3-1c3fc70cc702","ios":"levelo://app?vid=857c6d7d-b13c-43c4-80a3-1c3fc70cc702"},"vehicle_type_id":"4","last_reported":1740409828,"current_range_meters":12800,"station_id":"ce4bhbp2rcd13ifvqerg","pricing_plan_id":"cebpf4jnsgd1na2vs0mg"},{"bike_id":"674cb057-5d42-4512-ae8c-448c1f63016b","system_id":"levelo_inurba_marseille","lat":43.30362,"lon":5.39443,"is_reserved":false,"is_disabled":false,"rental_uris":{"android":"levelo://app?vid=674cb057-5d42-4512-ae8c-448c1f63016b","ios":"levelo://app?vid=674cb057-5d42-4512-ae8c-448c1f63016b"},"vehicle_type_id":"4","last_reported":1740409828,"current_range_meters":13600,"station_id":"","pricing_plan_id":"cebpf4jnsgd1na2vs0mg"},{"bike_id":"054a8c13-e003-4a19-8213-3d429c22f36e","system_id":"levelo_inurba_marseille","lat":43.24169,"lon":5.36394,"is_reserved":false,"is_disabled":false,"rental_uris":{"android":"levelo://app?vid=054a8c13-e003-4a19-8213-3d429c22f36e","ios":"levelo://app?vid=054a8c13-e003-4a19-8213-3d429c22f36e"},"vehicle_type_id":"4","last_reported":1740409828,"current_range_meters":12000,"station_id":"cpo36qri1sfpv3e86is0","pricing_plan_id":"cebpf4jnsgd1na2vs0mg"},{"bike_id":"a2d983fa-b1df-4cf2-a15e-7a22d4131e2d","system_id":"levelo_inurba_marseille","lat":43.24067,"lon":5.37769,"is_reserved":false,"is_disabled":false,"rental_uris":{"android":"levelo://app?vid=a2d983fa-b1df-4cf2-a15e-7a22d4131e2d","ios":"levelo://app?vid=a2d983fa-b1df-4cf2-a15e-7a22d4131e2d"},"vehicle_type_id":"4","last_reported":1740409828,"current_range_meters":13600,"station_id":"ce4bhnp2rcd13ifvqgvg","pricing_plan_id":"cebpf4jnsgd1na2vs0mg"},{"bike_id":"e093919c-389a-4e96-ab47-b1569f372e17","system_id":"levelo_inurba_marseille","lat":43.2694,"lon":5.40261,"is_reserved":false,"is_disabled":false,"rental_uris":{"android":"levelo://app?vid=e093919c-389a-4e96-ab47-b1569f372e17","ios":"levelo://app?vid=e093919c-389a-4e96-ab47-b1569f372e17"},"vehicle_type_id":"4","last_reported":1740409828,"current_range_meters":14800,"station_id":"cjm6bp8fraef2m0cb0m0","pricing_plan_id":"cebpf4jnsgd1na2vs0mg"},{"bike_id":"2faea67b-00b9-44f4-86a5-ccca349622da","system_id":"levelo_inurba_marseille","lat":43.2593,"lon":5.40891,"is_reserved":false,"is_disabled":false,"rental_uris":{"android":"levelo://app?vid=2faea67b-00b9-44f4-86a5-ccca349622da","ios":"levelo://app?vid=2faea67b-00b9-44f4-86a5-ccca349622da"},"vehicle_type_id":"4","last_reported":1740409828,"current_range_meters":14000,"station_id":"ce4bhm92rcd13ifvqglg","pricing_plan_id":"cebpf4jnsgd1na2vs0mg"},{"bike_id":"4e726690-c1f4-41ff-a7b7-0561bc9b0e2c","system_id":"levelo_inurba_marseille","lat":43.29204,"lon":5.3933,"is_reserved":false,"is_disabled":false,"rental_uris":{"android":"levelo://app?vid=4e726690-c1f4-41ff-a7b7-0561bc9b0e2c","ios":"levelo://app?vid=4e726690-c1f4-41ff-a7b7-0561bc9b0e2c"},"vehicle_type_id":"4","last_reported":1740409828,"current_range_meters":12800,"station_id":"ce4bh192rcd13ifvqdd0","pricing_plan_id":"cebpf4jnsgd1na2vs0mg"},{"bike_id":"51bffffd-b5c9-47a5-b13d-6a2437e7bb7b","system_id":"levelo_inurba_marseille","lat":43.29614,"lon":5.38097,"is_reserved":false,"is_disabled":false,"rental_uris":{"android":"levelo://app?vid=51bffffd-b5c9-47a5-b13d-6a2437e7bb7b","ios":"levelo://app?vid=51bffffd-b5c9-47a5-b13d-6a2437e7bb7b"},"vehicle_type_id":"4","last_reported":1740409828,"current_range_meters":13600,"station_id":"ce4bgl12rcd13ifvqbo0","pricing_plan_id":"cebpf4jnsgd1na2vs0mg"},{"bike_id":"dcfaf5c6-be3a-42e9-9c96-99d4a05b5ac2","system_id":"levelo_inurba_marseille","lat":43.25924,"lon":5.40884,"is_reserved":false,"is_disabled":false,"rental_uris":{"android":"levelo://app?vid=dcfaf5c6-be3a-42e9-9c96-99d4a05b5ac2","ios":"levelo://app?vid=dcfaf5c6-be3a-42e9-9c96-99d4a05b5ac2"},"vehicle_type_id":"4","last_reported":1740409828,"current_range_meters":14000,"station_id":"ce4bhm92rcd13ifvqglg","pricing_plan_id":"cebpf4jnsgd1na2vs0mg"},{"bike_id":"b5862bc0-79eb-4fb4-ae2c-11b8561d5bac","system_id":"levelo_inurba_marseille","lat":43.25823,"lon":5.3943,"is_reserved":false,"is_disabled":false,"rental_uris":{"android":"levelo://app?vid=b5862bc0-79eb-4fb4-ae2c-11b8561d5bac","ios":"levelo://app?vid=b5862bc0-79eb-4fb4-ae2c-11b8561d5bac"},"vehicle_type_id":"4","last_reported":1740409828,"current_range_meters":14000,"station_id":"ce4bhip2rcd13ifvqft0","pricing_plan_id":"cebpf4jnsgd1na2vs0mg"},{"bike_id":"ed03d327-36b2-4cfd-8752-2b6b39efbf15","system_id":"levelo_inurba_marseille","lat":43.29292,"lon":5.36849,"is_reserved":false,"is_disabled":false,"rental_uris":{"android":"levelo://app?vid=ed03d327-36b2-4cfd-8752-2b6b39efbf15","ios":"levelo://app?vid=ed03d327-36b2-4cfd-8752-2b6b39efbf15"},"vehicle_type_id":"4","last_reported":1740409828,"current_range_meters":14000,"station_id":"ce4bhbp2rcd13ifvqesg","pricing_plan_id":"cebpf4jnsgd1na2vs0mg"},{"bike_id":"2c79d0e9-b47c-4e9e-90d0-9d0bb000588f","system_id":"levelo_inurba_marseille","lat":43.295227,"lon":5.394063,"is_reserved":false,"is_disabled":false,"rental_uris":{"android":"levelo://app?vid=2c79d0e9-b47c-4e9e-90d0-9d0bb000588f","ios":"levelo://app?vid=2c79d0e9-b47c-4e9e-90d0-9d0bb000588f"},"vehicle_type_id":"4","last_reported":1740409828,"current_range_meters":14000,"station_id":"ce4bh3p2rcd13ifvqdq0","pricing_plan_id":"cebpf4jnsgd1na2vs0mg"},{"bike_id":"130ab319-f673-4e36-9717-343d196c6cce","system_id":"levelo_inurba_marseille","lat":43.23191,"lon":5.39987,"is_reserved":false,"is_disabled":false,"rental_uris":{"android":"levelo://app?vid=130ab319-f673-4e36-9717-343d196c6cce","ios":"levelo://app?vid=130ab319-f673-4e36-9717-343d196c6cce"},"vehicle_type_id":"4","last_reported":1740409828,"current_range_meters":14400,"station_id":"ce4bhn12rcd13ifvqgqg","pricing_plan_id":"cebpf4jnsgd1na2vs0mg"},{"bike_id":"8e6a8add-5cc7-474e-af4a-9151094e8109","system_id":"levelo_inurba_marseille","lat":43.29848,"lon":5.3629,"is_reserved":false,"is_disabled":false,"rental_uris":{"android":"levelo://app?vid=8e6a8add-5cc7-474e-af4a-9151094e8109","ios":"levelo://app?vid=8e6a8add-5cc7-474e-af4a-9151094e8109"},"vehicle_type_id":"4","last_reported":1740409828,"current_range_meters":14400,"station_id":"ce4bgpp2rcd13ifvqc3g","pricing_plan_id":"cebpf4jnsgd1na2vs0mg"},{"bike_id":"dc86b0d3-3360-49b4-9f3f-5c2f2e8eb085","system_id":"levelo_inurba_marseille","lat":43.23959,"lon":5.36635,"is_reserved":false,"is_disabled":false,"rental_uris":{"android":"levelo://app?vid=dc86b0d3-3360-49b4-9f3f-5c2f2e8eb085","ios":"levelo://app?vid=dc86b0d3-3360-49b4-9f3f-5c2f2e8eb085"},"vehicle_type_id":"4","last_reported":1740409828,"current_range_meters":14400,"station_id":"ce4bhi12rcd13ifvqfp0","pricing_plan_id":"cebpf4jnsgd1na2vs0mg"},{"bike_id":"6afc941a-1cb8-4c0a-b7a6-d29cbb0943f3","system_id":"levelo_inurba_marseille","lat":43.27813,"lon":5.40713,"is_reserved":false,"is_disabled":false,"rental_uris":{"android":"levelo://app?vid=6afc941a-1cb8-4c0a-b7a6-d29cbb0943f3","ios":"levelo://app?vid=6afc941a-1cb8-4c0a-b7a6-d29cbb0943f3"},"vehicle_type_id":"4","last_reported":1740409828,"current_range_meters":14800,"station_id":"ce4bhnh2rcd13ifvqgtg","pricing_plan_id":"cebpf4jnsgd1na2vs0mg"},{"bike_id":"cde2e6ae-f610-4209-b292-1183ab73619b","system_id":"levelo_inurba_marseille","lat":43.29209,"lon":5.39326,"is_reserved":false,"is_disabled":false,"rental_uris":{"android":"levelo://app?vid=cde2e6ae-f610-4209-b292-1183ab73619b","ios":"levelo://app?vid=cde2e6ae-f610-4209-b292-1183ab73619b"},"vehicle_type_id":"4","last_reported":1740409828,"current_range_meters":14800,"station_id":"ce4bh192rcd13ifvqdd0","pricing_plan_id":"cebpf4jnsgd1na2vs0mg"},{"bike_id":"b8a5fb7f-4318-4927-b2f7-3e58c714a136","system_id":"levelo_inurba_marseille","lat":43.30168,"lon":5.38086,"is_reserved":false,"is_disabled":false,"rental_uris":{"android":"levelo://app?vid=b8a5fb7f-4318-4927-b2f7-3e58c714a136","ios":"levelo://app?vid=b8a5fb7f-4318-4927-b2f7-3e58c714a136"},"vehicle_type_id":"4","last_reported":1740409828,"current_range_meters":16000,"station_id":"ce4bgjp2rcd13ifvqbh0","pricing_plan_id":"cebpf4jnsgd1na2vs0mg"},{"bike_id":"c1b9c654-f9ca-42f4-a819-474a263bb370","system_id":"levelo_inurba_marseille","lat":43.27029,"lon":5.36422,"is_reserved":false,"is_disabled":false,"rental_uris":{"android":"levelo://app?vid=c1b9c654-f9ca-42f4-a819-474a263bb370","ios":"levelo://app?vid=c1b9c654-f9ca-42f4-a819-474a263bb370"},"vehicle_type_id":"4","last_reported":1740409828,"current_range_meters":15200,"station_id":"ce4bhbp2rcd13ifvqerg","pricing_plan_id":"cebpf4jnsgd1na2vs0mg"},{"bike_id":"3955baac-31b6-4fd0-9e7d-340e7a161204","system_id":"levelo_inurba_marseille","lat":43.29736,"lon":5.37707,"is_reserved":false,"is_disabled":false,"rental_uris":{"android":"levelo://app?vid=3955baac-31b6-4fd0-9e7d-340e7a161204","ios":"levelo://app?vid=3955baac-31b6-4fd0-9e7d-340e7a161204"},"vehicle_type_id":"4","last_reported":1740409828,"current_range_meters":15200,"station_id":"ce4bgkh2rcd13ifvqbl0","pricing_plan_id":"cebpf4jnsgd1na2vs0mg"},{"bike_id":"8237b5c3-c452-4b43-aa91-c0a06ae17024","system_id":"levelo_inurba_marseille","lat":43.28722,"lon":5.3609,"is_reserved":false,"is_disabled":false,"rental_uris":{"android":"levelo://app?vid=8237b5c3-c452-4b43-aa91-c0a06ae17024","ios":"levelo://app?vid=8237b5c3-c452-4b43-aa91-c0a06ae17024"},"vehicle_type_id":"4","last_reported":1740409828,"current_range_meters":16400,"station_id":"cki0cbj6b192h4jlfktg","pricing_plan_id":"cebpf4jnsgd1na2vs0mg"},{"bike_id":"8e3e6f13-2d9f-4b9c-9895-8df836891ed8","system_id":"levelo_inurba_marseille","lat":43.30546,"lon":5.36707,"is_reserved":false,"is_disabled":false,"rental_uris":{"android":"levelo://app?vid=8e3e6f13-2d9f-4b9c-9895-8df836891ed8","ios":"levelo://app?vid=8e3e6f13-2d9f-4b9c-9895-8df836891ed8"},"vehicle_type_id":"4","last_reported":1740409828,"current_range_meters":15200,"station_id":"ce4bgrp2rcd13ifvqc9g","pricing_plan_id":"cebpf4jnsgd1na2vs0mg"},{"bike_id":"c3557dd8-877a-4804-b95c-715073eb678c","system_id":"levelo_inurba_marseille","lat":43.30536,"lon":5.3656,"is_reserved":false,"is_disabled":false,"rental_uris":{"android":"levelo://app?vid=c3557dd8-877a-4804-b95c-715073eb678c","ios":"levelo://app?vid=c3557dd8-877a-4804-b95c-715073eb678c"},"vehicle_type_id":"4","last_reported":1740409828,"current_range_meters":15200,"station_id":"ce4bgs12rcd13ifvqcag","pricing_plan_id":"cebpf4jnsgd1na2vs0mg"},{"bike_id":"c1fc0886-1016-4362-99dd-76af1965cd33","system_id":"levelo_inurba_marseille","lat":43.27962,"lon":5.41058,"is_reserved":false,"is_disabled":false,"rental_uris":{"android":"levelo://app?vid=c1fc0886-1016-4362-99dd-76af1965cd33","ios":"levelo://app?vid=c1fc0886-1016-4362-99dd-76af1965cd33"},"vehicle_type_id":"4","last_reported":1740409828,"current_range_meters":15200,"station_id":"ce4bhnp2rcd13ifvqh0g","pricing_plan_id":"cebpf4jnsgd1na2vs0mg"},{"bike_id":"2380cec1-1c55-47ae-9248-f8ddf7e53b06","system_id":"levelo_inurba_marseille","lat":43.23145,"lon":5.43712,"is_reserved":false,"is_disabled":false,"rental_uris":{"android":"levelo://app?vid=2380cec1-1c55-47ae-9248-f8ddf7e53b06","ios":"levelo://app?vid=2380cec1-1c55-47ae-9248-f8ddf7e53b06"},"vehicle_type_id":"4","last_reported":1740409828,"current_range_meters":16800,"station_id":"ce4bhmp2rcd13ifvqgog","pricing_plan_id":"cebpf4jnsgd1na2vs0mg"},{"bike_id":"6f9eb619-ce1a-440a-9085-673242f78425","system_id":"levelo_inurba_marseille","lat":43.29496,"lon":5.37529,"is_reserved":false,"is_disabled":true,"rental_uris":{"android":"levelo://app?vid=6f9eb619-ce1a-440a-9085-673242f78425","ios":"levelo://app?vid=6f9eb619-ce1a-440a-9085-673242f78425"},"vehicle_type_id":"4","last_reported":1740409828,"current_range_meters":16000,"station_id":"","pricing_plan_id":"cebpf4jnsgd1na2vs0mg"},{"bike_id":"95e66a56-63a6-457b-9a00-2c668df99a49","system_id":"levelo_inurba_marseille","lat":43.27907,"lon":5.39593,"is_reserved":false,"is_disabled":false,"rental_uris":{"android":"levelo://app?vid=95e66a56-63a6-457b-9a00-2c668df99a49","ios":"levelo://app?vid=95e66a56-63a6-457b-9a00-2c668df99a49"},"vehicle_type_id":"4","last_reported":1740409828,"current_range_meters":16000,"station_id":"ce4bhf92rcd13ifvqf40","pricing_plan_id":"cebpf4jnsgd1na2vs0mg"},{"bike_id":"b3626b59-5e99-4f9e-a3ed-b436a4d1bb68","system_id":"levelo_inurba_marseille","lat":43.30416,"lon":5.41283,"is_reserved":false,"is_disabled":false,"rental_uris":{"android":"levelo://app?vid=b3626b59-5e99-4f9e-a3ed-b436a4d1bb68","ios":"levelo://app?vid=b3626b59-5e99-4f9e-a3ed-b436a4d1bb68"},"vehicle_type_id":"4","last_reported":1740409828,"current_range_meters":16000,"station_id":"ce4bhop2rcd13ifvqh8g","pricing_plan_id":"cebpf4jnsgd1na2vs0mg"},{"bike_id":"d2610799-3b25-4010-8a8a-a9ba4108f5fb","system_id":"levelo_inurba_marseille","lat":43.25003,"lon":5.38944,"is_reserved":false,"is_disabled":false,"rental_uris":{"android":"levelo://app?vid=d2610799-3b25-4010-8a8a-a9ba4108f5fb","ios":"levelo://app?vid=d2610799-3b25-4010-8a8a-a9ba4108f5fb"},"vehicle_type_id":"4","last_reported":1740409828,"current_range_meters":16000,"station_id":"ce4bhgp2rcd13ifvqfd0","pricing_plan_id":"cebpf4jnsgd1na2vs0mg"},{"bike_id":"0419dd1f-5852-4936-9b7b-72bbc812665b","system_id":"levelo_inurba_marseille","lat":43.28931,"lon":5.38404,"is_reserved":false,"is_disabled":false,"rental_uris":{"android":"levelo://app?vid=0419dd1f-5852-4936-9b7b-72bbc812665b","ios":"levelo://app?vid=0419dd1f-5852-4936-9b7b-72bbc812665b"},"vehicle_type_id":"4","last_reported":1740409828,"current_range_meters":16000,"station_id":"ce4bh612rcd13ifvqe6g","pricing_plan_id":"cebpf4jnsgd1na2vs0mg"},{"bike_id":"cb5e62f4-cf83-4465-beb7-51d0d5ccb23a","system_id":"levelo_inurba_marseille","lat":43.29691,"lon":5.37292,"is_reserved":false,"is_disabled":false,"rental_uris":{"android":"levelo://app?vid=cb5e62f4-cf83-4465-beb7-51d0d5ccb23a","ios":"levelo://app?vid=cb5e62f4-cf83-4465-beb7-51d0d5ccb23a"},"vehicle_type_id":"4","last_reported":1740409828,"current_range_meters":16400,"station_id":"ce4bgk12rcd13ifvqbj0","pricing_plan_id":"cebpf4jnsgd1na2vs0mg"},{"bike_id":"1cc7d386-c0f4-4ead-b949-abf7e37f87fb","system_id":"levelo_inurba_marseille","lat":43.30192,"lon":5.36603,"is_reserved":false,"is_disabled":false,"rental_uris":{"android":"levelo://app?vid=1cc7d386-c0f4-4ead-b949-abf7e37f87fb","ios":"levelo://app?vid=1cc7d386-c0f4-4ead-b949-abf7e37f87fb"},"vehicle_type_id":"4","last_reported":1740409828,"current_range_meters":16400,"station_id":"ce4bgrh2rcd13ifvqc8g","pricing_plan_id":"cebpf4jnsgd1na2vs0mg"},{"bike_id":"e118f485-fbea-4ea5-ae41-1df189c26875","system_id":"levelo_inurba_marseille","lat":43.25722,"lon":5.41119,"is_reserved":false,"is_disabled":false,"rental_uris":{"android":"levelo://app?vid=e118f485-fbea-4ea5-ae41-1df189c26875","ios":"levelo://app?vid=e118f485-fbea-4ea5-ae41-1df189c26875"},"vehicle_type_id":"4","last_reported":1740409828,"current_range_meters":16800,"station_id":"ce4bhkp2rcd13ifvqgd0","pricing_plan_id":"cebpf4jnsgd1na2vs0mg"},{"bike_id":"e37489bc-03d1-4632-a37c-332b03559c35","system_id":"levelo_inurba_marseille","lat":43.30535,"lon":5.36548,"is_reserved":false,"is_disabled":false,"rental_uris":{"android":"levelo://app?vid=e37489bc-03d1-4632-a37c-332b03559c35","ios":"levelo://app?vid=e37489bc-03d1-4632-a37c-332b03559c35"},"vehicle_type_id":"4","last_reported":1740409828,"current_range_meters":16400,"station_id":"ce4bgs12rcd13ifvqcag","pricing_plan_id":"cebpf4jnsgd1na2vs0mg"},{"bike_id":"52bb58be-e15d-4e91-8aea-db18f37e82c3","system_id":"levelo_inurba_marseille","lat":43.2861,"lon":5.37064,"is_reserved":false,"is_disabled":false,"rental_uris":{"android":"levelo://app?vid=52bb58be-e15d-4e91-8aea-db18f37e82c3","ios":"levelo://app?vid=52bb58be-e15d-4e91-8aea-db18f37e82c3"},"vehicle_type_id":"4","last_reported":1740409828,"current_range_meters":16800,"station_id":"ce4bht12rcd13ifvqi60","pricing_plan_id":"cebpf4jnsgd1na2vs0mg"},{"bike_id":"d73c3964-ce51-40e1-ae4f-0fd05117f610","system_id":"levelo_inurba_marseille","lat":43.29195,"lon":5.35816,"is_reserved":false,"is_disabled":false,"rental_uris":{"android":"levelo://app?vid=d73c3964-ce51-40e1-ae4f-0fd05117f610","ios":"levelo://app?vid=d73c3964-ce51-40e1-ae4f-0fd05117f610"},"vehicle_type_id":"4","last_reported":1740409828,"current_range_meters":16400,"station_id":"ce4bhb12rcd13ifvqel0","pricing_plan_id":"cebpf4jnsgd1na2vs0mg"},{"bike_id":"abef7188-d18a-451c-9be1-a5cb1a90671b","system_id":"levelo_inurba_marseille","lat":43.23071,"lon":5.35499,"is_reserved":false,"is_disabled":false,"rental_uris":{"android":"levelo://app?vid=abef7188-d18a-451c-9be1-a5cb1a90671b","ios":"levelo://app?vid=abef7188-d18a-451c-9be1-a5cb1a90671b"},"vehicle_type_id":"4","last_reported":1740409828,"current_range_meters":16400,"station_id":"","pricing_plan_id":"cebpf4jnsgd1na2vs0mg"},{"bike_id":"68d297a4-3ed2-49a6-9edb-f42ccfd3ed91","system_id":"levelo_inurba_marseille","lat":43.277319,"lon":5.388605,"is_reserved":false,"is_disabled":false,"rental_uris":{"android":"levelo://app?vid=68d297a4-3ed2-49a6-9edb-f42ccfd3ed91","ios":"levelo://app?vid=68d297a4-3ed2-49a6-9edb-f42ccfd3ed91"},"vehicle_type_id":"4","last_reported":1740409828,"current_range_meters":18800,"station_id":"ce4bh292rcd13ifvqdf0","pricing_plan_id":"cebpf4jnsgd1na2vs0mg"},{"bike_id":"490e0b2f-1cb1-49dd-90c6-d8ed026aeda8","system_id":"levelo_inurba_marseille","lat":43.30544,"lon":5.36703,"is_reserved":false,"is_disabled":false,"rental_uris":{"android":"levelo://app?vid=490e0b2f-1cb1-49dd-90c6-d8ed026aeda8","ios":"levelo://app?vid=490e0b2f-1cb1-49dd-90c6-d8ed026aeda8"},"vehicle_type_id":"4","last_reported":1740409828,"current_range_meters":16400,"station_id":"ce4bgrp2rcd13ifvqc9g","pricing_plan_id":"cebpf4jnsgd1na2vs0mg"},{"bike_id":"b8d9a314-6701-45c1-bb82-3b1b66aae81c","system_id":"levelo_inurba_marseille","lat":43.30936,"lon":5.40148,"is_reserved":false,"is_disabled":false,"rental_uris":{"android":"levelo://app?vid=b8d9a314-6701-45c1-bb82-3b1b66aae81c","ios":"levelo://app?vid=b8d9a314-6701-45c1-bb82-3b1b66aae81c"},"vehicle_type_id":"4","last_reported":1740409828,"current_range_meters":16400,"station_id":"ce4bgvp2rcd13ifvqct0","pricing_plan_id":"cebpf4jnsgd1na2vs0mg"},{"bike_id":"55d7d4f9-2951-4921-8c51-7fed6a26871d","system_id":"levelo_inurba_marseille","lat":43.29854,"lon":5.36281,"is_reserved":false,"is_disabled":false,"rental_uris":{"android":"levelo://app?vid=55d7d4f9-2951-4921-8c51-7fed6a26871d","ios":"levelo://app?vid=55d7d4f9-2951-4921-8c51-7fed6a26871d"},"vehicle_type_id":"4","last_reported":1740409828,"current_range_meters":16800,"station_id":"ce4bgpp2rcd13ifvqc3g","pricing_plan_id":"cebpf4jnsgd1na2vs0mg"},{"bike_id":"05f51bd6-bf8c-4b6c-ba2f-d7bf7cec3006","system_id":"levelo_inurba_marseille","lat":43.23181,"lon":5.35564,"is_reserved":false,"is_disabled":false,"rental_uris":{"android":"levelo://app?vid=05f51bd6-bf8c-4b6c-ba2f-d7bf7cec3006","ios":"levelo://app?vid=05f51bd6-bf8c-4b6c-ba2f-d7bf7cec3006"},"vehicle_type_id":"4","last_reported":1740409828,"current_range_meters":16800,"station_id":"ce4bhu92rcd13ifvqi70","pricing_plan_id":"cebpf4jnsgd1na2vs0mg"},{"bike_id":"84ffc200-6cd1-4a87-8a85-3dd36b9ec35e","system_id":"levelo_inurba_marseille","lat":43.29712,"lon":5.37702,"is_reserved":false,"is_disabled":false,"rental_uris":{"android":"levelo://app?vid=84ffc200-6cd1-4a87-8a85-3dd36b9ec35e","ios":"levelo://app?vid=84ffc200-6cd1-4a87-8a85-3dd36b9ec35e"},"vehicle_type_id":"4","last_reported":1740409828,"current_range_meters":16800,"station_id":"ce4bgkh2rcd13ifvqbl0","pricing_plan_id":"cebpf4jnsgd1na2vs0mg"},{"bike_id":"80b922ce-ab44-4f9c-b9b3-8bc1bcc29460","system_id":"levelo_inurba_marseille","lat":43.28147,"lon":5.42652,"is_reserved":false,"is_disabled":false,"rental_uris":{"android":"levelo://app?vid=80b922ce-ab44-4f9c-b9b3-8bc1bcc29460","ios":"levelo://app?vid=80b922ce-ab44-4f9c-b9b3-8bc1bcc29460"},"vehicle_type_id":"4","last_reported":1740409828,"current_range_meters":17200,"station_id":"ce4bhnh2rcd13ifvqgug","pricing_plan_id":"cebpf4jnsgd1na2vs0mg"},{"bike_id":"f6f8c3a5-484e-4733-89b4-8125aa6e5bb6","system_id":"levelo_inurba_marseille","lat":43.26207,"lon":5.37924,"is_reserved":false,"is_disabled":false,"rental_uris":{"android":"levelo://app?vid=f6f8c3a5-484e-4733-89b4-8125aa6e5bb6","ios":"levelo://app?vid=f6f8c3a5-484e-4733-89b4-8125aa6e5bb6"},"vehicle_type_id":"4","last_reported":1740409828,"current_range_meters":17200,"station_id":"ce4bhjp2rcd13ifvqg90","pricing_plan_id":"cebpf4jnsgd1na2vs0mg"},{"bike_id":"4219c8e8-6bc5-48a5-8361-b442ab8c6935","system_id":"levelo_inurba_marseille","lat":43.29523,"lon":5.38546,"is_reserved":false,"is_disabled":false,"rental_uris":{"android":"levelo://app?vid=4219c8e8-6bc5-48a5-8361-b442ab8c6935","ios":"levelo://app?vid=4219c8e8-6bc5-48a5-8361-b442ab8c6935"},"vehicle_type_id":"4","last_reported":1740409828,"current_range_meters":16400,"station_id":"ce4bgih2rcd13ifvqba0","pricing_plan_id":"cebpf4jnsgd1na2vs0mg"},{"bike_id":"254b67b1-580a-4ebb-b883-ef27f702d657","system_id":"levelo_inurba_marseille","lat":43.28152,"lon":5.42647,"is_reserved":false,"is_disabled":false,"rental_uris":{"android":"levelo://app?vid=254b67b1-580a-4ebb-b883-ef27f702d657","ios":"levelo://app?vid=254b67b1-580a-4ebb-b883-ef27f702d657"},"vehicle_type_id":"4","last_reported":1740409828,"current_range_meters":17600,"station_id":"ce4bhnh2rcd13ifvqgug","pricing_plan_id":"cebpf4jnsgd1na2vs0mg"},{"bike_id":"fe4de00a-07c7-429f-a0d4-7b4f4668f2ce","system_id":"levelo_inurba_marseille","lat":43.33019,"lon":5.39037,"is_reserved":false,"is_disabled":false,"rental_uris":{"android":"levelo://app?vid=fe4de00a-07c7-429f-a0d4-7b4f4668f2ce","ios":"levelo://app?vid=fe4de00a-07c7-429f-a0d4-7b4f4668f2ce"},"vehicle_type_id":"4","last_reported":1740409828,"current_range_meters":17200,"station_id":"ce4bhr92rcd13ifvqhrg","pricing_plan_id":"cebpf4jnsgd1na2vs0mg"},{"bike_id":"6f20dd05-a602-49b3-9fbf-ad37e307aa3c","system_id":"levelo_inurba_marseille","lat":43.27674,"lon":5.38887,"is_reserved":false,"is_disabled":false,"rental_uris":{"android":"levelo://app?vid=6f20dd05-a602-49b3-9fbf-ad37e307aa3c","ios":"levelo://app?vid=6f20dd05-a602-49b3-9fbf-ad37e307aa3c"},"vehicle_type_id":"4","last_reported":1740409828,"current_range_meters":17600,"station_id":"ce4bhi12rcd13ifvqfo0","pricing_plan_id":"cebpf4jnsgd1na2vs0mg"},{"bike_id":"de54b84e-d754-4cf9-97ed-7d6cd44576a6","system_id":"levelo_inurba_marseille","lat":43.278153,"lon":5.407133,"is_reserved":false,"is_disabled":false,"rental_uris":{"android":"levelo://app?vid=de54b84e-d754-4cf9-97ed-7d6cd44576a6","ios":"levelo://app?vid=de54b84e-d754-4cf9-97ed-7d6cd44576a6"},"vehicle_type_id":"4","last_reported":1740409828,"current_range_meters":17200,"station_id":"ce4bhnh2rcd13ifvqgtg","pricing_plan_id":"cebpf4jnsgd1na2vs0mg"},{"bike_id":"c03ecf9b-973f-41d8-a0ce-98f4f45512ee","system_id":"levelo_inurba_marseille","lat":43.28672,"lon":5.36351,"is_reserved":false,"is_disabled":false,"rental_uris":{"android":"levelo://app?vid=c03ecf9b-973f-41d8-a0ce-98f4f45512ee","ios":"levelo://app?vid=c03ecf9b-973f-41d8-a0ce-98f4f45512ee"},"vehicle_type_id":"4","last_reported":1740409828,"current_range_meters":16400,"station_id":"ce4bhah2rcd13ifvqej0","pricing_plan_id":"cebpf4jnsgd1na2vs0mg"},{"bike_id":"1c2f3bdc-68fa-40a8-b99e-fcf41f32f9e4","system_id":"levelo_inurba_marseille","lat":43.29221,"lon":5.40514,"is_reserved":false,"is_disabled":false,"rental_uris":{"android":"levelo://app?vid=1c2f3bdc-68fa-40a8-b99e-fcf41f32f9e4","ios":"levelo://app?vid=1c2f3bdc-68fa-40a8-b99e-fcf41f32f9e4"},"vehicle_type_id":"4","last_reported":1740409828,"current_range_meters":17200,"station_id":"","pricing_plan_id":"cebpf4jnsgd1na2vs0mg"},{"bike_id":"2036f24d-841d-4656-8ff6-76ae435303b7","system_id":"levelo_inurba_marseille","lat":43.29661,"lon":5.37146,"is_reserved":false,"is_disabled":false,"rental_uris":{"android":"levelo://app?vid=2036f24d-841d-4656-8ff6-76ae435303b7","ios":"levelo://app?vid=2036f24d-841d-4656-8ff6-76ae435303b7"},"vehicle_type_id":"4","last_reported":1740409828,"current_range_meters":17200,"station_id":"ce4bgnh2rcd13ifvqc0g","pricing_plan_id":"cebpf4jnsgd1na2vs0mg"},{"bike_id":"a9afe926-b99e-40c4-8f4d-f067936df36b","system_id":"levelo_inurba_marseille","lat":43.32106,"lon":5.36812,"is_reserved":false,"is_disabled":false,"rental_uris":{"android":"levelo://app?vid=a9afe926-b99e-40c4-8f4d-f067936df36b","ios":"levelo://app?vid=a9afe926-b99e-40c4-8f4d-f067936df36b"},"vehicle_type_id":"4","last_reported":1740409828,"current_range_meters":17200,"station_id":"ce4bhrh2rcd13ifvqhug","pricing_plan_id":"cebpf4jnsgd1na2vs0mg"},{"bike_id":"ee83707b-16c2-4154-8c55-dd06ab591e73","system_id":"levelo_inurba_marseille","lat":43.32374,"lon":5.3676,"is_reserved":false,"is_disabled":false,"rental_uris":{"android":"levelo://app?vid=ee83707b-16c2-4154-8c55-dd06ab591e73","ios":"levelo://app?vid=ee83707b-16c2-4154-8c55-dd06ab591e73"},"vehicle_type_id":"4","last_reported":1740409828,"current_range_meters":17200,"station_id":"ce4bhsh2rcd13ifvqi2g","pricing_plan_id":"cebpf4jnsgd1na2vs0mg"},{"bike_id":"d2241545-a394-449b-8224-bf4eafbeda95","system_id":"levelo_inurba_marseille","lat":43.29261,"lon":5.37623,"is_reserved":false,"is_disabled":false,"rental_uris":{"android":"levelo://app?vid=d2241545-a394-449b-8224-bf4eafbeda95","ios":"levelo://app?vid=d2241545-a394-449b-8224-bf4eafbeda95"},"vehicle_type_id":"4","last_reported":1740409828,"current_range_meters":17200,"station_id":"ce4bgi12rcd13ifvqb80","pricing_plan_id":"cebpf4jnsgd1na2vs0mg"},{"bike_id":"b608d779-ea7a-4322-b456-384ed56ef53f","system_id":"levelo_inurba_marseille","lat":43.30312,"lon":5.36884,"is_reserved":false,"is_disabled":false,"rental_uris":{"android":"levelo://app?vid=b608d779-ea7a-4322-b456-384ed56ef53f","ios":"levelo://app?vid=b608d779-ea7a-4322-b456-384ed56ef53f"},"vehicle_type_id":"4","last_reported":1740409828,"current_range_meters":17600,"station_id":"ce4bgqh2rcd13ifvqc5g","pricing_plan_id":"cebpf4jnsgd1na2vs0mg"},{"bike_id":"2675431b-bcdf-4508-b8eb-eea4be9250f7","system_id":"levelo_inurba_marseille","lat":43.26502,"lon":5.39548,"is_reserved":false,"is_disabled":false,"rental_uris":{"android":"levelo://app?vid=2675431b-bcdf-4508-b8eb-eea4be9250f7","ios":"levelo://app?vid=2675431b-bcdf-4508-b8eb-eea4be9250f7"},"vehicle_type_id":"4","last_reported":1740409828,"current_range_meters":17600,"station_id":"ce4bhi12rcd13ifvqfq0","pricing_plan_id":"cebpf4jnsgd1na2vs0mg"},{"bike_id":"db61d5ff-f584-4fa1-aedd-6bbf4e5e52f9","system_id":"levelo_inurba_marseille","lat":43.30308,"lon":5.36893,"is_reserved":false,"is_disabled":false,"rental_uris":{"android":"levelo://app?vid=db61d5ff-f584-4fa1-aedd-6bbf4e5e52f9","ios":"levelo://app?vid=db61d5ff-f584-4fa1-aedd-6bbf4e5e52f9"},"vehicle_type_id":"4","last_reported":1740409828,"current_range_meters":18000,"station_id":"ce4bgqh2rcd13ifvqc5g","pricing_plan_id":"cebpf4jnsgd1na2vs0mg"},{"bike_id":"6730a4f1-a573-4311-bebb-de7a7a405fba","system_id":"levelo_inurba_marseille","lat":43.29584,"lon":5.36744,"is_reserved":false,"is_disabled":false,"rental_uris":{"android":"levelo://app?vid=6730a4f1-a573-4311-bebb-de7a7a405fba","ios":"levelo://app?vid=6730a4f1-a573-4311-bebb-de7a7a405fba"},"vehicle_type_id":"4","last_reported":1740409828,"current_range_meters":18000,"station_id":"ce4bgph2rcd13ifvqc2g","pricing_plan_id":"cebpf4jnsgd1na2vs0mg"},{"bike_id":"89d39f33-28a9-47c5-8c2a-3d1d483539b3","system_id":"levelo_inurba_marseille","lat":43.25117,"lon":5.40324,"is_reserved":false,"is_disabled":false,"rental_uris":{"android":"levelo://app?vid=89d39f33-28a9-47c5-8c2a-3d1d483539b3","ios":"levelo://app?vid=89d39f33-28a9-47c5-8c2a-3d1d483539b3"},"vehicle_type_id":"4","last_reported":1740409828,"current_range_meters":17600,"station_id":"ce4bhlh2rcd13ifvqgig","pricing_plan_id":"cebpf4jnsgd1na2vs0mg"},{"bike_id":"97be4a0f-8555-4be8-9123-275e3b535794","system_id":"levelo_inurba_marseille","lat":43.29914,"lon":5.38143,"is_reserved":false,"is_disabled":false,"rental_uris":{"android":"levelo://app?vid=97be4a0f-8555-4be8-9123-275e3b535794","ios":"levelo://app?vid=97be4a0f-8555-4be8-9123-275e3b535794"},"vehicle_type_id":"4","last_reported":1740409828,"current_range_meters":17600,"station_id":"ce4bgj12rcd13ifvqbc0","pricing_plan_id":"cebpf4jnsgd1na2vs0mg"},{"bike_id":"e30774e9-ed5e-4d8f-bec8-959806936abf","system_id":"levelo_inurba_marseille","lat":43.269011,"lon":5.393231,"is_reserved":false,"is_disabled":false,"rental_uris":{"android":"levelo://app?vid=e30774e9-ed5e-4d8f-bec8-959806936abf","ios":"levelo://app?vid=e30774e9-ed5e-4d8f-bec8-959806936abf"},"vehicle_type_id":"4","last_reported":1740409828,"current_range_meters":17600,"station_id":"ce4bhh12rcd13ifvqfg0","pricing_plan_id":"cebpf4jnsgd1na2vs0mg"},{"bike_id":"9062f7b6-9c81-49b8-a1bd-5df58202afcd","system_id":"levelo_inurba_marseille","lat":43.31712,"lon":5.43723,"is_reserved":false,"is_disabled":false,"rental_uris":{"android":"levelo://app?vid=9062f7b6-9c81-49b8-a1bd-5df58202afcd","ios":"levelo://app?vid=9062f7b6-9c81-49b8-a1bd-5df58202afcd"},"vehicle_type_id":"4","last_reported":1740409828,"current_range_meters":17600,"station_id":"ce4bhp92rcd13ifvqhcg","pricing_plan_id":"cebpf4jnsgd1na2vs0mg"},{"bike_id":"1787a819-afbf-48cb-adfd-7941861a70d0","system_id":"levelo_inurba_marseille","lat":43.30545,"lon":5.36533,"is_reserved":false,"is_disabled":false,"rental_uris":{"android":"levelo://app?vid=1787a819-afbf-48cb-adfd-7941861a70d0","ios":"levelo://app?vid=1787a819-afbf-48cb-adfd-7941861a70d0"},"vehicle_type_id":"4","last_reported":1740409828,"current_range_meters":17600,"station_id":"ce4bgs12rcd13ifvqcag","pricing_plan_id":"cebpf4jnsgd1na2vs0mg"},{"bike_id":"6d671fa3-b1ce-4470-905e-4421960aae20","system_id":"levelo_inurba_marseille","lat":43.2591,"lon":5.40924,"is_reserved":false,"is_disabled":false,"rental_uris":{"android":"levelo://app?vid=6d671fa3-b1ce-4470-905e-4421960aae20","ios":"levelo://app?vid=6d671fa3-b1ce-4470-905e-4421960aae20"},"vehicle_type_id":"4","last_reported":1740409828,"current_range_meters":17600,"station_id":"ce4bhm92rcd13ifvqglg","pricing_plan_id":"cebpf4jnsgd1na2vs0mg"},{"bike_id":"c9929ee0-6b70-4382-86bb-24cdb6dde36b","system_id":"levelo_inurba_marseille","lat":43.27178,"lon":5.41,"is_reserved":false,"is_disabled":false,"rental_uris":{"android":"levelo://app?vid=c9929ee0-6b70-4382-86bb-24cdb6dde36b","ios":"levelo://app?vid=c9929ee0-6b70-4382-86bb-24cdb6dde36b"},"vehicle_type_id":"4","last_reported":1740409828,"current_range_meters":18000,"station_id":"ce4bhl12rcd13ifvqgf0","pricing_plan_id":"cebpf4jnsgd1na2vs0mg"},{"bike_id":"846e1578-1f04-4c98-bc6c-9950f2a1d347","system_id":"levelo_inurba_marseille","lat":43.27072,"lon":5.42286,"is_reserved":false,"is_disabled":false,"rental_uris":{"android":"levelo://app?vid=846e1578-1f04-4c98-bc6c-9950f2a1d347","ios":"levelo://app?vid=846e1578-1f04-4c98-bc6c-9950f2a1d347"},"vehicle_type_id":"4","last_reported":1740409828,"current_range_meters":17600,"station_id":"ce4bhk92rcd13ifvqgb0","pricing_plan_id":"cebpf4jnsgd1na2vs0mg"},{"bike_id":"303f5834-4b0b-4222-95cc-7cbe4362e149","system_id":"levelo_inurba_marseille","lat":43.28706,"lon":5.3739,"is_reserved":false,"is_disabled":false,"rental_uris":{"android":"levelo://app?vid=303f5834-4b0b-4222-95cc-7cbe4362e149","ios":"levelo://app?vid=303f5834-4b0b-4222-95cc-7cbe4362e149"},"vehicle_type_id":"4","last_reported":1740409828,"current_range_meters":18000,"station_id":"ce4bh3p2rcd13ifvqdq0","pricing_plan_id":"cebpf4jnsgd1na2vs0mg"},{"bike_id":"f0baf3cd-f5f4-4aa9-9be8-6a00869df268","system_id":"levelo_inurba_marseille","lat":43.23145,"lon":5.43724,"is_reserved":false,"is_disabled":false,"rental_uris":{"android":"levelo://app?vid=f0baf3cd-f5f4-4aa9-9be8-6a00869df268","ios":"levelo://app?vid=f0baf3cd-f5f4-4aa9-9be8-6a00869df268"},"vehicle_type_id":"4","last_reported":1740409828,"current_range_meters":18800,"station_id":"ce4bhmp2rcd13ifvqgog","pricing_plan_id":"cebpf4jnsgd1na2vs0mg"},{"bike_id":"8b0f3a76-c9e9-4f22-b463-e28333f78999","system_id":"levelo_inurba_marseille","lat":43.28936,"lon":5.38414,"is_reserved":false,"is_disabled":false,"rental_uris":{"android":"levelo://app?vid=8b0f3a76-c9e9-4f22-b463-e28333f78999","ios":"levelo://app?vid=8b0f3a76-c9e9-4f22-b463-e28333f78999"},"vehicle_type_id":"4","last_reported":1740409828,"current_range_meters":18800,"station_id":"ce4bh612rcd13ifvqe6g","pricing_plan_id":"cebpf4jnsgd1na2vs0mg"},{"bike_id":"e9450d61-7e12-49ac-9e64-6fdcd904c3ba","system_id":"levelo_inurba_marseille","lat":43.30315,"lon":5.36912,"is_reserved":false,"is_disabled":false,"rental_uris":{"android":"levelo://app?vid=e9450d61-7e12-49ac-9e64-6fdcd904c3ba","ios":"levelo://app?vid=e9450d61-7e12-49ac-9e64-6fdcd904c3ba"},"vehicle_type_id":"4","last_reported":1740409828,"current_range_meters":18000,"station_id":"ce4bgqh2rcd13ifvqc5g","pricing_plan_id":"cebpf4jnsgd1na2vs0mg"},{"bike_id":"e93211ee-92db-4b71-874d-9f4a3dd20f74","system_id":"levelo_inurba_marseille","lat":43.29024,"lon":5.38133,"is_reserved":false,"is_disabled":false,"rental_uris":{"android":"levelo://app?vid=e93211ee-92db-4b71-874d-9f4a3dd20f74","ios":"levelo://app?vid=e93211ee-92db-4b71-874d-9f4a3dd20f74"},"vehicle_type_id":"4","last_reported":1740409828,"current_range_meters":17600,"station_id":"ce4bh4p2rcd13ifvqe1g","pricing_plan_id":"cebpf4jnsgd1na2vs0mg"},{"bike_id":"a1f423f9-dad5-4e4f-8b5c-48069a32f8bb","system_id":"levelo_inurba_marseille","lat":43.3119,"lon":5.36852,"is_reserved":false,"is_disabled":false,"rental_uris":{"android":"levelo://app?vid=a1f423f9-dad5-4e4f-8b5c-48069a32f8bb","ios":"levelo://app?vid=a1f423f9-dad5-4e4f-8b5c-48069a32f8bb"},"vehicle_type_id":"4","last_reported":1740409828,"current_range_meters":18000,"station_id":"ce4bgl92rcd13ifvqbq0","pricing_plan_id":"cebpf4jnsgd1na2vs0mg"},{"bike_id":"593a5dca-a459-421b-9d85-4899387052eb","system_id":"levelo_inurba_marseille","lat":43.305109,"lon":5.38475,"is_reserved":false,"is_disabled":false,"rental_uris":{"android":"levelo://app?vid=593a5dca-a459-421b-9d85-4899387052eb","ios":"levelo://app?vid=593a5dca-a459-421b-9d85-4899387052eb"},"vehicle_type_id":"4","last_reported":1740409828,"current_range_meters":18000,"station_id":"ce4bgop2rcd13ifvqc1g","pricing_plan_id":"cebpf4jnsgd1na2vs0mg"},{"bike_id":"bf2e7b2f-0e01-4436-bd59-b0be5af18ec5","system_id":"levelo_inurba_marseille","lat":43.285796,"lon":5.395059,"is_reserved":false,"is_disabled":false,"rental_uris":{"android":"levelo://app?vid=bf2e7b2f-0e01-4436-bd59-b0be5af18ec5","ios":"levelo://app?vid=bf2e7b2f-0e01-4436-bd59-b0be5af18ec5"},"vehicle_type_id":"4","last_reported":1740409828,"current_range_meters":18000,"station_id":"ce4bh192rcd13ifvqdd0","pricing_plan_id":"cebpf4jnsgd1na2vs0mg"},{"bike_id":"48c9d238-ef44-4ccb-9d08-e828ced5223d","system_id":"levelo_inurba_marseille","lat":43.29036,"lon":5.37551,"is_reserved":false,"is_disabled":false,"rental_uris":{"android":"levelo://app?vid=48c9d238-ef44-4ccb-9d08-e828ced5223d","ios":"levelo://app?vid=48c9d238-ef44-4ccb-9d08-e828ced5223d"},"vehicle_type_id":"4","last_reported":1740409828,"current_range_meters":18000,"station_id":"ce4bh692rcd13ifvqe90","pricing_plan_id":"cebpf4jnsgd1na2vs0mg"},{"bike_id":"120752d8-bcaa-492c-90ec-a5cdda0d91b0","system_id":"levelo_inurba_marseille","lat":43.30149,"lon":5.39866,"is_reserved":false,"is_disabled":false,"rental_uris":{"android":"levelo://app?vid=120752d8-bcaa-492c-90ec-a5cdda0d91b0","ios":"levelo://app?vid=120752d8-bcaa-492c-90ec-a5cdda0d91b0"},"vehicle_type_id":"4","last_reported":1740409828,"current_range_meters":18000,"station_id":"ce4bh0h2rcd13ifvqd40","pricing_plan_id":"cebpf4jnsgd1na2vs0mg"},{"bike_id":"9f7daca7-eb29-4ed8-9d40-a9018c5c2a18","system_id":"levelo_inurba_marseille","lat":43.26063,"lon":5.39399,"is_reserved":false,"is_disabled":false,"rental_uris":{"android":"levelo://app?vid=9f7daca7-eb29-4ed8-9d40-a9018c5c2a18","ios":"levelo://app?vid=9f7daca7-eb29-4ed8-9d40-a9018c5c2a18"},"vehicle_type_id":"4","last_reported":1740409828,"current_range_meters":19200,"station_id":"ce4bhh92rcd13ifvqfj0","pricing_plan_id":"cebpf4jnsgd1na2vs0mg"},{"bike_id":"f630920d-e3ac-4e6d-8cc4-6c263e217357","system_id":"levelo_inurba_marseille","lat":43.26216,"lon":5.37445,"is_reserved":false,"is_disabled":false,"rental_uris":{"android":"levelo://app?vid=f630920d-e3ac-4e6d-8cc4-6c263e217357","ios":"levelo://app?vid=f630920d-e3ac-4e6d-8cc4-6c263e217357"},"vehicle_type_id":"4","last_reported":1740409828,"current_range_meters":16800,"station_id":"ce4bhgp2rcd13ifvqfc0","pricing_plan_id":"cebpf4jnsgd1na2vs0mg"},{"bike_id":"7c45866a-bd99-4c12-9747-66203f12a96e","system_id":"levelo_inurba_marseille","lat":43.23143,"lon":5.35515,"is_reserved":false,"is_disabled":false,"rental_uris":{"android":"levelo://app?vid=7c45866a-bd99-4c12-9747-66203f12a96e","ios":"levelo://app?vid=7c45866a-bd99-4c12-9747-66203f12a96e"},"vehicle_type_id":"4","last_reported":1740409828,"current_range_meters":18800,"station_id":"","pricing_plan_id":"cebpf4jnsgd1na2vs0mg"},{"bike_id":"29337d22-1a09-4901-a9a5-65a64cb4e2dc","system_id":"levelo_inurba_marseille","lat":43.28708,"lon":5.37404,"is_reserved":false,"is_disabled":false,"rental_uris":{"android":"levelo://app?vid=29337d22-1a09-4901-a9a5-65a64cb4e2dc","ios":"levelo://app?vid=29337d22-1a09-4901-a9a5-65a64cb4e2dc"},"vehicle_type_id":"4","last_reported":1740409828,"current_range_meters":17600,"station_id":"ce4bh3p2rcd13ifvqdq0","pricing_plan_id":"cebpf4jnsgd1na2vs0mg"},{"bike_id":"cb9be10d-df8d-4083-8713-dee630fbf9e9","system_id":"levelo_inurba_marseille","lat":43.240672,"lon":5.377653,"is_reserved":false,"is_disabled":false,"rental_uris":{"android":"levelo://app?vid=cb9be10d-df8d-4083-8713-dee630fbf9e9","ios":"levelo://app?vid=cb9be10d-df8d-4083-8713-dee630fbf9e9"},"vehicle_type_id":"4","last_reported":1740409828,"current_range_meters":18800,"station_id":"ce4bhnp2rcd13ifvqgvg","pricing_plan_id":"cebpf4jnsgd1na2vs0mg"},{"bike_id":"46814d2f-dec0-460c-883a-bfd2811fc0e2","system_id":"levelo_inurba_marseille","lat":43.2958,"lon":5.36739,"is_reserved":false,"is_disabled":false,"rental_uris":{"android":"levelo://app?vid=46814d2f-dec0-460c-883a-bfd2811fc0e2","ios":"levelo://app?vid=46814d2f-dec0-460c-883a-bfd2811fc0e2"},"vehicle_type_id":"4","last_reported":1740409828,"current_range_meters":19200,"station_id":"ce4bgph2rcd13ifvqc2g","pricing_plan_id":"cebpf4jnsgd1na2vs0mg"},{"bike_id":"05b9f403-f224-47e0-887c-862d2dce55e3","system_id":"levelo_inurba_marseille","lat":43.32493,"lon":5.36587,"is_reserved":false,"is_disabled":false,"rental_uris":{"android":"levelo://app?vid=05b9f403-f224-47e0-887c-862d2dce55e3","ios":"levelo://app?vid=05b9f403-f224-47e0-887c-862d2dce55e3"},"vehicle_type_id":"4","last_reported":1740409828,"current_range_meters":19200,"station_id":"ce4bhs12rcd13ifvqhvg","pricing_plan_id":"cebpf4jnsgd1na2vs0mg"},{"bike_id":"2384dea5-4eaf-4adb-ac81-69ac602327c1","system_id":"levelo_inurba_marseille","lat":43.26203,"lon":5.37932,"is_reserved":false,"is_disabled":false,"rental_uris":{"android":"levelo://app?vid=2384dea5-4eaf-4adb-ac81-69ac602327c1","ios":"levelo://app?vid=2384dea5-4eaf-4adb-ac81-69ac602327c1"},"vehicle_type_id":"4","last_reported":1740409828,"current_range_meters":19200,"station_id":"ce4bhjp2rcd13ifvqg90","pricing_plan_id":"cebpf4jnsgd1na2vs0mg"},{"bike_id":"cc669338-01af-4412-bcdd-47709591c462","system_id":"levelo_inurba_marseille","lat":43.24061,"lon":5.37746,"is_reserved":false,"is_disabled":false,"rental_uris":{"android":"levelo://app?vid=cc669338-01af-4412-bcdd-47709591c462","ios":"levelo://app?vid=cc669338-01af-4412-bcdd-47709591c462"},"vehicle_type_id":"4","last_reported":1740409828,"current_range_meters":19200,"station_id":"ce4bhnp2rcd13ifvqgvg","pricing_plan_id":"cebpf4jnsgd1na2vs0mg"},{"bike_id":"62ec484a-e25a-44f7-b31e-16f659ff468c","system_id":"levelo_inurba_marseille","lat":43.2318,"lon":5.39987,"is_reserved":false,"is_disabled":false,"rental_uris":{"android":"levelo://app?vid=62ec484a-e25a-44f7-b31e-16f659ff468c","ios":"levelo://app?vid=62ec484a-e25a-44f7-b31e-16f659ff468c"},"vehicle_type_id":"4","last_reported":1740409828,"current_range_meters":19600,"station_id":"ce4bhn12rcd13ifvqgqg","pricing_plan_id":"cebpf4jnsgd1na2vs0mg"},{"bike_id":"dd3fda8a-2e8a-426a-94a4-053389588f20","system_id":"levelo_inurba_marseille","lat":43.29797,"lon":5.38097,"is_reserved":false,"is_disabled":false,"rental_uris":{"android":"levelo://app?vid=dd3fda8a-2e8a-426a-94a4-053389588f20","ios":"levelo://app?vid=dd3fda8a-2e8a-426a-94a4-053389588f20"},"vehicle_type_id":"4","last_reported":1740409828,"current_range_meters":19600,"station_id":"ce4bgip2rcd13ifvqbb0","pricing_plan_id":"cebpf4jnsgd1na2vs0mg"},{"bike_id":"f5bb0721-90b1-4157-ba03-ed0b4bb48a06","system_id":"levelo_inurba_marseille","lat":43.30134,"lon":5.39864,"is_reserved":false,"is_disabled":false,"rental_uris":{"android":"levelo://app?vid=f5bb0721-90b1-4157-ba03-ed0b4bb48a06","ios":"levelo://app?vid=f5bb0721-90b1-4157-ba03-ed0b4bb48a06"},"vehicle_type_id":"4","last_reported":1740409828,"current_range_meters":19600,"station_id":"ce4bh0h2rcd13ifvqd40","pricing_plan_id":"cebpf4jnsgd1na2vs0mg"},{"bike_id":"f9da9abe-e6c6-4031-992d-baa0b568b64a","system_id":"levelo_inurba_marseille","lat":43.24184,"lon":5.3974,"is_reserved":false,"is_disabled":false,"rental_uris":{"android":"levelo://app?vid=f9da9abe-e6c6-4031-992d-baa0b568b64a","ios":"levelo://app?vid=f9da9abe-e6c6-4031-992d-baa0b568b64a"},"vehicle_type_id":"4","last_reported":1740409828,"current_range_meters":19600,"station_id":"ce4bhn12rcd13ifvqgpg","pricing_plan_id":"cebpf4jnsgd1na2vs0mg"},{"bike_id":"742147c8-e178-449e-83f0-1c40efc449e7","system_id":"levelo_inurba_marseille","lat":43.31324,"lon":5.39693,"is_reserved":false,"is_disabled":false,"rental_uris":{"android":"levelo://app?vid=742147c8-e178-449e-83f0-1c40efc449e7","ios":"levelo://app?vid=742147c8-e178-449e-83f0-1c40efc449e7"},"vehicle_type_id":"4","last_reported":1740409828,"current_range_meters":20000,"station_id":"ce4bgvp2rcd13ifvqcu0","pricing_plan_id":"cebpf4jnsgd1na2vs0mg"},{"bike_id":"9c8787fc-0f50-420b-aafe-3faf832e130b","system_id":"levelo_inurba_marseille","lat":43.274991,"lon":5.424476,"is_reserved":false,"is_disabled":false,"rental_uris":{"android":"levelo://app?vid=9c8787fc-0f50-420b-aafe-3faf832e130b","ios":"levelo://app?vid=9c8787fc-0f50-420b-aafe-3faf832e130b"},"vehicle_type_id":"4","last_reported":1740409828,"current_range_meters":19600,"station_id":"","pricing_plan_id":"cebpf4jnsgd1na2vs0mg"},{"bike_id":"c54c936e-7152-4eb7-b2bd-5a3b19610861","system_id":"levelo_inurba_marseille","lat":43.29309,"lon":5.37467,"is_reserved":false,"is_disabled":false,"rental_uris":{"android":"levelo://app?vid=c54c936e-7152-4eb7-b2bd-5a3b19610861","ios":"levelo://app?vid=c54c936e-7152-4eb7-b2bd-5a3b19610861"},"vehicle_type_id":"4","last_reported":1740409828,"current_range_meters":19600,"station_id":"ce4bgi12rcd13ifvqb70","pricing_plan_id":"cebpf4jnsgd1na2vs0mg"},{"bike_id":"79d400e1-2408-4791-91ed-b92b16f32e6d","system_id":"levelo_inurba_marseille","lat":43.29883,"lon":5.39723,"is_reserved":false,"is_disabled":false,"rental_uris":{"android":"levelo://app?vid=79d400e1-2408-4791-91ed-b92b16f32e6d","ios":"levelo://app?vid=79d400e1-2408-4791-91ed-b92b16f32e6d"},"vehicle_type_id":"4","last_reported":1740409828,"current_range_meters":20000,"station_id":"ce4bh0h2rcd13ifvqd50","pricing_plan_id":"cebpf4jnsgd1na2vs0mg"},{"bike_id":"05388da8-9671-4cce-a9c6-be5a5bec9026","system_id":"levelo_inurba_marseille","lat":43.32356,"lon":5.36751,"is_reserved":false,"is_disabled":false,"rental_uris":{"android":"levelo://app?vid=05388da8-9671-4cce-a9c6-be5a5bec9026","ios":"levelo://app?vid=05388da8-9671-4cce-a9c6-be5a5bec9026"},"vehicle_type_id":"4","last_reported":1740409828,"current_range_meters":20000,"station_id":"ce4bhsh2rcd13ifvqi2g","pricing_plan_id":"cebpf4jnsgd1na2vs0mg"},{"bike_id":"934f0893-e2e8-4bff-a0d8-2b3cd31e5797","system_id":"levelo_inurba_marseille","lat":43.304,"lon":5.41292,"is_reserved":false,"is_disabled":false,"rental_uris":{"android":"levelo://app?vid=934f0893-e2e8-4bff-a0d8-2b3cd31e5797","ios":"levelo://app?vid=934f0893-e2e8-4bff-a0d8-2b3cd31e5797"},"vehicle_type_id":"4","last_reported":1740409828,"current_range_meters":20000,"station_id":"ce4bhop2rcd13ifvqh8g","pricing_plan_id":"cebpf4jnsgd1na2vs0mg"},{"bike_id":"8e85abef-e637-4329-812b-066147f6f420","system_id":"levelo_inurba_marseille","lat":43.28689,"lon":5.38668,"is_reserved":false,"is_disabled":false,"rental_uris":{"android":"levelo://app?vid=8e85abef-e637-4329-812b-066147f6f420","ios":"levelo://app?vid=8e85abef-e637-4329-812b-066147f6f420"},"vehicle_type_id":"4","last_reported":1740409828,"current_range_meters":20000,"station_id":"ce4bh492rcd13ifvqdug","pricing_plan_id":"cebpf4jnsgd1na2vs0mg"},{"bike_id":"7ffb6d41-e0b3-455c-9e71-56128f670693","system_id":"levelo_inurba_marseille","lat":43.29194,"lon":5.39322,"is_reserved":false,"is_disabled":false,"rental_uris":{"android":"levelo://app?vid=7ffb6d41-e0b3-455c-9e71-56128f670693","ios":"levelo://app?vid=7ffb6d41-e0b3-455c-9e71-56128f670693"},"vehicle_type_id":"4","last_reported":1740409828,"current_range_meters":20000,"station_id":"ce4bh192rcd13ifvqdd0","pricing_plan_id":"cebpf4jnsgd1na2vs0mg"},{"bike_id":"2c5b41d8-2247-4fb1-8662-067a63dc29af","system_id":"levelo_inurba_marseille","lat":43.29912,"lon":5.36525,"is_reserved":false,"is_disabled":false,"rental_uris":{"android":"levelo://app?vid=2c5b41d8-2247-4fb1-8662-067a63dc29af","ios":"levelo://app?vid=2c5b41d8-2247-4fb1-8662-067a63dc29af"},"vehicle_type_id":"4","last_reported":1740409828,"current_range_meters":20400,"station_id":"ce4bgm92rcd13ifvqbr0","pricing_plan_id":"cebpf4jnsgd1na2vs0mg"},{"bike_id":"97f04c5a-7acb-49a0-90f5-8cb7871b7af0","system_id":"levelo_inurba_marseille","lat":43.2595,"lon":5.4091,"is_reserved":false,"is_disabled":false,"rental_uris":{"android":"levelo://app?vid=97f04c5a-7acb-49a0-90f5-8cb7871b7af0","ios":"levelo://app?vid=97f04c5a-7acb-49a0-90f5-8cb7871b7af0"},"vehicle_type_id":"4","last_reported":1740409828,"current_range_meters":20400,"station_id":"ce4bhm92rcd13ifvqglg","pricing_plan_id":"cebpf4jnsgd1na2vs0mg"},{"bike_id":"e00d4716-81ba-4b42-a393-48e7217fbbdf","system_id":"levelo_inurba_marseille","lat":43.23192,"lon":5.39984,"is_reserved":false,"is_disabled":false,"rental_uris":{"android":"levelo://app?vid=e00d4716-81ba-4b42-a393-48e7217fbbdf","ios":"levelo://app?vid=e00d4716-81ba-4b42-a393-48e7217fbbdf"},"vehicle_type_id":"4","last_reported":1740409828,"current_range_meters":20400,"station_id":"ce4bhn12rcd13ifvqgqg","pricing_plan_id":"cebpf4jnsgd1na2vs0mg"},{"bike_id":"99a6215f-6506-4f6e-9c5e-ddad7f4be2a5","system_id":"levelo_inurba_marseille","lat":43.29902,"lon":5.4366,"is_reserved":false,"is_disabled":false,"rental_uris":{"android":"levelo://app?vid=99a6215f-6506-4f6e-9c5e-ddad7f4be2a5","ios":"levelo://app?vid=99a6215f-6506-4f6e-9c5e-ddad7f4be2a5"},"vehicle_type_id":"4","last_reported":1740409828,"current_range_meters":20400,"station_id":"ce4bhpp2rcd13ifvqhfg","pricing_plan_id":"cebpf4jnsgd1na2vs0mg"},{"bike_id":"759885a2-4687-4ab8-bd90-373ebcd09646","system_id":"levelo_inurba_marseille","lat":43.28157,"lon":5.42652,"is_reserved":false,"is_disabled":false,"rental_uris":{"android":"levelo://app?vid=759885a2-4687-4ab8-bd90-373ebcd09646","ios":"levelo://app?vid=759885a2-4687-4ab8-bd90-373ebcd09646"},"vehicle_type_id":"4","last_reported":1740409828,"current_range_meters":20400,"station_id":"ce4bhnh2rcd13ifvqgug","pricing_plan_id":"cebpf4jnsgd1na2vs0mg"},{"bike_id":"cfcfa6b5-ea3b-4adb-84e0-414f1c19306b","system_id":"levelo_inurba_marseille","lat":43.29975,"lon":5.37178,"is_reserved":false,"is_disabled":false,"rental_uris":{"android":"levelo://app?vid=cfcfa6b5-ea3b-4adb-84e0-414f1c19306b","ios":"levelo://app?vid=cfcfa6b5-ea3b-4adb-84e0-414f1c19306b"},"vehicle_type_id":"4","last_reported":1740409828,"current_range_meters":20400,"station_id":"ce4bgr92rcd13ifvqc7g","pricing_plan_id":"cebpf4jnsgd1na2vs0mg"},{"bike_id":"36275b4c-a7c3-479b-8c79-bfc4d6f31c0e","system_id":"levelo_inurba_marseille","lat":43.24056,"lon":5.37745,"is_reserved":false,"is_disabled":false,"rental_uris":{"android":"levelo://app?vid=36275b4c-a7c3-479b-8c79-bfc4d6f31c0e","ios":"levelo://app?vid=36275b4c-a7c3-479b-8c79-bfc4d6f31c0e"},"vehicle_type_id":"4","last_reported":1740409828,"current_range_meters":20400,"station_id":"ce4bhnp2rcd13ifvqgvg","pricing_plan_id":"cebpf4jnsgd1na2vs0mg"},{"bike_id":"f851a092-fae8-4c65-a96b-23617103c2eb","system_id":"levelo_inurba_marseille","lat":43.25085,"lon":5.3953,"is_reserved":false,"is_disabled":false,"rental_uris":{"android":"levelo://app?vid=f851a092-fae8-4c65-a96b-23617103c2eb","ios":"levelo://app?vid=f851a092-fae8-4c65-a96b-23617103c2eb"},"vehicle_type_id":"4","last_reported":1740409828,"current_range_meters":20800,"station_id":"ce4bhm12rcd13ifvqgkg","pricing_plan_id":"cebpf4jnsgd1na2vs0mg"},{"bike_id":"a5877d4b-d97f-41c6-b18f-c6036ebd6644","system_id":"levelo_inurba_marseille","lat":43.325,"lon":5.36625,"is_reserved":false,"is_disabled":false,"rental_uris":{"android":"levelo://app?vid=a5877d4b-d97f-41c6-b18f-c6036ebd6644","ios":"levelo://app?vid=a5877d4b-d97f-41c6-b18f-c6036ebd6644"},"vehicle_type_id":"4","last_reported":1740409828,"current_range_meters":20800,"station_id":"ce4bhs12rcd13ifvqhvg","pricing_plan_id":"cebpf4jnsgd1na2vs0mg"},{"bike_id":"c61fdb28-8f5a-42bf-8c6d-2bda33a2e55e","system_id":"levelo_inurba_marseille","lat":43.26202,"lon":5.37919,"is_reserved":false,"is_disabled":false,"rental_uris":{"android":"levelo://app?vid=c61fdb28-8f5a-42bf-8c6d-2bda33a2e55e","ios":"levelo://app?vid=c61fdb28-8f5a-42bf-8c6d-2bda33a2e55e"},"vehicle_type_id":"4","last_reported":1740409828,"current_range_meters":20800,"station_id":"ce4bhjp2rcd13ifvqg90","pricing_plan_id":"cebpf4jnsgd1na2vs0mg"},{"bike_id":"180ed742-846b-4789-9aef-813213957466","system_id":"levelo_inurba_marseille","lat":43.30414,"lon":5.41291,"is_reserved":false,"is_disabled":false,"rental_uris":{"android":"levelo://app?vid=180ed742-846b-4789-9aef-813213957466","ios":"levelo://app?vid=180ed742-846b-4789-9aef-813213957466"},"vehicle_type_id":"4","last_reported":1740409828,"current_range_meters":21600,"station_id":"ce4bhop2rcd13ifvqh8g","pricing_plan_id":"cebpf4jnsgd1na2vs0mg"},{"bike_id":"c3eaf577-384f-49be-90a6-7d88e2904d90","system_id":"levelo_inurba_marseille","lat":43.33605,"lon":5.40995,"is_reserved":false,"is_disabled":true,"rental_uris":{"android":"levelo://app?vid=c3eaf577-384f-49be-90a6-7d88e2904d90","ios":"levelo://app?vid=c3eaf577-384f-49be-90a6-7d88e2904d90"},"vehicle_type_id":"4","last_reported":1740409828,"current_range_meters":20800,"station_id":"ce4bhqh2rcd13ifvqhmg","pricing_plan_id":"cebpf4jnsgd1na2vs0mg"},{"bike_id":"9bcf8b06-a2a6-46ab-9d77-db7d22540e74","system_id":"levelo_inurba_marseille","lat":43.295502,"lon":5.374943,"is_reserved":false,"is_disabled":false,"rental_uris":{"android":"levelo://app?vid=9bcf8b06-a2a6-46ab-9d77-db7d22540e74","ios":"levelo://app?vid=9bcf8b06-a2a6-46ab-9d77-db7d22540e74"},"vehicle_type_id":"4","last_reported":1740409828,"current_range_meters":20800,"station_id":"ce4bgi92rcd13ifvqb90","pricing_plan_id":"cebpf4jnsgd1na2vs0mg"},{"bike_id":"5e1660bd-1be1-47ce-a001-f5929a0bfc0a","system_id":"levelo_inurba_marseille","lat":43.30129,"lon":5.39868,"is_reserved":false,"is_disabled":false,"rental_uris":{"android":"levelo://app?vid=5e1660bd-1be1-47ce-a001-f5929a0bfc0a","ios":"levelo://app?vid=5e1660bd-1be1-47ce-a001-f5929a0bfc0a"},"vehicle_type_id":"4","last_reported":1740409828,"current_range_meters":20800,"station_id":"ce4bh0h2rcd13ifvqd40","pricing_plan_id":"cebpf4jnsgd1na2vs0mg"},{"bike_id":"5f7cd4fb-d045-4b1a-9850-2f0c7215c1d8","system_id":"levelo_inurba_marseille","lat":43.30309,"lon":5.39228,"is_reserved":false,"is_disabled":false,"rental_uris":{"android":"levelo://app?vid=5f7cd4fb-d045-4b1a-9850-2f0c7215c1d8","ios":"levelo://app?vid=5f7cd4fb-d045-4b1a-9850-2f0c7215c1d8"},"vehicle_type_id":"4","last_reported":1740409828,"current_range_meters":20800,"station_id":"ce4bgkh2rcd13ifvqbk0","pricing_plan_id":"cebpf4jnsgd1na2vs0mg"},{"bike_id":"4c7f9784-a0df-416c-8083-daf481a7f498","system_id":"levelo_inurba_marseille","lat":43.29927,"lon":5.36541,"is_reserved":false,"is_disabled":false,"rental_uris":{"android":"levelo://app?vid=4c7f9784-a0df-416c-8083-daf481a7f498","ios":"levelo://app?vid=4c7f9784-a0df-416c-8083-daf481a7f498"},"vehicle_type_id":"4","last_reported":1740409828,"current_range_meters":20800,"station_id":"ce4bgm92rcd13ifvqbr0","pricing_plan_id":"cebpf4jnsgd1na2vs0mg"},{"bike_id":"abbdc6de-b083-4f4b-814e-b34c4a31179f","system_id":"levelo_inurba_marseille","lat":43.267887,"lon":5.394242,"is_reserved":false,"is_disabled":false,"rental_uris":{"android":"levelo://app?vid=abbdc6de-b083-4f4b-814e-b34c4a31179f","ios":"levelo://app?vid=abbdc6de-b083-4f4b-814e-b34c4a31179f"},"vehicle_type_id":"4","last_reported":1740409828,"current_range_meters":22000,"station_id":"ce4bhh12rcd13ifvqfg0","pricing_plan_id":"cebpf4jnsgd1na2vs0mg"},{"bike_id":"cfb1f9b6-8ab5-48c1-a030-2a82da3d15c1","system_id":"levelo_inurba_marseille","lat":43.30118,"lon":5.39172,"is_reserved":false,"is_disabled":false,"rental_uris":{"android":"levelo://app?vid=cfb1f9b6-8ab5-48c1-a030-2a82da3d15c1","ios":"levelo://app?vid=cfb1f9b6-8ab5-48c1-a030-2a82da3d15c1"},"vehicle_type_id":"4","last_reported":1740409828,"current_range_meters":22000,"station_id":"","pricing_plan_id":"cebpf4jnsgd1na2vs0mg"},{"bike_id":"711a717e-9c95-4c64-81d0-e760796e5462","system_id":"levelo_inurba_marseille","lat":43.31339,"lon":5.3673,"is_reserved":false,"is_disabled":false,"rental_uris":{"android":"levelo://app?vid=711a717e-9c95-4c64-81d0-e760796e5462","ios":"levelo://app?vid=711a717e-9c95-4c64-81d0-e760796e5462"},"vehicle_type_id":"4","last_reported":1740409828,"current_range_meters":22400,"station_id":"ce4bgr92rcd13ifvqc6g","pricing_plan_id":"cebpf4jnsgd1na2vs0mg"},{"bike_id":"9c3a0bfc-0d33-48c4-ba85-b97b5727329d","system_id":"levelo_inurba_marseille","lat":43.23189,"lon":5.35547,"is_reserved":false,"is_disabled":false,"rental_uris":{"android":"levelo://app?vid=9c3a0bfc-0d33-48c4-ba85-b97b5727329d","ios":"levelo://app?vid=9c3a0bfc-0d33-48c4-ba85-b97b5727329d"},"vehicle_type_id":"4","last_reported":1740409828,"current_range_meters":22400,"station_id":"ce4bhu92rcd13ifvqi70","pricing_plan_id":"cebpf4jnsgd1na2vs0mg"},{"bike_id":"26cf961b-62d1-4c17-a9b6-5ebe4a45141f","system_id":"levelo_inurba_marseille","lat":43.2466,"lon":5.38163,"is_reserved":false,"is_disabled":false,"rental_uris":{"android":"levelo://app?vid=26cf961b-62d1-4c17-a9b6-5ebe4a45141f","ios":"levelo://app?vid=26cf961b-62d1-4c17-a9b6-5ebe4a45141f"},"vehicle_type_id":"4","last_reported":1740409828,"current_range_meters":22000,"station_id":"ce4bhih2rcd13ifvqfr0","pricing_plan_id":"cebpf4jnsgd1na2vs0mg"},{"bike_id":"263c52ec-2251-4f08-89ee-de2fc0f9d7e2","system_id":"levelo_inurba_marseille","lat":43.30412,"lon":5.41288,"is_reserved":false,"is_disabled":false,"rental_uris":{"android":"levelo://app?vid=263c52ec-2251-4f08-89ee-de2fc0f9d7e2","ios":"levelo://app?vid=263c52ec-2251-4f08-89ee-de2fc0f9d7e2"},"vehicle_type_id":"4","last_reported":1740409828,"current_range_meters":22000,"station_id":"ce4bhop2rcd13ifvqh8g","pricing_plan_id":"cebpf4jnsgd1na2vs0mg"},{"bike_id":"c17e3104-fb98-4daf-9c43-aa091a330393","system_id":"levelo_inurba_marseille","lat":43.31728,"lon":5.42398,"is_reserved":false,"is_disabled":false,"rental_uris":{"android":"levelo://app?vid=c17e3104-fb98-4daf-9c43-aa091a330393","ios":"levelo://app?vid=c17e3104-fb98-4daf-9c43-aa091a330393"},"vehicle_type_id":"4","last_reported":1740409828,"current_range_meters":22400,"station_id":"ce4bhp92rcd13ifvqhbg","pricing_plan_id":"cebpf4jnsgd1na2vs0mg"},{"bike_id":"db85809a-edfb-4378-b557-678011873844","system_id":"levelo_inurba_marseille","lat":43.2962,"lon":5.37737,"is_reserved":false,"is_disabled":false,"rental_uris":{"android":"levelo://app?vid=db85809a-edfb-4378-b557-678011873844","ios":"levelo://app?vid=db85809a-edfb-4378-b557-678011873844"},"vehicle_type_id":"4","last_reported":1740409828,"current_range_meters":22000,"station_id":"ce4bgi92rcd13ifvqb90","pricing_plan_id":"cebpf4jnsgd1na2vs0mg"},{"bike_id":"ce916b06-a409-4371-93cd-19761db0a311","system_id":"levelo_inurba_marseille","lat":43.30909,"lon":5.36845,"is_reserved":false,"is_disabled":false,"rental_uris":{"android":"levelo://app?vid=ce916b06-a409-4371-93cd-19761db0a311","ios":"levelo://app?vid=ce916b06-a409-4371-93cd-19761db0a311"},"vehicle_type_id":"4","last_reported":1740409828,"current_range_meters":22000,"station_id":"ce4bgn92rcd13ifvqbvg","pricing_plan_id":"cebpf4jnsgd1na2vs0mg"},{"bike_id":"d39fa3c7-b4d2-4b54-a1ff-d67057b264a1","system_id":"levelo_inurba_marseille","lat":43.26805,"lon":5.39401,"is_reserved":false,"is_disabled":false,"rental_uris":{"android":"levelo://app?vid=d39fa3c7-b4d2-4b54-a1ff-d67057b264a1","ios":"levelo://app?vid=d39fa3c7-b4d2-4b54-a1ff-d67057b264a1"},"vehicle_type_id":"4","last_reported":1740409828,"current_range_meters":22400,"station_id":"ce4bhh12rcd13ifvqfg0","pricing_plan_id":"cebpf4jnsgd1na2vs0mg"},{"bike_id":"39bfbb1d-c210-4ddd-8bd8-273c5b753ccf","system_id":"levelo_inurba_marseille","lat":43.3096,"lon":5.390397,"is_reserved":false,"is_disabled":false,"rental_uris":{"android":"levelo://app?vid=39bfbb1d-c210-4ddd-8bd8-273c5b753ccf","ios":"levelo://app?vid=39bfbb1d-c210-4ddd-8bd8-273c5b753ccf"},"vehicle_type_id":"4","last_reported":1740409828,"current_range_meters":22800,"station_id":"ce4bh392rcd13ifvqdl0","pricing_plan_id":"cebpf4jnsgd1na2vs0mg"},{"bike_id":"79486965-c088-498f-8f45-61ea909d33f7","system_id":"levelo_inurba_marseille","lat":43.31119,"lon":5.3777,"is_reserved":false,"is_disabled":true,"rental_uris":{"android":"levelo://app?vid=79486965-c088-498f-8f45-61ea909d33f7","ios":"levelo://app?vid=79486965-c088-498f-8f45-61ea909d33f7"},"vehicle_type_id":"4","last_reported":1740409828,"current_range_meters":22400,"station_id":"ce4bgt92rcd13ifvqcg0","pricing_plan_id":"cebpf4jnsgd1na2vs0mg"},{"bike_id":"d2aa6076-8a14-496c-a4c9-a1a62488ed76","system_id":"levelo_inurba_marseille","lat":43.30294,"lon":5.39205,"is_reserved":false,"is_disabled":false,"rental_uris":{"android":"levelo://app?vid=d2aa6076-8a14-496c-a4c9-a1a62488ed76","ios":"levelo://app?vid=d2aa6076-8a14-496c-a4c9-a1a62488ed76"},"vehicle_type_id":"4","last_reported":1740409828,"current_range_meters":20000,"station_id":"ce4bgkh2rcd13ifvqbk0","pricing_plan_id":"cebpf4jnsgd1na2vs0mg"},{"bike_id":"c1778e32-eaa8-4671-a805-fd3ab9c8561a","system_id":"levelo_inurba_marseille","lat":43.32373,"lon":5.36767,"is_reserved":false,"is_disabled":false,"rental_uris":{"android":"levelo://app?vid=c1778e32-eaa8-4671-a805-fd3ab9c8561a","ios":"levelo://app?vid=c1778e32-eaa8-4671-a805-fd3ab9c8561a"},"vehicle_type_id":"4","last_reported":1740409828,"current_range_meters":22400,"station_id":"ce4bhsh2rcd13ifvqi2g","pricing_plan_id":"cebpf4jnsgd1na2vs0mg"},{"bike_id":"bb4c4766-ff24-4a3e-a853-d6d7388918ae","system_id":"levelo_inurba_marseille","lat":43.313779,"lon":5.385398,"is_reserved":false,"is_disabled":false,"rental_uris":{"android":"levelo://app?vid=bb4c4766-ff24-4a3e-a853-d6d7388918ae","ios":"levelo://app?vid=bb4c4766-ff24-4a3e-a853-d6d7388918ae"},"vehicle_type_id":"4","last_reported":1740409828,"current_range_meters":23200,"station_id":"ce4bgt92rcd13ifvqcf0","pricing_plan_id":"cebpf4jnsgd1na2vs0mg"},{"bike_id":"f28d4bbd-cd53-4203-91ac-78724cd26adf","system_id":"levelo_inurba_marseille","lat":43.25939,"lon":5.40904,"is_reserved":false,"is_disabled":false,"rental_uris":{"android":"levelo://app?vid=f28d4bbd-cd53-4203-91ac-78724cd26adf","ios":"levelo://app?vid=f28d4bbd-cd53-4203-91ac-78724cd26adf"},"vehicle_type_id":"4","last_reported":1740409828,"current_range_meters":22800,"station_id":"ce4bhm92rcd13ifvqglg","pricing_plan_id":"cebpf4jnsgd1na2vs0mg"},{"bike_id":"03f8ecf4-f41c-40ac-83df-fdda1fdc2f2e","system_id":"levelo_inurba_marseille","lat":43.3239,"lon":5.38895,"is_reserved":false,"is_disabled":false,"rental_uris":{"android":"levelo://app?vid=03f8ecf4-f41c-40ac-83df-fdda1fdc2f2e","ios":"levelo://app?vid=03f8ecf4-f41c-40ac-83df-fdda1fdc2f2e"},"vehicle_type_id":"4","last_reported":1740409828,"current_range_meters":22800,"station_id":"ce4bhqp2rcd13ifvqhog","pricing_plan_id":"cebpf4jnsgd1na2vs0mg"},{"bike_id":"aa6eb337-cce2-4186-a2d2-8fa816c72e22","system_id":"levelo_inurba_marseille","lat":43.2906,"lon":5.3756,"is_reserved":false,"is_disabled":false,"rental_uris":{"android":"levelo://app?vid=aa6eb337-cce2-4186-a2d2-8fa816c72e22","ios":"levelo://app?vid=aa6eb337-cce2-4186-a2d2-8fa816c72e22"},"vehicle_type_id":"4","last_reported":1740409828,"current_range_meters":23200,"station_id":"ce4bh692rcd13ifvqe90","pricing_plan_id":"cebpf4jnsgd1na2vs0mg"},{"bike_id":"2faae750-dda8-417d-97af-6e8757dc7501","system_id":"levelo_inurba_marseille","lat":43.24185,"lon":5.39733,"is_reserved":false,"is_disabled":false,"rental_uris":{"android":"levelo://app?vid=2faae750-dda8-417d-97af-6e8757dc7501","ios":"levelo://app?vid=2faae750-dda8-417d-97af-6e8757dc7501"},"vehicle_type_id":"4","last_reported":1740409828,"current_range_meters":22800,"station_id":"ce4bhn12rcd13ifvqgpg","pricing_plan_id":"cebpf4jnsgd1na2vs0mg"},{"bike_id":"9bcb6e74-9384-4520-a191-6ca3da24e600","system_id":"levelo_inurba_marseille","lat":43.24171,"lon":5.36394,"is_reserved":false,"is_disabled":false,"rental_uris":{"android":"levelo://app?vid=9bcb6e74-9384-4520-a191-6ca3da24e600","ios":"levelo://app?vid=9bcb6e74-9384-4520-a191-6ca3da24e600"},"vehicle_type_id":"4","last_reported":1740409828,"current_range_meters":22800,"station_id":"cpo36qri1sfpv3e86is0","pricing_plan_id":"cebpf4jnsgd1na2vs0mg"},{"bike_id":"08b558ae-f5c2-4f30-808a-f8a57fad3fc7","system_id":"levelo_inurba_marseille","lat":43.25093,"lon":5.39519,"is_reserved":false,"is_disabled":false,"rental_uris":{"android":"levelo://app?vid=08b558ae-f5c2-4f30-808a-f8a57fad3fc7","ios":"levelo://app?vid=08b558ae-f5c2-4f30-808a-f8a57fad3fc7"},"vehicle_type_id":"4","last_reported":1740409828,"current_range_meters":22800,"station_id":"ce4bhm12rcd13ifvqgkg","pricing_plan_id":"cebpf4jnsgd1na2vs0mg"},{"bike_id":"5a9154fe-231b-4d36-bd59-8845f202298a","system_id":"levelo_inurba_marseille","lat":43.2927,"lon":5.3844,"is_reserved":false,"is_disabled":false,"rental_uris":{"android":"levelo://app?vid=5a9154fe-231b-4d36-bd59-8845f202298a","ios":"levelo://app?vid=5a9154fe-231b-4d36-bd59-8845f202298a"},"vehicle_type_id":"4","last_reported":1740409828,"current_range_meters":22800,"station_id":"ce4bh692rcd13ifvqea0","pricing_plan_id":"cebpf4jnsgd1na2vs0mg"},{"bike_id":"cdc44c5c-f305-4eb5-adc1-529efef4da42","system_id":"levelo_inurba_marseille","lat":43.25919,"lon":5.40881,"is_reserved":false,"is_disabled":false,"rental_uris":{"android":"levelo://app?vid=cdc44c5c-f305-4eb5-adc1-529efef4da42","ios":"levelo://app?vid=cdc44c5c-f305-4eb5-adc1-529efef4da42"},"vehicle_type_id":"4","last_reported":1740409828,"current_range_meters":22800,"station_id":"ce4bhm92rcd13ifvqglg","pricing_plan_id":"cebpf4jnsgd1na2vs0mg"},{"bike_id":"451ee27c-3053-4dad-97f9-30aa721d9def","system_id":"levelo_inurba_marseille","lat":43.27983,"lon":5.40026,"is_reserved":false,"is_disabled":false,"rental_uris":{"android":"levelo://app?vid=451ee27c-3053-4dad-97f9-30aa721d9def","ios":"levelo://app?vid=451ee27c-3053-4dad-97f9-30aa721d9def"},"vehicle_type_id":"4","last_reported":1740409828,"current_range_meters":22800,"station_id":"ce4bho92rcd13ifvqh4g","pricing_plan_id":"cebpf4jnsgd1na2vs0mg"},{"bike_id":"8593fc0d-57d6-4ffa-92d4-85b9f00ea638","system_id":"levelo_inurba_marseille","lat":43.29192,"lon":5.39328,"is_reserved":false,"is_disabled":false,"rental_uris":{"android":"levelo://app?vid=8593fc0d-57d6-4ffa-92d4-85b9f00ea638","ios":"levelo://app?vid=8593fc0d-57d6-4ffa-92d4-85b9f00ea638"},"vehicle_type_id":"4","last_reported":1740409828,"current_range_meters":20400,"station_id":"ce4bh192rcd13ifvqdd0","pricing_plan_id":"cebpf4jnsgd1na2vs0mg"},{"bike_id":"7ada85fa-067b-4a78-98c4-d5e76c464f67","system_id":"levelo_inurba_marseille","lat":43.29528,"lon":5.38541,"is_reserved":false,"is_disabled":false,"rental_uris":{"android":"levelo://app?vid=7ada85fa-067b-4a78-98c4-d5e76c464f67","ios":"levelo://app?vid=7ada85fa-067b-4a78-98c4-d5e76c464f67"},"vehicle_type_id":"4","last_reported":1740409828,"current_range_meters":22800,"station_id":"ce4bgih2rcd13ifvqba0","pricing_plan_id":"cebpf4jnsgd1na2vs0mg"},