{"last_updated":1753873786,"ttl":60,"version":"2.2","data":{"bikes":[{"bike_id":"cb9ae231-e66a-42e2-9404-721bfdc0b2fd","system_id":"levelo_inurba_marseille","lat":43.27208,"lon":5.39177,"is_reserved":false,"is_disabled":false,"rental_uris":{"android":"levelo://app?vid=cb9ae231-e66a-42e2-9404-721bfdc0b2fd","ios":"levelo://app?vid=cb9ae231-e66a-42e2-9404-721bfdc0b2fd"},"vehicle_type_id":"4","last_reported":1753873786,"current_range_meters":2800,"station_id":"ce4bhhp2rcd13ifvqfm0","pricing_plan_id":"cebpf4jnsgd1na2vs0mg"},{"bike_id":"d48038b7-052f-4d49-903c-090958288378","system_id":"levelo_inurba_marseille","lat":43.2985,"lon":5.36281,"is_reserved":false,"is_disabled":true,"rental_uris":{"android":"levelo://app?vid=d48038b7-052f-4d49-903c-090958288378","ios":"levelo://app?vid=d48038b7-052f-4d49-903c-090958288378"},"vehicle_type_id":"4","last_reported":1753873786,"current_range_meters":3200,"station_id":"","pricing_plan_id":"cebpf4jnsgd1na2vs0mg"},{"bike_id":"2043cd61-7d07-4b28-9b95-dac12f06179b","system_id":"levelo_inurba_marseille","lat":43.291972,"lon":5.358096,"is_reserved":false,"is_disabled":false,"rental_uris":{"android":"levelo://app?vid=2043cd61-7d07-4b28-9b95-dac12f06179b","ios":"levelo://app?vid=2043cd61-7d07-4b28-9b95-dac12f06179b"},"vehicle_type_id":"4","last_reported":1753873786,"current_range_meters":3200,"station_id":"ce4bhbh2rcd13ifvqepg","pricing_plan_id":"cebpf4jnsgd1na2vs0mg"},{"bike_id":"0bf36764-f97e-4ac4-a5a7-4061448057c6","system_id":"levelo_inurba_marseille","lat":43.241703,"lon":5.363973,"is_reserved":false,"is_disabled":false,"rental_uris":{"android":"levelo://app?vid=0bf36764-f97e-4ac4-a5a7-4061448057c6","ios":"levelo://app?vid=0bf36764-f97e-4ac4-a5a7-4061448057c6"},"vehicle_type_id":"4","last_reported":1753873786,"current_range_meters":3600,"station_id":"cpo36qri1sfpv3e86is0","pricing_plan_id":"cebpf4jnsgd1na2vs0mg"},{"bike_id":"92970e44-abdf-4331-9161-6ef73a42dfac","system_id":"levelo_inurba_marseille","lat":43.30533,"lon":5.3672,"is_reserved":false,"is_disabled":false,"rental_uris":{"android":"levelo://app?vid=92970e44-abdf-4331-9161-6ef73a42dfac","ios":"levelo://app?vid=92970e44-abdf-4331-9161-6ef73a42dfac"},"vehicle_type_id":"4","last_reported":1753873786,"current_range_meters":3600,"station_id":"","pricing_plan_id":"cebpf4jnsgd1na2vs0mg"},{"bike_id":"a010bb82-4e4a-411b-9bf8-efde0c992c21","system_id":"levelo_inurba_marseille","lat":43.28617,"lon":5.35107,"is_reserved":false,"is_disabled":false,"rental_uris":{"android":"levelo://app?vid=a010bb82-4e4a-411b-9bf8-efde0c992c21","ios":"levelo://app?vid=a010bb82-4e4a-411b-9bf8-efde0c992c21"},"vehicle_type_id":"4","last_reported":1753873786,"current_range_meters":3600,"station_id":"ce4bhch2rcd13ifvqeug","pricing_plan_id":"cebpf4jnsgd1na2vs0mg"},{"bike_id":"f2ed36f9-0f01-4b33-af18-8a277c95e69c","system_id":"levelo_inurba_marseille","lat":43.30546,"lon":5.36684,"is_reserved":false,"is_disabled":false,"rental_uris":{"android":"levelo://app?vid=f2ed36f9-0f01-4b33-af18-8a277c95e69c","ios":"levelo://app?vid=f2ed36f9-0f01-4b33-af18-8a277c95e69c"},"vehicle_type_id":"4","last_reported":1753873786,"current_range_meters":3600,"station_id":"ce4bgnh2rcd13ifvqc0g","pricing_plan_id":"cebpf4jnsgd1na2vs0mg"},{"bike_id":"58a82f51-520c-4d51-a000-92450163edef","system_id":"levelo_inurba_marseille","lat":43.30538,"lon":5.36542,"is_reserved":false,"is_disabled":false,"rental_uris":{"android":"levelo://app?vid=58a82f51-520c-4d51-a000-92450163edef","ios":"levelo://app?vid=58a82f51-520c-4d51-a000-92450163edef"},"vehicle_type_id":"4","last_reported":1753873786,"current_range_meters":3600,"station_id":"ce4bgs12rcd13ifvqcag","pricing_plan_id":"cebpf4jnsgd1na2vs0mg"},{"bike_id":"2e87bc82-9057-4578-a4a0-52d58b05570c","system_id":"levelo_inurba_marseille","lat":43.28403,"lon":5.34974,"is_reserved":false,"is_disabled":true,"rental_uris":{"android":"levelo://app?vid=2e87bc82-9057-4578-a4a0-52d58b05570c","ios":"levelo://app?vid=2e87bc82-9057-4578-a4a0-52d58b05570c"},"vehicle_type_id":"4","last_reported":1753873786,"current_range_meters":3600,"station_id":"ce4bhbh2rcd13ifvqepg","pricing_plan_id":"cebpf4jnsgd1na2vs0mg"},{"bike_id":"86170f17-729b-4c4d-b902-a9ef785577a9","system_id":"levelo_inurba_marseille","lat":43.30276,"lon":5.37711,"is_reserved":false,"is_disabled":false,"rental_uris":{"android":"levelo://app?vid=86170f17-729b-4c4d-b902-a9ef785577a9","ios":"levelo://app?vid=86170f17-729b-4c4d-b902-a9ef785577a9"},"vehicle_type_id":"4","last_reported":1753873786,"current_range_meters":3600,"station_id":"ce4bguh2rcd13ifvqcj0","pricing_plan_id":"cebpf4jnsgd1na2vs0mg"},{"bike_id":"1e83b6e6-a762-4496-a8a4-e7fdd35a70d9","system_id":"levelo_inurba_marseille","lat":43.27373,"lon":5.36262,"is_reserved":false,"is_disabled":false,"rental_uris":{"android":"levelo://app?vid=1e83b6e6-a762-4496-a8a4-e7fdd35a70d9","ios":"levelo://app?vid=1e83b6e6-a762-4496-a8a4-e7fdd35a70d9"},"vehicle_type_id":"4","last_reported":1753873786,"current_range_meters":3600,"station_id":"ce4bhbh2rcd13ifvqeo0","pricing_plan_id":"cebpf4jnsgd1na2vs0mg"},{"bike_id":"83eb3928-7efb-4e1b-9249-231ecd23aff1","system_id":"levelo_inurba_marseille","lat":43.31481,"lon":5.37311,"is_reserved":false,"is_disabled":false,"rental_uris":{"android":"levelo://app?vid=83eb3928-7efb-4e1b-9249-231ecd23aff1","ios":"levelo://app?vid=83eb3928-7efb-4e1b-9249-231ecd23aff1"},"vehicle_type_id":"4","last_reported":1753873786,"current_range_meters":3600,"station_id":"ce4bgt12rcd13ifvqcd0","pricing_plan_id":"cebpf4jnsgd1na2vs0mg"},{"bike_id":"80915a30-ef88-4d81-b5d1-969d1c17a42d","system_id":"levelo_inurba_marseille","lat":43.30406,"lon":5.40826,"is_reserved":false,"is_disabled":false,"rental_uris":{"android":"levelo://app?vid=80915a30-ef88-4d81-b5d1-969d1c17a42d","ios":"levelo://app?vid=80915a30-ef88-4d81-b5d1-969d1c17a42d"},"vehicle_type_id":"4","last_reported":1753873786,"current_range_meters":4000,"station_id":"","pricing_plan_id":"cebpf4jnsgd1na2vs0mg"},{"bike_id":"8a569b31-55c0-441f-9435-5ac594ac9c22","system_id":"levelo_inurba_marseille","lat":43.297302,"lon":5.374166,"is_reserved":false,"is_disabled":false,"rental_uris":{"android":"levelo://app?vid=8a569b31-55c0-441f-9435-5ac594ac9c22","ios":"levelo://app?vid=8a569b31-55c0-441f-9435-5ac594ac9c22"},"vehicle_type_id":"4","last_reported":1753873786,"current_range_meters":4000,"station_id":"","pricing_plan_id":"cebpf4jnsgd1na2vs0mg"},{"bike_id":"95dd70e4-879c-49e7-b318-a6c71b22a43e","system_id":"levelo_inurba_marseille","lat":43.2703,"lon":5.39295,"is_reserved":false,"is_disabled":false,"rental_uris":{"android":"levelo://app?vid=95dd70e4-879c-49e7-b318-a6c71b22a43e","ios":"levelo://app?vid=95dd70e4-879c-49e7-b318-a6c71b22a43e"},"vehicle_type_id":"4","last_reported":1753873786,"current_range_meters":4400,"station_id":"","pricing_plan_id":"cebpf4jnsgd1na2vs0mg"},{"bike_id":"209c73e6-1f69-4d13-9fed-77cb46eecd05","system_id":"levelo_inurba_marseille","lat":43.34681,"lon":5.38065,"is_reserved":false,"is_disabled":false,"rental_uris":{"android":"levelo://app?vid=209c73e6-1f69-4d13-9fed-77cb46eecd05","ios":"levelo://app?vid=209c73e6-1f69-4d13-9fed-77cb46eecd05"},"vehicle_type_id":"4","last_reported":1753873786,"current_range_meters":4400,"station_id":"","pricing_plan_id":"cebpf4jnsgd1na2vs0mg"},{"bike_id":"4b5b8853-838d-4897-b93e-83517a24fa1c","system_id":"levelo_inurba_marseille","lat":43.29526,"lon":5.39043,"is_reserved":false,"is_disabled":false,"rental_uris":{"android":"levelo://app?vid=4b5b8853-838d-4897-b93e-83517a24fa1c","ios":"levelo://app?vid=4b5b8853-838d-4897-b93e-83517a24fa1c"},"vehicle_type_id":"4","last_reported":1753873786,"current_range_meters":4800,"station_id":"ce4bh3p2rcd13ifvqdp0","pricing_plan_id":"cebpf4jnsgd1na2vs0mg"},{"bike_id":"181c8049-4fb7-4c27-a6b2-7bb8fea4f09f","system_id":"levelo_inurba_marseille","lat":43.29532,"lon":5.39268,"is_reserved":false,"is_disabled":false,"rental_uris":{"android":"levelo://app?vid=181c8049-4fb7-4c27-a6b2-7bb8fea4f09f","ios":"levelo://app?vid=181c8049-4fb7-4c27-a6b2-7bb8fea4f09f"},"vehicle_type_id":"4","last_reported":1753873786,"current_range_meters":4800,"station_id":"","pricing_plan_id":"cebpf4jnsgd1na2vs0mg"},{"bike_id":"7cc1da72-5a84-4656-af48-1b30d4971806","system_id":"levelo_inurba_marseille","lat":43.26394,"lon":5.39851,"is_reserved":false,"is_disabled":false,"rental_uris":{"android":"levelo://app?vid=7cc1da72-5a84-4656-af48-1b30d4971806","ios":"levelo://app?vid=7cc1da72-5a84-4656-af48-1b30d4971806"},"vehicle_type_id":"4","last_reported":1753873786,"current_range_meters":4800,"station_id":"","pricing_plan_id":"cebpf4jnsgd1na2vs0mg"},{"bike_id":"cf923961-8452-4f01-b4e6-5e2e2e1dc425","system_id":"levelo_inurba_marseille","lat":43.28223,"lon":5.39069,"is_reserved":false,"is_disabled":false,"rental_uris":{"android":"levelo://app?vid=cf923961-8452-4f01-b4e6-5e2e2e1dc425","ios":"levelo://app?vid=cf923961-8452-4f01-b4e6-5e2e2e1dc425"},"vehicle_type_id":"4","last_reported":1753873786,"current_range_meters":4800,"station_id":"ce4bhn92rcd13ifvqgsg","pricing_plan_id":"cebpf4jnsgd1na2vs0mg"},{"bike_id":"6d55ebf9-e5d9-4569-9dbd-cafb7a0002b4","system_id":"levelo_inurba_marseille","lat":43.23192,"lon":5.35549,"is_reserved":false,"is_disabled":false,"rental_uris":{"android":"levelo://app?vid=6d55ebf9-e5d9-4569-9dbd-cafb7a0002b4","ios":"levelo://app?vid=6d55ebf9-e5d9-4569-9dbd-cafb7a0002b4"},"vehicle_type_id":"4","last_reported":1753873786,"current_range_meters":4800,"station_id":"ce4bhu92rcd13ifvqi70","pricing_plan_id":"cebpf4jnsgd1na2vs0mg"},{"bike_id":"91291544-14b4-4f4f-894e-cc5e1e76dc54","system_id":"levelo_inurba_marseille","lat":43.28404,"lon":5.34981,"is_reserved":false,"is_disabled":true,"rental_uris":{"android":"levelo://app?vid=91291544-14b4-4f4f-894e-cc5e1e76dc54","ios":"levelo://app?vid=91291544-14b4-4f4f-894e-cc5e1e76dc54"},"vehicle_type_id":"4","last_reported":1753873786,"current_range_meters":5600,"station_id":"ce4bhbh2rcd13ifvqepg","pricing_plan_id":"cebpf4jnsgd1na2vs0mg"},{"bike_id":"ca538d06-b8c5-4455-acd3-aa1ee1f57388","system_id":"levelo_inurba_marseille","lat":43.217491,"lon":5.346044,"is_reserved":false,"is_disabled":false,"rental_uris":{"android":"levelo://app?vid=ca538d06-b8c5-4455-acd3-aa1ee1f57388","ios":"levelo://app?vid=ca538d06-b8c5-4455-acd3-aa1ee1f57388"},"vehicle_type_id":"4","last_reported":1753873786,"current_range_meters":5600,"station_id":"","pricing_plan_id":"cebpf4jnsgd1na2vs0mg"},{"bike_id":"7ead535a-e7f2-4489-9051-59e4f5eeec8a","system_id":"levelo_inurba_marseille","lat":43.306878,"lon":5.373413,"is_reserved":false,"is_disabled":false,"rental_uris":{"android":"levelo://app?vid=7ead535a-e7f2-4489-9051-59e4f5eeec8a","ios":"levelo://app?vid=7ead535a-e7f2-4489-9051-59e4f5eeec8a"},"vehicle_type_id":"4","last_reported":1753873786,"current_range_meters":6000,"station_id":"","pricing_plan_id":"cebpf4jnsgd1na2vs0mg"},{"bike_id":"6f5f690f-44b6-4ad9-bd76-965fa3ed6717","system_id":"levelo_inurba_marseille","lat":43.29959,"lon":5.41317,"is_reserved":false,"is_disabled":false,"rental_uris":{"android":"levelo://app?vid=6f5f690f-44b6-4ad9-bd76-965fa3ed6717","ios":"levelo://app?vid=6f5f690f-44b6-4ad9-bd76-965fa3ed6717"},"vehicle_type_id":"4","last_reported":1753873786,"current_range_meters":6000,"station_id":"ce4bhp12rcd13ifvqh9g","pricing_plan_id":"cebpf4jnsgd1na2vs0mg"},{"bike_id":"149fbe11-3bce-47a0-b584-c7c7bd6bb12f","system_id":"levelo_inurba_marseille","lat":43.2161,"lon":5.34411,"is_reserved":false,"is_disabled":false,"rental_uris":{"android":"levelo://app?vid=149fbe11-3bce-47a0-b584-c7c7bd6bb12f","ios":"levelo://app?vid=149fbe11-3bce-47a0-b584-c7c7bd6bb12f"},"vehicle_type_id":"4","last_reported":1753873786,"current_range_meters":6000,"station_id":"","pricing_plan_id":"cebpf4jnsgd1na2vs0mg"},{"bike_id":"afe008c1-1852-45a4-86d0-52859cafa9f4","system_id":"levelo_inurba_marseille","lat":43.28716,"lon":5.36097,"is_reserved":false,"is_disabled":false,"rental_uris":{"android":"levelo://app?vid=afe008c1-1852-45a4-86d0-52859cafa9f4","ios":"levelo://app?vid=afe008c1-1852-45a4-86d0-52859cafa9f4"},"vehicle_type_id":"4","last_reported":1753873786,"current_range_meters":6000,"station_id":"cki0cbj6b192h4jlfktg","pricing_plan_id":"cebpf4jnsgd1na2vs0mg"},{"bike_id":"4ae29c1c-9636-420b-ab32-3309169fee44","system_id":"levelo_inurba_marseille","lat":43.29527,"lon":5.38529,"is_reserved":false,"is_disabled":false,"rental_uris":{"android":"levelo://app?vid=4ae29c1c-9636-420b-ab32-3309169fee44","ios":"levelo://app?vid=4ae29c1c-9636-420b-ab32-3309169fee44"},"vehicle_type_id":"4","last_reported":1753873786,"current_range_meters":6400,"station_id":"ce4bgih2rcd13ifvqba0","pricing_plan_id":"cebpf4jnsgd1na2vs0mg"},{"bike_id":"bde48cca-15c9-4b86-b452-666caf84832e","system_id":"levelo_inurba_marseille","lat":43.31877,"lon":5.40732,"is_reserved":false,"is_disabled":false,"rental_uris":{"android":"levelo://app?vid=bde48cca-15c9-4b86-b452-666caf84832e","ios":"levelo://app?vid=bde48cca-15c9-4b86-b452-666caf84832e"},"vehicle_type_id":"4","last_reported":1753873786,"current_range_meters":6400,"station_id":"ce4bhq12rcd13ifvqhig","pricing_plan_id":"cebpf4jnsgd1na2vs0mg"},{"bike_id":"459d4ba4-c4df-4996-9ed0-55b6aa49cef3","system_id":"levelo_inurba_marseille","lat":43.30534,"lon":5.36712,"is_reserved":false,"is_disabled":false,"rental_uris":{"android":"levelo://app?vid=459d4ba4-c4df-4996-9ed0-55b6aa49cef3","ios":"levelo://app?vid=459d4ba4-c4df-4996-9ed0-55b6aa49cef3"},"vehicle_type_id":"4","last_reported":1753873786,"current_range_meters":6400,"station_id":"ce4bgrp2rcd13ifvqc9g","pricing_plan_id":"cebpf4jnsgd1na2vs0mg"},{"bike_id":"882bdff1-651a-41c1-9ab0-596f43205cf1","system_id":"levelo_inurba_marseille","lat":43.337444,"lon":5.374475,"is_reserved":false,"is_disabled":false,"rental_uris":{"android":"levelo://app?vid=882bdff1-651a-41c1-9ab0-596f43205cf1","ios":"levelo://app?vid=882bdff1-651a-41c1-9ab0-596f43205cf1"},"vehicle_type_id":"4","last_reported":1753873786,"current_range_meters":6400,"station_id":"ce4bgkp2rcd13ifvqbmg","pricing_plan_id":"cebpf4jnsgd1na2vs0mg"},{"bike_id":"f1da0672-6565-4307-9212-57185617223f","system_id":"levelo_inurba_marseille","lat":43.31164,"lon":5.38722,"is_reserved":false,"is_disabled":false,"rental_uris":{"android":"levelo://app?vid=f1da0672-6565-4307-9212-57185617223f","ios":"levelo://app?vid=f1da0672-6565-4307-9212-57185617223f"},"vehicle_type_id":"4","last_reported":1753873786,"current_range_meters":6400,"station_id":"ce4bgv12rcd13ifvqcp0","pricing_plan_id":"cebpf4jnsgd1na2vs0mg"},{"bike_id":"44ddc854-d6b9-4fab-9c77-f5482c1670bd","system_id":"levelo_inurba_marseille","lat":43.30548,"lon":5.3652,"is_reserved":false,"is_disabled":false,"rental_uris":{"android":"levelo://app?vid=44ddc854-d6b9-4fab-9c77-f5482c1670bd","ios":"levelo://app?vid=44ddc854-d6b9-4fab-9c77-f5482c1670bd"},"vehicle_type_id":"4","last_reported":1753873786,"current_range_meters":6400,"station_id":"ce4bgs12rcd13ifvqcag","pricing_plan_id":"cebpf4jnsgd1na2vs0mg"},{"bike_id":"924d8e8c-f25c-4d83-8c6c-10308c8f159b","system_id":"levelo_inurba_marseille","lat":43.305324,"lon":5.367119,"is_reserved":false,"is_disabled":false,"rental_uris":{"android":"levelo://app?vid=924d8e8c-f25c-4d83-8c6c-10308c8f159b","ios":"levelo://app?vid=924d8e8c-f25c-4d83-8c6c-10308c8f159b"},"vehicle_type_id":"4","last_reported":1753873786,"current_range_meters":6400,"station_id":"ce4bgrp2rcd13ifvqc9g","pricing_plan_id":"cebpf4jnsgd1na2vs0mg"},{"bike_id":"c0f80fe1-ac4b-4b9f-8493-e376303201f9","system_id":"levelo_inurba_marseille","lat":43.26565,"lon":5.40331,"is_reserved":false,"is_disabled":false,"rental_uris":{"android":"levelo://app?vid=c0f80fe1-ac4b-4b9f-8493-e376303201f9","ios":"levelo://app?vid=c0f80fe1-ac4b-4b9f-8493-e376303201f9"},"vehicle_type_id":"4","last_reported":1753873786,"current_range_meters":6400,"station_id":"ce4bhmp2rcd13ifvqgng","pricing_plan_id":"cebpf4jnsgd1na2vs0mg"},{"bike_id":"c60b7931-391d-46f9-a4ef-c2d05142c034","system_id":"levelo_inurba_marseille","lat":43.2986,"lon":5.39726,"is_reserved":false,"is_disabled":false,"rental_uris":{"android":"levelo://app?vid=c60b7931-391d-46f9-a4ef-c2d05142c034","ios":"levelo://app?vid=c60b7931-391d-46f9-a4ef-c2d05142c034"},"vehicle_type_id":"4","last_reported":1753873786,"current_range_meters":6400,"station_id":"ce4bh0h2rcd13ifvqd50","pricing_plan_id":"cebpf4jnsgd1na2vs0mg"},{"bike_id":"b97f54c5-89c4-41c1-a42d-601b79a98d28","system_id":"levelo_inurba_marseille","lat":43.26938,"lon":5.3892,"is_reserved":false,"is_disabled":false,"rental_uris":{"android":"levelo://app?vid=b97f54c5-89c4-41c1-a42d-601b79a98d28","ios":"levelo://app?vid=b97f54c5-89c4-41c1-a42d-601b79a98d28"},"vehicle_type_id":"4","last_reported":1753873786,"current_range_meters":6000,"station_id":"ce4bhhh2rcd13ifvqfl0","pricing_plan_id":"cebpf4jnsgd1na2vs0mg"},{"bike_id":"d4b0442d-37e3-4887-8827-87b59f4e9086","system_id":"levelo_inurba_marseille","lat":43.2977,"lon":5.38108,"is_reserved":false,"is_disabled":false,"rental_uris":{"android":"levelo://app?vid=d4b0442d-37e3-4887-8827-87b59f4e9086","ios":"levelo://app?vid=d4b0442d-37e3-4887-8827-87b59f4e9086"},"vehicle_type_id":"4","last_reported":1753873786,"current_range_meters":6800,"station_id":"","pricing_plan_id":"cebpf4jnsgd1na2vs0mg"},{"bike_id":"2a3a9f20-00d1-4c95-a093-ba8e28724bc0","system_id":"levelo_inurba_marseille","lat":43.30676,"lon":5.37557,"is_reserved":false,"is_disabled":false,"rental_uris":{"android":"levelo://app?vid=2a3a9f20-00d1-4c95-a093-ba8e28724bc0","ios":"levelo://app?vid=2a3a9f20-00d1-4c95-a093-ba8e28724bc0"},"vehicle_type_id":"4","last_reported":1753873786,"current_range_meters":6800,"station_id":"","pricing_plan_id":"cebpf4jnsgd1na2vs0mg"},{"bike_id":"851e709c-fa7f-4c71-8d79-0abf528c6406","system_id":"levelo_inurba_marseille","lat":43.24169,"lon":5.36404,"is_reserved":false,"is_disabled":false,"rental_uris":{"android":"levelo://app?vid=851e709c-fa7f-4c71-8d79-0abf528c6406","ios":"levelo://app?vid=851e709c-fa7f-4c71-8d79-0abf528c6406"},"vehicle_type_id":"4","last_reported":1753873786,"current_range_meters":7200,"station_id":"cpo36qri1sfpv3e86is0","pricing_plan_id":"cebpf4jnsgd1na2vs0mg"},{"bike_id":"b04c7fb6-bf29-43d8-b792-8857640c9309","system_id":"levelo_inurba_marseille","lat":43.25492,"lon":5.37646,"is_reserved":false,"is_disabled":false,"rental_uris":{"android":"levelo://app?vid=b04c7fb6-bf29-43d8-b792-8857640c9309","ios":"levelo://app?vid=b04c7fb6-bf29-43d8-b792-8857640c9309"},"vehicle_type_id":"4","last_reported":1753873786,"current_range_meters":7200,"station_id":"ce4bhh12rcd13ifvqff0","pricing_plan_id":"cebpf4jnsgd1na2vs0mg"},{"bike_id":"bb650ed0-d989-4f7c-9fda-1512931e29aa","system_id":"levelo_inurba_marseille","lat":43.300006,"lon":5.371889,"is_reserved":false,"is_disabled":false,"rental_uris":{"android":"levelo://app?vid=bb650ed0-d989-4f7c-9fda-1512931e29aa","ios":"levelo://app?vid=bb650ed0-d989-4f7c-9fda-1512931e29aa"},"vehicle_type_id":"4","last_reported":1753873786,"current_range_meters":7200,"station_id":"ce4bgr92rcd13ifvqc7g","pricing_plan_id":"cebpf4jnsgd1na2vs0mg"},{"bike_id":"0569760a-f748-4bd7-863f-279bd7fcdc8b","system_id":"levelo_inurba_marseille","lat":43.29577,"lon":5.36733,"is_reserved":false,"is_disabled":false,"rental_uris":{"android":"levelo://app?vid=0569760a-f748-4bd7-863f-279bd7fcdc8b","ios":"levelo://app?vid=0569760a-f748-4bd7-863f-279bd7fcdc8b"},"vehicle_type_id":"4","last_reported":1753873786,"current_range_meters":8000,"station_id":"ce4bgph2rcd13ifvqc2g","pricing_plan_id":"cebpf4jnsgd1na2vs0mg"},{"bike_id":"37fcf059-83b8-4b6e-bc28-0c83f77e3c05","system_id":"levelo_inurba_marseille","lat":43.22557,"lon":5.34759,"is_reserved":false,"is_disabled":false,"rental_uris":{"android":"levelo://app?vid=37fcf059-83b8-4b6e-bc28-0c83f77e3c05","ios":"levelo://app?vid=37fcf059-83b8-4b6e-bc28-0c83f77e3c05"},"vehicle_type_id":"4","last_reported":1753873786,"current_range_meters":8000,"station_id":"","pricing_plan_id":"cebpf4jnsgd1na2vs0mg"},{"bike_id":"28e583f6-2fe3-4cfd-9f98-fe94277a0eb4","system_id":"levelo_inurba_marseille","lat":43.30547,"lon":5.36536,"is_reserved":false,"is_disabled":false,"rental_uris":{"android":"levelo://app?vid=28e583f6-2fe3-4cfd-9f98-fe94277a0eb4","ios":"levelo://app?vid=28e583f6-2fe3-4cfd-9f98-fe94277a0eb4"},"vehicle_type_id":"4","last_reported":1753873786,"current_range_meters":8000,"station_id":"ce4bgs12rcd13ifvqcag","pricing_plan_id":"cebpf4jnsgd1na2vs0mg"},{"bike_id":"773a2503-609f-4bad-a1c3-11c97bbd6d39","system_id":"levelo_inurba_marseille","lat":43.217507,"lon":5.346009,"is_reserved":false,"is_disabled":false,"rental_uris":{"android":"levelo://app?vid=773a2503-609f-4bad-a1c3-11c97bbd6d39","ios":"levelo://app?vid=773a2503-609f-4bad-a1c3-11c97bbd6d39"},"vehicle_type_id":"4","last_reported":1753873786,"current_range_meters":8000,"station_id":"","pricing_plan_id":"cebpf4jnsgd1na2vs0mg"},{"bike_id":"9e9911bf-5f12-4bb1-bac5-bcf9795621d2","system_id":"levelo_inurba_marseille","lat":43.26028,"lon":5.37545,"is_reserved":false,"is_disabled":false,"rental_uris":{"android":"levelo://app?vid=9e9911bf-5f12-4bb1-bac5-bcf9795621d2","ios":"levelo://app?vid=9e9911bf-5f12-4bb1-bac5-bcf9795621d2"},"vehicle_type_id":"4","last_reported":1753873786,"current_range_meters":7200,"station_id":"ce4bhgh2rcd13ifvqfa0","pricing_plan_id":"cebpf4jnsgd1na2vs0mg"},{"bike_id":"6af58495-3a8c-4d61-b6d9-83bdbd21f20a","system_id":"levelo_inurba_marseille","lat":43.31327,"lon":5.39695,"is_reserved":false,"is_disabled":false,"rental_uris":{"android":"levelo://app?vid=6af58495-3a8c-4d61-b6d9-83bdbd21f20a","ios":"levelo://app?vid=6af58495-3a8c-4d61-b6d9-83bdbd21f20a"},"vehicle_type_id":"4","last_reported":1753873786,"current_range_meters":8400,"station_id":"ce4bgvp2rcd13ifvqcu0","pricing_plan_id":"cebpf4jnsgd1na2vs0mg"},{"bike_id":"55201a9e-328f-452a-8b58-b76f0e5a4511","system_id":"levelo_inurba_marseille","lat":43.23181,"lon":5.400041,"is_reserved":false,"is_disabled":true,"rental_uris":{"android":"levelo://app?vid=55201a9e-328f-452a-8b58-b76f0e5a4511","ios":"levelo://app?vid=55201a9e-328f-452a-8b58-b76f0e5a4511"},"vehicle_type_id":"4","last_reported":1753873786,"current_range_meters":8400,"station_id":"ce4bhn12rcd13ifvqgqg","pricing_plan_id":"cebpf4jnsgd1na2vs0mg"},{"bike_id":"8af0a4d2-d1ea-48e3-971b-05c8dc25b397","system_id":"levelo_inurba_marseille","lat":43.3094,"lon":5.39017,"is_reserved":false,"is_disabled":false,"rental_uris":{"android":"levelo://app?vid=8af0a4d2-d1ea-48e3-971b-05c8dc25b397","ios":"levelo://app?vid=8af0a4d2-d1ea-48e3-971b-05c8dc25b397"},"vehicle_type_id":"4","last_reported":1753873786,"current_range_meters":8400,"station_id":"ce4bgup2rcd13ifvqco0","pricing_plan_id":"cebpf4jnsgd1na2vs0mg"},{"bike_id":"a73f8b12-92e6-449e-a039-e861bf8aeda6","system_id":"levelo_inurba_marseille","lat":43.30467,"lon":5.37902,"is_reserved":false,"is_disabled":false,"rental_uris":{"android":"levelo://app?vid=a73f8b12-92e6-449e-a039-e861bf8aeda6","ios":"levelo://app?vid=a73f8b12-92e6-449e-a039-e861bf8aeda6"},"vehicle_type_id":"4","last_reported":1753873786,"current_range_meters":8000,"station_id":"ce4bgup2rcd13ifvqcn0","pricing_plan_id":"cebpf4jnsgd1na2vs0mg"},{"bike_id":"b678bfa8-66dc-4b83-8931-03c7de466b27","system_id":"levelo_inurba_marseille","lat":43.30189,"lon":5.36627,"is_reserved":false,"is_disabled":false,"rental_uris":{"android":"levelo://app?vid=b678bfa8-66dc-4b83-8931-03c7de466b27","ios":"levelo://app?vid=b678bfa8-66dc-4b83-8931-03c7de466b27"},"vehicle_type_id":"4","last_reported":1753873786,"current_range_meters":8400,"station_id":"ce4bgrh2rcd13ifvqc8g","pricing_plan_id":"cebpf4jnsgd1na2vs0mg"},{"bike_id":"059ca5dc-0b8a-46d8-92e4-b4a12d7902df","system_id":"levelo_inurba_marseille","lat":43.26227,"lon":5.4045,"is_reserved":false,"is_disabled":false,"rental_uris":{"android":"levelo://app?vid=059ca5dc-0b8a-46d8-92e4-b4a12d7902df","ios":"levelo://app?vid=059ca5dc-0b8a-46d8-92e4-b4a12d7902df"},"vehicle_type_id":"4","last_reported":1753873786,"current_range_meters":8800,"station_id":"ce4bhmh2rcd13ifvqgmg","pricing_plan_id":"cebpf4jnsgd1na2vs0mg"},{"bike_id":"46327a3a-b112-4747-b636-17ebf6146226","system_id":"levelo_inurba_marseille","lat":43.30525,"lon":5.36723,"is_reserved":false,"is_disabled":false,"rental_uris":{"android":"levelo://app?vid=46327a3a-b112-4747-b636-17ebf6146226","ios":"levelo://app?vid=46327a3a-b112-4747-b636-17ebf6146226"},"vehicle_type_id":"4","last_reported":1753873786,"current_range_meters":8800,"station_id":"","pricing_plan_id":"cebpf4jnsgd1na2vs0mg"},{"bike_id":"b9920602-565a-465c-8a4e-5fe77167451d","system_id":"levelo_inurba_marseille","lat":43.28843,"lon":5.39309,"is_reserved":false,"is_disabled":false,"rental_uris":{"android":"levelo://app?vid=b9920602-565a-465c-8a4e-5fe77167451d","ios":"levelo://app?vid=b9920602-565a-465c-8a4e-5fe77167451d"},"vehicle_type_id":"4","last_reported":1753873786,"current_range_meters":8800,"station_id":"ce4bh2p2rcd13ifvqdi0","pricing_plan_id":"cebpf4jnsgd1na2vs0mg"},{"bike_id":"b5e469a6-8e8f-4b1a-91cc-e9f6f04151ad","system_id":"levelo_inurba_marseille","lat":43.29569,"lon":5.43682,"is_reserved":false,"is_disabled":false,"rental_uris":{"android":"levelo://app?vid=b5e469a6-8e8f-4b1a-91cc-e9f6f04151ad","ios":"levelo://app?vid=b5e469a6-8e8f-4b1a-91cc-e9f6f04151ad"},"vehicle_type_id":"4","last_reported":1753873786,"current_range_meters":8800,"station_id":"","pricing_plan_id":"cebpf4jnsgd1na2vs0mg"},{"bike_id":"4a837623-d734-41ac-9d81-8c3e2451bd99","system_id":"levelo_inurba_marseille","lat":43.28266,"lon":5.35082,"is_reserved":false,"is_disabled":true,"rental_uris":{"android":"levelo://app?vid=4a837623-d734-41ac-9d81-8c3e2451bd99","ios":"levelo://app?vid=4a837623-d734-41ac-9d81-8c3e2451bd99"},"vehicle_type_id":"4","last_reported":1753873786,"current_range_meters":8800,"station_id":"ce4bhbp2rcd13ifvqerg","pricing_plan_id":"cebpf4jnsgd1na2vs0mg"},{"bike_id":"649830d6-c1fe-4ced-a24a-a79f2a5b974f","system_id":"levelo_inurba_marseille","lat":43.29195,"lon":5.39325,"is_reserved":false,"is_disabled":false,"rental_uris":{"android":"levelo://app?vid=649830d6-c1fe-4ced-a24a-a79f2a5b974f","ios":"levelo://app?vid=649830d6-c1fe-4ced-a24a-a79f2a5b974f"},"vehicle_type_id":"4","last_reported":1753873786,"current_range_meters":8800,"station_id":"ce4bh192rcd13ifvqdd0","pricing_plan_id":"cebpf4jnsgd1na2vs0mg"},{"bike_id":"b0f2b2c1-b378-4164-a22b-6eceaa434acc","system_id":"levelo_inurba_marseille","lat":43.29218,"lon":5.42684,"is_reserved":false,"is_disabled":false,"rental_uris":{"android":"levelo://app?vid=b0f2b2c1-b378-4164-a22b-6eceaa434acc","ios":"levelo://app?vid=b0f2b2c1-b378-4164-a22b-6eceaa434acc"},"vehicle_type_id":"4","last_reported":1753873786,"current_range_meters":9200,"station_id":"","pricing_plan_id":"cebpf4jnsgd1na2vs0mg"},{"bike_id":"1d9c8f69-ee78-4f0e-b9ef-f3cf3fc9103f","system_id":"levelo_inurba_marseille","lat":43.231907,"lon":5.355481,"is_reserved":false,"is_disabled":false,"rental_uris":{"android":"levelo://app?vid=1d9c8f69-ee78-4f0e-b9ef-f3cf3fc9103f","ios":"levelo://app?vid=1d9c8f69-ee78-4f0e-b9ef-f3cf3fc9103f"},"vehicle_type_id":"4","last_reported":1753873786,"current_range_meters":9600,"station_id":"ce4bhu92rcd13ifvqi70","pricing_plan_id":"cebpf4jnsgd1na2vs0mg"},{"bike_id":"d05f3b93-cd71-4d55-85a7-ab24dcfd7ea9","system_id":"levelo_inurba_marseille","lat":43.2962,"lon":5.37151,"is_reserved":false,"is_disabled":false,"rental_uris":{"android":"levelo://app?vid=d05f3b93-cd71-4d55-85a7-ab24dcfd7ea9","ios":"levelo://app?vid=d05f3b93-cd71-4d55-85a7-ab24dcfd7ea9"},"vehicle_type_id":"4","last_reported":1753873786,"current_range_meters":9600,"station_id":"ce4bgnh2rcd13ifvqc0g","pricing_plan_id":"cebpf4jnsgd1na2vs0mg"},{"bike_id":"7608b58c-1836-486b-b5da-9d6efa072876","system_id":"levelo_inurba_marseille","lat":43.29216,"lon":5.36063,"is_reserved":false,"is_disabled":false,"rental_uris":{"android":"levelo://app?vid=7608b58c-1836-486b-b5da-9d6efa072876","ios":"levelo://app?vid=7608b58c-1836-486b-b5da-9d6efa072876"},"vehicle_type_id":"4","last_reported":1753873786,"current_range_meters":9600,"station_id":"ce4bhbh2rcd13ifvqeqg","pricing_plan_id":"cebpf4jnsgd1na2vs0mg"},{"bike_id":"d5b225c9-59f1-4500-b3e4-7c1587169d1a","system_id":"levelo_inurba_marseille","lat":43.28408,"lon":5.35188,"is_reserved":false,"is_disabled":true,"rental_uris":{"android":"levelo://app?vid=d5b225c9-59f1-4500-b3e4-7c1587169d1a","ios":"levelo://app?vid=d5b225c9-59f1-4500-b3e4-7c1587169d1a"},"vehicle_type_id":"4","last_reported":1753873786,"current_range_meters":9600,"station_id":"ce4bhbh2rcd13ifvqepg","pricing_plan_id":"cebpf4jnsgd1na2vs0mg"},{"bike_id":"e137dc03-26cf-440c-b3ea-1ea522645199","system_id":"levelo_inurba_marseille","lat":43.280815,"lon":5.396626,"is_reserved":false,"is_disabled":false,"rental_uris":{"android":"levelo://app?vid=e137dc03-26cf-440c-b3ea-1ea522645199","ios":"levelo://app?vid=e137dc03-26cf-440c-b3ea-1ea522645199"},"vehicle_type_id":"4","last_reported":1753873786,"current_range_meters":9600,"station_id":"","pricing_plan_id":"cebpf4jnsgd1na2vs0mg"},{"bike_id":"0dc99cab-1546-4588-8ef9-e9c6ae8e0a6f","system_id":"levelo_inurba_marseille","lat":43.2305,"lon":5.3552,"is_reserved":false,"is_disabled":false,"rental_uris":{"android":"levelo://app?vid=0dc99cab-1546-4588-8ef9-e9c6ae8e0a6f","ios":"levelo://app?vid=0dc99cab-1546-4588-8ef9-e9c6ae8e0a6f"},"vehicle_type_id":"4","last_reported":1753873786,"current_range_meters":9600,"station_id":"cpo3342slgdg3j2ifvpg","pricing_plan_id":"cebpf4jnsgd1na2vs0mg"},{"bike_id":"e9624a09-b572-4bcb-944b-ef4683557984","system_id":"levelo_inurba_marseille","lat":43.23039,"lon":5.35491,"is_reserved":false,"is_disabled":true,"rental_uris":{"android":"levelo://app?vid=e9624a09-b572-4bcb-944b-ef4683557984","ios":"levelo://app?vid=e9624a09-b572-4bcb-944b-ef4683557984"},"vehicle_type_id":"4","last_reported":1753873786,"current_range_meters":9600,"station_id":"cpo3342slgdg3j2ifvpg","pricing_plan_id":"cebpf4jnsgd1na2vs0mg"},{"bike_id":"b879b8fc-7c17-42d7-b1e3-d28ef5c9d887","system_id":"levelo_inurba_marseille","lat":43.30526,"lon":5.36705,"is_reserved":false,"is_disabled":false,"rental_uris":{"android":"levelo://app?vid=b879b8fc-7c17-42d7-b1e3-d28ef5c9d887","ios":"levelo://app?vid=b879b8fc-7c17-42d7-b1e3-d28ef5c9d887"},"vehicle_type_id":"4","last_reported":1753873786,"current_range_meters":10000,"station_id":"","pricing_plan_id":"cebpf4jnsgd1na2vs0mg"},{"bike_id":"a0f3bcf9-7762-41e0-91d9-bd9b2db1a468","system_id":"levelo_inurba_marseille","lat":43.30174,"lon":5.36631,"is_reserved":false,"is_disabled":false,"rental_uris":{"android":"levelo://app?vid=a0f3bcf9-7762-41e0-91d9-bd9b2db1a468","ios":"levelo://app?vid=a0f3bcf9-7762-41e0-91d9-bd9b2db1a468"},"vehicle_type_id":"4","last_reported":1753873786,"current_range_meters":10000,"station_id":"ce4bgrh2rcd13ifvqc8g","pricing_plan_id":"cebpf4jnsgd1na2vs0mg"},{"bike_id":"887f6f93-0eac-4bcd-a75b-a8c98047a14d","system_id":"levelo_inurba_marseille","lat":43.21192,"lon":5.35075,"is_reserved":false,"is_disabled":false,"rental_uris":{"android":"levelo://app?vid=887f6f93-0eac-4bcd-a75b-a8c98047a14d","ios":"levelo://app?vid=887f6f93-0eac-4bcd-a75b-a8c98047a14d"},"vehicle_type_id":"4","last_reported":1753873786,"current_range_meters":10000,"station_id":"","pricing_plan_id":"cebpf4jnsgd1na2vs0mg"},{"bike_id":"673c0125-c4e4-4b4b-95c0-046678c3673f","system_id":"levelo_inurba_marseille","lat":43.2862,"lon":5.35048,"is_reserved":false,"is_disabled":false,"rental_uris":{"android":"levelo://app?vid=673c0125-c4e4-4b4b-95c0-046678c3673f","ios":"levelo://app?vid=673c0125-c4e4-4b4b-95c0-046678c3673f"},"vehicle_type_id":"4","last_reported":1753873786,"current_range_meters":10000,"station_id":"ce4bhch2rcd13ifvqeug","pricing_plan_id":"cebpf4jnsgd1na2vs0mg"},{"bike_id":"ba7a8c8c-2653-400e-83cd-b64bf258a77d","system_id":"levelo_inurba_marseille","lat":43.28714,"lon":5.37946,"is_reserved":false,"is_disabled":false,"rental_uris":{"android":"levelo://app?vid=ba7a8c8c-2653-400e-83cd-b64bf258a77d","ios":"levelo://app?vid=ba7a8c8c-2653-400e-83cd-b64bf258a77d"},"vehicle_type_id":"4","last_reported":1753873786,"current_range_meters":10000,"station_id":"ce4bh9p2rcd13ifvqec0","pricing_plan_id":"cebpf4jnsgd1na2vs0mg"},{"bike_id":"565b1d90-7163-48a5-bcd7-56b9fcdcfda5","system_id":"levelo_inurba_marseille","lat":43.22505,"lon":5.34786,"is_reserved":false,"is_disabled":false,"rental_uris":{"android":"levelo://app?vid=565b1d90-7163-48a5-bcd7-56b9fcdcfda5","ios":"levelo://app?vid=565b1d90-7163-48a5-bcd7-56b9fcdcfda5"},"vehicle_type_id":"4","last_reported":1753873786,"current_range_meters":10800,"station_id":"st_cvj5dfep6f1abm77gieg","pricing_plan_id":"cebpf4jnsgd1na2vs0mg"},{"bike_id":"f703840a-b67f-4bd7-bd5a-5c080a4cb1e1","system_id":"levelo_inurba_marseille","lat":43.29714,"lon":5.37685,"is_reserved":false,"is_disabled":false,"rental_uris":{"android":"levelo://app?vid=f703840a-b67f-4bd7-bd5a-5c080a4cb1e1","ios":"levelo://app?vid=f703840a-b67f-4bd7-bd5a-5c080a4cb1e1"},"vehicle_type_id":"4","last_reported":1753873786,"current_range_meters":10800,"station_id":"ce4bgkh2rcd13ifvqbl0","pricing_plan_id":"cebpf4jnsgd1na2vs0mg"},{"bike_id":"b6ac990f-f37b-4014-b136-316bdbae02d1","system_id":"levelo_inurba_marseille","lat":43.266476,"lon":5.372814,"is_reserved":false,"is_disabled":false,"rental_uris":{"android":"levelo://app?vid=b6ac990f-f37b-4014-b136-316bdbae02d1","ios":"levelo://app?vid=b6ac990f-f37b-4014-b136-316bdbae02d1"},"vehicle_type_id":"4","last_reported":1753873786,"current_range_meters":10800,"station_id":"ce4bhg92rcd13ifvqf90","pricing_plan_id":"cebpf4jnsgd1na2vs0mg"},{"bike_id":"00de3457-bb26-4f86-be97-d29604933a4d","system_id":"levelo_inurba_marseille","lat":43.28634,"lon":5.37184,"is_reserved":false,"is_disabled":false,"rental_uris":{"android":"levelo://app?vid=00de3457-bb26-4f86-be97-d29604933a4d","ios":"levelo://app?vid=00de3457-bb26-4f86-be97-d29604933a4d"},"vehicle_type_id":"4","last_reported":1753873786,"current_range_meters":10800,"station_id":"","pricing_plan_id":"cebpf4jnsgd1na2vs0mg"},{"bike_id":"ed2653a8-cef8-419b-b19a-e1a7f6058aa9","system_id":"levelo_inurba_marseille","lat":43.23184,"lon":5.35554,"is_reserved":false,"is_disabled":false,"rental_uris":{"android":"levelo://app?vid=ed2653a8-cef8-419b-b19a-e1a7f6058aa9","ios":"levelo://app?vid=ed2653a8-cef8-419b-b19a-e1a7f6058aa9"},"vehicle_type_id":"4","last_reported":1753873786,"current_range_meters":11200,"station_id":"ce4bhu92rcd13ifvqi70","pricing_plan_id":"cebpf4jnsgd1na2vs0mg"},{"bike_id":"fc9ad7ce-5e01-4d8a-abd1-a800b1a87f49","system_id":"levelo_inurba_marseille","lat":43.29379,"lon":5.37837,"is_reserved":false,"is_disabled":false,"rental_uris":{"android":"levelo://app?vid=fc9ad7ce-5e01-4d8a-abd1-a800b1a87f49","ios":"levelo://app?vid=fc9ad7ce-5e01-4d8a-abd1-a800b1a87f49"},"vehicle_type_id":"4","last_reported":1753873786,"current_range_meters":11200,"station_id":"ce4bgjh2rcd13ifvqbf0","pricing_plan_id":"cebpf4jnsgd1na2vs0mg"},{"bike_id":"7f8e8f14-5eed-4766-938d-6e6f4c900cbe","system_id":"levelo_inurba_marseille","lat":43.26779,"lon":5.39418,"is_reserved":false,"is_disabled":false,"rental_uris":{"android":"levelo://app?vid=7f8e8f14-5eed-4766-938d-6e6f4c900cbe","ios":"levelo://app?vid=7f8e8f14-5eed-4766-938d-6e6f4c900cbe"},"vehicle_type_id":"4","last_reported":1753873786,"current_range_meters":11200,"station_id":"ce4bhh12rcd13ifvqfg0","pricing_plan_id":"cebpf4jnsgd1na2vs0mg"},{"bike_id":"f8aee9d4-a9dd-466f-82a1-6306f93363e5","system_id":"levelo_inurba_marseille","lat":43.291474,"lon":5.38059,"is_reserved":false,"is_disabled":false,"rental_uris":{"android":"levelo://app?vid=f8aee9d4-a9dd-466f-82a1-6306f93363e5","ios":"levelo://app?vid=f8aee9d4-a9dd-466f-82a1-6306f93363e5"},"vehicle_type_id":"4","last_reported":1753873786,"current_range_meters":11200,"station_id":"ce4bh512rcd13ifvqe2g","pricing_plan_id":"cebpf4jnsgd1na2vs0mg"},{"bike_id":"32dd21b7-3cb0-4c60-b860-15c8fc8d479b","system_id":"levelo_inurba_marseille","lat":43.24169,"lon":5.36399,"is_reserved":false,"is_disabled":false,"rental_uris":{"android":"levelo://app?vid=32dd21b7-3cb0-4c60-b860-15c8fc8d479b","ios":"levelo://app?vid=32dd21b7-3cb0-4c60-b860-15c8fc8d479b"},"vehicle_type_id":"4","last_reported":1753873786,"current_range_meters":11600,"station_id":"cpo36qri1sfpv3e86is0","pricing_plan_id":"cebpf4jnsgd1na2vs0mg"},{"bike_id":"fea5ec1b-f797-4a6b-a649-4890481ac22d","system_id":"levelo_inurba_marseille","lat":43.301453,"lon":5.380907,"is_reserved":false,"is_disabled":false,"rental_uris":{"android":"levelo://app?vid=fea5ec1b-f797-4a6b-a649-4890481ac22d","ios":"levelo://app?vid=fea5ec1b-f797-4a6b-a649-4890481ac22d"},"vehicle_type_id":"4","last_reported":1753873786,"current_range_meters":11200,"station_id":"ce4bgjp2rcd13ifvqbh0","pricing_plan_id":"cebpf4jnsgd1na2vs0mg"},{"bike_id":"e9518dbb-b89e-46e8-97fe-cd7be3ea0370","system_id":"levelo_inurba_marseille","lat":43.29971,"lon":5.37178,"is_reserved":false,"is_disabled":false,"rental_uris":{"android":"levelo://app?vid=e9518dbb-b89e-46e8-97fe-cd7be3ea0370","ios":"levelo://app?vid=e9518dbb-b89e-46e8-97fe-cd7be3ea0370"},"vehicle_type_id":"4","last_reported":1753873786,"current_range_meters":11600,"station_id":"ce4bgr92rcd13ifvqc7g","pricing_plan_id":"cebpf4jnsgd1na2vs0mg"},{"bike_id":"c20b0e63-9b3e-4b98-a321-7a09cecccd35","system_id":"levelo_inurba_marseille","lat":43.24165,"lon":5.36402,"is_reserved":false,"is_disabled":false,"rental_uris":{"android":"levelo://app?vid=c20b0e63-9b3e-4b98-a321-7a09cecccd35","ios":"levelo://app?vid=c20b0e63-9b3e-4b98-a321-7a09cecccd35"},"vehicle_type_id":"4","last_reported":1753873786,"current_range_meters":11600,"station_id":"cpo36qri1sfpv3e86is0","pricing_plan_id":"cebpf4jnsgd1na2vs0mg"},{"bike_id":"c688bd73-539d-40ab-bddb-c5e5e69fea14","system_id":"levelo_inurba_marseille","lat":43.30945,"lon":5.39025,"is_reserved":false,"is_disabled":false,"rental_uris":{"android":"levelo://app?vid=c688bd73-539d-40ab-bddb-c5e5e69fea14","ios":"levelo://app?vid=c688bd73-539d-40ab-bddb-c5e5e69fea14"},"vehicle_type_id":"4","last_reported":1753873786,"current_range_meters":11600,"station_id":"ce4bgup2rcd13ifvqco0","pricing_plan_id":"cebpf4jnsgd1na2vs0mg"},{"bike_id":"0808bba6-3834-448e-ae21-cf0ab29218f9","system_id":"levelo_inurba_marseille","lat":43.28938,"lon":5.39631,"is_reserved":false,"is_disabled":false,"rental_uris":{"android":"levelo://app?vid=0808bba6-3834-448e-ae21-cf0ab29218f9","ios":"levelo://app?vid=0808bba6-3834-448e-ae21-cf0ab29218f9"},"vehicle_type_id":"4","last_reported":1753873786,"current_range_meters":11600,"station_id":"ce4bh3h2rcd13ifvqdn0","pricing_plan_id":"cebpf4jnsgd1na2vs0mg"},{"bike_id":"b48f5dd0-6dba-4454-bab2-8fe0e77c0439","system_id":"levelo_inurba_marseille","lat":43.241667,"lon":5.363944,"is_reserved":false,"is_disabled":false,"rental_uris":{"android":"levelo://app?vid=b48f5dd0-6dba-4454-bab2-8fe0e77c0439","ios":"levelo://app?vid=b48f5dd0-6dba-4454-bab2-8fe0e77c0439"},"vehicle_type_id":"4","last_reported":1753873786,"current_range_meters":12000,"station_id":"cpo36qri1sfpv3e86is0","pricing_plan_id":"cebpf4jnsgd1na2vs0mg"},{"bike_id":"09ad9f00-e4b8-4564-9016-34f7c6eb4a18","system_id":"levelo_inurba_marseille","lat":43.30533,"lon":5.36719,"is_reserved":false,"is_disabled":false,"rental_uris":{"android":"levelo://app?vid=09ad9f00-e4b8-4564-9016-34f7c6eb4a18","ios":"levelo://app?vid=09ad9f00-e4b8-4564-9016-34f7c6eb4a18"},"vehicle_type_id":"4","last_reported":1753873786,"current_range_meters":12000,"station_id":"ce4bgrp2rcd13ifvqc9g","pricing_plan_id":"cebpf4jnsgd1na2vs0mg"},{"bike_id":"58d60ef7-501e-48a0-a97f-c0e09ff3aab0","system_id":"levelo_inurba_marseille","lat":43.222792,"lon":5.345958,"is_reserved":false,"is_disabled":false,"rental_uris":{"android":"levelo://app?vid=58d60ef7-501e-48a0-a97f-c0e09ff3aab0","ios":"levelo://app?vid=58d60ef7-501e-48a0-a97f-c0e09ff3aab0"},"vehicle_type_id":"4","last_reported":1753873786,"current_range_meters":12000,"station_id":"ce4bhp92rcd13ifvqhag","pricing_plan_id":"cebpf4jnsgd1na2vs0mg"},{"bike_id":"135ab1ea-fc9a-4785-9240-6bfa3adf7c7c","system_id":"levelo_inurba_marseille","lat":43.32377,"lon":5.36754,"is_reserved":false,"is_disabled":false,"rental_uris":{"android":"levelo://app?vid=135ab1ea-fc9a-4785-9240-6bfa3adf7c7c","ios":"levelo://app?vid=135ab1ea-fc9a-4785-9240-6bfa3adf7c7c"},"vehicle_type_id":"4","last_reported":1753873786,"current_range_meters":12400,"station_id":"ce4bhsh2rcd13ifvqi2g","pricing_plan_id":"cebpf4jnsgd1na2vs0mg"},{"bike_id":"e04978f3-d665-4a61-ae50-6a07923d04b6","system_id":"levelo_inurba_marseille","lat":43.28415,"lon":5.35001,"is_reserved":false,"is_disabled":false,"rental_uris":{"android":"levelo://app?vid=e04978f3-d665-4a61-ae50-6a07923d04b6","ios":"levelo://app?vid=e04978f3-d665-4a61-ae50-6a07923d04b6"},"vehicle_type_id":"4","last_reported":1753873786,"current_range_meters":12400,"station_id":"ce4bhbh2rcd13ifvqepg","pricing_plan_id":"cebpf4jnsgd1na2vs0mg"},{"bike_id":"12ba8816-1c32-4cf1-b068-dabcee1f50cf","system_id":"levelo_inurba_marseille","lat":43.30539,"lon":5.36705,"is_reserved":false,"is_disabled":false,"rental_uris":{"android":"levelo://app?vid=12ba8816-1c32-4cf1-b068-dabcee1f50cf","ios":"levelo://app?vid=12ba8816-1c32-4cf1-b068-dabcee1f50cf"},"vehicle_type_id":"4","last_reported":1753873786,"current_range_meters":12400,"station_id":"ce4bgrp2rcd13ifvqc9g","pricing_plan_id":"cebpf4jnsgd1na2vs0mg"},{"bike_id":"e835e740-02a8-4b55-b83d-8f7e332e158e","system_id":"levelo_inurba_marseille","lat":43.23066,"lon":5.35493,"is_reserved":false,"is_disabled":false,"rental_uris":{"android":"levelo://app?vid=e835e740-02a8-4b55-b83d-8f7e332e158e","ios":"levelo://app?vid=e835e740-02a8-4b55-b83d-8f7e332e158e"},"vehicle_type_id":"4","last_reported":1753873786,"current_range_meters":12400,"station_id":"cpo3342slgdg3j2ifvpg","pricing_plan_id":"cebpf4jnsgd1na2vs0mg"},{"bike_id":"3c65e3a4-d98b-4db2-8d36-951b9612ba65","system_id":"levelo_inurba_marseille","lat":43.231926,"lon":5.355538,"is_reserved":false,"is_disabled":false,"rental_uris":{"android":"levelo://app?vid=3c65e3a4-d98b-4db2-8d36-951b9612ba65","ios":"levelo://app?vid=3c65e3a4-d98b-4db2-8d36-951b9612ba65"},"vehicle_type_id":"4","last_reported":1753873786,"current_range_meters":12400,"station_id":"ce4bhu92rcd13ifvqi70","pricing_plan_id":"cebpf4jnsgd1na2vs0mg"},{"bike_id":"f129605f-c561-462b-9dd8-38b1fae764e6","system_id":"levelo_inurba_marseille","lat":43.32358,"lon":5.3677,"is_reserved":false,"is_disabled":false,"rental_uris":{"android":"levelo://app?vid=f129605f-c561-462b-9dd8-38b1fae764e6","ios":"levelo://app?vid=f129605f-c561-462b-9dd8-38b1fae764e6"},"vehicle_type_id":"4","last_reported":1753873786,"current_range_meters":12400,"station_id":"ce4bhsh2rcd13ifvqi2g","pricing_plan_id":"cebpf4jnsgd1na2vs0mg"},{"bike_id":"23cb5642-15b1-4dff-8751-77349dab4204","system_id":"levelo_inurba_marseille","lat":43.229386,"lon":5.353735,"is_reserved":false,"is_disabled":false,"rental_uris":{"android":"levelo://app?vid=23cb5642-15b1-4dff-8751-77349dab4204","ios":"levelo://app?vid=23cb5642-15b1-4dff-8751-77349dab4204"},"vehicle_type_id":"4","last_reported":1753873786,"current_range_meters":12800,"station_id":"cpo3532slgdg3j2ikp40","pricing_plan_id":"cebpf4jnsgd1na2vs0mg"},{"bike_id":"f7d4dbbc-cbbf-48e0-8b55-a9e7af4fba96","system_id":"levelo_inurba_marseille","lat":43.29704,"lon":5.3661,"is_reserved":false,"is_disabled":false,"rental_uris":{"android":"levelo://app?vid=f7d4dbbc-cbbf-48e0-8b55-a9e7af4fba96","ios":"levelo://app?vid=f7d4dbbc-cbbf-48e0-8b55-a9e7af4fba96"},"vehicle_type_id":"4","last_reported":1753873786,"current_range_meters":12800,"station_id":"ce4bgn12rcd13ifvqbt0","pricing_plan_id":"cebpf4jnsgd1na2vs0mg"},{"bike_id":"8f41ed9d-1778-4af7-b2ad-fd1607beff4e","system_id":"levelo_inurba_marseille","lat":43.22509,"lon":5.34776,"is_reserved":false,"is_disabled":false,"rental_uris":{"android":"levelo://app?vid=8f41ed9d-1778-4af7-b2ad-fd1607beff4e","ios":"levelo://app?vid=8f41ed9d-1778-4af7-b2ad-fd1607beff4e"},"vehicle_type_id":"4","last_reported":1753873786,"current_range_meters":12800,"station_id":"st_cvj5dfep6f1abm77gieg","pricing_plan_id":"cebpf4jnsgd1na2vs0mg"},{"bike_id":"056e4f3d-4ab7-42da-9834-2ca05b8a0f52","system_id":"levelo_inurba_marseille","lat":43.31491,"lon":5.36848,"is_reserved":false,"is_disabled":false,"rental_uris":{"android":"levelo://app?vid=056e4f3d-4ab7-42da-9834-2ca05b8a0f52","ios":"levelo://app?vid=056e4f3d-4ab7-42da-9834-2ca05b8a0f52"},"vehicle_type_id":"4","last_reported":1753873786,"current_range_meters":12800,"station_id":"","pricing_plan_id":"cebpf4jnsgd1na2vs0mg"},{"bike_id":"97953445-2ca1-4abd-9af4-a12ebfa7efa0","system_id":"levelo_inurba_marseille","lat":43.27425,"lon":5.394,"is_reserved":false,"is_disabled":false,"rental_uris":{"android":"levelo://app?vid=97953445-2ca1-4abd-9af4-a12ebfa7efa0","ios":"levelo://app?vid=97953445-2ca1-4abd-9af4-a12ebfa7efa0"},"vehicle_type_id":"4","last_reported":1753873786,"current_range_meters":12800,"station_id":"ce4bhdp2rcd13ifvqf20","pricing_plan_id":"cebpf4jnsgd1na2vs0mg"},{"bike_id":"5a9750c1-8274-4d3f-86e2-5a66e14cf44e","system_id":"levelo_inurba_marseille","lat":43.2909,"lon":5.38135,"is_reserved":false,"is_disabled":false,"rental_uris":{"android":"levelo://app?vid=5a9750c1-8274-4d3f-86e2-5a66e14cf44e","ios":"levelo://app?vid=5a9750c1-8274-4d3f-86e2-5a66e14cf44e"},"vehicle_type_id":"4","last_reported":1753873786,"current_range_meters":12800,"station_id":"ce4bh512rcd13ifvqe2g","pricing_plan_id":"cebpf4jnsgd1na2vs0mg"},{"bike_id":"24d2601f-e99a-418b-9b26-88b12ab1a694","system_id":"levelo_inurba_marseille","lat":43.231873,"lon":5.355477,"is_reserved":false,"is_disabled":false,"rental_uris":{"android":"levelo://app?vid=24d2601f-e99a-418b-9b26-88b12ab1a694","ios":"levelo://app?vid=24d2601f-e99a-418b-9b26-88b12ab1a694"},"vehicle_type_id":"4","last_reported":1753873786,"current_range_meters":13600,"station_id":"ce4bhu92rcd13ifvqi70","pricing_plan_id":"cebpf4jnsgd1na2vs0mg"},{"bike_id":"27121016-03d3-4670-9ce6-a156435b86ae","system_id":"levelo_inurba_marseille","lat":43.32347,"lon":5.40575,"is_reserved":false,"is_disabled":false,"rental_uris":{"android":"levelo://app?vid=27121016-03d3-4670-9ce6-a156435b86ae","ios":"levelo://app?vid=27121016-03d3-4670-9ce6-a156435b86ae"},"vehicle_type_id":"4","last_reported":1753873786,"current_range_meters":13600,"station_id":"ce4bhq92rcd13ifvqhjg","pricing_plan_id":"cebpf4jnsgd1na2vs0mg"},{"bike_id":"df72ae75-f035-472f-861c-9830fd35d12b","system_id":"levelo_inurba_marseille","lat":43.29261,"lon":5.40901,"is_reserved":false,"is_disabled":false,"rental_uris":{"android":"levelo://app?vid=df72ae75-f035-472f-861c-9830fd35d12b","ios":"levelo://app?vid=df72ae75-f035-472f-861c-9830fd35d12b"},"vehicle_type_id":"4","last_reported":1753873786,"current_range_meters":13600,"station_id":"ce4bh192rcd13ifvqdc0","pricing_plan_id":"cebpf4jnsgd1na2vs0mg"},{"bike_id":"24ddc855-9db1-447b-8cc7-fb33f85a47fb","system_id":"levelo_inurba_marseille","lat":43.30595,"lon":5.37213,"is_reserved":false,"is_disabled":false,"rental_uris":{"android":"levelo://app?vid=24ddc855-9db1-447b-8cc7-fb33f85a47fb","ios":"levelo://app?vid=24ddc855-9db1-447b-8cc7-fb33f85a47fb"},"vehicle_type_id":"4","last_reported":1753873786,"current_range_meters":13600,"station_id":"ce4bgqh2rcd13ifvqc4g","pricing_plan_id":"cebpf4jnsgd1na2vs0mg"},{"bike_id":"c686771c-e4d6-4ee5-934b-f3ca190b833e","system_id":"levelo_inurba_marseille","lat":43.32765,"lon":5.39204,"is_reserved":false,"is_disabled":false,"rental_uris":{"android":"levelo://app?vid=c686771c-e4d6-4ee5-934b-f3ca190b833e","ios":"levelo://app?vid=c686771c-e4d6-4ee5-934b-f3ca190b833e"},"vehicle_type_id":"4","last_reported":1753873786,"current_range_meters":13600,"station_id":"","pricing_plan_id":"cebpf4jnsgd1na2vs0mg"},{"bike_id":"6793fd22-6975-49c2-bc53-f3fa121750ce","system_id":"levelo_inurba_marseille","lat":43.2841,"lon":5.34982,"is_reserved":false,"is_disabled":false,"rental_uris":{"android":"levelo://app?vid=6793fd22-6975-49c2-bc53-f3fa121750ce","ios":"levelo://app?vid=6793fd22-6975-49c2-bc53-f3fa121750ce"},"vehicle_type_id":"4","last_reported":1753873786,"current_range_meters":13600,"station_id":"ce4bhbh2rcd13ifvqepg","pricing_plan_id":"cebpf4jnsgd1na2vs0mg"},{"bike_id":"a8cb0696-e3c5-42bf-8e8b-31897b360093","system_id":"levelo_inurba_marseille","lat":43.298484,"lon":5.362884,"is_reserved":false,"is_disabled":false,"rental_uris":{"android":"levelo://app?vid=a8cb0696-e3c5-42bf-8e8b-31897b360093","ios":"levelo://app?vid=a8cb0696-e3c5-42bf-8e8b-31897b360093"},"vehicle_type_id":"4","last_reported":1753873786,"current_range_meters":14000,"station_id":"ce4bgpp2rcd13ifvqc3g","pricing_plan_id":"cebpf4jnsgd1na2vs0mg"},{"bike_id":"85d95a9a-bae1-4127-a50f-dff98ce29fd5","system_id":"levelo_inurba_marseille","lat":43.32468,"lon":5.37355,"is_reserved":false,"is_disabled":false,"rental_uris":{"android":"levelo://app?vid=85d95a9a-bae1-4127-a50f-dff98ce29fd5","ios":"levelo://app?vid=85d95a9a-bae1-4127-a50f-dff98ce29fd5"},"vehicle_type_id":"4","last_reported":1753873786,"current_range_meters":14000,"station_id":"","pricing_plan_id":"cebpf4jnsgd1na2vs0mg"},{"bike_id":"87ac6567-bcb5-4b6e-b992-a3cf89ee0cff","system_id":"levelo_inurba_marseille","lat":43.30546,"lon":5.36714,"is_reserved":false,"is_disabled":false,"rental_uris":{"android":"levelo://app?vid=87ac6567-bcb5-4b6e-b992-a3cf89ee0cff","ios":"levelo://app?vid=87ac6567-bcb5-4b6e-b992-a3cf89ee0cff"},"vehicle_type_id":"4","last_reported":1753873786,"current_range_meters":13600,"station_id":"ce4bgrp2rcd13ifvqc9g","pricing_plan_id":"cebpf4jnsgd1na2vs0mg"},{"bike_id":"dc8019df-b978-4643-9650-faa58d3824ab","system_id":"levelo_inurba_marseille","lat":43.30548,"lon":5.36704,"is_reserved":false,"is_disabled":false,"rental_uris":{"android":"levelo://app?vid=dc8019df-b978-4643-9650-faa58d3824ab","ios":"levelo://app?vid=dc8019df-b978-4643-9650-faa58d3824ab"},"vehicle_type_id":"4","last_reported":1753873786,"current_range_meters":14000,"station_id":"ce4bgrp2rcd13ifvqc9g","pricing_plan_id":"cebpf4jnsgd1na2vs0mg"},{"bike_id":"671701a9-7243-46ba-9df9-fa49b6935265","system_id":"levelo_inurba_marseille","lat":43.25977,"lon":5.37233,"is_reserved":false,"is_disabled":false,"rental_uris":{"android":"levelo://app?vid=671701a9-7243-46ba-9df9-fa49b6935265","ios":"levelo://app?vid=671701a9-7243-46ba-9df9-fa49b6935265"},"vehicle_type_id":"4","last_reported":1753873786,"current_range_meters":14000,"station_id":"","pricing_plan_id":"cebpf4jnsgd1na2vs0mg"},{"bike_id":"58393c2c-caac-478a-92a7-0dad0c9ca20d","system_id":"levelo_inurba_marseille","lat":43.26795,"lon":5.39429,"is_reserved":false,"is_disabled":false,"rental_uris":{"android":"levelo://app?vid=58393c2c-caac-478a-92a7-0dad0c9ca20d","ios":"levelo://app?vid=58393c2c-caac-478a-92a7-0dad0c9ca20d"},"vehicle_type_id":"4","last_reported":1753873786,"current_range_meters":14000,"station_id":"ce4bhh12rcd13ifvqfg0","pricing_plan_id":"cebpf4jnsgd1na2vs0mg"},{"bike_id":"a6a46ae2-d764-44ee-baf2-a76e49bd9084","system_id":"levelo_inurba_marseille","lat":43.269849,"lon":5.402991,"is_reserved":false,"is_disabled":false,"rental_uris":{"android":"levelo://app?vid=a6a46ae2-d764-44ee-baf2-a76e49bd9084","ios":"levelo://app?vid=a6a46ae2-d764-44ee-baf2-a76e49bd9084"},"vehicle_type_id":"4","last_reported":1753873786,"current_range_meters":14000,"station_id":"","pricing_plan_id":"cebpf4jnsgd1na2vs0mg"},{"bike_id":"52a7c1fa-c134-4c5c-b8ee-eb752a4d0d17","system_id":"levelo_inurba_marseille","lat":43.28418,"lon":5.34986,"is_reserved":false,"is_disabled":false,"rental_uris":{"android":"levelo://app?vid=52a7c1fa-c134-4c5c-b8ee-eb752a4d0d17","ios":"levelo://app?vid=52a7c1fa-c134-4c5c-b8ee-eb752a4d0d17"},"vehicle_type_id":"4","last_reported":1753873786,"current_range_meters":14000,"station_id":"ce4bhbh2rcd13ifvqepg","pricing_plan_id":"cebpf4jnsgd1na2vs0mg"},{"bike_id":"5ff7b424-be72-460e-9279-c80ac3b388ac","system_id":"levelo_inurba_marseille","lat":43.231875,"lon":5.399939,"is_reserved":false,"is_disabled":false,"rental_uris":{"android":"levelo://app?vid=5ff7b424-be72-460e-9279-c80ac3b388ac","ios":"levelo://app?vid=5ff7b424-be72-460e-9279-c80ac3b388ac"},"vehicle_type_id":"4","last_reported":1753873786,"current_range_meters":14000,"station_id":"ce4bhn12rcd13ifvqgqg","pricing_plan_id":"cebpf4jnsgd1na2vs0mg"},{"bike_id":"3d60e95a-8706-4e13-b31f-ac7a913f607a","system_id":"levelo_inurba_marseille","lat":43.229406,"lon":5.353806,"is_reserved":false,"is_disabled":false,"rental_uris":{"android":"levelo://app?vid=3d60e95a-8706-4e13-b31f-ac7a913f607a","ios":"levelo://app?vid=3d60e95a-8706-4e13-b31f-ac7a913f607a"},"vehicle_type_id":"4","last_reported":1753873786,"current_range_meters":14400,"station_id":"cpo3532slgdg3j2ikp40","pricing_plan_id":"cebpf4jnsgd1na2vs0mg"},{"bike_id":"2fad1b6f-d0b7-4211-9b9d-661d7c090096","system_id":"levelo_inurba_marseille","lat":43.29806,"lon":5.4331,"is_reserved":false,"is_disabled":false,"rental_uris":{"android":"levelo://app?vid=2fad1b6f-d0b7-4211-9b9d-661d7c090096","ios":"levelo://app?vid=2fad1b6f-d0b7-4211-9b9d-661d7c090096"},"vehicle_type_id":"4","last_reported":1753873786,"current_range_meters":14400,"station_id":"","pricing_plan_id":"cebpf4jnsgd1na2vs0mg"},{"bike_id":"ae6c8428-e39e-40be-9df7-f418521aa777","system_id":"levelo_inurba_marseille","lat":43.2293,"lon":5.35383,"is_reserved":false,"is_disabled":false,"rental_uris":{"android":"levelo://app?vid=ae6c8428-e39e-40be-9df7-f418521aa777","ios":"levelo://app?vid=ae6c8428-e39e-40be-9df7-f418521aa777"},"vehicle_type_id":"4","last_reported":1753873786,"current_range_meters":14400,"station_id":"cpo3532slgdg3j2ikp40","pricing_plan_id":"cebpf4jnsgd1na2vs0mg"},{"bike_id":"b8f54638-91a0-4cec-9e64-ab593c86e67d","system_id":"levelo_inurba_marseille","lat":43.304467,"lon":5.378869,"is_reserved":false,"is_disabled":false,"rental_uris":{"android":"levelo://app?vid=b8f54638-91a0-4cec-9e64-ab593c86e67d","ios":"levelo://app?vid=b8f54638-91a0-4cec-9e64-ab593c86e67d"},"vehicle_type_id":"4","last_reported":1753873786,"current_range_meters":14400,"station_id":"ce4bgup2rcd13ifvqcn0","pricing_plan_id":"cebpf4jnsgd1na2vs0mg"},{"bike_id":"116d91c8-22c6-44b9-ad68-dfbfbe9e23dc","system_id":"levelo_inurba_marseille","lat":43.32465,"lon":5.36574,"is_reserved":false,"is_disabled":false,"rental_uris":{"android":"levelo://app?vid=116d91c8-22c6-44b9-ad68-dfbfbe9e23dc","ios":"levelo://app?vid=116d91c8-22c6-44b9-ad68-dfbfbe9e23dc"},"vehicle_type_id":"4","last_reported":1753873786,"current_range_meters":14400,"station_id":"ce4bhs12rcd13ifvqhvg","pricing_plan_id":"cebpf4jnsgd1na2vs0mg"},{"bike_id":"9ef0bad5-595e-4d28-90ae-6550089f4a98","system_id":"levelo_inurba_marseille","lat":43.30552,"lon":5.367,"is_reserved":false,"is_disabled":false,"rental_uris":{"android":"levelo://app?vid=9ef0bad5-595e-4d28-90ae-6550089f4a98","ios":"levelo://app?vid=9ef0bad5-595e-4d28-90ae-6550089f4a98"},"vehicle_type_id":"4","last_reported":1753873786,"current_range_meters":14400,"station_id":"ce4bgrp2rcd13ifvqc9g","pricing_plan_id":"cebpf4jnsgd1na2vs0mg"},{"bike_id":"d56d216b-2eae-49ec-bd74-f8dc8aa16766","system_id":"levelo_inurba_marseille","lat":43.28158,"lon":5.426441,"is_reserved":false,"is_disabled":false,"rental_uris":{"android":"levelo://app?vid=d56d216b-2eae-49ec-bd74-f8dc8aa16766","ios":"levelo://app?vid=d56d216b-2eae-49ec-bd74-f8dc8aa16766"},"vehicle_type_id":"4","last_reported":1753873786,"current_range_meters":14800,"station_id":"ce4bhnh2rcd13ifvqgug","pricing_plan_id":"cebpf4jnsgd1na2vs0mg"},{"bike_id":"b44d763b-4f92-4731-b76a-85ebcd91acd5","system_id":"levelo_inurba_marseille","lat":43.30173,"lon":5.37159,"is_reserved":false,"is_disabled":false,"rental_uris":{"android":"levelo://app?vid=b44d763b-4f92-4731-b76a-85ebcd91acd5","ios":"levelo://app?vid=b44d763b-4f92-4731-b76a-85ebcd91acd5"},"vehicle_type_id":"4","last_reported":1753873786,"current_range_meters":14800,"station_id":"","pricing_plan_id":"cebpf4jnsgd1na2vs0mg"},{"bike_id":"97e0cc1c-fa5d-41b9-8b72-3eed848ec1f7","system_id":"levelo_inurba_marseille","lat":43.330295,"lon":5.390706,"is_reserved":false,"is_disabled":false,"rental_uris":{"android":"levelo://app?vid=97e0cc1c-fa5d-41b9-8b72-3eed848ec1f7","ios":"levelo://app?vid=97e0cc1c-fa5d-41b9-8b72-3eed848ec1f7"},"vehicle_type_id":"4","last_reported":1753873786,"current_range_meters":14800,"station_id":"ce4bhr92rcd13ifvqhrg","pricing_plan_id":"cebpf4jnsgd1na2vs0mg"},{"bike_id":"da733d28-546b-4dcf-a59c-732568006c00","system_id":"levelo_inurba_marseille","lat":43.30536,"lon":5.36722,"is_reserved":false,"is_disabled":true,"rental_uris":{"android":"levelo://app?vid=da733d28-546b-4dcf-a59c-732568006c00","ios":"levelo://app?vid=da733d28-546b-4dcf-a59c-732568006c00"},"vehicle_type_id":"4","last_reported":1753873786,"current_range_meters":14800,"station_id":"ce4bgrp2rcd13ifvqc9g","pricing_plan_id":"cebpf4jnsgd1na2vs0mg"},{"bike_id":"19295018-235d-4f62-9c12-0203c908e699","system_id":"levelo_inurba_marseille","lat":43.2291,"lon":5.35364,"is_reserved":false,"is_disabled":false,"rental_uris":{"android":"levelo://app?vid=19295018-235d-4f62-9c12-0203c908e699","ios":"levelo://app?vid=19295018-235d-4f62-9c12-0203c908e699"},"vehicle_type_id":"4","last_reported":1753873786,"current_range_meters":15200,"station_id":"cpo3532slgdg3j2ikp40","pricing_plan_id":"cebpf4jnsgd1na2vs0mg"},{"bike_id":"ce77040a-875c-4335-92bb-d094c7133d03","system_id":"levelo_inurba_marseille","lat":43.29973,"lon":5.38494,"is_reserved":false,"is_disabled":false,"rental_uris":{"android":"levelo://app?vid=ce77040a-875c-4335-92bb-d094c7133d03","ios":"levelo://app?vid=ce77040a-875c-4335-92bb-d094c7133d03"},"vehicle_type_id":"4","last_reported":1753873786,"current_range_meters":15200,"station_id":"ce4bgj92rcd13ifvqbd0","pricing_plan_id":"cebpf4jnsgd1na2vs0mg"},{"bike_id":"5f72df66-2d68-4c6e-a917-44e1dcfede98","system_id":"levelo_inurba_marseille","lat":43.22955,"lon":5.35374,"is_reserved":false,"is_disabled":false,"rental_uris":{"android":"levelo://app?vid=5f72df66-2d68-4c6e-a917-44e1dcfede98","ios":"levelo://app?vid=5f72df66-2d68-4c6e-a917-44e1dcfede98"},"vehicle_type_id":"4","last_reported":1753873786,"current_range_meters":15200,"station_id":"cpo3532slgdg3j2ikp40","pricing_plan_id":"cebpf4jnsgd1na2vs0mg"},{"bike_id":"daabd21d-fe72-4bef-9caa-c5886e1b6fe4","system_id":"levelo_inurba_marseille","lat":43.32014,"lon":5.37458,"is_reserved":false,"is_disabled":false,"rental_uris":{"android":"levelo://app?vid=daabd21d-fe72-4bef-9caa-c5886e1b6fe4","ios":"levelo://app?vid=daabd21d-fe72-4bef-9caa-c5886e1b6fe4"},"vehicle_type_id":"4","last_reported":1753873786,"current_range_meters":15200,"station_id":"","pricing_plan_id":"cebpf4jnsgd1na2vs0mg"},{"bike_id":"6b5a8423-59e6-41e0-9800-c3f91ce1824a","system_id":"levelo_inurba_marseille","lat":43.24651,"lon":5.38181,"is_reserved":false,"is_disabled":true,"rental_uris":{"android":"levelo://app?vid=6b5a8423-59e6-41e0-9800-c3f91ce1824a","ios":"levelo://app?vid=6b5a8423-59e6-41e0-9800-c3f91ce1824a"},"vehicle_type_id":"4","last_reported":1753873786,"current_range_meters":15200,"station_id":"ce4bhih2rcd13ifvqfr0","pricing_plan_id":"cebpf4jnsgd1na2vs0mg"},{"bike_id":"a05992f6-1f51-4dbf-8921-4ad77bab57e9","system_id":"levelo_inurba_marseille","lat":43.24172,"lon":5.36414,"is_reserved":false,"is_disabled":false,"rental_uris":{"android":"levelo://app?vid=a05992f6-1f51-4dbf-8921-4ad77bab57e9","ios":"levelo://app?vid=a05992f6-1f51-4dbf-8921-4ad77bab57e9"},"vehicle_type_id":"4","last_reported":1753873786,"current_range_meters":15200,"station_id":"cpo36qri1sfpv3e86is0","pricing_plan_id":"cebpf4jnsgd1na2vs0mg"},{"bike_id":"da913aa8-3d8c-4ab2-b48f-187998fd2a99","system_id":"levelo_inurba_marseille","lat":43.30556,"lon":5.36695,"is_reserved":false,"is_disabled":false,"rental_uris":{"android":"levelo://app?vid=da913aa8-3d8c-4ab2-b48f-187998fd2a99","ios":"levelo://app?vid=da913aa8-3d8c-4ab2-b48f-187998fd2a99"},"vehicle_type_id":"4","last_reported":1753873786,"current_range_meters":16000,"station_id":"","pricing_plan_id":"cebpf4jnsgd1na2vs0mg"},{"bike_id":"08a4daad-92c6-4c11-9b37-74d84de06af8","system_id":"levelo_inurba_marseille","lat":43.30326,"lon":5.36883,"is_reserved":false,"is_disabled":false,"rental_uris":{"android":"levelo://app?vid=08a4daad-92c6-4c11-9b37-74d84de06af8","ios":"levelo://app?vid=08a4daad-92c6-4c11-9b37-74d84de06af8"},"vehicle_type_id":"4","last_reported":1753873786,"current_range_meters":16000,"station_id":"ce4bgqh2rcd13ifvqc5g","pricing_plan_id":"cebpf4jnsgd1na2vs0mg"},{"bike_id":"e58d3b2a-5e65-4dfc-8589-9ea9849a9679","system_id":"levelo_inurba_marseille","lat":43.29967,"lon":5.37168,"is_reserved":false,"is_disabled":false,"rental_uris":{"android":"levelo://app?vid=e58d3b2a-5e65-4dfc-8589-9ea9849a9679","ios":"levelo://app?vid=e58d3b2a-5e65-4dfc-8589-9ea9849a9679"},"vehicle_type_id":"4","last_reported":1753873786,"current_range_meters":16000,"station_id":"ce4bgr92rcd13ifvqc7g","pricing_plan_id":"cebpf4jnsgd1na2vs0mg"},{"bike_id":"2e1bdbd1-042c-4bf4-b623-908b6301c20d","system_id":"levelo_inurba_marseille","lat":43.28128,"lon":5.44199,"is_reserved":false,"is_disabled":false,"rental_uris":{"android":"levelo://app?vid=2e1bdbd1-042c-4bf4-b623-908b6301c20d","ios":"levelo://app?vid=2e1bdbd1-042c-4bf4-b623-908b6301c20d"},"vehicle_type_id":"4","last_reported":1753873786,"current_range_meters":16000,"station_id":"","pricing_plan_id":"cebpf4jnsgd1na2vs0mg"},{"bike_id":"006989d0-e964-4aa4-ad1e-5b81a65c337e","system_id":"levelo_inurba_marseille","lat":43.308,"lon":5.38164,"is_reserved":false,"is_disabled":true,"rental_uris":{"android":"levelo://app?vid=006989d0-e964-4aa4-ad1e-5b81a65c337e","ios":"levelo://app?vid=006989d0-e964-4aa4-ad1e-5b81a65c337e"},"vehicle_type_id":"4","last_reported":1753873786,"current_range_meters":16000,"station_id":"ce4bgt12rcd13ifvqce0","pricing_plan_id":"cebpf4jnsgd1na2vs0mg"},{"bike_id":"59a6b5a4-98f4-449c-9f08-0a39f974a7a5","system_id":"levelo_inurba_marseille","lat":43.22494,"lon":5.34781,"is_reserved":false,"is_disabled":false,"rental_uris":{"android":"levelo://app?vid=59a6b5a4-98f4-449c-9f08-0a39f974a7a5","ios":"levelo://app?vid=59a6b5a4-98f4-449c-9f08-0a39f974a7a5"},"vehicle_type_id":"4","last_reported":1753873786,"current_range_meters":16400,"station_id":"st_cvj5dfep6f1abm77gieg","pricing_plan_id":"cebpf4jnsgd1na2vs0mg"},{"bike_id":"3e8122e0-364e-4231-8b02-eed1a2921818","system_id":"levelo_inurba_marseille","lat":43.22506,"lon":5.34784,"is_reserved":false,"is_disabled":false,"rental_uris":{"android":"levelo://app?vid=3e8122e0-364e-4231-8b02-eed1a2921818","ios":"levelo://app?vid=3e8122e0-364e-4231-8b02-eed1a2921818"},"vehicle_type_id":"4","last_reported":1753873786,"current_range_meters":16400,"station_id":"st_cvj5dfep6f1abm77gieg","pricing_plan_id":"cebpf4jnsgd1na2vs0mg"},{"bike_id":"6590494b-43e7-43e0-b312-c754fd5ea433","system_id":"levelo_inurba_marseille","lat":43.29056,"lon":5.43006,"is_reserved":false,"is_disabled":false,"rental_uris":{"android":"levelo://app?vid=6590494b-43e7-43e0-b312-c754fd5ea433","ios":"levelo://app?vid=6590494b-43e7-43e0-b312-c754fd5ea433"},"vehicle_type_id":"4","last_reported":1753873786,"current_range_meters":16400,"station_id":"","pricing_plan_id":"cebpf4jnsgd1na2vs0mg"},{"bike_id":"1a0ca16f-4b93-4052-acd5-440501907ad3","system_id":"levelo_inurba_marseille","lat":43.232,"lon":5.35593,"is_reserved":false,"is_disabled":false,"rental_uris":{"android":"levelo://app?vid=1a0ca16f-4b93-4052-acd5-440501907ad3","ios":"levelo://app?vid=1a0ca16f-4b93-4052-acd5-440501907ad3"},"vehicle_type_id":"4","last_reported":1753873786,"current_range_meters":16400,"station_id":"ce4bhu92rcd13ifvqi70","pricing_plan_id":"cebpf4jnsgd1na2vs0mg"},{"bike_id":"b89ad748-f7c1-4685-8c85-3009b186b7d0","system_id":"levelo_inurba_marseille","lat":43.24817,"lon":5.37467,"is_reserved":false,"is_disabled":false,"rental_uris":{"android":"levelo://app?vid=b89ad748-f7c1-4685-8c85-3009b186b7d0","ios":"levelo://app?vid=b89ad748-f7c1-4685-8c85-3009b186b7d0"},"vehicle_type_id":"4","last_reported":1753873786,"current_range_meters":16400,"station_id":"ce4bhgh2rcd13ifvqfb0","pricing_plan_id":"cebpf4jnsgd1na2vs0mg"},{"bike_id":"30d425b9-6532-4584-ae56-a015f4c9f632","system_id":"levelo_inurba_marseille","lat":43.29206,"lon":5.36063,"is_reserved":false,"is_disabled":false,"rental_uris":{"android":"levelo://app?vid=30d425b9-6532-4584-ae56-a015f4c9f632","ios":"levelo://app?vid=30d425b9-6532-4584-ae56-a015f4c9f632"},"vehicle_type_id":"4","last_reported":1753873786,"current_range_meters":16800,"station_id":"ce4bhbh2rcd13ifvqeqg","pricing_plan_id":"cebpf4jnsgd1na2vs0mg"},{"bike_id":"fc72750c-8629-412d-8606-ffe7b2eda556","system_id":"levelo_inurba_marseille","lat":43.27479,"lon":5.42457,"is_reserved":false,"is_disabled":false,"rental_uris":{"android":"levelo://app?vid=fc72750c-8629-412d-8606-ffe7b2eda556","ios":"levelo://app?vid=fc72750c-8629-412d-8606-ffe7b2eda556"},"vehicle_type_id":"4","last_reported":1753873786,"current_range_meters":16800,"station_id":"ce4bhn92rcd13ifvqgrg","pricing_plan_id":"cebpf4jnsgd1na2vs0mg"},{"bike_id":"2c4400c7-2bd6-4d8f-805d-b1037b3fe518","system_id":"levelo_inurba_marseille","lat":43.22504,"lon":5.34778,"is_reserved":false,"is_disabled":false,"rental_uris":{"android":"levelo://app?vid=2c4400c7-2bd6-4d8f-805d-b1037b3fe518","ios":"levelo://app?vid=2c4400c7-2bd6-4d8f-805d-b1037b3fe518"},"vehicle_type_id":"4","last_reported":1753873786,"current_range_meters":16800,"station_id":"st_cvj5dfep6f1abm77gieg","pricing_plan_id":"cebpf4jnsgd1na2vs0mg"},{"bike_id":"f06a3d3a-e28f-4240-97bb-a55b17574975","system_id":"levelo_inurba_marseille","lat":43.30134,"lon":5.38777,"is_reserved":false,"is_disabled":false,"rental_uris":{"android":"levelo://app?vid=f06a3d3a-e28f-4240-97bb-a55b17574975","ios":"levelo://app?vid=f06a3d3a-e28f-4240-97bb-a55b17574975"},"vehicle_type_id":"4","last_reported":1753873786,"current_range_meters":16800,"station_id":"ce4bghh2rcd13ifvqb60","pricing_plan_id":"cebpf4jnsgd1na2vs0mg"},{"bike_id":"36c11242-6e7f-4d89-97be-c2933f4606a5","system_id":"levelo_inurba_marseille","lat":43.26204,"lon":5.37448,"is_reserved":false,"is_disabled":false,"rental_uris":{"android":"levelo://app?vid=36c11242-6e7f-4d89-97be-c2933f4606a5","ios":"levelo://app?vid=36c11242-6e7f-4d89-97be-c2933f4606a5"},"vehicle_type_id":"4","last_reported":1753873786,"current_range_meters":16800,"station_id":"ce4bhgp2rcd13ifvqfc0","pricing_plan_id":"cebpf4jnsgd1na2vs0mg"},{"bike_id":"d076e265-2a54-4297-9670-5745543050ab","system_id":"levelo_inurba_marseille","lat":43.28398,"lon":5.34983,"is_reserved":false,"is_disabled":false,"rental_uris":{"android":"levelo://app?vid=d076e265-2a54-4297-9670-5745543050ab","ios":"levelo://app?vid=d076e265-2a54-4297-9670-5745543050ab"},"vehicle_type_id":"4","last_reported":1753873786,"current_range_meters":16800,"station_id":"ce4bhbh2rcd13ifvqepg","pricing_plan_id":"cebpf4jnsgd1na2vs0mg"},{"bike_id":"15b1f060-71e7-423a-811f-6b84248cefa2","system_id":"levelo_inurba_marseille","lat":43.27968,"lon":5.38738,"is_reserved":false,"is_disabled":false,"rental_uris":{"android":"levelo://app?vid=15b1f060-71e7-423a-811f-6b84248cefa2","ios":"levelo://app?vid=15b1f060-71e7-423a-811f-6b84248cefa2"},"vehicle_type_id":"4","last_reported":1753873786,"current_range_meters":16800,"station_id":"ce4bhg12rcd13ifvqf80","pricing_plan_id":"cebpf4jnsgd1na2vs0mg"},{"bike_id":"6edee4fe-46f2-43ea-a18a-6ec975f8373c","system_id":"levelo_inurba_marseille","lat":43.28853,"lon":5.358465,"is_reserved":false,"is_disabled":false,"rental_uris":{"android":"levelo://app?vid=6edee4fe-46f2-43ea-a18a-6ec975f8373c","ios":"levelo://app?vid=6edee4fe-46f2-43ea-a18a-6ec975f8373c"},"vehicle_type_id":"4","last_reported":1753873786,"current_range_meters":16800,"station_id":"","pricing_plan_id":"cebpf4jnsgd1na2vs0mg"},{"bike_id":"0fc56d89-768c-4bfb-b40e-3b9de2c2d89d","system_id":"levelo_inurba_marseille","lat":43.30541,"lon":5.367142,"is_reserved":false,"is_disabled":false,"rental_uris":{"android":"levelo://app?vid=0fc56d89-768c-4bfb-b40e-3b9de2c2d89d","ios":"levelo://app?vid=0fc56d89-768c-4bfb-b40e-3b9de2c2d89d"},"vehicle_type_id":"4","last_reported":1753873786,"current_range_meters":16800,"station_id":"ce4bgrp2rcd13ifvqc9g","pricing_plan_id":"cebpf4jnsgd1na2vs0mg"},{"bike_id":"1dd4e7fd-10ad-40ea-b1ea-61c0d44f770e","system_id":"levelo_inurba_marseille","lat":43.28074,"lon":5.39644,"is_reserved":false,"is_disabled":false,"rental_uris":{"android":"levelo://app?vid=1dd4e7fd-10ad-40ea-b1ea-61c0d44f770e","ios":"levelo://app?vid=1dd4e7fd-10ad-40ea-b1ea-61c0d44f770e"},"vehicle_type_id":"4","last_reported":1753873786,"current_range_meters":17200,"station_id":"ce4bho12rcd13ifvqh2g","pricing_plan_id":"cebpf4jnsgd1na2vs0mg"},{"bike_id":"27e3af3a-615b-4cc9-8468-7f9a0e895f93","system_id":"levelo_inurba_marseille","lat":43.30532,"lon":5.36703,"is_reserved":false,"is_disabled":false,"rental_uris":{"android":"levelo://app?vid=27e3af3a-615b-4cc9-8468-7f9a0e895f93","ios":"levelo://app?vid=27e3af3a-615b-4cc9-8468-7f9a0e895f93"},"vehicle_type_id":"4","last_reported":1753873786,"current_range_meters":17200,"station_id":"ce4bgrp2rcd13ifvqc9g","pricing_plan_id":"cebpf4jnsgd1na2vs0mg"},{"bike_id":"cd135ec5-1f0e-488f-a7bf-0e94c2e06e6f","system_id":"levelo_inurba_marseille","lat":43.2119,"lon":5.35084,"is_reserved":false,"is_disabled":false,"rental_uris":{"android":"levelo://app?vid=cd135ec5-1f0e-488f-a7bf-0e94c2e06e6f","ios":"levelo://app?vid=cd135ec5-1f0e-488f-a7bf-0e94c2e06e6f"},"vehicle_type_id":"4","last_reported":1753873786,"current_range_meters":17200,"station_id":"st_cvj6sg6p6f1abm77japg","pricing_plan_id":"cebpf4jnsgd1na2vs0mg"},{"bike_id":"3dc94204-2f3e-4b8d-a98a-2eebdfcaff10","system_id":"levelo_inurba_marseille","lat":43.22473,"lon":5.34808,"is_reserved":false,"is_disabled":false,"rental_uris":{"android":"levelo://app?vid=3dc94204-2f3e-4b8d-a98a-2eebdfcaff10","ios":"levelo://app?vid=3dc94204-2f3e-4b8d-a98a-2eebdfcaff10"},"vehicle_type_id":"4","last_reported":1753873786,"current_range_meters":17200,"station_id":"st_cvj5dfep6f1abm77gieg","pricing_plan_id":"cebpf4jnsgd1na2vs0mg"},{"bike_id":"52aa1d0d-4466-44b5-a116-ec1102c8f422","system_id":"levelo_inurba_marseille","lat":43.32866,"lon":5.36039,"is_reserved":false,"is_disabled":false,"rental_uris":{"android":"levelo://app?vid=52aa1d0d-4466-44b5-a116-ec1102c8f422","ios":"levelo://app?vid=52aa1d0d-4466-44b5-a116-ec1102c8f422"},"vehicle_type_id":"4","last_reported":1753873786,"current_range_meters":17200,"station_id":"","pricing_plan_id":"cebpf4jnsgd1na2vs0mg"},{"bike_id":"85571ceb-5dfe-407f-a57f-e3e4a5c0e31a","system_id":"levelo_inurba_marseille","lat":43.24157,"lon":5.397,"is_reserved":false,"is_disabled":false,"rental_uris":{"android":"levelo://app?vid=85571ceb-5dfe-407f-a57f-e3e4a5c0e31a","ios":"levelo://app?vid=85571ceb-5dfe-407f-a57f-e3e4a5c0e31a"},"vehicle_type_id":"4","last_reported":1753873786,"current_range_meters":17600,"station_id":"ce4bhn12rcd13ifvqgpg","pricing_plan_id":"cebpf4jnsgd1na2vs0mg"},{"bike_id":"603a6472-6a98-474c-a938-3b8a7a926a2b","system_id":"levelo_inurba_marseille","lat":43.29939,"lon":5.37179,"is_reserved":false,"is_disabled":false,"rental_uris":{"android":"levelo://app?vid=603a6472-6a98-474c-a938-3b8a7a926a2b","ios":"levelo://app?vid=603a6472-6a98-474c-a938-3b8a7a926a2b"},"vehicle_type_id":"4","last_reported":1753873786,"current_range_meters":17200,"station_id":"ce4bgr92rcd13ifvqc7g","pricing_plan_id":"cebpf4jnsgd1na2vs0mg"},{"bike_id":"08ca8ae8-b77c-49d8-b9a3-9de07830275f","system_id":"levelo_inurba_marseille","lat":43.27483,"lon":5.42473,"is_reserved":false,"is_disabled":false,"rental_uris":{"android":"levelo://app?vid=08ca8ae8-b77c-49d8-b9a3-9de07830275f","ios":"levelo://app?vid=08ca8ae8-b77c-49d8-b9a3-9de07830275f"},"vehicle_type_id":"4","last_reported":1753873786,"current_range_meters":17600,"station_id":"ce4bhn92rcd13ifvqgrg","pricing_plan_id":"cebpf4jnsgd1na2vs0mg"},{"bike_id":"d1ef298e-87b7-47a5-aaec-79fd9c0baa71","system_id":"levelo_inurba_marseille","lat":43.24827,"lon":5.37444,"is_reserved":false,"is_disabled":false,"rental_uris":{"android":"levelo://app?vid=d1ef298e-87b7-47a5-aaec-79fd9c0baa71","ios":"levelo://app?vid=d1ef298e-87b7-47a5-aaec-79fd9c0baa71"},"vehicle_type_id":"4","last_reported":1753873786,"current_range_meters":17600,"station_id":"ce4bhgh2rcd13ifvqfb0","pricing_plan_id":"cebpf4jnsgd1na2vs0mg"},{"bike_id":"c60bf1fe-ea6e-46b6-82f1-673df999dd5a","system_id":"levelo_inurba_marseille","lat":43.29562,"lon":5.37537,"is_reserved":false,"is_disabled":false,"rental_uris":{"android":"levelo://app?vid=c60bf1fe-ea6e-46b6-82f1-673df999dd5a","ios":"levelo://app?vid=c60bf1fe-ea6e-46b6-82f1-673df999dd5a"},"vehicle_type_id":"4","last_reported":1753873786,"current_range_meters":17600,"station_id":"ce4bgh92rcd13ifvqb50","pricing_plan_id":"cebpf4jnsgd1na2vs0mg"},{"bike_id":"9ff3e285-0507-4b39-a05a-9f31c8aaf214","system_id":"levelo_inurba_marseille","lat":43.27206,"lon":5.39174,"is_reserved":false,"is_disabled":false,"rental_uris":{"android":"levelo://app?vid=9ff3e285-0507-4b39-a05a-9f31c8aaf214","ios":"levelo://app?vid=9ff3e285-0507-4b39-a05a-9f31c8aaf214"},"vehicle_type_id":"4","last_reported":1753873786,"current_range_meters":17600,"station_id":"ce4bhhp2rcd13ifvqfm0","pricing_plan_id":"cebpf4jnsgd1na2vs0mg"},{"bike_id":"cbd45dbb-309e-4d35-8338-e1c18ad77253","system_id":"levelo_inurba_marseille","lat":43.2318,"lon":5.39989,"is_reserved":false,"is_disabled":false,"rental_uris":{"android":"levelo://app?vid=cbd45dbb-309e-4d35-8338-e1c18ad77253","ios":"levelo://app?vid=cbd45dbb-309e-4d35-8338-e1c18ad77253"},"vehicle_type_id":"4","last_reported":1753873786,"current_range_meters":17600,"station_id":"ce4bhn12rcd13ifvqgqg","pricing_plan_id":"cebpf4jnsgd1na2vs0mg"},{"bike_id":"871e7e11-0bfd-47b3-858c-c917f2eae162","system_id":"levelo_inurba_marseille","lat":43.31189,"lon":5.36889,"is_reserved":false,"is_disabled":false,"rental_uris":{"android":"levelo://app?vid=871e7e11-0bfd-47b3-858c-c917f2eae162","ios":"levelo://app?vid=871e7e11-0bfd-47b3-858c-c917f2eae162"},"vehicle_type_id":"4","last_reported":1753873786,"current_range_meters":17600,"station_id":"ce4bgl92rcd13ifvqbq0","pricing_plan_id":"cebpf4jnsgd1na2vs0mg"},{"bike_id":"fa3aaadb-2999-4c99-ad0b-eff3f9ff3b2b","system_id":"levelo_inurba_marseille","lat":43.30306,"lon":5.36917,"is_reserved":false,"is_disabled":false,"rental_uris":{"android":"levelo://app?vid=fa3aaadb-2999-4c99-ad0b-eff3f9ff3b2b","ios":"levelo://app?vid=fa3aaadb-2999-4c99-ad0b-eff3f9ff3b2b"},"vehicle_type_id":"4","last_reported":1753873786,"current_range_meters":17600,"station_id":"ce4bgqh2rcd13ifvqc5g","pricing_plan_id":"cebpf4jnsgd1na2vs0mg"},{"bike_id":"76d1f38f-96c6-4c79-bf8c-b8d8e9ae0662","system_id":"levelo_inurba_marseille","lat":43.25944,"lon":5.40908,"is_reserved":false,"is_disabled":false,"rental_uris":{"android":"levelo://app?vid=76d1f38f-96c6-4c79-bf8c-b8d8e9ae0662","ios":"levelo://app?vid=76d1f38f-96c6-4c79-bf8c-b8d8e9ae0662"},"vehicle_type_id":"4","last_reported":1753873786,"current_range_meters":18000,"station_id":"ce4bhm92rcd13ifvqglg","pricing_plan_id":"cebpf4jnsgd1na2vs0mg"},{"bike_id":"12a220c8-0b1b-4330-8cc1-7ededba84a81","system_id":"levelo_inurba_marseille","lat":43.23185,"lon":5.43731,"is_reserved":false,"is_disabled":false,"rental_uris":{"android":"levelo://app?vid=12a220c8-0b1b-4330-8cc1-7ededba84a81","ios":"levelo://app?vid=12a220c8-0b1b-4330-8cc1-7ededba84a81"},"vehicle_type_id":"4","last_reported":1753873786,"current_range_meters":18000,"station_id":"ce4bhmp2rcd13ifvqgog","pricing_plan_id":"cebpf4jnsgd1na2vs0mg"},{"bike_id":"972575cd-e8ee-48c1-9fd0-61adb5c35c7b","system_id":"levelo_inurba_marseille","lat":43.26205,"lon":5.37441,"is_reserved":false,"is_disabled":false,"rental_uris":{"android":"levelo://app?vid=972575cd-e8ee-48c1-9fd0-61adb5c35c7b","ios":"levelo://app?vid=972575cd-e8ee-48c1-9fd0-61adb5c35c7b"},"vehicle_type_id":"4","last_reported":1753873786,"current_range_meters":18000,"station_id":"ce4bhgp2rcd13ifvqfc0","pricing_plan_id":"cebpf4jnsgd1na2vs0mg"},{"bike_id":"23c5ff6b-8cac-4dff-9b59-ceed36159023","system_id":"levelo_inurba_marseille","lat":43.230619,"lon":5.355024,"is_reserved":false,"is_disabled":false,"rental_uris":{"android":"levelo://app?vid=23c5ff6b-8cac-4dff-9b59-ceed36159023","ios":"levelo://app?vid=23c5ff6b-8cac-4dff-9b59-ceed36159023"},"vehicle_type_id":"4","last_reported":1753873786,"current_range_meters":18000,"station_id":"cpo3342slgdg3j2ifvpg","pricing_plan_id":"cebpf4jnsgd1na2vs0mg"},{"bike_id":"2093a2b7-8bbc-4356-896c-88cd021ab676","system_id":"levelo_inurba_marseille","lat":43.28623,"lon":5.35105,"is_reserved":false,"is_disabled":false,"rental_uris":{"android":"levelo://app?vid=2093a2b7-8bbc-4356-896c-88cd021ab676","ios":"levelo://app?vid=2093a2b7-8bbc-4356-896c-88cd021ab676"},"vehicle_type_id":"4","last_reported":1753873786,"current_range_meters":18000,"station_id":"ce4bhch2rcd13ifvqeug","pricing_plan_id":"cebpf4jnsgd1na2vs0mg"},{"bike_id":"6f945904-e30e-4baa-be01-1bd0424776dc","system_id":"levelo_inurba_marseille","lat":43.231858,"lon":5.355648,"is_reserved":false,"is_disabled":false,"rental_uris":{"android":"levelo://app?vid=6f945904-e30e-4baa-be01-1bd0424776dc","ios":"levelo://app?vid=6f945904-e30e-4baa-be01-1bd0424776dc"},"vehicle_type_id":"4","last_reported":1753873786,"current_range_meters":18000,"station_id":"ce4bhu92rcd13ifvqi70","pricing_plan_id":"cebpf4jnsgd1na2vs0mg"},{"bike_id":"005d0f37-bdce-449f-aa9a-9ed57a25b3db","system_id":"levelo_inurba_marseille","lat":43.31698,"lon":5.40464,"is_reserved":false,"is_disabled":false,"rental_uris":{"android":"levelo://app?vid=005d0f37-bdce-449f-aa9a-9ed57a25b3db","ios":"levelo://app?vid=005d0f37-bdce-449f-aa9a-9ed57a25b3db"},"vehicle_type_id":"4","last_reported":1753873786,"current_range_meters":18000,"station_id":"ce4bh012rcd13ifvqd00","pricing_plan_id":"cebpf4jnsgd1na2vs0mg"},{"bike_id":"0975a158-91a0-4f03-8ac1-7939a109541f","system_id":"levelo_inurba_marseille","lat":43.25575,"lon":5.38229,"is_reserved":false,"is_disabled":false,"rental_uris":{"android":"levelo://app?vid=0975a158-91a0-4f03-8ac1-7939a109541f","ios":"levelo://app?vid=0975a158-91a0-4f03-8ac1-7939a109541f"},"vehicle_type_id":"4","last_reported":1753873786,"current_range_meters":18000,"station_id":"ce4bhih2rcd13ifvqfs0","pricing_plan_id":"cebpf4jnsgd1na2vs0mg"},{"bike_id":"376ad240-56df-4b13-aec8-261c30e3a55c","system_id":"levelo_inurba_marseille","lat":43.29039,"lon":5.399638,"is_reserved":false,"is_disabled":false,"rental_uris":{"android":"levelo://app?vid=376ad240-56df-4b13-aec8-261c30e3a55c","ios":"levelo://app?vid=376ad240-56df-4b13-aec8-261c30e3a55c"},"vehicle_type_id":"4","last_reported":1753873786,"current_range_meters":18000,"station_id":"ce4bhq92rcd13ifvqhjg","pricing_plan_id":"cebpf4jnsgd1na2vs0mg"},{"bike_id":"34be742c-6e59-4c4c-a509-950f8293f589","system_id":"levelo_inurba_marseille","lat":43.22926,"lon":5.35411,"is_reserved":false,"is_disabled":false,"rental_uris":{"android":"levelo://app?vid=34be742c-6e59-4c4c-a509-950f8293f589","ios":"levelo://app?vid=34be742c-6e59-4c4c-a509-950f8293f589"},"vehicle_type_id":"4","last_reported":1753873786,"current_range_meters":18000,"station_id":"cpo3532slgdg3j2ikp40","pricing_plan_id":"cebpf4jnsgd1na2vs0mg"},{"bike_id":"82421548-9820-4ad4-b3c2-dfb64180eb25","system_id":"levelo_inurba_marseille","lat":43.21196,"lon":5.35086,"is_reserved":false,"is_disabled":false,"rental_uris":{"android":"levelo://app?vid=82421548-9820-4ad4-b3c2-dfb64180eb25","ios":"levelo://app?vid=82421548-9820-4ad4-b3c2-dfb64180eb25"},"vehicle_type_id":"4","last_reported":1753873786,"current_range_meters":18000,"station_id":"st_cvj6sg6p6f1abm77japg","pricing_plan_id":"cebpf4jnsgd1na2vs0mg"},{"bike_id":"6d4a8c8c-d8c5-4215-a06a-7475cf4d5132","system_id":"levelo_inurba_marseille","lat":43.28041,"lon":5.36949,"is_reserved":false,"is_disabled":false,"rental_uris":{"android":"levelo://app?vid=6d4a8c8c-d8c5-4215-a06a-7475cf4d5132","ios":"levelo://app?vid=6d4a8c8c-d8c5-4215-a06a-7475cf4d5132"},"vehicle_type_id":"4","last_reported":1753873786,"current_range_meters":18800,"station_id":"ce4bha12rcd13ifvqef0","pricing_plan_id":"cebpf4jnsgd1na2vs0mg"},{"bike_id":"5ad48370-7fa5-4353-8865-0072539c9798","system_id":"levelo_inurba_marseille","lat":43.231925,"lon":5.355524,"is_reserved":false,"is_disabled":false,"rental_uris":{"android":"levelo://app?vid=5ad48370-7fa5-4353-8865-0072539c9798","ios":"levelo://app?vid=5ad48370-7fa5-4353-8865-0072539c9798"},"vehicle_type_id":"4","last_reported":1753873786,"current_range_meters":18800,"station_id":"ce4bhu92rcd13ifvqi70","pricing_plan_id":"cebpf4jnsgd1na2vs0mg"},{"bike_id":"b7e63ea0-539d-443d-ab1d-49b82a6a1b6b","system_id":"levelo_inurba_marseille","lat":43.23147,"lon":5.43716,"is_reserved":false,"is_disabled":false,"rental_uris":{"android":"levelo://app?vid=b7e63ea0-539d-443d-ab1d-49b82a6a1b6b","ios":"levelo://app?vid=b7e63ea0-539d-443d-ab1d-49b82a6a1b6b"},"vehicle_type_id":"4","last_reported":1753873786,"current_range_meters":18800,"station_id":"ce4bhmp2rcd13ifvqgog","pricing_plan_id":"cebpf4jnsgd1na2vs0mg"},{"bike_id":"f605ff71-c624-4936-a518-95ee9acc86fd","system_id":"levelo_inurba_marseille","lat":43.22494,"lon":5.34821,"is_reserved":false,"is_disabled":false,"rental_uris":{"android":"levelo://app?vid=f605ff71-c624-4936-a518-95ee9acc86fd","ios":"levelo://app?vid=f605ff71-c624-4936-a518-95ee9acc86fd"},"vehicle_type_id":"4","last_reported":1753873786,"current_range_meters":18800,"station_id":"st_cvj5dfep6f1abm77gieg","pricing_plan_id":"cebpf4jnsgd1na2vs0mg"},{"bike_id":"8af0745b-8836-47fc-ad05-3f4a5a8dc7ff","system_id":"levelo_inurba_marseille","lat":43.27996,"lon":5.41658,"is_reserved":false,"is_disabled":false,"rental_uris":{"android":"levelo://app?vid=8af0745b-8836-47fc-ad05-3f4a5a8dc7ff","ios":"levelo://app?vid=8af0745b-8836-47fc-ad05-3f4a5a8dc7ff"},"vehicle_type_id":"4","last_reported":1753873786,"current_range_meters":18800,"station_id":"ce4bho12rcd13ifvqh1g","pricing_plan_id":"cebpf4jnsgd1na2vs0mg"},{"bike_id":"b565b853-9616-4ab3-9cae-8b1d09dd4831","system_id":"levelo_inurba_marseille","lat":43.22504,"lon":5.34775,"is_reserved":false,"is_disabled":false,"rental_uris":{"android":"levelo://app?vid=b565b853-9616-4ab3-9cae-8b1d09dd4831","ios":"levelo://app?vid=b565b853-9616-4ab3-9cae-8b1d09dd4831"},"vehicle_type_id":"4","last_reported":1753873786,"current_range_meters":18800,"station_id":"st_cvj5dfep6f1abm77gieg","pricing_plan_id":"cebpf4jnsgd1na2vs0mg"},{"bike_id":"9f5fba08-5d1a-4a60-9f27-a4f6e760f703","system_id":"levelo_inurba_marseille","lat":43.323482,"lon":5.367426,"is_reserved":false,"is_disabled":false,"rental_uris":{"android":"levelo://app?vid=9f5fba08-5d1a-4a60-9f27-a4f6e760f703","ios":"levelo://app?vid=9f5fba08-5d1a-4a60-9f27-a4f6e760f703"},"vehicle_type_id":"4","last_reported":1753873786,"current_range_meters":18800,"station_id":"ce4bhsh2rcd13ifvqi2g","pricing_plan_id":"cebpf4jnsgd1na2vs0mg"},{"bike_id":"efd54914-3c53-41f3-b95d-80152d609121","system_id":"levelo_inurba_marseille","lat":43.29588,"lon":5.36743,"is_reserved":false,"is_disabled":false,"rental_uris":{"android":"levelo://app?vid=efd54914-3c53-41f3-b95d-80152d609121","ios":"levelo://app?vid=efd54914-3c53-41f3-b95d-80152d609121"},"vehicle_type_id":"4","last_reported":1753873786,"current_range_meters":18800,"station_id":"ce4bgph2rcd13ifvqc2g","pricing_plan_id":"cebpf4jnsgd1na2vs0mg"},{"bike_id":"b1eb6d2d-8ace-442f-944f-666bc15c4251","system_id":"levelo_inurba_marseille","lat":43.25857,"lon":5.39915,"is_reserved":false,"is_disabled":false,"rental_uris":{"android":"levelo://app?vid=b1eb6d2d-8ace-442f-944f-666bc15c4251","ios":"levelo://app?vid=b1eb6d2d-8ace-442f-944f-666bc15c4251"},"vehicle_type_id":"4","last_reported":1753873786,"current_range_meters":18800,"station_id":"ce4bhl92rcd13ifvqghg","pricing_plan_id":"cebpf4jnsgd1na2vs0mg"},{"bike_id":"55bf355c-8c8a-4339-b38b-30b6f9dd8dd7","system_id":"levelo_inurba_marseille","lat":43.28617,"lon":5.3511,"is_reserved":false,"is_disabled":false,"rental_uris":{"android":"levelo://app?vid=55bf355c-8c8a-4339-b38b-30b6f9dd8dd7","ios":"levelo://app?vid=55bf355c-8c8a-4339-b38b-30b6f9dd8dd7"},"vehicle_type_id":"4","last_reported":1753873786,"current_range_meters":18800,"station_id":"ce4bhch2rcd13ifvqeug","pricing_plan_id":"cebpf4jnsgd1na2vs0mg"},{"bike_id":"5b311c19-dbf2-405d-9d2a-831586ec81e1","system_id":"levelo_inurba_marseille","lat":43.3027,"lon":5.37715,"is_reserved":false,"is_disabled":false,"rental_uris":{"android":"levelo://app?vid=5b311c19-dbf2-405d-9d2a-831586ec81e1","ios":"levelo://app?vid=5b311c19-dbf2-405d-9d2a-831586ec81e1"},"vehicle_type_id":"4","last_reported":1753873786,"current_range_meters":18800,"station_id":"ce4bguh2rcd13ifvqcj0","pricing_plan_id":"cebpf4jnsgd1na2vs0mg"},{"bike_id":"c48e6e64-9d08-4fca-a774-7cc6169cfde3","system_id":"levelo_inurba_marseille","lat":43.29839,"lon":5.38324,"is_reserved":false,"is_disabled":false,"rental_uris":{"android":"levelo://app?vid=c48e6e64-9d08-4fca-a774-7cc6169cfde3","ios":"levelo://app?vid=c48e6e64-9d08-4fca-a774-7cc6169cfde3"},"vehicle_type_id":"4","last_reported":1753873786,"current_range_meters":19200,"station_id":"","pricing_plan_id":"cebpf4jnsgd1na2vs0mg"},{"bike_id":"d8f1ea63-2b2f-4d21-9b8b-d398c7af1f74","system_id":"levelo_inurba_marseille","lat":43.280793,"lon":5.396634,"is_reserved":false,"is_disabled":false,"rental_uris":{"android":"levelo://app?vid=d8f1ea63-2b2f-4d21-9b8b-d398c7af1f74","ios":"levelo://app?vid=d8f1ea63-2b2f-4d21-9b8b-d398c7af1f74"},"vehicle_type_id":"4","last_reported":1753873786,"current_range_meters":19200,"station_id":"ce4bho12rcd13ifvqh2g","pricing_plan_id":"cebpf4jnsgd1na2vs0mg"},{"bike_id":"39472fbf-9d21-4ed1-b022-17fa2435c557","system_id":"levelo_inurba_marseille","lat":43.28687,"lon":5.37386,"is_reserved":false,"is_disabled":false,"rental_uris":{"android":"levelo://app?vid=39472fbf-9d21-4ed1-b022-17fa2435c557","ios":"levelo://app?vid=39472fbf-9d21-4ed1-b022-17fa2435c557"},"vehicle_type_id":"4","last_reported":1753873786,"current_range_meters":19200,"station_id":"ce4bh3p2rcd13ifvqdq0","pricing_plan_id":"cebpf4jnsgd1na2vs0mg"},{"bike_id":"3d4696de-a064-4a37-9930-53ec06ebfbfd","system_id":"levelo_inurba_marseille","lat":43.31189,"lon":5.3684,"is_reserved":false,"is_disabled":false,"rental_uris":{"android":"levelo://app?vid=3d4696de-a064-4a37-9930-53ec06ebfbfd","ios":"levelo://app?vid=3d4696de-a064-4a37-9930-53ec06ebfbfd"},"vehicle_type_id":"4","last_reported":1753873786,"current_range_meters":19200,"station_id":"ce4bgl92rcd13ifvqbq0","pricing_plan_id":"cebpf4jnsgd1na2vs0mg"},{"bike_id":"4f311b95-16d0-4152-9b03-677da880350c","system_id":"levelo_inurba_marseille","lat":43.23952,"lon":5.36632,"is_reserved":false,"is_disabled":false,"rental_uris":{"android":"levelo://app?vid=4f311b95-16d0-4152-9b03-677da880350c","ios":"levelo://app?vid=4f311b95-16d0-4152-9b03-677da880350c"},"vehicle_type_id":"4","last_reported":1753873786,"current_range_meters":19200,"station_id":"ce4bhi12rcd13ifvqfp0","pricing_plan_id":"cebpf4jnsgd1na2vs0mg"},{"bike_id":"d0e68786-d337-4e6e-9ee9-8bd9daa48758","system_id":"levelo_inurba_marseille","lat":43.24817,"lon":5.37443,"is_reserved":false,"is_disabled":false,"rental_uris":{"android":"levelo://app?vid=d0e68786-d337-4e6e-9ee9-8bd9daa48758","ios":"levelo://app?vid=d0e68786-d337-4e6e-9ee9-8bd9daa48758"},"vehicle_type_id":"4","last_reported":1753873786,"current_range_meters":19200,"station_id":"ce4bhgh2rcd13ifvqfb0","pricing_plan_id":"cebpf4jnsgd1na2vs0mg"},{"bike_id":"c7efcca1-224e-49cd-a4be-14d1f8a7d07e","system_id":"levelo_inurba_marseille","lat":43.31165,"lon":5.38707,"is_reserved":false,"is_disabled":false,"rental_uris":{"android":"levelo://app?vid=c7efcca1-224e-49cd-a4be-14d1f8a7d07e","ios":"levelo://app?vid=c7efcca1-224e-49cd-a4be-14d1f8a7d07e"},"vehicle_type_id":"4","last_reported":1753873786,"current_range_meters":19200,"station_id":"ce4bgv12rcd13ifvqcp0","pricing_plan_id":"cebpf4jnsgd1na2vs0mg"},{"bike_id":"82178a1b-bb08-4da8-aa8a-3f881f9b30a7","system_id":"levelo_inurba_marseille","lat":43.269303,"lon":5.402621,"is_reserved":false,"is_disabled":false,"rental_uris":{"android":"levelo://app?vid=82178a1b-bb08-4da8-aa8a-3f881f9b30a7","ios":"levelo://app?vid=82178a1b-bb08-4da8-aa8a-3f881f9b30a7"},"vehicle_type_id":"4","last_reported":1753873786,"current_range_meters":19200,"station_id":"cjm6bp8fraef2m0cb0m0","pricing_plan_id":"cebpf4jnsgd1na2vs0mg"},{"bike_id":"02ba587b-fdc4-4538-91bf-a3fcb628a435","system_id":"levelo_inurba_marseille","lat":43.346114,"lon":5.448751,"is_reserved":false,"is_disabled":false,"rental_uris":{"android":"levelo://app?vid=02ba587b-fdc4-4538-91bf-a3fcb628a435","ios":"levelo://app?vid=02ba587b-fdc4-4538-91bf-a3fcb628a435"},"vehicle_type_id":"4","last_reported":1753873786,"current_range_meters":19200,"station_id":"","pricing_plan_id":"cebpf4jnsgd1na2vs0mg"},{"bike_id":"a680cfd1-5b43-4211-9ae3-0ecb95596e08","system_id":"levelo_inurba_marseille","lat":43.28618,"lon":5.351001,"is_reserved":false,"is_disabled":false,"rental_uris":{"android":"levelo://app?vid=a680cfd1-5b43-4211-9ae3-0ecb95596e08","ios":"levelo://app?vid=a680cfd1-5b43-4211-9ae3-0ecb95596e08"},"vehicle_type_id":"4","last_reported":1753873786,"current_range_meters":19200,"station_id":"ce4bhch2rcd13ifvqeug","pricing_plan_id":"cebpf4jnsgd1na2vs0mg"},{"bike_id":"011fd654-e76c-4060-82ef-48cab0762fbe","system_id":"levelo_inurba_marseille","lat":43.22952,"lon":5.353759,"is_reserved":false,"is_disabled":false,"rental_uris":{"android":"levelo://app?vid=011fd654-e76c-4060-82ef-48cab0762fbe","ios":"levelo://app?vid=011fd654-e76c-4060-82ef-48cab0762fbe"},"vehicle_type_id":"4","last_reported":1753873786,"current_range_meters":19200,"station_id":"cpo3532slgdg3j2ikp40","pricing_plan_id":"cebpf4jnsgd1na2vs0mg"},{"bike_id":"e6076a94-3fae-4db8-9048-f76bbd60af67","system_id":"levelo_inurba_marseille","lat":43.24636,"lon":5.38914,"is_reserved":false,"is_disabled":false,"rental_uris":{"android":"levelo://app?vid=e6076a94-3fae-4db8-9048-f76bbd60af67","ios":"levelo://app?vid=e6076a94-3fae-4db8-9048-f76bbd60af67"},"vehicle_type_id":"4","last_reported":1753873786,"current_range_meters":19600,"station_id":"ce4bhg12rcd13ifvqf60","pricing_plan_id":"cebpf4jnsgd1na2vs0mg"},{"bike_id":"03780cff-a34f-4463-89ad-309e50413149","system_id":"levelo_inurba_marseille","lat":43.31203,"lon":5.37796,"is_reserved":false,"is_disabled":false,"rental_uris":{"android":"levelo://app?vid=03780cff-a34f-4463-89ad-309e50413149","ios":"levelo://app?vid=03780cff-a34f-4463-89ad-309e50413149"},"vehicle_type_id":"4","last_reported":1753873786,"current_range_meters":19600,"station_id":"","pricing_plan_id":"cebpf4jnsgd1na2vs0mg"},{"bike_id":"f28fd049-0d74-4420-9a84-4b4010164f06","system_id":"levelo_inurba_marseille","lat":43.32481,"lon":5.36584,"is_reserved":false,"is_disabled":false,"rental_uris":{"android":"levelo://app?vid=f28fd049-0d74-4420-9a84-4b4010164f06","ios":"levelo://app?vid=f28fd049-0d74-4420-9a84-4b4010164f06"},"vehicle_type_id":"4","last_reported":1753873786,"current_range_meters":19600,"station_id":"ce4bhs12rcd13ifvqhvg","pricing_plan_id":"cebpf4jnsgd1na2vs0mg"},{"bike_id":"a0dfdaf3-9c42-4868-8a2e-bb5dc7466bda","system_id":"levelo_inurba_marseille","lat":43.306101,"lon":5.372195,"is_reserved":false,"is_disabled":false,"rental_uris":{"android":"levelo://app?vid=a0dfdaf3-9c42-4868-8a2e-bb5dc7466bda","ios":"levelo://app?vid=a0dfdaf3-9c42-4868-8a2e-bb5dc7466bda"},"vehicle_type_id":"4","last_reported":1753873786,"current_range_meters":19600,"station_id":"","pricing_plan_id":"cebpf4jnsgd1na2vs0mg"},{"bike_id":"20782440-32e2-4e26-a85a-d8b01db73401","system_id":"levelo_inurba_marseille","lat":43.24171,"lon":5.36411,"is_reserved":false,"is_disabled":false,"rental_uris":{"android":"levelo://app?vid=20782440-32e2-4e26-a85a-d8b01db73401","ios":"levelo://app?vid=20782440-32e2-4e26-a85a-d8b01db73401"},"vehicle_type_id":"4","last_reported":1753873786,"current_range_meters":19600,"station_id":"cpo36qri1sfpv3e86is0","pricing_plan_id":"cebpf4jnsgd1na2vs0mg"},{"bike_id":"7ab90710-4d03-4e79-be7c-589fc71dd472","system_id":"levelo_inurba_marseille","lat":43.3169,"lon":5.40472,"is_reserved":false,"is_disabled":false,"rental_uris":{"android":"levelo://app?vid=7ab90710-4d03-4e79-be7c-589fc71dd472","ios":"levelo://app?vid=7ab90710-4d03-4e79-be7c-589fc71dd472"},"vehicle_type_id":"4","last_reported":1753873786,"current_range_meters":19600,"station_id":"","pricing_plan_id":"cebpf4jnsgd1na2vs0mg"},{"bike_id":"0493419f-acaa-408f-b42e-4cd6f66c3e96","system_id":"levelo_inurba_marseille","lat":43.24538,"lon":5.3951,"is_reserved":false,"is_disabled":true,"rental_uris":{"android":"levelo://app?vid=0493419f-acaa-408f-b42e-4cd6f66c3e96","ios":"levelo://app?vid=0493419f-acaa-408f-b42e-4cd6f66c3e96"},"vehicle_type_id":"4","last_reported":1753873786,"current_range_meters":19600,"station_id":"ce4bhlp2rcd13ifvqgjg","pricing_plan_id":"cebpf4jnsgd1na2vs0mg"},{"bike_id":"eb222de6-87a7-4fc6-92e8-d4154e846895","system_id":"levelo_inurba_marseille","lat":43.22919,"lon":5.35384,"is_reserved":false,"is_disabled":false,"rental_uris":{"android":"levelo://app?vid=eb222de6-87a7-4fc6-92e8-d4154e846895","ios":"levelo://app?vid=eb222de6-87a7-4fc6-92e8-d4154e846895"},"vehicle_type_id":"4","last_reported":1753873786,"current_range_meters":19600,"station_id":"cpo3532slgdg3j2ikp40","pricing_plan_id":"cebpf4jnsgd1na2vs0mg"},{"bike_id":"5df141b0-927f-4aaf-b7ac-e255c51a1ed9","system_id":"levelo_inurba_marseille","lat":43.241791,"lon":5.397319,"is_reserved":false,"is_disabled":false,"rental_uris":{"android":"levelo://app?vid=5df141b0-927f-4aaf-b7ac-e255c51a1ed9","ios":"levelo://app?vid=5df141b0-927f-4aaf-b7ac-e255c51a1ed9"},"vehicle_type_id":"4","last_reported":1753873786,"current_range_meters":20000,"station_id":"ce4bhn12rcd13ifvqgpg","pricing_plan_id":"cebpf4jnsgd1na2vs0mg"},{"bike_id":"823a5a00-684e-42da-a752-0dd8df7d3e73","system_id":"levelo_inurba_marseille","lat":43.30147,"lon":5.38083,"is_reserved":false,"is_disabled":false,"rental_uris":{"android":"levelo://app?vid=823a5a00-684e-42da-a752-0dd8df7d3e73","ios":"levelo://app?vid=823a5a00-684e-42da-a752-0dd8df7d3e73"},"vehicle_type_id":"4","last_reported":1753873786,"current_range_meters":20000,"station_id":"ce4bgjp2rcd13ifvqbh0","pricing_plan_id":"cebpf4jnsgd1na2vs0mg"},{"bike_id":"5fced1c8-d774-4f2b-bc12-e76d3ee5656e","system_id":"levelo_inurba_marseille","lat":43.29504,"lon":5.37491,"is_reserved":false,"is_disabled":false,"rental_uris":{"android":"levelo://app?vid=5fced1c8-d774-4f2b-bc12-e76d3ee5656e","ios":"levelo://app?vid=5fced1c8-d774-4f2b-bc12-e76d3ee5656e"},"vehicle_type_id":"4","last_reported":1753873786,"current_range_meters":20000,"station_id":"ce4bgkp2rcd13ifvqbmg","pricing_plan_id":"cebpf4jnsgd1na2vs0mg"},{"bike_id":"b5f5460f-5e9c-42f5-ba4b-88884601c9e6","system_id":"levelo_inurba_marseille","lat":43.28417,"lon":5.34981,"is_reserved":false,"is_disabled":false,"rental_uris":{"android":"levelo://app?vid=b5f5460f-5e9c-42f5-ba4b-88884601c9e6","ios":"levelo://app?vid=b5f5460f-5e9c-42f5-ba4b-88884601c9e6"},"vehicle_type_id":"4","last_reported":1753873786,"current_range_meters":20000,"station_id":"ce4bhbh2rcd13ifvqepg","pricing_plan_id":"cebpf4jnsgd1na2vs0mg"},{"bike_id":"9a0d2248-fe20-4981-85b6-658ec9daa8e5","system_id":"levelo_inurba_marseille","lat":43.29029,"lon":5.3865,"is_reserved":false,"is_disabled":false,"rental_uris":{"android":"levelo://app?vid=9a0d2248-fe20-4981-85b6-658ec9daa8e5","ios":"levelo://app?vid=9a0d2248-fe20-4981-85b6-658ec9daa8e5"},"vehicle_type_id":"4","last_reported":1753873786,"current_range_meters":20000,"station_id":"ce4bh4p2rcd13ifvqe0g","pricing_plan_id":"cebpf4jnsgd1na2vs0mg"},{"bike_id":"6dc5979a-2365-4201-b36b-3d9b81214e83","system_id":"levelo_inurba_marseille","lat":43.286062,"lon":5.352251,"is_reserved":false,"is_disabled":false,"rental_uris":{"android":"levelo://app?vid=6dc5979a-2365-4201-b36b-3d9b81214e83","ios":"levelo://app?vid=6dc5979a-2365-4201-b36b-3d9b81214e83"},"vehicle_type_id":"4","last_reported":1753873786,"current_range_meters":20000,"station_id":"ce4bhbh2rcd13ifvqepg","pricing_plan_id":"cebpf4jnsgd1na2vs0mg"},{"bike_id":"ffbc5986-1fd6-423d-bdb9-2a77778a9c41","system_id":"levelo_inurba_marseille","lat":43.24183,"lon":5.39731,"is_reserved":false,"is_disabled":false,"rental_uris":{"android":"levelo://app?vid=ffbc5986-1fd6-423d-bdb9-2a77778a9c41","ios":"levelo://app?vid=ffbc5986-1fd6-423d-bdb9-2a77778a9c41"},"vehicle_type_id":"4","last_reported":1753873786,"current_range_meters":20000,"station_id":"ce4bhn12rcd13ifvqgpg","pricing_plan_id":"cebpf4jnsgd1na2vs0mg"},{"bike_id":"3f8d70ae-895b-4507-b070-2ff8c80e486f","system_id":"levelo_inurba_marseille","lat":43.241673,"lon":5.363942,"is_reserved":false,"is_disabled":false,"rental_uris":{"android":"levelo://app?vid=3f8d70ae-895b-4507-b070-2ff8c80e486f","ios":"levelo://app?vid=3f8d70ae-895b-4507-b070-2ff8c80e486f"},"vehicle_type_id":"4","last_reported":1753873786,"current_range_meters":20000,"station_id":"cpo36qri1sfpv3e86is0","pricing_plan_id":"cebpf4jnsgd1na2vs0mg"},{"bike_id":"501fe082-6c32-4a24-80fd-4833724e8426","system_id":"levelo_inurba_marseille","lat":43.305802,"lon":5.374299,"is_reserved":false,"is_disabled":false,"rental_uris":{"android":"levelo://app?vid=501fe082-6c32-4a24-80fd-4833724e8426","ios":"levelo://app?vid=501fe082-6c32-4a24-80fd-4833724e8426"},"vehicle_type_id":"4","last_reported":1753873786,"current_range_meters":20000,"station_id":"","pricing_plan_id":"cebpf4jnsgd1na2vs0mg"},{"bike_id":"d206561f-8dda-4152-865a-094bafe85519","system_id":"levelo_inurba_marseille","lat":43.2793,"lon":5.39605,"is_reserved":false,"is_disabled":false,"rental_uris":{"android":"levelo://app?vid=d206561f-8dda-4152-865a-094bafe85519","ios":"levelo://app?vid=d206561f-8dda-4152-865a-094bafe85519"},"vehicle_type_id":"4","last_reported":1753873786,"current_range_meters":20400,"station_id":"ce4bhf92rcd13ifvqf40","pricing_plan_id":"cebpf4jnsgd1na2vs0mg"},{"bike_id":"ae2983f6-e894-4f3a-aeb4-1537ea30af6c","system_id":"levelo_inurba_marseille","lat":43.24386,"lon":5.37064,"is_reserved":false,"is_disabled":false,"rental_uris":{"android":"levelo://app?vid=ae2983f6-e894-4f3a-aeb4-1537ea30af6c","ios":"levelo://app?vid=ae2983f6-e894-4f3a-aeb4-1537ea30af6c"},"vehicle_type_id":"4","last_reported":1753873786,"current_range_meters":20400,"station_id":"ce4bhhh2rcd13ifvqfk0","pricing_plan_id":"cebpf4jnsgd1na2vs0mg"},{"bike_id":"2219355f-a4fd-4613-ab13-04d44021d874","system_id":"levelo_inurba_marseille","lat":43.291993,"lon":5.393176,"is_reserved":false,"is_disabled":false,"rental_uris":{"android":"levelo://app?vid=2219355f-a4fd-4613-ab13-04d44021d874","ios":"levelo://app?vid=2219355f-a4fd-4613-ab13-04d44021d874"},"vehicle_type_id":"4","last_reported":1753873786,"current_range_meters":20400,"station_id":"ce4bh192rcd13ifvqdd0","pricing_plan_id":"cebpf4jnsgd1na2vs0mg"},{"bike_id":"ee16387c-cf2c-4712-82ce-5b541c40c785","system_id":"levelo_inurba_marseille","lat":43.27811,"lon":5.40706,"is_reserved":false,"is_disabled":false,"rental_uris":{"android":"levelo://app?vid=ee16387c-cf2c-4712-82ce-5b541c40c785","ios":"levelo://app?vid=ee16387c-cf2c-4712-82ce-5b541c40c785"},"vehicle_type_id":"4","last_reported":1753873786,"current_range_meters":20000,"station_id":"ce4bhnh2rcd13ifvqgtg","pricing_plan_id":"cebpf4jnsgd1na2vs0mg"},{"bike_id":"47262c38-82c5-4e29-8c45-c6d9aece816e","system_id":"levelo_inurba_marseille","lat":43.31067,"lon":5.38329,"is_reserved":false,"is_disabled":false,"rental_uris":{"android":"levelo://app?vid=47262c38-82c5-4e29-8c45-c6d9aece816e","ios":"levelo://app?vid=47262c38-82c5-4e29-8c45-c6d9aece816e"},"vehicle_type_id":"4","last_reported":1753873786,"current_range_meters":20400,"station_id":"ce4bgv92rcd13ifvqcr0","pricing_plan_id":"cebpf4jnsgd1na2vs0mg"},{"bike_id":"96bc0f64-aad7-4223-9d0b-4fce2dd86c0e","system_id":"levelo_inurba_marseille","lat":43.21744,"lon":5.34591,"is_reserved":false,"is_disabled":false,"rental_uris":{"android":"levelo://app?vid=96bc0f64-aad7-4223-9d0b-4fce2dd86c0e","ios":"levelo://app?vid=96bc0f64-aad7-4223-9d0b-4fce2dd86c0e"},"vehicle_type_id":"4","last_reported":1753873786,"current_range_meters":20800,"station_id":"st_cvj6r9ubvosntc0bgbag","pricing_plan_id":"cebpf4jnsgd1na2vs0mg"},