{"last_updated":1702955255,"ttl":30,"version":"2.2","data":{"bikes":[{"bike_id":"8a6b094c-7940-4174-be55-5f8c4f8eae69","system_id":"levelo_inurba_marseille","lat":43.31494,"lon":5.37307,"is_reserved":false,"is_disabled":false,"rental_uris":{"android":"levelo://app?vid=8a6b094c-7940-4174-be55-5f8c4f8eae69","ios":"levelo://app?vid=8a6b094c-7940-4174-be55-5f8c4f8eae69"},"vehicle_type_id":"4","last_reported":1702955256,"current_range_meters":14000,"station_id":"ce4bgt12rcd13ifvqcd0","pricing_plan_id":"free"},{"bike_id":"f36b2f5a-51e9-47bc-b7d8-369c262df523","system_id":"levelo_inurba_marseille","lat":43.314811,"lon":5.373103,"is_reserved":false,"is_disabled":false,"rental_uris":{"android":"levelo://app?vid=f36b2f5a-51e9-47bc-b7d8-369c262df523","ios":"levelo://app?vid=f36b2f5a-51e9-47bc-b7d8-369c262df523"},"vehicle_type_id":"4","last_reported":1702955256,"current_range_meters":22400,"station_id":"ce4bgt12rcd13ifvqcd0","pricing_plan_id":"free"},{"bike_id":"1b736cc7-a155-405f-a515-455e6b01ffd9","system_id":"levelo_inurba_marseille","lat":43.30896,"lon":5.37167,"is_reserved":false,"is_disabled":false,"rental_uris":{"android":"levelo://app?vid=1b736cc7-a155-405f-a515-455e6b01ffd9","ios":"levelo://app?vid=1b736cc7-a155-405f-a515-455e6b01ffd9"},"vehicle_type_id":"4","last_reported":1702955256,"current_range_meters":20400,"station_id":"ce4bguh2rcd13ifvqckg","pricing_plan_id":"free"},{"bike_id":"e712d193-3d10-47c3-86c7-8d8dbc76d48e","system_id":"levelo_inurba_marseille","lat":43.309039,"lon":5.371797,"is_reserved":false,"is_disabled":false,"rental_uris":{"android":"levelo://app?vid=e712d193-3d10-47c3-86c7-8d8dbc76d48e","ios":"levelo://app?vid=e712d193-3d10-47c3-86c7-8d8dbc76d48e"},"vehicle_type_id":"4","last_reported":1702955256,"current_range_meters":31200,"station_id":"ce4bguh2rcd13ifvqckg","pricing_plan_id":"free"},{"bike_id":"b6fe2324-3875-41ec-9189-d3bc92f355dc","system_id":"levelo_inurba_marseille","lat":43.309039,"lon":5.371797,"is_reserved":false,"is_disabled":false,"rental_uris":{"android":"levelo://app?vid=b6fe2324-3875-41ec-9189-d3bc92f355dc","ios":"levelo://app?vid=b6fe2324-3875-41ec-9189-d3bc92f355dc"},"vehicle_type_id":"4","last_reported":1702955256,"current_range_meters":23200,"station_id":"ce4bguh2rcd13ifvqckg","pricing_plan_id":"free"},{"bike_id":"aa3b5045-d638-4350-9b88-cc09b2e298ce","system_id":"levelo_inurba_marseille","lat":43.30888,"lon":5.37197,"is_reserved":false,"is_disabled":false,"rental_uris":{"android":"levelo://app?vid=aa3b5045-d638-4350-9b88-cc09b2e298ce","ios":"levelo://app?vid=aa3b5045-d638-4350-9b88-cc09b2e298ce"},"vehicle_type_id":"4","last_reported":1702955256,"current_range_meters":22000,"station_id":"ce4bguh2rcd13ifvqckg","pricing_plan_id":"free"},{"bike_id":"1ca7b261-5d8d-4a99-a9d0-6dbcad99b999","system_id":"levelo_inurba_marseille","lat":43.30888,"lon":5.37197,"is_reserved":false,"is_disabled":false,"rental_uris":{"android":"levelo://app?vid=1ca7b261-5d8d-4a99-a9d0-6dbcad99b999","ios":"levelo://app?vid=1ca7b261-5d8d-4a99-a9d0-6dbcad99b999"},"vehicle_type_id":"4","last_reported":1702955256,"current_range_meters":23200,"station_id":"ce4bguh2rcd13ifvqckg","pricing_plan_id":"free"},{"bike_id":"b187f503-9c9e-4603-b5d9-9f11f9127aa4","system_id":"levelo_inurba_marseille","lat":43.309039,"lon":5.371797,"is_reserved":false,"is_disabled":false,"rental_uris":{"android":"levelo://app?vid=b187f503-9c9e-4603-b5d9-9f11f9127aa4","ios":"levelo://app?vid=b187f503-9c9e-4603-b5d9-9f11f9127aa4"},"vehicle_type_id":"4","last_reported":1702955256,"current_range_meters":27600,"station_id":"ce4bguh2rcd13ifvqckg","pricing_plan_id":"free"},{"bike_id":"4d5b2734-6314-48bb-9c3c-89a957f3b449","system_id":"levelo_inurba_marseille","lat":43.305382,"lon":5.365389,"is_reserved":false,"is_disabled":false,"rental_uris":{"android":"levelo://app?vid=4d5b2734-6314-48bb-9c3c-89a957f3b449","ios":"levelo://app?vid=4d5b2734-6314-48bb-9c3c-89a957f3b449"},"vehicle_type_id":"4","last_reported":1702955256,"current_range_meters":5600,"station_id":"","pricing_plan_id":"free"},{"bike_id":"5f463b9e-f279-4d3d-b45d-d4a49722b191","system_id":"levelo_inurba_marseille","lat":43.305706,"lon":5.365654,"is_reserved":false,"is_disabled":false,"rental_uris":{"android":"levelo://app?vid=5f463b9e-f279-4d3d-b45d-d4a49722b191","ios":"levelo://app?vid=5f463b9e-f279-4d3d-b45d-d4a49722b191"},"vehicle_type_id":"4","last_reported":1702955256,"current_range_meters":28000,"station_id":"ce4bgs12rcd13ifvqcag","pricing_plan_id":"free"},{"bike_id":"5dc9ddde-0495-4c8c-b575-de640f346eef","system_id":"levelo_inurba_marseille","lat":43.31119,"lon":5.37755,"is_reserved":false,"is_disabled":false,"rental_uris":{"android":"levelo://app?vid=5dc9ddde-0495-4c8c-b575-de640f346eef","ios":"levelo://app?vid=5dc9ddde-0495-4c8c-b575-de640f346eef"},"vehicle_type_id":"4","last_reported":1702955256,"current_range_meters":30000,"station_id":"ce4bgt92rcd13ifvqcg0","pricing_plan_id":"free"},{"bike_id":"091c1bad-4322-4006-9c14-66029e8f8106","system_id":"levelo_inurba_marseille","lat":43.311125,"lon":5.377624,"is_reserved":false,"is_disabled":false,"rental_uris":{"android":"levelo://app?vid=091c1bad-4322-4006-9c14-66029e8f8106","ios":"levelo://app?vid=091c1bad-4322-4006-9c14-66029e8f8106"},"vehicle_type_id":"4","last_reported":1702955256,"current_range_meters":26400,"station_id":"ce4bgt92rcd13ifvqcg0","pricing_plan_id":"free"},{"bike_id":"c5d8df8b-759d-402d-80f7-f3d5d80e4eeb","system_id":"levelo_inurba_marseille","lat":43.31122,"lon":5.37775,"is_reserved":false,"is_disabled":false,"rental_uris":{"android":"levelo://app?vid=c5d8df8b-759d-402d-80f7-f3d5d80e4eeb","ios":"levelo://app?vid=c5d8df8b-759d-402d-80f7-f3d5d80e4eeb"},"vehicle_type_id":"4","last_reported":1702955256,"current_range_meters":29200,"station_id":"ce4bgt92rcd13ifvqcg0","pricing_plan_id":"free"},{"bike_id":"a0c1dab8-f566-4bb7-adad-cd2ebbfed3e8","system_id":"levelo_inurba_marseille","lat":43.30777,"lon":5.3765,"is_reserved":false,"is_disabled":false,"rental_uris":{"android":"levelo://app?vid=a0c1dab8-f566-4bb7-adad-cd2ebbfed3e8","ios":"levelo://app?vid=a0c1dab8-f566-4bb7-adad-cd2ebbfed3e8"},"vehicle_type_id":"4","last_reported":1702955256,"current_range_meters":31200,"station_id":"ce4bgv92rcd13ifvqcq0","pricing_plan_id":"free"},{"bike_id":"bfbf8671-ab88-456a-938f-8948b9ed1143","system_id":"levelo_inurba_marseille","lat":43.307945,"lon":5.376487,"is_reserved":false,"is_disabled":false,"rental_uris":{"android":"levelo://app?vid=bfbf8671-ab88-456a-938f-8948b9ed1143","ios":"levelo://app?vid=bfbf8671-ab88-456a-938f-8948b9ed1143"},"vehicle_type_id":"4","last_reported":1702955256,"current_range_meters":31200,"station_id":"ce4bgv92rcd13ifvqcq0","pricing_plan_id":"free"},{"bike_id":"ff53e213-05f8-4f05-aabf-8d0dc693e96b","system_id":"levelo_inurba_marseille","lat":43.30782,"lon":5.3766,"is_reserved":false,"is_disabled":false,"rental_uris":{"android":"levelo://app?vid=ff53e213-05f8-4f05-aabf-8d0dc693e96b","ios":"levelo://app?vid=ff53e213-05f8-4f05-aabf-8d0dc693e96b"},"vehicle_type_id":"4","last_reported":1702955256,"current_range_meters":24800,"station_id":"ce4bgv92rcd13ifvqcq0","pricing_plan_id":"free"},{"bike_id":"074e94ba-9dac-4f9f-a100-c95cab584223","system_id":"levelo_inurba_marseille","lat":43.30783,"lon":5.37663,"is_reserved":false,"is_disabled":false,"rental_uris":{"android":"levelo://app?vid=074e94ba-9dac-4f9f-a100-c95cab584223","ios":"levelo://app?vid=074e94ba-9dac-4f9f-a100-c95cab584223"},"vehicle_type_id":"4","last_reported":1702955256,"current_range_meters":31200,"station_id":"ce4bgv92rcd13ifvqcq0","pricing_plan_id":"free"},{"bike_id":"d01b47c1-851b-471b-b0d9-b07652315855","system_id":"levelo_inurba_marseille","lat":43.307945,"lon":5.376487,"is_reserved":false,"is_disabled":false,"rental_uris":{"android":"levelo://app?vid=d01b47c1-851b-471b-b0d9-b07652315855","ios":"levelo://app?vid=d01b47c1-851b-471b-b0d9-b07652315855"},"vehicle_type_id":"4","last_reported":1702955256,"current_range_meters":29600,"station_id":"ce4bgv92rcd13ifvqcq0","pricing_plan_id":"free"},{"bike_id":"58ad45db-43fb-4e7e-8c15-824fc48da914","system_id":"levelo_inurba_marseille","lat":43.30304,"lon":5.368987,"is_reserved":false,"is_disabled":false,"rental_uris":{"android":"levelo://app?vid=58ad45db-43fb-4e7e-8c15-824fc48da914","ios":"levelo://app?vid=58ad45db-43fb-4e7e-8c15-824fc48da914"},"vehicle_type_id":"4","last_reported":1702955256,"current_range_meters":20000,"station_id":"ce4bgqh2rcd13ifvqc5g","pricing_plan_id":"free"},{"bike_id":"867acba2-b880-4d43-9688-a553c2115971","system_id":"levelo_inurba_marseille","lat":43.315293,"lon":5.380349,"is_reserved":false,"is_disabled":false,"rental_uris":{"android":"levelo://app?vid=867acba2-b880-4d43-9688-a553c2115971","ios":"levelo://app?vid=867acba2-b880-4d43-9688-a553c2115971"},"vehicle_type_id":"4","last_reported":1702955256,"current_range_meters":14400,"station_id":"ce4bhsp2rcd13ifvqi50","pricing_plan_id":"free"},{"bike_id":"801e4ec3-544f-4376-8dfd-71680e9b66a2","system_id":"levelo_inurba_marseille","lat":43.315293,"lon":5.380349,"is_reserved":false,"is_disabled":false,"rental_uris":{"android":"levelo://app?vid=801e4ec3-544f-4376-8dfd-71680e9b66a2","ios":"levelo://app?vid=801e4ec3-544f-4376-8dfd-71680e9b66a2"},"vehicle_type_id":"4","last_reported":1702955256,"current_range_meters":19200,"station_id":"ce4bhsp2rcd13ifvqi50","pricing_plan_id":"free"},{"bike_id":"130fdc52-bea0-450d-bcbe-eaf641bf5817","system_id":"levelo_inurba_marseille","lat":43.301939,"lon":5.366286,"is_reserved":false,"is_disabled":false,"rental_uris":{"android":"levelo://app?vid=130fdc52-bea0-450d-bcbe-eaf641bf5817","ios":"levelo://app?vid=130fdc52-bea0-450d-bcbe-eaf641bf5817"},"vehicle_type_id":"4","last_reported":1702955256,"current_range_meters":18800,"station_id":"ce4bgrh2rcd13ifvqc8g","pricing_plan_id":"free"},{"bike_id":"b8703cdf-4f98-42ab-b2bd-01f17e15261f","system_id":"levelo_inurba_marseille","lat":43.301939,"lon":5.366286,"is_reserved":false,"is_disabled":false,"rental_uris":{"android":"levelo://app?vid=b8703cdf-4f98-42ab-b2bd-01f17e15261f","ios":"levelo://app?vid=b8703cdf-4f98-42ab-b2bd-01f17e15261f"},"vehicle_type_id":"4","last_reported":1702955256,"current_range_meters":30000,"station_id":"ce4bgrh2rcd13ifvqc8g","pricing_plan_id":"free"},{"bike_id":"b3b99d7a-4c5a-4e38-a6f3-28b753821e90","system_id":"levelo_inurba_marseille","lat":43.30825,"lon":5.38186,"is_reserved":false,"is_disabled":false,"rental_uris":{"android":"levelo://app?vid=b3b99d7a-4c5a-4e38-a6f3-28b753821e90","ios":"levelo://app?vid=b3b99d7a-4c5a-4e38-a6f3-28b753821e90"},"vehicle_type_id":"4","last_reported":1702955256,"current_range_meters":30800,"station_id":"ce4bgt12rcd13ifvqce0","pricing_plan_id":"free"},{"bike_id":"0ed17142-435b-42d8-bff3-c15fcd040a64","system_id":"levelo_inurba_marseille","lat":43.30462,"lon":5.37902,"is_reserved":false,"is_disabled":false,"rental_uris":{"android":"levelo://app?vid=0ed17142-435b-42d8-bff3-c15fcd040a64","ios":"levelo://app?vid=0ed17142-435b-42d8-bff3-c15fcd040a64"},"vehicle_type_id":"4","last_reported":1702955256,"current_range_meters":30000,"station_id":"ce4bgup2rcd13ifvqcn0","pricing_plan_id":"free"},{"bike_id":"d26c26e5-abdd-4836-b51f-e18064de4010","system_id":"levelo_inurba_marseille","lat":43.324771,"lon":5.36557,"is_reserved":false,"is_disabled":false,"rental_uris":{"android":"levelo://app?vid=d26c26e5-abdd-4836-b51f-e18064de4010","ios":"levelo://app?vid=d26c26e5-abdd-4836-b51f-e18064de4010"},"vehicle_type_id":"4","last_reported":1702955256,"current_range_meters":14000,"station_id":"ce4bhs12rcd13ifvqhvg","pricing_plan_id":"free"},{"bike_id":"79d2a3bd-62d0-4549-9a59-b98a9a19d059","system_id":"levelo_inurba_marseille","lat":43.304989,"lon":5.379664,"is_reserved":false,"is_disabled":false,"rental_uris":{"android":"levelo://app?vid=79d2a3bd-62d0-4549-9a59-b98a9a19d059","ios":"levelo://app?vid=79d2a3bd-62d0-4549-9a59-b98a9a19d059"},"vehicle_type_id":"4","last_reported":1702955256,"current_range_meters":29600,"station_id":"ce4bgup2rcd13ifvqcn0","pricing_plan_id":"free"},{"bike_id":"438f20cb-2c8d-49f2-badb-91e8e3e66188","system_id":"levelo_inurba_marseille","lat":43.313644,"lon":5.38486,"is_reserved":false,"is_disabled":false,"rental_uris":{"android":"levelo://app?vid=438f20cb-2c8d-49f2-badb-91e8e3e66188","ios":"levelo://app?vid=438f20cb-2c8d-49f2-badb-91e8e3e66188"},"vehicle_type_id":"4","last_reported":1702955256,"current_range_meters":28400,"station_id":"ce4bgt92rcd13ifvqcf0","pricing_plan_id":"free"},{"bike_id":"2afa51d3-1738-4ce9-8203-09e8989306c7","system_id":"levelo_inurba_marseille","lat":43.258658,"lon":5.398935,"is_reserved":false,"is_disabled":false,"rental_uris":{"android":"levelo://app?vid=2afa51d3-1738-4ce9-8203-09e8989306c7","ios":"levelo://app?vid=2afa51d3-1738-4ce9-8203-09e8989306c7"},"vehicle_type_id":"4","last_reported":1702955256,"current_range_meters":24400,"station_id":"ce4bhl92rcd13ifvqghg","pricing_plan_id":"free"},{"bike_id":"5f6da959-39a9-47b6-bb0a-d39a451bd40a","system_id":"levelo_inurba_marseille","lat":43.313571,"lon":5.384829,"is_reserved":false,"is_disabled":false,"rental_uris":{"android":"levelo://app?vid=5f6da959-39a9-47b6-bb0a-d39a451bd40a","ios":"levelo://app?vid=5f6da959-39a9-47b6-bb0a-d39a451bd40a"},"vehicle_type_id":"4","last_reported":1702955256,"current_range_meters":28000,"station_id":"ce4bgt92rcd13ifvqcf0","pricing_plan_id":"free"},{"bike_id":"c843bbcc-52b1-4208-83c3-f77d69b95f33","system_id":"levelo_inurba_marseille","lat":43.31387,"lon":5.38508,"is_reserved":false,"is_disabled":false,"rental_uris":{"android":"levelo://app?vid=c843bbcc-52b1-4208-83c3-f77d69b95f33","ios":"levelo://app?vid=c843bbcc-52b1-4208-83c3-f77d69b95f33"},"vehicle_type_id":"4","last_reported":1702955256,"current_range_meters":26400,"station_id":"ce4bgt92rcd13ifvqcf0","pricing_plan_id":"free"},{"bike_id":"4c75c5c6-a550-4269-91cb-0530d26cdaf7","system_id":"levelo_inurba_marseille","lat":43.313571,"lon":5.384829,"is_reserved":false,"is_disabled":false,"rental_uris":{"android":"levelo://app?vid=4c75c5c6-a550-4269-91cb-0530d26cdaf7","ios":"levelo://app?vid=4c75c5c6-a550-4269-91cb-0530d26cdaf7"},"vehicle_type_id":"4","last_reported":1702955256,"current_range_meters":26000,"station_id":"ce4bgt92rcd13ifvqcf0","pricing_plan_id":"free"},{"bike_id":"c4b4cca5-403a-49ad-9874-1032829f59aa","system_id":"levelo_inurba_marseille","lat":43.31383,"lon":5.38517,"is_reserved":false,"is_disabled":false,"rental_uris":{"android":"levelo://app?vid=c4b4cca5-403a-49ad-9874-1032829f59aa","ios":"levelo://app?vid=c4b4cca5-403a-49ad-9874-1032829f59aa"},"vehicle_type_id":"4","last_reported":1702955256,"current_range_meters":4800,"station_id":"ce4bgt92rcd13ifvqcf0","pricing_plan_id":"free"},{"bike_id":"d39dd21e-0916-429b-8930-967ee300b6ef","system_id":"levelo_inurba_marseille","lat":43.299222,"lon":5.365554,"is_reserved":false,"is_disabled":false,"rental_uris":{"android":"levelo://app?vid=d39dd21e-0916-429b-8930-967ee300b6ef","ios":"levelo://app?vid=d39dd21e-0916-429b-8930-967ee300b6ef"},"vehicle_type_id":"4","last_reported":1702955256,"current_range_meters":27600,"station_id":"ce4bgm92rcd13ifvqbr0","pricing_plan_id":"free"},{"bike_id":"8cba4806-71a4-42ec-9ed9-e0408a5cf707","system_id":"levelo_inurba_marseille","lat":43.299314,"lon":5.365412,"is_reserved":false,"is_disabled":false,"rental_uris":{"android":"levelo://app?vid=8cba4806-71a4-42ec-9ed9-e0408a5cf707","ios":"levelo://app?vid=8cba4806-71a4-42ec-9ed9-e0408a5cf707"},"vehicle_type_id":"4","last_reported":1702955256,"current_range_meters":31200,"station_id":"ce4bgm92rcd13ifvqbr0","pricing_plan_id":"free"},{"bike_id":"7ae1ae8b-8e65-4377-8e4b-82b1975ec1f5","system_id":"levelo_inurba_marseille","lat":43.29931,"lon":5.36533,"is_reserved":false,"is_disabled":false,"rental_uris":{"android":"levelo://app?vid=7ae1ae8b-8e65-4377-8e4b-82b1975ec1f5","ios":"levelo://app?vid=7ae1ae8b-8e65-4377-8e4b-82b1975ec1f5"},"vehicle_type_id":"4","last_reported":1702955256,"current_range_meters":30800,"station_id":"ce4bgm92rcd13ifvqbr0","pricing_plan_id":"free"},{"bike_id":"018614b4-6aed-458c-8067-c5b9288e75de","system_id":"levelo_inurba_marseille","lat":43.31403,"lon":5.38545,"is_reserved":false,"is_disabled":false,"rental_uris":{"android":"levelo://app?vid=018614b4-6aed-458c-8067-c5b9288e75de","ios":"levelo://app?vid=018614b4-6aed-458c-8067-c5b9288e75de"},"vehicle_type_id":"4","last_reported":1702955256,"current_range_meters":26800,"station_id":"","pricing_plan_id":"free"},{"bike_id":"64a78684-70b7-4e18-8648-a3c00b5854a2","system_id":"levelo_inurba_marseille","lat":43.299724,"lon":5.371829,"is_reserved":false,"is_disabled":false,"rental_uris":{"android":"levelo://app?vid=64a78684-70b7-4e18-8648-a3c00b5854a2","ios":"levelo://app?vid=64a78684-70b7-4e18-8648-a3c00b5854a2"},"vehicle_type_id":"4","last_reported":1702955256,"current_range_meters":26400,"station_id":"ce4bgr92rcd13ifvqc7g","pricing_plan_id":"free"},{"bike_id":"17086838-caca-4eb7-b0df-626ba083c2fc","system_id":"levelo_inurba_marseille","lat":43.305364,"lon":5.384119,"is_reserved":false,"is_disabled":false,"rental_uris":{"android":"levelo://app?vid=17086838-caca-4eb7-b0df-626ba083c2fc","ios":"levelo://app?vid=17086838-caca-4eb7-b0df-626ba083c2fc"},"vehicle_type_id":"4","last_reported":1702955256,"current_range_meters":19600,"station_id":"ce4bgg92rcd13ifvqb30","pricing_plan_id":"free"},{"bike_id":"52b0a67d-1c39-4706-ad1d-d46974e3dd03","system_id":"levelo_inurba_marseille","lat":43.305471,"lon":5.384349,"is_reserved":false,"is_disabled":false,"rental_uris":{"android":"levelo://app?vid=52b0a67d-1c39-4706-ad1d-d46974e3dd03","ios":"levelo://app?vid=52b0a67d-1c39-4706-ad1d-d46974e3dd03"},"vehicle_type_id":"4","last_reported":1702955256,"current_range_meters":4800,"station_id":"ce4bgg92rcd13ifvqb30","pricing_plan_id":"free"},{"bike_id":"76062e80-6a87-46b1-b60e-aaf51d1cf9c6","system_id":"levelo_inurba_marseille","lat":43.311722,"lon":5.387247,"is_reserved":false,"is_disabled":false,"rental_uris":{"android":"levelo://app?vid=76062e80-6a87-46b1-b60e-aaf51d1cf9c6","ios":"levelo://app?vid=76062e80-6a87-46b1-b60e-aaf51d1cf9c6"},"vehicle_type_id":"4","last_reported":1702955256,"current_range_meters":32000,"station_id":"ce4bgv12rcd13ifvqcp0","pricing_plan_id":"free"},{"bike_id":"1ec2aa85-b3c2-4892-aef4-f5788c839bdf","system_id":"levelo_inurba_marseille","lat":43.311722,"lon":5.387247,"is_reserved":false,"is_disabled":false,"rental_uris":{"android":"levelo://app?vid=1ec2aa85-b3c2-4892-aef4-f5788c839bdf","ios":"levelo://app?vid=1ec2aa85-b3c2-4892-aef4-f5788c839bdf"},"vehicle_type_id":"4","last_reported":1702955256,"current_range_meters":22400,"station_id":"ce4bgv12rcd13ifvqcp0","pricing_plan_id":"free"},{"bike_id":"6f57a14d-b470-4f7c-bca2-82eb616f4f27","system_id":"levelo_inurba_marseille","lat":43.29919,"lon":5.37475,"is_reserved":false,"is_disabled":false,"rental_uris":{"android":"levelo://app?vid=6f57a14d-b470-4f7c-bca2-82eb616f4f27","ios":"levelo://app?vid=6f57a14d-b470-4f7c-bca2-82eb616f4f27"},"vehicle_type_id":"4","last_reported":1702955256,"current_range_meters":31200,"station_id":"ce4bgjh2rcd13ifvqbg0","pricing_plan_id":"free"},{"bike_id":"8af0ad6e-4449-44e6-9e71-ec2ed513d8f9","system_id":"levelo_inurba_marseille","lat":43.311715,"lon":5.387148,"is_reserved":false,"is_disabled":false,"rental_uris":{"android":"levelo://app?vid=8af0ad6e-4449-44e6-9e71-ec2ed513d8f9","ios":"levelo://app?vid=8af0ad6e-4449-44e6-9e71-ec2ed513d8f9"},"vehicle_type_id":"4","last_reported":1702955256,"current_range_meters":15200,"station_id":"ce4bgv12rcd13ifvqcp0","pricing_plan_id":"free"},{"bike_id":"2c284692-b95a-4f3c-9178-b053b9c77987","system_id":"levelo_inurba_marseille","lat":43.311767,"lon":5.387189,"is_reserved":false,"is_disabled":false,"rental_uris":{"android":"levelo://app?vid=2c284692-b95a-4f3c-9178-b053b9c77987","ios":"levelo://app?vid=2c284692-b95a-4f3c-9178-b053b9c77987"},"vehicle_type_id":"4","last_reported":1702955256,"current_range_meters":30800,"station_id":"ce4bgv12rcd13ifvqcp0","pricing_plan_id":"free"},{"bike_id":"4adbba0b-fc9b-4160-9342-0b0c178b766a","system_id":"levelo_inurba_marseille","lat":43.311722,"lon":5.387247,"is_reserved":false,"is_disabled":false,"rental_uris":{"android":"levelo://app?vid=4adbba0b-fc9b-4160-9342-0b0c178b766a","ios":"levelo://app?vid=4adbba0b-fc9b-4160-9342-0b0c178b766a"},"vehicle_type_id":"4","last_reported":1702955256,"current_range_meters":23200,"station_id":"ce4bgv12rcd13ifvqcp0","pricing_plan_id":"free"},{"bike_id":"1c1970fc-c193-4798-9859-41c85aca96fb","system_id":"levelo_inurba_marseille","lat":43.311722,"lon":5.387247,"is_reserved":false,"is_disabled":false,"rental_uris":{"android":"levelo://app?vid=1c1970fc-c193-4798-9859-41c85aca96fb","ios":"levelo://app?vid=1c1970fc-c193-4798-9859-41c85aca96fb"},"vehicle_type_id":"4","last_reported":1702955256,"current_range_meters":15600,"station_id":"ce4bgv12rcd13ifvqcp0","pricing_plan_id":"free"},{"bike_id":"353f26c0-746e-4b51-b6bf-5138b753ffd7","system_id":"levelo_inurba_marseille","lat":43.297801,"lon":5.371119,"is_reserved":false,"is_disabled":false,"rental_uris":{"android":"levelo://app?vid=353f26c0-746e-4b51-b6bf-5138b753ffd7","ios":"levelo://app?vid=353f26c0-746e-4b51-b6bf-5138b753ffd7"},"vehicle_type_id":"4","last_reported":1702955256,"current_range_meters":29200,"station_id":"ce4bgop2rcd13ifvqc1g","pricing_plan_id":"free"},{"bike_id":"fdfec22a-2631-4465-8359-c5a7266ec589","system_id":"levelo_inurba_marseille","lat":43.322872,"lon":5.382756,"is_reserved":false,"is_disabled":false,"rental_uris":{"android":"levelo://app?vid=fdfec22a-2631-4465-8359-c5a7266ec589","ios":"levelo://app?vid=fdfec22a-2631-4465-8359-c5a7266ec589"},"vehicle_type_id":"4","last_reported":1702955256,"current_range_meters":30400,"station_id":"ce4bhr12rcd13ifvqhqg","pricing_plan_id":"free"},{"bike_id":"1447dae7-e960-40b3-a450-b6b8dcb71781","system_id":"levelo_inurba_marseille","lat":43.297163,"lon":5.365866,"is_reserved":false,"is_disabled":false,"rental_uris":{"android":"levelo://app?vid=1447dae7-e960-40b3-a450-b6b8dcb71781","ios":"levelo://app?vid=1447dae7-e960-40b3-a450-b6b8dcb71781"},"vehicle_type_id":"4","last_reported":1702955256,"current_range_meters":30800,"station_id":"ce4bgn12rcd13ifvqbt0","pricing_plan_id":"free"},{"bike_id":"54d24f2c-250d-4757-bf29-ca72513e66af","system_id":"levelo_inurba_marseille","lat":43.299028,"lon":5.381509,"is_reserved":false,"is_disabled":false,"rental_uris":{"android":"levelo://app?vid=54d24f2c-250d-4757-bf29-ca72513e66af","ios":"levelo://app?vid=54d24f2c-250d-4757-bf29-ca72513e66af"},"vehicle_type_id":"4","last_reported":1702955256,"current_range_meters":30000,"station_id":"ce4bgj12rcd13ifvqbc0","pricing_plan_id":"free"},{"bike_id":"0a48c117-52b3-4737-b76f-6251e800a675","system_id":"levelo_inurba_marseille","lat":43.309589,"lon":5.390258,"is_reserved":false,"is_disabled":false,"rental_uris":{"android":"levelo://app?vid=0a48c117-52b3-4737-b76f-6251e800a675","ios":"levelo://app?vid=0a48c117-52b3-4737-b76f-6251e800a675"},"vehicle_type_id":"4","last_reported":1702955256,"current_range_meters":30000,"station_id":"ce4bgup2rcd13ifvqco0","pricing_plan_id":"free"},{"bike_id":"4428e102-ea39-416f-b574-3800972c0d5f","system_id":"levelo_inurba_marseille","lat":43.317593,"lon":5.39012,"is_reserved":false,"is_disabled":false,"rental_uris":{"android":"levelo://app?vid=4428e102-ea39-416f-b574-3800972c0d5f","ios":"levelo://app?vid=4428e102-ea39-416f-b574-3800972c0d5f"},"vehicle_type_id":"4","last_reported":1702955256,"current_range_meters":10000,"station_id":"ce4bhqp2rcd13ifvqhng","pricing_plan_id":"free"},{"bike_id":"42c2d8af-14eb-4efa-ba8a-72cf1cfdc768","system_id":"levelo_inurba_marseille","lat":43.31759,"lon":5.39016,"is_reserved":false,"is_disabled":false,"rental_uris":{"android":"levelo://app?vid=42c2d8af-14eb-4efa-ba8a-72cf1cfdc768","ios":"levelo://app?vid=42c2d8af-14eb-4efa-ba8a-72cf1cfdc768"},"vehicle_type_id":"4","last_reported":1702955256,"current_range_meters":13600,"station_id":"ce4bhqp2rcd13ifvqhng","pricing_plan_id":"free"},{"bike_id":"87a57462-3037-4930-9a64-5b0af27f00a0","system_id":"levelo_inurba_marseille","lat":43.31753,"lon":5.3902,"is_reserved":false,"is_disabled":false,"rental_uris":{"android":"levelo://app?vid=87a57462-3037-4930-9a64-5b0af27f00a0","ios":"levelo://app?vid=87a57462-3037-4930-9a64-5b0af27f00a0"},"vehicle_type_id":"4","last_reported":1702955256,"current_range_meters":5200,"station_id":"ce4bhqp2rcd13ifvqhng","pricing_plan_id":"free"},{"bike_id":"0282ec99-3602-4aa7-ae88-479b49d898f4","system_id":"levelo_inurba_marseille","lat":43.317557,"lon":5.390173,"is_reserved":false,"is_disabled":false,"rental_uris":{"android":"levelo://app?vid=0282ec99-3602-4aa7-ae88-479b49d898f4","ios":"levelo://app?vid=0282ec99-3602-4aa7-ae88-479b49d898f4"},"vehicle_type_id":"4","last_reported":1702955256,"current_range_meters":27200,"station_id":"ce4bhqp2rcd13ifvqhng","pricing_plan_id":"free"},{"bike_id":"5a4f7764-3827-4a69-a748-197f19c32398","system_id":"levelo_inurba_marseille","lat":43.309589,"lon":5.390258,"is_reserved":false,"is_disabled":false,"rental_uris":{"android":"levelo://app?vid=5a4f7764-3827-4a69-a748-197f19c32398","ios":"levelo://app?vid=5a4f7764-3827-4a69-a748-197f19c32398"},"vehicle_type_id":"4","last_reported":1702955256,"current_range_meters":30000,"station_id":"ce4bgup2rcd13ifvqco0","pricing_plan_id":"free"},{"bike_id":"06cbcb96-d3c8-45f1-987f-8ba06e8f172e","system_id":"levelo_inurba_marseille","lat":43.31754,"lon":5.39028,"is_reserved":false,"is_disabled":false,"rental_uris":{"android":"levelo://app?vid=06cbcb96-d3c8-45f1-987f-8ba06e8f172e","ios":"levelo://app?vid=06cbcb96-d3c8-45f1-987f-8ba06e8f172e"},"vehicle_type_id":"4","last_reported":1702955256,"current_range_meters":31200,"station_id":"ce4bhqp2rcd13ifvqhng","pricing_plan_id":"free"},{"bike_id":"fc7a4dd8-8dbf-4f26-bc83-7c070bb369d3","system_id":"levelo_inurba_marseille","lat":43.29582,"lon":5.37505,"is_reserved":false,"is_disabled":false,"rental_uris":{"android":"levelo://app?vid=fc7a4dd8-8dbf-4f26-bc83-7c070bb369d3","ios":"levelo://app?vid=fc7a4dd8-8dbf-4f26-bc83-7c070bb369d3"},"vehicle_type_id":"4","last_reported":1702955256,"current_range_meters":13600,"station_id":"ce4bgh92rcd13ifvqb50","pricing_plan_id":"free"},{"bike_id":"05abe41f-4649-4b73-9254-b5708f7a2a35","system_id":"levelo_inurba_marseille","lat":43.304517,"lon":5.388897,"is_reserved":false,"is_disabled":false,"rental_uris":{"android":"levelo://app?vid=05abe41f-4649-4b73-9254-b5708f7a2a35","ios":"levelo://app?vid=05abe41f-4649-4b73-9254-b5708f7a2a35"},"vehicle_type_id":"4","last_reported":1702955256,"current_range_meters":30800,"station_id":"ce4bgk12rcd13ifvqbi0","pricing_plan_id":"free"},{"bike_id":"307349d1-f894-451a-ad67-d9e99135d908","system_id":"levelo_inurba_marseille","lat":43.2957,"lon":5.37493,"is_reserved":false,"is_disabled":false,"rental_uris":{"android":"levelo://app?vid=307349d1-f894-451a-ad67-d9e99135d908","ios":"levelo://app?vid=307349d1-f894-451a-ad67-d9e99135d908"},"vehicle_type_id":"4","last_reported":1702955256,"current_range_meters":12800,"station_id":"ce4bgh92rcd13ifvqb50","pricing_plan_id":"free"},{"bike_id":"097d69ef-8554-475d-968c-c43a995148ed","system_id":"levelo_inurba_marseille","lat":43.30429,"lon":5.38884,"is_reserved":false,"is_disabled":false,"rental_uris":{"android":"levelo://app?vid=097d69ef-8554-475d-968c-c43a995148ed","ios":"levelo://app?vid=097d69ef-8554-475d-968c-c43a995148ed"},"vehicle_type_id":"4","last_reported":1702955256,"current_range_meters":30400,"station_id":"ce4bgk12rcd13ifvqbi0","pricing_plan_id":"free"},{"bike_id":"1c59f977-abcc-4cad-8b62-c70bb2afd172","system_id":"levelo_inurba_marseille","lat":43.29971,"lon":5.38491,"is_reserved":false,"is_disabled":false,"rental_uris":{"android":"levelo://app?vid=1c59f977-abcc-4cad-8b62-c70bb2afd172","ios":"levelo://app?vid=1c59f977-abcc-4cad-8b62-c70bb2afd172"},"vehicle_type_id":"4","last_reported":1702955256,"current_range_meters":31200,"station_id":"ce4bgj92rcd13ifvqbd0","pricing_plan_id":"free"},{"bike_id":"afac3d3b-f54f-46fc-b7a8-7a64729f0504","system_id":"levelo_inurba_marseille","lat":43.29971,"lon":5.38519,"is_reserved":false,"is_disabled":false,"rental_uris":{"android":"levelo://app?vid=afac3d3b-f54f-46fc-b7a8-7a64729f0504","ios":"levelo://app?vid=afac3d3b-f54f-46fc-b7a8-7a64729f0504"},"vehicle_type_id":"4","last_reported":1702955256,"current_range_meters":30000,"station_id":"ce4bgj92rcd13ifvqbd0","pricing_plan_id":"free"},{"bike_id":"6d6a6d57-ad07-4cee-a47d-371a5fe893ca","system_id":"levelo_inurba_marseille","lat":43.296359,"lon":5.379949,"is_reserved":false,"is_disabled":false,"rental_uris":{"android":"levelo://app?vid=6d6a6d57-ad07-4cee-a47d-371a5fe893ca","ios":"levelo://app?vid=6d6a6d57-ad07-4cee-a47d-371a5fe893ca"},"vehicle_type_id":"4","last_reported":1702955256,"current_range_meters":18800,"station_id":"","pricing_plan_id":"free"},{"bike_id":"21a5b8b4-0dd3-4380-8344-3eeda9b054c5","system_id":"levelo_inurba_marseille","lat":43.29292,"lon":5.36835,"is_reserved":false,"is_disabled":false,"rental_uris":{"android":"levelo://app?vid=21a5b8b4-0dd3-4380-8344-3eeda9b054c5","ios":"levelo://app?vid=21a5b8b4-0dd3-4380-8344-3eeda9b054c5"},"vehicle_type_id":"4","last_reported":1702955256,"current_range_meters":30800,"station_id":"ce4bhbp2rcd13ifvqesg","pricing_plan_id":"free"},{"bike_id":"179c9936-2411-4439-b521-8a5a59138294","system_id":"levelo_inurba_marseille","lat":43.303002,"lon":5.392142,"is_reserved":false,"is_disabled":false,"rental_uris":{"android":"levelo://app?vid=179c9936-2411-4439-b521-8a5a59138294","ios":"levelo://app?vid=179c9936-2411-4439-b521-8a5a59138294"},"vehicle_type_id":"4","last_reported":1702955256,"current_range_meters":28000,"station_id":"ce4bgkh2rcd13ifvqbk0","pricing_plan_id":"free"},{"bike_id":"ddcbad06-d251-4f58-b97a-608479d5cdb8","system_id":"levelo_inurba_marseille","lat":43.292311,"lon":5.360731,"is_reserved":false,"is_disabled":false,"rental_uris":{"android":"levelo://app?vid=ddcbad06-d251-4f58-b97a-608479d5cdb8","ios":"levelo://app?vid=ddcbad06-d251-4f58-b97a-608479d5cdb8"},"vehicle_type_id":"4","last_reported":1702955256,"current_range_meters":27600,"station_id":"ce4bhbh2rcd13ifvqeqg","pricing_plan_id":"free"},{"bike_id":"8a74bf68-99c0-45d1-9c09-0a154d666ecd","system_id":"levelo_inurba_marseille","lat":43.30094,"lon":5.39087,"is_reserved":false,"is_disabled":false,"rental_uris":{"android":"levelo://app?vid=8a74bf68-99c0-45d1-9c09-0a154d666ecd","ios":"levelo://app?vid=8a74bf68-99c0-45d1-9c09-0a154d666ecd"},"vehicle_type_id":"4","last_reported":1702955256,"current_range_meters":30400,"station_id":"ce4bh192rcd13ifvqdb0","pricing_plan_id":"free"},{"bike_id":"fd2a756e-d1f4-449b-bee6-1124f1a1e828","system_id":"levelo_inurba_marseille","lat":43.29868,"lon":5.38916,"is_reserved":false,"is_disabled":false,"rental_uris":{"android":"levelo://app?vid=fd2a756e-d1f4-449b-bee6-1124f1a1e828","ios":"levelo://app?vid=fd2a756e-d1f4-449b-bee6-1124f1a1e828"},"vehicle_type_id":"4","last_reported":1702955256,"current_range_meters":0,"station_id":"","pricing_plan_id":"free"},{"bike_id":"625aefc7-aac6-40b9-9a3b-da9c1d797085","system_id":"levelo_inurba_marseille","lat":43.29196,"lon":5.35822,"is_reserved":false,"is_disabled":false,"rental_uris":{"android":"levelo://app?vid=625aefc7-aac6-40b9-9a3b-da9c1d797085","ios":"levelo://app?vid=625aefc7-aac6-40b9-9a3b-da9c1d797085"},"vehicle_type_id":"4","last_reported":1702955256,"current_range_meters":18400,"station_id":"ce4bhb12rcd13ifvqel0","pricing_plan_id":"free"},{"bike_id":"8ee2dc94-f4db-46f4-8f2e-7a6a35c20170","system_id":"levelo_inurba_marseille","lat":43.29195,"lon":5.35804,"is_reserved":false,"is_disabled":false,"rental_uris":{"android":"levelo://app?vid=8ee2dc94-f4db-46f4-8f2e-7a6a35c20170","ios":"levelo://app?vid=8ee2dc94-f4db-46f4-8f2e-7a6a35c20170"},"vehicle_type_id":"4","last_reported":1702955256,"current_range_meters":28800,"station_id":"ce4bhb12rcd13ifvqel0","pricing_plan_id":"free"},{"bike_id":"edea3fc4-52b1-429c-842b-dcc22fff2147","system_id":"levelo_inurba_marseille","lat":43.309047,"lon":5.396551,"is_reserved":false,"is_disabled":false,"rental_uris":{"android":"levelo://app?vid=edea3fc4-52b1-429c-842b-dcc22fff2147","ios":"levelo://app?vid=edea3fc4-52b1-429c-842b-dcc22fff2147"},"vehicle_type_id":"4","last_reported":1702955256,"current_range_meters":31200,"station_id":"ce4bh012rcd13ifvqcv0","pricing_plan_id":"free"},{"bike_id":"05bbbc02-f656-4443-b403-be27c2234386","system_id":"levelo_inurba_marseille","lat":43.309047,"lon":5.396551,"is_reserved":false,"is_disabled":false,"rental_uris":{"android":"levelo://app?vid=05bbbc02-f656-4443-b403-be27c2234386","ios":"levelo://app?vid=05bbbc02-f656-4443-b403-be27c2234386"},"vehicle_type_id":"4","last_reported":1702955256,"current_range_meters":19600,"station_id":"ce4bh012rcd13ifvqcv0","pricing_plan_id":"free"},{"bike_id":"b14fbea6-0759-4344-a5f4-b0e69a7911c3","system_id":"levelo_inurba_marseille","lat":43.309038,"lon":5.396546,"is_reserved":false,"is_disabled":false,"rental_uris":{"android":"levelo://app?vid=b14fbea6-0759-4344-a5f4-b0e69a7911c3","ios":"levelo://app?vid=b14fbea6-0759-4344-a5f4-b0e69a7911c3"},"vehicle_type_id":"4","last_reported":1702955256,"current_range_meters":30000,"station_id":"ce4bh012rcd13ifvqcv0","pricing_plan_id":"free"},{"bike_id":"b6e1110b-ee14-43a7-a3f4-01b42aaccf9e","system_id":"levelo_inurba_marseille","lat":43.291933,"lon":5.357985,"is_reserved":false,"is_disabled":false,"rental_uris":{"android":"levelo://app?vid=b6e1110b-ee14-43a7-a3f4-01b42aaccf9e","ios":"levelo://app?vid=b6e1110b-ee14-43a7-a3f4-01b42aaccf9e"},"vehicle_type_id":"4","last_reported":1702955256,"current_range_meters":10000,"station_id":"ce4bhb12rcd13ifvqel0","pricing_plan_id":"free"},{"bike_id":"a77d389d-e4eb-40bc-91fc-63843fd68a50","system_id":"levelo_inurba_marseille","lat":43.313291,"lon":5.396838,"is_reserved":false,"is_disabled":false,"rental_uris":{"android":"levelo://app?vid=a77d389d-e4eb-40bc-91fc-63843fd68a50","ios":"levelo://app?vid=a77d389d-e4eb-40bc-91fc-63843fd68a50"},"vehicle_type_id":"4","last_reported":1702955256,"current_range_meters":15200,"station_id":"ce4bgvp2rcd13ifvqcu0","pricing_plan_id":"free"},{"bike_id":"65d55de1-47f6-4ac2-9b82-26cb1b9aa3ff","system_id":"levelo_inurba_marseille","lat":43.309038,"lon":5.396546,"is_reserved":false,"is_disabled":false,"rental_uris":{"android":"levelo://app?vid=65d55de1-47f6-4ac2-9b82-26cb1b9aa3ff","ios":"levelo://app?vid=65d55de1-47f6-4ac2-9b82-26cb1b9aa3ff"},"vehicle_type_id":"4","last_reported":1702955256,"current_range_meters":31200,"station_id":"ce4bh012rcd13ifvqcv0","pricing_plan_id":"free"},{"bike_id":"964b4200-a8d6-41c3-bbbc-264dc15cf1c7","system_id":"levelo_inurba_marseille","lat":43.309038,"lon":5.396546,"is_reserved":false,"is_disabled":false,"rental_uris":{"android":"levelo://app?vid=964b4200-a8d6-41c3-bbbc-264dc15cf1c7","ios":"levelo://app?vid=964b4200-a8d6-41c3-bbbc-264dc15cf1c7"},"vehicle_type_id":"4","last_reported":1702955256,"current_range_meters":17200,"station_id":"ce4bh012rcd13ifvqcv0","pricing_plan_id":"free"},{"bike_id":"22e1549d-ce46-4986-9e0a-d72cb8756c04","system_id":"levelo_inurba_marseille","lat":43.309047,"lon":5.396551,"is_reserved":false,"is_disabled":false,"rental_uris":{"android":"levelo://app?vid=22e1549d-ce46-4986-9e0a-d72cb8756c04","ios":"levelo://app?vid=22e1549d-ce46-4986-9e0a-d72cb8756c04"},"vehicle_type_id":"4","last_reported":1702955256,"current_range_meters":30800,"station_id":"ce4bh012rcd13ifvqcv0","pricing_plan_id":"free"},{"bike_id":"3918f699-a004-4479-a709-b120a55b184f","system_id":"levelo_inurba_marseille","lat":43.309047,"lon":5.396551,"is_reserved":false,"is_disabled":false,"rental_uris":{"android":"levelo://app?vid=3918f699-a004-4479-a709-b120a55b184f","ios":"levelo://app?vid=3918f699-a004-4479-a709-b120a55b184f"},"vehicle_type_id":"4","last_reported":1702955256,"current_range_meters":23600,"station_id":"ce4bh012rcd13ifvqcv0","pricing_plan_id":"free"},{"bike_id":"d22b16b0-f4fb-404b-a806-56bc6554f8d6","system_id":"levelo_inurba_marseille","lat":43.309038,"lon":5.396546,"is_reserved":false,"is_disabled":false,"rental_uris":{"android":"levelo://app?vid=d22b16b0-f4fb-404b-a806-56bc6554f8d6","ios":"levelo://app?vid=d22b16b0-f4fb-404b-a806-56bc6554f8d6"},"vehicle_type_id":"4","last_reported":1702955256,"current_range_meters":28000,"station_id":"ce4bh012rcd13ifvqcv0","pricing_plan_id":"free"},{"bike_id":"c0ca9134-b43b-489c-be60-600d72dd47f6","system_id":"levelo_inurba_marseille","lat":43.313291,"lon":5.396838,"is_reserved":false,"is_disabled":false,"rental_uris":{"android":"levelo://app?vid=c0ca9134-b43b-489c-be60-600d72dd47f6","ios":"levelo://app?vid=c0ca9134-b43b-489c-be60-600d72dd47f6"},"vehicle_type_id":"4","last_reported":1702955256,"current_range_meters":21600,"station_id":"ce4bgvp2rcd13ifvqcu0","pricing_plan_id":"free"},{"bike_id":"6d217542-d0db-4609-856e-5f80e7859336","system_id":"levelo_inurba_marseille","lat":43.31325,"lon":5.39703,"is_reserved":false,"is_disabled":false,"rental_uris":{"android":"levelo://app?vid=6d217542-d0db-4609-856e-5f80e7859336","ios":"levelo://app?vid=6d217542-d0db-4609-856e-5f80e7859336"},"vehicle_type_id":"4","last_reported":1702955256,"current_range_meters":30400,"station_id":"ce4bgvp2rcd13ifvqcu0","pricing_plan_id":"free"},{"bike_id":"c961af53-7fd3-4dd8-bbd0-e8b14532c899","system_id":"levelo_inurba_marseille","lat":43.309038,"lon":5.396546,"is_reserved":false,"is_disabled":false,"rental_uris":{"android":"levelo://app?vid=c961af53-7fd3-4dd8-bbd0-e8b14532c899","ios":"levelo://app?vid=c961af53-7fd3-4dd8-bbd0-e8b14532c899"},"vehicle_type_id":"4","last_reported":1702955256,"current_range_meters":28800,"station_id":"ce4bh012rcd13ifvqcv0","pricing_plan_id":"free"},{"bike_id":"174741c1-152f-4ec6-b75a-ac5666439a13","system_id":"levelo_inurba_marseille","lat":43.313291,"lon":5.396838,"is_reserved":false,"is_disabled":false,"rental_uris":{"android":"levelo://app?vid=174741c1-152f-4ec6-b75a-ac5666439a13","ios":"levelo://app?vid=174741c1-152f-4ec6-b75a-ac5666439a13"},"vehicle_type_id":"4","last_reported":1702955256,"current_range_meters":31600,"station_id":"ce4bgvp2rcd13ifvqcu0","pricing_plan_id":"free"},{"bike_id":"cd6de520-374f-4eec-89c7-0591f4562352","system_id":"levelo_inurba_marseille","lat":43.313291,"lon":5.396838,"is_reserved":false,"is_disabled":false,"rental_uris":{"android":"levelo://app?vid=cd6de520-374f-4eec-89c7-0591f4562352","ios":"levelo://app?vid=cd6de520-374f-4eec-89c7-0591f4562352"},"vehicle_type_id":"4","last_reported":1702955256,"current_range_meters":31200,"station_id":"ce4bgvp2rcd13ifvqcu0","pricing_plan_id":"free"},{"bike_id":"1698e2ff-d584-4d64-af4c-9cfc03624f5e","system_id":"levelo_inurba_marseille","lat":43.313291,"lon":5.396838,"is_reserved":false,"is_disabled":false,"rental_uris":{"android":"levelo://app?vid=1698e2ff-d584-4d64-af4c-9cfc03624f5e","ios":"levelo://app?vid=1698e2ff-d584-4d64-af4c-9cfc03624f5e"},"vehicle_type_id":"4","last_reported":1702955256,"current_range_meters":26400,"station_id":"ce4bgvp2rcd13ifvqcu0","pricing_plan_id":"free"},{"bike_id":"80ec2f92-4ab4-451b-91b5-12fd282d5ae8","system_id":"levelo_inurba_marseille","lat":43.290779,"lon":5.371482,"is_reserved":false,"is_disabled":false,"rental_uris":{"android":"levelo://app?vid=80ec2f92-4ab4-451b-91b5-12fd282d5ae8","ios":"levelo://app?vid=80ec2f92-4ab4-451b-91b5-12fd282d5ae8"},"vehicle_type_id":"4","last_reported":1702955256,"current_range_meters":30400,"station_id":"ce4bh5p2rcd13ifvqe4g","pricing_plan_id":"free"},{"bike_id":"7476726c-490b-4f01-a734-c02d8ef22e70","system_id":"levelo_inurba_marseille","lat":43.290779,"lon":5.371482,"is_reserved":false,"is_disabled":false,"rental_uris":{"android":"levelo://app?vid=7476726c-490b-4f01-a734-c02d8ef22e70","ios":"levelo://app?vid=7476726c-490b-4f01-a734-c02d8ef22e70"},"vehicle_type_id":"4","last_reported":1702955256,"current_range_meters":29600,"station_id":"ce4bh5p2rcd13ifvqe4g","pricing_plan_id":"free"},{"bike_id":"aad09059-cce5-452a-97fe-71182fafd345","system_id":"levelo_inurba_marseille","lat":43.290631,"lon":5.359244,"is_reserved":false,"is_disabled":false,"rental_uris":{"android":"levelo://app?vid=aad09059-cce5-452a-97fe-71182fafd345","ios":"levelo://app?vid=aad09059-cce5-452a-97fe-71182fafd345"},"vehicle_type_id":"4","last_reported":1702955256,"current_range_meters":23600,"station_id":"ce4bha92rcd13ifvqeg0","pricing_plan_id":"free"},{"bike_id":"d9a91a92-7a83-471f-9564-13edb88d7df5","system_id":"levelo_inurba_marseille","lat":43.290624,"lon":5.359245,"is_reserved":false,"is_disabled":false,"rental_uris":{"android":"levelo://app?vid=d9a91a92-7a83-471f-9564-13edb88d7df5","ios":"levelo://app?vid=d9a91a92-7a83-471f-9564-13edb88d7df5"},"vehicle_type_id":"4","last_reported":1702955256,"current_range_meters":31200,"station_id":"ce4bha92rcd13ifvqeg0","pricing_plan_id":"free"},{"bike_id":"a6461a42-6143-479e-9c91-9d921390be74","system_id":"levelo_inurba_marseille","lat":43.290631,"lon":5.359244,"is_reserved":false,"is_disabled":false,"rental_uris":{"android":"levelo://app?vid=a6461a42-6143-479e-9c91-9d921390be74","ios":"levelo://app?vid=a6461a42-6143-479e-9c91-9d921390be74"},"vehicle_type_id":"4","last_reported":1702955256,"current_range_meters":27200,"station_id":"ce4bha92rcd13ifvqeg0","pricing_plan_id":"free"},{"bike_id":"ca62dbcd-b9ad-422d-86cc-bc26dd93f41b","system_id":"levelo_inurba_marseille","lat":43.289184,"lon":5.366408,"is_reserved":false,"is_disabled":false,"rental_uris":{"android":"levelo://app?vid=ca62dbcd-b9ad-422d-86cc-bc26dd93f41b","ios":"levelo://app?vid=ca62dbcd-b9ad-422d-86cc-bc26dd93f41b"},"vehicle_type_id":"4","last_reported":1702955256,"current_range_meters":27600,"station_id":"ce4bhap2rcd13ifvqek0","pricing_plan_id":"free"},{"bike_id":"a8a9d169-696c-45eb-a747-8dcc04378bf4","system_id":"levelo_inurba_marseille","lat":43.290624,"lon":5.359245,"is_reserved":false,"is_disabled":false,"rental_uris":{"android":"levelo://app?vid=a8a9d169-696c-45eb-a747-8dcc04378bf4","ios":"levelo://app?vid=a8a9d169-696c-45eb-a747-8dcc04378bf4"},"vehicle_type_id":"4","last_reported":1702955256,"current_range_meters":17200,"station_id":"ce4bha92rcd13ifvqeg0","pricing_plan_id":"free"},{"bike_id":"97ec3884-730c-4a7a-85a2-7631cf9f806e","system_id":"levelo_inurba_marseille","lat":43.289468,"lon":5.363719,"is_reserved":false,"is_disabled":false,"rental_uris":{"android":"levelo://app?vid=97ec3884-730c-4a7a-85a2-7631cf9f806e","ios":"levelo://app?vid=97ec3884-730c-4a7a-85a2-7631cf9f806e"},"vehicle_type_id":"4","last_reported":1702955256,"current_range_meters":31200,"station_id":"ce4bhc92rcd13ifvqetg","pricing_plan_id":"free"},{"bike_id":"dcb0dc67-f038-420f-a8a9-4adb190ce908","system_id":"levelo_inurba_marseille","lat":43.289468,"lon":5.363719,"is_reserved":false,"is_disabled":false,"rental_uris":{"android":"levelo://app?vid=dcb0dc67-f038-420f-a8a9-4adb190ce908","ios":"levelo://app?vid=dcb0dc67-f038-420f-a8a9-4adb190ce908"},"vehicle_type_id":"4","last_reported":1702955256,"current_range_meters":19200,"station_id":"ce4bhc92rcd13ifvqetg","pricing_plan_id":"free"},{"bike_id":"a4d2ffc5-636f-473c-aacd-eb8c8a0ec406","system_id":"levelo_inurba_marseille","lat":43.304274,"lon":5.397513,"is_reserved":false,"is_disabled":false,"rental_uris":{"android":"levelo://app?vid=a4d2ffc5-636f-473c-aacd-eb8c8a0ec406","ios":"levelo://app?vid=a4d2ffc5-636f-473c-aacd-eb8c8a0ec406"},"vehicle_type_id":"4","last_reported":1702955256,"current_range_meters":22800,"station_id":"ce4bh092rcd13ifvqd20","pricing_plan_id":"free"},{"bike_id":"ee1c9179-d97e-4f76-b51c-6c911b5ac93b","system_id":"levelo_inurba_marseille","lat":43.304274,"lon":5.397513,"is_reserved":false,"is_disabled":false,"rental_uris":{"android":"levelo://app?vid=ee1c9179-d97e-4f76-b51c-6c911b5ac93b","ios":"levelo://app?vid=ee1c9179-d97e-4f76-b51c-6c911b5ac93b"},"vehicle_type_id":"4","last_reported":1702955256,"current_range_meters":30000,"station_id":"ce4bh092rcd13ifvqd20","pricing_plan_id":"free"},{"bike_id":"6059fe3e-4010-4f17-8830-6eb6010f603f","system_id":"levelo_inurba_marseille","lat":43.33041,"lon":5.38911,"is_reserved":false,"is_disabled":false,"rental_uris":{"android":"levelo://app?vid=6059fe3e-4010-4f17-8830-6eb6010f603f","ios":"levelo://app?vid=6059fe3e-4010-4f17-8830-6eb6010f603f"},"vehicle_type_id":"4","last_reported":1702955256,"current_range_meters":8800,"station_id":"ce4bhr92rcd13ifvqhrg","pricing_plan_id":"free"},{"bike_id":"cdbc94b5-8e5e-4f4f-8aa0-ff814addd553","system_id":"levelo_inurba_marseille","lat":43.290103,"lon":5.356114,"is_reserved":false,"is_disabled":false,"rental_uris":{"android":"levelo://app?vid=cdbc94b5-8e5e-4f4f-8aa0-ff814addd553","ios":"levelo://app?vid=cdbc94b5-8e5e-4f4f-8aa0-ff814addd553"},"vehicle_type_id":"4","last_reported":1702955256,"current_range_meters":24800,"station_id":"ce4bhb92rcd13ifvqen0","pricing_plan_id":"free"},{"bike_id":"f7bbba9b-b662-451c-93c5-7ba5d21e8b5f","system_id":"levelo_inurba_marseille","lat":43.330442,"lon":5.389148,"is_reserved":false,"is_disabled":false,"rental_uris":{"android":"levelo://app?vid=f7bbba9b-b662-451c-93c5-7ba5d21e8b5f","ios":"levelo://app?vid=f7bbba9b-b662-451c-93c5-7ba5d21e8b5f"},"vehicle_type_id":"4","last_reported":1702955256,"current_range_meters":800,"station_id":"ce4bhr92rcd13ifvqhrg","pricing_plan_id":"free"},{"bike_id":"49deca86-6a3e-4126-adeb-d0fbf908f040","system_id":"levelo_inurba_marseille","lat":43.33074,"lon":5.38932,"is_reserved":false,"is_disabled":false,"rental_uris":{"android":"levelo://app?vid=49deca86-6a3e-4126-adeb-d0fbf908f040","ios":"levelo://app?vid=49deca86-6a3e-4126-adeb-d0fbf908f040"},"vehicle_type_id":"4","last_reported":1702955256,"current_range_meters":19200,"station_id":"ce4bhr92rcd13ifvqhrg","pricing_plan_id":"free"},{"bike_id":"72bfe50a-b8a2-4b9d-816c-7644ba9275e6","system_id":"levelo_inurba_marseille","lat":43.29504,"lon":5.39031,"is_reserved":false,"is_disabled":false,"rental_uris":{"android":"levelo://app?vid=72bfe50a-b8a2-4b9d-816c-7644ba9275e6","ios":"levelo://app?vid=72bfe50a-b8a2-4b9d-816c-7644ba9275e6"},"vehicle_type_id":"4","last_reported":1702955256,"current_range_meters":30800,"station_id":"ce4bh3p2rcd13ifvqdp0","pricing_plan_id":"free"},{"bike_id":"590d4993-edf6-4c87-9279-264b079b6eb1","system_id":"levelo_inurba_marseille","lat":43.309371,"lon":5.401449,"is_reserved":false,"is_disabled":false,"rental_uris":{"android":"levelo://app?vid=590d4993-edf6-4c87-9279-264b079b6eb1","ios":"levelo://app?vid=590d4993-edf6-4c87-9279-264b079b6eb1"},"vehicle_type_id":"4","last_reported":1702955256,"current_range_meters":29600,"station_id":"ce4bgvp2rcd13ifvqct0","pricing_plan_id":"free"},{"bike_id":"4a91e765-981b-4c0c-88d4-66b4c9bdcd1f","system_id":"levelo_inurba_marseille","lat":43.28727,"lon":5.36078,"is_reserved":false,"is_disabled":false,"rental_uris":{"android":"levelo://app?vid=4a91e765-981b-4c0c-88d4-66b4c9bdcd1f","ios":"levelo://app?vid=4a91e765-981b-4c0c-88d4-66b4c9bdcd1f"},"vehicle_type_id":"4","last_reported":1702955256,"current_range_meters":30000,"station_id":"cki0cbj6b192h4jlfktg","pricing_plan_id":"free"},{"bike_id":"c661a072-1c92-4a2f-b878-275e385bc2e6","system_id":"levelo_inurba_marseille","lat":43.309371,"lon":5.401449,"is_reserved":false,"is_disabled":false,"rental_uris":{"android":"levelo://app?vid=c661a072-1c92-4a2f-b878-275e385bc2e6","ios":"levelo://app?vid=c661a072-1c92-4a2f-b878-275e385bc2e6"},"vehicle_type_id":"4","last_reported":1702955256,"current_range_meters":29600,"station_id":"ce4bgvp2rcd13ifvqct0","pricing_plan_id":"free"},{"bike_id":"33f44c2f-f1d0-4ce2-a250-6ca678a52db7","system_id":"levelo_inurba_marseille","lat":43.30642,"lon":5.401031,"is_reserved":false,"is_disabled":false,"rental_uris":{"android":"levelo://app?vid=33f44c2f-f1d0-4ce2-a250-6ca678a52db7","ios":"levelo://app?vid=33f44c2f-f1d0-4ce2-a250-6ca678a52db7"},"vehicle_type_id":"4","last_reported":1702955256,"current_range_meters":28400,"station_id":"ce4bh112rcd13ifvqda0","pricing_plan_id":"free"},{"bike_id":"c12df7c7-68e5-4503-96c7-e2da33e21381","system_id":"levelo_inurba_marseille","lat":43.33763,"lon":5.37439,"is_reserved":false,"is_disabled":false,"rental_uris":{"android":"levelo://app?vid=c12df7c7-68e5-4503-96c7-e2da33e21381","ios":"levelo://app?vid=c12df7c7-68e5-4503-96c7-e2da33e21381"},"vehicle_type_id":"4","last_reported":1702955256,"current_range_meters":10800,"station_id":"","pricing_plan_id":"free"},{"bike_id":"990b2aee-4201-4473-8e0d-62107891982f","system_id":"levelo_inurba_marseille","lat":43.309371,"lon":5.401449,"is_reserved":false,"is_disabled":false,"rental_uris":{"android":"levelo://app?vid=990b2aee-4201-4473-8e0d-62107891982f","ios":"levelo://app?vid=990b2aee-4201-4473-8e0d-62107891982f"},"vehicle_type_id":"4","last_reported":1702955256,"current_range_meters":29600,"station_id":"ce4bgvp2rcd13ifvqct0","pricing_plan_id":"free"},{"bike_id":"c4d08f54-5b62-44b1-97ff-3c2fa2b06173","system_id":"levelo_inurba_marseille","lat":43.3094,"lon":5.40166,"is_reserved":false,"is_disabled":false,"rental_uris":{"android":"levelo://app?vid=c4d08f54-5b62-44b1-97ff-3c2fa2b06173","ios":"levelo://app?vid=c4d08f54-5b62-44b1-97ff-3c2fa2b06173"},"vehicle_type_id":"4","last_reported":1702955256,"current_range_meters":18000,"station_id":"ce4bgvp2rcd13ifvqct0","pricing_plan_id":"free"},{"bike_id":"daae1805-6410-43fe-9e4f-086c301877a8","system_id":"levelo_inurba_marseille","lat":43.337623,"lon":5.374587,"is_reserved":false,"is_disabled":false,"rental_uris":{"android":"levelo://app?vid=daae1805-6410-43fe-9e4f-086c301877a8","ios":"levelo://app?vid=daae1805-6410-43fe-9e4f-086c301877a8"},"vehicle_type_id":"4","last_reported":1702955256,"current_range_meters":26800,"station_id":"","pricing_plan_id":"free"},{"bike_id":"876d081f-3254-4bf6-acc1-34b25744ab42","system_id":"levelo_inurba_marseille","lat":43.309371,"lon":5.401449,"is_reserved":false,"is_disabled":false,"rental_uris":{"android":"levelo://app?vid=876d081f-3254-4bf6-acc1-34b25744ab42","ios":"levelo://app?vid=876d081f-3254-4bf6-acc1-34b25744ab42"},"vehicle_type_id":"4","last_reported":1702955256,"current_range_meters":30400,"station_id":"ce4bgvp2rcd13ifvqct0","pricing_plan_id":"free"},{"bike_id":"32fa00e9-4fc3-4042-80c9-c65d5267261e","system_id":"levelo_inurba_marseille","lat":43.30927,"lon":5.40179,"is_reserved":false,"is_disabled":false,"rental_uris":{"android":"levelo://app?vid=32fa00e9-4fc3-4042-80c9-c65d5267261e","ios":"levelo://app?vid=32fa00e9-4fc3-4042-80c9-c65d5267261e"},"vehicle_type_id":"4","last_reported":1702955256,"current_range_meters":24800,"station_id":"ce4bgvp2rcd13ifvqct0","pricing_plan_id":"free"},{"bike_id":"99fe8ecf-d3aa-47f6-a764-cb1470af4ffe","system_id":"levelo_inurba_marseille","lat":43.306412,"lon":5.401035,"is_reserved":false,"is_disabled":false,"rental_uris":{"android":"levelo://app?vid=99fe8ecf-d3aa-47f6-a764-cb1470af4ffe","ios":"levelo://app?vid=99fe8ecf-d3aa-47f6-a764-cb1470af4ffe"},"vehicle_type_id":"4","last_reported":1702955256,"current_range_meters":30000,"station_id":"ce4bh112rcd13ifvqda0","pricing_plan_id":"free"},{"bike_id":"c3a5742d-3e02-4d3d-957a-8c5325c8ce1f","system_id":"levelo_inurba_marseille","lat":43.30146,"lon":5.39878,"is_reserved":false,"is_disabled":false,"rental_uris":{"android":"levelo://app?vid=c3a5742d-3e02-4d3d-957a-8c5325c8ce1f","ios":"levelo://app?vid=c3a5742d-3e02-4d3d-957a-8c5325c8ce1f"},"vehicle_type_id":"4","last_reported":1702955256,"current_range_meters":26800,"station_id":"ce4bh0h2rcd13ifvqd40","pricing_plan_id":"free"},{"bike_id":"eb67a72b-f6ec-4a8d-83a1-4ec98467e782","system_id":"levelo_inurba_marseille","lat":43.28727,"lon":5.36078,"is_reserved":false,"is_disabled":false,"rental_uris":{"android":"levelo://app?vid=eb67a72b-f6ec-4a8d-83a1-4ec98467e782","ios":"levelo://app?vid=eb67a72b-f6ec-4a8d-83a1-4ec98467e782"},"vehicle_type_id":"4","last_reported":1702955256,"current_range_meters":28400,"station_id":"cki0cbj6b192h4jlfktg","pricing_plan_id":"free"},{"bike_id":"03e08767-3ab4-424f-866c-00e1c4b058f6","system_id":"levelo_inurba_marseille","lat":43.301117,"lon":5.398795,"is_reserved":false,"is_disabled":false,"rental_uris":{"android":"levelo://app?vid=03e08767-3ab4-424f-866c-00e1c4b058f6","ios":"levelo://app?vid=03e08767-3ab4-424f-866c-00e1c4b058f6"},"vehicle_type_id":"4","last_reported":1702955256,"current_range_meters":31600,"station_id":"ce4bh0h2rcd13ifvqd40","pricing_plan_id":"free"},{"bike_id":"aa4ef0e3-1971-4002-b57c-84788673b7f6","system_id":"levelo_inurba_marseille","lat":43.28727,"lon":5.36078,"is_reserved":false,"is_disabled":false,"rental_uris":{"android":"levelo://app?vid=aa4ef0e3-1971-4002-b57c-84788673b7f6","ios":"levelo://app?vid=aa4ef0e3-1971-4002-b57c-84788673b7f6"},"vehicle_type_id":"4","last_reported":1702955256,"current_range_meters":30400,"station_id":"cki0cbj6b192h4jlfktg","pricing_plan_id":"free"},{"bike_id":"992f2973-73cf-44db-8bb3-f1e735d06098","system_id":"levelo_inurba_marseille","lat":43.28727,"lon":5.36078,"is_reserved":false,"is_disabled":false,"rental_uris":{"android":"levelo://app?vid=992f2973-73cf-44db-8bb3-f1e735d06098","ios":"levelo://app?vid=992f2973-73cf-44db-8bb3-f1e735d06098"},"vehicle_type_id":"4","last_reported":1702955256,"current_range_meters":31200,"station_id":"cki0cbj6b192h4jlfktg","pricing_plan_id":"free"},{"bike_id":"de9733b1-5b38-4628-94d6-e8e216fe7556","system_id":"levelo_inurba_marseille","lat":43.28727,"lon":5.36078,"is_reserved":false,"is_disabled":false,"rental_uris":{"android":"levelo://app?vid=de9733b1-5b38-4628-94d6-e8e216fe7556","ios":"levelo://app?vid=de9733b1-5b38-4628-94d6-e8e216fe7556"},"vehicle_type_id":"4","last_reported":1702955256,"current_range_meters":28800,"station_id":"cki0cbj6b192h4jlfktg","pricing_plan_id":"free"},{"bike_id":"c809c584-a1fb-45d8-adcb-9949016e7757","system_id":"levelo_inurba_marseille","lat":43.28727,"lon":5.36078,"is_reserved":false,"is_disabled":false,"rental_uris":{"android":"levelo://app?vid=c809c584-a1fb-45d8-adcb-9949016e7757","ios":"levelo://app?vid=c809c584-a1fb-45d8-adcb-9949016e7757"},"vehicle_type_id":"4","last_reported":1702955256,"current_range_meters":18800,"station_id":"cki0cbj6b192h4jlfktg","pricing_plan_id":"free"},{"bike_id":"bcc7a062-dc7c-4f58-80c9-a7ae3793756d","system_id":"levelo_inurba_marseille","lat":43.301117,"lon":5.398795,"is_reserved":false,"is_disabled":false,"rental_uris":{"android":"levelo://app?vid=bcc7a062-dc7c-4f58-80c9-a7ae3793756d","ios":"levelo://app?vid=bcc7a062-dc7c-4f58-80c9-a7ae3793756d"},"vehicle_type_id":"4","last_reported":1702955256,"current_range_meters":28000,"station_id":"ce4bh0h2rcd13ifvqd40","pricing_plan_id":"free"},{"bike_id":"ec2e916b-79aa-41f7-a653-26b2f691a415","system_id":"levelo_inurba_marseille","lat":43.301117,"lon":5.398795,"is_reserved":false,"is_disabled":false,"rental_uris":{"android":"levelo://app?vid=ec2e916b-79aa-41f7-a653-26b2f691a415","ios":"levelo://app?vid=ec2e916b-79aa-41f7-a653-26b2f691a415"},"vehicle_type_id":"4","last_reported":1702955256,"current_range_meters":23600,"station_id":"ce4bh0h2rcd13ifvqd40","pricing_plan_id":"free"},{"bike_id":"254342b7-e932-426b-8736-7eb966902e57","system_id":"levelo_inurba_marseille","lat":43.286591,"lon":5.363346,"is_reserved":false,"is_disabled":false,"rental_uris":{"android":"levelo://app?vid=254342b7-e932-426b-8736-7eb966902e57","ios":"levelo://app?vid=254342b7-e932-426b-8736-7eb966902e57"},"vehicle_type_id":"4","last_reported":1702955256,"current_range_meters":31200,"station_id":"ce4bhah2rcd13ifvqej0","pricing_plan_id":"free"},{"bike_id":"74431be9-6487-4eb4-9c56-6e16bec22480","system_id":"levelo_inurba_marseille","lat":43.286961,"lon":5.373785,"is_reserved":false,"is_disabled":false,"rental_uris":{"android":"levelo://app?vid=74431be9-6487-4eb4-9c56-6e16bec22480","ios":"levelo://app?vid=74431be9-6487-4eb4-9c56-6e16bec22480"},"vehicle_type_id":"4","last_reported":1702955256,"current_range_meters":31200,"station_id":"ce4bh3p2rcd13ifvqdq0","pricing_plan_id":"free"},{"bike_id":"f1c8251e-e3bf-43d9-954b-18491e78a10c","system_id":"levelo_inurba_marseille","lat":43.286591,"lon":5.363346,"is_reserved":false,"is_disabled":false,"rental_uris":{"android":"levelo://app?vid=f1c8251e-e3bf-43d9-954b-18491e78a10c","ios":"levelo://app?vid=f1c8251e-e3bf-43d9-954b-18491e78a10c"},"vehicle_type_id":"4","last_reported":1702955256,"current_range_meters":21600,"station_id":"ce4bhah2rcd13ifvqej0","pricing_plan_id":"free"},{"bike_id":"98af81d3-4f0a-4212-8b80-f4a9617c6271","system_id":"levelo_inurba_marseille","lat":43.286593,"lon":5.363346,"is_reserved":false,"is_disabled":false,"rental_uris":{"android":"levelo://app?vid=98af81d3-4f0a-4212-8b80-f4a9617c6271","ios":"levelo://app?vid=98af81d3-4f0a-4212-8b80-f4a9617c6271"},"vehicle_type_id":"4","last_reported":1702955256,"current_range_meters":30400,"station_id":"ce4bhah2rcd13ifvqej0","pricing_plan_id":"free"},{"bike_id":"cb1f2825-6a12-4c70-bf8d-2c6013b1bdc2","system_id":"levelo_inurba_marseille","lat":43.295194,"lon":5.39397,"is_reserved":false,"is_disabled":false,"rental_uris":{"android":"levelo://app?vid=cb1f2825-6a12-4c70-bf8d-2c6013b1bdc2","ios":"levelo://app?vid=cb1f2825-6a12-4c70-bf8d-2c6013b1bdc2"},"vehicle_type_id":"4","last_reported":1702955256,"current_range_meters":30800,"station_id":"ce4bh292rcd13ifvqdf0","pricing_plan_id":"free"},{"bike_id":"551c3ecc-4a0b-46fc-89b3-ee62b97ede26","system_id":"levelo_inurba_marseille","lat":43.295194,"lon":5.39397,"is_reserved":false,"is_disabled":false,"rental_uris":{"android":"levelo://app?vid=551c3ecc-4a0b-46fc-89b3-ee62b97ede26","ios":"levelo://app?vid=551c3ecc-4a0b-46fc-89b3-ee62b97ede26"},"vehicle_type_id":"4","last_reported":1702955256,"current_range_meters":27200,"station_id":"ce4bh292rcd13ifvqdf0","pricing_plan_id":"free"},{"bike_id":"27a6664b-f5a1-41d8-a767-be7bb305fe2f","system_id":"levelo_inurba_marseille","lat":43.295194,"lon":5.39397,"is_reserved":false,"is_disabled":false,"rental_uris":{"android":"levelo://app?vid=27a6664b-f5a1-41d8-a767-be7bb305fe2f","ios":"levelo://app?vid=27a6664b-f5a1-41d8-a767-be7bb305fe2f"},"vehicle_type_id":"4","last_reported":1702955256,"current_range_meters":31200,"station_id":"ce4bh292rcd13ifvqdf0","pricing_plan_id":"free"},{"bike_id":"849c5f10-c8b2-4490-b029-7ea21e494cf4","system_id":"levelo_inurba_marseille","lat":43.286961,"lon":5.373785,"is_reserved":false,"is_disabled":false,"rental_uris":{"android":"levelo://app?vid=849c5f10-c8b2-4490-b029-7ea21e494cf4","ios":"levelo://app?vid=849c5f10-c8b2-4490-b029-7ea21e494cf4"},"vehicle_type_id":"4","last_reported":1702955256,"current_range_meters":29600,"station_id":"ce4bh3p2rcd13ifvqdq0","pricing_plan_id":"free"},{"bike_id":"381878ee-e534-428b-a315-cdd54223b2e4","system_id":"levelo_inurba_marseille","lat":43.302759,"lon":5.400793,"is_reserved":false,"is_disabled":false,"rental_uris":{"android":"levelo://app?vid=381878ee-e534-428b-a315-cdd54223b2e4","ios":"levelo://app?vid=381878ee-e534-428b-a315-cdd54223b2e4"},"vehicle_type_id":"4","last_reported":1702955256,"current_range_meters":30400,"station_id":"ce4bgvh2rcd13ifvqcs0","pricing_plan_id":"free"},{"bike_id":"44680fb6-2fd0-4fac-98c7-ebcf7f3a8390","system_id":"levelo_inurba_marseille","lat":43.31423,"lon":5.40349,"is_reserved":false,"is_disabled":false,"rental_uris":{"android":"levelo://app?vid=44680fb6-2fd0-4fac-98c7-ebcf7f3a8390","ios":"levelo://app?vid=44680fb6-2fd0-4fac-98c7-ebcf7f3a8390"},"vehicle_type_id":"4","last_reported":1702955256,"current_range_meters":20800,"station_id":"","pricing_plan_id":"free"},{"bike_id":"034e122e-5bcb-4ed3-93b3-3a255263f14c","system_id":"levelo_inurba_marseille","lat":43.286039,"lon":5.370679,"is_reserved":false,"is_disabled":false,"rental_uris":{"android":"levelo://app?vid=034e122e-5bcb-4ed3-93b3-3a255263f14c","ios":"levelo://app?vid=034e122e-5bcb-4ed3-93b3-3a255263f14c"},"vehicle_type_id":"4","last_reported":1702955256,"current_range_meters":30400,"station_id":"ce4bht12rcd13ifvqi60","pricing_plan_id":"free"},{"bike_id":"be417a92-6ebd-4dae-9c63-83ef101d2422","system_id":"levelo_inurba_marseille","lat":43.291994,"lon":5.392907,"is_reserved":false,"is_disabled":false,"rental_uris":{"android":"levelo://app?vid=be417a92-6ebd-4dae-9c63-83ef101d2422","ios":"levelo://app?vid=be417a92-6ebd-4dae-9c63-83ef101d2422"},"vehicle_type_id":"4","last_reported":1702955256,"current_range_meters":25600,"station_id":"ce4bh192rcd13ifvqdd0","pricing_plan_id":"free"},{"bike_id":"26ef596e-f430-4266-b040-1a2850007933","system_id":"levelo_inurba_marseille","lat":43.291994,"lon":5.392907,"is_reserved":false,"is_disabled":false,"rental_uris":{"android":"levelo://app?vid=26ef596e-f430-4266-b040-1a2850007933","ios":"levelo://app?vid=26ef596e-f430-4266-b040-1a2850007933"},"vehicle_type_id":"4","last_reported":1702955256,"current_range_meters":27600,"station_id":"ce4bh192rcd13ifvqdd0","pricing_plan_id":"free"},{"bike_id":"417250b4-0542-41a4-8a69-f618ad54fdf7","system_id":"levelo_inurba_marseille","lat":43.291994,"lon":5.392907,"is_reserved":false,"is_disabled":false,"rental_uris":{"android":"levelo://app?vid=417250b4-0542-41a4-8a69-f618ad54fdf7","ios":"levelo://app?vid=417250b4-0542-41a4-8a69-f618ad54fdf7"},"vehicle_type_id":"4","last_reported":1702955256,"current_range_meters":27600,"station_id":"ce4bh192rcd13ifvqdd0","pricing_plan_id":"free"},{"bike_id":"f42d3ca0-4741-4ab3-9f11-68f532d8eda6","system_id":"levelo_inurba_marseille","lat":43.28469,"lon":5.35891,"is_reserved":false,"is_disabled":false,"rental_uris":{"android":"levelo://app?vid=f42d3ca0-4741-4ab3-9f11-68f532d8eda6","ios":"levelo://app?vid=f42d3ca0-4741-4ab3-9f11-68f532d8eda6"},"vehicle_type_id":"4","last_reported":1702955256,"current_range_meters":24000,"station_id":"ce4bhah2rcd13ifvqei0","pricing_plan_id":"free"},{"bike_id":"89dabc13-7138-431a-b62c-844facc1a2be","system_id":"levelo_inurba_marseille","lat":43.28465,"lon":5.35894,"is_reserved":false,"is_disabled":false,"rental_uris":{"android":"levelo://app?vid=89dabc13-7138-431a-b62c-844facc1a2be","ios":"levelo://app?vid=89dabc13-7138-431a-b62c-844facc1a2be"},"vehicle_type_id":"4","last_reported":1702955256,"current_range_meters":30000,"station_id":"ce4bhah2rcd13ifvqei0","pricing_plan_id":"free"},{"bike_id":"fd34e3d7-841b-4232-a1c4-8128cca59867","system_id":"levelo_inurba_marseille","lat":43.284538,"lon":5.358657,"is_reserved":false,"is_disabled":false,"rental_uris":{"android":"levelo://app?vid=fd34e3d7-841b-4232-a1c4-8128cca59867","ios":"levelo://app?vid=fd34e3d7-841b-4232-a1c4-8128cca59867"},"vehicle_type_id":"4","last_reported":1702955256,"current_range_meters":20800,"station_id":"ce4bhah2rcd13ifvqei0","pricing_plan_id":"free"},{"bike_id":"6f89bd7b-1be4-4ad4-b7ca-4d693609eb83","system_id":"levelo_inurba_marseille","lat":43.284538,"lon":5.358657,"is_reserved":false,"is_disabled":false,"rental_uris":{"android":"levelo://app?vid=6f89bd7b-1be4-4ad4-b7ca-4d693609eb83","ios":"levelo://app?vid=6f89bd7b-1be4-4ad4-b7ca-4d693609eb83"},"vehicle_type_id":"4","last_reported":1702955256,"current_range_meters":15200,"station_id":"ce4bhah2rcd13ifvqei0","pricing_plan_id":"free"},{"bike_id":"7998e8f8-9e50-48cb-b5ea-5d044c0879b0","system_id":"levelo_inurba_marseille","lat":43.284538,"lon":5.358657,"is_reserved":false,"is_disabled":false,"rental_uris":{"android":"levelo://app?vid=7998e8f8-9e50-48cb-b5ea-5d044c0879b0","ios":"levelo://app?vid=7998e8f8-9e50-48cb-b5ea-5d044c0879b0"},"vehicle_type_id":"4","last_reported":1702955256,"current_range_meters":31200,"station_id":"ce4bhah2rcd13ifvqei0","pricing_plan_id":"free"},{"bike_id":"791f5117-f97b-44b7-a1c8-602410a5eec8","system_id":"levelo_inurba_marseille","lat":43.294314,"lon":5.397498,"is_reserved":false,"is_disabled":false,"rental_uris":{"android":"levelo://app?vid=791f5117-f97b-44b7-a1c8-602410a5eec8","ios":"levelo://app?vid=791f5117-f97b-44b7-a1c8-602410a5eec8"},"vehicle_type_id":"4","last_reported":1702955256,"current_range_meters":31200,"station_id":"ce4bh3h2rcd13ifvqdo0","pricing_plan_id":"free"},{"bike_id":"d0144806-217b-414f-aea6-0a8210bcf989","system_id":"levelo_inurba_marseille","lat":43.294314,"lon":5.397498,"is_reserved":false,"is_disabled":false,"rental_uris":{"android":"levelo://app?vid=d0144806-217b-414f-aea6-0a8210bcf989","ios":"levelo://app?vid=d0144806-217b-414f-aea6-0a8210bcf989"},"vehicle_type_id":"4","last_reported":1702955256,"current_range_meters":30400,"station_id":"ce4bh3h2rcd13ifvqdo0","pricing_plan_id":"free"},{"bike_id":"0d1c35b8-2aef-43fd-8b31-f2827c12f0ff","system_id":"levelo_inurba_marseille","lat":43.284534,"lon":5.358662,"is_reserved":false,"is_disabled":false,"rental_uris":{"android":"levelo://app?vid=0d1c35b8-2aef-43fd-8b31-f2827c12f0ff","ios":"levelo://app?vid=0d1c35b8-2aef-43fd-8b31-f2827c12f0ff"},"vehicle_type_id":"4","last_reported":1702955256,"current_range_meters":7600,"station_id":"ce4bhah2rcd13ifvqei0","pricing_plan_id":"free"},{"bike_id":"e30428d5-72c8-446f-98a6-ca27ad8178e6","system_id":"levelo_inurba_marseille","lat":43.284534,"lon":5.358662,"is_reserved":false,"is_disabled":false,"rental_uris":{"android":"levelo://app?vid=e30428d5-72c8-446f-98a6-ca27ad8178e6","ios":"levelo://app?vid=e30428d5-72c8-446f-98a6-ca27ad8178e6"},"vehicle_type_id":"4","last_reported":1702955256,"current_range_meters":11600,"station_id":"ce4bhah2rcd13ifvqei0","pricing_plan_id":"free"},{"bike_id":"737b48ee-3509-4b42-b756-79ff0a4862ae","system_id":"levelo_inurba_marseille","lat":43.284538,"lon":5.358657,"is_reserved":false,"is_disabled":false,"rental_uris":{"android":"levelo://app?vid=737b48ee-3509-4b42-b756-79ff0a4862ae","ios":"levelo://app?vid=737b48ee-3509-4b42-b756-79ff0a4862ae"},"vehicle_type_id":"4","last_reported":1702955256,"current_range_meters":20800,"station_id":"ce4bhah2rcd13ifvqei0","pricing_plan_id":"free"},{"bike_id":"7d6afa33-f409-4f89-bbfb-d57ce09048bf","system_id":"levelo_inurba_marseille","lat":43.284534,"lon":5.358662,"is_reserved":false,"is_disabled":false,"rental_uris":{"android":"levelo://app?vid=7d6afa33-f409-4f89-bbfb-d57ce09048bf","ios":"levelo://app?vid=7d6afa33-f409-4f89-bbfb-d57ce09048bf"},"vehicle_type_id":"4","last_reported":1702955256,"current_range_meters":31200,"station_id":"ce4bhah2rcd13ifvqei0","pricing_plan_id":"free"},{"bike_id":"46a9edc8-1b32-4cad-8056-576db124769b","system_id":"levelo_inurba_marseille","lat":43.284538,"lon":5.358657,"is_reserved":false,"is_disabled":false,"rental_uris":{"android":"levelo://app?vid=46a9edc8-1b32-4cad-8056-576db124769b","ios":"levelo://app?vid=46a9edc8-1b32-4cad-8056-576db124769b"},"vehicle_type_id":"4","last_reported":1702955256,"current_range_meters":21600,"station_id":"ce4bhah2rcd13ifvqei0","pricing_plan_id":"free"},{"bike_id":"e6db11b4-c9ee-4260-9638-69776ab2fb75","system_id":"levelo_inurba_marseille","lat":43.284538,"lon":5.358657,"is_reserved":false,"is_disabled":false,"rental_uris":{"android":"levelo://app?vid=e6db11b4-c9ee-4260-9638-69776ab2fb75","ios":"levelo://app?vid=e6db11b4-c9ee-4260-9638-69776ab2fb75"},"vehicle_type_id":"4","last_reported":1702955256,"current_range_meters":29600,"station_id":"ce4bhah2rcd13ifvqei0","pricing_plan_id":"free"},{"bike_id":"dab3e50b-f2b6-40b0-abb0-e31754592449","system_id":"levelo_inurba_marseille","lat":43.284538,"lon":5.358657,"is_reserved":false,"is_disabled":false,"rental_uris":{"android":"levelo://app?vid=dab3e50b-f2b6-40b0-abb0-e31754592449","ios":"levelo://app?vid=dab3e50b-f2b6-40b0-abb0-e31754592449"},"vehicle_type_id":"4","last_reported":1702955256,"current_range_meters":30400,"station_id":"ce4bhah2rcd13ifvqei0","pricing_plan_id":"free"},{"bike_id":"f81d0455-2a1c-4833-8a29-52109013f5bf","system_id":"levelo_inurba_marseille","lat":43.284534,"lon":5.358662,"is_reserved":false,"is_disabled":false,"rental_uris":{"android":"levelo://app?vid=f81d0455-2a1c-4833-8a29-52109013f5bf","ios":"levelo://app?vid=f81d0455-2a1c-4833-8a29-52109013f5bf"},"vehicle_type_id":"4","last_reported":1702955256,"current_range_meters":31200,"station_id":"ce4bhah2rcd13ifvqei0","pricing_plan_id":"free"},{"bike_id":"c96d1846-595d-40ba-9d02-cceed29a4fec","system_id":"levelo_inurba_marseille","lat":43.284538,"lon":5.358657,"is_reserved":false,"is_disabled":false,"rental_uris":{"android":"levelo://app?vid=c96d1846-595d-40ba-9d02-cceed29a4fec","ios":"levelo://app?vid=c96d1846-595d-40ba-9d02-cceed29a4fec"},"vehicle_type_id":"4","last_reported":1702955256,"current_range_meters":31200,"station_id":"ce4bhah2rcd13ifvqei0","pricing_plan_id":"free"},{"bike_id":"f5e54070-711d-4dc1-84d4-1f42b1b4cbd3","system_id":"levelo_inurba_marseille","lat":43.285848,"lon":5.350787,"is_reserved":false,"is_disabled":false,"rental_uris":{"android":"levelo://app?vid=f5e54070-711d-4dc1-84d4-1f42b1b4cbd3","ios":"levelo://app?vid=f5e54070-711d-4dc1-84d4-1f42b1b4cbd3"},"vehicle_type_id":"4","last_reported":1702955256,"current_range_meters":29200,"station_id":"ce4bhch2rcd13ifvqeug","pricing_plan_id":"free"},{"bike_id":"8a7e69a2-9aac-4ede-b2ac-bcfdcac1355a","system_id":"levelo_inurba_marseille","lat":43.285848,"lon":5.350787,"is_reserved":false,"is_disabled":false,"rental_uris":{"android":"levelo://app?vid=8a7e69a2-9aac-4ede-b2ac-bcfdcac1355a","ios":"levelo://app?vid=8a7e69a2-9aac-4ede-b2ac-bcfdcac1355a"},"vehicle_type_id":"4","last_reported":1702955256,"current_range_meters":31200,"station_id":"ce4bhch2rcd13ifvqeug","pricing_plan_id":"free"},{"bike_id":"c683c49d-469d-4aaa-be22-46ad1a864b6d","system_id":"levelo_inurba_marseille","lat":43.285856,"lon":5.350771,"is_reserved":false,"is_disabled":false,"rental_uris":{"android":"levelo://app?vid=c683c49d-469d-4aaa-be22-46ad1a864b6d","ios":"levelo://app?vid=c683c49d-469d-4aaa-be22-46ad1a864b6d"},"vehicle_type_id":"4","last_reported":1702955256,"current_range_meters":29600,"station_id":"ce4bhch2rcd13ifvqeug","pricing_plan_id":"free"},{"bike_id":"7c6dd76b-0c39-4bc1-8f73-a1abf30306c7","system_id":"levelo_inurba_marseille","lat":43.28431,"lon":5.37549,"is_reserved":false,"is_disabled":false,"rental_uris":{"android":"levelo://app?vid=7c6dd76b-0c39-4bc1-8f73-a1abf30306c7","ios":"levelo://app?vid=7c6dd76b-0c39-4bc1-8f73-a1abf30306c7"},"vehicle_type_id":"4","last_reported":1702955256,"current_range_meters":18400,"station_id":"ce4bh412rcd13ifvqds0","pricing_plan_id":"free"},{"bike_id":"04c2e3d1-ce1e-4cce-bd16-fbbc04ea64bc","system_id":"levelo_inurba_marseille","lat":43.283998,"lon":5.375062,"is_reserved":false,"is_disabled":false,"rental_uris":{"android":"levelo://app?vid=04c2e3d1-ce1e-4cce-bd16-fbbc04ea64bc","ios":"levelo://app?vid=04c2e3d1-ce1e-4cce-bd16-fbbc04ea64bc"},"vehicle_type_id":"4","last_reported":1702955256,"current_range_meters":16000,"station_id":"ce4bh412rcd13ifvqds0","pricing_plan_id":"free"},{"bike_id":"ddd99604-3dcc-42a9-b024-90065af358ad","system_id":"levelo_inurba_marseille","lat":43.283998,"lon":5.375062,"is_reserved":false,"is_disabled":false,"rental_uris":{"android":"levelo://app?vid=ddd99604-3dcc-42a9-b024-90065af358ad","ios":"levelo://app?vid=ddd99604-3dcc-42a9-b024-90065af358ad"},"vehicle_type_id":"4","last_reported":1702955256,"current_range_meters":31200,"station_id":"ce4bh412rcd13ifvqds0","pricing_plan_id":"free"},{"bike_id":"5b8533da-8628-4988-83b7-75aff4d17203","system_id":"levelo_inurba_marseille","lat":43.33218,"lon":5.397067,"is_reserved":false,"is_disabled":false,"rental_uris":{"android":"levelo://app?vid=5b8533da-8628-4988-83b7-75aff4d17203","ios":"levelo://app?vid=5b8533da-8628-4988-83b7-75aff4d17203"},"vehicle_type_id":"4","last_reported":1702955256,"current_range_meters":3200,"station_id":"","pricing_plan_id":"free"},{"bike_id":"12994675-3eee-4692-9998-6da2c75638f6","system_id":"levelo_inurba_marseille","lat":43.28399,"lon":5.37537,"is_reserved":false,"is_disabled":false,"rental_uris":{"android":"levelo://app?vid=12994675-3eee-4692-9998-6da2c75638f6","ios":"levelo://app?vid=12994675-3eee-4692-9998-6da2c75638f6"},"vehicle_type_id":"4","last_reported":1702955256,"current_range_meters":31200,"station_id":"ce4bh412rcd13ifvqds0","pricing_plan_id":"free"},{"bike_id":"46c1d162-8375-4fb1-bf93-5f1f7f82aa6e","system_id":"levelo_inurba_marseille","lat":43.319179,"lon":5.407725,"is_reserved":false,"is_disabled":false,"rental_uris":{"android":"levelo://app?vid=46c1d162-8375-4fb1-bf93-5f1f7f82aa6e","ios":"levelo://app?vid=46c1d162-8375-4fb1-bf93-5f1f7f82aa6e"},"vehicle_type_id":"4","last_reported":1702955256,"current_range_meters":28400,"station_id":"ce4bhq12rcd13ifvqhig","pricing_plan_id":"free"},{"bike_id":"567053e3-7fc7-4542-8bd9-decc5b5cf3ba","system_id":"levelo_inurba_marseille","lat":43.284793,"lon":5.384113,"is_reserved":false,"is_disabled":false,"rental_uris":{"android":"levelo://app?vid=567053e3-7fc7-4542-8bd9-decc5b5cf3ba","ios":"levelo://app?vid=567053e3-7fc7-4542-8bd9-decc5b5cf3ba"},"vehicle_type_id":"4","last_reported":1702955256,"current_range_meters":24800,"station_id":"ce4bh512rcd13ifvqe3g","pricing_plan_id":"free"},{"bike_id":"422c2970-611e-4f9f-9566-b60208f39cd3","system_id":"levelo_inurba_marseille","lat":43.323464,"lon":5.406297,"is_reserved":false,"is_disabled":false,"rental_uris":{"android":"levelo://app?vid=422c2970-611e-4f9f-9566-b60208f39cd3","ios":"levelo://app?vid=422c2970-611e-4f9f-9566-b60208f39cd3"},"vehicle_type_id":"4","last_reported":1702955256,"current_range_meters":31600,"station_id":"ce4bhq92rcd13ifvqhjg","pricing_plan_id":"free"},{"bike_id":"b7ae38c1-11b1-4941-960e-3be280571069","system_id":"levelo_inurba_marseille","lat":43.323464,"lon":5.406297,"is_reserved":false,"is_disabled":false,"rental_uris":{"android":"levelo://app?vid=b7ae38c1-11b1-4941-960e-3be280571069","ios":"levelo://app?vid=b7ae38c1-11b1-4941-960e-3be280571069"},"vehicle_type_id":"4","last_reported":1702955256,"current_range_meters":21600,"station_id":"ce4bhq92rcd13ifvqhjg","pricing_plan_id":"free"},{"bike_id":"5487b097-4a83-4236-99ae-cce513c41a7f","system_id":"levelo_inurba_marseille","lat":43.323464,"lon":5.406297,"is_reserved":false,"is_disabled":false,"rental_uris":{"android":"levelo://app?vid=5487b097-4a83-4236-99ae-cce513c41a7f","ios":"levelo://app?vid=5487b097-4a83-4236-99ae-cce513c41a7f"},"vehicle_type_id":"4","last_reported":1702955256,"current_range_meters":24800,"station_id":"ce4bhq92rcd13ifvqhjg","pricing_plan_id":"free"},{"bike_id":"6fb72814-57ef-43a8-a801-7d8869cd6e4e","system_id":"levelo_inurba_marseille","lat":43.323464,"lon":5.406297,"is_reserved":false,"is_disabled":false,"rental_uris":{"android":"levelo://app?vid=6fb72814-57ef-43a8-a801-7d8869cd6e4e","ios":"levelo://app?vid=6fb72814-57ef-43a8-a801-7d8869cd6e4e"},"vehicle_type_id":"4","last_reported":1702955256,"current_range_meters":31600,"station_id":"ce4bhq92rcd13ifvqhjg","pricing_plan_id":"free"},{"bike_id":"4192225c-23f8-425d-8f25-6574ead54fc4","system_id":"levelo_inurba_marseille","lat":43.29816,"lon":5.40405,"is_reserved":false,"is_disabled":false,"rental_uris":{"android":"levelo://app?vid=4192225c-23f8-425d-8f25-6574ead54fc4","ios":"levelo://app?vid=4192225c-23f8-425d-8f25-6574ead54fc4"},"vehicle_type_id":"4","last_reported":1702955256,"current_range_meters":2800,"station_id":"ce4bh112rcd13ifvqd90","pricing_plan_id":"free"},{"bike_id":"3497570a-8942-4556-b595-7d507af73cb6","system_id":"levelo_inurba_marseille","lat":43.29795,"lon":5.404086,"is_reserved":false,"is_disabled":false,"rental_uris":{"android":"levelo://app?vid=3497570a-8942-4556-b595-7d507af73cb6","ios":"levelo://app?vid=3497570a-8942-4556-b595-7d507af73cb6"},"vehicle_type_id":"4","last_reported":1702955256,"current_range_meters":29200,"station_id":"ce4bh112rcd13ifvqd90","pricing_plan_id":"free"},{"bike_id":"f11d76df-81e1-4589-9fcb-c4c4626dd432","system_id":"levelo_inurba_marseille","lat":43.306412,"lon":5.401035,"is_reserved":false,"is_disabled":false,"rental_uris":{"android":"levelo://app?vid=f11d76df-81e1-4589-9fcb-c4c4626dd432","ios":"levelo://app?vid=f11d76df-81e1-4589-9fcb-c4c4626dd432"},"vehicle_type_id":"4","last_reported":1702955256,"current_range_meters":24800,"station_id":"ce4bh112rcd13ifvqda0","pricing_plan_id":"free"},{"bike_id":"ef804d4c-11d5-4968-847d-4a1390ff17d8","system_id":"levelo_inurba_marseille","lat":43.292724,"lon":5.401131,"is_reserved":false,"is_disabled":false,"rental_uris":{"android":"levelo://app?vid=ef804d4c-11d5-4968-847d-4a1390ff17d8","ios":"levelo://app?vid=ef804d4c-11d5-4968-847d-4a1390ff17d8"},"vehicle_type_id":"4","last_reported":1702955256,"current_range_meters":26000,"station_id":"ce4bh312rcd13ifvqdk0","pricing_plan_id":"free"},{"bike_id":"a43c6545-39b6-4c46-bfad-0617b16ec0c8","system_id":"levelo_inurba_marseille","lat":43.292724,"lon":5.401131,"is_reserved":false,"is_disabled":false,"rental_uris":{"android":"levelo://app?vid=a43c6545-39b6-4c46-bfad-0617b16ec0c8","ios":"levelo://app?vid=a43c6545-39b6-4c46-bfad-0617b16ec0c8"},"vehicle_type_id":"4","last_reported":1702955256,"current_range_meters":31200,"station_id":"ce4bh312rcd13ifvqdk0","pricing_plan_id":"free"},{"bike_id":"0b603c93-f996-4480-8a2b-995b95d01deb","system_id":"levelo_inurba_marseille","lat":43.282754,"lon":5.350519,"is_reserved":false,"is_disabled":false,"rental_uris":{"android":"levelo://app?vid=0b603c93-f996-4480-8a2b-995b95d01deb","ios":"levelo://app?vid=0b603c93-f996-4480-8a2b-995b95d01deb"},"vehicle_type_id":"4","last_reported":1702955256,"current_range_meters":30400,"station_id":"ce4bhbp2rcd13ifvqerg","pricing_plan_id":"free"},{"bike_id":"9a478ac6-9e4f-4bf0-bdee-4afb1aa87986","system_id":"levelo_inurba_marseille","lat":43.292724,"lon":5.401131,"is_reserved":false,"is_disabled":false,"rental_uris":{"android":"levelo://app?vid=9a478ac6-9e4f-4bf0-bdee-4afb1aa87986","ios":"levelo://app?vid=9a478ac6-9e4f-4bf0-bdee-4afb1aa87986"},"vehicle_type_id":"4","last_reported":1702955256,"current_range_meters":3600,"station_id":"ce4bh312rcd13ifvqdk0","pricing_plan_id":"free"},{"bike_id":"1d2ccf27-bfaa-440f-b72b-9f878925af1d","system_id":"levelo_inurba_marseille","lat":43.282754,"lon":5.350519,"is_reserved":false,"is_disabled":false,"rental_uris":{"android":"levelo://app?vid=1d2ccf27-bfaa-440f-b72b-9f878925af1d","ios":"levelo://app?vid=1d2ccf27-bfaa-440f-b72b-9f878925af1d"},"vehicle_type_id":"4","last_reported":1702955256,"current_range_meters":30000,"station_id":"ce4bhbp2rcd13ifvqerg","pricing_plan_id":"free"},{"bike_id":"2509ccb8-00f6-40ab-8376-e2f43c50d8ef","system_id":"levelo_inurba_marseille","lat":43.28039,"lon":5.369297,"is_reserved":false,"is_disabled":false,"rental_uris":{"android":"levelo://app?vid=2509ccb8-00f6-40ab-8376-e2f43c50d8ef","ios":"levelo://app?vid=2509ccb8-00f6-40ab-8376-e2f43c50d8ef"},"vehicle_type_id":"4","last_reported":1702955256,"current_range_meters":30800,"station_id":"ce4bha12rcd13ifvqef0","pricing_plan_id":"free"},{"bike_id":"1ea8c5cb-0a6b-4a6b-bebd-29a2aad2ba3b","system_id":"levelo_inurba_marseille","lat":43.280382,"lon":5.369291,"is_reserved":false,"is_disabled":false,"rental_uris":{"android":"levelo://app?vid=1ea8c5cb-0a6b-4a6b-bebd-29a2aad2ba3b","ios":"levelo://app?vid=1ea8c5cb-0a6b-4a6b-bebd-29a2aad2ba3b"},"vehicle_type_id":"4","last_reported":1702955256,"current_range_meters":27200,"station_id":"ce4bha12rcd13ifvqef0","pricing_plan_id":"free"},{"bike_id":"fa17aaaf-d3c0-4e0a-bf6e-5645584e2e02","system_id":"levelo_inurba_marseille","lat":43.281044,"lon":5.378308,"is_reserved":false,"is_disabled":false,"rental_uris":{"android":"levelo://app?vid=fa17aaaf-d3c0-4e0a-bf6e-5645584e2e02","ios":"levelo://app?vid=fa17aaaf-d3c0-4e0a-bf6e-5645584e2e02"},"vehicle_type_id":"4","last_reported":1702955256,"current_range_meters":30800,"station_id":"ce4bha12rcd13ifvqee0","pricing_plan_id":"free"},{"bike_id":"1bb0a52f-0765-4f14-a2b5-60416917c5d0","system_id":"levelo_inurba_marseille","lat":43.281044,"lon":5.378308,"is_reserved":false,"is_disabled":false,"rental_uris":{"android":"levelo://app?vid=1bb0a52f-0765-4f14-a2b5-60416917c5d0","ios":"levelo://app?vid=1bb0a52f-0765-4f14-a2b5-60416917c5d0"},"vehicle_type_id":"4","last_reported":1702955256,"current_range_meters":29200,"station_id":"ce4bha12rcd13ifvqee0","pricing_plan_id":"free"},{"bike_id":"0722cb9f-dc10-46d1-a46e-76d604f75be0","system_id":"levelo_inurba_marseille","lat":43.281044,"lon":5.378308,"is_reserved":false,"is_disabled":false,"rental_uris":{"android":"levelo://app?vid=0722cb9f-dc10-46d1-a46e-76d604f75be0","ios":"levelo://app?vid=0722cb9f-dc10-46d1-a46e-76d604f75be0"},"vehicle_type_id":"4","last_reported":1702955256,"current_range_meters":31200,"station_id":"ce4bha12rcd13ifvqee0","pricing_plan_id":"free"},{"bike_id":"bef1024c-b976-43d4-a7e9-de1f0835a469","system_id":"levelo_inurba_marseille","lat":43.281044,"lon":5.378308,"is_reserved":false,"is_disabled":false,"rental_uris":{"android":"levelo://app?vid=bef1024c-b976-43d4-a7e9-de1f0835a469","ios":"levelo://app?vid=bef1024c-b976-43d4-a7e9-de1f0835a469"},"vehicle_type_id":"4","last_reported":1702955256,"current_range_meters":29600,"station_id":"ce4bha12rcd13ifvqee0","pricing_plan_id":"free"},{"bike_id":"aeedfc10-e5f6-48c9-be77-ff3487d9879a","system_id":"levelo_inurba_marseille","lat":43.29632,"lon":5.40609,"is_reserved":false,"is_disabled":false,"rental_uris":{"android":"levelo://app?vid=aeedfc10-e5f6-48c9-be77-ff3487d9879a","ios":"levelo://app?vid=aeedfc10-e5f6-48c9-be77-ff3487d9879a"},"vehicle_type_id":"4","last_reported":1702955256,"current_range_meters":30400,"station_id":"ce4bh0h2rcd13ifvqd60","pricing_plan_id":"free"},{"bike_id":"a061ea71-060f-4da0-9a05-e7cfb8435566","system_id":"levelo_inurba_marseille","lat":43.281044,"lon":5.378308,"is_reserved":false,"is_disabled":false,"rental_uris":{"android":"levelo://app?vid=a061ea71-060f-4da0-9a05-e7cfb8435566","ios":"levelo://app?vid=a061ea71-060f-4da0-9a05-e7cfb8435566"},"vehicle_type_id":"4","last_reported":1702955256,"current_range_meters":30800,"station_id":"ce4bha12rcd13ifvqee0","pricing_plan_id":"free"},{"bike_id":"0fda8bb3-ffda-4341-92ee-f5c960f31913","system_id":"levelo_inurba_marseille","lat":43.29041,"lon":5.399634,"is_reserved":false,"is_disabled":false,"rental_uris":{"android":"levelo://app?vid=0fda8bb3-ffda-4341-92ee-f5c960f31913","ios":"levelo://app?vid=0fda8bb3-ffda-4341-92ee-f5c960f31913"},"vehicle_type_id":"4","last_reported":1702955256,"current_range_meters":30000,"station_id":"ce4bh392rcd13ifvqdm0","pricing_plan_id":"free"},{"bike_id":"3c3afcc8-1dbe-4c00-ba10-100b9edd3449","system_id":"levelo_inurba_marseille","lat":43.28573,"lon":5.394992,"is_reserved":false,"is_disabled":false,"rental_uris":{"android":"levelo://app?vid=3c3afcc8-1dbe-4c00-ba10-100b9edd3449","ios":"levelo://app?vid=3c3afcc8-1dbe-4c00-ba10-100b9edd3449"},"vehicle_type_id":"4","last_reported":1702955256,"current_range_meters":31200,"station_id":"ce4bh292rcd13ifvqdg0","pricing_plan_id":"free"},{"bike_id":"07d52bf2-f05e-4cdc-a5a1-fd02f45dbe0d","system_id":"levelo_inurba_marseille","lat":43.326605,"lon":5.409903,"is_reserved":false,"is_disabled":false,"rental_uris":{"android":"levelo://app?vid=07d52bf2-f05e-4cdc-a5a1-fd02f45dbe0d","ios":"levelo://app?vid=07d52bf2-f05e-4cdc-a5a1-fd02f45dbe0d"},"vehicle_type_id":"4","last_reported":1702955256,"current_range_meters":25600,"station_id":"ce4bhpp2rcd13ifvqhgg","pricing_plan_id":"free"},{"bike_id":"2599a7a8-8b8f-44fd-a987-8947f98ba752","system_id":"levelo_inurba_marseille","lat":43.304188,"lon":5.412904,"is_reserved":false,"is_disabled":false,"rental_uris":{"android":"levelo://app?vid=2599a7a8-8b8f-44fd-a987-8947f98ba752","ios":"levelo://app?vid=2599a7a8-8b8f-44fd-a987-8947f98ba752"},"vehicle_type_id":"4","last_reported":1702955256,"current_range_meters":30400,"station_id":"ce4bhop2rcd13ifvqh8g","pricing_plan_id":"free"},{"bike_id":"5bf1638c-2d94-47b1-885c-3b6ff6c6ff1b","system_id":"levelo_inurba_marseille","lat":43.304188,"lon":5.412904,"is_reserved":false,"is_disabled":false,"rental_uris":{"android":"levelo://app?vid=5bf1638c-2d94-47b1-885c-3b6ff6c6ff1b","ios":"levelo://app?vid=5bf1638c-2d94-47b1-885c-3b6ff6c6ff1b"},"vehicle_type_id":"4","last_reported":1702955256,"current_range_meters":26400,"station_id":"ce4bhop2rcd13ifvqh8g","pricing_plan_id":"free"},{"bike_id":"8e287729-7f99-4a67-9977-2b11f148d256","system_id":"levelo_inurba_marseille","lat":43.304188,"lon":5.412904,"is_reserved":false,"is_disabled":false,"rental_uris":{"android":"levelo://app?vid=8e287729-7f99-4a67-9977-2b11f148d256","ios":"levelo://app?vid=8e287729-7f99-4a67-9977-2b11f148d256"},"vehicle_type_id":"4","last_reported":1702955256,"current_range_meters":31600,"station_id":"ce4bhop2rcd13ifvqh8g","pricing_plan_id":"free"},{"bike_id":"ebd82a29-29c6-4dd1-9c4a-5a3b80b7cb10","system_id":"levelo_inurba_marseille","lat":43.287154,"lon":5.399979,"is_reserved":false,"is_disabled":false,"rental_uris":{"android":"levelo://app?vid=ebd82a29-29c6-4dd1-9c4a-5a3b80b7cb10","ios":"levelo://app?vid=ebd82a29-29c6-4dd1-9c4a-5a3b80b7cb10"},"vehicle_type_id":"4","last_reported":1702955256,"current_range_meters":31200,"station_id":"ce4bho92rcd13ifvqh3g","pricing_plan_id":"free"},{"bike_id":"469d77b4-b26f-48fa-be65-f476644d0332","system_id":"levelo_inurba_marseille","lat":43.287154,"lon":5.399979,"is_reserved":false,"is_disabled":false,"rental_uris":{"android":"levelo://app?vid=469d77b4-b26f-48fa-be65-f476644d0332","ios":"levelo://app?vid=469d77b4-b26f-48fa-be65-f476644d0332"},"vehicle_type_id":"4","last_reported":1702955256,"current_range_meters":24800,"station_id":"ce4bho92rcd13ifvqh3g","pricing_plan_id":"free"},{"bike_id":"8c4f5731-bdf5-43d1-ab93-84003b55186b","system_id":"levelo_inurba_marseille","lat":43.299579,"lon":5.413255,"is_reserved":false,"is_disabled":false,"rental_uris":{"android":"levelo://app?vid=8c4f5731-bdf5-43d1-ab93-84003b55186b","ios":"levelo://app?vid=8c4f5731-bdf5-43d1-ab93-84003b55186b"},"vehicle_type_id":"4","last_reported":1702955256,"current_range_meters":28800,"station_id":"ce4bhp12rcd13ifvqh9g","pricing_plan_id":"free"},{"bike_id":"bc9952d5-4346-468f-95c1-8f9a5f09a212","system_id":"levelo_inurba_marseille","lat":43.299579,"lon":5.413255,"is_reserved":false,"is_disabled":false,"rental_uris":{"android":"levelo://app?vid=bc9952d5-4346-468f-95c1-8f9a5f09a212","ios":"levelo://app?vid=bc9952d5-4346-468f-95c1-8f9a5f09a212"},"vehicle_type_id":"4","last_reported":1702955256,"current_range_meters":31200,"station_id":"ce4bhp12rcd13ifvqh9g","pricing_plan_id":"free"},{"bike_id":"af8d8be6-f697-426b-af25-03d78393f7ef","system_id":"levelo_inurba_marseille","lat":43.292569,"lon":5.409107,"is_reserved":false,"is_disabled":false,"rental_uris":{"android":"levelo://app?vid=af8d8be6-f697-426b-af25-03d78393f7ef","ios":"levelo://app?vid=af8d8be6-f697-426b-af25-03d78393f7ef"},"vehicle_type_id":"4","last_reported":1702955256,"current_range_meters":31200,"station_id":"ce4bh192rcd13ifvqdc0","pricing_plan_id":"free"},{"bike_id":"754e2bde-7174-495a-a49d-2138b18958a3","system_id":"levelo_inurba_marseille","lat":43.29255,"lon":5.40919,"is_reserved":false,"is_disabled":false,"rental_uris":{"android":"levelo://app?vid=754e2bde-7174-495a-a49d-2138b18958a3","ios":"levelo://app?vid=754e2bde-7174-495a-a49d-2138b18958a3"},"vehicle_type_id":"4","last_reported":1702955256,"current_range_meters":31200,"station_id":"ce4bh192rcd13ifvqdc0","pricing_plan_id":"free"},{"bike_id":"a6c8fa6d-3a14-4c48-a30f-549c92ed82e5","system_id":"levelo_inurba_marseille","lat":43.292569,"lon":5.409107,"is_reserved":false,"is_disabled":false,"rental_uris":{"android":"levelo://app?vid=a6c8fa6d-3a14-4c48-a30f-549c92ed82e5","ios":"levelo://app?vid=a6c8fa6d-3a14-4c48-a30f-549c92ed82e5"},"vehicle_type_id":"4","last_reported":1702955256,"current_range_meters":26800,"station_id":"ce4bh192rcd13ifvqdc0","pricing_plan_id":"free"},{"bike_id":"576905fa-6a40-4ae8-8358-000b12c188ab","system_id":"levelo_inurba_marseille","lat":43.27612,"lon":5.36117,"is_reserved":false,"is_disabled":false,"rental_uris":{"android":"levelo://app?vid=576905fa-6a40-4ae8-8358-000b12c188ab","ios":"levelo://app?vid=576905fa-6a40-4ae8-8358-000b12c188ab"},"vehicle_type_id":"4","last_reported":1702955256,"current_range_meters":31200,"station_id":"ce4bgj92rcd13ifvqbe0","pricing_plan_id":"free"},{"bike_id":"d39ac148-8a07-4bb8-a7dc-708423195e59","system_id":"levelo_inurba_marseille","lat":43.29264,"lon":5.40941,"is_reserved":false,"is_disabled":false,"rental_uris":{"android":"levelo://app?vid=d39ac148-8a07-4bb8-a7dc-708423195e59","ios":"levelo://app?vid=d39ac148-8a07-4bb8-a7dc-708423195e59"},"vehicle_type_id":"4","last_reported":1702955256,"current_range_meters":31200,"station_id":"ce4bh192rcd13ifvqdc0","pricing_plan_id":"free"},{"bike_id":"b0451d14-708f-4da4-8d68-5c80e860b1f8","system_id":"levelo_inurba_marseille","lat":43.325233,"lon":5.414318,"is_reserved":false,"is_disabled":false,"rental_uris":{"android":"levelo://app?vid=b0451d14-708f-4da4-8d68-5c80e860b1f8","ios":"levelo://app?vid=b0451d14-708f-4da4-8d68-5c80e860b1f8"},"vehicle_type_id":"4","last_reported":1702955256,"current_range_meters":30000,"station_id":"ce4bhq12rcd13ifvqhhg","pricing_plan_id":"free"},{"bike_id":"dbc73275-34c9-42ec-b702-9d049891ab75","system_id":"levelo_inurba_marseille","lat":43.28324,"lon":5.39996,"is_reserved":false,"is_disabled":false,"rental_uris":{"android":"levelo://app?vid=dbc73275-34c9-42ec-b702-9d049891ab75","ios":"levelo://app?vid=dbc73275-34c9-42ec-b702-9d049891ab75"},"vehicle_type_id":"4","last_reported":1702955256,"current_range_meters":6000,"station_id":"","pricing_plan_id":"free"},{"bike_id":"25aca128-1cf8-455c-80b4-39b8e135d47b","system_id":"levelo_inurba_marseille","lat":43.280784,"lon":5.396622,"is_reserved":false,"is_disabled":false,"rental_uris":{"android":"levelo://app?vid=25aca128-1cf8-455c-80b4-39b8e135d47b","ios":"levelo://app?vid=25aca128-1cf8-455c-80b4-39b8e135d47b"},"vehicle_type_id":"4","last_reported":1702955256,"current_range_meters":31200,"station_id":"ce4bho12rcd13ifvqh2g","pricing_plan_id":"free"},{"bike_id":"5e08d0d6-cfd9-4687-87bd-e99f9576aa7a","system_id":"levelo_inurba_marseille","lat":43.280784,"lon":5.396622,"is_reserved":false,"is_disabled":false,"rental_uris":{"android":"levelo://app?vid=5e08d0d6-cfd9-4687-87bd-e99f9576aa7a","ios":"levelo://app?vid=5e08d0d6-cfd9-4687-87bd-e99f9576aa7a"},"vehicle_type_id":"4","last_reported":1702955256,"current_range_meters":26000,"station_id":"ce4bho12rcd13ifvqh2g","pricing_plan_id":"free"},{"bike_id":"96d245bb-b090-4b65-9a89-ace46d8b27ff","system_id":"levelo_inurba_marseille","lat":43.303837,"lon":5.418724,"is_reserved":false,"is_disabled":false,"rental_uris":{"android":"levelo://app?vid=96d245bb-b090-4b65-9a89-ace46d8b27ff","ios":"levelo://app?vid=96d245bb-b090-4b65-9a89-ace46d8b27ff"},"vehicle_type_id":"4","last_reported":1702955256,"current_range_meters":7600,"station_id":"ce4bhop2rcd13ifvqh7g","pricing_plan_id":"free"},{"bike_id":"3b420da9-59ba-49d2-9f90-9ccff243a495","system_id":"levelo_inurba_marseille","lat":43.273613,"lon":5.362705,"is_reserved":false,"is_disabled":false,"rental_uris":{"android":"levelo://app?vid=3b420da9-59ba-49d2-9f90-9ccff243a495","ios":"levelo://app?vid=3b420da9-59ba-49d2-9f90-9ccff243a495"},"vehicle_type_id":"4","last_reported":1702955256,"current_range_meters":25200,"station_id":"ce4bhbh2rcd13ifvqeo0","pricing_plan_id":"free"},{"bike_id":"5e296d53-4839-4bac-97a2-fbc83687d19a","system_id":"levelo_inurba_marseille","lat":43.273609,"lon":5.362708,"is_reserved":false,"is_disabled":false,"rental_uris":{"android":"levelo://app?vid=5e296d53-4839-4bac-97a2-fbc83687d19a","ios":"levelo://app?vid=5e296d53-4839-4bac-97a2-fbc83687d19a"},"vehicle_type_id":"4","last_reported":1702955256,"current_range_meters":27600,"station_id":"ce4bhbh2rcd13ifvqeo0","pricing_plan_id":"free"},{"bike_id":"e610755f-c7ff-4978-8367-f54583f308cc","system_id":"levelo_inurba_marseille","lat":43.275625,"lon":5.384392,"is_reserved":false,"is_disabled":false,"rental_uris":{"android":"levelo://app?vid=e610755f-c7ff-4978-8367-f54583f308cc","ios":"levelo://app?vid=e610755f-c7ff-4978-8367-f54583f308cc"},"vehicle_type_id":"4","last_reported":1702955256,"current_range_meters":25600,"station_id":"ce4bhh92rcd13ifvqfi0","pricing_plan_id":"free"},{"bike_id":"fa0e2a81-4328-410a-b8fd-15aaac7a71bb","system_id":"levelo_inurba_marseille","lat":43.275625,"lon":5.384392,"is_reserved":false,"is_disabled":false,"rental_uris":{"android":"levelo://app?vid=fa0e2a81-4328-410a-b8fd-15aaac7a71bb","ios":"levelo://app?vid=fa0e2a81-4328-410a-b8fd-15aaac7a71bb"},"vehicle_type_id":"4","last_reported":1702955256,"current_range_meters":26400,"station_id":"ce4bhh92rcd13ifvqfi0","pricing_plan_id":"free"},{"bike_id":"d74b7543-c46e-40b8-98a6-5f310e19f9c9","system_id":"levelo_inurba_marseille","lat":43.275625,"lon":5.384392,"is_reserved":false,"is_disabled":false,"rental_uris":{"android":"levelo://app?vid=d74b7543-c46e-40b8-98a6-5f310e19f9c9","ios":"levelo://app?vid=d74b7543-c46e-40b8-98a6-5f310e19f9c9"},"vehicle_type_id":"4","last_reported":1702955256,"current_range_meters":30400,"station_id":"ce4bhh92rcd13ifvqfi0","pricing_plan_id":"free"},{"bike_id":"738f22a5-c89d-4420-a1d5-360f4108827a","system_id":"levelo_inurba_marseille","lat":43.275625,"lon":5.384392,"is_reserved":false,"is_disabled":false,"rental_uris":{"android":"levelo://app?vid=738f22a5-c89d-4420-a1d5-360f4108827a","ios":"levelo://app?vid=738f22a5-c89d-4420-a1d5-360f4108827a"},"vehicle_type_id":"4","last_reported":1702955256,"current_range_meters":800,"station_id":"ce4bhh92rcd13ifvqfi0","pricing_plan_id":"free"},{"bike_id":"07e928ca-71e7-4d60-83d2-16f265392025","system_id":"levelo_inurba_marseille","lat":43.32409,"lon":5.42,"is_reserved":false,"is_disabled":false,"rental_uris":{"android":"levelo://app?vid=07e928ca-71e7-4d60-83d2-16f265392025","ios":"levelo://app?vid=07e928ca-71e7-4d60-83d2-16f265392025"},"vehicle_type_id":"4","last_reported":1702955256,"current_range_meters":30000,"station_id":"","pricing_plan_id":"free"},{"bike_id":"654fe07a-9baa-491b-8e9e-1768da8558b8","system_id":"levelo_inurba_marseille","lat":43.279952,"lon":5.400085,"is_reserved":false,"is_disabled":false,"rental_uris":{"android":"levelo://app?vid=654fe07a-9baa-491b-8e9e-1768da8558b8","ios":"levelo://app?vid=654fe07a-9baa-491b-8e9e-1768da8558b8"},"vehicle_type_id":"4","last_reported":1702955256,"current_range_meters":29200,"station_id":"ce4bho92rcd13ifvqh4g","pricing_plan_id":"free"},{"bike_id":"9bbe4ec6-eb68-4e2a-8749-8dd2b58dbbaf","system_id":"levelo_inurba_marseille","lat":43.279952,"lon":5.400085,"is_reserved":false,"is_disabled":false,"rental_uris":{"android":"levelo://app?vid=9bbe4ec6-eb68-4e2a-8749-8dd2b58dbbaf","ios":"levelo://app?vid=9bbe4ec6-eb68-4e2a-8749-8dd2b58dbbaf"},"vehicle_type_id":"4","last_reported":1702955256,"current_range_meters":24800,"station_id":"ce4bho92rcd13ifvqh4g","pricing_plan_id":"free"},{"bike_id":"6f1e71ce-abde-405d-98be-afbf01306c0c","system_id":"levelo_inurba_marseille","lat":43.317121,"lon":5.423936,"is_reserved":false,"is_disabled":false,"rental_uris":{"android":"levelo://app?vid=6f1e71ce-abde-405d-98be-afbf01306c0c","ios":"levelo://app?vid=6f1e71ce-abde-405d-98be-afbf01306c0c"},"vehicle_type_id":"4","last_reported":1702955256,"current_range_meters":31200,"station_id":"ce4bhp92rcd13ifvqhbg","pricing_plan_id":"free"},{"bike_id":"2b316b02-c0d6-4d57-998d-79a3e482aef1","system_id":"levelo_inurba_marseille","lat":43.317121,"lon":5.423936,"is_reserved":false,"is_disabled":false,"rental_uris":{"android":"levelo://app?vid=2b316b02-c0d6-4d57-998d-79a3e482aef1","ios":"levelo://app?vid=2b316b02-c0d6-4d57-998d-79a3e482aef1"},"vehicle_type_id":"4","last_reported":1702955256,"current_range_meters":31200,"station_id":"ce4bhp92rcd13ifvqhbg","pricing_plan_id":"free"},{"bike_id":"71d62e31-5bca-4078-93c8-308d7f83c73b","system_id":"levelo_inurba_marseille","lat":43.317121,"lon":5.423936,"is_reserved":false,"is_disabled":false,"rental_uris":{"android":"levelo://app?vid=71d62e31-5bca-4078-93c8-308d7f83c73b","ios":"levelo://app?vid=71d62e31-5bca-4078-93c8-308d7f83c73b"},"vehicle_type_id":"4","last_reported":1702955256,"current_range_meters":31200,"station_id":"ce4bhp92rcd13ifvqhbg","pricing_plan_id":"free"},{"bike_id":"e45fb321-4f90-49d5-be25-f5c1eaa7951c","system_id":"levelo_inurba_marseille","lat":43.340804,"lon":5.410219,"is_reserved":false,"is_disabled":false,"rental_uris":{"android":"levelo://app?vid=e45fb321-4f90-49d5-be25-f5c1eaa7951c","ios":"levelo://app?vid=e45fb321-4f90-49d5-be25-f5c1eaa7951c"},"vehicle_type_id":"4","last_reported":1702955256,"current_range_meters":28000,"station_id":"ce4bhqh2rcd13ifvqhlg","pricing_plan_id":"free"},{"bike_id":"3999cd9a-d93e-4edd-bb04-1385fdd14c82","system_id":"levelo_inurba_marseille","lat":43.340804,"lon":5.410219,"is_reserved":false,"is_disabled":false,"rental_uris":{"android":"levelo://app?vid=3999cd9a-d93e-4edd-bb04-1385fdd14c82","ios":"levelo://app?vid=3999cd9a-d93e-4edd-bb04-1385fdd14c82"},"vehicle_type_id":"4","last_reported":1702955256,"current_range_meters":3200,"station_id":"ce4bhqh2rcd13ifvqhlg","pricing_plan_id":"free"},{"bike_id":"b00e5c08-ce74-4e3e-9bce-5de1394bcf4d","system_id":"levelo_inurba_marseille","lat":43.276092,"lon":5.395289,"is_reserved":false,"is_disabled":false,"rental_uris":{"android":"levelo://app?vid=b00e5c08-ce74-4e3e-9bce-5de1394bcf4d","ios":"levelo://app?vid=b00e5c08-ce74-4e3e-9bce-5de1394bcf4d"},"vehicle_type_id":"4","last_reported":1702955256,"current_range_meters":9600,"station_id":"","pricing_plan_id":"free"},{"bike_id":"f7ff7547-fef6-4656-a05e-6b75607b80de","system_id":"levelo_inurba_marseille","lat":43.274103,"lon":5.394016,"is_reserved":false,"is_disabled":false,"rental_uris":{"android":"levelo://app?vid=f7ff7547-fef6-4656-a05e-6b75607b80de","ios":"levelo://app?vid=f7ff7547-fef6-4656-a05e-6b75607b80de"},"vehicle_type_id":"4","last_reported":1702955256,"current_range_meters":30000,"station_id":"ce4bhdp2rcd13ifvqf20","pricing_plan_id":"free"},{"bike_id":"eafafd7a-8cb9-4a31-bba2-7b936825d2cf","system_id":"levelo_inurba_marseille","lat":43.304096,"lon":5.425385,"is_reserved":false,"is_disabled":false,"rental_uris":{"android":"levelo://app?vid=eafafd7a-8cb9-4a31-bba2-7b936825d2cf","ios":"levelo://app?vid=eafafd7a-8cb9-4a31-bba2-7b936825d2cf"},"vehicle_type_id":"4","last_reported":1702955256,"current_range_meters":30400,"station_id":"ce4bhoh2rcd13ifvqh6g","pricing_plan_id":"free"},{"bike_id":"3ffdf33f-65c9-453e-a35c-e9b7b8360b99","system_id":"levelo_inurba_marseille","lat":43.304096,"lon":5.425385,"is_reserved":false,"is_disabled":false,"rental_uris":{"android":"levelo://app?vid=3ffdf33f-65c9-453e-a35c-e9b7b8360b99","ios":"levelo://app?vid=3ffdf33f-65c9-453e-a35c-e9b7b8360b99"},"vehicle_type_id":"4","last_reported":1702955256,"current_range_meters":28400,"station_id":"ce4bhoh2rcd13ifvqh6g","pricing_plan_id":"free"},{"bike_id":"4e03fc31-0b1e-4fb0-b969-19b700bc74f1","system_id":"levelo_inurba_marseille","lat":43.30401,"lon":5.42559,"is_reserved":false,"is_disabled":false,"rental_uris":{"android":"levelo://app?vid=4e03fc31-0b1e-4fb0-b969-19b700bc74f1","ios":"levelo://app?vid=4e03fc31-0b1e-4fb0-b969-19b700bc74f1"},"vehicle_type_id":"4","last_reported":1702955256,"current_range_meters":31200,"station_id":"ce4bhoh2rcd13ifvqh6g","pricing_plan_id":"free"},{"bike_id":"1ee3b145-ea59-4c38-9eb1-4f977207f813","system_id":"levelo_inurba_marseille","lat":43.295511,"lon":5.422926,"is_reserved":false,"is_disabled":false,"rental_uris":{"android":"levelo://app?vid=1ee3b145-ea59-4c38-9eb1-4f977207f813","ios":"levelo://app?vid=1ee3b145-ea59-4c38-9eb1-4f977207f813"},"vehicle_type_id":"4","last_reported":1702955256,"current_range_meters":21600,"station_id":"ce4bhph2rcd13ifvqhdg","pricing_plan_id":"free"},{"bike_id":"9a8156fc-dfd7-4e70-8e10-daa0d6c4a054","system_id":"levelo_inurba_marseille","lat":43.295523,"lon":5.422926,"is_reserved":false,"is_disabled":false,"rental_uris":{"android":"levelo://app?vid=9a8156fc-dfd7-4e70-8e10-daa0d6c4a054","ios":"levelo://app?vid=9a8156fc-dfd7-4e70-8e10-daa0d6c4a054"},"vehicle_type_id":"4","last_reported":1702955256,"current_range_meters":23600,"station_id":"ce4bhph2rcd13ifvqhdg","pricing_plan_id":"free"},{"bike_id":"aa4a92c0-0b8a-49c1-ac93-fb59c1122f6f","system_id":"levelo_inurba_marseille","lat":43.295523,"lon":5.422926,"is_reserved":false,"is_disabled":false,"rental_uris":{"android":"levelo://app?vid=aa4a92c0-0b8a-49c1-ac93-fb59c1122f6f","ios":"levelo://app?vid=aa4a92c0-0b8a-49c1-ac93-fb59c1122f6f"},"vehicle_type_id":"4","last_reported":1702955256,"current_range_meters":24000,"station_id":"ce4bhph2rcd13ifvqhdg","pricing_plan_id":"free"},