{"last_updated":1759230544,"ttl":60,"version":"2.2","data":{"bikes":[{"bike_id":"befd4b15-cabd-4577-ac93-871f1a61d43a","system_id":"levelo_inurba_marseille","lat":43.29101,"lon":5.38121,"is_reserved":false,"is_disabled":false,"rental_uris":{"android":"levelo://app?vid=befd4b15-cabd-4577-ac93-871f1a61d43a","ios":"levelo://app?vid=befd4b15-cabd-4577-ac93-871f1a61d43a"},"vehicle_type_id":"4","last_reported":1759230544,"current_range_meters":2000,"station_id":"ce4bh512rcd13ifvqe2g","pricing_plan_id":"cebpf4jnsgd1na2vs0mg"},{"bike_id":"95f02cd1-b0cf-4e3d-8708-b9107583e9a0","system_id":"levelo_inurba_marseille","lat":43.27495,"lon":5.42459,"is_reserved":false,"is_disabled":true,"rental_uris":{"android":"levelo://app?vid=95f02cd1-b0cf-4e3d-8708-b9107583e9a0","ios":"levelo://app?vid=95f02cd1-b0cf-4e3d-8708-b9107583e9a0"},"vehicle_type_id":"4","last_reported":1759230544,"current_range_meters":2800,"station_id":"ce4bhn92rcd13ifvqgrg","pricing_plan_id":"cebpf4jnsgd1na2vs0mg"},{"bike_id":"f0631586-fbf4-4e04-af1c-111065f74f0b","system_id":"levelo_inurba_marseille","lat":43.270721,"lon":5.422817,"is_reserved":false,"is_disabled":false,"rental_uris":{"android":"levelo://app?vid=f0631586-fbf4-4e04-af1c-111065f74f0b","ios":"levelo://app?vid=f0631586-fbf4-4e04-af1c-111065f74f0b"},"vehicle_type_id":"4","last_reported":1759230544,"current_range_meters":2800,"station_id":"ce4bhk92rcd13ifvqgb0","pricing_plan_id":"cebpf4jnsgd1na2vs0mg"},{"bike_id":"f7a508a1-2415-436e-bad3-b6fa55190c9d","system_id":"levelo_inurba_marseille","lat":43.25722,"lon":5.41114,"is_reserved":false,"is_disabled":false,"rental_uris":{"android":"levelo://app?vid=f7a508a1-2415-436e-bad3-b6fa55190c9d","ios":"levelo://app?vid=f7a508a1-2415-436e-bad3-b6fa55190c9d"},"vehicle_type_id":"4","last_reported":1759230544,"current_range_meters":3200,"station_id":"ce4bhkp2rcd13ifvqgd0","pricing_plan_id":"cebpf4jnsgd1na2vs0mg"},{"bike_id":"e2d6945d-48fb-4b99-8c5b-76add9877510","system_id":"levelo_inurba_marseille","lat":43.32365,"lon":5.38883,"is_reserved":false,"is_disabled":false,"rental_uris":{"android":"levelo://app?vid=e2d6945d-48fb-4b99-8c5b-76add9877510","ios":"levelo://app?vid=e2d6945d-48fb-4b99-8c5b-76add9877510"},"vehicle_type_id":"4","last_reported":1759230544,"current_range_meters":3200,"station_id":"ce4bhqp2rcd13ifvqhog","pricing_plan_id":"cebpf4jnsgd1na2vs0mg"},{"bike_id":"fa7deca1-7f3e-43bf-a24c-f1eefae77429","system_id":"levelo_inurba_marseille","lat":43.30956,"lon":5.39056,"is_reserved":false,"is_disabled":false,"rental_uris":{"android":"levelo://app?vid=fa7deca1-7f3e-43bf-a24c-f1eefae77429","ios":"levelo://app?vid=fa7deca1-7f3e-43bf-a24c-f1eefae77429"},"vehicle_type_id":"4","last_reported":1759230544,"current_range_meters":3200,"station_id":"ce4bgup2rcd13ifvqco0","pricing_plan_id":"cebpf4jnsgd1na2vs0mg"},{"bike_id":"88fa6f8e-61ff-441f-97b2-7795bfdeff6f","system_id":"levelo_inurba_marseille","lat":43.28945,"lon":5.36376,"is_reserved":false,"is_disabled":false,"rental_uris":{"android":"levelo://app?vid=88fa6f8e-61ff-441f-97b2-7795bfdeff6f","ios":"levelo://app?vid=88fa6f8e-61ff-441f-97b2-7795bfdeff6f"},"vehicle_type_id":"4","last_reported":1759230544,"current_range_meters":4800,"station_id":"ce4bhc92rcd13ifvqetg","pricing_plan_id":"cebpf4jnsgd1na2vs0mg"},{"bike_id":"35e9f3ae-1e5f-467f-bbe1-9c46af811b95","system_id":"levelo_inurba_marseille","lat":43.30305,"lon":5.39199,"is_reserved":false,"is_disabled":false,"rental_uris":{"android":"levelo://app?vid=35e9f3ae-1e5f-467f-bbe1-9c46af811b95","ios":"levelo://app?vid=35e9f3ae-1e5f-467f-bbe1-9c46af811b95"},"vehicle_type_id":"4","last_reported":1759230544,"current_range_meters":3200,"station_id":"ce4bgkh2rcd13ifvqbk0","pricing_plan_id":"cebpf4jnsgd1na2vs0mg"},{"bike_id":"be7dae0d-94d7-4a0d-89d8-07c528e32b57","system_id":"levelo_inurba_marseille","lat":43.32594,"lon":5.390735,"is_reserved":false,"is_disabled":false,"rental_uris":{"android":"levelo://app?vid=be7dae0d-94d7-4a0d-89d8-07c528e32b57","ios":"levelo://app?vid=be7dae0d-94d7-4a0d-89d8-07c528e32b57"},"vehicle_type_id":"4","last_reported":1759230544,"current_range_meters":3200,"station_id":"","pricing_plan_id":"cebpf4jnsgd1na2vs0mg"},{"bike_id":"8a4a8404-2223-404b-b9d6-fda388efd3eb","system_id":"levelo_inurba_marseille","lat":43.225399,"lon":5.348524,"is_reserved":false,"is_disabled":false,"rental_uris":{"android":"levelo://app?vid=8a4a8404-2223-404b-b9d6-fda388efd3eb","ios":"levelo://app?vid=8a4a8404-2223-404b-b9d6-fda388efd3eb"},"vehicle_type_id":"4","last_reported":1759230544,"current_range_meters":3600,"station_id":"","pricing_plan_id":"cebpf4jnsgd1na2vs0mg"},{"bike_id":"fd7546fc-7b2c-4c94-8188-2aeba9afa9ea","system_id":"levelo_inurba_marseille","lat":43.24402,"lon":5.37051,"is_reserved":false,"is_disabled":false,"rental_uris":{"android":"levelo://app?vid=fd7546fc-7b2c-4c94-8188-2aeba9afa9ea","ios":"levelo://app?vid=fd7546fc-7b2c-4c94-8188-2aeba9afa9ea"},"vehicle_type_id":"4","last_reported":1759230544,"current_range_meters":4000,"station_id":"ce4bhhh2rcd13ifvqfk0","pricing_plan_id":"cebpf4jnsgd1na2vs0mg"},{"bike_id":"258ab053-1083-4ca9-a32a-1e85f085fc22","system_id":"levelo_inurba_marseille","lat":43.337444,"lon":5.374475,"is_reserved":false,"is_disabled":false,"rental_uris":{"android":"levelo://app?vid=258ab053-1083-4ca9-a32a-1e85f085fc22","ios":"levelo://app?vid=258ab053-1083-4ca9-a32a-1e85f085fc22"},"vehicle_type_id":"4","last_reported":1759230544,"current_range_meters":4000,"station_id":"","pricing_plan_id":"cebpf4jnsgd1na2vs0mg"},{"bike_id":"8b353c9e-13c5-42ee-a76f-ccbd6269a3dc","system_id":"levelo_inurba_marseille","lat":43.30444,"lon":5.36689,"is_reserved":false,"is_disabled":false,"rental_uris":{"android":"levelo://app?vid=8b353c9e-13c5-42ee-a76f-ccbd6269a3dc","ios":"levelo://app?vid=8b353c9e-13c5-42ee-a76f-ccbd6269a3dc"},"vehicle_type_id":"4","last_reported":1759230544,"current_range_meters":4400,"station_id":"","pricing_plan_id":"cebpf4jnsgd1na2vs0mg"},{"bike_id":"8eba698c-1343-4776-a7ef-1194c9c853da","system_id":"levelo_inurba_marseille","lat":43.266,"lon":5.39346,"is_reserved":false,"is_disabled":false,"rental_uris":{"android":"levelo://app?vid=8eba698c-1343-4776-a7ef-1194c9c853da","ios":"levelo://app?vid=8eba698c-1343-4776-a7ef-1194c9c853da"},"vehicle_type_id":"4","last_reported":1759230544,"current_range_meters":4400,"station_id":"","pricing_plan_id":"cebpf4jnsgd1na2vs0mg"},{"bike_id":"13062117-10cc-45d5-ae85-97f2cc1b8809","system_id":"levelo_inurba_marseille","lat":43.2257,"lon":5.4162,"is_reserved":false,"is_disabled":false,"rental_uris":{"android":"levelo://app?vid=13062117-10cc-45d5-ae85-97f2cc1b8809","ios":"levelo://app?vid=13062117-10cc-45d5-ae85-97f2cc1b8809"},"vehicle_type_id":"4","last_reported":1759230544,"current_range_meters":4400,"station_id":"st_d2o4gvlbi1j2169b742g","pricing_plan_id":"cebpf4jnsgd1na2vs0mg"},{"bike_id":"bb369288-a90e-4315-8e75-d6b603b36f20","system_id":"levelo_inurba_marseille","lat":43.27211,"lon":5.39183,"is_reserved":false,"is_disabled":false,"rental_uris":{"android":"levelo://app?vid=bb369288-a90e-4315-8e75-d6b603b36f20","ios":"levelo://app?vid=bb369288-a90e-4315-8e75-d6b603b36f20"},"vehicle_type_id":"4","last_reported":1759230544,"current_range_meters":4000,"station_id":"ce4bhhp2rcd13ifvqfm0","pricing_plan_id":"cebpf4jnsgd1na2vs0mg"},{"bike_id":"2c6518be-b3f0-42d2-93c9-c1de9e54885f","system_id":"levelo_inurba_marseille","lat":43.29227,"lon":5.38219,"is_reserved":false,"is_disabled":false,"rental_uris":{"android":"levelo://app?vid=2c6518be-b3f0-42d2-93c9-c1de9e54885f","ios":"levelo://app?vid=2c6518be-b3f0-42d2-93c9-c1de9e54885f"},"vehicle_type_id":"4","last_reported":1759230544,"current_range_meters":4800,"station_id":"","pricing_plan_id":"cebpf4jnsgd1na2vs0mg"},{"bike_id":"9aae8a7e-c0b2-47d2-bb51-27761f43678a","system_id":"levelo_inurba_marseille","lat":43.29899,"lon":5.43668,"is_reserved":false,"is_disabled":false,"rental_uris":{"android":"levelo://app?vid=9aae8a7e-c0b2-47d2-bb51-27761f43678a","ios":"levelo://app?vid=9aae8a7e-c0b2-47d2-bb51-27761f43678a"},"vehicle_type_id":"4","last_reported":1759230544,"current_range_meters":4400,"station_id":"ce4bhpp2rcd13ifvqhfg","pricing_plan_id":"cebpf4jnsgd1na2vs0mg"},{"bike_id":"854174f1-a17f-44db-8d62-e43b562db6c9","system_id":"levelo_inurba_marseille","lat":43.28409,"lon":5.34981,"is_reserved":false,"is_disabled":false,"rental_uris":{"android":"levelo://app?vid=854174f1-a17f-44db-8d62-e43b562db6c9","ios":"levelo://app?vid=854174f1-a17f-44db-8d62-e43b562db6c9"},"vehicle_type_id":"4","last_reported":1759230544,"current_range_meters":4800,"station_id":"ce4bhbh2rcd13ifvqepg","pricing_plan_id":"cebpf4jnsgd1na2vs0mg"},{"bike_id":"52e91664-3a90-4465-a6cd-682a1fcbb441","system_id":"levelo_inurba_marseille","lat":43.25585,"lon":5.38246,"is_reserved":false,"is_disabled":false,"rental_uris":{"android":"levelo://app?vid=52e91664-3a90-4465-a6cd-682a1fcbb441","ios":"levelo://app?vid=52e91664-3a90-4465-a6cd-682a1fcbb441"},"vehicle_type_id":"4","last_reported":1759230544,"current_range_meters":4800,"station_id":"ce4bhih2rcd13ifvqfs0","pricing_plan_id":"cebpf4jnsgd1na2vs0mg"},{"bike_id":"1dad2113-89e2-44fc-a0b6-ddd6a09baff1","system_id":"levelo_inurba_marseille","lat":43.337444,"lon":5.374475,"is_reserved":false,"is_disabled":false,"rental_uris":{"android":"levelo://app?vid=1dad2113-89e2-44fc-a0b6-ddd6a09baff1","ios":"levelo://app?vid=1dad2113-89e2-44fc-a0b6-ddd6a09baff1"},"vehicle_type_id":"4","last_reported":1759230544,"current_range_meters":4800,"station_id":"","pricing_plan_id":"cebpf4jnsgd1na2vs0mg"},{"bike_id":"fc8f7ea9-87b3-4d74-9aad-12580567e218","system_id":"levelo_inurba_marseille","lat":43.28622,"lon":5.35105,"is_reserved":false,"is_disabled":false,"rental_uris":{"android":"levelo://app?vid=fc8f7ea9-87b3-4d74-9aad-12580567e218","ios":"levelo://app?vid=fc8f7ea9-87b3-4d74-9aad-12580567e218"},"vehicle_type_id":"4","last_reported":1759230544,"current_range_meters":5600,"station_id":"ce4bhch2rcd13ifvqeug","pricing_plan_id":"cebpf4jnsgd1na2vs0mg"},{"bike_id":"13480708-2176-4261-b155-e486d167105d","system_id":"levelo_inurba_marseille","lat":43.292008,"lon":5.358075,"is_reserved":false,"is_disabled":false,"rental_uris":{"android":"levelo://app?vid=13480708-2176-4261-b155-e486d167105d","ios":"levelo://app?vid=13480708-2176-4261-b155-e486d167105d"},"vehicle_type_id":"4","last_reported":1759230544,"current_range_meters":5600,"station_id":"ce4bhb12rcd13ifvqel0","pricing_plan_id":"cebpf4jnsgd1na2vs0mg"},{"bike_id":"c2f833aa-7030-464e-84a7-df0630c83cfc","system_id":"levelo_inurba_marseille","lat":43.29314,"lon":5.37165,"is_reserved":false,"is_disabled":false,"rental_uris":{"android":"levelo://app?vid=c2f833aa-7030-464e-84a7-df0630c83cfc","ios":"levelo://app?vid=c2f833aa-7030-464e-84a7-df0630c83cfc"},"vehicle_type_id":"4","last_reported":1759230544,"current_range_meters":5600,"station_id":"ce4bgh92rcd13ifvqb40","pricing_plan_id":"cebpf4jnsgd1na2vs0mg"},{"bike_id":"8c30169e-1d5a-42f0-b1a4-6331b42513f2","system_id":"levelo_inurba_marseille","lat":43.29266,"lon":5.38434,"is_reserved":false,"is_disabled":false,"rental_uris":{"android":"levelo://app?vid=8c30169e-1d5a-42f0-b1a4-6331b42513f2","ios":"levelo://app?vid=8c30169e-1d5a-42f0-b1a4-6331b42513f2"},"vehicle_type_id":"4","last_reported":1759230544,"current_range_meters":6000,"station_id":"ce4bh692rcd13ifvqea0","pricing_plan_id":"cebpf4jnsgd1na2vs0mg"},{"bike_id":"a169f977-e6d7-49cf-b1de-73a7f9f00e5c","system_id":"levelo_inurba_marseille","lat":43.29033,"lon":5.38655,"is_reserved":false,"is_disabled":false,"rental_uris":{"android":"levelo://app?vid=a169f977-e6d7-49cf-b1de-73a7f9f00e5c","ios":"levelo://app?vid=a169f977-e6d7-49cf-b1de-73a7f9f00e5c"},"vehicle_type_id":"4","last_reported":1759230544,"current_range_meters":6000,"station_id":"ce4bh4p2rcd13ifvqe0g","pricing_plan_id":"cebpf4jnsgd1na2vs0mg"},{"bike_id":"ca660db5-13a2-4b17-89f6-c4a43f402701","system_id":"levelo_inurba_marseille","lat":43.31851,"lon":5.37068,"is_reserved":false,"is_disabled":false,"rental_uris":{"android":"levelo://app?vid=ca660db5-13a2-4b17-89f6-c4a43f402701","ios":"levelo://app?vid=ca660db5-13a2-4b17-89f6-c4a43f402701"},"vehicle_type_id":"4","last_reported":1759230544,"current_range_meters":6000,"station_id":"","pricing_plan_id":"cebpf4jnsgd1na2vs0mg"},{"bike_id":"6a364f2e-3077-4eb7-81b5-5e0dddab571c","system_id":"levelo_inurba_marseille","lat":43.30949,"lon":5.39032,"is_reserved":false,"is_disabled":false,"rental_uris":{"android":"levelo://app?vid=6a364f2e-3077-4eb7-81b5-5e0dddab571c","ios":"levelo://app?vid=6a364f2e-3077-4eb7-81b5-5e0dddab571c"},"vehicle_type_id":"4","last_reported":1759230544,"current_range_meters":6000,"station_id":"ce4bgup2rcd13ifvqco0","pricing_plan_id":"cebpf4jnsgd1na2vs0mg"},{"bike_id":"f712deb7-8d0b-49c9-8b24-6dbf3c3fc4ec","system_id":"levelo_inurba_marseille","lat":43.261955,"lon":5.374472,"is_reserved":false,"is_disabled":false,"rental_uris":{"android":"levelo://app?vid=f712deb7-8d0b-49c9-8b24-6dbf3c3fc4ec","ios":"levelo://app?vid=f712deb7-8d0b-49c9-8b24-6dbf3c3fc4ec"},"vehicle_type_id":"4","last_reported":1759230544,"current_range_meters":6000,"station_id":"ce4bhgp2rcd13ifvqfc0","pricing_plan_id":"cebpf4jnsgd1na2vs0mg"},{"bike_id":"511cc80f-04a6-4a9f-afdd-004129d93b1f","system_id":"levelo_inurba_marseille","lat":43.26626,"lon":5.39393,"is_reserved":false,"is_disabled":false,"rental_uris":{"android":"levelo://app?vid=511cc80f-04a6-4a9f-afdd-004129d93b1f","ios":"levelo://app?vid=511cc80f-04a6-4a9f-afdd-004129d93b1f"},"vehicle_type_id":"4","last_reported":1759230544,"current_range_meters":6000,"station_id":"","pricing_plan_id":"cebpf4jnsgd1na2vs0mg"},{"bike_id":"35e8f722-b82a-4247-beb8-7e2827829ce6","system_id":"levelo_inurba_marseille","lat":43.32405,"lon":5.3911,"is_reserved":false,"is_disabled":false,"rental_uris":{"android":"levelo://app?vid=35e8f722-b82a-4247-beb8-7e2827829ce6","ios":"levelo://app?vid=35e8f722-b82a-4247-beb8-7e2827829ce6"},"vehicle_type_id":"4","last_reported":1759230544,"current_range_meters":6000,"station_id":"","pricing_plan_id":"cebpf4jnsgd1na2vs0mg"},{"bike_id":"fc22b2fa-9489-44b0-9b8a-bc04307b6493","system_id":"levelo_inurba_marseille","lat":43.30436,"lon":5.38882,"is_reserved":false,"is_disabled":false,"rental_uris":{"android":"levelo://app?vid=fc22b2fa-9489-44b0-9b8a-bc04307b6493","ios":"levelo://app?vid=fc22b2fa-9489-44b0-9b8a-bc04307b6493"},"vehicle_type_id":"4","last_reported":1759230544,"current_range_meters":6000,"station_id":"ce4bgk12rcd13ifvqbi0","pricing_plan_id":"cebpf4jnsgd1na2vs0mg"},{"bike_id":"e5378695-fba9-432a-9cfb-3b5b05e40fec","system_id":"levelo_inurba_marseille","lat":43.337986,"lon":5.374304,"is_reserved":false,"is_disabled":false,"rental_uris":{"android":"levelo://app?vid=e5378695-fba9-432a-9cfb-3b5b05e40fec","ios":"levelo://app?vid=e5378695-fba9-432a-9cfb-3b5b05e40fec"},"vehicle_type_id":"4","last_reported":1759230544,"current_range_meters":6000,"station_id":"","pricing_plan_id":"cebpf4jnsgd1na2vs0mg"},{"bike_id":"89f01ef4-1096-400c-8e96-4c4d09b44444","system_id":"levelo_inurba_marseille","lat":43.28933,"lon":5.38395,"is_reserved":false,"is_disabled":false,"rental_uris":{"android":"levelo://app?vid=89f01ef4-1096-400c-8e96-4c4d09b44444","ios":"levelo://app?vid=89f01ef4-1096-400c-8e96-4c4d09b44444"},"vehicle_type_id":"4","last_reported":1759230544,"current_range_meters":6400,"station_id":"ce4bh612rcd13ifvqe6g","pricing_plan_id":"cebpf4jnsgd1na2vs0mg"},{"bike_id":"cefaa9ca-8082-4e29-90cb-e668cd650dfc","system_id":"levelo_inurba_marseille","lat":43.24176,"lon":5.39735,"is_reserved":false,"is_disabled":false,"rental_uris":{"android":"levelo://app?vid=cefaa9ca-8082-4e29-90cb-e668cd650dfc","ios":"levelo://app?vid=cefaa9ca-8082-4e29-90cb-e668cd650dfc"},"vehicle_type_id":"4","last_reported":1759230544,"current_range_meters":6800,"station_id":"ce4bhn12rcd13ifvqgpg","pricing_plan_id":"cebpf4jnsgd1na2vs0mg"},{"bike_id":"803a52fa-5f2c-4a2a-a3be-740c021d8a48","system_id":"levelo_inurba_marseille","lat":43.24392,"lon":5.37057,"is_reserved":false,"is_disabled":false,"rental_uris":{"android":"levelo://app?vid=803a52fa-5f2c-4a2a-a3be-740c021d8a48","ios":"levelo://app?vid=803a52fa-5f2c-4a2a-a3be-740c021d8a48"},"vehicle_type_id":"4","last_reported":1759230544,"current_range_meters":6800,"station_id":"ce4bhhh2rcd13ifvqfk0","pricing_plan_id":"cebpf4jnsgd1na2vs0mg"},{"bike_id":"d3e63642-d8e1-415a-bd6c-1227573898fc","system_id":"levelo_inurba_marseille","lat":43.31226,"lon":5.36849,"is_reserved":false,"is_disabled":false,"rental_uris":{"android":"levelo://app?vid=d3e63642-d8e1-415a-bd6c-1227573898fc","ios":"levelo://app?vid=d3e63642-d8e1-415a-bd6c-1227573898fc"},"vehicle_type_id":"4","last_reported":1759230544,"current_range_meters":6800,"station_id":"ce4bgl92rcd13ifvqbq0","pricing_plan_id":"cebpf4jnsgd1na2vs0mg"},{"bike_id":"0d7c6bb9-347c-41b6-aaac-a5422f883694","system_id":"levelo_inurba_marseille","lat":43.28281,"lon":5.35076,"is_reserved":false,"is_disabled":false,"rental_uris":{"android":"levelo://app?vid=0d7c6bb9-347c-41b6-aaac-a5422f883694","ios":"levelo://app?vid=0d7c6bb9-347c-41b6-aaac-a5422f883694"},"vehicle_type_id":"4","last_reported":1759230544,"current_range_meters":6800,"station_id":"ce4bhbp2rcd13ifvqerg","pricing_plan_id":"cebpf4jnsgd1na2vs0mg"},{"bike_id":"44aa2a71-e502-4b62-973a-67e2cf2f2dfc","system_id":"levelo_inurba_marseille","lat":43.32489,"lon":5.36565,"is_reserved":false,"is_disabled":false,"rental_uris":{"android":"levelo://app?vid=44aa2a71-e502-4b62-973a-67e2cf2f2dfc","ios":"levelo://app?vid=44aa2a71-e502-4b62-973a-67e2cf2f2dfc"},"vehicle_type_id":"4","last_reported":1759230544,"current_range_meters":6800,"station_id":"ce4bhs12rcd13ifvqhvg","pricing_plan_id":"cebpf4jnsgd1na2vs0mg"},{"bike_id":"6a2583c5-7d17-40b6-805f-df721c9c8c2b","system_id":"levelo_inurba_marseille","lat":43.29886,"lon":5.38905,"is_reserved":false,"is_disabled":false,"rental_uris":{"android":"levelo://app?vid=6a2583c5-7d17-40b6-805f-df721c9c8c2b","ios":"levelo://app?vid=6a2583c5-7d17-40b6-805f-df721c9c8c2b"},"vehicle_type_id":"4","last_reported":1759230544,"current_range_meters":7200,"station_id":"ce4bh392rcd13ifvqdl0","pricing_plan_id":"cebpf4jnsgd1na2vs0mg"},{"bike_id":"b17feaf8-f1f6-4569-a6fc-fc60277ff4ff","system_id":"levelo_inurba_marseille","lat":43.32367,"lon":5.3676,"is_reserved":false,"is_disabled":true,"rental_uris":{"android":"levelo://app?vid=b17feaf8-f1f6-4569-a6fc-fc60277ff4ff","ios":"levelo://app?vid=b17feaf8-f1f6-4569-a6fc-fc60277ff4ff"},"vehicle_type_id":"4","last_reported":1759230544,"current_range_meters":7200,"station_id":"ce4bhsh2rcd13ifvqi2g","pricing_plan_id":"cebpf4jnsgd1na2vs0mg"},{"bike_id":"7952d0c5-c3b4-4c29-bacd-f59ef155894d","system_id":"levelo_inurba_marseille","lat":43.30101,"lon":5.39099,"is_reserved":false,"is_disabled":false,"rental_uris":{"android":"levelo://app?vid=7952d0c5-c3b4-4c29-bacd-f59ef155894d","ios":"levelo://app?vid=7952d0c5-c3b4-4c29-bacd-f59ef155894d"},"vehicle_type_id":"4","last_reported":1759230544,"current_range_meters":7200,"station_id":"ce4bh192rcd13ifvqdb0","pricing_plan_id":"cebpf4jnsgd1na2vs0mg"},{"bike_id":"80b98ce0-3233-47ce-84db-722943723d1e","system_id":"levelo_inurba_marseille","lat":43.269329,"lon":5.38928,"is_reserved":false,"is_disabled":true,"rental_uris":{"android":"levelo://app?vid=80b98ce0-3233-47ce-84db-722943723d1e","ios":"levelo://app?vid=80b98ce0-3233-47ce-84db-722943723d1e"},"vehicle_type_id":"4","last_reported":1759230544,"current_range_meters":7200,"station_id":"","pricing_plan_id":"cebpf4jnsgd1na2vs0mg"},{"bike_id":"ea59b303-6900-42ad-9e79-5b0f95bedd6c","system_id":"levelo_inurba_marseille","lat":43.30455,"lon":5.36866,"is_reserved":false,"is_disabled":false,"rental_uris":{"android":"levelo://app?vid=ea59b303-6900-42ad-9e79-5b0f95bedd6c","ios":"levelo://app?vid=ea59b303-6900-42ad-9e79-5b0f95bedd6c"},"vehicle_type_id":"4","last_reported":1759230544,"current_range_meters":7200,"station_id":"","pricing_plan_id":"cebpf4jnsgd1na2vs0mg"},{"bike_id":"03350417-1098-4d6c-b8fe-9e64358744bf","system_id":"levelo_inurba_marseille","lat":43.31089,"lon":5.37659,"is_reserved":false,"is_disabled":false,"rental_uris":{"android":"levelo://app?vid=03350417-1098-4d6c-b8fe-9e64358744bf","ios":"levelo://app?vid=03350417-1098-4d6c-b8fe-9e64358744bf"},"vehicle_type_id":"4","last_reported":1759230544,"current_range_meters":7200,"station_id":"","pricing_plan_id":"cebpf4jnsgd1na2vs0mg"},{"bike_id":"78dc92b6-7d96-4ad5-a40d-22fbe2bd2133","system_id":"levelo_inurba_marseille","lat":43.28725,"lon":5.36085,"is_reserved":false,"is_disabled":false,"rental_uris":{"android":"levelo://app?vid=78dc92b6-7d96-4ad5-a40d-22fbe2bd2133","ios":"levelo://app?vid=78dc92b6-7d96-4ad5-a40d-22fbe2bd2133"},"vehicle_type_id":"4","last_reported":1759230544,"current_range_meters":7200,"station_id":"cki0cbj6b192h4jlfktg","pricing_plan_id":"cebpf4jnsgd1na2vs0mg"},{"bike_id":"a9954192-4802-4f98-b97a-ebe9ab75d705","system_id":"levelo_inurba_marseille","lat":43.34145,"lon":5.40906,"is_reserved":false,"is_disabled":false,"rental_uris":{"android":"levelo://app?vid=a9954192-4802-4f98-b97a-ebe9ab75d705","ios":"levelo://app?vid=a9954192-4802-4f98-b97a-ebe9ab75d705"},"vehicle_type_id":"4","last_reported":1759230544,"current_range_meters":8000,"station_id":"ce4bhqh2rcd13ifvqhlg","pricing_plan_id":"cebpf4jnsgd1na2vs0mg"},{"bike_id":"29fb0313-96d0-4699-a2b9-d9bfae768dba","system_id":"levelo_inurba_marseille","lat":43.28151,"lon":5.42637,"is_reserved":false,"is_disabled":true,"rental_uris":{"android":"levelo://app?vid=29fb0313-96d0-4699-a2b9-d9bfae768dba","ios":"levelo://app?vid=29fb0313-96d0-4699-a2b9-d9bfae768dba"},"vehicle_type_id":"4","last_reported":1759230544,"current_range_meters":8000,"station_id":"ce4bhnh2rcd13ifvqgug","pricing_plan_id":"cebpf4jnsgd1na2vs0mg"},{"bike_id":"bdde929d-6cf2-475a-9fd0-c5de185f152f","system_id":"levelo_inurba_marseille","lat":43.33604,"lon":5.41002,"is_reserved":false,"is_disabled":false,"rental_uris":{"android":"levelo://app?vid=bdde929d-6cf2-475a-9fd0-c5de185f152f","ios":"levelo://app?vid=bdde929d-6cf2-475a-9fd0-c5de185f152f"},"vehicle_type_id":"4","last_reported":1759230544,"current_range_meters":8000,"station_id":"ce4bhqh2rcd13ifvqhmg","pricing_plan_id":"cebpf4jnsgd1na2vs0mg"},{"bike_id":"008f00ef-5d91-4678-8543-b2d7f596f40f","system_id":"levelo_inurba_marseille","lat":43.31216,"lon":5.36866,"is_reserved":false,"is_disabled":false,"rental_uris":{"android":"levelo://app?vid=008f00ef-5d91-4678-8543-b2d7f596f40f","ios":"levelo://app?vid=008f00ef-5d91-4678-8543-b2d7f596f40f"},"vehicle_type_id":"4","last_reported":1759230544,"current_range_meters":8000,"station_id":"ce4bgl92rcd13ifvqbq0","pricing_plan_id":"cebpf4jnsgd1na2vs0mg"},{"bike_id":"ce5e157e-4ef2-4c41-9b3b-54d3eecbfa45","system_id":"levelo_inurba_marseille","lat":43.2251,"lon":5.34839,"is_reserved":false,"is_disabled":false,"rental_uris":{"android":"levelo://app?vid=ce5e157e-4ef2-4c41-9b3b-54d3eecbfa45","ios":"levelo://app?vid=ce5e157e-4ef2-4c41-9b3b-54d3eecbfa45"},"vehicle_type_id":"4","last_reported":1759230544,"current_range_meters":8000,"station_id":"","pricing_plan_id":"cebpf4jnsgd1na2vs0mg"},{"bike_id":"0100122a-66bd-4fdb-9625-f9906865b1f3","system_id":"levelo_inurba_marseille","lat":43.29568,"lon":5.3751,"is_reserved":false,"is_disabled":false,"rental_uris":{"android":"levelo://app?vid=0100122a-66bd-4fdb-9625-f9906865b1f3","ios":"levelo://app?vid=0100122a-66bd-4fdb-9625-f9906865b1f3"},"vehicle_type_id":"4","last_reported":1759230544,"current_range_meters":8400,"station_id":"ce4bgh92rcd13ifvqb50","pricing_plan_id":"cebpf4jnsgd1na2vs0mg"},{"bike_id":"662a7f5e-4de7-4299-9b04-0496f0663b4b","system_id":"levelo_inurba_marseille","lat":43.27578,"lon":5.38425,"is_reserved":false,"is_disabled":false,"rental_uris":{"android":"levelo://app?vid=662a7f5e-4de7-4299-9b04-0496f0663b4b","ios":"levelo://app?vid=662a7f5e-4de7-4299-9b04-0496f0663b4b"},"vehicle_type_id":"4","last_reported":1759230544,"current_range_meters":8400,"station_id":"ce4bhh92rcd13ifvqfi0","pricing_plan_id":"cebpf4jnsgd1na2vs0mg"},{"bike_id":"2e8e4b55-0ca7-4b03-b7cf-6bb39aff6c93","system_id":"levelo_inurba_marseille","lat":43.21754,"lon":5.34597,"is_reserved":false,"is_disabled":false,"rental_uris":{"android":"levelo://app?vid=2e8e4b55-0ca7-4b03-b7cf-6bb39aff6c93","ios":"levelo://app?vid=2e8e4b55-0ca7-4b03-b7cf-6bb39aff6c93"},"vehicle_type_id":"4","last_reported":1759230544,"current_range_meters":8400,"station_id":"","pricing_plan_id":"cebpf4jnsgd1na2vs0mg"},{"bike_id":"6c12a327-8239-427c-8bbe-4550474af6ba","system_id":"levelo_inurba_marseille","lat":43.27375,"lon":5.36238,"is_reserved":false,"is_disabled":true,"rental_uris":{"android":"levelo://app?vid=6c12a327-8239-427c-8bbe-4550474af6ba","ios":"levelo://app?vid=6c12a327-8239-427c-8bbe-4550474af6ba"},"vehicle_type_id":"4","last_reported":1759230544,"current_range_meters":8800,"station_id":"ce4bhbh2rcd13ifvqeo0","pricing_plan_id":"cebpf4jnsgd1na2vs0mg"},{"bike_id":"ee96a502-9b76-492e-840a-498b02aefe72","system_id":"levelo_inurba_marseille","lat":43.32358,"lon":5.39224,"is_reserved":false,"is_disabled":false,"rental_uris":{"android":"levelo://app?vid=ee96a502-9b76-492e-840a-498b02aefe72","ios":"levelo://app?vid=ee96a502-9b76-492e-840a-498b02aefe72"},"vehicle_type_id":"4","last_reported":1759230544,"current_range_meters":8400,"station_id":"","pricing_plan_id":"cebpf4jnsgd1na2vs0mg"},{"bike_id":"9c4235da-d3d0-4056-aa6b-c6aa6e8e7367","system_id":"levelo_inurba_marseille","lat":43.306691,"lon":5.375027,"is_reserved":false,"is_disabled":false,"rental_uris":{"android":"levelo://app?vid=9c4235da-d3d0-4056-aa6b-c6aa6e8e7367","ios":"levelo://app?vid=9c4235da-d3d0-4056-aa6b-c6aa6e8e7367"},"vehicle_type_id":"4","last_reported":1759230544,"current_range_meters":8400,"station_id":"","pricing_plan_id":"cebpf4jnsgd1na2vs0mg"},{"bike_id":"aee96300-cbc0-4bee-ae07-3ba195b42955","system_id":"levelo_inurba_marseille","lat":43.27946,"lon":5.41044,"is_reserved":false,"is_disabled":false,"rental_uris":{"android":"levelo://app?vid=aee96300-cbc0-4bee-ae07-3ba195b42955","ios":"levelo://app?vid=aee96300-cbc0-4bee-ae07-3ba195b42955"},"vehicle_type_id":"4","last_reported":1759230544,"current_range_meters":8400,"station_id":"ce4bhnp2rcd13ifvqh0g","pricing_plan_id":"cebpf4jnsgd1na2vs0mg"},{"bike_id":"5901a4c6-8531-46a9-95c5-8d9acf0e1be4","system_id":"levelo_inurba_marseille","lat":43.3088,"lon":5.37183,"is_reserved":false,"is_disabled":false,"rental_uris":{"android":"levelo://app?vid=5901a4c6-8531-46a9-95c5-8d9acf0e1be4","ios":"levelo://app?vid=5901a4c6-8531-46a9-95c5-8d9acf0e1be4"},"vehicle_type_id":"4","last_reported":1759230544,"current_range_meters":8400,"station_id":"ce4bguh2rcd13ifvqckg","pricing_plan_id":"cebpf4jnsgd1na2vs0mg"},{"bike_id":"76468404-4f55-4468-97f9-6540334ac227","system_id":"levelo_inurba_marseille","lat":43.32467,"lon":5.36555,"is_reserved":false,"is_disabled":false,"rental_uris":{"android":"levelo://app?vid=76468404-4f55-4468-97f9-6540334ac227","ios":"levelo://app?vid=76468404-4f55-4468-97f9-6540334ac227"},"vehicle_type_id":"4","last_reported":1759230544,"current_range_meters":8400,"station_id":"ce4bhs12rcd13ifvqhvg","pricing_plan_id":"cebpf4jnsgd1na2vs0mg"},{"bike_id":"446304bb-30a3-4283-8664-ca64a3aade2d","system_id":"levelo_inurba_marseille","lat":43.30946,"lon":5.39052,"is_reserved":false,"is_disabled":false,"rental_uris":{"android":"levelo://app?vid=446304bb-30a3-4283-8664-ca64a3aade2d","ios":"levelo://app?vid=446304bb-30a3-4283-8664-ca64a3aade2d"},"vehicle_type_id":"4","last_reported":1759230544,"current_range_meters":8800,"station_id":"ce4bgup2rcd13ifvqco0","pricing_plan_id":"cebpf4jnsgd1na2vs0mg"},{"bike_id":"dd5e8987-9f51-4f50-bdd1-4945b8c8a574","system_id":"levelo_inurba_marseille","lat":43.25578,"lon":5.38225,"is_reserved":false,"is_disabled":true,"rental_uris":{"android":"levelo://app?vid=dd5e8987-9f51-4f50-bdd1-4945b8c8a574","ios":"levelo://app?vid=dd5e8987-9f51-4f50-bdd1-4945b8c8a574"},"vehicle_type_id":"4","last_reported":1759230544,"current_range_meters":8800,"station_id":"ce4bhih2rcd13ifvqfs0","pricing_plan_id":"cebpf4jnsgd1na2vs0mg"},{"bike_id":"831e6a54-bde0-4f77-80bc-8857d66d3744","system_id":"levelo_inurba_marseille","lat":43.27949,"lon":5.41048,"is_reserved":false,"is_disabled":true,"rental_uris":{"android":"levelo://app?vid=831e6a54-bde0-4f77-80bc-8857d66d3744","ios":"levelo://app?vid=831e6a54-bde0-4f77-80bc-8857d66d3744"},"vehicle_type_id":"4","last_reported":1759230544,"current_range_meters":8800,"station_id":"ce4bhnp2rcd13ifvqh0g","pricing_plan_id":"cebpf4jnsgd1na2vs0mg"},{"bike_id":"1e1466b0-1f5f-49fe-8fa5-18476d2b48f6","system_id":"levelo_inurba_marseille","lat":43.26957,"lon":5.3863,"is_reserved":false,"is_disabled":false,"rental_uris":{"android":"levelo://app?vid=1e1466b0-1f5f-49fe-8fa5-18476d2b48f6","ios":"levelo://app?vid=1e1466b0-1f5f-49fe-8fa5-18476d2b48f6"},"vehicle_type_id":"4","last_reported":1759230544,"current_range_meters":8800,"station_id":"ce4bhh92rcd13ifvqfh0","pricing_plan_id":"cebpf4jnsgd1na2vs0mg"},{"bike_id":"55984aef-622e-4996-8465-e2a439b423de","system_id":"levelo_inurba_marseille","lat":43.25865,"lon":5.39895,"is_reserved":false,"is_disabled":false,"rental_uris":{"android":"levelo://app?vid=55984aef-622e-4996-8465-e2a439b423de","ios":"levelo://app?vid=55984aef-622e-4996-8465-e2a439b423de"},"vehicle_type_id":"4","last_reported":1759230544,"current_range_meters":8400,"station_id":"ce4bhl92rcd13ifvqghg","pricing_plan_id":"cebpf4jnsgd1na2vs0mg"},{"bike_id":"6d52e4c1-3d50-46d3-b3af-53ad7def4a9e","system_id":"levelo_inurba_marseille","lat":43.26975,"lon":5.38607,"is_reserved":false,"is_disabled":false,"rental_uris":{"android":"levelo://app?vid=6d52e4c1-3d50-46d3-b3af-53ad7def4a9e","ios":"levelo://app?vid=6d52e4c1-3d50-46d3-b3af-53ad7def4a9e"},"vehicle_type_id":"4","last_reported":1759230544,"current_range_meters":8800,"station_id":"ce4bhh92rcd13ifvqfh0","pricing_plan_id":"cebpf4jnsgd1na2vs0mg"},{"bike_id":"cca746c2-1fc1-401d-b3f9-dd703f861d41","system_id":"levelo_inurba_marseille","lat":43.265573,"lon":5.37282,"is_reserved":false,"is_disabled":false,"rental_uris":{"android":"levelo://app?vid=cca746c2-1fc1-401d-b3f9-dd703f861d41","ios":"levelo://app?vid=cca746c2-1fc1-401d-b3f9-dd703f861d41"},"vehicle_type_id":"4","last_reported":1759230544,"current_range_meters":8800,"station_id":"ce4bhg12rcd13ifvqf70","pricing_plan_id":"cebpf4jnsgd1na2vs0mg"},{"bike_id":"a07a513e-e5a9-4481-8592-d991379bc662","system_id":"levelo_inurba_marseille","lat":43.33735,"lon":5.37481,"is_reserved":false,"is_disabled":false,"rental_uris":{"android":"levelo://app?vid=a07a513e-e5a9-4481-8592-d991379bc662","ios":"levelo://app?vid=a07a513e-e5a9-4481-8592-d991379bc662"},"vehicle_type_id":"4","last_reported":1759230544,"current_range_meters":8800,"station_id":"","pricing_plan_id":"cebpf4jnsgd1na2vs0mg"},{"bike_id":"3d400c08-bd40-45e9-99e7-651e4339ef38","system_id":"levelo_inurba_marseille","lat":43.31215,"lon":5.36853,"is_reserved":false,"is_disabled":true,"rental_uris":{"android":"levelo://app?vid=3d400c08-bd40-45e9-99e7-651e4339ef38","ios":"levelo://app?vid=3d400c08-bd40-45e9-99e7-651e4339ef38"},"vehicle_type_id":"4","last_reported":1759230544,"current_range_meters":9200,"station_id":"ce4bgl92rcd13ifvqbq0","pricing_plan_id":"cebpf4jnsgd1na2vs0mg"},{"bike_id":"a2411a4b-e5ef-475f-b05a-622f2fcb8ba4","system_id":"levelo_inurba_marseille","lat":43.31495,"lon":5.37289,"is_reserved":false,"is_disabled":false,"rental_uris":{"android":"levelo://app?vid=a2411a4b-e5ef-475f-b05a-622f2fcb8ba4","ios":"levelo://app?vid=a2411a4b-e5ef-475f-b05a-622f2fcb8ba4"},"vehicle_type_id":"4","last_reported":1759230544,"current_range_meters":9200,"station_id":"ce4bgt12rcd13ifvqcd0","pricing_plan_id":"cebpf4jnsgd1na2vs0mg"},{"bike_id":"da9f5c00-97ca-4bbe-9376-62d86452ec3f","system_id":"levelo_inurba_marseille","lat":43.27611,"lon":5.36111,"is_reserved":false,"is_disabled":false,"rental_uris":{"android":"levelo://app?vid=da9f5c00-97ca-4bbe-9376-62d86452ec3f","ios":"levelo://app?vid=da9f5c00-97ca-4bbe-9376-62d86452ec3f"},"vehicle_type_id":"4","last_reported":1759230544,"current_range_meters":9200,"station_id":"ce4bgj92rcd13ifvqbe0","pricing_plan_id":"cebpf4jnsgd1na2vs0mg"},{"bike_id":"f0a80893-75d3-46b2-ba0a-a22c9d8378b4","system_id":"levelo_inurba_marseille","lat":43.28702,"lon":5.39982,"is_reserved":false,"is_disabled":false,"rental_uris":{"android":"levelo://app?vid=f0a80893-75d3-46b2-ba0a-a22c9d8378b4","ios":"levelo://app?vid=f0a80893-75d3-46b2-ba0a-a22c9d8378b4"},"vehicle_type_id":"4","last_reported":1759230544,"current_range_meters":9600,"station_id":"ce4bho92rcd13ifvqh3g","pricing_plan_id":"cebpf4jnsgd1na2vs0mg"},{"bike_id":"c627b34a-8e81-4438-af3b-4fd0aab1c160","system_id":"levelo_inurba_marseille","lat":43.29691,"lon":5.36012,"is_reserved":false,"is_disabled":false,"rental_uris":{"android":"levelo://app?vid=c627b34a-8e81-4438-af3b-4fd0aab1c160","ios":"levelo://app?vid=c627b34a-8e81-4438-af3b-4fd0aab1c160"},"vehicle_type_id":"4","last_reported":1759230544,"current_range_meters":9200,"station_id":"","pricing_plan_id":"cebpf4jnsgd1na2vs0mg"},{"bike_id":"e68dbe1b-8173-4c0d-a06c-7c61468d2ae1","system_id":"levelo_inurba_marseille","lat":43.29267,"lon":5.40895,"is_reserved":false,"is_disabled":false,"rental_uris":{"android":"levelo://app?vid=e68dbe1b-8173-4c0d-a06c-7c61468d2ae1","ios":"levelo://app?vid=e68dbe1b-8173-4c0d-a06c-7c61468d2ae1"},"vehicle_type_id":"4","last_reported":1759230544,"current_range_meters":9200,"station_id":"ce4bh192rcd13ifvqdc0","pricing_plan_id":"cebpf4jnsgd1na2vs0mg"},{"bike_id":"0030cf69-75f8-4719-a372-efc52bdb748a","system_id":"levelo_inurba_marseille","lat":43.3291,"lon":5.454,"is_reserved":false,"is_disabled":true,"rental_uris":{"android":"levelo://app?vid=0030cf69-75f8-4719-a372-efc52bdb748a","ios":"levelo://app?vid=0030cf69-75f8-4719-a372-efc52bdb748a"},"vehicle_type_id":"4","last_reported":1759230544,"current_range_meters":9600,"station_id":"","pricing_plan_id":"cebpf4jnsgd1na2vs0mg"},{"bike_id":"fec62b91-4c28-4955-9638-1a2504987e63","system_id":"levelo_inurba_marseille","lat":43.31758,"lon":5.39018,"is_reserved":false,"is_disabled":false,"rental_uris":{"android":"levelo://app?vid=fec62b91-4c28-4955-9638-1a2504987e63","ios":"levelo://app?vid=fec62b91-4c28-4955-9638-1a2504987e63"},"vehicle_type_id":"4","last_reported":1759230544,"current_range_meters":9600,"station_id":"ce4bhqp2rcd13ifvqhng","pricing_plan_id":"cebpf4jnsgd1na2vs0mg"},{"bike_id":"0e54f5ab-0c60-4354-bd3b-acbaeb84e322","system_id":"levelo_inurba_marseille","lat":43.29912,"lon":5.37467,"is_reserved":false,"is_disabled":false,"rental_uris":{"android":"levelo://app?vid=0e54f5ab-0c60-4354-bd3b-acbaeb84e322","ios":"levelo://app?vid=0e54f5ab-0c60-4354-bd3b-acbaeb84e322"},"vehicle_type_id":"4","last_reported":1759230544,"current_range_meters":9600,"station_id":"ce4bgjh2rcd13ifvqbg0","pricing_plan_id":"cebpf4jnsgd1na2vs0mg"},{"bike_id":"c47f5c3e-1ff3-43b7-b740-1c081ef57305","system_id":"levelo_inurba_marseille","lat":43.29675,"lon":5.37648,"is_reserved":false,"is_disabled":false,"rental_uris":{"android":"levelo://app?vid=c47f5c3e-1ff3-43b7-b740-1c081ef57305","ios":"levelo://app?vid=c47f5c3e-1ff3-43b7-b740-1c081ef57305"},"vehicle_type_id":"4","last_reported":1759230544,"current_range_meters":10000,"station_id":"ce4bgkh2rcd13ifvqbl0","pricing_plan_id":"cebpf4jnsgd1na2vs0mg"},{"bike_id":"385fa573-6758-43e7-a2f4-f27be30ea572","system_id":"levelo_inurba_marseille","lat":43.32102,"lon":5.36772,"is_reserved":false,"is_disabled":false,"rental_uris":{"android":"levelo://app?vid=385fa573-6758-43e7-a2f4-f27be30ea572","ios":"levelo://app?vid=385fa573-6758-43e7-a2f4-f27be30ea572"},"vehicle_type_id":"4","last_reported":1759230544,"current_range_meters":10000,"station_id":"ce4bhrh2rcd13ifvqhug","pricing_plan_id":"cebpf4jnsgd1na2vs0mg"},{"bike_id":"20fadc6f-e870-444b-9200-7e0e47e03a71","system_id":"levelo_inurba_marseille","lat":43.29009,"lon":5.35614,"is_reserved":false,"is_disabled":false,"rental_uris":{"android":"levelo://app?vid=20fadc6f-e870-444b-9200-7e0e47e03a71","ios":"levelo://app?vid=20fadc6f-e870-444b-9200-7e0e47e03a71"},"vehicle_type_id":"4","last_reported":1759230544,"current_range_meters":9600,"station_id":"ce4bhb92rcd13ifvqen0","pricing_plan_id":"cebpf4jnsgd1na2vs0mg"},{"bike_id":"0662e5ec-17b3-4da7-8ffc-903097426f9d","system_id":"levelo_inurba_marseille","lat":43.3171,"lon":5.43705,"is_reserved":false,"is_disabled":false,"rental_uris":{"android":"levelo://app?vid=0662e5ec-17b3-4da7-8ffc-903097426f9d","ios":"levelo://app?vid=0662e5ec-17b3-4da7-8ffc-903097426f9d"},"vehicle_type_id":"4","last_reported":1759230544,"current_range_meters":10000,"station_id":"ce4bhp92rcd13ifvqhcg","pricing_plan_id":"cebpf4jnsgd1na2vs0mg"},{"bike_id":"44e9dd2d-6095-47ee-8e65-ac0b430ae3e0","system_id":"levelo_inurba_marseille","lat":43.30132,"lon":5.374,"is_reserved":false,"is_disabled":false,"rental_uris":{"android":"levelo://app?vid=44e9dd2d-6095-47ee-8e65-ac0b430ae3e0","ios":"levelo://app?vid=44e9dd2d-6095-47ee-8e65-ac0b430ae3e0"},"vehicle_type_id":"4","last_reported":1759230544,"current_range_meters":9600,"station_id":"ce4bgs92rcd13ifvqcc0","pricing_plan_id":"cebpf4jnsgd1na2vs0mg"},{"bike_id":"da85755a-becf-4799-9b0a-4cff4b2bea86","system_id":"levelo_inurba_marseille","lat":43.295248,"lon":5.37505,"is_reserved":false,"is_disabled":false,"rental_uris":{"android":"levelo://app?vid=da85755a-becf-4799-9b0a-4cff4b2bea86","ios":"levelo://app?vid=da85755a-becf-4799-9b0a-4cff4b2bea86"},"vehicle_type_id":"4","last_reported":1759230544,"current_range_meters":10000,"station_id":"","pricing_plan_id":"cebpf4jnsgd1na2vs0mg"},{"bike_id":"498de633-1978-409b-aa35-b617d56ba506","system_id":"levelo_inurba_marseille","lat":43.289401,"lon":5.366452,"is_reserved":false,"is_disabled":false,"rental_uris":{"android":"levelo://app?vid=498de633-1978-409b-aa35-b617d56ba506","ios":"levelo://app?vid=498de633-1978-409b-aa35-b617d56ba506"},"vehicle_type_id":"4","last_reported":1759230544,"current_range_meters":10000,"station_id":"ce4bhap2rcd13ifvqek0","pricing_plan_id":"cebpf4jnsgd1na2vs0mg"},{"bike_id":"211afd9f-58b0-436e-9b6b-1acbadc34392","system_id":"levelo_inurba_marseille","lat":43.3237,"lon":5.36759,"is_reserved":false,"is_disabled":false,"rental_uris":{"android":"levelo://app?vid=211afd9f-58b0-436e-9b6b-1acbadc34392","ios":"levelo://app?vid=211afd9f-58b0-436e-9b6b-1acbadc34392"},"vehicle_type_id":"4","last_reported":1759230544,"current_range_meters":10000,"station_id":"ce4bhsh2rcd13ifvqi2g","pricing_plan_id":"cebpf4jnsgd1na2vs0mg"},{"bike_id":"b3490389-6851-4fab-9d4b-01c0ce253dbb","system_id":"levelo_inurba_marseille","lat":43.30463,"lon":5.37898,"is_reserved":false,"is_disabled":false,"rental_uris":{"android":"levelo://app?vid=b3490389-6851-4fab-9d4b-01c0ce253dbb","ios":"levelo://app?vid=b3490389-6851-4fab-9d4b-01c0ce253dbb"},"vehicle_type_id":"4","last_reported":1759230544,"current_range_meters":10000,"station_id":"ce4bgup2rcd13ifvqcn0","pricing_plan_id":"cebpf4jnsgd1na2vs0mg"},{"bike_id":"78edd212-3bd8-4a45-bced-089e3907902a","system_id":"levelo_inurba_marseille","lat":43.3277,"lon":5.42344,"is_reserved":false,"is_disabled":true,"rental_uris":{"android":"levelo://app?vid=78edd212-3bd8-4a45-bced-089e3907902a","ios":"levelo://app?vid=78edd212-3bd8-4a45-bced-089e3907902a"},"vehicle_type_id":"4","last_reported":1759230544,"current_range_meters":10800,"station_id":"","pricing_plan_id":"cebpf4jnsgd1na2vs0mg"},{"bike_id":"aa123961-c527-4db0-9350-7d548f67905a","system_id":"levelo_inurba_marseille","lat":43.27946,"lon":5.38753,"is_reserved":false,"is_disabled":false,"rental_uris":{"android":"levelo://app?vid=aa123961-c527-4db0-9350-7d548f67905a","ios":"levelo://app?vid=aa123961-c527-4db0-9350-7d548f67905a"},"vehicle_type_id":"4","last_reported":1759230544,"current_range_meters":10800,"station_id":"ce4bh492rcd13ifvqdvg","pricing_plan_id":"cebpf4jnsgd1na2vs0mg"},{"bike_id":"ee1c3f0c-964a-4d96-b606-c3ab9ccae0bd","system_id":"levelo_inurba_marseille","lat":43.30406,"lon":5.36862,"is_reserved":false,"is_disabled":false,"rental_uris":{"android":"levelo://app?vid=ee1c3f0c-964a-4d96-b606-c3ab9ccae0bd","ios":"levelo://app?vid=ee1c3f0c-964a-4d96-b606-c3ab9ccae0bd"},"vehicle_type_id":"4","last_reported":1759230544,"current_range_meters":10800,"station_id":"","pricing_plan_id":"cebpf4jnsgd1na2vs0mg"},{"bike_id":"8c5b43b0-f3b6-4edf-8516-3b050eb8f28d","system_id":"levelo_inurba_marseille","lat":43.28273,"lon":5.35065,"is_reserved":false,"is_disabled":false,"rental_uris":{"android":"levelo://app?vid=8c5b43b0-f3b6-4edf-8516-3b050eb8f28d","ios":"levelo://app?vid=8c5b43b0-f3b6-4edf-8516-3b050eb8f28d"},"vehicle_type_id":"4","last_reported":1759230544,"current_range_meters":10800,"station_id":"ce4bhbp2rcd13ifvqerg","pricing_plan_id":"cebpf4jnsgd1na2vs0mg"},{"bike_id":"aebf0e68-ba27-412a-9ce2-11cc42127dee","system_id":"levelo_inurba_marseille","lat":43.337444,"lon":5.374475,"is_reserved":false,"is_disabled":false,"rental_uris":{"android":"levelo://app?vid=aebf0e68-ba27-412a-9ce2-11cc42127dee","ios":"levelo://app?vid=aebf0e68-ba27-412a-9ce2-11cc42127dee"},"vehicle_type_id":"4","last_reported":1759230544,"current_range_meters":10800,"station_id":"","pricing_plan_id":"cebpf4jnsgd1na2vs0mg"},{"bike_id":"8e4a3cbf-e0ab-488c-8c64-dc98bdb2feb1","system_id":"levelo_inurba_marseille","lat":43.30141,"lon":5.37412,"is_reserved":false,"is_disabled":false,"rental_uris":{"android":"levelo://app?vid=8e4a3cbf-e0ab-488c-8c64-dc98bdb2feb1","ios":"levelo://app?vid=8e4a3cbf-e0ab-488c-8c64-dc98bdb2feb1"},"vehicle_type_id":"4","last_reported":1759230544,"current_range_meters":11200,"station_id":"ce4bgs92rcd13ifvqcc0","pricing_plan_id":"cebpf4jnsgd1na2vs0mg"},{"bike_id":"8cbcf5e7-b804-4925-bbed-5f57e8580ccf","system_id":"levelo_inurba_marseille","lat":43.31519,"lon":5.36803,"is_reserved":false,"is_disabled":false,"rental_uris":{"android":"levelo://app?vid=8cbcf5e7-b804-4925-bbed-5f57e8580ccf","ios":"levelo://app?vid=8cbcf5e7-b804-4925-bbed-5f57e8580ccf"},"vehicle_type_id":"4","last_reported":1759230544,"current_range_meters":11200,"station_id":"","pricing_plan_id":"cebpf4jnsgd1na2vs0mg"},{"bike_id":"56d6a008-a903-4bd5-8ee3-1cec5d05c634","system_id":"levelo_inurba_marseille","lat":43.31749,"lon":5.39024,"is_reserved":false,"is_disabled":false,"rental_uris":{"android":"levelo://app?vid=56d6a008-a903-4bd5-8ee3-1cec5d05c634","ios":"levelo://app?vid=56d6a008-a903-4bd5-8ee3-1cec5d05c634"},"vehicle_type_id":"4","last_reported":1759230544,"current_range_meters":11200,"station_id":"ce4bhqp2rcd13ifvqhng","pricing_plan_id":"cebpf4jnsgd1na2vs0mg"},{"bike_id":"00c25286-21bc-4934-9d13-9af0058c64e0","system_id":"levelo_inurba_marseille","lat":43.28441,"lon":5.37543,"is_reserved":false,"is_disabled":false,"rental_uris":{"android":"levelo://app?vid=00c25286-21bc-4934-9d13-9af0058c64e0","ios":"levelo://app?vid=00c25286-21bc-4934-9d13-9af0058c64e0"},"vehicle_type_id":"4","last_reported":1759230544,"current_range_meters":11200,"station_id":"","pricing_plan_id":"cebpf4jnsgd1na2vs0mg"},{"bike_id":"2992408a-ee35-40a8-a2c0-b84d3e0ef1d9","system_id":"levelo_inurba_marseille","lat":43.22556,"lon":5.41626,"is_reserved":false,"is_disabled":false,"rental_uris":{"android":"levelo://app?vid=2992408a-ee35-40a8-a2c0-b84d3e0ef1d9","ios":"levelo://app?vid=2992408a-ee35-40a8-a2c0-b84d3e0ef1d9"},"vehicle_type_id":"4","last_reported":1759230544,"current_range_meters":11200,"station_id":"st_d2o4gvlbi1j2169b742g","pricing_plan_id":"cebpf4jnsgd1na2vs0mg"},{"bike_id":"96520869-d013-4e0c-a355-f7bbd728ba84","system_id":"levelo_inurba_marseille","lat":43.32366,"lon":5.36741,"is_reserved":false,"is_disabled":false,"rental_uris":{"android":"levelo://app?vid=96520869-d013-4e0c-a355-f7bbd728ba84","ios":"levelo://app?vid=96520869-d013-4e0c-a355-f7bbd728ba84"},"vehicle_type_id":"4","last_reported":1759230544,"current_range_meters":11600,"station_id":"ce4bhsh2rcd13ifvqi2g","pricing_plan_id":"cebpf4jnsgd1na2vs0mg"},{"bike_id":"97a06e40-f4fc-402c-81ae-e9a3a9a9da88","system_id":"levelo_inurba_marseille","lat":43.28268,"lon":5.35058,"is_reserved":false,"is_disabled":false,"rental_uris":{"android":"levelo://app?vid=97a06e40-f4fc-402c-81ae-e9a3a9a9da88","ios":"levelo://app?vid=97a06e40-f4fc-402c-81ae-e9a3a9a9da88"},"vehicle_type_id":"4","last_reported":1759230544,"current_range_meters":11600,"station_id":"ce4bhbp2rcd13ifvqerg","pricing_plan_id":"cebpf4jnsgd1na2vs0mg"},{"bike_id":"171eb6c7-bef7-4549-92f0-752da1f5737b","system_id":"levelo_inurba_marseille","lat":43.34158,"lon":5.40895,"is_reserved":false,"is_disabled":false,"rental_uris":{"android":"levelo://app?vid=171eb6c7-bef7-4549-92f0-752da1f5737b","ios":"levelo://app?vid=171eb6c7-bef7-4549-92f0-752da1f5737b"},"vehicle_type_id":"4","last_reported":1759230544,"current_range_meters":11600,"station_id":"ce4bhqh2rcd13ifvqhlg","pricing_plan_id":"cebpf4jnsgd1na2vs0mg"},{"bike_id":"7efef50a-3c8f-4481-88ef-d6c72034e4f3","system_id":"levelo_inurba_marseille","lat":43.27975,"lon":5.38733,"is_reserved":false,"is_disabled":false,"rental_uris":{"android":"levelo://app?vid=7efef50a-3c8f-4481-88ef-d6c72034e4f3","ios":"levelo://app?vid=7efef50a-3c8f-4481-88ef-d6c72034e4f3"},"vehicle_type_id":"4","last_reported":1759230544,"current_range_meters":11600,"station_id":"ce4bhg12rcd13ifvqf80","pricing_plan_id":"cebpf4jnsgd1na2vs0mg"},{"bike_id":"33c37912-7a5a-4cf6-bff3-9fbfe40d20dc","system_id":"levelo_inurba_marseille","lat":43.32128,"lon":5.36789,"is_reserved":false,"is_disabled":false,"rental_uris":{"android":"levelo://app?vid=33c37912-7a5a-4cf6-bff3-9fbfe40d20dc","ios":"levelo://app?vid=33c37912-7a5a-4cf6-bff3-9fbfe40d20dc"},"vehicle_type_id":"4","last_reported":1759230544,"current_range_meters":11600,"station_id":"ce4bhrh2rcd13ifvqhug","pricing_plan_id":"cebpf4jnsgd1na2vs0mg"},{"bike_id":"2f1577a1-d61d-412b-aa2c-d2016888fe3d","system_id":"levelo_inurba_marseille","lat":43.32055,"lon":5.41554,"is_reserved":false,"is_disabled":false,"rental_uris":{"android":"levelo://app?vid=2f1577a1-d61d-412b-aa2c-d2016888fe3d","ios":"levelo://app?vid=2f1577a1-d61d-412b-aa2c-d2016888fe3d"},"vehicle_type_id":"4","last_reported":1759230544,"current_range_meters":11200,"station_id":"ce4bhq92rcd13ifvqhkg","pricing_plan_id":"cebpf4jnsgd1na2vs0mg"},{"bike_id":"01b56f6d-fc22-4ec2-a961-6a664f800b1e","system_id":"levelo_inurba_marseille","lat":43.24077,"lon":5.37747,"is_reserved":false,"is_disabled":false,"rental_uris":{"android":"levelo://app?vid=01b56f6d-fc22-4ec2-a961-6a664f800b1e","ios":"levelo://app?vid=01b56f6d-fc22-4ec2-a961-6a664f800b1e"},"vehicle_type_id":"4","last_reported":1759230544,"current_range_meters":11600,"station_id":"ce4bhnp2rcd13ifvqgvg","pricing_plan_id":"cebpf4jnsgd1na2vs0mg"},{"bike_id":"99ce2063-5dfb-4ed3-a4a6-8fc3a54c4890","system_id":"levelo_inurba_marseille","lat":43.337444,"lon":5.374475,"is_reserved":false,"is_disabled":false,"rental_uris":{"android":"levelo://app?vid=99ce2063-5dfb-4ed3-a4a6-8fc3a54c4890","ios":"levelo://app?vid=99ce2063-5dfb-4ed3-a4a6-8fc3a54c4890"},"vehicle_type_id":"4","last_reported":1759230544,"current_range_meters":11600,"station_id":"","pricing_plan_id":"cebpf4jnsgd1na2vs0mg"},{"bike_id":"9677e72a-2a08-4b0f-9d10-ee945a76c58b","system_id":"levelo_inurba_marseille","lat":43.23158,"lon":5.43704,"is_reserved":false,"is_disabled":true,"rental_uris":{"android":"levelo://app?vid=9677e72a-2a08-4b0f-9d10-ee945a76c58b","ios":"levelo://app?vid=9677e72a-2a08-4b0f-9d10-ee945a76c58b"},"vehicle_type_id":"4","last_reported":1759230544,"current_range_meters":12000,"station_id":"ce4bhmp2rcd13ifvqgog","pricing_plan_id":"cebpf4jnsgd1na2vs0mg"},{"bike_id":"cb4b9073-e436-438a-959a-5f5f4b3d56dd","system_id":"levelo_inurba_marseille","lat":43.26677,"lon":5.3827,"is_reserved":false,"is_disabled":false,"rental_uris":{"android":"levelo://app?vid=cb4b9073-e436-438a-959a-5f5f4b3d56dd","ios":"levelo://app?vid=cb4b9073-e436-438a-959a-5f5f4b3d56dd"},"vehicle_type_id":"4","last_reported":1759230544,"current_range_meters":12000,"station_id":"ce4bhg92rcd13ifvqf90","pricing_plan_id":"cebpf4jnsgd1na2vs0mg"},{"bike_id":"32f5e5ba-0749-4045-913d-adc70e5769c8","system_id":"levelo_inurba_marseille","lat":43.28352,"lon":5.38117,"is_reserved":false,"is_disabled":false,"rental_uris":{"android":"levelo://app?vid=32f5e5ba-0749-4045-913d-adc70e5769c8","ios":"levelo://app?vid=32f5e5ba-0749-4045-913d-adc70e5769c8"},"vehicle_type_id":"4","last_reported":1759230544,"current_range_meters":12000,"station_id":"ce4bh412rcd13ifvqdr0","pricing_plan_id":"cebpf4jnsgd1na2vs0mg"},{"bike_id":"7de44ca1-a558-40b6-838c-f4b11753079c","system_id":"levelo_inurba_marseille","lat":43.2439,"lon":5.37065,"is_reserved":false,"is_disabled":false,"rental_uris":{"android":"levelo://app?vid=7de44ca1-a558-40b6-838c-f4b11753079c","ios":"levelo://app?vid=7de44ca1-a558-40b6-838c-f4b11753079c"},"vehicle_type_id":"4","last_reported":1759230544,"current_range_meters":12000,"station_id":"ce4bhhh2rcd13ifvqfk0","pricing_plan_id":"cebpf4jnsgd1na2vs0mg"},{"bike_id":"2a7cd1e2-1e95-498f-9c05-09edbfc85618","system_id":"levelo_inurba_marseille","lat":43.27568,"lon":5.38429,"is_reserved":false,"is_disabled":false,"rental_uris":{"android":"levelo://app?vid=2a7cd1e2-1e95-498f-9c05-09edbfc85618","ios":"levelo://app?vid=2a7cd1e2-1e95-498f-9c05-09edbfc85618"},"vehicle_type_id":"4","last_reported":1759230544,"current_range_meters":12000,"station_id":"ce4bhh92rcd13ifvqfi0","pricing_plan_id":"cebpf4jnsgd1na2vs0mg"},{"bike_id":"738a51a6-02d0-4def-8f3f-9c82f6a6dd05","system_id":"levelo_inurba_marseille","lat":43.32339,"lon":5.367,"is_reserved":false,"is_disabled":false,"rental_uris":{"android":"levelo://app?vid=738a51a6-02d0-4def-8f3f-9c82f6a6dd05","ios":"levelo://app?vid=738a51a6-02d0-4def-8f3f-9c82f6a6dd05"},"vehicle_type_id":"4","last_reported":1759230544,"current_range_meters":12000,"station_id":"","pricing_plan_id":"cebpf4jnsgd1na2vs0mg"},{"bike_id":"2241768f-7dc0-40db-a498-187b3b5085f2","system_id":"levelo_inurba_marseille","lat":43.30459,"lon":5.37912,"is_reserved":false,"is_disabled":false,"rental_uris":{"android":"levelo://app?vid=2241768f-7dc0-40db-a498-187b3b5085f2","ios":"levelo://app?vid=2241768f-7dc0-40db-a498-187b3b5085f2"},"vehicle_type_id":"4","last_reported":1759230544,"current_range_meters":12000,"station_id":"ce4bgup2rcd13ifvqcn0","pricing_plan_id":"cebpf4jnsgd1na2vs0mg"},{"bike_id":"56ca0258-bee9-4eb2-b3c5-63b5cd0b9e67","system_id":"levelo_inurba_marseille","lat":43.33737,"lon":5.37445,"is_reserved":false,"is_disabled":false,"rental_uris":{"android":"levelo://app?vid=56ca0258-bee9-4eb2-b3c5-63b5cd0b9e67","ios":"levelo://app?vid=56ca0258-bee9-4eb2-b3c5-63b5cd0b9e67"},"vehicle_type_id":"4","last_reported":1759230544,"current_range_meters":12000,"station_id":"","pricing_plan_id":"cebpf4jnsgd1na2vs0mg"},{"bike_id":"92662833-c6ac-4b02-b7df-1638b54b1972","system_id":"levelo_inurba_marseille","lat":43.33742,"lon":5.37449,"is_reserved":false,"is_disabled":false,"rental_uris":{"android":"levelo://app?vid=92662833-c6ac-4b02-b7df-1638b54b1972","ios":"levelo://app?vid=92662833-c6ac-4b02-b7df-1638b54b1972"},"vehicle_type_id":"4","last_reported":1759230544,"current_range_meters":12000,"station_id":"","pricing_plan_id":"cebpf4jnsgd1na2vs0mg"},{"bike_id":"f8d78e5f-60e1-4623-939f-49e76ff16505","system_id":"levelo_inurba_marseille","lat":43.33742,"lon":5.37448,"is_reserved":false,"is_disabled":false,"rental_uris":{"android":"levelo://app?vid=f8d78e5f-60e1-4623-939f-49e76ff16505","ios":"levelo://app?vid=f8d78e5f-60e1-4623-939f-49e76ff16505"},"vehicle_type_id":"4","last_reported":1759230544,"current_range_meters":12000,"station_id":"","pricing_plan_id":"cebpf4jnsgd1na2vs0mg"},{"bike_id":"313885ed-6abb-4611-9b90-45ab382083be","system_id":"levelo_inurba_marseille","lat":43.29276,"lon":5.36853,"is_reserved":false,"is_disabled":false,"rental_uris":{"android":"levelo://app?vid=313885ed-6abb-4611-9b90-45ab382083be","ios":"levelo://app?vid=313885ed-6abb-4611-9b90-45ab382083be"},"vehicle_type_id":"4","last_reported":1759230544,"current_range_meters":12400,"station_id":"ce4bhbp2rcd13ifvqesg","pricing_plan_id":"cebpf4jnsgd1na2vs0mg"},{"bike_id":"c9221b58-0637-444d-b483-96e3eb9cd931","system_id":"levelo_inurba_marseille","lat":43.29851,"lon":5.36278,"is_reserved":false,"is_disabled":false,"rental_uris":{"android":"levelo://app?vid=c9221b58-0637-444d-b483-96e3eb9cd931","ios":"levelo://app?vid=c9221b58-0637-444d-b483-96e3eb9cd931"},"vehicle_type_id":"4","last_reported":1759230544,"current_range_meters":12400,"station_id":"ce4bgpp2rcd13ifvqc3g","pricing_plan_id":"cebpf4jnsgd1na2vs0mg"},{"bike_id":"4687a18b-a829-46b4-8520-2ab847535b9d","system_id":"levelo_inurba_marseille","lat":43.28272,"lon":5.35062,"is_reserved":false,"is_disabled":false,"rental_uris":{"android":"levelo://app?vid=4687a18b-a829-46b4-8520-2ab847535b9d","ios":"levelo://app?vid=4687a18b-a829-46b4-8520-2ab847535b9d"},"vehicle_type_id":"4","last_reported":1759230544,"current_range_meters":12400,"station_id":"ce4bhbp2rcd13ifvqerg","pricing_plan_id":"cebpf4jnsgd1na2vs0mg"},{"bike_id":"6a80563a-33ef-46e3-b795-c0e1254bcc18","system_id":"levelo_inurba_marseille","lat":43.24185,"lon":5.39736,"is_reserved":false,"is_disabled":false,"rental_uris":{"android":"levelo://app?vid=6a80563a-33ef-46e3-b795-c0e1254bcc18","ios":"levelo://app?vid=6a80563a-33ef-46e3-b795-c0e1254bcc18"},"vehicle_type_id":"4","last_reported":1759230544,"current_range_meters":12400,"station_id":"ce4bhn12rcd13ifvqgpg","pricing_plan_id":"cebpf4jnsgd1na2vs0mg"},{"bike_id":"f44df0c8-3c0a-4103-982e-900169d96e81","system_id":"levelo_inurba_marseille","lat":43.32121,"lon":5.36765,"is_reserved":false,"is_disabled":false,"rental_uris":{"android":"levelo://app?vid=f44df0c8-3c0a-4103-982e-900169d96e81","ios":"levelo://app?vid=f44df0c8-3c0a-4103-982e-900169d96e81"},"vehicle_type_id":"4","last_reported":1759230544,"current_range_meters":12400,"station_id":"ce4bhrh2rcd13ifvqhug","pricing_plan_id":"cebpf4jnsgd1na2vs0mg"},{"bike_id":"0aba4fe3-5dca-4d79-8b9d-2fc77d6e7d70","system_id":"levelo_inurba_marseille","lat":43.28418,"lon":5.349815,"is_reserved":false,"is_disabled":false,"rental_uris":{"android":"levelo://app?vid=0aba4fe3-5dca-4d79-8b9d-2fc77d6e7d70","ios":"levelo://app?vid=0aba4fe3-5dca-4d79-8b9d-2fc77d6e7d70"},"vehicle_type_id":"4","last_reported":1759230544,"current_range_meters":12800,"station_id":"","pricing_plan_id":"cebpf4jnsgd1na2vs0mg"},{"bike_id":"5f8245c1-d6d3-4e20-af8e-6d792fdc04ce","system_id":"levelo_inurba_marseille","lat":43.29846,"lon":5.45614,"is_reserved":false,"is_disabled":false,"rental_uris":{"android":"levelo://app?vid=5f8245c1-d6d3-4e20-af8e-6d792fdc04ce","ios":"levelo://app?vid=5f8245c1-d6d3-4e20-af8e-6d792fdc04ce"},"vehicle_type_id":"4","last_reported":1759230544,"current_range_meters":12800,"station_id":"","pricing_plan_id":"cebpf4jnsgd1na2vs0mg"},{"bike_id":"adb4aaa4-427f-4e81-ad03-5b2d857f5774","system_id":"levelo_inurba_marseille","lat":43.29266,"lon":5.37627,"is_reserved":false,"is_disabled":false,"rental_uris":{"android":"levelo://app?vid=adb4aaa4-427f-4e81-ad03-5b2d857f5774","ios":"levelo://app?vid=adb4aaa4-427f-4e81-ad03-5b2d857f5774"},"vehicle_type_id":"4","last_reported":1759230544,"current_range_meters":12800,"station_id":"ce4bgi12rcd13ifvqb80","pricing_plan_id":"cebpf4jnsgd1na2vs0mg"},{"bike_id":"cb47b6f2-91c9-43c9-aca8-914422e7486e","system_id":"levelo_inurba_marseille","lat":43.31715,"lon":5.43704,"is_reserved":false,"is_disabled":false,"rental_uris":{"android":"levelo://app?vid=cb47b6f2-91c9-43c9-aca8-914422e7486e","ios":"levelo://app?vid=cb47b6f2-91c9-43c9-aca8-914422e7486e"},"vehicle_type_id":"4","last_reported":1759230544,"current_range_meters":12800,"station_id":"ce4bhp92rcd13ifvqhcg","pricing_plan_id":"cebpf4jnsgd1na2vs0mg"},{"bike_id":"fb966add-7097-4198-aa6b-e371cab21a73","system_id":"levelo_inurba_marseille","lat":43.29266,"lon":5.38432,"is_reserved":false,"is_disabled":false,"rental_uris":{"android":"levelo://app?vid=fb966add-7097-4198-aa6b-e371cab21a73","ios":"levelo://app?vid=fb966add-7097-4198-aa6b-e371cab21a73"},"vehicle_type_id":"4","last_reported":1759230544,"current_range_meters":12400,"station_id":"ce4bh692rcd13ifvqea0","pricing_plan_id":"cebpf4jnsgd1na2vs0mg"},{"bike_id":"11acad3d-b798-4c25-a044-c3c54677d114","system_id":"levelo_inurba_marseille","lat":43.28622,"lon":5.35101,"is_reserved":false,"is_disabled":false,"rental_uris":{"android":"levelo://app?vid=11acad3d-b798-4c25-a044-c3c54677d114","ios":"levelo://app?vid=11acad3d-b798-4c25-a044-c3c54677d114"},"vehicle_type_id":"4","last_reported":1759230544,"current_range_meters":13600,"station_id":"ce4bhch2rcd13ifvqeug","pricing_plan_id":"cebpf4jnsgd1na2vs0mg"},{"bike_id":"6f3d6773-464f-4ec6-96b7-5fd121a92bf5","system_id":"levelo_inurba_marseille","lat":43.23155,"lon":5.437164,"is_reserved":false,"is_disabled":false,"rental_uris":{"android":"levelo://app?vid=6f3d6773-464f-4ec6-96b7-5fd121a92bf5","ios":"levelo://app?vid=6f3d6773-464f-4ec6-96b7-5fd121a92bf5"},"vehicle_type_id":"4","last_reported":1759230544,"current_range_meters":13600,"station_id":"ce4bhmp2rcd13ifvqgog","pricing_plan_id":"cebpf4jnsgd1na2vs0mg"},{"bike_id":"a91f9116-2f0c-4cdc-b844-9ca297eeb96c","system_id":"levelo_inurba_marseille","lat":43.29906,"lon":5.37475,"is_reserved":false,"is_disabled":false,"rental_uris":{"android":"levelo://app?vid=a91f9116-2f0c-4cdc-b844-9ca297eeb96c","ios":"levelo://app?vid=a91f9116-2f0c-4cdc-b844-9ca297eeb96c"},"vehicle_type_id":"4","last_reported":1759230544,"current_range_meters":13600,"station_id":"ce4bgjh2rcd13ifvqbg0","pricing_plan_id":"cebpf4jnsgd1na2vs0mg"},{"bike_id":"5626d12c-c31b-4678-a559-f7501e6d3dbb","system_id":"levelo_inurba_marseille","lat":43.24073,"lon":5.37748,"is_reserved":false,"is_disabled":false,"rental_uris":{"android":"levelo://app?vid=5626d12c-c31b-4678-a559-f7501e6d3dbb","ios":"levelo://app?vid=5626d12c-c31b-4678-a559-f7501e6d3dbb"},"vehicle_type_id":"4","last_reported":1759230544,"current_range_meters":13600,"station_id":"","pricing_plan_id":"cebpf4jnsgd1na2vs0mg"},{"bike_id":"8c889c5e-dbff-42f9-9e9a-56a3d0500fe9","system_id":"levelo_inurba_marseille","lat":43.30306,"lon":5.36984,"is_reserved":false,"is_disabled":false,"rental_uris":{"android":"levelo://app?vid=8c889c5e-dbff-42f9-9e9a-56a3d0500fe9","ios":"levelo://app?vid=8c889c5e-dbff-42f9-9e9a-56a3d0500fe9"},"vehicle_type_id":"4","last_reported":1759230544,"current_range_meters":13600,"station_id":"","pricing_plan_id":"cebpf4jnsgd1na2vs0mg"},{"bike_id":"144a26c4-fd66-4e51-85c5-9b33c6c393ad","system_id":"levelo_inurba_marseille","lat":43.24956,"lon":5.40501,"is_reserved":false,"is_disabled":false,"rental_uris":{"android":"levelo://app?vid=144a26c4-fd66-4e51-85c5-9b33c6c393ad","ios":"levelo://app?vid=144a26c4-fd66-4e51-85c5-9b33c6c393ad"},"vehicle_type_id":"4","last_reported":1759230544,"current_range_meters":13600,"station_id":"","pricing_plan_id":"cebpf4jnsgd1na2vs0mg"},{"bike_id":"23cd6ddc-1be4-4ecd-bc6e-e60981ccabc1","system_id":"levelo_inurba_marseille","lat":43.3361,"lon":5.41036,"is_reserved":false,"is_disabled":false,"rental_uris":{"android":"levelo://app?vid=23cd6ddc-1be4-4ecd-bc6e-e60981ccabc1","ios":"levelo://app?vid=23cd6ddc-1be4-4ecd-bc6e-e60981ccabc1"},"vehicle_type_id":"4","last_reported":1759230544,"current_range_meters":13600,"station_id":"ce4bhqh2rcd13ifvqhmg","pricing_plan_id":"cebpf4jnsgd1na2vs0mg"},{"bike_id":"fac330e5-2b04-44de-8b42-ad4c2441b73e","system_id":"levelo_inurba_marseille","lat":43.28983,"lon":5.35621,"is_reserved":false,"is_disabled":false,"rental_uris":{"android":"levelo://app?vid=fac330e5-2b04-44de-8b42-ad4c2441b73e","ios":"levelo://app?vid=fac330e5-2b04-44de-8b42-ad4c2441b73e"},"vehicle_type_id":"4","last_reported":1759230544,"current_range_meters":13600,"station_id":"","pricing_plan_id":"cebpf4jnsgd1na2vs0mg"},{"bike_id":"d2f46c9e-a53c-42a7-ad54-fd7c896f4565","system_id":"levelo_inurba_marseille","lat":43.33797,"lon":5.37428,"is_reserved":false,"is_disabled":false,"rental_uris":{"android":"levelo://app?vid=d2f46c9e-a53c-42a7-ad54-fd7c896f4565","ios":"levelo://app?vid=d2f46c9e-a53c-42a7-ad54-fd7c896f4565"},"vehicle_type_id":"4","last_reported":1759230544,"current_range_meters":13600,"station_id":"","pricing_plan_id":"cebpf4jnsgd1na2vs0mg"},{"bike_id":"c52d7abe-70f6-43b4-add4-f2a3f3d33fde","system_id":"levelo_inurba_marseille","lat":43.330988,"lon":5.412542,"is_reserved":false,"is_disabled":false,"rental_uris":{"android":"levelo://app?vid=c52d7abe-70f6-43b4-add4-f2a3f3d33fde","ios":"levelo://app?vid=c52d7abe-70f6-43b4-add4-f2a3f3d33fde"},"vehicle_type_id":"4","last_reported":1759230544,"current_range_meters":13600,"station_id":"ce4bhqh2rcd13ifvqhlg","pricing_plan_id":"cebpf4jnsgd1na2vs0mg"},{"bike_id":"d114139c-60d0-4459-ba3b-cac62be00268","system_id":"levelo_inurba_marseille","lat":43.301435,"lon":5.374064,"is_reserved":false,"is_disabled":false,"rental_uris":{"android":"levelo://app?vid=d114139c-60d0-4459-ba3b-cac62be00268","ios":"levelo://app?vid=d114139c-60d0-4459-ba3b-cac62be00268"},"vehicle_type_id":"4","last_reported":1759230544,"current_range_meters":14000,"station_id":"ce4bgs92rcd13ifvqcc0","pricing_plan_id":"cebpf4jnsgd1na2vs0mg"},{"bike_id":"359d393f-648d-4e52-a4cf-11bed15a2dc8","system_id":"levelo_inurba_marseille","lat":43.27941,"lon":5.41043,"is_reserved":false,"is_disabled":false,"rental_uris":{"android":"levelo://app?vid=359d393f-648d-4e52-a4cf-11bed15a2dc8","ios":"levelo://app?vid=359d393f-648d-4e52-a4cf-11bed15a2dc8"},"vehicle_type_id":"4","last_reported":1759230544,"current_range_meters":14400,"station_id":"ce4bhnp2rcd13ifvqh0g","pricing_plan_id":"cebpf4jnsgd1na2vs0mg"},{"bike_id":"adfbe18b-7ca7-424a-9090-23d85cce22c6","system_id":"levelo_inurba_marseille","lat":43.30051,"lon":5.40938,"is_reserved":false,"is_disabled":false,"rental_uris":{"android":"levelo://app?vid=adfbe18b-7ca7-424a-9090-23d85cce22c6","ios":"levelo://app?vid=adfbe18b-7ca7-424a-9090-23d85cce22c6"},"vehicle_type_id":"4","last_reported":1759230544,"current_range_meters":14400,"station_id":"","pricing_plan_id":"cebpf4jnsgd1na2vs0mg"},{"bike_id":"5dee198d-c0da-488d-a493-7efac1d442f0","system_id":"levelo_inurba_marseille","lat":43.24005,"lon":5.36552,"is_reserved":false,"is_disabled":false,"rental_uris":{"android":"levelo://app?vid=5dee198d-c0da-488d-a493-7efac1d442f0","ios":"levelo://app?vid=5dee198d-c0da-488d-a493-7efac1d442f0"},"vehicle_type_id":"4","last_reported":1759230544,"current_range_meters":14400,"station_id":"","pricing_plan_id":"cebpf4jnsgd1na2vs0mg"},{"bike_id":"2ab535df-4c2c-40d8-af4f-189047a67c11","system_id":"levelo_inurba_marseille","lat":43.246314,"lon":5.431481,"is_reserved":false,"is_disabled":false,"rental_uris":{"android":"levelo://app?vid=2ab535df-4c2c-40d8-af4f-189047a67c11","ios":"levelo://app?vid=2ab535df-4c2c-40d8-af4f-189047a67c11"},"vehicle_type_id":"4","last_reported":1759230544,"current_range_meters":14400,"station_id":"st_d2m6c4gdas8pm72e190g","pricing_plan_id":"cebpf4jnsgd1na2vs0mg"},{"bike_id":"a8205022-661b-4b9f-b567-3fd2d923e9c8","system_id":"levelo_inurba_marseille","lat":43.32301,"lon":5.38266,"is_reserved":false,"is_disabled":false,"rental_uris":{"android":"levelo://app?vid=a8205022-661b-4b9f-b567-3fd2d923e9c8","ios":"levelo://app?vid=a8205022-661b-4b9f-b567-3fd2d923e9c8"},"vehicle_type_id":"4","last_reported":1759230544,"current_range_meters":14400,"station_id":"ce4bhr12rcd13ifvqhqg","pricing_plan_id":"cebpf4jnsgd1na2vs0mg"},{"bike_id":"c2d97aac-9f66-431b-8536-fe18d9b32415","system_id":"levelo_inurba_marseille","lat":43.27063,"lon":5.40254,"is_reserved":false,"is_disabled":false,"rental_uris":{"android":"levelo://app?vid=c2d97aac-9f66-431b-8536-fe18d9b32415","ios":"levelo://app?vid=c2d97aac-9f66-431b-8536-fe18d9b32415"},"vehicle_type_id":"4","last_reported":1759230544,"current_range_meters":14800,"station_id":"ce4bhk92rcd13ifvqgc0","pricing_plan_id":"cebpf4jnsgd1na2vs0mg"},{"bike_id":"1d77b7d7-6c50-47ce-a252-2a4011bccda7","system_id":"levelo_inurba_marseille","lat":43.25975,"lon":5.41371,"is_reserved":false,"is_disabled":false,"rental_uris":{"android":"levelo://app?vid=1d77b7d7-6c50-47ce-a252-2a4011bccda7","ios":"levelo://app?vid=1d77b7d7-6c50-47ce-a252-2a4011bccda7"},"vehicle_type_id":"4","last_reported":1759230544,"current_range_meters":14800,"station_id":"","pricing_plan_id":"cebpf4jnsgd1na2vs0mg"},{"bike_id":"44631c7d-87d1-44be-96c2-2a43e54fa7d0","system_id":"levelo_inurba_marseille","lat":43.26196,"lon":5.37451,"is_reserved":false,"is_disabled":false,"rental_uris":{"android":"levelo://app?vid=44631c7d-87d1-44be-96c2-2a43e54fa7d0","ios":"levelo://app?vid=44631c7d-87d1-44be-96c2-2a43e54fa7d0"},"vehicle_type_id":"4","last_reported":1759230544,"current_range_meters":14800,"station_id":"ce4bhgp2rcd13ifvqfc0","pricing_plan_id":"cebpf4jnsgd1na2vs0mg"},{"bike_id":"b95d65c7-a683-4bdb-8836-4c2bcd0819c1","system_id":"levelo_inurba_marseille","lat":43.26199,"lon":5.37934,"is_reserved":false,"is_disabled":false,"rental_uris":{"android":"levelo://app?vid=b95d65c7-a683-4bdb-8836-4c2bcd0819c1","ios":"levelo://app?vid=b95d65c7-a683-4bdb-8836-4c2bcd0819c1"},"vehicle_type_id":"4","last_reported":1759230544,"current_range_meters":14400,"station_id":"ce4bhjp2rcd13ifvqg90","pricing_plan_id":"cebpf4jnsgd1na2vs0mg"},{"bike_id":"98cf2fda-3a14-4e00-ae3a-f4e2a4374b28","system_id":"levelo_inurba_marseille","lat":43.3077,"lon":5.37652,"is_reserved":false,"is_disabled":false,"rental_uris":{"android":"levelo://app?vid=98cf2fda-3a14-4e00-ae3a-f4e2a4374b28","ios":"levelo://app?vid=98cf2fda-3a14-4e00-ae3a-f4e2a4374b28"},"vehicle_type_id":"4","last_reported":1759230544,"current_range_meters":15200,"station_id":"ce4bgv92rcd13ifvqcq0","pricing_plan_id":"cebpf4jnsgd1na2vs0mg"},{"bike_id":"7759fca3-10cb-448d-86a1-ae33341da4e0","system_id":"levelo_inurba_marseille","lat":43.30794,"lon":5.381677,"is_reserved":false,"is_disabled":false,"rental_uris":{"android":"levelo://app?vid=7759fca3-10cb-448d-86a1-ae33341da4e0","ios":"levelo://app?vid=7759fca3-10cb-448d-86a1-ae33341da4e0"},"vehicle_type_id":"4","last_reported":1759230544,"current_range_meters":15200,"station_id":"ce4bgt12rcd13ifvqce0","pricing_plan_id":"cebpf4jnsgd1na2vs0mg"},{"bike_id":"30cbf9c0-d8c9-49e3-afe2-ea0d70b63a10","system_id":"levelo_inurba_marseille","lat":43.28364,"lon":5.38645,"is_reserved":false,"is_disabled":true,"rental_uris":{"android":"levelo://app?vid=30cbf9c0-d8c9-49e3-afe2-ea0d70b63a10","ios":"levelo://app?vid=30cbf9c0-d8c9-49e3-afe2-ea0d70b63a10"},"vehicle_type_id":"4","last_reported":1759230544,"current_range_meters":15200,"station_id":"ce4bh492rcd13ifvqdvg","pricing_plan_id":"cebpf4jnsgd1na2vs0mg"},{"bike_id":"72ae8898-43db-4520-800a-def2a918ef5a","system_id":"levelo_inurba_marseille","lat":43.29927,"lon":5.36512,"is_reserved":false,"is_disabled":false,"rental_uris":{"android":"levelo://app?vid=72ae8898-43db-4520-800a-def2a918ef5a","ios":"levelo://app?vid=72ae8898-43db-4520-800a-def2a918ef5a"},"vehicle_type_id":"4","last_reported":1759230544,"current_range_meters":15200,"station_id":"ce4bgm92rcd13ifvqbr0","pricing_plan_id":"cebpf4jnsgd1na2vs0mg"},{"bike_id":"3c22474b-d4ca-4744-9f86-0c20326573d6","system_id":"levelo_inurba_marseille","lat":43.24187,"lon":5.39721,"is_reserved":false,"is_disabled":false,"rental_uris":{"android":"levelo://app?vid=3c22474b-d4ca-4744-9f86-0c20326573d6","ios":"levelo://app?vid=3c22474b-d4ca-4744-9f86-0c20326573d6"},"vehicle_type_id":"4","last_reported":1759230544,"current_range_meters":15200,"station_id":"ce4bhn12rcd13ifvqgpg","pricing_plan_id":"cebpf4jnsgd1na2vs0mg"},{"bike_id":"b664ce19-efb8-4ee2-a42d-f5f63c4a7bca","system_id":"levelo_inurba_marseille","lat":43.28266,"lon":5.35064,"is_reserved":false,"is_disabled":false,"rental_uris":{"android":"levelo://app?vid=b664ce19-efb8-4ee2-a42d-f5f63c4a7bca","ios":"levelo://app?vid=b664ce19-efb8-4ee2-a42d-f5f63c4a7bca"},"vehicle_type_id":"4","last_reported":1759230544,"current_range_meters":16000,"station_id":"ce4bhbp2rcd13ifvqerg","pricing_plan_id":"cebpf4jnsgd1na2vs0mg"},{"bike_id":"694a3a5f-723f-47f1-a73b-869220cc5d4c","system_id":"levelo_inurba_marseille","lat":43.27072,"lon":5.42277,"is_reserved":false,"is_disabled":false,"rental_uris":{"android":"levelo://app?vid=694a3a5f-723f-47f1-a73b-869220cc5d4c","ios":"levelo://app?vid=694a3a5f-723f-47f1-a73b-869220cc5d4c"},"vehicle_type_id":"4","last_reported":1759230544,"current_range_meters":16000,"station_id":"ce4bhk92rcd13ifvqgb0","pricing_plan_id":"cebpf4jnsgd1na2vs0mg"},{"bike_id":"f752559e-e357-41d0-b0e1-06afd32411be","system_id":"levelo_inurba_marseille","lat":43.27494,"lon":5.40787,"is_reserved":false,"is_disabled":false,"rental_uris":{"android":"levelo://app?vid=f752559e-e357-41d0-b0e1-06afd32411be","ios":"levelo://app?vid=f752559e-e357-41d0-b0e1-06afd32411be"},"vehicle_type_id":"4","last_reported":1759230544,"current_range_meters":16000,"station_id":"","pricing_plan_id":"cebpf4jnsgd1na2vs0mg"},{"bike_id":"cc166404-e357-49c7-b422-1c868b283f98","system_id":"levelo_inurba_marseille","lat":43.24166,"lon":5.36395,"is_reserved":false,"is_disabled":false,"rental_uris":{"android":"levelo://app?vid=cc166404-e357-49c7-b422-1c868b283f98","ios":"levelo://app?vid=cc166404-e357-49c7-b422-1c868b283f98"},"vehicle_type_id":"4","last_reported":1759230544,"current_range_meters":16000,"station_id":"cpo36qri1sfpv3e86is0","pricing_plan_id":"cebpf4jnsgd1na2vs0mg"},{"bike_id":"c11d433c-682c-4b66-8bf6-cb02b58590e4","system_id":"levelo_inurba_marseille","lat":43.30886,"lon":5.37197,"is_reserved":false,"is_disabled":false,"rental_uris":{"android":"levelo://app?vid=c11d433c-682c-4b66-8bf6-cb02b58590e4","ios":"levelo://app?vid=c11d433c-682c-4b66-8bf6-cb02b58590e4"},"vehicle_type_id":"4","last_reported":1759230544,"current_range_meters":16000,"station_id":"ce4bguh2rcd13ifvqckg","pricing_plan_id":"cebpf4jnsgd1na2vs0mg"},{"bike_id":"1080e9d5-5d14-4fab-b9f3-0b9d3f1f5fcb","system_id":"levelo_inurba_marseille","lat":43.27995,"lon":5.40027,"is_reserved":false,"is_disabled":false,"rental_uris":{"android":"levelo://app?vid=1080e9d5-5d14-4fab-b9f3-0b9d3f1f5fcb","ios":"levelo://app?vid=1080e9d5-5d14-4fab-b9f3-0b9d3f1f5fcb"},"vehicle_type_id":"4","last_reported":1759230544,"current_range_meters":16000,"station_id":"ce4bho92rcd13ifvqh4g","pricing_plan_id":"cebpf4jnsgd1na2vs0mg"},{"bike_id":"2b993201-32c3-415f-a73f-a532aaf741f7","system_id":"levelo_inurba_marseille","lat":43.29835,"lon":5.3627,"is_reserved":false,"is_disabled":false,"rental_uris":{"android":"levelo://app?vid=2b993201-32c3-415f-a73f-a532aaf741f7","ios":"levelo://app?vid=2b993201-32c3-415f-a73f-a532aaf741f7"},"vehicle_type_id":"4","last_reported":1759230544,"current_range_meters":16000,"station_id":"ce4bgpp2rcd13ifvqc3g","pricing_plan_id":"cebpf4jnsgd1na2vs0mg"},{"bike_id":"627f0009-c086-4f8a-8406-c08f3975bb85","system_id":"levelo_inurba_marseille","lat":43.337914,"lon":5.374267,"is_reserved":false,"is_disabled":false,"rental_uris":{"android":"levelo://app?vid=627f0009-c086-4f8a-8406-c08f3975bb85","ios":"levelo://app?vid=627f0009-c086-4f8a-8406-c08f3975bb85"},"vehicle_type_id":"4","last_reported":1759230544,"current_range_meters":16000,"station_id":"","pricing_plan_id":"cebpf4jnsgd1na2vs0mg"},{"bike_id":"a850760d-f890-4818-860e-321d70e97b11","system_id":"levelo_inurba_marseille","lat":43.32354,"lon":5.36766,"is_reserved":false,"is_disabled":false,"rental_uris":{"android":"levelo://app?vid=a850760d-f890-4818-860e-321d70e97b11","ios":"levelo://app?vid=a850760d-f890-4818-860e-321d70e97b11"},"vehicle_type_id":"4","last_reported":1759230544,"current_range_meters":16400,"station_id":"ce4bhsh2rcd13ifvqi2g","pricing_plan_id":"cebpf4jnsgd1na2vs0mg"},{"bike_id":"ecdde089-44de-4ab1-be2d-98e550a1d246","system_id":"levelo_inurba_marseille","lat":43.271883,"lon":5.410081,"is_reserved":false,"is_disabled":false,"rental_uris":{"android":"levelo://app?vid=ecdde089-44de-4ab1-be2d-98e550a1d246","ios":"levelo://app?vid=ecdde089-44de-4ab1-be2d-98e550a1d246"},"vehicle_type_id":"4","last_reported":1759230544,"current_range_meters":16400,"station_id":"ce4bhl12rcd13ifvqgf0","pricing_plan_id":"cebpf4jnsgd1na2vs0mg"},{"bike_id":"cfb1ef01-ed0e-413c-bb09-20e6d021e251","system_id":"levelo_inurba_marseille","lat":43.32544,"lon":5.41422,"is_reserved":false,"is_disabled":false,"rental_uris":{"android":"levelo://app?vid=cfb1ef01-ed0e-413c-bb09-20e6d021e251","ios":"levelo://app?vid=cfb1ef01-ed0e-413c-bb09-20e6d021e251"},"vehicle_type_id":"4","last_reported":1759230544,"current_range_meters":16800,"station_id":"ce4bhq12rcd13ifvqhhg","pricing_plan_id":"cebpf4jnsgd1na2vs0mg"},{"bike_id":"9259d079-29af-4c38-99e0-f25e4d514b98","system_id":"levelo_inurba_marseille","lat":43.28421,"lon":5.34994,"is_reserved":false,"is_disabled":false,"rental_uris":{"android":"levelo://app?vid=9259d079-29af-4c38-99e0-f25e4d514b98","ios":"levelo://app?vid=9259d079-29af-4c38-99e0-f25e4d514b98"},"vehicle_type_id":"4","last_reported":1759230544,"current_range_meters":16400,"station_id":"ce4bhbh2rcd13ifvqepg","pricing_plan_id":"cebpf4jnsgd1na2vs0mg"},{"bike_id":"a0306e9c-cb8e-4750-99c6-0d12c5ba3c5b","system_id":"levelo_inurba_marseille","lat":43.31713,"lon":5.37746,"is_reserved":false,"is_disabled":false,"rental_uris":{"android":"levelo://app?vid=a0306e9c-cb8e-4750-99c6-0d12c5ba3c5b","ios":"levelo://app?vid=a0306e9c-cb8e-4750-99c6-0d12c5ba3c5b"},"vehicle_type_id":"4","last_reported":1759230544,"current_range_meters":16400,"station_id":"ce4bgth2rcd13ifvqch0","pricing_plan_id":"cebpf4jnsgd1na2vs0mg"},{"bike_id":"c55252ec-7f47-4422-a863-351e2af0586d","system_id":"levelo_inurba_marseille","lat":43.24392,"lon":5.37058,"is_reserved":false,"is_disabled":false,"rental_uris":{"android":"levelo://app?vid=c55252ec-7f47-4422-a863-351e2af0586d","ios":"levelo://app?vid=c55252ec-7f47-4422-a863-351e2af0586d"},"vehicle_type_id":"4","last_reported":1759230544,"current_range_meters":16400,"station_id":"ce4bhhh2rcd13ifvqfk0","pricing_plan_id":"cebpf4jnsgd1na2vs0mg"},{"bike_id":"8529f32e-2b7c-4b03-9b67-3802b1b158ab","system_id":"levelo_inurba_marseille","lat":43.31372,"lon":5.36694,"is_reserved":false,"is_disabled":false,"rental_uris":{"android":"levelo://app?vid=8529f32e-2b7c-4b03-9b67-3802b1b158ab","ios":"levelo://app?vid=8529f32e-2b7c-4b03-9b67-3802b1b158ab"},"vehicle_type_id":"4","last_reported":1759230544,"current_range_meters":16400,"station_id":"ce4bgr92rcd13ifvqc6g","pricing_plan_id":"cebpf4jnsgd1na2vs0mg"},{"bike_id":"9c2118fa-f432-43ff-9188-04c3a94f6944","system_id":"levelo_inurba_marseille","lat":43.30521,"lon":5.3672,"is_reserved":false,"is_disabled":false,"rental_uris":{"android":"levelo://app?vid=9c2118fa-f432-43ff-9188-04c3a94f6944","ios":"levelo://app?vid=9c2118fa-f432-43ff-9188-04c3a94f6944"},"vehicle_type_id":"4","last_reported":1759230544,"current_range_meters":16400,"station_id":"ce4bgrp2rcd13ifvqc9g","pricing_plan_id":"cebpf4jnsgd1na2vs0mg"},{"bike_id":"de465f74-b2e1-47fa-8954-0564a43f223d","system_id":"levelo_inurba_marseille","lat":43.32555,"lon":5.4143,"is_reserved":false,"is_disabled":false,"rental_uris":{"android":"levelo://app?vid=de465f74-b2e1-47fa-8954-0564a43f223d","ios":"levelo://app?vid=de465f74-b2e1-47fa-8954-0564a43f223d"},"vehicle_type_id":"4","last_reported":1759230544,"current_range_meters":16800,"station_id":"ce4bhq12rcd13ifvqhhg","pricing_plan_id":"cebpf4jnsgd1na2vs0mg"},{"bike_id":"3e144231-44b5-437d-a844-fd35bc156638","system_id":"levelo_inurba_marseille","lat":43.30951,"lon":5.39039,"is_reserved":false,"is_disabled":false,"rental_uris":{"android":"levelo://app?vid=3e144231-44b5-437d-a844-fd35bc156638","ios":"levelo://app?vid=3e144231-44b5-437d-a844-fd35bc156638"},"vehicle_type_id":"4","last_reported":1759230544,"current_range_meters":16800,"station_id":"ce4bgup2rcd13ifvqco0","pricing_plan_id":"cebpf4jnsgd1na2vs0mg"},{"bike_id":"ea8a69fa-74ed-476d-b9dd-042d2753efb7","system_id":"levelo_inurba_marseille","lat":43.27812,"lon":5.40707,"is_reserved":false,"is_disabled":false,"rental_uris":{"android":"levelo://app?vid=ea8a69fa-74ed-476d-b9dd-042d2753efb7","ios":"levelo://app?vid=ea8a69fa-74ed-476d-b9dd-042d2753efb7"},"vehicle_type_id":"4","last_reported":1759230544,"current_range_meters":16800,"station_id":"ce4bhnh2rcd13ifvqgtg","pricing_plan_id":"cebpf4jnsgd1na2vs0mg"},{"bike_id":"365480bc-c570-4b8e-a786-d0753041664b","system_id":"levelo_inurba_marseille","lat":43.3229,"lon":5.38265,"is_reserved":false,"is_disabled":false,"rental_uris":{"android":"levelo://app?vid=365480bc-c570-4b8e-a786-d0753041664b","ios":"levelo://app?vid=365480bc-c570-4b8e-a786-d0753041664b"},"vehicle_type_id":"4","last_reported":1759230544,"current_range_meters":16800,"station_id":"ce4bhr12rcd13ifvqhqg","pricing_plan_id":"cebpf4jnsgd1na2vs0mg"},{"bike_id":"ef65731b-988e-4ef1-99d4-1843de0c3e28","system_id":"levelo_inurba_marseille","lat":43.29804,"lon":5.40393,"is_reserved":false,"is_disabled":false,"rental_uris":{"android":"levelo://app?vid=ef65731b-988e-4ef1-99d4-1843de0c3e28","ios":"levelo://app?vid=ef65731b-988e-4ef1-99d4-1843de0c3e28"},"vehicle_type_id":"4","last_reported":1759230544,"current_range_meters":16400,"station_id":"ce4bh112rcd13ifvqd90","pricing_plan_id":"cebpf4jnsgd1na2vs0mg"},{"bike_id":"617dca4b-4508-4d52-9e62-d583d919ac44","system_id":"levelo_inurba_marseille","lat":43.297455,"lon":5.371085,"is_reserved":false,"is_disabled":false,"rental_uris":{"android":"levelo://app?vid=617dca4b-4508-4d52-9e62-d583d919ac44","ios":"levelo://app?vid=617dca4b-4508-4d52-9e62-d583d919ac44"},"vehicle_type_id":"4","last_reported":1759230544,"current_range_meters":16800,"station_id":"ce4bgop2rcd13ifvqc1g","pricing_plan_id":"cebpf4jnsgd1na2vs0mg"},{"bike_id":"55726ea8-3ad1-4d86-85af-336e2bb2ba98","system_id":"levelo_inurba_marseille","lat":43.29782,"lon":5.38042,"is_reserved":false,"is_disabled":false,"rental_uris":{"android":"levelo://app?vid=55726ea8-3ad1-4d86-85af-336e2bb2ba98","ios":"levelo://app?vid=55726ea8-3ad1-4d86-85af-336e2bb2ba98"},"vehicle_type_id":"4","last_reported":1759230544,"current_range_meters":16800,"station_id":"ce4bgip2rcd13ifvqbb0","pricing_plan_id":"cebpf4jnsgd1na2vs0mg"},{"bike_id":"d88e0d03-a71d-4d69-bfe0-f7906e10eef6","system_id":"levelo_inurba_marseille","lat":43.22922,"lon":5.3538,"is_reserved":false,"is_disabled":false,"rental_uris":{"android":"levelo://app?vid=d88e0d03-a71d-4d69-bfe0-f7906e10eef6","ios":"levelo://app?vid=d88e0d03-a71d-4d69-bfe0-f7906e10eef6"},"vehicle_type_id":"4","last_reported":1759230544,"current_range_meters":16800,"station_id":"cpo3532slgdg3j2ikp40","pricing_plan_id":"cebpf4jnsgd1na2vs0mg"},{"bike_id":"50a6d9be-879d-4d99-9855-abb98fbce5b8","system_id":"levelo_inurba_marseille","lat":43.337851,"lon":5.374298,"is_reserved":false,"is_disabled":false,"rental_uris":{"android":"levelo://app?vid=50a6d9be-879d-4d99-9855-abb98fbce5b8","ios":"levelo://app?vid=50a6d9be-879d-4d99-9855-abb98fbce5b8"},"vehicle_type_id":"4","last_reported":1759230544,"current_range_meters":16800,"station_id":"","pricing_plan_id":"cebpf4jnsgd1na2vs0mg"},{"bike_id":"4ff7ec88-a2b7-4650-95d9-2534bf56e47a","system_id":"levelo_inurba_marseille","lat":43.24012,"lon":5.36553,"is_reserved":false,"is_disabled":false,"rental_uris":{"android":"levelo://app?vid=4ff7ec88-a2b7-4650-95d9-2534bf56e47a","ios":"levelo://app?vid=4ff7ec88-a2b7-4650-95d9-2534bf56e47a"},"vehicle_type_id":"4","last_reported":1759230544,"current_range_meters":17200,"station_id":"","pricing_plan_id":"cebpf4jnsgd1na2vs0mg"},{"bike_id":"a58a4c94-7754-46be-b35a-a0b84fc468a5","system_id":"levelo_inurba_marseille","lat":43.29998,"lon":5.37336,"is_reserved":false,"is_disabled":false,"rental_uris":{"android":"levelo://app?vid=a58a4c94-7754-46be-b35a-a0b84fc468a5","ios":"levelo://app?vid=a58a4c94-7754-46be-b35a-a0b84fc468a5"},"vehicle_type_id":"4","last_reported":1759230544,"current_range_meters":17200,"station_id":"","pricing_plan_id":"cebpf4jnsgd1na2vs0mg"},{"bike_id":"6c2e96f0-0d94-4ada-b75d-f16e4d9045a7","system_id":"levelo_inurba_marseille","lat":43.23975,"lon":5.3663,"is_reserved":false,"is_disabled":false,"rental_uris":{"android":"levelo://app?vid=6c2e96f0-0d94-4ada-b75d-f16e4d9045a7","ios":"levelo://app?vid=6c2e96f0-0d94-4ada-b75d-f16e4d9045a7"},"vehicle_type_id":"4","last_reported":1759230544,"current_range_meters":17200,"station_id":"ce4bhi12rcd13ifvqfp0","pricing_plan_id":"cebpf4jnsgd1na2vs0mg"},{"bike_id":"70fb5c1d-5b6d-4115-966d-515794d31e24","system_id":"levelo_inurba_marseille","lat":43.32367,"lon":5.38887,"is_reserved":false,"is_disabled":false,"rental_uris":{"android":"levelo://app?vid=70fb5c1d-5b6d-4115-966d-515794d31e24","ios":"levelo://app?vid=70fb5c1d-5b6d-4115-966d-515794d31e24"},"vehicle_type_id":"4","last_reported":1759230544,"current_range_meters":17200,"station_id":"ce4bhqp2rcd13ifvqhog","pricing_plan_id":"cebpf4jnsgd1na2vs0mg"},{"bike_id":"0bbd5f31-f44f-4453-a16b-24ad4d42d9d9","system_id":"levelo_inurba_marseille","lat":43.24642,"lon":5.38889,"is_reserved":false,"is_disabled":false,"rental_uris":{"android":"levelo://app?vid=0bbd5f31-f44f-4453-a16b-24ad4d42d9d9","ios":"levelo://app?vid=0bbd5f31-f44f-4453-a16b-24ad4d42d9d9"},"vehicle_type_id":"4","last_reported":1759230544,"current_range_meters":17200,"station_id":"ce4bhg12rcd13ifvqf60","pricing_plan_id":"cebpf4jnsgd1na2vs0mg"},{"bike_id":"e1a26520-858a-4d92-9c62-b5be5024bda3","system_id":"levelo_inurba_marseille","lat":43.26687,"lon":5.38272,"is_reserved":false,"is_disabled":false,"rental_uris":{"android":"levelo://app?vid=e1a26520-858a-4d92-9c62-b5be5024bda3","ios":"levelo://app?vid=e1a26520-858a-4d92-9c62-b5be5024bda3"},"vehicle_type_id":"4","last_reported":1759230544,"current_range_meters":17200,"station_id":"ce4bhg92rcd13ifvqf90","pricing_plan_id":"cebpf4jnsgd1na2vs0mg"},{"bike_id":"ee94eda5-f40b-4168-a57a-bf8989940e9c","system_id":"levelo_inurba_marseille","lat":43.3249,"lon":5.36558,"is_reserved":false,"is_disabled":false,"rental_uris":{"android":"levelo://app?vid=ee94eda5-f40b-4168-a57a-bf8989940e9c","ios":"levelo://app?vid=ee94eda5-f40b-4168-a57a-bf8989940e9c"},"vehicle_type_id":"4","last_reported":1759230544,"current_range_meters":17200,"station_id":"ce4bhs12rcd13ifvqhvg","pricing_plan_id":"cebpf4jnsgd1na2vs0mg"},{"bike_id":"1adf72d4-f2e2-443a-bd81-e3e77d2b1f3e","system_id":"levelo_inurba_marseille","lat":43.2671,"lon":5.4019,"is_reserved":false,"is_disabled":false,"rental_uris":{"android":"levelo://app?vid=1adf72d4-f2e2-443a-bd81-e3e77d2b1f3e","ios":"levelo://app?vid=1adf72d4-f2e2-443a-bd81-e3e77d2b1f3e"},"vehicle_type_id":"4","last_reported":1759230544,"current_range_meters":17200,"station_id":"","pricing_plan_id":"cebpf4jnsgd1na2vs0mg"},{"bike_id":"0e22ced9-197b-4339-bd33-e5a8f131c1c2","system_id":"levelo_inurba_marseille","lat":43.2319,"lon":5.35556,"is_reserved":false,"is_disabled":false,"rental_uris":{"android":"levelo://app?vid=0e22ced9-197b-4339-bd33-e5a8f131c1c2","ios":"levelo://app?vid=0e22ced9-197b-4339-bd33-e5a8f131c1c2"},"vehicle_type_id":"4","last_reported":1759230544,"current_range_meters":17200,"station_id":"ce4bhu92rcd13ifvqi70","pricing_plan_id":"cebpf4jnsgd1na2vs0mg"},{"bike_id":"00014611-59a6-4e24-b1d5-3ef0a2b6a909","system_id":"levelo_inurba_marseille","lat":43.24175,"lon":5.36398,"is_reserved":false,"is_disabled":false,"rental_uris":{"android":"levelo://app?vid=00014611-59a6-4e24-b1d5-3ef0a2b6a909","ios":"levelo://app?vid=00014611-59a6-4e24-b1d5-3ef0a2b6a909"},"vehicle_type_id":"4","last_reported":1759230544,"current_range_meters":17200,"station_id":"cpo36qri1sfpv3e86is0","pricing_plan_id":"cebpf4jnsgd1na2vs0mg"},{"bike_id":"565c3173-ac8f-4326-bc76-f76d0e11b136","system_id":"levelo_inurba_marseille","lat":43.28408,"lon":5.37521,"is_reserved":false,"is_disabled":false,"rental_uris":{"android":"levelo://app?vid=565c3173-ac8f-4326-bc76-f76d0e11b136","ios":"levelo://app?vid=565c3173-ac8f-4326-bc76-f76d0e11b136"},"vehicle_type_id":"4","last_reported":1759230544,"current_range_meters":17200,"station_id":"ce4bh412rcd13ifvqds0","pricing_plan_id":"cebpf4jnsgd1na2vs0mg"},{"bike_id":"aff3dc4f-8c6d-4bf2-a1e0-92e3e1eec5a9","system_id":"levelo_inurba_marseille","lat":43.29882,"lon":5.38902,"is_reserved":false,"is_disabled":false,"rental_uris":{"android":"levelo://app?vid=aff3dc4f-8c6d-4bf2-a1e0-92e3e1eec5a9","ios":"levelo://app?vid=aff3dc4f-8c6d-4bf2-a1e0-92e3e1eec5a9"},"vehicle_type_id":"4","last_reported":1759230544,"current_range_meters":17200,"station_id":"ce4bh392rcd13ifvqdl0","pricing_plan_id":"cebpf4jnsgd1na2vs0mg"},{"bike_id":"6e35eb3a-244d-446e-ba2c-c58465f51251","system_id":"levelo_inurba_marseille","lat":43.32109,"lon":5.36778,"is_reserved":false,"is_disabled":false,"rental_uris":{"android":"levelo://app?vid=6e35eb3a-244d-446e-ba2c-c58465f51251","ios":"levelo://app?vid=6e35eb3a-244d-446e-ba2c-c58465f51251"},"vehicle_type_id":"4","last_reported":1759230544,"current_range_meters":17600,"station_id":"ce4bhrh2rcd13ifvqhug","pricing_plan_id":"cebpf4jnsgd1na2vs0mg"},{"bike_id":"2661b39b-3122-4e96-9352-5fb99f179e2f","system_id":"levelo_inurba_marseille","lat":43.28277,"lon":5.35075,"is_reserved":false,"is_disabled":false,"rental_uris":{"android":"levelo://app?vid=2661b39b-3122-4e96-9352-5fb99f179e2f","ios":"levelo://app?vid=2661b39b-3122-4e96-9352-5fb99f179e2f"},"vehicle_type_id":"4","last_reported":1759230544,"current_range_meters":17600,"station_id":"ce4bhbp2rcd13ifvqerg","pricing_plan_id":"cebpf4jnsgd1na2vs0mg"},{"bike_id":"2410b542-4dbb-4ba2-8de7-3b722fc9a69f","system_id":"levelo_inurba_marseille","lat":43.284589,"lon":5.358973,"is_reserved":false,"is_disabled":true,"rental_uris":{"android":"levelo://app?vid=2410b542-4dbb-4ba2-8de7-3b722fc9a69f","ios":"levelo://app?vid=2410b542-4dbb-4ba2-8de7-3b722fc9a69f"},"vehicle_type_id":"4","last_reported":1759230544,"current_range_meters":17600,"station_id":"ce4bhah2rcd13ifvqei0","pricing_plan_id":"cebpf4jnsgd1na2vs0mg"},{"bike_id":"a9f05152-e55f-436d-b3d3-ffe2c2f0b84e","system_id":"levelo_inurba_marseille","lat":43.23146,"lon":5.43721,"is_reserved":false,"is_disabled":false,"rental_uris":{"android":"levelo://app?vid=a9f05152-e55f-436d-b3d3-ffe2c2f0b84e","ios":"levelo://app?vid=a9f05152-e55f-436d-b3d3-ffe2c2f0b84e"},"vehicle_type_id":"4","last_reported":1759230544,"current_range_meters":17600,"station_id":"ce4bhmp2rcd13ifvqgog","pricing_plan_id":"cebpf4jnsgd1na2vs0mg"},{"bike_id":"db3a202b-6514-4a53-892d-e953fc1e9d26","system_id":"levelo_inurba_marseille","lat":43.225369,"lon":5.348573,"is_reserved":false,"is_disabled":false,"rental_uris":{"android":"levelo://app?vid=db3a202b-6514-4a53-892d-e953fc1e9d26","ios":"levelo://app?vid=db3a202b-6514-4a53-892d-e953fc1e9d26"},"vehicle_type_id":"4","last_reported":1759230544,"current_range_meters":17600,"station_id":"","pricing_plan_id":"cebpf4jnsgd1na2vs0mg"},{"bike_id":"3966eeb2-cbab-408f-8e42-d72f7083dbef","system_id":"levelo_inurba_marseille","lat":43.32058,"lon":5.41532,"is_reserved":false,"is_disabled":false,"rental_uris":{"android":"levelo://app?vid=3966eeb2-cbab-408f-8e42-d72f7083dbef","ios":"levelo://app?vid=3966eeb2-cbab-408f-8e42-d72f7083dbef"},"vehicle_type_id":"4","last_reported":1759230544,"current_range_meters":17600,"station_id":"ce4bhq92rcd13ifvqhkg","pricing_plan_id":"cebpf4jnsgd1na2vs0mg"},{"bike_id":"123e055a-692b-459b-9c4f-970a83ad75be","system_id":"levelo_inurba_marseille","lat":43.32346,"lon":5.36677,"is_reserved":false,"is_disabled":false,"rental_uris":{"android":"levelo://app?vid=123e055a-692b-459b-9c4f-970a83ad75be","ios":"levelo://app?vid=123e055a-692b-459b-9c4f-970a83ad75be"},"vehicle_type_id":"4","last_reported":1759230544,"current_range_meters":17600,"station_id":"","pricing_plan_id":"cebpf4jnsgd1na2vs0mg"},{"bike_id":"028b2291-49e9-4f39-9e32-7bd43801ac8c","system_id":"levelo_inurba_marseille","lat":43.30461,"lon":5.37914,"is_reserved":false,"is_disabled":false,"rental_uris":{"android":"levelo://app?vid=028b2291-49e9-4f39-9e32-7bd43801ac8c","ios":"levelo://app?vid=028b2291-49e9-4f39-9e32-7bd43801ac8c"},"vehicle_type_id":"4","last_reported":1759230544,"current_range_meters":17600,"station_id":"ce4bgup2rcd13ifvqcn0","pricing_plan_id":"cebpf4jnsgd1na2vs0mg"},{"bike_id":"3f8a7425-65dd-467a-bda8-36ede2e6a269","system_id":"levelo_inurba_marseille","lat":43.26932,"lon":5.410253,"is_reserved":false,"is_disabled":false,"rental_uris":{"android":"levelo://app?vid=3f8a7425-65dd-467a-bda8-36ede2e6a269","ios":"levelo://app?vid=3f8a7425-65dd-467a-bda8-36ede2e6a269"},"vehicle_type_id":"4","last_reported":1759230544,"current_range_meters":18000,"station_id":"","pricing_plan_id":"cebpf4jnsgd1na2vs0mg"},{"bike_id":"73e22ed6-f150-4bd5-a7c9-af939e7a8ce9","system_id":"levelo_inurba_marseille","lat":43.290507,"lon":5.419421,"is_reserved":false,"is_disabled":false,"rental_uris":{"android":"levelo://app?vid=73e22ed6-f150-4bd5-a7c9-af939e7a8ce9","ios":"levelo://app?vid=73e22ed6-f150-4bd5-a7c9-af939e7a8ce9"},"vehicle_type_id":"4","last_reported":1759230544,"current_range_meters":18000,"station_id":"","pricing_plan_id":"cebpf4jnsgd1na2vs0mg"},{"bike_id":"9bb3b76b-0f7e-4226-b470-2f938603df3c","system_id":"levelo_inurba_marseille","lat":43.31391,"lon":5.40755,"is_reserved":false,"is_disabled":false,"rental_uris":{"android":"levelo://app?vid=9bb3b76b-0f7e-4226-b470-2f938603df3c","ios":"levelo://app?vid=9bb3b76b-0f7e-4226-b470-2f938603df3c"},"vehicle_type_id":"4","last_reported":1759230544,"current_range_meters":18000,"station_id":"","pricing_plan_id":"cebpf4jnsgd1na2vs0mg"},{"bike_id":"700e2971-7ce2-46cc-996b-6959d72691c7","system_id":"levelo_inurba_marseille","lat":43.22562,"lon":5.41625,"is_reserved":false,"is_disabled":false,"rental_uris":{"android":"levelo://app?vid=700e2971-7ce2-46cc-996b-6959d72691c7","ios":"levelo://app?vid=700e2971-7ce2-46cc-996b-6959d72691c7"},"vehicle_type_id":"4","last_reported":1759230544,"current_range_meters":18000,"station_id":"st_d2o4gvlbi1j2169b742g","pricing_plan_id":"cebpf4jnsgd1na2vs0mg"},{"bike_id":"daae3b20-1904-41bc-9993-c20d27620b14","system_id":"levelo_inurba_marseille","lat":43.23157,"lon":5.43706,"is_reserved":false,"is_disabled":false,"rental_uris":{"android":"levelo://app?vid=daae3b20-1904-41bc-9993-c20d27620b14","ios":"levelo://app?vid=daae3b20-1904-41bc-9993-c20d27620b14"},"vehicle_type_id":"4","last_reported":1759230544,"current_range_meters":18000,"station_id":"ce4bhmp2rcd13ifvqgog","pricing_plan_id":"cebpf4jnsgd1na2vs0mg"},{"bike_id":"90f2883b-134b-4cb9-a9a9-cda2e06f6d68","system_id":"levelo_inurba_marseille","lat":43.28272,"lon":5.35066,"is_reserved":false,"is_disabled":false,"rental_uris":{"android":"levelo://app?vid=90f2883b-134b-4cb9-a9a9-cda2e06f6d68","ios":"levelo://app?vid=90f2883b-134b-4cb9-a9a9-cda2e06f6d68"},"vehicle_type_id":"4","last_reported":1759230544,"current_range_meters":18000,"station_id":"ce4bhbp2rcd13ifvqerg","pricing_plan_id":"cebpf4jnsgd1na2vs0mg"},{"bike_id":"8356e6e3-ae79-466d-8926-f70199b1060c","system_id":"levelo_inurba_marseille","lat":43.28422,"lon":5.37508,"is_reserved":false,"is_disabled":false,"rental_uris":{"android":"levelo://app?vid=8356e6e3-ae79-466d-8926-f70199b1060c","ios":"levelo://app?vid=8356e6e3-ae79-466d-8926-f70199b1060c"},"vehicle_type_id":"4","last_reported":1759230544,"current_range_meters":18000,"station_id":"ce4bh412rcd13ifvqds0","pricing_plan_id":"cebpf4jnsgd1na2vs0mg"},{"bike_id":"bb80e5da-8df2-462f-8828-7587302fcb86","system_id":"levelo_inurba_marseille","lat":43.29784,"lon":5.37666,"is_reserved":false,"is_disabled":false,"rental_uris":{"android":"levelo://app?vid=bb80e5da-8df2-462f-8828-7587302fcb86","ios":"levelo://app?vid=bb80e5da-8df2-462f-8828-7587302fcb86"},"vehicle_type_id":"4","last_reported":1759230544,"current_range_meters":18000,"station_id":"","pricing_plan_id":"cebpf4jnsgd1na2vs0mg"},{"bike_id":"450844ba-2fc2-47be-9959-8fee61f07fb6","system_id":"levelo_inurba_marseille","lat":43.317354,"lon":5.390403,"is_reserved":false,"is_disabled":false,"rental_uris":{"android":"levelo://app?vid=450844ba-2fc2-47be-9959-8fee61f07fb6","ios":"levelo://app?vid=450844ba-2fc2-47be-9959-8fee61f07fb6"},"vehicle_type_id":"4","last_reported":1759230544,"current_range_meters":18800,"station_id":"ce4bhqp2rcd13ifvqhng","pricing_plan_id":"cebpf4jnsgd1na2vs0mg"},{"bike_id":"b7cd29c1-7e6a-4750-89cf-107360408473","system_id":"levelo_inurba_marseille","lat":43.22542,"lon":5.34824,"is_reserved":false,"is_disabled":false,"rental_uris":{"android":"levelo://app?vid=b7cd29c1-7e6a-4750-89cf-107360408473","ios":"levelo://app?vid=b7cd29c1-7e6a-4750-89cf-107360408473"},"vehicle_type_id":"4","last_reported":1759230544,"current_range_meters":18800,"station_id":"","pricing_plan_id":"cebpf4jnsgd1na2vs0mg"},{"bike_id":"e187db07-50c1-47be-aab2-7c50eb03e8bc","system_id":"levelo_inurba_marseille","lat":43.337444,"lon":5.374475,"is_reserved":false,"is_disabled":true,"rental_uris":{"android":"levelo://app?vid=e187db07-50c1-47be-aab2-7c50eb03e8bc","ios":"levelo://app?vid=e187db07-50c1-47be-aab2-7c50eb03e8bc"},"vehicle_type_id":"4","last_reported":1759230544,"current_range_meters":18800,"station_id":"","pricing_plan_id":"cebpf4jnsgd1na2vs0mg"},{"bike_id":"e8a6d609-d965-4c72-b22f-83ffb60a3d29","system_id":"levelo_inurba_marseille","lat":43.28406,"lon":5.34993,"is_reserved":false,"is_disabled":false,"rental_uris":{"android":"levelo://app?vid=e8a6d609-d965-4c72-b22f-83ffb60a3d29","ios":"levelo://app?vid=e8a6d609-d965-4c72-b22f-83ffb60a3d29"},"vehicle_type_id":"4","last_reported":1759230544,"current_range_meters":18800,"station_id":"ce4bhbh2rcd13ifvqepg","pricing_plan_id":"cebpf4jnsgd1na2vs0mg"},{"bike_id":"a3577dd7-b1db-4ad9-be15-00d58b2f8c69","system_id":"levelo_inurba_marseille","lat":43.27069,"lon":5.42285,"is_reserved":false,"is_disabled":false,"rental_uris":{"android":"levelo://app?vid=a3577dd7-b1db-4ad9-be15-00d58b2f8c69","ios":"levelo://app?vid=a3577dd7-b1db-4ad9-be15-00d58b2f8c69"},"vehicle_type_id":"4","last_reported":1759230544,"current_range_meters":18800,"station_id":"ce4bhk92rcd13ifvqgb0","pricing_plan_id":"cebpf4jnsgd1na2vs0mg"},{"bike_id":"9f344037-7aa5-4ee2-920d-740ab1273e5a","system_id":"levelo_inurba_marseille","lat":43.29609,"lon":5.37717,"is_reserved":false,"is_disabled":true,"rental_uris":{"android":"levelo://app?vid=9f344037-7aa5-4ee2-920d-740ab1273e5a","ios":"levelo://app?vid=9f344037-7aa5-4ee2-920d-740ab1273e5a"},"vehicle_type_id":"4","last_reported":1759230544,"current_range_meters":18800,"station_id":"ce4bgi92rcd13ifvqb90","pricing_plan_id":"cebpf4jnsgd1na2vs0mg"},{"bike_id":"9f335399-d26f-486d-846c-d4fe645a994b","system_id":"levelo_inurba_marseille","lat":43.27363,"lon":5.36254,"is_reserved":false,"is_disabled":false,"rental_uris":{"android":"levelo://app?vid=9f335399-d26f-486d-846c-d4fe645a994b","ios":"levelo://app?vid=9f335399-d26f-486d-846c-d4fe645a994b"},"vehicle_type_id":"4","last_reported":1759230544,"current_range_meters":18800,"station_id":"ce4bhbh2rcd13ifvqeo0","pricing_plan_id":"cebpf4jnsgd1na2vs0mg"},{"bike_id":"d81e7086-a597-422a-8b7f-f9a7c928d9cf","system_id":"levelo_inurba_marseille","lat":43.297576,"lon":5.388895,"is_reserved":false,"is_disabled":false,"rental_uris":{"android":"levelo://app?vid=d81e7086-a597-422a-8b7f-f9a7c928d9cf","ios":"levelo://app?vid=d81e7086-a597-422a-8b7f-f9a7c928d9cf"},"vehicle_type_id":"4","last_reported":1759230544,"current_range_meters":18800,"station_id":"","pricing_plan_id":"cebpf4jnsgd1na2vs0mg"},{"bike_id":"1511420c-7512-4da6-b037-294c89009bd4","system_id":"levelo_inurba_marseille","lat":43.28356,"lon":5.38114,"is_reserved":false,"is_disabled":false,"rental_uris":{"android":"levelo://app?vid=1511420c-7512-4da6-b037-294c89009bd4","ios":"levelo://app?vid=1511420c-7512-4da6-b037-294c89009bd4"},"vehicle_type_id":"4","last_reported":1759230544,"current_range_meters":18800,"station_id":"ce4bh412rcd13ifvqdr0","pricing_plan_id":"cebpf4jnsgd1na2vs0mg"},{"bike_id":"2fddc6ce-cedd-4d60-93be-71d9a39aaafc","system_id":"levelo_inurba_marseille","lat":43.337444,"lon":5.374475,"is_reserved":false,"is_disabled":true,"rental_uris":{"android":"levelo://app?vid=2fddc6ce-cedd-4d60-93be-71d9a39aaafc","ios":"levelo://app?vid=2fddc6ce-cedd-4d60-93be-71d9a39aaafc"},"vehicle_type_id":"4","last_reported":1759230544,"current_range_meters":18800,"station_id":"","pricing_plan_id":"cebpf4jnsgd1na2vs0mg"},{"bike_id":"a7d7834a-6060-4214-a66f-8338e20b7942","system_id":"levelo_inurba_marseille","lat":43.29091,"lon":5.3713,"is_reserved":false,"is_disabled":false,"rental_uris":{"android":"levelo://app?vid=a7d7834a-6060-4214-a66f-8338e20b7942","ios":"levelo://app?vid=a7d7834a-6060-4214-a66f-8338e20b7942"},"vehicle_type_id":"4","last_reported":1759230544,"current_range_meters":18800,"station_id":"","pricing_plan_id":"cebpf4jnsgd1na2vs0mg"},{"bike_id":"8d58f55e-afa9-4e06-a758-83c4ce892e37","system_id":"levelo_inurba_marseille","lat":43.25719,"lon":5.41106,"is_reserved":false,"is_disabled":false,"rental_uris":{"android":"levelo://app?vid=8d58f55e-afa9-4e06-a758-83c4ce892e37","ios":"levelo://app?vid=8d58f55e-afa9-4e06-a758-83c4ce892e37"},"vehicle_type_id":"4","last_reported":1759230544,"current_range_meters":18800,"station_id":"ce4bhkp2rcd13ifvqgd0","pricing_plan_id":"cebpf4jnsgd1na2vs0mg"},{"bike_id":"17185041-9bd3-47e1-adaa-c0d96b214f65","system_id":"levelo_inurba_marseille","lat":43.317108,"lon":5.43707,"is_reserved":false,"is_disabled":false,"rental_uris":{"android":"levelo://app?vid=17185041-9bd3-47e1-adaa-c0d96b214f65","ios":"levelo://app?vid=17185041-9bd3-47e1-adaa-c0d96b214f65"},"vehicle_type_id":"4","last_reported":1759230544,"current_range_meters":18800,"station_id":"ce4bhp92rcd13ifvqhcg","pricing_plan_id":"cebpf4jnsgd1na2vs0mg"},{"bike_id":"abbe8cb0-7830-4fe7-82a9-7402368399e8","system_id":"levelo_inurba_marseille","lat":43.28671,"lon":5.37322,"is_reserved":false,"is_disabled":false,"rental_uris":{"android":"levelo://app?vid=abbe8cb0-7830-4fe7-82a9-7402368399e8","ios":"levelo://app?vid=abbe8cb0-7830-4fe7-82a9-7402368399e8"},"vehicle_type_id":"4","last_reported":1759230544,"current_range_meters":18800,"station_id":"","pricing_plan_id":"cebpf4jnsgd1na2vs0mg"},{"bike_id":"40efbd4b-a31c-49d0-91f0-b7eddd2a0d82","system_id":"levelo_inurba_marseille","lat":43.29111,"lon":5.382992,"is_reserved":false,"is_disabled":false,"rental_uris":{"android":"levelo://app?vid=40efbd4b-a31c-49d0-91f0-b7eddd2a0d82","ios":"levelo://app?vid=40efbd4b-a31c-49d0-91f0-b7eddd2a0d82"},"vehicle_type_id":"4","last_reported":1759230544,"current_range_meters":19200,"station_id":"","pricing_plan_id":"cebpf4jnsgd1na2vs0mg"},{"bike_id":"aefebd72-e153-41fa-a023-8e47725b83c8","system_id":"levelo_inurba_marseille","lat":43.26065,"lon":5.39398,"is_reserved":false,"is_disabled":false,"rental_uris":{"android":"levelo://app?vid=aefebd72-e153-41fa-a023-8e47725b83c8","ios":"levelo://app?vid=aefebd72-e153-41fa-a023-8e47725b83c8"},"vehicle_type_id":"4","last_reported":1759230544,"current_range_meters":19200,"station_id":"ce4bhh92rcd13ifvqfj0","pricing_plan_id":"cebpf4jnsgd1na2vs0mg"},{"bike_id":"e3099af8-870f-475e-a338-6a06600d6743","system_id":"levelo_inurba_marseille","lat":43.28987,"lon":5.37832,"is_reserved":false,"is_disabled":false,"rental_uris":{"android":"levelo://app?vid=e3099af8-870f-475e-a338-6a06600d6743","ios":"levelo://app?vid=e3099af8-870f-475e-a338-6a06600d6743"},"vehicle_type_id":"4","last_reported":1759230544,"current_range_meters":18800,"station_id":"ce4bh9p2rcd13ifvqed0","pricing_plan_id":"cebpf4jnsgd1na2vs0mg"},{"bike_id":"95403f12-d065-471d-bbfa-da5ad933798a","system_id":"levelo_inurba_marseille","lat":43.31235,"lon":5.36851,"is_reserved":false,"is_disabled":false,"rental_uris":{"android":"levelo://app?vid=95403f12-d065-471d-bbfa-da5ad933798a","ios":"levelo://app?vid=95403f12-d065-471d-bbfa-da5ad933798a"},"vehicle_type_id":"4","last_reported":1759230544,"current_range_meters":19200,"station_id":"ce4bgl92rcd13ifvqbq0","pricing_plan_id":"cebpf4jnsgd1na2vs0mg"},{"bike_id":"6523f72e-1462-440e-bc86-c0c457314b50","system_id":"levelo_inurba_marseille","lat":43.33607,"lon":5.40969,"is_reserved":false,"is_disabled":false,"rental_uris":{"android":"levelo://app?vid=6523f72e-1462-440e-bc86-c0c457314b50","ios":"levelo://app?vid=6523f72e-1462-440e-bc86-c0c457314b50"},"vehicle_type_id":"4","last_reported":1759230544,"current_range_meters":19200,"station_id":"","pricing_plan_id":"cebpf4jnsgd1na2vs0mg"},