{"last_updated":1729066388,"ttl":60,"version":"2.2","data":{"bikes":[{"bike_id":"5e3a5470-d8ee-4fa4-8bf2-24451a16fb9a","system_id":"levelo_inurba_marseille","lat":43.28146,"lon":5.42645,"is_reserved":false,"is_disabled":false,"rental_uris":{"android":"levelo://app?vid=5e3a5470-d8ee-4fa4-8bf2-24451a16fb9a","ios":"levelo://app?vid=5e3a5470-d8ee-4fa4-8bf2-24451a16fb9a"},"vehicle_type_id":"4","last_reported":1729066388,"current_range_meters":28000,"station_id":"ce4bhnh2rcd13ifvqgug","pricing_plan_id":"cebpf4jnsgd1na2vs0mg"},{"bike_id":"66379f2c-c1c8-4683-a252-ed84c21d525c","system_id":"levelo_inurba_marseille","lat":43.2707,"lon":5.42275,"is_reserved":false,"is_disabled":false,"rental_uris":{"android":"levelo://app?vid=66379f2c-c1c8-4683-a252-ed84c21d525c","ios":"levelo://app?vid=66379f2c-c1c8-4683-a252-ed84c21d525c"},"vehicle_type_id":"4","last_reported":1729066388,"current_range_meters":31200,"station_id":"ce4bhk92rcd13ifvqgb0","pricing_plan_id":"cebpf4jnsgd1na2vs0mg"},{"bike_id":"5002f4ca-68aa-4a9a-bbfb-321dee34c575","system_id":"levelo_inurba_marseille","lat":43.25938,"lon":5.40903,"is_reserved":false,"is_disabled":false,"rental_uris":{"android":"levelo://app?vid=5002f4ca-68aa-4a9a-bbfb-321dee34c575","ios":"levelo://app?vid=5002f4ca-68aa-4a9a-bbfb-321dee34c575"},"vehicle_type_id":"4","last_reported":1729066388,"current_range_meters":25200,"station_id":"ce4bhm92rcd13ifvqglg","pricing_plan_id":"cebpf4jnsgd1na2vs0mg"},{"bike_id":"805cf10d-9632-4f1a-9f3a-80b24a4fbac6","system_id":"levelo_inurba_marseille","lat":43.2978,"lon":5.41296,"is_reserved":false,"is_disabled":false,"rental_uris":{"android":"levelo://app?vid=805cf10d-9632-4f1a-9f3a-80b24a4fbac6","ios":"levelo://app?vid=805cf10d-9632-4f1a-9f3a-80b24a4fbac6"},"vehicle_type_id":"4","last_reported":1729066388,"current_range_meters":6000,"station_id":"","pricing_plan_id":"cebpf4jnsgd1na2vs0mg"},{"bike_id":"bcd69121-dfbd-4a91-a532-756efaa2cf8c","system_id":"levelo_inurba_marseille","lat":43.24073,"lon":5.37751,"is_reserved":false,"is_disabled":false,"rental_uris":{"android":"levelo://app?vid=bcd69121-dfbd-4a91-a532-756efaa2cf8c","ios":"levelo://app?vid=bcd69121-dfbd-4a91-a532-756efaa2cf8c"},"vehicle_type_id":"4","last_reported":1729066388,"current_range_meters":38800,"station_id":"ce4bhnp2rcd13ifvqgvg","pricing_plan_id":"cebpf4jnsgd1na2vs0mg"},{"bike_id":"b355e199-5b55-43c0-b360-d6ed305afb06","system_id":"levelo_inurba_marseille","lat":43.27211,"lon":5.39185,"is_reserved":false,"is_disabled":false,"rental_uris":{"android":"levelo://app?vid=b355e199-5b55-43c0-b360-d6ed305afb06","ios":"levelo://app?vid=b355e199-5b55-43c0-b360-d6ed305afb06"},"vehicle_type_id":"4","last_reported":1729066388,"current_range_meters":17600,"station_id":"","pricing_plan_id":"cebpf4jnsgd1na2vs0mg"},{"bike_id":"979638f0-5c67-408f-bbfd-0de28da1b117","system_id":"levelo_inurba_marseille","lat":43.29719,"lon":5.37689,"is_reserved":false,"is_disabled":false,"rental_uris":{"android":"levelo://app?vid=979638f0-5c67-408f-bbfd-0de28da1b117","ios":"levelo://app?vid=979638f0-5c67-408f-bbfd-0de28da1b117"},"vehicle_type_id":"4","last_reported":1729066388,"current_range_meters":38000,"station_id":"ce4bgkh2rcd13ifvqbl0","pricing_plan_id":"cebpf4jnsgd1na2vs0mg"},{"bike_id":"99c70f4d-61e0-4c55-bb26-8ba8cfa5d1a7","system_id":"levelo_inurba_marseille","lat":43.29273,"lon":5.36849,"is_reserved":false,"is_disabled":false,"rental_uris":{"android":"levelo://app?vid=99c70f4d-61e0-4c55-bb26-8ba8cfa5d1a7","ios":"levelo://app?vid=99c70f4d-61e0-4c55-bb26-8ba8cfa5d1a7"},"vehicle_type_id":"4","last_reported":1729066388,"current_range_meters":22400,"station_id":"ce4bhbp2rcd13ifvqesg","pricing_plan_id":"cebpf4jnsgd1na2vs0mg"},{"bike_id":"3d1aa8b2-1be9-41d6-b66c-9c65ba0a1999","system_id":"levelo_inurba_marseille","lat":43.25822,"lon":5.39423,"is_reserved":false,"is_disabled":false,"rental_uris":{"android":"levelo://app?vid=3d1aa8b2-1be9-41d6-b66c-9c65ba0a1999","ios":"levelo://app?vid=3d1aa8b2-1be9-41d6-b66c-9c65ba0a1999"},"vehicle_type_id":"4","last_reported":1729066388,"current_range_meters":22400,"station_id":"ce4bhip2rcd13ifvqft0","pricing_plan_id":"cebpf4jnsgd1na2vs0mg"},{"bike_id":"a317d19b-3e4c-466d-b1f0-ad5b7ee20519","system_id":"levelo_inurba_marseille","lat":43.25941,"lon":5.409,"is_reserved":false,"is_disabled":false,"rental_uris":{"android":"levelo://app?vid=a317d19b-3e4c-466d-b1f0-ad5b7ee20519","ios":"levelo://app?vid=a317d19b-3e4c-466d-b1f0-ad5b7ee20519"},"vehicle_type_id":"4","last_reported":1729066388,"current_range_meters":8400,"station_id":"ce4bhm92rcd13ifvqglg","pricing_plan_id":"cebpf4jnsgd1na2vs0mg"},{"bike_id":"bf89a9c9-08c5-4c83-9455-0646fb83b0d9","system_id":"levelo_inurba_marseille","lat":43.29193,"lon":5.3581,"is_reserved":false,"is_disabled":false,"rental_uris":{"android":"levelo://app?vid=bf89a9c9-08c5-4c83-9455-0646fb83b0d9","ios":"levelo://app?vid=bf89a9c9-08c5-4c83-9455-0646fb83b0d9"},"vehicle_type_id":"4","last_reported":1729066388,"current_range_meters":34800,"station_id":"ce4bhb12rcd13ifvqel0","pricing_plan_id":"cebpf4jnsgd1na2vs0mg"},{"bike_id":"fa345a0e-4f93-4329-aed4-d980757d8179","system_id":"levelo_inurba_marseille","lat":43.25997,"lon":5.3982,"is_reserved":false,"is_disabled":false,"rental_uris":{"android":"levelo://app?vid=fa345a0e-4f93-4329-aed4-d980757d8179","ios":"levelo://app?vid=fa345a0e-4f93-4329-aed4-d980757d8179"},"vehicle_type_id":"4","last_reported":1729066388,"current_range_meters":27600,"station_id":"","pricing_plan_id":"cebpf4jnsgd1na2vs0mg"},{"bike_id":"174e4cb0-d148-419c-9cb0-99ec87998a28","system_id":"levelo_inurba_marseille","lat":43.31222,"lon":5.3687,"is_reserved":false,"is_disabled":false,"rental_uris":{"android":"levelo://app?vid=174e4cb0-d148-419c-9cb0-99ec87998a28","ios":"levelo://app?vid=174e4cb0-d148-419c-9cb0-99ec87998a28"},"vehicle_type_id":"4","last_reported":1729066388,"current_range_meters":2000,"station_id":"ce4bgl92rcd13ifvqbq0","pricing_plan_id":"cebpf4jnsgd1na2vs0mg"},{"bike_id":"ac5b74c0-3c5a-4586-b763-b34334216681","system_id":"levelo_inurba_marseille","lat":43.313255,"lon":5.367246,"is_reserved":false,"is_disabled":false,"rental_uris":{"android":"levelo://app?vid=ac5b74c0-3c5a-4586-b763-b34334216681","ios":"levelo://app?vid=ac5b74c0-3c5a-4586-b763-b34334216681"},"vehicle_type_id":"4","last_reported":1729066388,"current_range_meters":15200,"station_id":"ce4bgr92rcd13ifvqc6g","pricing_plan_id":"cebpf4jnsgd1na2vs0mg"},{"bike_id":"042e5b40-9e97-45f4-843e-ff54af18e3a3","system_id":"levelo_inurba_marseille","lat":43.337444,"lon":5.374475,"is_reserved":false,"is_disabled":false,"rental_uris":{"android":"levelo://app?vid=042e5b40-9e97-45f4-843e-ff54af18e3a3","ios":"levelo://app?vid=042e5b40-9e97-45f4-843e-ff54af18e3a3"},"vehicle_type_id":"4","last_reported":1729066388,"current_range_meters":36800,"station_id":"","pricing_plan_id":"cebpf4jnsgd1na2vs0mg"},{"bike_id":"489ed225-bac5-4d72-9891-22449ed5d076","system_id":"levelo_inurba_marseille","lat":43.296204,"lon":5.381263,"is_reserved":false,"is_disabled":false,"rental_uris":{"android":"levelo://app?vid=489ed225-bac5-4d72-9891-22449ed5d076","ios":"levelo://app?vid=489ed225-bac5-4d72-9891-22449ed5d076"},"vehicle_type_id":"4","last_reported":1729066388,"current_range_meters":25600,"station_id":"ce4bgl12rcd13ifvqbo0","pricing_plan_id":"cebpf4jnsgd1na2vs0mg"},{"bike_id":"aed63b2b-0081-4be1-afe8-71115bd2c024","system_id":"levelo_inurba_marseille","lat":43.31887,"lon":5.4073,"is_reserved":false,"is_disabled":false,"rental_uris":{"android":"levelo://app?vid=aed63b2b-0081-4be1-afe8-71115bd2c024","ios":"levelo://app?vid=aed63b2b-0081-4be1-afe8-71115bd2c024"},"vehicle_type_id":"4","last_reported":1729066388,"current_range_meters":38800,"station_id":"ce4bhq12rcd13ifvqhig","pricing_plan_id":"cebpf4jnsgd1na2vs0mg"},{"bike_id":"f8dbf5d1-2716-4efe-a33a-adaef7465d9e","system_id":"levelo_inurba_marseille","lat":43.2695,"lon":5.38629,"is_reserved":false,"is_disabled":false,"rental_uris":{"android":"levelo://app?vid=f8dbf5d1-2716-4efe-a33a-adaef7465d9e","ios":"levelo://app?vid=f8dbf5d1-2716-4efe-a33a-adaef7465d9e"},"vehicle_type_id":"4","last_reported":1729066388,"current_range_meters":38800,"station_id":"ce4bhh92rcd13ifvqfh0","pricing_plan_id":"cebpf4jnsgd1na2vs0mg"},{"bike_id":"7a1dbcbb-c0e9-4957-a1d5-5f91b2afae57","system_id":"levelo_inurba_marseille","lat":43.30905,"lon":5.36857,"is_reserved":false,"is_disabled":false,"rental_uris":{"android":"levelo://app?vid=7a1dbcbb-c0e9-4957-a1d5-5f91b2afae57","ios":"levelo://app?vid=7a1dbcbb-c0e9-4957-a1d5-5f91b2afae57"},"vehicle_type_id":"4","last_reported":1729066388,"current_range_meters":34000,"station_id":"ce4bgn92rcd13ifvqbvg","pricing_plan_id":"cebpf4jnsgd1na2vs0mg"},{"bike_id":"f4fe8130-f3d1-4f31-b1ca-0f5ada9b2f86","system_id":"levelo_inurba_marseille","lat":43.27963,"lon":5.38748,"is_reserved":false,"is_disabled":false,"rental_uris":{"android":"levelo://app?vid=f4fe8130-f3d1-4f31-b1ca-0f5ada9b2f86","ios":"levelo://app?vid=f4fe8130-f3d1-4f31-b1ca-0f5ada9b2f86"},"vehicle_type_id":"4","last_reported":1729066388,"current_range_meters":36800,"station_id":"ce4bhg12rcd13ifvqf80","pricing_plan_id":"cebpf4jnsgd1na2vs0mg"},{"bike_id":"11bb7ed5-1970-4a73-a794-e55c1684750f","system_id":"levelo_inurba_marseille","lat":43.2315,"lon":5.43703,"is_reserved":false,"is_disabled":false,"rental_uris":{"android":"levelo://app?vid=11bb7ed5-1970-4a73-a794-e55c1684750f","ios":"levelo://app?vid=11bb7ed5-1970-4a73-a794-e55c1684750f"},"vehicle_type_id":"4","last_reported":1729066388,"current_range_meters":29600,"station_id":"ce4bhmp2rcd13ifvqgog","pricing_plan_id":"cebpf4jnsgd1na2vs0mg"},{"bike_id":"6123b646-e764-4dd8-a572-6d74bfe4bd24","system_id":"levelo_inurba_marseille","lat":43.3054,"lon":5.36537,"is_reserved":false,"is_disabled":false,"rental_uris":{"android":"levelo://app?vid=6123b646-e764-4dd8-a572-6d74bfe4bd24","ios":"levelo://app?vid=6123b646-e764-4dd8-a572-6d74bfe4bd24"},"vehicle_type_id":"4","last_reported":1729066388,"current_range_meters":14000,"station_id":"ce4bgs12rcd13ifvqcag","pricing_plan_id":"cebpf4jnsgd1na2vs0mg"},{"bike_id":"f266d66c-0caa-46a0-b858-a8641e907bea","system_id":"levelo_inurba_marseille","lat":43.32534,"lon":5.41446,"is_reserved":false,"is_disabled":false,"rental_uris":{"android":"levelo://app?vid=f266d66c-0caa-46a0-b858-a8641e907bea","ios":"levelo://app?vid=f266d66c-0caa-46a0-b858-a8641e907bea"},"vehicle_type_id":"4","last_reported":1729066388,"current_range_meters":34000,"station_id":"ce4bhq12rcd13ifvqhhg","pricing_plan_id":"cebpf4jnsgd1na2vs0mg"},{"bike_id":"96fd3dd3-96a0-4e12-bf5d-12292589addf","system_id":"levelo_inurba_marseille","lat":43.30543,"lon":5.36532,"is_reserved":false,"is_disabled":false,"rental_uris":{"android":"levelo://app?vid=96fd3dd3-96a0-4e12-bf5d-12292589addf","ios":"levelo://app?vid=96fd3dd3-96a0-4e12-bf5d-12292589addf"},"vehicle_type_id":"4","last_reported":1729066388,"current_range_meters":28800,"station_id":"ce4bgs12rcd13ifvqcag","pricing_plan_id":"cebpf4jnsgd1na2vs0mg"},{"bike_id":"842bdfb8-cce6-4db6-b51d-7b5c18cbbc1e","system_id":"levelo_inurba_marseille","lat":43.23151,"lon":5.43703,"is_reserved":false,"is_disabled":false,"rental_uris":{"android":"levelo://app?vid=842bdfb8-cce6-4db6-b51d-7b5c18cbbc1e","ios":"levelo://app?vid=842bdfb8-cce6-4db6-b51d-7b5c18cbbc1e"},"vehicle_type_id":"4","last_reported":1729066388,"current_range_meters":13600,"station_id":"ce4bhmp2rcd13ifvqgog","pricing_plan_id":"cebpf4jnsgd1na2vs0mg"},{"bike_id":"6cc70f83-0d6d-4110-9250-65ae4b09d8cc","system_id":"levelo_inurba_marseille","lat":43.27992,"lon":5.41657,"is_reserved":false,"is_disabled":false,"rental_uris":{"android":"levelo://app?vid=6cc70f83-0d6d-4110-9250-65ae4b09d8cc","ios":"levelo://app?vid=6cc70f83-0d6d-4110-9250-65ae4b09d8cc"},"vehicle_type_id":"4","last_reported":1729066388,"current_range_meters":30800,"station_id":"ce4bho12rcd13ifvqh1g","pricing_plan_id":"cebpf4jnsgd1na2vs0mg"},{"bike_id":"17c12b00-bc53-4c9a-ad64-dad76911932f","system_id":"levelo_inurba_marseille","lat":43.26953,"lon":5.38633,"is_reserved":false,"is_disabled":false,"rental_uris":{"android":"levelo://app?vid=17c12b00-bc53-4c9a-ad64-dad76911932f","ios":"levelo://app?vid=17c12b00-bc53-4c9a-ad64-dad76911932f"},"vehicle_type_id":"4","last_reported":1729066388,"current_range_meters":22800,"station_id":"ce4bhh92rcd13ifvqfh0","pricing_plan_id":"cebpf4jnsgd1na2vs0mg"},{"bike_id":"402c6eb8-6677-4c1b-b31c-e44fe3b044be","system_id":"levelo_inurba_marseille","lat":43.3135,"lon":5.36709,"is_reserved":false,"is_disabled":false,"rental_uris":{"android":"levelo://app?vid=402c6eb8-6677-4c1b-b31c-e44fe3b044be","ios":"levelo://app?vid=402c6eb8-6677-4c1b-b31c-e44fe3b044be"},"vehicle_type_id":"4","last_reported":1729066388,"current_range_meters":31200,"station_id":"ce4bgr92rcd13ifvqc6g","pricing_plan_id":"cebpf4jnsgd1na2vs0mg"},{"bike_id":"43ef6191-1da4-4fab-ad02-553d29a8e7e7","system_id":"levelo_inurba_marseille","lat":43.24651,"lon":5.38891,"is_reserved":false,"is_disabled":false,"rental_uris":{"android":"levelo://app?vid=43ef6191-1da4-4fab-ad02-553d29a8e7e7","ios":"levelo://app?vid=43ef6191-1da4-4fab-ad02-553d29a8e7e7"},"vehicle_type_id":"4","last_reported":1729066388,"current_range_meters":37600,"station_id":"ce4bhg12rcd13ifvqf60","pricing_plan_id":"cebpf4jnsgd1na2vs0mg"},{"bike_id":"6232b4d9-b37d-4acb-9c65-49657ed81111","system_id":"levelo_inurba_marseille","lat":43.30474,"lon":5.37914,"is_reserved":false,"is_disabled":false,"rental_uris":{"android":"levelo://app?vid=6232b4d9-b37d-4acb-9c65-49657ed81111","ios":"levelo://app?vid=6232b4d9-b37d-4acb-9c65-49657ed81111"},"vehicle_type_id":"4","last_reported":1729066388,"current_range_meters":38400,"station_id":"","pricing_plan_id":"cebpf4jnsgd1na2vs0mg"},{"bike_id":"24717297-db2a-414e-ab99-3035f49f952a","system_id":"levelo_inurba_marseille","lat":43.30908,"lon":5.36842,"is_reserved":false,"is_disabled":false,"rental_uris":{"android":"levelo://app?vid=24717297-db2a-414e-ab99-3035f49f952a","ios":"levelo://app?vid=24717297-db2a-414e-ab99-3035f49f952a"},"vehicle_type_id":"4","last_reported":1729066388,"current_range_meters":17600,"station_id":"ce4bgn92rcd13ifvqbvg","pricing_plan_id":"cebpf4jnsgd1na2vs0mg"},{"bike_id":"1e4aa504-6137-4dc7-9fd2-e023879dd1aa","system_id":"levelo_inurba_marseille","lat":43.31354,"lon":5.36701,"is_reserved":false,"is_disabled":false,"rental_uris":{"android":"levelo://app?vid=1e4aa504-6137-4dc7-9fd2-e023879dd1aa","ios":"levelo://app?vid=1e4aa504-6137-4dc7-9fd2-e023879dd1aa"},"vehicle_type_id":"4","last_reported":1729066388,"current_range_meters":37600,"station_id":"ce4bgr92rcd13ifvqc6g","pricing_plan_id":"cebpf4jnsgd1na2vs0mg"},{"bike_id":"3e08f6e6-0e29-467f-8b0a-13dd95c38598","system_id":"levelo_inurba_marseille","lat":43.292,"lon":5.38757,"is_reserved":false,"is_disabled":false,"rental_uris":{"android":"levelo://app?vid=3e08f6e6-0e29-467f-8b0a-13dd95c38598","ios":"levelo://app?vid=3e08f6e6-0e29-467f-8b0a-13dd95c38598"},"vehicle_type_id":"4","last_reported":1729066388,"current_range_meters":30000,"station_id":"ce4bh612rcd13ifvqe6g","pricing_plan_id":"cebpf4jnsgd1na2vs0mg"},{"bike_id":"eb7fbeec-0f7e-459f-9297-4e673e13228d","system_id":"levelo_inurba_marseille","lat":43.29585,"lon":5.36738,"is_reserved":false,"is_disabled":false,"rental_uris":{"android":"levelo://app?vid=eb7fbeec-0f7e-459f-9297-4e673e13228d","ios":"levelo://app?vid=eb7fbeec-0f7e-459f-9297-4e673e13228d"},"vehicle_type_id":"4","last_reported":1729066388,"current_range_meters":36800,"station_id":"ce4bgph2rcd13ifvqc2g","pricing_plan_id":"cebpf4jnsgd1na2vs0mg"},{"bike_id":"ca0163ac-d25a-437e-9b06-c3be4e515504","system_id":"levelo_inurba_marseille","lat":43.30313,"lon":5.36895,"is_reserved":false,"is_disabled":false,"rental_uris":{"android":"levelo://app?vid=ca0163ac-d25a-437e-9b06-c3be4e515504","ios":"levelo://app?vid=ca0163ac-d25a-437e-9b06-c3be4e515504"},"vehicle_type_id":"4","last_reported":1729066388,"current_range_meters":35600,"station_id":"ce4bgqh2rcd13ifvqc5g","pricing_plan_id":"cebpf4jnsgd1na2vs0mg"},{"bike_id":"40f0352f-19fd-472f-8c58-fccbfca93941","system_id":"levelo_inurba_marseille","lat":43.26952,"lon":5.38625,"is_reserved":false,"is_disabled":false,"rental_uris":{"android":"levelo://app?vid=40f0352f-19fd-472f-8c58-fccbfca93941","ios":"levelo://app?vid=40f0352f-19fd-472f-8c58-fccbfca93941"},"vehicle_type_id":"4","last_reported":1729066388,"current_range_meters":28400,"station_id":"ce4bhh92rcd13ifvqfh0","pricing_plan_id":"cebpf4jnsgd1na2vs0mg"},{"bike_id":"3d345541-8cc4-4a78-8d79-d41d0d8fd35c","system_id":"levelo_inurba_marseille","lat":43.2594,"lon":5.40904,"is_reserved":false,"is_disabled":false,"rental_uris":{"android":"levelo://app?vid=3d345541-8cc4-4a78-8d79-d41d0d8fd35c","ios":"levelo://app?vid=3d345541-8cc4-4a78-8d79-d41d0d8fd35c"},"vehicle_type_id":"4","last_reported":1729066388,"current_range_meters":24000,"station_id":"ce4bhm92rcd13ifvqglg","pricing_plan_id":"cebpf4jnsgd1na2vs0mg"},{"bike_id":"57fa9f76-c7d4-4b74-96fe-4bb481ced862","system_id":"levelo_inurba_marseille","lat":43.29551,"lon":5.42278,"is_reserved":false,"is_disabled":false,"rental_uris":{"android":"levelo://app?vid=57fa9f76-c7d4-4b74-96fe-4bb481ced862","ios":"levelo://app?vid=57fa9f76-c7d4-4b74-96fe-4bb481ced862"},"vehicle_type_id":"4","last_reported":1729066388,"current_range_meters":36000,"station_id":"ce4bhph2rcd13ifvqhdg","pricing_plan_id":"cebpf4jnsgd1na2vs0mg"},{"bike_id":"7729185e-87f5-4113-9325-6f8c6e2ca6b8","system_id":"levelo_inurba_marseille","lat":43.28159,"lon":5.42642,"is_reserved":false,"is_disabled":false,"rental_uris":{"android":"levelo://app?vid=7729185e-87f5-4113-9325-6f8c6e2ca6b8","ios":"levelo://app?vid=7729185e-87f5-4113-9325-6f8c6e2ca6b8"},"vehicle_type_id":"4","last_reported":1729066388,"current_range_meters":38400,"station_id":"ce4bhnh2rcd13ifvqgug","pricing_plan_id":"cebpf4jnsgd1na2vs0mg"},{"bike_id":"b3414e9f-e991-44cb-8362-0a7d75f1ca79","system_id":"levelo_inurba_marseille","lat":43.30314,"lon":5.36896,"is_reserved":false,"is_disabled":false,"rental_uris":{"android":"levelo://app?vid=b3414e9f-e991-44cb-8362-0a7d75f1ca79","ios":"levelo://app?vid=b3414e9f-e991-44cb-8362-0a7d75f1ca79"},"vehicle_type_id":"4","last_reported":1729066388,"current_range_meters":37600,"station_id":"ce4bgqh2rcd13ifvqc5g","pricing_plan_id":"cebpf4jnsgd1na2vs0mg"},{"bike_id":"c77ea266-271c-4ea2-a8dc-337f7c85044f","system_id":"levelo_inurba_marseille","lat":43.28155,"lon":5.42646,"is_reserved":false,"is_disabled":false,"rental_uris":{"android":"levelo://app?vid=c77ea266-271c-4ea2-a8dc-337f7c85044f","ios":"levelo://app?vid=c77ea266-271c-4ea2-a8dc-337f7c85044f"},"vehicle_type_id":"4","last_reported":1729066388,"current_range_meters":38000,"station_id":"ce4bhnh2rcd13ifvqgug","pricing_plan_id":"cebpf4jnsgd1na2vs0mg"},{"bike_id":"c514ac93-aa21-45f6-b27f-9ab463b8b22c","system_id":"levelo_inurba_marseille","lat":43.3117,"lon":5.38713,"is_reserved":false,"is_disabled":false,"rental_uris":{"android":"levelo://app?vid=c514ac93-aa21-45f6-b27f-9ab463b8b22c","ios":"levelo://app?vid=c514ac93-aa21-45f6-b27f-9ab463b8b22c"},"vehicle_type_id":"4","last_reported":1729066388,"current_range_meters":26800,"station_id":"ce4bgv12rcd13ifvqcp0","pricing_plan_id":"cebpf4jnsgd1na2vs0mg"},{"bike_id":"79b3f0f2-b593-4cb5-a001-1c856292dfd1","system_id":"levelo_inurba_marseille","lat":43.337444,"lon":5.374475,"is_reserved":false,"is_disabled":false,"rental_uris":{"android":"levelo://app?vid=79b3f0f2-b593-4cb5-a001-1c856292dfd1","ios":"levelo://app?vid=79b3f0f2-b593-4cb5-a001-1c856292dfd1"},"vehicle_type_id":"4","last_reported":1729066388,"current_range_meters":38400,"station_id":"","pricing_plan_id":"cebpf4jnsgd1na2vs0mg"},{"bike_id":"6e7afd62-d736-4ed9-9248-f4f82a390064","system_id":"levelo_inurba_marseille","lat":43.336,"lon":5.41023,"is_reserved":false,"is_disabled":false,"rental_uris":{"android":"levelo://app?vid=6e7afd62-d736-4ed9-9248-f4f82a390064","ios":"levelo://app?vid=6e7afd62-d736-4ed9-9248-f4f82a390064"},"vehicle_type_id":"4","last_reported":1729066388,"current_range_meters":39200,"station_id":"ce4bhqh2rcd13ifvqhmg","pricing_plan_id":"cebpf4jnsgd1na2vs0mg"},{"bike_id":"bede1d99-fe1b-4850-9f40-c05cbf7b0a0c","system_id":"levelo_inurba_marseille","lat":43.29526,"lon":5.37504,"is_reserved":false,"is_disabled":false,"rental_uris":{"android":"levelo://app?vid=bede1d99-fe1b-4850-9f40-c05cbf7b0a0c","ios":"levelo://app?vid=bede1d99-fe1b-4850-9f40-c05cbf7b0a0c"},"vehicle_type_id":"4","last_reported":1729066388,"current_range_meters":38000,"station_id":"ce4bgkp2rcd13ifvqbmg","pricing_plan_id":"cebpf4jnsgd1na2vs0mg"},{"bike_id":"b325087f-6118-4ad4-b60f-bacfc8d667c5","system_id":"levelo_inurba_marseille","lat":43.30911,"lon":5.36855,"is_reserved":false,"is_disabled":false,"rental_uris":{"android":"levelo://app?vid=b325087f-6118-4ad4-b60f-bacfc8d667c5","ios":"levelo://app?vid=b325087f-6118-4ad4-b60f-bacfc8d667c5"},"vehicle_type_id":"4","last_reported":1729066388,"current_range_meters":38800,"station_id":"ce4bgn92rcd13ifvqbvg","pricing_plan_id":"cebpf4jnsgd1na2vs0mg"},{"bike_id":"0e8d0eb3-8226-41cf-8503-f29d93bf68b5","system_id":"levelo_inurba_marseille","lat":43.26555,"lon":5.37285,"is_reserved":false,"is_disabled":false,"rental_uris":{"android":"levelo://app?vid=0e8d0eb3-8226-41cf-8503-f29d93bf68b5","ios":"levelo://app?vid=0e8d0eb3-8226-41cf-8503-f29d93bf68b5"},"vehicle_type_id":"4","last_reported":1729066388,"current_range_meters":23200,"station_id":"ce4bhg12rcd13ifvqf70","pricing_plan_id":"cebpf4jnsgd1na2vs0mg"},{"bike_id":"355a0fa1-840d-4072-b181-afd45b1c87e7","system_id":"levelo_inurba_marseille","lat":43.30947,"lon":5.39041,"is_reserved":false,"is_disabled":false,"rental_uris":{"android":"levelo://app?vid=355a0fa1-840d-4072-b181-afd45b1c87e7","ios":"levelo://app?vid=355a0fa1-840d-4072-b181-afd45b1c87e7"},"vehicle_type_id":"4","last_reported":1729066388,"current_range_meters":3200,"station_id":"ce4bgup2rcd13ifvqco0","pricing_plan_id":"cebpf4jnsgd1na2vs0mg"},{"bike_id":"33468822-f096-4e66-8de7-183a077e31fb","system_id":"levelo_inurba_marseille","lat":43.292337,"lon":5.360395,"is_reserved":false,"is_disabled":false,"rental_uris":{"android":"levelo://app?vid=33468822-f096-4e66-8de7-183a077e31fb","ios":"levelo://app?vid=33468822-f096-4e66-8de7-183a077e31fb"},"vehicle_type_id":"4","last_reported":1729066388,"current_range_meters":4800,"station_id":"ce4bhbh2rcd13ifvqeqg","pricing_plan_id":"cebpf4jnsgd1na2vs0mg"},{"bike_id":"cd22c2eb-20f4-4bb7-aafa-c4c31534ee0d","system_id":"levelo_inurba_marseille","lat":43.24066,"lon":5.37761,"is_reserved":false,"is_disabled":false,"rental_uris":{"android":"levelo://app?vid=cd22c2eb-20f4-4bb7-aafa-c4c31534ee0d","ios":"levelo://app?vid=cd22c2eb-20f4-4bb7-aafa-c4c31534ee0d"},"vehicle_type_id":"4","last_reported":1729066388,"current_range_meters":38800,"station_id":"ce4bhnp2rcd13ifvqgvg","pricing_plan_id":"cebpf4jnsgd1na2vs0mg"},{"bike_id":"434dd133-0d33-4dc7-acaf-af9673ea7798","system_id":"levelo_inurba_marseille","lat":43.30453,"lon":5.37904,"is_reserved":false,"is_disabled":false,"rental_uris":{"android":"levelo://app?vid=434dd133-0d33-4dc7-acaf-af9673ea7798","ios":"levelo://app?vid=434dd133-0d33-4dc7-acaf-af9673ea7798"},"vehicle_type_id":"4","last_reported":1729066388,"current_range_meters":28800,"station_id":"ce4bgup2rcd13ifvqcn0","pricing_plan_id":"cebpf4jnsgd1na2vs0mg"},{"bike_id":"8b89f175-d99c-4443-af38-c4cd2535f07b","system_id":"levelo_inurba_marseille","lat":43.30956,"lon":5.38634,"is_reserved":false,"is_disabled":false,"rental_uris":{"android":"levelo://app?vid=8b89f175-d99c-4443-af38-c4cd2535f07b","ios":"levelo://app?vid=8b89f175-d99c-4443-af38-c4cd2535f07b"},"vehicle_type_id":"4","last_reported":1729066388,"current_range_meters":38000,"station_id":"","pricing_plan_id":"cebpf4jnsgd1na2vs0mg"},{"bike_id":"ac2a1f1b-2715-4439-8ded-cb0fd1c865ae","system_id":"levelo_inurba_marseille","lat":43.29585,"lon":5.37514,"is_reserved":false,"is_disabled":false,"rental_uris":{"android":"levelo://app?vid=ac2a1f1b-2715-4439-8ded-cb0fd1c865ae","ios":"levelo://app?vid=ac2a1f1b-2715-4439-8ded-cb0fd1c865ae"},"vehicle_type_id":"4","last_reported":1729066388,"current_range_meters":26800,"station_id":"ce4bgh92rcd13ifvqb50","pricing_plan_id":"cebpf4jnsgd1na2vs0mg"},{"bike_id":"85ae4079-0909-45dc-b5c2-2cc0e3c1a9f0","system_id":"levelo_inurba_marseille","lat":43.29036,"lon":5.3996,"is_reserved":false,"is_disabled":false,"rental_uris":{"android":"levelo://app?vid=85ae4079-0909-45dc-b5c2-2cc0e3c1a9f0","ios":"levelo://app?vid=85ae4079-0909-45dc-b5c2-2cc0e3c1a9f0"},"vehicle_type_id":"4","last_reported":1729066388,"current_range_meters":8400,"station_id":"ce4bh392rcd13ifvqdm0","pricing_plan_id":"cebpf4jnsgd1na2vs0mg"},{"bike_id":"bdc4fa52-d2c7-466c-9c32-da70459256c8","system_id":"levelo_inurba_marseille","lat":43.32534,"lon":5.41446,"is_reserved":false,"is_disabled":false,"rental_uris":{"android":"levelo://app?vid=bdc4fa52-d2c7-466c-9c32-da70459256c8","ios":"levelo://app?vid=bdc4fa52-d2c7-466c-9c32-da70459256c8"},"vehicle_type_id":"4","last_reported":1729066388,"current_range_meters":30000,"station_id":"ce4bhq12rcd13ifvqhhg","pricing_plan_id":"cebpf4jnsgd1na2vs0mg"},{"bike_id":"fa7bbdc9-afbe-404d-8676-647037cc76a9","system_id":"levelo_inurba_marseille","lat":43.23183,"lon":5.35543,"is_reserved":false,"is_disabled":false,"rental_uris":{"android":"levelo://app?vid=fa7bbdc9-afbe-404d-8676-647037cc76a9","ios":"levelo://app?vid=fa7bbdc9-afbe-404d-8676-647037cc76a9"},"vehicle_type_id":"4","last_reported":1729066388,"current_range_meters":38400,"station_id":"ce4bhu92rcd13ifvqi70","pricing_plan_id":"cebpf4jnsgd1na2vs0mg"},{"bike_id":"ec3f9137-ad2a-4264-9ecc-a8cca8cdca9d","system_id":"levelo_inurba_marseille","lat":43.2873,"lon":5.37939,"is_reserved":false,"is_disabled":false,"rental_uris":{"android":"levelo://app?vid=ec3f9137-ad2a-4264-9ecc-a8cca8cdca9d","ios":"levelo://app?vid=ec3f9137-ad2a-4264-9ecc-a8cca8cdca9d"},"vehicle_type_id":"4","last_reported":1729066388,"current_range_meters":28000,"station_id":"ce4bh9p2rcd13ifvqec0","pricing_plan_id":"cebpf4jnsgd1na2vs0mg"},{"bike_id":"43330e7b-82d7-4db5-a597-a0e0cf337a3a","system_id":"levelo_inurba_marseille","lat":43.291107,"lon":5.380656,"is_reserved":false,"is_disabled":false,"rental_uris":{"android":"levelo://app?vid=43330e7b-82d7-4db5-a597-a0e0cf337a3a","ios":"levelo://app?vid=43330e7b-82d7-4db5-a597-a0e0cf337a3a"},"vehicle_type_id":"4","last_reported":1729066388,"current_range_meters":28400,"station_id":"ce4bh4p2rcd13ifvqe1g","pricing_plan_id":"cebpf4jnsgd1na2vs0mg"},{"bike_id":"81e32d4e-df25-4349-90c7-1831752870c9","system_id":"levelo_inurba_marseille","lat":43.2794,"lon":5.41042,"is_reserved":false,"is_disabled":false,"rental_uris":{"android":"levelo://app?vid=81e32d4e-df25-4349-90c7-1831752870c9","ios":"levelo://app?vid=81e32d4e-df25-4349-90c7-1831752870c9"},"vehicle_type_id":"4","last_reported":1729066388,"current_range_meters":36000,"station_id":"ce4bhnp2rcd13ifvqh0g","pricing_plan_id":"cebpf4jnsgd1na2vs0mg"},{"bike_id":"d54590d2-1290-4453-9032-b1e4b071738f","system_id":"levelo_inurba_marseille","lat":43.34139,"lon":5.40905,"is_reserved":false,"is_disabled":false,"rental_uris":{"android":"levelo://app?vid=d54590d2-1290-4453-9032-b1e4b071738f","ios":"levelo://app?vid=d54590d2-1290-4453-9032-b1e4b071738f"},"vehicle_type_id":"4","last_reported":1729066388,"current_range_meters":30000,"station_id":"ce4bhqh2rcd13ifvqhlg","pricing_plan_id":"cebpf4jnsgd1na2vs0mg"},{"bike_id":"1daf3c53-5848-4d69-95c2-1416fe25cfe9","system_id":"levelo_inurba_marseille","lat":43.31369,"lon":5.36689,"is_reserved":false,"is_disabled":false,"rental_uris":{"android":"levelo://app?vid=1daf3c53-5848-4d69-95c2-1416fe25cfe9","ios":"levelo://app?vid=1daf3c53-5848-4d69-95c2-1416fe25cfe9"},"vehicle_type_id":"4","last_reported":1729066388,"current_range_meters":28000,"station_id":"ce4bgr92rcd13ifvqc6g","pricing_plan_id":"cebpf4jnsgd1na2vs0mg"},{"bike_id":"6a64872d-0b46-4bf5-9f81-17b58b2c555a","system_id":"levelo_inurba_marseille","lat":43.29267,"lon":5.3685,"is_reserved":false,"is_disabled":false,"rental_uris":{"android":"levelo://app?vid=6a64872d-0b46-4bf5-9f81-17b58b2c555a","ios":"levelo://app?vid=6a64872d-0b46-4bf5-9f81-17b58b2c555a"},"vehicle_type_id":"4","last_reported":1729066388,"current_range_meters":6000,"station_id":"ce4bhbp2rcd13ifvqesg","pricing_plan_id":"cebpf4jnsgd1na2vs0mg"},{"bike_id":"88962acd-8bc6-4243-8784-bbc17449ee0f","system_id":"levelo_inurba_marseille","lat":43.300892,"lon":5.390881,"is_reserved":false,"is_disabled":false,"rental_uris":{"android":"levelo://app?vid=88962acd-8bc6-4243-8784-bbc17449ee0f","ios":"levelo://app?vid=88962acd-8bc6-4243-8784-bbc17449ee0f"},"vehicle_type_id":"4","last_reported":1729066388,"current_range_meters":35200,"station_id":"ce4bh192rcd13ifvqdb0","pricing_plan_id":"cebpf4jnsgd1na2vs0mg"},{"bike_id":"5d4185c5-efd5-458a-89de-9f5bf51cb954","system_id":"levelo_inurba_marseille","lat":43.25935,"lon":5.40897,"is_reserved":false,"is_disabled":false,"rental_uris":{"android":"levelo://app?vid=5d4185c5-efd5-458a-89de-9f5bf51cb954","ios":"levelo://app?vid=5d4185c5-efd5-458a-89de-9f5bf51cb954"},"vehicle_type_id":"4","last_reported":1729066388,"current_range_meters":28400,"station_id":"ce4bhm92rcd13ifvqglg","pricing_plan_id":"cebpf4jnsgd1na2vs0mg"},{"bike_id":"93bd04d4-5a74-4e87-b0f1-e000277515a8","system_id":"levelo_inurba_marseille","lat":43.31352,"lon":5.36705,"is_reserved":false,"is_disabled":false,"rental_uris":{"android":"levelo://app?vid=93bd04d4-5a74-4e87-b0f1-e000277515a8","ios":"levelo://app?vid=93bd04d4-5a74-4e87-b0f1-e000277515a8"},"vehicle_type_id":"4","last_reported":1729066388,"current_range_meters":26000,"station_id":"ce4bgr92rcd13ifvqc6g","pricing_plan_id":"cebpf4jnsgd1na2vs0mg"},{"bike_id":"f3c1853e-8b8e-47e4-8746-d00e45b18cdc","system_id":"levelo_inurba_marseille","lat":43.3248,"lon":5.36555,"is_reserved":false,"is_disabled":false,"rental_uris":{"android":"levelo://app?vid=f3c1853e-8b8e-47e4-8746-d00e45b18cdc","ios":"levelo://app?vid=f3c1853e-8b8e-47e4-8746-d00e45b18cdc"},"vehicle_type_id":"4","last_reported":1729066388,"current_range_meters":20000,"station_id":"ce4bhs12rcd13ifvqhvg","pricing_plan_id":"cebpf4jnsgd1na2vs0mg"},{"bike_id":"03b52a53-4015-42f1-a46b-0d68e4ef1cf1","system_id":"levelo_inurba_marseille","lat":43.30537,"lon":5.36703,"is_reserved":false,"is_disabled":false,"rental_uris":{"android":"levelo://app?vid=03b52a53-4015-42f1-a46b-0d68e4ef1cf1","ios":"levelo://app?vid=03b52a53-4015-42f1-a46b-0d68e4ef1cf1"},"vehicle_type_id":"4","last_reported":1729066388,"current_range_meters":39200,"station_id":"ce4bgrp2rcd13ifvqc9g","pricing_plan_id":"cebpf4jnsgd1na2vs0mg"},{"bike_id":"486fe526-9051-4c2d-aa93-fc36386471b3","system_id":"levelo_inurba_marseille","lat":43.2606,"lon":5.39396,"is_reserved":false,"is_disabled":false,"rental_uris":{"android":"levelo://app?vid=486fe526-9051-4c2d-aa93-fc36386471b3","ios":"levelo://app?vid=486fe526-9051-4c2d-aa93-fc36386471b3"},"vehicle_type_id":"4","last_reported":1729066388,"current_range_meters":16400,"station_id":"ce4bhh92rcd13ifvqfj0","pricing_plan_id":"cebpf4jnsgd1na2vs0mg"},{"bike_id":"8b8cb3c3-b8e9-49cb-8737-1ca6b1d6aab5","system_id":"levelo_inurba_marseille","lat":43.25581,"lon":5.38232,"is_reserved":false,"is_disabled":false,"rental_uris":{"android":"levelo://app?vid=8b8cb3c3-b8e9-49cb-8737-1ca6b1d6aab5","ios":"levelo://app?vid=8b8cb3c3-b8e9-49cb-8737-1ca6b1d6aab5"},"vehicle_type_id":"4","last_reported":1729066388,"current_range_meters":39200,"station_id":"ce4bhih2rcd13ifvqfs0","pricing_plan_id":"cebpf4jnsgd1na2vs0mg"},{"bike_id":"b3b76d0b-16ea-4ec2-bd27-660a8aa3d0cf","system_id":"levelo_inurba_marseille","lat":43.24383,"lon":5.37054,"is_reserved":false,"is_disabled":false,"rental_uris":{"android":"levelo://app?vid=b3b76d0b-16ea-4ec2-bd27-660a8aa3d0cf","ios":"levelo://app?vid=b3b76d0b-16ea-4ec2-bd27-660a8aa3d0cf"},"vehicle_type_id":"4","last_reported":1729066388,"current_range_meters":38000,"station_id":"ce4bhhh2rcd13ifvqfk0","pricing_plan_id":"cebpf4jnsgd1na2vs0mg"},{"bike_id":"4eae6a35-9a15-4f4d-8f95-a638485feea7","system_id":"levelo_inurba_marseille","lat":43.29518,"lon":5.39405,"is_reserved":false,"is_disabled":false,"rental_uris":{"android":"levelo://app?vid=4eae6a35-9a15-4f4d-8f95-a638485feea7","ios":"levelo://app?vid=4eae6a35-9a15-4f4d-8f95-a638485feea7"},"vehicle_type_id":"4","last_reported":1729066388,"current_range_meters":28400,"station_id":"ce4bh292rcd13ifvqdf0","pricing_plan_id":"cebpf4jnsgd1na2vs0mg"},{"bike_id":"7a4d5a85-bbe9-4a35-8205-0e6150fc57f6","system_id":"levelo_inurba_marseille","lat":43.309523,"lon":5.390218,"is_reserved":false,"is_disabled":false,"rental_uris":{"android":"levelo://app?vid=7a4d5a85-bbe9-4a35-8205-0e6150fc57f6","ios":"levelo://app?vid=7a4d5a85-bbe9-4a35-8205-0e6150fc57f6"},"vehicle_type_id":"4","last_reported":1729066388,"current_range_meters":32400,"station_id":"ce4bgup2rcd13ifvqco0","pricing_plan_id":"cebpf4jnsgd1na2vs0mg"},{"bike_id":"e69a34f7-c5b5-4409-96fa-65a8da5c5c7a","system_id":"levelo_inurba_marseille","lat":43.33606,"lon":5.4103,"is_reserved":false,"is_disabled":false,"rental_uris":{"android":"levelo://app?vid=e69a34f7-c5b5-4409-96fa-65a8da5c5c7a","ios":"levelo://app?vid=e69a34f7-c5b5-4409-96fa-65a8da5c5c7a"},"vehicle_type_id":"4","last_reported":1729066388,"current_range_meters":30000,"station_id":"ce4bhqh2rcd13ifvqhmg","pricing_plan_id":"cebpf4jnsgd1na2vs0mg"},{"bike_id":"93a75ee6-247e-4497-bea1-11275cbf5519","system_id":"levelo_inurba_marseille","lat":43.28974,"lon":5.37839,"is_reserved":false,"is_disabled":false,"rental_uris":{"android":"levelo://app?vid=93a75ee6-247e-4497-bea1-11275cbf5519","ios":"levelo://app?vid=93a75ee6-247e-4497-bea1-11275cbf5519"},"vehicle_type_id":"4","last_reported":1729066388,"current_range_meters":32400,"station_id":"ce4bh9p2rcd13ifvqed0","pricing_plan_id":"cebpf4jnsgd1na2vs0mg"},{"bike_id":"f1cb7637-d7c7-483a-a9fe-0d9ef0b3ac9b","system_id":"levelo_inurba_marseille","lat":43.32534,"lon":5.41448,"is_reserved":false,"is_disabled":false,"rental_uris":{"android":"levelo://app?vid=f1cb7637-d7c7-483a-a9fe-0d9ef0b3ac9b","ios":"levelo://app?vid=f1cb7637-d7c7-483a-a9fe-0d9ef0b3ac9b"},"vehicle_type_id":"4","last_reported":1729066388,"current_range_meters":36000,"station_id":"ce4bhq12rcd13ifvqhhg","pricing_plan_id":"cebpf4jnsgd1na2vs0mg"},{"bike_id":"a3d00d5a-741f-48cd-acd5-d6b1bea47400","system_id":"levelo_inurba_marseille","lat":43.312067,"lon":5.368583,"is_reserved":false,"is_disabled":false,"rental_uris":{"android":"levelo://app?vid=a3d00d5a-741f-48cd-acd5-d6b1bea47400","ios":"levelo://app?vid=a3d00d5a-741f-48cd-acd5-d6b1bea47400"},"vehicle_type_id":"4","last_reported":1729066388,"current_range_meters":36800,"station_id":"ce4bgl92rcd13ifvqbq0","pricing_plan_id":"cebpf4jnsgd1na2vs0mg"},{"bike_id":"0994d7f0-fa2e-480f-b967-2b1e1b476b78","system_id":"levelo_inurba_marseille","lat":43.2319,"lon":5.35552,"is_reserved":false,"is_disabled":false,"rental_uris":{"android":"levelo://app?vid=0994d7f0-fa2e-480f-b967-2b1e1b476b78","ios":"levelo://app?vid=0994d7f0-fa2e-480f-b967-2b1e1b476b78"},"vehicle_type_id":"4","last_reported":1729066388,"current_range_meters":22800,"station_id":"ce4bhu92rcd13ifvqi70","pricing_plan_id":"cebpf4jnsgd1na2vs0mg"},{"bike_id":"59605289-5b66-4123-8b91-0aff24ee5cea","system_id":"levelo_inurba_marseille","lat":43.30536,"lon":5.36542,"is_reserved":false,"is_disabled":false,"rental_uris":{"android":"levelo://app?vid=59605289-5b66-4123-8b91-0aff24ee5cea","ios":"levelo://app?vid=59605289-5b66-4123-8b91-0aff24ee5cea"},"vehicle_type_id":"4","last_reported":1729066388,"current_range_meters":24400,"station_id":"ce4bgs12rcd13ifvqcag","pricing_plan_id":"cebpf4jnsgd1na2vs0mg"},{"bike_id":"05cb1d61-4d3d-4b8c-891a-38d453c4b83c","system_id":"levelo_inurba_marseille","lat":43.32482,"lon":5.36564,"is_reserved":false,"is_disabled":false,"rental_uris":{"android":"levelo://app?vid=05cb1d61-4d3d-4b8c-891a-38d453c4b83c","ios":"levelo://app?vid=05cb1d61-4d3d-4b8c-891a-38d453c4b83c"},"vehicle_type_id":"4","last_reported":1729066388,"current_range_meters":38400,"station_id":"ce4bhs12rcd13ifvqhvg","pricing_plan_id":"cebpf4jnsgd1na2vs0mg"},{"bike_id":"66ccc46d-618e-4760-b09c-27382152bdab","system_id":"levelo_inurba_marseille","lat":43.23187,"lon":5.3554,"is_reserved":false,"is_disabled":false,"rental_uris":{"android":"levelo://app?vid=66ccc46d-618e-4760-b09c-27382152bdab","ios":"levelo://app?vid=66ccc46d-618e-4760-b09c-27382152bdab"},"vehicle_type_id":"4","last_reported":1729066388,"current_range_meters":38000,"station_id":"ce4bhu92rcd13ifvqi70","pricing_plan_id":"cebpf4jnsgd1na2vs0mg"},{"bike_id":"8a331acc-70d9-496a-b0bc-87f49792f9b4","system_id":"levelo_inurba_marseille","lat":43.24165,"lon":5.364,"is_reserved":false,"is_disabled":false,"rental_uris":{"android":"levelo://app?vid=8a331acc-70d9-496a-b0bc-87f49792f9b4","ios":"levelo://app?vid=8a331acc-70d9-496a-b0bc-87f49792f9b4"},"vehicle_type_id":"4","last_reported":1729066388,"current_range_meters":24400,"station_id":"cpo36qri1sfpv3e86is0","pricing_plan_id":"cebpf4jnsgd1na2vs0mg"},{"bike_id":"a8c6dcbb-71df-4d01-9f13-286e6119c0fd","system_id":"levelo_inurba_marseille","lat":43.23152,"lon":5.43721,"is_reserved":false,"is_disabled":false,"rental_uris":{"android":"levelo://app?vid=a8c6dcbb-71df-4d01-9f13-286e6119c0fd","ios":"levelo://app?vid=a8c6dcbb-71df-4d01-9f13-286e6119c0fd"},"vehicle_type_id":"4","last_reported":1729066388,"current_range_meters":8400,"station_id":"ce4bhmp2rcd13ifvqgog","pricing_plan_id":"cebpf4jnsgd1na2vs0mg"},{"bike_id":"4225baf2-8b78-49c3-a5c2-4783d8675717","system_id":"levelo_inurba_marseille","lat":43.28613,"lon":5.35104,"is_reserved":false,"is_disabled":false,"rental_uris":{"android":"levelo://app?vid=4225baf2-8b78-49c3-a5c2-4783d8675717","ios":"levelo://app?vid=4225baf2-8b78-49c3-a5c2-4783d8675717"},"vehicle_type_id":"4","last_reported":1729066388,"current_range_meters":30800,"station_id":"ce4bhch2rcd13ifvqeug","pricing_plan_id":"cebpf4jnsgd1na2vs0mg"},{"bike_id":"d3fb0f69-8124-45ee-a057-d8d044cc62bb","system_id":"levelo_inurba_marseille","lat":43.2799,"lon":5.40585,"is_reserved":false,"is_disabled":false,"rental_uris":{"android":"levelo://app?vid=d3fb0f69-8124-45ee-a057-d8d044cc62bb","ios":"levelo://app?vid=d3fb0f69-8124-45ee-a057-d8d044cc62bb"},"vehicle_type_id":"4","last_reported":1729066388,"current_range_meters":10000,"station_id":"ce4bhnh2rcd13ifvqgtg","pricing_plan_id":"cebpf4jnsgd1na2vs0mg"},{"bike_id":"08e24e63-f1d6-4132-aba3-61f9dfaab35b","system_id":"levelo_inurba_marseille","lat":43.26674,"lon":5.38257,"is_reserved":false,"is_disabled":false,"rental_uris":{"android":"levelo://app?vid=08e24e63-f1d6-4132-aba3-61f9dfaab35b","ios":"levelo://app?vid=08e24e63-f1d6-4132-aba3-61f9dfaab35b"},"vehicle_type_id":"4","last_reported":1729066388,"current_range_meters":39200,"station_id":"ce4bhg92rcd13ifvqf90","pricing_plan_id":"cebpf4jnsgd1na2vs0mg"},{"bike_id":"93b5f919-be34-493f-9540-17c698e19685","system_id":"levelo_inurba_marseille","lat":43.26677,"lon":5.38257,"is_reserved":false,"is_disabled":false,"rental_uris":{"android":"levelo://app?vid=93b5f919-be34-493f-9540-17c698e19685","ios":"levelo://app?vid=93b5f919-be34-493f-9540-17c698e19685"},"vehicle_type_id":"4","last_reported":1729066388,"current_range_meters":38800,"station_id":"ce4bhg92rcd13ifvqf90","pricing_plan_id":"cebpf4jnsgd1na2vs0mg"},{"bike_id":"6c073d0b-b641-44cb-85e1-0baa4943bbd8","system_id":"levelo_inurba_marseille","lat":43.27492,"lon":5.42458,"is_reserved":false,"is_disabled":false,"rental_uris":{"android":"levelo://app?vid=6c073d0b-b641-44cb-85e1-0baa4943bbd8","ios":"levelo://app?vid=6c073d0b-b641-44cb-85e1-0baa4943bbd8"},"vehicle_type_id":"4","last_reported":1729066388,"current_range_meters":19600,"station_id":"ce4bhn92rcd13ifvqgrg","pricing_plan_id":"cebpf4jnsgd1na2vs0mg"},{"bike_id":"f1b6ea50-4248-4443-99da-6864aa91a7c3","system_id":"levelo_inurba_marseille","lat":43.26679,"lon":5.38272,"is_reserved":false,"is_disabled":false,"rental_uris":{"android":"levelo://app?vid=f1b6ea50-4248-4443-99da-6864aa91a7c3","ios":"levelo://app?vid=f1b6ea50-4248-4443-99da-6864aa91a7c3"},"vehicle_type_id":"4","last_reported":1729066388,"current_range_meters":36000,"station_id":"ce4bhg92rcd13ifvqf90","pricing_plan_id":"cebpf4jnsgd1na2vs0mg"},{"bike_id":"fedfba0a-b4f3-4f95-a54e-e2a24bff2a5c","system_id":"levelo_inurba_marseille","lat":43.32527,"lon":5.41447,"is_reserved":false,"is_disabled":false,"rental_uris":{"android":"levelo://app?vid=fedfba0a-b4f3-4f95-a54e-e2a24bff2a5c","ios":"levelo://app?vid=fedfba0a-b4f3-4f95-a54e-e2a24bff2a5c"},"vehicle_type_id":"4","last_reported":1729066388,"current_range_meters":29600,"station_id":"ce4bhq12rcd13ifvqhhg","pricing_plan_id":"cebpf4jnsgd1na2vs0mg"},{"bike_id":"6300df2c-b9fe-4275-916d-dd75e59140c9","system_id":"levelo_inurba_marseille","lat":43.23186,"lon":5.35542,"is_reserved":false,"is_disabled":false,"rental_uris":{"android":"levelo://app?vid=6300df2c-b9fe-4275-916d-dd75e59140c9","ios":"levelo://app?vid=6300df2c-b9fe-4275-916d-dd75e59140c9"},"vehicle_type_id":"4","last_reported":1729066388,"current_range_meters":38400,"station_id":"ce4bhu92rcd13ifvqi70","pricing_plan_id":"cebpf4jnsgd1na2vs0mg"},{"bike_id":"8d4d0158-4334-4d55-af0b-6be8af41701c","system_id":"levelo_inurba_marseille","lat":43.32531,"lon":5.41446,"is_reserved":false,"is_disabled":false,"rental_uris":{"android":"levelo://app?vid=8d4d0158-4334-4d55-af0b-6be8af41701c","ios":"levelo://app?vid=8d4d0158-4334-4d55-af0b-6be8af41701c"},"vehicle_type_id":"4","last_reported":1729066388,"current_range_meters":9200,"station_id":"ce4bhq12rcd13ifvqhhg","pricing_plan_id":"cebpf4jnsgd1na2vs0mg"},{"bike_id":"bcb1566e-d9e0-4155-bf2b-fe496b670bdc","system_id":"levelo_inurba_marseille","lat":43.2749,"lon":5.42463,"is_reserved":false,"is_disabled":false,"rental_uris":{"android":"levelo://app?vid=bcb1566e-d9e0-4155-bf2b-fe496b670bdc","ios":"levelo://app?vid=bcb1566e-d9e0-4155-bf2b-fe496b670bdc"},"vehicle_type_id":"4","last_reported":1729066388,"current_range_meters":27600,"station_id":"ce4bhn92rcd13ifvqgrg","pricing_plan_id":"cebpf4jnsgd1na2vs0mg"},{"bike_id":"306d10a5-6d20-40b0-86cc-e97e65bfb51c","system_id":"levelo_inurba_marseille","lat":43.30142,"lon":5.3741,"is_reserved":false,"is_disabled":false,"rental_uris":{"android":"levelo://app?vid=306d10a5-6d20-40b0-86cc-e97e65bfb51c","ios":"levelo://app?vid=306d10a5-6d20-40b0-86cc-e97e65bfb51c"},"vehicle_type_id":"4","last_reported":1729066388,"current_range_meters":38800,"station_id":"ce4bgs92rcd13ifvqcc0","pricing_plan_id":"cebpf4jnsgd1na2vs0mg"},{"bike_id":"f9bd20aa-623e-4ff4-975c-7d4cfab24d90","system_id":"levelo_inurba_marseille","lat":43.23186,"lon":5.39984,"is_reserved":false,"is_disabled":false,"rental_uris":{"android":"levelo://app?vid=f9bd20aa-623e-4ff4-975c-7d4cfab24d90","ios":"levelo://app?vid=f9bd20aa-623e-4ff4-975c-7d4cfab24d90"},"vehicle_type_id":"4","last_reported":1729066388,"current_range_meters":26000,"station_id":"ce4bhn12rcd13ifvqgqg","pricing_plan_id":"cebpf4jnsgd1na2vs0mg"},{"bike_id":"c3a2e888-a8b9-4ee1-b7d3-71b15869978f","system_id":"levelo_inurba_marseille","lat":43.23963,"lon":5.36634,"is_reserved":false,"is_disabled":false,"rental_uris":{"android":"levelo://app?vid=c3a2e888-a8b9-4ee1-b7d3-71b15869978f","ios":"levelo://app?vid=c3a2e888-a8b9-4ee1-b7d3-71b15869978f"},"vehicle_type_id":"4","last_reported":1729066388,"current_range_meters":38000,"station_id":"ce4bhi12rcd13ifvqfp0","pricing_plan_id":"cebpf4jnsgd1na2vs0mg"},{"bike_id":"e3b7dbfb-6f30-458b-b4dc-782770dde0e4","system_id":"levelo_inurba_marseille","lat":43.32478,"lon":5.36577,"is_reserved":false,"is_disabled":false,"rental_uris":{"android":"levelo://app?vid=e3b7dbfb-6f30-458b-b4dc-782770dde0e4","ios":"levelo://app?vid=e3b7dbfb-6f30-458b-b4dc-782770dde0e4"},"vehicle_type_id":"4","last_reported":1729066388,"current_range_meters":19200,"station_id":"ce4bhs12rcd13ifvqhvg","pricing_plan_id":"cebpf4jnsgd1na2vs0mg"},{"bike_id":"a93dc31e-a800-44ef-b256-21cfd90b8102","system_id":"levelo_inurba_marseille","lat":43.25933,"lon":5.40907,"is_reserved":false,"is_disabled":false,"rental_uris":{"android":"levelo://app?vid=a93dc31e-a800-44ef-b256-21cfd90b8102","ios":"levelo://app?vid=a93dc31e-a800-44ef-b256-21cfd90b8102"},"vehicle_type_id":"4","last_reported":1729066388,"current_range_meters":8000,"station_id":"ce4bhm92rcd13ifvqglg","pricing_plan_id":"cebpf4jnsgd1na2vs0mg"},{"bike_id":"0e541f65-507d-4127-9518-7dc861e350ad","system_id":"levelo_inurba_marseille","lat":43.29525,"lon":5.39026,"is_reserved":false,"is_disabled":false,"rental_uris":{"android":"levelo://app?vid=0e541f65-507d-4127-9518-7dc861e350ad","ios":"levelo://app?vid=0e541f65-507d-4127-9518-7dc861e350ad"},"vehicle_type_id":"4","last_reported":1729066388,"current_range_meters":26000,"station_id":"ce4bh3p2rcd13ifvqdp0","pricing_plan_id":"cebpf4jnsgd1na2vs0mg"},{"bike_id":"84517dd2-f8fc-4dc8-a07b-21a4b0225bcd","system_id":"levelo_inurba_marseille","lat":43.32531,"lon":5.4145,"is_reserved":false,"is_disabled":false,"rental_uris":{"android":"levelo://app?vid=84517dd2-f8fc-4dc8-a07b-21a4b0225bcd","ios":"levelo://app?vid=84517dd2-f8fc-4dc8-a07b-21a4b0225bcd"},"vehicle_type_id":"4","last_reported":1729066388,"current_range_meters":22800,"station_id":"ce4bhq12rcd13ifvqhhg","pricing_plan_id":"cebpf4jnsgd1na2vs0mg"},{"bike_id":"4a13a42e-6b05-47bc-8fc0-a11675b56735","system_id":"levelo_inurba_marseille","lat":43.30395,"lon":5.40015,"is_reserved":false,"is_disabled":false,"rental_uris":{"android":"levelo://app?vid=4a13a42e-6b05-47bc-8fc0-a11675b56735","ios":"levelo://app?vid=4a13a42e-6b05-47bc-8fc0-a11675b56735"},"vehicle_type_id":"4","last_reported":1729066388,"current_range_meters":33200,"station_id":"","pricing_plan_id":"cebpf4jnsgd1na2vs0mg"},{"bike_id":"5b2b1bd8-61a3-4f71-aaca-892e44204898","system_id":"levelo_inurba_marseille","lat":43.31327,"lon":5.39689,"is_reserved":false,"is_disabled":false,"rental_uris":{"android":"levelo://app?vid=5b2b1bd8-61a3-4f71-aaca-892e44204898","ios":"levelo://app?vid=5b2b1bd8-61a3-4f71-aaca-892e44204898"},"vehicle_type_id":"4","last_reported":1729066388,"current_range_meters":21600,"station_id":"ce4bgvp2rcd13ifvqcu0","pricing_plan_id":"cebpf4jnsgd1na2vs0mg"},{"bike_id":"fa2949d0-b61f-4704-8f01-df6c7c877210","system_id":"levelo_inurba_marseille","lat":43.34139,"lon":5.40902,"is_reserved":false,"is_disabled":false,"rental_uris":{"android":"levelo://app?vid=fa2949d0-b61f-4704-8f01-df6c7c877210","ios":"levelo://app?vid=fa2949d0-b61f-4704-8f01-df6c7c877210"},"vehicle_type_id":"4","last_reported":1729066388,"current_range_meters":38800,"station_id":"ce4bhqh2rcd13ifvqhlg","pricing_plan_id":"cebpf4jnsgd1na2vs0mg"},{"bike_id":"2140b6a3-5118-4150-823e-9225aeb56201","system_id":"levelo_inurba_marseille","lat":43.23191,"lon":5.35547,"is_reserved":false,"is_disabled":false,"rental_uris":{"android":"levelo://app?vid=2140b6a3-5118-4150-823e-9225aeb56201","ios":"levelo://app?vid=2140b6a3-5118-4150-823e-9225aeb56201"},"vehicle_type_id":"4","last_reported":1729066388,"current_range_meters":4000,"station_id":"ce4bhu92rcd13ifvqi70","pricing_plan_id":"cebpf4jnsgd1na2vs0mg"},{"bike_id":"1d8b8354-46cd-4704-bf8c-889b42da218f","system_id":"levelo_inurba_marseille","lat":43.2586,"lon":5.39899,"is_reserved":false,"is_disabled":false,"rental_uris":{"android":"levelo://app?vid=1d8b8354-46cd-4704-bf8c-889b42da218f","ios":"levelo://app?vid=1d8b8354-46cd-4704-bf8c-889b42da218f"},"vehicle_type_id":"4","last_reported":1729066388,"current_range_meters":38400,"station_id":"ce4bhl92rcd13ifvqghg","pricing_plan_id":"cebpf4jnsgd1na2vs0mg"},{"bike_id":"e7aedd00-f53a-48fd-a6a9-30d36c872d2e","system_id":"levelo_inurba_marseille","lat":43.30282,"lon":5.37693,"is_reserved":false,"is_disabled":false,"rental_uris":{"android":"levelo://app?vid=e7aedd00-f53a-48fd-a6a9-30d36c872d2e","ios":"levelo://app?vid=e7aedd00-f53a-48fd-a6a9-30d36c872d2e"},"vehicle_type_id":"4","last_reported":1729066388,"current_range_meters":38800,"station_id":"ce4bguh2rcd13ifvqcj0","pricing_plan_id":"cebpf4jnsgd1na2vs0mg"},{"bike_id":"a310484e-bff7-45c6-a75a-02549d194aef","system_id":"levelo_inurba_marseille","lat":43.30534,"lon":5.3654,"is_reserved":false,"is_disabled":false,"rental_uris":{"android":"levelo://app?vid=a310484e-bff7-45c6-a75a-02549d194aef","ios":"levelo://app?vid=a310484e-bff7-45c6-a75a-02549d194aef"},"vehicle_type_id":"4","last_reported":1729066388,"current_range_meters":20800,"station_id":"ce4bgs12rcd13ifvqcag","pricing_plan_id":"cebpf4jnsgd1na2vs0mg"},{"bike_id":"efe9840c-8fb2-4e9f-845d-e5b20acfb757","system_id":"levelo_inurba_marseille","lat":43.23156,"lon":5.43711,"is_reserved":false,"is_disabled":false,"rental_uris":{"android":"levelo://app?vid=efe9840c-8fb2-4e9f-845d-e5b20acfb757","ios":"levelo://app?vid=efe9840c-8fb2-4e9f-845d-e5b20acfb757"},"vehicle_type_id":"4","last_reported":1729066388,"current_range_meters":9600,"station_id":"ce4bhmp2rcd13ifvqgog","pricing_plan_id":"cebpf4jnsgd1na2vs0mg"},{"bike_id":"52e37773-79c6-4443-94d6-5ed359faaaf0","system_id":"levelo_inurba_marseille","lat":43.3028,"lon":5.377,"is_reserved":false,"is_disabled":false,"rental_uris":{"android":"levelo://app?vid=52e37773-79c6-4443-94d6-5ed359faaaf0","ios":"levelo://app?vid=52e37773-79c6-4443-94d6-5ed359faaaf0"},"vehicle_type_id":"4","last_reported":1729066388,"current_range_meters":8400,"station_id":"ce4bguh2rcd13ifvqcj0","pricing_plan_id":"cebpf4jnsgd1na2vs0mg"},{"bike_id":"34515f2b-1719-4f4a-9852-35ee1a5a04ba","system_id":"levelo_inurba_marseille","lat":43.30278,"lon":5.37688,"is_reserved":false,"is_disabled":false,"rental_uris":{"android":"levelo://app?vid=34515f2b-1719-4f4a-9852-35ee1a5a04ba","ios":"levelo://app?vid=34515f2b-1719-4f4a-9852-35ee1a5a04ba"},"vehicle_type_id":"4","last_reported":1729066388,"current_range_meters":34800,"station_id":"ce4bguh2rcd13ifvqcj0","pricing_plan_id":"cebpf4jnsgd1na2vs0mg"},{"bike_id":"fe0ed97f-0597-4aef-86e2-d5d073ff43d3","system_id":"levelo_inurba_marseille","lat":43.29553,"lon":5.42273,"is_reserved":false,"is_disabled":false,"rental_uris":{"android":"levelo://app?vid=fe0ed97f-0597-4aef-86e2-d5d073ff43d3","ios":"levelo://app?vid=fe0ed97f-0597-4aef-86e2-d5d073ff43d3"},"vehicle_type_id":"4","last_reported":1729066388,"current_range_meters":38000,"station_id":"ce4bhph2rcd13ifvqhdg","pricing_plan_id":"cebpf4jnsgd1na2vs0mg"},{"bike_id":"25cb8ec2-1ba1-4361-a0d8-34d3dff9720b","system_id":"levelo_inurba_marseille","lat":43.23154,"lon":5.43703,"is_reserved":false,"is_disabled":false,"rental_uris":{"android":"levelo://app?vid=25cb8ec2-1ba1-4361-a0d8-34d3dff9720b","ios":"levelo://app?vid=25cb8ec2-1ba1-4361-a0d8-34d3dff9720b"},"vehicle_type_id":"4","last_reported":1729066388,"current_range_meters":16000,"station_id":"ce4bhmp2rcd13ifvqgog","pricing_plan_id":"cebpf4jnsgd1na2vs0mg"},{"bike_id":"97508b92-4548-4bc3-8d90-c63f406852d1","system_id":"levelo_inurba_marseille","lat":43.27991,"lon":5.41653,"is_reserved":false,"is_disabled":false,"rental_uris":{"android":"levelo://app?vid=97508b92-4548-4bc3-8d90-c63f406852d1","ios":"levelo://app?vid=97508b92-4548-4bc3-8d90-c63f406852d1"},"vehicle_type_id":"4","last_reported":1729066388,"current_range_meters":38400,"station_id":"ce4bho12rcd13ifvqh1g","pricing_plan_id":"cebpf4jnsgd1na2vs0mg"},{"bike_id":"9edfb9e6-9161-423b-9976-81ea567d3000","system_id":"levelo_inurba_marseille","lat":43.30459,"lon":5.37899,"is_reserved":false,"is_disabled":false,"rental_uris":{"android":"levelo://app?vid=9edfb9e6-9161-423b-9976-81ea567d3000","ios":"levelo://app?vid=9edfb9e6-9161-423b-9976-81ea567d3000"},"vehicle_type_id":"4","last_reported":1729066388,"current_range_meters":32000,"station_id":"ce4bgup2rcd13ifvqcn0","pricing_plan_id":"cebpf4jnsgd1na2vs0mg"},{"bike_id":"a1c7764f-d0cb-4074-95ed-904f97a4d6fe","system_id":"levelo_inurba_marseille","lat":43.24074,"lon":5.3776,"is_reserved":false,"is_disabled":false,"rental_uris":{"android":"levelo://app?vid=a1c7764f-d0cb-4074-95ed-904f97a4d6fe","ios":"levelo://app?vid=a1c7764f-d0cb-4074-95ed-904f97a4d6fe"},"vehicle_type_id":"4","last_reported":1729066388,"current_range_meters":28000,"station_id":"ce4bhnp2rcd13ifvqgvg","pricing_plan_id":"cebpf4jnsgd1na2vs0mg"},{"bike_id":"c46427c8-1df2-45b2-8a56-68703623f483","system_id":"levelo_inurba_marseille","lat":43.26064,"lon":5.39396,"is_reserved":false,"is_disabled":false,"rental_uris":{"android":"levelo://app?vid=c46427c8-1df2-45b2-8a56-68703623f483","ios":"levelo://app?vid=c46427c8-1df2-45b2-8a56-68703623f483"},"vehicle_type_id":"4","last_reported":1729066388,"current_range_meters":35200,"station_id":"ce4bhh92rcd13ifvqfj0","pricing_plan_id":"cebpf4jnsgd1na2vs0mg"},{"bike_id":"480a1b5e-7e75-47f1-b2f6-1cb6b6723721","system_id":"levelo_inurba_marseille","lat":43.31342,"lon":5.3671,"is_reserved":false,"is_disabled":false,"rental_uris":{"android":"levelo://app?vid=480a1b5e-7e75-47f1-b2f6-1cb6b6723721","ios":"levelo://app?vid=480a1b5e-7e75-47f1-b2f6-1cb6b6723721"},"vehicle_type_id":"4","last_reported":1729066388,"current_range_meters":34000,"station_id":"ce4bgr92rcd13ifvqc6g","pricing_plan_id":"cebpf4jnsgd1na2vs0mg"},{"bike_id":"8cb8794b-fc64-4ce9-b434-8942818c8fb2","system_id":"levelo_inurba_marseille","lat":43.24383,"lon":5.37057,"is_reserved":false,"is_disabled":false,"rental_uris":{"android":"levelo://app?vid=8cb8794b-fc64-4ce9-b434-8942818c8fb2","ios":"levelo://app?vid=8cb8794b-fc64-4ce9-b434-8942818c8fb2"},"vehicle_type_id":"4","last_reported":1729066388,"current_range_meters":36400,"station_id":"ce4bhhh2rcd13ifvqfk0","pricing_plan_id":"cebpf4jnsgd1na2vs0mg"},{"bike_id":"3213665e-989c-4d22-9f5a-31c8522597dd","system_id":"levelo_inurba_marseille","lat":43.296,"lon":5.36142,"is_reserved":false,"is_disabled":false,"rental_uris":{"android":"levelo://app?vid=3213665e-989c-4d22-9f5a-31c8522597dd","ios":"levelo://app?vid=3213665e-989c-4d22-9f5a-31c8522597dd"},"vehicle_type_id":"4","last_reported":1729066388,"current_range_meters":33600,"station_id":"","pricing_plan_id":"cebpf4jnsgd1na2vs0mg"},{"bike_id":"3ecda465-3f44-4acb-b6ec-0dd71866866a","system_id":"levelo_inurba_marseille","lat":43.30905,"lon":5.36845,"is_reserved":false,"is_disabled":false,"rental_uris":{"android":"levelo://app?vid=3ecda465-3f44-4acb-b6ec-0dd71866866a","ios":"levelo://app?vid=3ecda465-3f44-4acb-b6ec-0dd71866866a"},"vehicle_type_id":"4","last_reported":1729066388,"current_range_meters":30400,"station_id":"ce4bgn92rcd13ifvqbvg","pricing_plan_id":"cebpf4jnsgd1na2vs0mg"},{"bike_id":"1641b826-604a-4181-8231-dca386f637a6","system_id":"levelo_inurba_marseille","lat":43.23189,"lon":5.35554,"is_reserved":false,"is_disabled":false,"rental_uris":{"android":"levelo://app?vid=1641b826-604a-4181-8231-dca386f637a6","ios":"levelo://app?vid=1641b826-604a-4181-8231-dca386f637a6"},"vehicle_type_id":"4","last_reported":1729066388,"current_range_meters":38400,"station_id":"ce4bhu92rcd13ifvqi70","pricing_plan_id":"cebpf4jnsgd1na2vs0mg"},{"bike_id":"89211ee2-076f-4df3-92bd-cd8885f2e76d","system_id":"levelo_inurba_marseille","lat":43.23193,"lon":5.35556,"is_reserved":false,"is_disabled":false,"rental_uris":{"android":"levelo://app?vid=89211ee2-076f-4df3-92bd-cd8885f2e76d","ios":"levelo://app?vid=89211ee2-076f-4df3-92bd-cd8885f2e76d"},"vehicle_type_id":"4","last_reported":1729066388,"current_range_meters":38000,"station_id":"ce4bhu92rcd13ifvqi70","pricing_plan_id":"cebpf4jnsgd1na2vs0mg"},{"bike_id":"90f80907-e0d5-4716-a7d8-45b2c2640b01","system_id":"levelo_inurba_marseille","lat":43.23145,"lon":5.43705,"is_reserved":false,"is_disabled":false,"rental_uris":{"android":"levelo://app?vid=90f80907-e0d5-4716-a7d8-45b2c2640b01","ios":"levelo://app?vid=90f80907-e0d5-4716-a7d8-45b2c2640b01"},"vehicle_type_id":"4","last_reported":1729066388,"current_range_meters":8000,"station_id":"ce4bhmp2rcd13ifvqgog","pricing_plan_id":"cebpf4jnsgd1na2vs0mg"},{"bike_id":"8a0ec060-f168-4a45-80a7-03f068c98bc5","system_id":"levelo_inurba_marseille","lat":43.29574,"lon":5.39963,"is_reserved":false,"is_disabled":false,"rental_uris":{"android":"levelo://app?vid=8a0ec060-f168-4a45-80a7-03f068c98bc5","ios":"levelo://app?vid=8a0ec060-f168-4a45-80a7-03f068c98bc5"},"vehicle_type_id":"4","last_reported":1729066388,"current_range_meters":17200,"station_id":"ce4bh312rcd13ifvqdj0","pricing_plan_id":"cebpf4jnsgd1na2vs0mg"},{"bike_id":"8e0c7a2e-9557-49de-9a2d-e4ab3d8ce2d8","system_id":"levelo_inurba_marseille","lat":43.33718,"lon":5.39193,"is_reserved":false,"is_disabled":false,"rental_uris":{"android":"levelo://app?vid=8e0c7a2e-9557-49de-9a2d-e4ab3d8ce2d8","ios":"levelo://app?vid=8e0c7a2e-9557-49de-9a2d-e4ab3d8ce2d8"},"vehicle_type_id":"4","last_reported":1729066388,"current_range_meters":32800,"station_id":"ce4bhr92rcd13ifvqhsg","pricing_plan_id":"cebpf4jnsgd1na2vs0mg"},{"bike_id":"7c5f840d-ee91-49f8-abf1-6481edcbe346","system_id":"levelo_inurba_marseille","lat":43.23143,"lon":5.43689,"is_reserved":false,"is_disabled":false,"rental_uris":{"android":"levelo://app?vid=7c5f840d-ee91-49f8-abf1-6481edcbe346","ios":"levelo://app?vid=7c5f840d-ee91-49f8-abf1-6481edcbe346"},"vehicle_type_id":"4","last_reported":1729066388,"current_range_meters":28400,"station_id":"ce4bhmp2rcd13ifvqgog","pricing_plan_id":"cebpf4jnsgd1na2vs0mg"},{"bike_id":"3bee68e5-2371-4e22-ab38-d19cd0db0898","system_id":"levelo_inurba_marseille","lat":43.29801,"lon":5.38101,"is_reserved":false,"is_disabled":false,"rental_uris":{"android":"levelo://app?vid=3bee68e5-2371-4e22-ab38-d19cd0db0898","ios":"levelo://app?vid=3bee68e5-2371-4e22-ab38-d19cd0db0898"},"vehicle_type_id":"4","last_reported":1729066388,"current_range_meters":14400,"station_id":"ce4bgip2rcd13ifvqbb0","pricing_plan_id":"cebpf4jnsgd1na2vs0mg"},{"bike_id":"1b128b70-a182-4346-999b-95b5927f197a","system_id":"levelo_inurba_marseille","lat":43.32529,"lon":5.41441,"is_reserved":false,"is_disabled":false,"rental_uris":{"android":"levelo://app?vid=1b128b70-a182-4346-999b-95b5927f197a","ios":"levelo://app?vid=1b128b70-a182-4346-999b-95b5927f197a"},"vehicle_type_id":"4","last_reported":1729066388,"current_range_meters":24800,"station_id":"ce4bhq12rcd13ifvqhhg","pricing_plan_id":"cebpf4jnsgd1na2vs0mg"},{"bike_id":"55a3337e-c45f-4bce-93ec-a4b648c24a42","system_id":"levelo_inurba_marseille","lat":43.22932,"lon":5.35377,"is_reserved":false,"is_disabled":false,"rental_uris":{"android":"levelo://app?vid=55a3337e-c45f-4bce-93ec-a4b648c24a42","ios":"levelo://app?vid=55a3337e-c45f-4bce-93ec-a4b648c24a42"},"vehicle_type_id":"4","last_reported":1729066388,"current_range_meters":36400,"station_id":"cpo3532slgdg3j2ikp40","pricing_plan_id":"cebpf4jnsgd1na2vs0mg"},{"bike_id":"7bd2624d-90da-46b1-a041-400b3ff0ca18","system_id":"levelo_inurba_marseille","lat":43.30142,"lon":5.37408,"is_reserved":false,"is_disabled":false,"rental_uris":{"android":"levelo://app?vid=7bd2624d-90da-46b1-a041-400b3ff0ca18","ios":"levelo://app?vid=7bd2624d-90da-46b1-a041-400b3ff0ca18"},"vehicle_type_id":"4","last_reported":1729066388,"current_range_meters":38800,"station_id":"ce4bgs92rcd13ifvqcc0","pricing_plan_id":"cebpf4jnsgd1na2vs0mg"},{"bike_id":"c50f4a7e-fd65-47a3-a2a5-a8742f16687c","system_id":"levelo_inurba_marseille","lat":43.28153,"lon":5.4264,"is_reserved":false,"is_disabled":false,"rental_uris":{"android":"levelo://app?vid=c50f4a7e-fd65-47a3-a2a5-a8742f16687c","ios":"levelo://app?vid=c50f4a7e-fd65-47a3-a2a5-a8742f16687c"},"vehicle_type_id":"4","last_reported":1729066388,"current_range_meters":33200,"station_id":"ce4bhnh2rcd13ifvqgug","pricing_plan_id":"cebpf4jnsgd1na2vs0mg"},{"bike_id":"8e3963b6-8131-4c1e-b4d2-add46d4dfbf9","system_id":"levelo_inurba_marseille","lat":43.30313,"lon":5.36881,"is_reserved":false,"is_disabled":false,"rental_uris":{"android":"levelo://app?vid=8e3963b6-8131-4c1e-b4d2-add46d4dfbf9","ios":"levelo://app?vid=8e3963b6-8131-4c1e-b4d2-add46d4dfbf9"},"vehicle_type_id":"4","last_reported":1729066388,"current_range_meters":19600,"station_id":"ce4bgqh2rcd13ifvqc5g","pricing_plan_id":"cebpf4jnsgd1na2vs0mg"},{"bike_id":"7b15455a-e763-4e2b-9f59-22d120e41322","system_id":"levelo_inurba_marseille","lat":43.23961,"lon":5.36631,"is_reserved":false,"is_disabled":false,"rental_uris":{"android":"levelo://app?vid=7b15455a-e763-4e2b-9f59-22d120e41322","ios":"levelo://app?vid=7b15455a-e763-4e2b-9f59-22d120e41322"},"vehicle_type_id":"4","last_reported":1729066388,"current_range_meters":28400,"station_id":"ce4bhi12rcd13ifvqfp0","pricing_plan_id":"cebpf4jnsgd1na2vs0mg"},{"bike_id":"87440bd7-4730-412f-b52f-03b263c3d6ba","system_id":"levelo_inurba_marseille","lat":43.23187,"lon":5.35546,"is_reserved":false,"is_disabled":false,"rental_uris":{"android":"levelo://app?vid=87440bd7-4730-412f-b52f-03b263c3d6ba","ios":"levelo://app?vid=87440bd7-4730-412f-b52f-03b263c3d6ba"},"vehicle_type_id":"4","last_reported":1729066388,"current_range_meters":25200,"station_id":"ce4bhu92rcd13ifvqi70","pricing_plan_id":"cebpf4jnsgd1na2vs0mg"},{"bike_id":"1e6de057-fb8d-42a3-b0db-217a6b02e10f","system_id":"levelo_inurba_marseille","lat":43.24072,"lon":5.37754,"is_reserved":false,"is_disabled":false,"rental_uris":{"android":"levelo://app?vid=1e6de057-fb8d-42a3-b0db-217a6b02e10f","ios":"levelo://app?vid=1e6de057-fb8d-42a3-b0db-217a6b02e10f"},"vehicle_type_id":"4","last_reported":1729066388,"current_range_meters":27600,"station_id":"ce4bhnp2rcd13ifvqgvg","pricing_plan_id":"cebpf4jnsgd1na2vs0mg"},{"bike_id":"54afc661-f88e-4f34-b692-a02da5dee0ee","system_id":"levelo_inurba_marseille","lat":43.29531,"lon":5.38548,"is_reserved":false,"is_disabled":false,"rental_uris":{"android":"levelo://app?vid=54afc661-f88e-4f34-b692-a02da5dee0ee","ios":"levelo://app?vid=54afc661-f88e-4f34-b692-a02da5dee0ee"},"vehicle_type_id":"4","last_reported":1729066388,"current_range_meters":38800,"station_id":"ce4bgih2rcd13ifvqba0","pricing_plan_id":"cebpf4jnsgd1na2vs0mg"},{"bike_id":"7484c344-debf-4edc-af17-e722b5059f6c","system_id":"levelo_inurba_marseille","lat":43.3374,"lon":5.37482,"is_reserved":false,"is_disabled":false,"rental_uris":{"android":"levelo://app?vid=7484c344-debf-4edc-af17-e722b5059f6c","ios":"levelo://app?vid=7484c344-debf-4edc-af17-e722b5059f6c"},"vehicle_type_id":"4","last_reported":1729066388,"current_range_meters":17200,"station_id":"","pricing_plan_id":"cebpf4jnsgd1na2vs0mg"},{"bike_id":"e1c2108d-eca4-47dd-83a4-ea92f7362f1b","system_id":"levelo_inurba_marseille","lat":43.26785,"lon":5.39412,"is_reserved":false,"is_disabled":false,"rental_uris":{"android":"levelo://app?vid=e1c2108d-eca4-47dd-83a4-ea92f7362f1b","ios":"levelo://app?vid=e1c2108d-eca4-47dd-83a4-ea92f7362f1b"},"vehicle_type_id":"4","last_reported":1729066388,"current_range_meters":4400,"station_id":"ce4bhh12rcd13ifvqfg0","pricing_plan_id":"cebpf4jnsgd1na2vs0mg"},{"bike_id":"39c87495-e919-48df-ad42-0b47d2014833","system_id":"levelo_inurba_marseille","lat":43.23149,"lon":5.43717,"is_reserved":false,"is_disabled":false,"rental_uris":{"android":"levelo://app?vid=39c87495-e919-48df-ad42-0b47d2014833","ios":"levelo://app?vid=39c87495-e919-48df-ad42-0b47d2014833"},"vehicle_type_id":"4","last_reported":1729066388,"current_range_meters":6800,"station_id":"ce4bhmp2rcd13ifvqgog","pricing_plan_id":"cebpf4jnsgd1na2vs0mg"},{"bike_id":"5c124c2c-4d88-4776-a83f-617bca38bb98","system_id":"levelo_inurba_marseille","lat":43.28154,"lon":5.42642,"is_reserved":false,"is_disabled":false,"rental_uris":{"android":"levelo://app?vid=5c124c2c-4d88-4776-a83f-617bca38bb98","ios":"levelo://app?vid=5c124c2c-4d88-4776-a83f-617bca38bb98"},"vehicle_type_id":"4","last_reported":1729066388,"current_range_meters":26000,"station_id":"ce4bhnh2rcd13ifvqgug","pricing_plan_id":"cebpf4jnsgd1na2vs0mg"},{"bike_id":"ff96eee3-1ac8-4888-9ae7-e4b6cc8154af","system_id":"levelo_inurba_marseille","lat":43.33739,"lon":5.3746,"is_reserved":false,"is_disabled":false,"rental_uris":{"android":"levelo://app?vid=ff96eee3-1ac8-4888-9ae7-e4b6cc8154af","ios":"levelo://app?vid=ff96eee3-1ac8-4888-9ae7-e4b6cc8154af"},"vehicle_type_id":"4","last_reported":1729066388,"current_range_meters":30400,"station_id":"","pricing_plan_id":"cebpf4jnsgd1na2vs0mg"},{"bike_id":"ee3f0363-a4d3-4228-a061-2238db8da979","system_id":"levelo_inurba_marseille","lat":43.30134,"lon":5.37422,"is_reserved":false,"is_disabled":false,"rental_uris":{"android":"levelo://app?vid=ee3f0363-a4d3-4228-a061-2238db8da979","ios":"levelo://app?vid=ee3f0363-a4d3-4228-a061-2238db8da979"},"vehicle_type_id":"4","last_reported":1729066388,"current_range_meters":38800,"station_id":"ce4bgs92rcd13ifvqcc0","pricing_plan_id":"cebpf4jnsgd1na2vs0mg"},{"bike_id":"2660b77b-ff75-49ec-bc1a-4cd75e6e8b6e","system_id":"levelo_inurba_marseille","lat":43.25581,"lon":5.38227,"is_reserved":false,"is_disabled":false,"rental_uris":{"android":"levelo://app?vid=2660b77b-ff75-49ec-bc1a-4cd75e6e8b6e","ios":"levelo://app?vid=2660b77b-ff75-49ec-bc1a-4cd75e6e8b6e"},"vehicle_type_id":"4","last_reported":1729066388,"current_range_meters":21600,"station_id":"ce4bhih2rcd13ifvqfs0","pricing_plan_id":"cebpf4jnsgd1na2vs0mg"},{"bike_id":"82a28a08-f010-41a9-98c3-d89df998704a","system_id":"levelo_inurba_marseille","lat":43.304374,"lon":5.379012,"is_reserved":false,"is_disabled":false,"rental_uris":{"android":"levelo://app?vid=82a28a08-f010-41a9-98c3-d89df998704a","ios":"levelo://app?vid=82a28a08-f010-41a9-98c3-d89df998704a"},"vehicle_type_id":"4","last_reported":1729066388,"current_range_meters":26800,"station_id":"ce4bgup2rcd13ifvqcn0","pricing_plan_id":"cebpf4jnsgd1na2vs0mg"},{"bike_id":"2438cadb-7038-4e51-b524-d851312e27ba","system_id":"levelo_inurba_marseille","lat":43.28409,"lon":5.34991,"is_reserved":false,"is_disabled":false,"rental_uris":{"android":"levelo://app?vid=2438cadb-7038-4e51-b524-d851312e27ba","ios":"levelo://app?vid=2438cadb-7038-4e51-b524-d851312e27ba"},"vehicle_type_id":"4","last_reported":1729066388,"current_range_meters":27200,"station_id":"ce4bhbh2rcd13ifvqepg","pricing_plan_id":"cebpf4jnsgd1na2vs0mg"},{"bike_id":"1f5d6817-da92-4702-9da2-1fc138e604d5","system_id":"levelo_inurba_marseille","lat":43.32106,"lon":5.36767,"is_reserved":false,"is_disabled":false,"rental_uris":{"android":"levelo://app?vid=1f5d6817-da92-4702-9da2-1fc138e604d5","ios":"levelo://app?vid=1f5d6817-da92-4702-9da2-1fc138e604d5"},"vehicle_type_id":"4","last_reported":1729066388,"current_range_meters":5600,"station_id":"ce4bhrh2rcd13ifvqhug","pricing_plan_id":"cebpf4jnsgd1na2vs0mg"},{"bike_id":"3cbb7131-f6c7-4b9c-b7c3-a49dca6c9c4c","system_id":"levelo_inurba_marseille","lat":43.27492,"lon":5.42456,"is_reserved":false,"is_disabled":false,"rental_uris":{"android":"levelo://app?vid=3cbb7131-f6c7-4b9c-b7c3-a49dca6c9c4c","ios":"levelo://app?vid=3cbb7131-f6c7-4b9c-b7c3-a49dca6c9c4c"},"vehicle_type_id":"4","last_reported":1729066388,"current_range_meters":34000,"station_id":"ce4bhn92rcd13ifvqgrg","pricing_plan_id":"cebpf4jnsgd1na2vs0mg"},{"bike_id":"28974541-5d54-4fad-a2e8-8ea043d468b3","system_id":"levelo_inurba_marseille","lat":43.25932,"lon":5.40888,"is_reserved":false,"is_disabled":false,"rental_uris":{"android":"levelo://app?vid=28974541-5d54-4fad-a2e8-8ea043d468b3","ios":"levelo://app?vid=28974541-5d54-4fad-a2e8-8ea043d468b3"},"vehicle_type_id":"4","last_reported":1729066388,"current_range_meters":4000,"station_id":"ce4bhm92rcd13ifvqglg","pricing_plan_id":"cebpf4jnsgd1na2vs0mg"},{"bike_id":"79991d3d-436d-404c-880e-51d74dc7bda4","system_id":"levelo_inurba_marseille","lat":43.25579,"lon":5.38236,"is_reserved":false,"is_disabled":false,"rental_uris":{"android":"levelo://app?vid=79991d3d-436d-404c-880e-51d74dc7bda4","ios":"levelo://app?vid=79991d3d-436d-404c-880e-51d74dc7bda4"},"vehicle_type_id":"4","last_reported":1729066388,"current_range_meters":36800,"station_id":"ce4bhih2rcd13ifvqfs0","pricing_plan_id":"cebpf4jnsgd1na2vs0mg"},{"bike_id":"9e6659d1-8d24-49dc-9e74-d333d724a0aa","system_id":"levelo_inurba_marseille","lat":43.24081,"lon":5.37749,"is_reserved":false,"is_disabled":false,"rental_uris":{"android":"levelo://app?vid=9e6659d1-8d24-49dc-9e74-d333d724a0aa","ios":"levelo://app?vid=9e6659d1-8d24-49dc-9e74-d333d724a0aa"},"vehicle_type_id":"4","last_reported":1729066388,"current_range_meters":36000,"station_id":"ce4bhnp2rcd13ifvqgvg","pricing_plan_id":"cebpf4jnsgd1na2vs0mg"},{"bike_id":"1565a517-3798-43a5-acf8-c309c81f391f","system_id":"levelo_inurba_marseille","lat":43.2968,"lon":5.3729,"is_reserved":false,"is_disabled":false,"rental_uris":{"android":"levelo://app?vid=1565a517-3798-43a5-acf8-c309c81f391f","ios":"levelo://app?vid=1565a517-3798-43a5-acf8-c309c81f391f"},"vehicle_type_id":"4","last_reported":1729066388,"current_range_meters":18000,"station_id":"ce4bgk12rcd13ifvqbj0","pricing_plan_id":"cebpf4jnsgd1na2vs0mg"},{"bike_id":"292b9425-1372-40d4-bf0a-fe57aa779a41","system_id":"levelo_inurba_marseille","lat":43.23061,"lon":5.35499,"is_reserved":false,"is_disabled":false,"rental_uris":{"android":"levelo://app?vid=292b9425-1372-40d4-bf0a-fe57aa779a41","ios":"levelo://app?vid=292b9425-1372-40d4-bf0a-fe57aa779a41"},"vehicle_type_id":"4","last_reported":1729066388,"current_range_meters":28800,"station_id":"cpo3342slgdg3j2ifvpg","pricing_plan_id":"cebpf4jnsgd1na2vs0mg"},{"bike_id":"19b3f798-8263-4b56-9985-37c27bf34164","system_id":"levelo_inurba_marseille","lat":43.28717,"lon":5.37937,"is_reserved":false,"is_disabled":false,"rental_uris":{"android":"levelo://app?vid=19b3f798-8263-4b56-9985-37c27bf34164","ios":"levelo://app?vid=19b3f798-8263-4b56-9985-37c27bf34164"},"vehicle_type_id":"4","last_reported":1729066388,"current_range_meters":34800,"station_id":"ce4bh9p2rcd13ifvqec0","pricing_plan_id":"cebpf4jnsgd1na2vs0mg"},{"bike_id":"60c7ceff-fef3-4380-98cf-0ac594b84256","system_id":"levelo_inurba_marseille","lat":43.28711,"lon":5.37947,"is_reserved":false,"is_disabled":false,"rental_uris":{"android":"levelo://app?vid=60c7ceff-fef3-4380-98cf-0ac594b84256","ios":"levelo://app?vid=60c7ceff-fef3-4380-98cf-0ac594b84256"},"vehicle_type_id":"4","last_reported":1729066388,"current_range_meters":37600,"station_id":"ce4bh9p2rcd13ifvqec0","pricing_plan_id":"cebpf4jnsgd1na2vs0mg"},{"bike_id":"01434dea-0b83-4389-ada1-470bc5b093fd","system_id":"levelo_inurba_marseille","lat":43.28402,"lon":5.37519,"is_reserved":false,"is_disabled":false,"rental_uris":{"android":"levelo://app?vid=01434dea-0b83-4389-ada1-470bc5b093fd","ios":"levelo://app?vid=01434dea-0b83-4389-ada1-470bc5b093fd"},"vehicle_type_id":"4","last_reported":1729066388,"current_range_meters":20400,"station_id":"ce4bh412rcd13ifvqds0","pricing_plan_id":"cebpf4jnsgd1na2vs0mg"},{"bike_id":"0bb4f9ea-2856-4277-971e-82da714189f8","system_id":"levelo_inurba_marseille","lat":43.25502,"lon":5.37653,"is_reserved":false,"is_disabled":false,"rental_uris":{"android":"levelo://app?vid=0bb4f9ea-2856-4277-971e-82da714189f8","ios":"levelo://app?vid=0bb4f9ea-2856-4277-971e-82da714189f8"},"vehicle_type_id":"4","last_reported":1729066388,"current_range_meters":30800,"station_id":"ce4bhh12rcd13ifvqff0","pricing_plan_id":"cebpf4jnsgd1na2vs0mg"},{"bike_id":"0ae3669b-fdd5-4fc4-8508-a0c346916e02","system_id":"levelo_inurba_marseille","lat":43.28078,"lon":5.39647,"is_reserved":false,"is_disabled":false,"rental_uris":{"android":"levelo://app?vid=0ae3669b-fdd5-4fc4-8508-a0c346916e02","ios":"levelo://app?vid=0ae3669b-fdd5-4fc4-8508-a0c346916e02"},"vehicle_type_id":"4","last_reported":1729066388,"current_range_meters":28800,"station_id":"ce4bho12rcd13ifvqh2g","pricing_plan_id":"cebpf4jnsgd1na2vs0mg"},{"bike_id":"01ef0133-e3ea-4e84-b5ca-fc0751766d90","system_id":"levelo_inurba_marseille","lat":43.30137,"lon":5.37413,"is_reserved":false,"is_disabled":false,"rental_uris":{"android":"levelo://app?vid=01ef0133-e3ea-4e84-b5ca-fc0751766d90","ios":"levelo://app?vid=01ef0133-e3ea-4e84-b5ca-fc0751766d90"},"vehicle_type_id":"4","last_reported":1729066388,"current_range_meters":22800,"station_id":"ce4bgs92rcd13ifvqcc0","pricing_plan_id":"cebpf4jnsgd1na2vs0mg"},{"bike_id":"82078470-059d-4607-a8bf-3e6046b84400","system_id":"levelo_inurba_marseille","lat":43.2407,"lon":5.37754,"is_reserved":false,"is_disabled":false,"rental_uris":{"android":"levelo://app?vid=82078470-059d-4607-a8bf-3e6046b84400","ios":"levelo://app?vid=82078470-059d-4607-a8bf-3e6046b84400"},"vehicle_type_id":"4","last_reported":1729066388,"current_range_meters":10000,"station_id":"ce4bhnp2rcd13ifvqgvg","pricing_plan_id":"cebpf4jnsgd1na2vs0mg"},{"bike_id":"8e1d4e0d-5507-46d6-90b0-3fb646d87956","system_id":"levelo_inurba_marseille","lat":43.33598,"lon":5.41016,"is_reserved":false,"is_disabled":false,"rental_uris":{"android":"levelo://app?vid=8e1d4e0d-5507-46d6-90b0-3fb646d87956","ios":"levelo://app?vid=8e1d4e0d-5507-46d6-90b0-3fb646d87956"},"vehicle_type_id":"4","last_reported":1729066388,"current_range_meters":29600,"station_id":"ce4bhqh2rcd13ifvqhmg","pricing_plan_id":"cebpf4jnsgd1na2vs0mg"},{"bike_id":"9a0d6f42-da53-4b94-8fe0-1a8e12c86a24","system_id":"levelo_inurba_marseille","lat":43.29931,"lon":5.36543,"is_reserved":false,"is_disabled":false,"rental_uris":{"android":"levelo://app?vid=9a0d6f42-da53-4b94-8fe0-1a8e12c86a24","ios":"levelo://app?vid=9a0d6f42-da53-4b94-8fe0-1a8e12c86a24"},"vehicle_type_id":"4","last_reported":1729066388,"current_range_meters":34800,"station_id":"ce4bgm92rcd13ifvqbr0","pricing_plan_id":"cebpf4jnsgd1na2vs0mg"},{"bike_id":"2c599fa1-afbf-4bb5-b418-b37f52a8d4b3","system_id":"levelo_inurba_marseille","lat":43.29843,"lon":5.36277,"is_reserved":false,"is_disabled":false,"rental_uris":{"android":"levelo://app?vid=2c599fa1-afbf-4bb5-b418-b37f52a8d4b3","ios":"levelo://app?vid=2c599fa1-afbf-4bb5-b418-b37f52a8d4b3"},"vehicle_type_id":"4","last_reported":1729066388,"current_range_meters":24800,"station_id":"ce4bgpp2rcd13ifvqc3g","pricing_plan_id":"cebpf4jnsgd1na2vs0mg"},{"bike_id":"c16b2465-23b0-4e05-a23b-1a81c701df3b","system_id":"levelo_inurba_marseille","lat":43.29557,"lon":5.42284,"is_reserved":false,"is_disabled":false,"rental_uris":{"android":"levelo://app?vid=c16b2465-23b0-4e05-a23b-1a81c701df3b","ios":"levelo://app?vid=c16b2465-23b0-4e05-a23b-1a81c701df3b"},"vehicle_type_id":"4","last_reported":1729066388,"current_range_meters":39200,"station_id":"ce4bhph2rcd13ifvqhdg","pricing_plan_id":"cebpf4jnsgd1na2vs0mg"},{"bike_id":"f38f516d-a139-43ac-9e6e-6a1c36b68c1f","system_id":"levelo_inurba_marseille","lat":43.26678,"lon":5.38259,"is_reserved":false,"is_disabled":false,"rental_uris":{"android":"levelo://app?vid=f38f516d-a139-43ac-9e6e-6a1c36b68c1f","ios":"levelo://app?vid=f38f516d-a139-43ac-9e6e-6a1c36b68c1f"},"vehicle_type_id":"4","last_reported":1729066388,"current_range_meters":39200,"station_id":"ce4bhg92rcd13ifvqf90","pricing_plan_id":"cebpf4jnsgd1na2vs0mg"},{"bike_id":"0f984506-e641-46f1-860f-e2fe74c9fea4","system_id":"levelo_inurba_marseille","lat":43.24176,"lon":5.39728,"is_reserved":false,"is_disabled":false,"rental_uris":{"android":"levelo://app?vid=0f984506-e641-46f1-860f-e2fe74c9fea4","ios":"levelo://app?vid=0f984506-e641-46f1-860f-e2fe74c9fea4"},"vehicle_type_id":"4","last_reported":1729066388,"current_range_meters":25600,"station_id":"ce4bhn12rcd13ifvqgpg","pricing_plan_id":"cebpf4jnsgd1na2vs0mg"},{"bike_id":"d521e6f5-420f-4d2e-8244-ce135253644b","system_id":"levelo_inurba_marseille","lat":43.3028,"lon":5.37708,"is_reserved":false,"is_disabled":false,"rental_uris":{"android":"levelo://app?vid=d521e6f5-420f-4d2e-8244-ce135253644b","ios":"levelo://app?vid=d521e6f5-420f-4d2e-8244-ce135253644b"},"vehicle_type_id":"4","last_reported":1729066388,"current_range_meters":38800,"station_id":"ce4bguh2rcd13ifvqcj0","pricing_plan_id":"cebpf4jnsgd1na2vs0mg"},{"bike_id":"1be0f246-cd10-4d19-824e-5bf5b27c9c44","system_id":"levelo_inurba_marseille","lat":43.305363,"lon":5.365465,"is_reserved":false,"is_disabled":false,"rental_uris":{"android":"levelo://app?vid=1be0f246-cd10-4d19-824e-5bf5b27c9c44","ios":"levelo://app?vid=1be0f246-cd10-4d19-824e-5bf5b27c9c44"},"vehicle_type_id":"4","last_reported":1729066388,"current_range_meters":38800,"station_id":"ce4bgs12rcd13ifvqcag","pricing_plan_id":"cebpf4jnsgd1na2vs0mg"},{"bike_id":"18fae231-f0eb-45db-9d60-2e85a3e71119","system_id":"levelo_inurba_marseille","lat":43.23183,"lon":5.39975,"is_reserved":false,"is_disabled":false,"rental_uris":{"android":"levelo://app?vid=18fae231-f0eb-45db-9d60-2e85a3e71119","ios":"levelo://app?vid=18fae231-f0eb-45db-9d60-2e85a3e71119"},"vehicle_type_id":"4","last_reported":1729066388,"current_range_meters":39200,"station_id":"ce4bhn12rcd13ifvqgqg","pricing_plan_id":"cebpf4jnsgd1na2vs0mg"},{"bike_id":"c94227f0-79ee-4ab7-a64d-5c536d975b76","system_id":"levelo_inurba_marseille","lat":43.29523,"lon":5.38547,"is_reserved":false,"is_disabled":false,"rental_uris":{"android":"levelo://app?vid=c94227f0-79ee-4ab7-a64d-5c536d975b76","ios":"levelo://app?vid=c94227f0-79ee-4ab7-a64d-5c536d975b76"},"vehicle_type_id":"4","last_reported":1729066388,"current_range_meters":33600,"station_id":"ce4bgih2rcd13ifvqba0","pricing_plan_id":"cebpf4jnsgd1na2vs0mg"},{"bike_id":"c8a841eb-81f4-4a52-8b20-21dc0a011670","system_id":"levelo_inurba_marseille","lat":43.2315,"lon":5.43718,"is_reserved":false,"is_disabled":false,"rental_uris":{"android":"levelo://app?vid=c8a841eb-81f4-4a52-8b20-21dc0a011670","ios":"levelo://app?vid=c8a841eb-81f4-4a52-8b20-21dc0a011670"},"vehicle_type_id":"4","last_reported":1729066388,"current_range_meters":12800,"station_id":"ce4bhmp2rcd13ifvqgog","pricing_plan_id":"cebpf4jnsgd1na2vs0mg"},{"bike_id":"a9d80141-cb04-4f88-bcc5-9763572e3517","system_id":"levelo_inurba_marseille","lat":43.23192,"lon":5.35545,"is_reserved":false,"is_disabled":false,"rental_uris":{"android":"levelo://app?vid=a9d80141-cb04-4f88-bcc5-9763572e3517","ios":"levelo://app?vid=a9d80141-cb04-4f88-bcc5-9763572e3517"},"vehicle_type_id":"4","last_reported":1729066388,"current_range_meters":38000,"station_id":"ce4bhu92rcd13ifvqi70","pricing_plan_id":"cebpf4jnsgd1na2vs0mg"},{"bike_id":"d06f24f3-1961-4c39-8b26-c72733863fe9","system_id":"levelo_inurba_marseille","lat":43.33781,"lon":5.37443,"is_reserved":false,"is_disabled":false,"rental_uris":{"android":"levelo://app?vid=d06f24f3-1961-4c39-8b26-c72733863fe9","ios":"levelo://app?vid=d06f24f3-1961-4c39-8b26-c72733863fe9"},"vehicle_type_id":"4","last_reported":1729066388,"current_range_meters":20800,"station_id":"","pricing_plan_id":"cebpf4jnsgd1na2vs0mg"},{"bike_id":"2a582e9c-e7dd-4a75-8534-911fde5eba73","system_id":"levelo_inurba_marseille","lat":43.25583,"lon":5.38227,"is_reserved":false,"is_disabled":false,"rental_uris":{"android":"levelo://app?vid=2a582e9c-e7dd-4a75-8534-911fde5eba73","ios":"levelo://app?vid=2a582e9c-e7dd-4a75-8534-911fde5eba73"},"vehicle_type_id":"4","last_reported":1729066388,"current_range_meters":31200,"station_id":"ce4bhih2rcd13ifvqfs0","pricing_plan_id":"cebpf4jnsgd1na2vs0mg"},{"bike_id":"6d3ae6c3-2c76-48df-8f7f-d47cbed9d200","system_id":"levelo_inurba_marseille","lat":43.27995,"lon":5.41663,"is_reserved":false,"is_disabled":false,"rental_uris":{"android":"levelo://app?vid=6d3ae6c3-2c76-48df-8f7f-d47cbed9d200","ios":"levelo://app?vid=6d3ae6c3-2c76-48df-8f7f-d47cbed9d200"},"vehicle_type_id":"4","last_reported":1729066388,"current_range_meters":35200,"station_id":"ce4bho12rcd13ifvqh1g","pricing_plan_id":"cebpf4jnsgd1na2vs0mg"},{"bike_id":"78e6d629-0d6a-4328-976e-5e2764cfd40c","system_id":"levelo_inurba_marseille","lat":43.3046,"lon":5.37894,"is_reserved":false,"is_disabled":false,"rental_uris":{"android":"levelo://app?vid=78e6d629-0d6a-4328-976e-5e2764cfd40c","ios":"levelo://app?vid=78e6d629-0d6a-4328-976e-5e2764cfd40c"},"vehicle_type_id":"4","last_reported":1729066388,"current_range_meters":29600,"station_id":"ce4bgup2rcd13ifvqcn0","pricing_plan_id":"cebpf4jnsgd1na2vs0mg"},{"bike_id":"d3c87ae6-422d-455b-8797-f7d19d0cd4f9","system_id":"levelo_inurba_marseille","lat":43.24648,"lon":5.38896,"is_reserved":false,"is_disabled":false,"rental_uris":{"android":"levelo://app?vid=d3c87ae6-422d-455b-8797-f7d19d0cd4f9","ios":"levelo://app?vid=d3c87ae6-422d-455b-8797-f7d19d0cd4f9"},"vehicle_type_id":"4","last_reported":1729066388,"current_range_meters":38800,"station_id":"ce4bhg12rcd13ifvqf60","pricing_plan_id":"cebpf4jnsgd1na2vs0mg"},{"bike_id":"bc0b85b4-91fa-4818-9d30-52f9c599b288","system_id":"levelo_inurba_marseille","lat":43.27489,"lon":5.42454,"is_reserved":false,"is_disabled":false,"rental_uris":{"android":"levelo://app?vid=bc0b85b4-91fa-4818-9d30-52f9c599b288","ios":"levelo://app?vid=bc0b85b4-91fa-4818-9d30-52f9c599b288"},"vehicle_type_id":"4","last_reported":1729066388,"current_range_meters":6800,"station_id":"ce4bhn92rcd13ifvqgrg","pricing_plan_id":"cebpf4jnsgd1na2vs0mg"},{"bike_id":"2c95c8aa-0d0b-4887-918f-662366437634","system_id":"levelo_inurba_marseille","lat":43.30966,"lon":5.39027,"is_reserved":false,"is_disabled":false,"rental_uris":{"android":"levelo://app?vid=2c95c8aa-0d0b-4887-918f-662366437634","ios":"levelo://app?vid=2c95c8aa-0d0b-4887-918f-662366437634"},"vehicle_type_id":"4","last_reported":1729066388,"current_range_meters":33600,"station_id":"ce4bgup2rcd13ifvqco0","pricing_plan_id":"cebpf4jnsgd1na2vs0mg"},{"bike_id":"6fc5148b-4d4d-43dd-b11a-30ae34c609be","system_id":"levelo_inurba_marseille","lat":43.2984,"lon":5.36278,"is_reserved":false,"is_disabled":false,"rental_uris":{"android":"levelo://app?vid=6fc5148b-4d4d-43dd-b11a-30ae34c609be","ios":"levelo://app?vid=6fc5148b-4d4d-43dd-b11a-30ae34c609be"},"vehicle_type_id":"4","last_reported":1729066388,"current_range_meters":17200,"station_id":"ce4bgpp2rcd13ifvqc3g","pricing_plan_id":"cebpf4jnsgd1na2vs0mg"},{"bike_id":"d41309ab-1a1f-4395-acaa-455483c3f8e1","system_id":"levelo_inurba_marseille","lat":43.23193,"lon":5.35557,"is_reserved":false,"is_disabled":false,"rental_uris":{"android":"levelo://app?vid=d41309ab-1a1f-4395-acaa-455483c3f8e1","ios":"levelo://app?vid=d41309ab-1a1f-4395-acaa-455483c3f8e1"},"vehicle_type_id":"4","last_reported":1729066388,"current_range_meters":28400,"station_id":"ce4bhu92rcd13ifvqi70","pricing_plan_id":"cebpf4jnsgd1na2vs0mg"},{"bike_id":"3b109c53-fa9a-4586-92ab-f7ae5cd658c5","system_id":"levelo_inurba_marseille","lat":43.3054,"lon":5.3653,"is_reserved":false,"is_disabled":false,"rental_uris":{"android":"levelo://app?vid=3b109c53-fa9a-4586-92ab-f7ae5cd658c5","ios":"levelo://app?vid=3b109c53-fa9a-4586-92ab-f7ae5cd658c5"},"vehicle_type_id":"4","last_reported":1729066388,"current_range_meters":38800,"station_id":"ce4bgs12rcd13ifvqcag","pricing_plan_id":"cebpf4jnsgd1na2vs0mg"},{"bike_id":"570e64c6-5df4-4ddb-87ac-e59cf9cc9367","system_id":"levelo_inurba_marseille","lat":43.33602,"lon":5.41024,"is_reserved":false,"is_disabled":false,"rental_uris":{"android":"levelo://app?vid=570e64c6-5df4-4ddb-87ac-e59cf9cc9367","ios":"levelo://app?vid=570e64c6-5df4-4ddb-87ac-e59cf9cc9367"},"vehicle_type_id":"4","last_reported":1729066388,"current_range_meters":32800,"station_id":"ce4bhqh2rcd13ifvqhmg","pricing_plan_id":"cebpf4jnsgd1na2vs0mg"},{"bike_id":"199a4da1-aac0-4426-942b-3be3b975f2ca","system_id":"levelo_inurba_marseille","lat":43.31365,"lon":5.36711,"is_reserved":false,"is_disabled":false,"rental_uris":{"android":"levelo://app?vid=199a4da1-aac0-4426-942b-3be3b975f2ca","ios":"levelo://app?vid=199a4da1-aac0-4426-942b-3be3b975f2ca"},"vehicle_type_id":"4","last_reported":1729066388,"current_range_meters":26800,"station_id":"ce4bgr92rcd13ifvqc6g","pricing_plan_id":"cebpf4jnsgd1na2vs0mg"},{"bike_id":"94902fb1-a766-4d90-8978-e732725ca583","system_id":"levelo_inurba_marseille","lat":43.23183,"lon":5.39982,"is_reserved":false,"is_disabled":false,"rental_uris":{"android":"levelo://app?vid=94902fb1-a766-4d90-8978-e732725ca583","ios":"levelo://app?vid=94902fb1-a766-4d90-8978-e732725ca583"},"vehicle_type_id":"4","last_reported":1729066388,"current_range_meters":39200,"station_id":"ce4bhn12rcd13ifvqgqg","pricing_plan_id":"cebpf4jnsgd1na2vs0mg"},{"bike_id":"150af00c-9b49-4909-bfb2-9a965e993c9e","system_id":"levelo_inurba_marseille","lat":43.31216,"lon":5.368568,"is_reserved":false,"is_disabled":false,"rental_uris":{"android":"levelo://app?vid=150af00c-9b49-4909-bfb2-9a965e993c9e","ios":"levelo://app?vid=150af00c-9b49-4909-bfb2-9a965e993c9e"},"vehicle_type_id":"4","last_reported":1729066388,"current_range_meters":12000,"station_id":"","pricing_plan_id":"cebpf4jnsgd1na2vs0mg"},{"bike_id":"b3581752-b046-4ddf-abd7-7802a26b818e","system_id":"levelo_inurba_marseille","lat":43.30276,"lon":5.37702,"is_reserved":false,"is_disabled":false,"rental_uris":{"android":"levelo://app?vid=b3581752-b046-4ddf-abd7-7802a26b818e","ios":"levelo://app?vid=b3581752-b046-4ddf-abd7-7802a26b818e"},"vehicle_type_id":"4","last_reported":1729066388,"current_range_meters":38800,"station_id":"ce4bguh2rcd13ifvqcj0","pricing_plan_id":"cebpf4jnsgd1na2vs0mg"},{"bike_id":"2d1c6d5b-c4b5-4047-a4c8-bf89bc26ba09","system_id":"levelo_inurba_marseille","lat":43.26933,"lon":5.38922,"is_reserved":false,"is_disabled":false,"rental_uris":{"android":"levelo://app?vid=2d1c6d5b-c4b5-4047-a4c8-bf89bc26ba09","ios":"levelo://app?vid=2d1c6d5b-c4b5-4047-a4c8-bf89bc26ba09"},"vehicle_type_id":"4","last_reported":1729066388,"current_range_meters":25200,"station_id":"ce4bhhh2rcd13ifvqfl0","pricing_plan_id":"cebpf4jnsgd1na2vs0mg"},{"bike_id":"67fa7e22-cd16-4fd2-acee-985f171227de","system_id":"levelo_inurba_marseille","lat":43.2899,"lon":5.39899,"is_reserved":false,"is_disabled":false,"rental_uris":{"android":"levelo://app?vid=67fa7e22-cd16-4fd2-acee-985f171227de","ios":"levelo://app?vid=67fa7e22-cd16-4fd2-acee-985f171227de"},"vehicle_type_id":"4","last_reported":1729066388,"current_range_meters":32400,"station_id":"ce4bh512rcd13ifvqe3g","pricing_plan_id":"cebpf4jnsgd1na2vs0mg"},{"bike_id":"6cdd2798-5db4-4f9a-a892-f16babf9ec5c","system_id":"levelo_inurba_marseille","lat":43.31342,"lon":5.36721,"is_reserved":false,"is_disabled":false,"rental_uris":{"android":"levelo://app?vid=6cdd2798-5db4-4f9a-a892-f16babf9ec5c","ios":"levelo://app?vid=6cdd2798-5db4-4f9a-a892-f16babf9ec5c"},"vehicle_type_id":"4","last_reported":1729066388,"current_range_meters":35200,"station_id":"ce4bgr92rcd13ifvqc6g","pricing_plan_id":"cebpf4jnsgd1na2vs0mg"},{"bike_id":"0cac5042-2075-4b66-8658-3a0f53449b77","system_id":"levelo_inurba_marseille","lat":43.30135,"lon":5.37415,"is_reserved":false,"is_disabled":false,"rental_uris":{"android":"levelo://app?vid=0cac5042-2075-4b66-8658-3a0f53449b77","ios":"levelo://app?vid=0cac5042-2075-4b66-8658-3a0f53449b77"},"vehicle_type_id":"4","last_reported":1729066388,"current_range_meters":32400,"station_id":"ce4bgs92rcd13ifvqcc0","pricing_plan_id":"cebpf4jnsgd1na2vs0mg"},{"bike_id":"eaa961e6-8342-4f30-8941-36ae2c9be4b7","system_id":"levelo_inurba_marseille","lat":43.24073,"lon":5.37763,"is_reserved":false,"is_disabled":false,"rental_uris":{"android":"levelo://app?vid=eaa961e6-8342-4f30-8941-36ae2c9be4b7","ios":"levelo://app?vid=eaa961e6-8342-4f30-8941-36ae2c9be4b7"},"vehicle_type_id":"4","last_reported":1729066388,"current_range_meters":18800,"station_id":"ce4bhnp2rcd13ifvqgvg","pricing_plan_id":"cebpf4jnsgd1na2vs0mg"},{"bike_id":"1af2813b-98a0-4b62-aaf8-89652b30f639","system_id":"levelo_inurba_marseille","lat":43.229338,"lon":5.353761,"is_reserved":false,"is_disabled":false,"rental_uris":{"android":"levelo://app?vid=1af2813b-98a0-4b62-aaf8-89652b30f639","ios":"levelo://app?vid=1af2813b-98a0-4b62-aaf8-89652b30f639"},"vehicle_type_id":"4","last_reported":1729066388,"current_range_meters":26000,"station_id":"cpo3532slgdg3j2ikp40","pricing_plan_id":"cebpf4jnsgd1na2vs0mg"},{"bike_id":"f0775155-8e74-4793-ad80-18d6219a0200","system_id":"levelo_inurba_marseille","lat":43.29314,"lon":5.3856,"is_reserved":false,"is_disabled":false,"rental_uris":{"android":"levelo://app?vid=f0775155-8e74-4793-ad80-18d6219a0200","ios":"levelo://app?vid=f0775155-8e74-4793-ad80-18d6219a0200"},"vehicle_type_id":"4","last_reported":1729066388,"current_range_meters":14800,"station_id":"ce4bh2h2rcd13ifvqdh0","pricing_plan_id":"cebpf4jnsgd1na2vs0mg"},{"bike_id":"84174d05-f1c2-4715-a7e8-2107d40aa5ac","system_id":"levelo_inurba_marseille","lat":43.27073,"lon":5.42275,"is_reserved":false,"is_disabled":false,"rental_uris":{"android":"levelo://app?vid=84174d05-f1c2-4715-a7e8-2107d40aa5ac","ios":"levelo://app?vid=84174d05-f1c2-4715-a7e8-2107d40aa5ac"},"vehicle_type_id":"4","last_reported":1729066388,"current_range_meters":19200,"station_id":"ce4bhk92rcd13ifvqgb0","pricing_plan_id":"cebpf4jnsgd1na2vs0mg"},{"bike_id":"96a448d5-0359-4abc-b840-7481f0fbbae4","system_id":"levelo_inurba_marseille","lat":43.24078,"lon":5.37747,"is_reserved":false,"is_disabled":false,"rental_uris":{"android":"levelo://app?vid=96a448d5-0359-4abc-b840-7481f0fbbae4","ios":"levelo://app?vid=96a448d5-0359-4abc-b840-7481f0fbbae4"},"vehicle_type_id":"4","last_reported":1729066388,"current_range_meters":38800,"station_id":"ce4bhnp2rcd13ifvqgvg","pricing_plan_id":"cebpf4jnsgd1na2vs0mg"},{"bike_id":"f93454e1-a669-4c63-a4ca-b572042c7971","system_id":"levelo_inurba_marseille","lat":43.2319,"lon":5.35552,"is_reserved":false,"is_disabled":false,"rental_uris":{"android":"levelo://app?vid=f93454e1-a669-4c63-a4ca-b572042c7971","ios":"levelo://app?vid=f93454e1-a669-4c63-a4ca-b572042c7971"},"vehicle_type_id":"4","last_reported":1729066388,"current_range_meters":20800,"station_id":"ce4bhu92rcd13ifvqi70","pricing_plan_id":"cebpf4jnsgd1na2vs0mg"},{"bike_id":"bedf8134-ed73-411d-84d7-5b5a35f31cf3","system_id":"levelo_inurba_marseille","lat":43.22933,"lon":5.35383,"is_reserved":false,"is_disabled":false,"rental_uris":{"android":"levelo://app?vid=bedf8134-ed73-411d-84d7-5b5a35f31cf3","ios":"levelo://app?vid=bedf8134-ed73-411d-84d7-5b5a35f31cf3"},"vehicle_type_id":"4","last_reported":1729066388,"current_range_meters":2000,"station_id":"cpo3532slgdg3j2ikp40","pricing_plan_id":"cebpf4jnsgd1na2vs0mg"},{"bike_id":"87d57219-be51-4968-bbab-c707372c87fa","system_id":"levelo_inurba_marseille","lat":43.31353,"lon":5.36715,"is_reserved":false,"is_disabled":false,"rental_uris":{"android":"levelo://app?vid=87d57219-be51-4968-bbab-c707372c87fa","ios":"levelo://app?vid=87d57219-be51-4968-bbab-c707372c87fa"},"vehicle_type_id":"4","last_reported":1729066388,"current_range_meters":38800,"station_id":"ce4bgr92rcd13ifvqc6g","pricing_plan_id":"cebpf4jnsgd1na2vs0mg"},{"bike_id":"1c502870-085a-42ea-89c8-9419bbbf5094","system_id":"levelo_inurba_marseille","lat":43.24074,"lon":5.37756,"is_reserved":false,"is_disabled":false,"rental_uris":{"android":"levelo://app?vid=1c502870-085a-42ea-89c8-9419bbbf5094","ios":"levelo://app?vid=1c502870-085a-42ea-89c8-9419bbbf5094"},"vehicle_type_id":"4","last_reported":1729066388,"current_range_meters":20800,"station_id":"ce4bhnp2rcd13ifvqgvg","pricing_plan_id":"cebpf4jnsgd1na2vs0mg"},{"bike_id":"695af1a8-1e2a-4a45-b781-e6b1fa4e2b6d","system_id":"levelo_inurba_marseille","lat":43.3091,"lon":5.36855,"is_reserved":false,"is_disabled":false,"rental_uris":{"android":"levelo://app?vid=695af1a8-1e2a-4a45-b781-e6b1fa4e2b6d","ios":"levelo://app?vid=695af1a8-1e2a-4a45-b781-e6b1fa4e2b6d"},"vehicle_type_id":"4","last_reported":1729066388,"current_range_meters":32000,"station_id":"ce4bgn92rcd13ifvqbvg","pricing_plan_id":"cebpf4jnsgd1na2vs0mg"},{"bike_id":"42297a5a-bc6a-48ec-a36e-6c5f7f1fbad7","system_id":"levelo_inurba_marseille","lat":43.24079,"lon":5.37748,"is_reserved":false,"is_disabled":false,"rental_uris":{"android":"levelo://app?vid=42297a5a-bc6a-48ec-a36e-6c5f7f1fbad7","ios":"levelo://app?vid=42297a5a-bc6a-48ec-a36e-6c5f7f1fbad7"},"vehicle_type_id":"4","last_reported":1729066388,"current_range_meters":26000,"station_id":"ce4bhnp2rcd13ifvqgvg","pricing_plan_id":"cebpf4jnsgd1na2vs0mg"},{"bike_id":"14a071f3-9d94-4657-b2d5-5a6d6b06a8b5","system_id":"levelo_inurba_marseille","lat":43.29114,"lon":5.36929,"is_reserved":false,"is_disabled":false,"rental_uris":{"android":"levelo://app?vid=14a071f3-9d94-4657-b2d5-5a6d6b06a8b5","ios":"levelo://app?vid=14a071f3-9d94-4657-b2d5-5a6d6b06a8b5"},"vehicle_type_id":"4","last_reported":1729066388,"current_range_meters":38000,"station_id":"ce4bhc92rcd13ifvqetg","pricing_plan_id":"cebpf4jnsgd1na2vs0mg"},{"bike_id":"72562085-8eb9-4bad-8527-728fcde9650c","system_id":"levelo_inurba_marseille","lat":43.30908,"lon":5.36845,"is_reserved":false,"is_disabled":false,"rental_uris":{"android":"levelo://app?vid=72562085-8eb9-4bad-8527-728fcde9650c","ios":"levelo://app?vid=72562085-8eb9-4bad-8527-728fcde9650c"},"vehicle_type_id":"4","last_reported":1729066388,"current_range_meters":20800,"station_id":"ce4bgn92rcd13ifvqbvg","pricing_plan_id":"cebpf4jnsgd1na2vs0mg"},{"bike_id":"172d1eb7-31aa-4d45-9c79-93e9ed1f0f50","system_id":"levelo_inurba_marseille","lat":43.30904,"lon":5.36851,"is_reserved":false,"is_disabled":false,"rental_uris":{"android":"levelo://app?vid=172d1eb7-31aa-4d45-9c79-93e9ed1f0f50","ios":"levelo://app?vid=172d1eb7-31aa-4d45-9c79-93e9ed1f0f50"},"vehicle_type_id":"4","last_reported":1729066388,"current_range_meters":38800,"station_id":"ce4bgn92rcd13ifvqbvg","pricing_plan_id":"cebpf4jnsgd1na2vs0mg"},{"bike_id":"ff3810dd-0d93-40ac-901f-104bf77ca7ca","system_id":"levelo_inurba_marseille","lat":43.27995,"lon":5.4166,"is_reserved":false,"is_disabled":false,"rental_uris":{"android":"levelo://app?vid=ff3810dd-0d93-40ac-901f-104bf77ca7ca","ios":"levelo://app?vid=ff3810dd-0d93-40ac-901f-104bf77ca7ca"},"vehicle_type_id":"4","last_reported":1729066388,"current_range_meters":31200,"station_id":"ce4bho12rcd13ifvqh1g","pricing_plan_id":"cebpf4jnsgd1na2vs0mg"},{"bike_id":"f8f8b714-6cf1-4d58-83f7-45ea9d641137","system_id":"levelo_inurba_marseille","lat":43.24074,"lon":5.37755,"is_reserved":false,"is_disabled":false,"rental_uris":{"android":"levelo://app?vid=f8f8b714-6cf1-4d58-83f7-45ea9d641137","ios":"levelo://app?vid=f8f8b714-6cf1-4d58-83f7-45ea9d641137"},"vehicle_type_id":"4","last_reported":1729066388,"current_range_meters":23200,"station_id":"ce4bhnp2rcd13ifvqgvg","pricing_plan_id":"cebpf4jnsgd1na2vs0mg"},{"bike_id":"575c61a8-0bd3-4111-8f91-6858f637b413","system_id":"levelo_inurba_marseille","lat":43.29898,"lon":5.4366,"is_reserved":false,"is_disabled":false,"rental_uris":{"android":"levelo://app?vid=575c61a8-0bd3-4111-8f91-6858f637b413","ios":"levelo://app?vid=575c61a8-0bd3-4111-8f91-6858f637b413"},"vehicle_type_id":"4","last_reported":1729066388,"current_range_meters":37600,"station_id":"ce4bhpp2rcd13ifvqhfg","pricing_plan_id":"cebpf4jnsgd1na2vs0mg"},{"bike_id":"7f12a321-2092-474b-a713-a719b1f048f4","system_id":"levelo_inurba_marseille","lat":43.30752,"lon":5.38721,"is_reserved":false,"is_disabled":false,"rental_uris":{"android":"levelo://app?vid=7f12a321-2092-474b-a713-a719b1f048f4","ios":"levelo://app?vid=7f12a321-2092-474b-a713-a719b1f048f4"},"vehicle_type_id":"4","last_reported":1729066388,"current_range_meters":18800,"station_id":"ce4bgup2rcd13ifvqco0","pricing_plan_id":"cebpf4jnsgd1na2vs0mg"},{"bike_id":"52ac99c9-429c-4173-8c91-438318005830","system_id":"levelo_inurba_marseille","lat":43.24995,"lon":5.38936,"is_reserved":false,"is_disabled":false,"rental_uris":{"android":"levelo://app?vid=52ac99c9-429c-4173-8c91-438318005830","ios":"levelo://app?vid=52ac99c9-429c-4173-8c91-438318005830"},"vehicle_type_id":"4","last_reported":1729066388,"current_range_meters":31200,"station_id":"ce4bhgp2rcd13ifvqfd0","pricing_plan_id":"cebpf4jnsgd1na2vs0mg"},{"bike_id":"d2a56bb4-edbb-4b2f-83e1-9aa5e5e85b88","system_id":"levelo_inurba_marseille","lat":43.30134,"lon":5.37414,"is_reserved":false,"is_disabled":false,"rental_uris":{"android":"levelo://app?vid=d2a56bb4-edbb-4b2f-83e1-9aa5e5e85b88","ios":"levelo://app?vid=d2a56bb4-edbb-4b2f-83e1-9aa5e5e85b88"},"vehicle_type_id":"4","last_reported":1729066388,"current_range_meters":32400,"station_id":"ce4bgs92rcd13ifvqcc0","pricing_plan_id":"cebpf4jnsgd1na2vs0mg"},{"bike_id":"dff21b7f-7876-4b58-badb-68c71297646c","system_id":"levelo_inurba_marseille","lat":43.30537,"lon":5.367,"is_reserved":false,"is_disabled":false,"rental_uris":{"android":"levelo://app?vid=dff21b7f-7876-4b58-badb-68c71297646c","ios":"levelo://app?vid=dff21b7f-7876-4b58-badb-68c71297646c"},"vehicle_type_id":"4","last_reported":1729066388,"current_range_meters":36800,"station_id":"ce4bgrp2rcd13ifvqc9g","pricing_plan_id":"cebpf4jnsgd1na2vs0mg"},{"bike_id":"5084a3d5-6594-4615-a3a4-b21314c4697d","system_id":"levelo_inurba_marseille","lat":43.3055,"lon":5.36547,"is_reserved":false,"is_disabled":false,"rental_uris":{"android":"levelo://app?vid=5084a3d5-6594-4615-a3a4-b21314c4697d","ios":"levelo://app?vid=5084a3d5-6594-4615-a3a4-b21314c4697d"},"vehicle_type_id":"4","last_reported":1729066388,"current_range_meters":30000,"station_id":"ce4bgs12rcd13ifvqcag","pricing_plan_id":"cebpf4jnsgd1na2vs0mg"},{"bike_id":"f94da947-b1a0-40ed-8143-ed5ebffc5c44","system_id":"levelo_inurba_marseille","lat":43.27944,"lon":5.41044,"is_reserved":false,"is_disabled":false,"rental_uris":{"android":"levelo://app?vid=f94da947-b1a0-40ed-8143-ed5ebffc5c44","ios":"levelo://app?vid=f94da947-b1a0-40ed-8143-ed5ebffc5c44"},"vehicle_type_id":"4","last_reported":1729066388,"current_range_meters":36400,"station_id":"ce4bhnp2rcd13ifvqh0g","pricing_plan_id":"cebpf4jnsgd1na2vs0mg"},{"bike_id":"9e438387-db6b-46bf-bf86-df2fb23ac10e","system_id":"levelo_inurba_marseille","lat":43.28739,"lon":5.433225,"is_reserved":false,"is_disabled":false,"rental_uris":{"android":"levelo://app?vid=9e438387-db6b-46bf-bf86-df2fb23ac10e","ios":"levelo://app?vid=9e438387-db6b-46bf-bf86-df2fb23ac10e"},"vehicle_type_id":"4","last_reported":1729066388,"current_range_meters":6800,"station_id":"","pricing_plan_id":"cebpf4jnsgd1na2vs0mg"},{"bike_id":"0e520a80-67e3-443c-b5a8-eb416db0d354","system_id":"levelo_inurba_marseille","lat":43.28702,"lon":5.37941,"is_reserved":false,"is_disabled":false,"rental_uris":{"android":"levelo://app?vid=0e520a80-67e3-443c-b5a8-eb416db0d354","ios":"levelo://app?vid=0e520a80-67e3-443c-b5a8-eb416db0d354"},"vehicle_type_id":"4","last_reported":1729066388,"current_range_meters":38000,"station_id":"ce4bh9p2rcd13ifvqec0","pricing_plan_id":"cebpf4jnsgd1na2vs0mg"},{"bike_id":"064fdd74-154b-4ccf-9a66-b8bd6ea9a422","system_id":"levelo_inurba_marseille","lat":43.24077,"lon":5.37759,"is_reserved":false,"is_disabled":false,"rental_uris":{"android":"levelo://app?vid=064fdd74-154b-4ccf-9a66-b8bd6ea9a422","ios":"levelo://app?vid=064fdd74-154b-4ccf-9a66-b8bd6ea9a422"},"vehicle_type_id":"4","last_reported":1729066388,"current_range_meters":27600,"station_id":"ce4bhnp2rcd13ifvqgvg","pricing_plan_id":"cebpf4jnsgd1na2vs0mg"},{"bike_id":"4cc16216-9406-4697-afb3-7294bafae015","system_id":"levelo_inurba_marseille","lat":43.2315,"lon":5.43707,"is_reserved":false,"is_disabled":false,"rental_uris":{"android":"levelo://app?vid=4cc16216-9406-4697-afb3-7294bafae015","ios":"levelo://app?vid=4cc16216-9406-4697-afb3-7294bafae015"},"vehicle_type_id":"4","last_reported":1729066388,"current_range_meters":6000,"station_id":"ce4bhmp2rcd13ifvqgog","pricing_plan_id":"cebpf4jnsgd1na2vs0mg"},{"bike_id":"6f19ff66-1b68-49ef-87f2-88eabd11b8e0","system_id":"levelo_inurba_marseille","lat":43.29297,"lon":5.37451,"is_reserved":false,"is_disabled":false,"rental_uris":{"android":"levelo://app?vid=6f19ff66-1b68-49ef-87f2-88eabd11b8e0","ios":"levelo://app?vid=6f19ff66-1b68-49ef-87f2-88eabd11b8e0"},"vehicle_type_id":"4","last_reported":1729066388,"current_range_meters":24400,"station_id":"ce4bgi12rcd13ifvqb70","pricing_plan_id":"cebpf4jnsgd1na2vs0mg"},{"bike_id":"9aee57aa-4a2c-4ba1-8b0b-3dbf10d502a0","system_id":"levelo_inurba_marseille","lat":43.24164,"lon":5.36392,"is_reserved":false,"is_disabled":false,"rental_uris":{"android":"levelo://app?vid=9aee57aa-4a2c-4ba1-8b0b-3dbf10d502a0","ios":"levelo://app?vid=9aee57aa-4a2c-4ba1-8b0b-3dbf10d502a0"},"vehicle_type_id":"4","last_reported":1729066388,"current_range_meters":4400,"station_id":"cpo36qri1sfpv3e86is0","pricing_plan_id":"cebpf4jnsgd1na2vs0mg"},{"bike_id":"5a63799a-d9e5-4d78-a2bb-4e19b7b89a7e","system_id":"levelo_inurba_marseille","lat":43.2558,"lon":5.38233,"is_reserved":false,"is_disabled":false,"rental_uris":{"android":"levelo://app?vid=5a63799a-d9e5-4d78-a2bb-4e19b7b89a7e","ios":"levelo://app?vid=5a63799a-d9e5-4d78-a2bb-4e19b7b89a7e"},"vehicle_type_id":"4","last_reported":1729066388,"current_range_meters":36800,"station_id":"ce4bhih2rcd13ifvqfs0","pricing_plan_id":"cebpf4jnsgd1na2vs0mg"},