{"last_updated":1741259297,"ttl":60,"version":"2.2","data":{"bikes":[{"bike_id":"ee1d2ad1-36ca-49dd-a328-f2a9a9994ecb","system_id":"levelo_inurba_marseille","lat":43.31085,"lon":5.38114,"is_reserved":false,"is_disabled":false,"rental_uris":{"android":"levelo://app?vid=ee1d2ad1-36ca-49dd-a328-f2a9a9994ecb","ios":"levelo://app?vid=ee1d2ad1-36ca-49dd-a328-f2a9a9994ecb"},"vehicle_type_id":"4","last_reported":1741259297,"current_range_meters":2800,"station_id":"","pricing_plan_id":"cebpf4jnsgd1na2vs0mg"},{"bike_id":"2e50fc93-d412-4358-b859-1ef785a4d18a","system_id":"levelo_inurba_marseille","lat":43.29005,"lon":5.35606,"is_reserved":false,"is_disabled":true,"rental_uris":{"android":"levelo://app?vid=2e50fc93-d412-4358-b859-1ef785a4d18a","ios":"levelo://app?vid=2e50fc93-d412-4358-b859-1ef785a4d18a"},"vehicle_type_id":"4","last_reported":1741259297,"current_range_meters":2800,"station_id":"ce4bhb92rcd13ifvqen0","pricing_plan_id":"cebpf4jnsgd1na2vs0mg"},{"bike_id":"cb379330-9ecf-41f8-afbd-727337f4b1df","system_id":"levelo_inurba_marseille","lat":43.31349,"lon":5.36727,"is_reserved":false,"is_disabled":false,"rental_uris":{"android":"levelo://app?vid=cb379330-9ecf-41f8-afbd-727337f4b1df","ios":"levelo://app?vid=cb379330-9ecf-41f8-afbd-727337f4b1df"},"vehicle_type_id":"4","last_reported":1741259297,"current_range_meters":2800,"station_id":"ce4bgr92rcd13ifvqc6g","pricing_plan_id":"cebpf4jnsgd1na2vs0mg"},{"bike_id":"29966e1e-a036-4279-9a1b-f6ee8ddb4213","system_id":"levelo_inurba_marseille","lat":43.30128,"lon":5.39873,"is_reserved":false,"is_disabled":false,"rental_uris":{"android":"levelo://app?vid=29966e1e-a036-4279-9a1b-f6ee8ddb4213","ios":"levelo://app?vid=29966e1e-a036-4279-9a1b-f6ee8ddb4213"},"vehicle_type_id":"4","last_reported":1741259297,"current_range_meters":4400,"station_id":"ce4bh0h2rcd13ifvqd40","pricing_plan_id":"cebpf4jnsgd1na2vs0mg"},{"bike_id":"a192c267-5938-4aa7-8ef1-60d2d01ee328","system_id":"levelo_inurba_marseille","lat":43.31217,"lon":5.36845,"is_reserved":false,"is_disabled":false,"rental_uris":{"android":"levelo://app?vid=a192c267-5938-4aa7-8ef1-60d2d01ee328","ios":"levelo://app?vid=a192c267-5938-4aa7-8ef1-60d2d01ee328"},"vehicle_type_id":"4","last_reported":1741259297,"current_range_meters":3200,"station_id":"ce4bgl92rcd13ifvqbq0","pricing_plan_id":"cebpf4jnsgd1na2vs0mg"},{"bike_id":"c3e12cd0-5b55-4fa8-9b46-bb2eb8bd5487","system_id":"levelo_inurba_marseille","lat":43.30935,"lon":5.40161,"is_reserved":false,"is_disabled":true,"rental_uris":{"android":"levelo://app?vid=c3e12cd0-5b55-4fa8-9b46-bb2eb8bd5487","ios":"levelo://app?vid=c3e12cd0-5b55-4fa8-9b46-bb2eb8bd5487"},"vehicle_type_id":"4","last_reported":1741259297,"current_range_meters":3200,"station_id":"ce4bgvp2rcd13ifvqct0","pricing_plan_id":"cebpf4jnsgd1na2vs0mg"},{"bike_id":"f6662bde-1632-4b0f-a966-f86b33b7c3b9","system_id":"levelo_inurba_marseille","lat":43.33746,"lon":5.37461,"is_reserved":false,"is_disabled":false,"rental_uris":{"android":"levelo://app?vid=f6662bde-1632-4b0f-a966-f86b33b7c3b9","ios":"levelo://app?vid=f6662bde-1632-4b0f-a966-f86b33b7c3b9"},"vehicle_type_id":"4","last_reported":1741259297,"current_range_meters":4000,"station_id":"","pricing_plan_id":"cebpf4jnsgd1na2vs0mg"},{"bike_id":"6c2a0bd8-ac94-4af1-baac-6e5a9479b9d6","system_id":"levelo_inurba_marseille","lat":43.25826,"lon":5.39433,"is_reserved":false,"is_disabled":false,"rental_uris":{"android":"levelo://app?vid=6c2a0bd8-ac94-4af1-baac-6e5a9479b9d6","ios":"levelo://app?vid=6c2a0bd8-ac94-4af1-baac-6e5a9479b9d6"},"vehicle_type_id":"4","last_reported":1741259297,"current_range_meters":3600,"station_id":"ce4bhip2rcd13ifvqft0","pricing_plan_id":"cebpf4jnsgd1na2vs0mg"},{"bike_id":"edd77bd5-54a0-44bb-a40e-41fa8d10f9e1","system_id":"levelo_inurba_marseille","lat":43.30902,"lon":5.36862,"is_reserved":false,"is_disabled":false,"rental_uris":{"android":"levelo://app?vid=edd77bd5-54a0-44bb-a40e-41fa8d10f9e1","ios":"levelo://app?vid=edd77bd5-54a0-44bb-a40e-41fa8d10f9e1"},"vehicle_type_id":"4","last_reported":1741259297,"current_range_meters":4000,"station_id":"ce4bgn92rcd13ifvqbvg","pricing_plan_id":"cebpf4jnsgd1na2vs0mg"},{"bike_id":"e9510b2a-4185-4792-81e2-6bd2648bc91c","system_id":"levelo_inurba_marseille","lat":43.30233,"lon":5.40047,"is_reserved":false,"is_disabled":false,"rental_uris":{"android":"levelo://app?vid=e9510b2a-4185-4792-81e2-6bd2648bc91c","ios":"levelo://app?vid=e9510b2a-4185-4792-81e2-6bd2648bc91c"},"vehicle_type_id":"4","last_reported":1741259297,"current_range_meters":4400,"station_id":"ce4bgvh2rcd13ifvqcs0","pricing_plan_id":"cebpf4jnsgd1na2vs0mg"},{"bike_id":"2bd01eb6-a4d7-4a00-b208-6d4ef77a06b8","system_id":"levelo_inurba_marseille","lat":43.30556,"lon":5.36708,"is_reserved":false,"is_disabled":false,"rental_uris":{"android":"levelo://app?vid=2bd01eb6-a4d7-4a00-b208-6d4ef77a06b8","ios":"levelo://app?vid=2bd01eb6-a4d7-4a00-b208-6d4ef77a06b8"},"vehicle_type_id":"4","last_reported":1741259297,"current_range_meters":4400,"station_id":"ce4bgrp2rcd13ifvqc9g","pricing_plan_id":"cebpf4jnsgd1na2vs0mg"},{"bike_id":"c9181474-071a-48c1-9e23-dc6456f80bde","system_id":"levelo_inurba_marseille","lat":43.32109,"lon":5.36794,"is_reserved":false,"is_disabled":false,"rental_uris":{"android":"levelo://app?vid=c9181474-071a-48c1-9e23-dc6456f80bde","ios":"levelo://app?vid=c9181474-071a-48c1-9e23-dc6456f80bde"},"vehicle_type_id":"4","last_reported":1741259297,"current_range_meters":4800,"station_id":"ce4bhrh2rcd13ifvqhug","pricing_plan_id":"cebpf4jnsgd1na2vs0mg"},{"bike_id":"8d237c99-96d1-4dd8-bf24-03a12f1593cd","system_id":"levelo_inurba_marseille","lat":43.32536,"lon":5.41452,"is_reserved":false,"is_disabled":false,"rental_uris":{"android":"levelo://app?vid=8d237c99-96d1-4dd8-bf24-03a12f1593cd","ios":"levelo://app?vid=8d237c99-96d1-4dd8-bf24-03a12f1593cd"},"vehicle_type_id":"4","last_reported":1741259297,"current_range_meters":5600,"station_id":"ce4bhq12rcd13ifvqhhg","pricing_plan_id":"cebpf4jnsgd1na2vs0mg"},{"bike_id":"bc28d2af-5623-42ae-bdef-43ec4e1bde8c","system_id":"levelo_inurba_marseille","lat":43.30616,"lon":5.36511,"is_reserved":false,"is_disabled":false,"rental_uris":{"android":"levelo://app?vid=bc28d2af-5623-42ae-bdef-43ec4e1bde8c","ios":"levelo://app?vid=bc28d2af-5623-42ae-bdef-43ec4e1bde8c"},"vehicle_type_id":"4","last_reported":1741259297,"current_range_meters":5600,"station_id":"ce4bgs12rcd13ifvqcag","pricing_plan_id":"cebpf4jnsgd1na2vs0mg"},{"bike_id":"ce8ae692-5dc9-4313-9e32-1ccb01244457","system_id":"levelo_inurba_marseille","lat":43.29708,"lon":5.36612,"is_reserved":false,"is_disabled":false,"rental_uris":{"android":"levelo://app?vid=ce8ae692-5dc9-4313-9e32-1ccb01244457","ios":"levelo://app?vid=ce8ae692-5dc9-4313-9e32-1ccb01244457"},"vehicle_type_id":"4","last_reported":1741259297,"current_range_meters":6000,"station_id":"ce4bgn12rcd13ifvqbt0","pricing_plan_id":"cebpf4jnsgd1na2vs0mg"},{"bike_id":"9acf4dd2-1b7f-4858-bfe8-10bd1845cf29","system_id":"levelo_inurba_marseille","lat":43.28416,"lon":5.34975,"is_reserved":false,"is_disabled":false,"rental_uris":{"android":"levelo://app?vid=9acf4dd2-1b7f-4858-bfe8-10bd1845cf29","ios":"levelo://app?vid=9acf4dd2-1b7f-4858-bfe8-10bd1845cf29"},"vehicle_type_id":"4","last_reported":1741259297,"current_range_meters":6000,"station_id":"ce4bhbh2rcd13ifvqepg","pricing_plan_id":"cebpf4jnsgd1na2vs0mg"},{"bike_id":"9993451f-799b-406b-a3da-253f53ed57ce","system_id":"levelo_inurba_marseille","lat":43.246458,"lon":5.388984,"is_reserved":false,"is_disabled":false,"rental_uris":{"android":"levelo://app?vid=9993451f-799b-406b-a3da-253f53ed57ce","ios":"levelo://app?vid=9993451f-799b-406b-a3da-253f53ed57ce"},"vehicle_type_id":"4","last_reported":1741259297,"current_range_meters":6000,"station_id":"ce4bhg12rcd13ifvqf60","pricing_plan_id":"cebpf4jnsgd1na2vs0mg"},{"bike_id":"3439a580-4b13-4596-bc3a-9d40342307f1","system_id":"levelo_inurba_marseille","lat":43.32098,"lon":5.36764,"is_reserved":false,"is_disabled":false,"rental_uris":{"android":"levelo://app?vid=3439a580-4b13-4596-bc3a-9d40342307f1","ios":"levelo://app?vid=3439a580-4b13-4596-bc3a-9d40342307f1"},"vehicle_type_id":"4","last_reported":1741259297,"current_range_meters":6000,"station_id":"ce4bhrh2rcd13ifvqhug","pricing_plan_id":"cebpf4jnsgd1na2vs0mg"},{"bike_id":"1c0978b7-e0b0-4c04-8863-236630968acd","system_id":"levelo_inurba_marseille","lat":43.2594,"lon":5.40873,"is_reserved":false,"is_disabled":false,"rental_uris":{"android":"levelo://app?vid=1c0978b7-e0b0-4c04-8863-236630968acd","ios":"levelo://app?vid=1c0978b7-e0b0-4c04-8863-236630968acd"},"vehicle_type_id":"4","last_reported":1741259297,"current_range_meters":6400,"station_id":"ce4bhm92rcd13ifvqglg","pricing_plan_id":"cebpf4jnsgd1na2vs0mg"},{"bike_id":"9c79fabb-f734-4896-90e8-7c106852fee6","system_id":"levelo_inurba_marseille","lat":43.2944,"lon":5.39748,"is_reserved":false,"is_disabled":false,"rental_uris":{"android":"levelo://app?vid=9c79fabb-f734-4896-90e8-7c106852fee6","ios":"levelo://app?vid=9c79fabb-f734-4896-90e8-7c106852fee6"},"vehicle_type_id":"4","last_reported":1741259297,"current_range_meters":6400,"station_id":"ce4bh3h2rcd13ifvqdo0","pricing_plan_id":"cebpf4jnsgd1na2vs0mg"},{"bike_id":"b7977b44-c15c-44f1-9e56-c538ae56290d","system_id":"levelo_inurba_marseille","lat":43.28944,"lon":5.36637,"is_reserved":false,"is_disabled":false,"rental_uris":{"android":"levelo://app?vid=b7977b44-c15c-44f1-9e56-c538ae56290d","ios":"levelo://app?vid=b7977b44-c15c-44f1-9e56-c538ae56290d"},"vehicle_type_id":"4","last_reported":1741259297,"current_range_meters":6400,"station_id":"ce4bhap2rcd13ifvqek0","pricing_plan_id":"cebpf4jnsgd1na2vs0mg"},{"bike_id":"52e5b3fd-1203-4c88-88f5-b8bf5c22f0ec","system_id":"levelo_inurba_marseille","lat":43.26688,"lon":5.3827,"is_reserved":false,"is_disabled":false,"rental_uris":{"android":"levelo://app?vid=52e5b3fd-1203-4c88-88f5-b8bf5c22f0ec","ios":"levelo://app?vid=52e5b3fd-1203-4c88-88f5-b8bf5c22f0ec"},"vehicle_type_id":"4","last_reported":1741259297,"current_range_meters":6400,"station_id":"ce4bhg92rcd13ifvqf90","pricing_plan_id":"cebpf4jnsgd1na2vs0mg"},{"bike_id":"02b59a92-a1a9-4e9e-8a97-0d19cb41404d","system_id":"levelo_inurba_marseille","lat":43.29248,"lon":5.38433,"is_reserved":false,"is_disabled":false,"rental_uris":{"android":"levelo://app?vid=02b59a92-a1a9-4e9e-8a97-0d19cb41404d","ios":"levelo://app?vid=02b59a92-a1a9-4e9e-8a97-0d19cb41404d"},"vehicle_type_id":"4","last_reported":1741259297,"current_range_meters":6400,"station_id":"ce4bh692rcd13ifvqea0","pricing_plan_id":"cebpf4jnsgd1na2vs0mg"},{"bike_id":"9b9062d7-f1cb-444b-bd95-acca8a69b85e","system_id":"levelo_inurba_marseille","lat":43.30962,"lon":5.39033,"is_reserved":false,"is_disabled":false,"rental_uris":{"android":"levelo://app?vid=9b9062d7-f1cb-444b-bd95-acca8a69b85e","ios":"levelo://app?vid=9b9062d7-f1cb-444b-bd95-acca8a69b85e"},"vehicle_type_id":"4","last_reported":1741259297,"current_range_meters":6800,"station_id":"ce4bgup2rcd13ifvqco0","pricing_plan_id":"cebpf4jnsgd1na2vs0mg"},{"bike_id":"4603160d-68ef-46b1-89fb-91e303b5720e","system_id":"levelo_inurba_marseille","lat":43.28619,"lon":5.35107,"is_reserved":false,"is_disabled":false,"rental_uris":{"android":"levelo://app?vid=4603160d-68ef-46b1-89fb-91e303b5720e","ios":"levelo://app?vid=4603160d-68ef-46b1-89fb-91e303b5720e"},"vehicle_type_id":"4","last_reported":1741259297,"current_range_meters":6400,"station_id":"ce4bhch2rcd13ifvqeug","pricing_plan_id":"cebpf4jnsgd1na2vs0mg"},{"bike_id":"cdfbd217-a6f7-49fd-94b3-19969f91f64b","system_id":"levelo_inurba_marseille","lat":43.27497,"lon":5.42464,"is_reserved":false,"is_disabled":false,"rental_uris":{"android":"levelo://app?vid=cdfbd217-a6f7-49fd-94b3-19969f91f64b","ios":"levelo://app?vid=cdfbd217-a6f7-49fd-94b3-19969f91f64b"},"vehicle_type_id":"4","last_reported":1741259297,"current_range_meters":6800,"station_id":"ce4bhn92rcd13ifvqgrg","pricing_plan_id":"cebpf4jnsgd1na2vs0mg"},{"bike_id":"e9993293-cb22-4b58-9104-8ef93003d618","system_id":"levelo_inurba_marseille","lat":43.2672,"lon":5.3823,"is_reserved":false,"is_disabled":false,"rental_uris":{"android":"levelo://app?vid=e9993293-cb22-4b58-9104-8ef93003d618","ios":"levelo://app?vid=e9993293-cb22-4b58-9104-8ef93003d618"},"vehicle_type_id":"4","last_reported":1741259297,"current_range_meters":6800,"station_id":"","pricing_plan_id":"cebpf4jnsgd1na2vs0mg"},{"bike_id":"e59fccdd-f60b-4fcf-8101-4a747bffb1c1","system_id":"levelo_inurba_marseille","lat":43.2439,"lon":5.37058,"is_reserved":false,"is_disabled":false,"rental_uris":{"android":"levelo://app?vid=e59fccdd-f60b-4fcf-8101-4a747bffb1c1","ios":"levelo://app?vid=e59fccdd-f60b-4fcf-8101-4a747bffb1c1"},"vehicle_type_id":"4","last_reported":1741259297,"current_range_meters":6800,"station_id":"ce4bhhh2rcd13ifvqfk0","pricing_plan_id":"cebpf4jnsgd1na2vs0mg"},{"bike_id":"660eacbe-6c20-4bc4-9faf-66c089a93f75","system_id":"levelo_inurba_marseille","lat":43.3041,"lon":5.41296,"is_reserved":false,"is_disabled":false,"rental_uris":{"android":"levelo://app?vid=660eacbe-6c20-4bc4-9faf-66c089a93f75","ios":"levelo://app?vid=660eacbe-6c20-4bc4-9faf-66c089a93f75"},"vehicle_type_id":"4","last_reported":1741259297,"current_range_meters":7200,"station_id":"ce4bhop2rcd13ifvqh8g","pricing_plan_id":"cebpf4jnsgd1na2vs0mg"},{"bike_id":"41009a11-f407-4721-9738-3126316056fb","system_id":"levelo_inurba_marseille","lat":43.28705,"lon":5.399793,"is_reserved":false,"is_disabled":false,"rental_uris":{"android":"levelo://app?vid=41009a11-f407-4721-9738-3126316056fb","ios":"levelo://app?vid=41009a11-f407-4721-9738-3126316056fb"},"vehicle_type_id":"4","last_reported":1741259297,"current_range_meters":7200,"station_id":"ce4bho92rcd13ifvqh3g","pricing_plan_id":"cebpf4jnsgd1na2vs0mg"},{"bike_id":"c392d698-d7e3-40be-8c30-62817b488b0f","system_id":"levelo_inurba_marseille","lat":43.28452,"lon":5.35893,"is_reserved":false,"is_disabled":false,"rental_uris":{"android":"levelo://app?vid=c392d698-d7e3-40be-8c30-62817b488b0f","ios":"levelo://app?vid=c392d698-d7e3-40be-8c30-62817b488b0f"},"vehicle_type_id":"4","last_reported":1741259297,"current_range_meters":7200,"station_id":"ce4bhah2rcd13ifvqei0","pricing_plan_id":"cebpf4jnsgd1na2vs0mg"},{"bike_id":"668db71f-ce8e-4e0d-9c8a-2190b9ca3ffd","system_id":"levelo_inurba_marseille","lat":43.28702,"lon":5.37382,"is_reserved":false,"is_disabled":false,"rental_uris":{"android":"levelo://app?vid=668db71f-ce8e-4e0d-9c8a-2190b9ca3ffd","ios":"levelo://app?vid=668db71f-ce8e-4e0d-9c8a-2190b9ca3ffd"},"vehicle_type_id":"4","last_reported":1741259297,"current_range_meters":7200,"station_id":"ce4bh3p2rcd13ifvqdq0","pricing_plan_id":"cebpf4jnsgd1na2vs0mg"},{"bike_id":"1ae679cc-613d-44de-9c49-10aa5cef907c","system_id":"levelo_inurba_marseille","lat":43.27497,"lon":5.42462,"is_reserved":false,"is_disabled":false,"rental_uris":{"android":"levelo://app?vid=1ae679cc-613d-44de-9c49-10aa5cef907c","ios":"levelo://app?vid=1ae679cc-613d-44de-9c49-10aa5cef907c"},"vehicle_type_id":"4","last_reported":1741259297,"current_range_meters":7200,"station_id":"ce4bhn92rcd13ifvqgrg","pricing_plan_id":"cebpf4jnsgd1na2vs0mg"},{"bike_id":"ad5ec44f-4a1a-4c1a-a54b-37008ec1933d","system_id":"levelo_inurba_marseille","lat":43.2835,"lon":5.38096,"is_reserved":false,"is_disabled":false,"rental_uris":{"android":"levelo://app?vid=ad5ec44f-4a1a-4c1a-a54b-37008ec1933d","ios":"levelo://app?vid=ad5ec44f-4a1a-4c1a-a54b-37008ec1933d"},"vehicle_type_id":"4","last_reported":1741259297,"current_range_meters":7200,"station_id":"ce4bh412rcd13ifvqdr0","pricing_plan_id":"cebpf4jnsgd1na2vs0mg"},{"bike_id":"16d34a2a-2cd2-4a19-ac9c-4c60248f74c4","system_id":"levelo_inurba_marseille","lat":43.32483,"lon":5.36575,"is_reserved":false,"is_disabled":false,"rental_uris":{"android":"levelo://app?vid=16d34a2a-2cd2-4a19-ac9c-4c60248f74c4","ios":"levelo://app?vid=16d34a2a-2cd2-4a19-ac9c-4c60248f74c4"},"vehicle_type_id":"4","last_reported":1741259297,"current_range_meters":8000,"station_id":"ce4bhs12rcd13ifvqhvg","pricing_plan_id":"cebpf4jnsgd1na2vs0mg"},{"bike_id":"6cc43ce4-7cc8-4265-ac56-def4b52ca10e","system_id":"levelo_inurba_marseille","lat":43.26573,"lon":5.39011,"is_reserved":false,"is_disabled":false,"rental_uris":{"android":"levelo://app?vid=6cc43ce4-7cc8-4265-ac56-def4b52ca10e","ios":"levelo://app?vid=6cc43ce4-7cc8-4265-ac56-def4b52ca10e"},"vehicle_type_id":"4","last_reported":1741259297,"current_range_meters":8000,"station_id":"ce4bhe12rcd13ifvqf30","pricing_plan_id":"cebpf4jnsgd1na2vs0mg"},{"bike_id":"94cca29c-d20f-4b43-ad40-64b99cee1e81","system_id":"levelo_inurba_marseille","lat":43.272103,"lon":5.391953,"is_reserved":false,"is_disabled":false,"rental_uris":{"android":"levelo://app?vid=94cca29c-d20f-4b43-ad40-64b99cee1e81","ios":"levelo://app?vid=94cca29c-d20f-4b43-ad40-64b99cee1e81"},"vehicle_type_id":"4","last_reported":1741259297,"current_range_meters":8000,"station_id":"ce4bhhp2rcd13ifvqfm0","pricing_plan_id":"cebpf4jnsgd1na2vs0mg"},{"bike_id":"dc745729-cc37-415f-9113-8d3457fe58d5","system_id":"levelo_inurba_marseille","lat":43.28362,"lon":5.38629,"is_reserved":false,"is_disabled":false,"rental_uris":{"android":"levelo://app?vid=dc745729-cc37-415f-9113-8d3457fe58d5","ios":"levelo://app?vid=dc745729-cc37-415f-9113-8d3457fe58d5"},"vehicle_type_id":"4","last_reported":1741259297,"current_range_meters":8000,"station_id":"ce4bh492rcd13ifvqdvg","pricing_plan_id":"cebpf4jnsgd1na2vs0mg"},{"bike_id":"8ea8a1a0-ce55-4d82-83a0-4e540ba083fc","system_id":"levelo_inurba_marseille","lat":43.24091,"lon":5.37735,"is_reserved":false,"is_disabled":false,"rental_uris":{"android":"levelo://app?vid=8ea8a1a0-ce55-4d82-83a0-4e540ba083fc","ios":"levelo://app?vid=8ea8a1a0-ce55-4d82-83a0-4e540ba083fc"},"vehicle_type_id":"4","last_reported":1741259297,"current_range_meters":8400,"station_id":"ce4bhnp2rcd13ifvqgvg","pricing_plan_id":"cebpf4jnsgd1na2vs0mg"},{"bike_id":"d5d98f3a-bdbd-4628-981b-21e461a49989","system_id":"levelo_inurba_marseille","lat":43.29418,"lon":5.38616,"is_reserved":false,"is_disabled":false,"rental_uris":{"android":"levelo://app?vid=d5d98f3a-bdbd-4628-981b-21e461a49989","ios":"levelo://app?vid=d5d98f3a-bdbd-4628-981b-21e461a49989"},"vehicle_type_id":"4","last_reported":1741259297,"current_range_meters":8400,"station_id":"ce4bh2h2rcd13ifvqdh0","pricing_plan_id":"cebpf4jnsgd1na2vs0mg"},{"bike_id":"87cc2b62-b442-4215-a043-611256d11643","system_id":"levelo_inurba_marseille","lat":43.31084,"lon":5.42478,"is_reserved":false,"is_disabled":false,"rental_uris":{"android":"levelo://app?vid=87cc2b62-b442-4215-a043-611256d11643","ios":"levelo://app?vid=87cc2b62-b442-4215-a043-611256d11643"},"vehicle_type_id":"4","last_reported":1741259297,"current_range_meters":8400,"station_id":"ce4bhp92rcd13ifvqhag","pricing_plan_id":"cebpf4jnsgd1na2vs0mg"},{"bike_id":"7cfce7e2-f5d0-4225-8d70-9f29fc8ba8a8","system_id":"levelo_inurba_marseille","lat":43.27169,"lon":5.4099,"is_reserved":false,"is_disabled":false,"rental_uris":{"android":"levelo://app?vid=7cfce7e2-f5d0-4225-8d70-9f29fc8ba8a8","ios":"levelo://app?vid=7cfce7e2-f5d0-4225-8d70-9f29fc8ba8a8"},"vehicle_type_id":"4","last_reported":1741259297,"current_range_meters":8000,"station_id":"ce4bhl12rcd13ifvqgf0","pricing_plan_id":"cebpf4jnsgd1na2vs0mg"},{"bike_id":"cd084862-fc87-4717-9ddb-2813ecd24ada","system_id":"levelo_inurba_marseille","lat":43.25061,"lon":5.38887,"is_reserved":false,"is_disabled":false,"rental_uris":{"android":"levelo://app?vid=cd084862-fc87-4717-9ddb-2813ecd24ada","ios":"levelo://app?vid=cd084862-fc87-4717-9ddb-2813ecd24ada"},"vehicle_type_id":"4","last_reported":1741259297,"current_range_meters":8400,"station_id":"ce4bhgp2rcd13ifvqfd0","pricing_plan_id":"cebpf4jnsgd1na2vs0mg"},{"bike_id":"8e67c6c2-1f86-420e-855b-676e159ed831","system_id":"levelo_inurba_marseille","lat":43.23074,"lon":5.35494,"is_reserved":false,"is_disabled":false,"rental_uris":{"android":"levelo://app?vid=8e67c6c2-1f86-420e-855b-676e159ed831","ios":"levelo://app?vid=8e67c6c2-1f86-420e-855b-676e159ed831"},"vehicle_type_id":"4","last_reported":1741259297,"current_range_meters":8800,"station_id":"cpo3342slgdg3j2ifvpg","pricing_plan_id":"cebpf4jnsgd1na2vs0mg"},{"bike_id":"db4daa8a-ea17-4c05-a84d-96a44f56004a","system_id":"levelo_inurba_marseille","lat":43.33625,"lon":5.41017,"is_reserved":false,"is_disabled":false,"rental_uris":{"android":"levelo://app?vid=db4daa8a-ea17-4c05-a84d-96a44f56004a","ios":"levelo://app?vid=db4daa8a-ea17-4c05-a84d-96a44f56004a"},"vehicle_type_id":"4","last_reported":1741259297,"current_range_meters":8800,"station_id":"ce4bhqh2rcd13ifvqhmg","pricing_plan_id":"cebpf4jnsgd1na2vs0mg"},{"bike_id":"97a56aef-2ae1-420b-a5a0-9f0bf812e833","system_id":"levelo_inurba_marseille","lat":43.30154,"lon":5.38066,"is_reserved":false,"is_disabled":false,"rental_uris":{"android":"levelo://app?vid=97a56aef-2ae1-420b-a5a0-9f0bf812e833","ios":"levelo://app?vid=97a56aef-2ae1-420b-a5a0-9f0bf812e833"},"vehicle_type_id":"4","last_reported":1741259297,"current_range_meters":8800,"station_id":"ce4bgjp2rcd13ifvqbh0","pricing_plan_id":"cebpf4jnsgd1na2vs0mg"},{"bike_id":"d08f78a6-55b0-40c0-a9f0-c5bd024c44f8","system_id":"levelo_inurba_marseille","lat":43.29292,"lon":5.40123,"is_reserved":false,"is_disabled":false,"rental_uris":{"android":"levelo://app?vid=d08f78a6-55b0-40c0-a9f0-c5bd024c44f8","ios":"levelo://app?vid=d08f78a6-55b0-40c0-a9f0-c5bd024c44f8"},"vehicle_type_id":"4","last_reported":1741259297,"current_range_meters":8800,"station_id":"ce4bh312rcd13ifvqdk0","pricing_plan_id":"cebpf4jnsgd1na2vs0mg"},{"bike_id":"681eb059-bdb3-4f15-bc8f-edd633d825f7","system_id":"levelo_inurba_marseille","lat":43.29292,"lon":5.374707,"is_reserved":false,"is_disabled":false,"rental_uris":{"android":"levelo://app?vid=681eb059-bdb3-4f15-bc8f-edd633d825f7","ios":"levelo://app?vid=681eb059-bdb3-4f15-bc8f-edd633d825f7"},"vehicle_type_id":"4","last_reported":1741259297,"current_range_meters":8800,"station_id":"ce4bh9p2rcd13ifvqec0","pricing_plan_id":"cebpf4jnsgd1na2vs0mg"},{"bike_id":"997d6d29-cdf6-481f-a2c3-43d99ec8e071","system_id":"levelo_inurba_marseille","lat":43.3069,"lon":5.40094,"is_reserved":false,"is_disabled":true,"rental_uris":{"android":"levelo://app?vid=997d6d29-cdf6-481f-a2c3-43d99ec8e071","ios":"levelo://app?vid=997d6d29-cdf6-481f-a2c3-43d99ec8e071"},"vehicle_type_id":"4","last_reported":1741259297,"current_range_meters":8800,"station_id":"ce4bh112rcd13ifvqda0","pricing_plan_id":"cebpf4jnsgd1na2vs0mg"},{"bike_id":"86723d49-325c-4da0-97b3-2b48647b3a72","system_id":"levelo_inurba_marseille","lat":43.29962,"lon":5.4134,"is_reserved":false,"is_disabled":false,"rental_uris":{"android":"levelo://app?vid=86723d49-325c-4da0-97b3-2b48647b3a72","ios":"levelo://app?vid=86723d49-325c-4da0-97b3-2b48647b3a72"},"vehicle_type_id":"4","last_reported":1741259297,"current_range_meters":8800,"station_id":"ce4bhp12rcd13ifvqh9g","pricing_plan_id":"cebpf4jnsgd1na2vs0mg"},{"bike_id":"6651a4ec-9010-4e82-857a-87fa471c8a68","system_id":"levelo_inurba_marseille","lat":43.28413,"lon":5.34969,"is_reserved":false,"is_disabled":false,"rental_uris":{"android":"levelo://app?vid=6651a4ec-9010-4e82-857a-87fa471c8a68","ios":"levelo://app?vid=6651a4ec-9010-4e82-857a-87fa471c8a68"},"vehicle_type_id":"4","last_reported":1741259297,"current_range_meters":9200,"station_id":"ce4bhbh2rcd13ifvqepg","pricing_plan_id":"cebpf4jnsgd1na2vs0mg"},{"bike_id":"9fc9ecf0-ae9f-4a14-a3f8-71d09644aa9c","system_id":"levelo_inurba_marseille","lat":43.31368,"lon":5.36684,"is_reserved":false,"is_disabled":false,"rental_uris":{"android":"levelo://app?vid=9fc9ecf0-ae9f-4a14-a3f8-71d09644aa9c","ios":"levelo://app?vid=9fc9ecf0-ae9f-4a14-a3f8-71d09644aa9c"},"vehicle_type_id":"4","last_reported":1741259297,"current_range_meters":9200,"station_id":"ce4bgr92rcd13ifvqc6g","pricing_plan_id":"cebpf4jnsgd1na2vs0mg"},{"bike_id":"dc12090d-3e06-49f9-b179-7b5aa1aa1b66","system_id":"levelo_inurba_marseille","lat":43.3095,"lon":5.39036,"is_reserved":false,"is_disabled":false,"rental_uris":{"android":"levelo://app?vid=dc12090d-3e06-49f9-b179-7b5aa1aa1b66","ios":"levelo://app?vid=dc12090d-3e06-49f9-b179-7b5aa1aa1b66"},"vehicle_type_id":"4","last_reported":1741259297,"current_range_meters":9200,"station_id":"ce4bgup2rcd13ifvqco0","pricing_plan_id":"cebpf4jnsgd1na2vs0mg"},{"bike_id":"7be10eac-e616-4904-8cdc-c543b04d589f","system_id":"levelo_inurba_marseille","lat":43.24201,"lon":5.36385,"is_reserved":false,"is_disabled":false,"rental_uris":{"android":"levelo://app?vid=7be10eac-e616-4904-8cdc-c543b04d589f","ios":"levelo://app?vid=7be10eac-e616-4904-8cdc-c543b04d589f"},"vehicle_type_id":"4","last_reported":1741259297,"current_range_meters":9200,"station_id":"cpo36qri1sfpv3e86is0","pricing_plan_id":"cebpf4jnsgd1na2vs0mg"},{"bike_id":"d370fae0-0ed0-4465-9399-8b9d6794af22","system_id":"levelo_inurba_marseille","lat":43.29582,"lon":5.36739,"is_reserved":false,"is_disabled":false,"rental_uris":{"android":"levelo://app?vid=d370fae0-0ed0-4465-9399-8b9d6794af22","ios":"levelo://app?vid=d370fae0-0ed0-4465-9399-8b9d6794af22"},"vehicle_type_id":"4","last_reported":1741259297,"current_range_meters":9200,"station_id":"ce4bgph2rcd13ifvqc2g","pricing_plan_id":"cebpf4jnsgd1na2vs0mg"},{"bike_id":"951b107f-f0eb-40e8-8c2d-ed26e73d0648","system_id":"levelo_inurba_marseille","lat":43.28157,"lon":5.42643,"is_reserved":false,"is_disabled":false,"rental_uris":{"android":"levelo://app?vid=951b107f-f0eb-40e8-8c2d-ed26e73d0648","ios":"levelo://app?vid=951b107f-f0eb-40e8-8c2d-ed26e73d0648"},"vehicle_type_id":"4","last_reported":1741259297,"current_range_meters":9600,"station_id":"ce4bhnh2rcd13ifvqgug","pricing_plan_id":"cebpf4jnsgd1na2vs0mg"},{"bike_id":"018fcf65-d40c-4d34-8076-41d6510e91bd","system_id":"levelo_inurba_marseille","lat":43.28189,"lon":5.42693,"is_reserved":false,"is_disabled":false,"rental_uris":{"android":"levelo://app?vid=018fcf65-d40c-4d34-8076-41d6510e91bd","ios":"levelo://app?vid=018fcf65-d40c-4d34-8076-41d6510e91bd"},"vehicle_type_id":"4","last_reported":1741259297,"current_range_meters":9600,"station_id":"","pricing_plan_id":"cebpf4jnsgd1na2vs0mg"},{"bike_id":"f1969ae6-398f-4ca1-9c4a-74f3b1e55c0e","system_id":"levelo_inurba_marseille","lat":43.30884,"lon":5.39641,"is_reserved":false,"is_disabled":true,"rental_uris":{"android":"levelo://app?vid=f1969ae6-398f-4ca1-9c4a-74f3b1e55c0e","ios":"levelo://app?vid=f1969ae6-398f-4ca1-9c4a-74f3b1e55c0e"},"vehicle_type_id":"4","last_reported":1741259297,"current_range_meters":9600,"station_id":"ce4bh012rcd13ifvqcv0","pricing_plan_id":"cebpf4jnsgd1na2vs0mg"},{"bike_id":"26d4b932-429a-4b24-b3c4-081e0977dd5f","system_id":"levelo_inurba_marseille","lat":43.30155,"lon":5.37399,"is_reserved":false,"is_disabled":false,"rental_uris":{"android":"levelo://app?vid=26d4b932-429a-4b24-b3c4-081e0977dd5f","ios":"levelo://app?vid=26d4b932-429a-4b24-b3c4-081e0977dd5f"},"vehicle_type_id":"4","last_reported":1741259297,"current_range_meters":9600,"station_id":"ce4bgs92rcd13ifvqcc0","pricing_plan_id":"cebpf4jnsgd1na2vs0mg"},{"bike_id":"fdde8103-1f2a-4455-bcfa-e1d74ecb0194","system_id":"levelo_inurba_marseille","lat":43.27813,"lon":5.40705,"is_reserved":false,"is_disabled":false,"rental_uris":{"android":"levelo://app?vid=fdde8103-1f2a-4455-bcfa-e1d74ecb0194","ios":"levelo://app?vid=fdde8103-1f2a-4455-bcfa-e1d74ecb0194"},"vehicle_type_id":"4","last_reported":1741259297,"current_range_meters":9600,"station_id":"ce4bhnh2rcd13ifvqgtg","pricing_plan_id":"cebpf4jnsgd1na2vs0mg"},{"bike_id":"50d0768d-1a71-4e25-aee1-73e9ed90940f","system_id":"levelo_inurba_marseille","lat":43.30497,"lon":5.36693,"is_reserved":false,"is_disabled":false,"rental_uris":{"android":"levelo://app?vid=50d0768d-1a71-4e25-aee1-73e9ed90940f","ios":"levelo://app?vid=50d0768d-1a71-4e25-aee1-73e9ed90940f"},"vehicle_type_id":"4","last_reported":1741259297,"current_range_meters":9600,"station_id":"","pricing_plan_id":"cebpf4jnsgd1na2vs0mg"},{"bike_id":"1a8dd9c6-471b-45b4-8521-664ae5f96f06","system_id":"levelo_inurba_marseille","lat":43.28029,"lon":5.38724,"is_reserved":false,"is_disabled":false,"rental_uris":{"android":"levelo://app?vid=1a8dd9c6-471b-45b4-8521-664ae5f96f06","ios":"levelo://app?vid=1a8dd9c6-471b-45b4-8521-664ae5f96f06"},"vehicle_type_id":"4","last_reported":1741259297,"current_range_meters":9600,"station_id":"","pricing_plan_id":"cebpf4jnsgd1na2vs0mg"},{"bike_id":"e0c0bec3-454a-410d-a60f-3aed516ec149","system_id":"levelo_inurba_marseille","lat":43.23201,"lon":5.35547,"is_reserved":false,"is_disabled":false,"rental_uris":{"android":"levelo://app?vid=e0c0bec3-454a-410d-a60f-3aed516ec149","ios":"levelo://app?vid=e0c0bec3-454a-410d-a60f-3aed516ec149"},"vehicle_type_id":"4","last_reported":1741259297,"current_range_meters":10000,"station_id":"ce4bhu92rcd13ifvqi70","pricing_plan_id":"cebpf4jnsgd1na2vs0mg"},{"bike_id":"b7330805-3cd4-4e2d-8ad5-16cd54de015b","system_id":"levelo_inurba_marseille","lat":43.30912,"lon":5.36865,"is_reserved":false,"is_disabled":false,"rental_uris":{"android":"levelo://app?vid=b7330805-3cd4-4e2d-8ad5-16cd54de015b","ios":"levelo://app?vid=b7330805-3cd4-4e2d-8ad5-16cd54de015b"},"vehicle_type_id":"4","last_reported":1741259297,"current_range_meters":10000,"station_id":"ce4bgn92rcd13ifvqbvg","pricing_plan_id":"cebpf4jnsgd1na2vs0mg"},{"bike_id":"0ec63000-c3e6-4ebf-aa56-a6b75770e1d6","system_id":"levelo_inurba_marseille","lat":43.29255,"lon":5.37606,"is_reserved":false,"is_disabled":false,"rental_uris":{"android":"levelo://app?vid=0ec63000-c3e6-4ebf-aa56-a6b75770e1d6","ios":"levelo://app?vid=0ec63000-c3e6-4ebf-aa56-a6b75770e1d6"},"vehicle_type_id":"4","last_reported":1741259297,"current_range_meters":10000,"station_id":"ce4bgi12rcd13ifvqb80","pricing_plan_id":"cebpf4jnsgd1na2vs0mg"},{"bike_id":"bfec0831-cf8f-40a3-b576-b0a769dfdbbb","system_id":"levelo_inurba_marseille","lat":43.29962,"lon":5.41326,"is_reserved":false,"is_disabled":false,"rental_uris":{"android":"levelo://app?vid=bfec0831-cf8f-40a3-b576-b0a769dfdbbb","ios":"levelo://app?vid=bfec0831-cf8f-40a3-b576-b0a769dfdbbb"},"vehicle_type_id":"4","last_reported":1741259297,"current_range_meters":10000,"station_id":"ce4bhp12rcd13ifvqh9g","pricing_plan_id":"cebpf4jnsgd1na2vs0mg"},{"bike_id":"e7102ca1-75e3-4155-9614-a0a1c9f4dff9","system_id":"levelo_inurba_marseille","lat":43.29306,"lon":5.37456,"is_reserved":false,"is_disabled":false,"rental_uris":{"android":"levelo://app?vid=e7102ca1-75e3-4155-9614-a0a1c9f4dff9","ios":"levelo://app?vid=e7102ca1-75e3-4155-9614-a0a1c9f4dff9"},"vehicle_type_id":"4","last_reported":1741259297,"current_range_meters":10000,"station_id":"ce4bgi12rcd13ifvqb70","pricing_plan_id":"cebpf4jnsgd1na2vs0mg"},{"bike_id":"d042490b-89be-4965-8498-025836790f65","system_id":"levelo_inurba_marseille","lat":43.25932,"lon":5.40901,"is_reserved":false,"is_disabled":false,"rental_uris":{"android":"levelo://app?vid=d042490b-89be-4965-8498-025836790f65","ios":"levelo://app?vid=d042490b-89be-4965-8498-025836790f65"},"vehicle_type_id":"4","last_reported":1741259297,"current_range_meters":10000,"station_id":"ce4bhm92rcd13ifvqglg","pricing_plan_id":"cebpf4jnsgd1na2vs0mg"},{"bike_id":"42ca6937-f51d-46ff-8048-5daa729c6a5a","system_id":"levelo_inurba_marseille","lat":43.29578,"lon":5.37517,"is_reserved":false,"is_disabled":false,"rental_uris":{"android":"levelo://app?vid=42ca6937-f51d-46ff-8048-5daa729c6a5a","ios":"levelo://app?vid=42ca6937-f51d-46ff-8048-5daa729c6a5a"},"vehicle_type_id":"4","last_reported":1741259297,"current_range_meters":10000,"station_id":"ce4bgh92rcd13ifvqb50","pricing_plan_id":"cebpf4jnsgd1na2vs0mg"},{"bike_id":"9208d63c-369f-4c4e-a7fc-9ad972621275","system_id":"levelo_inurba_marseille","lat":43.25963,"lon":5.40946,"is_reserved":false,"is_disabled":false,"rental_uris":{"android":"levelo://app?vid=9208d63c-369f-4c4e-a7fc-9ad972621275","ios":"levelo://app?vid=9208d63c-369f-4c4e-a7fc-9ad972621275"},"vehicle_type_id":"4","last_reported":1741259297,"current_range_meters":10000,"station_id":"ce4bhm92rcd13ifvqglg","pricing_plan_id":"cebpf4jnsgd1na2vs0mg"},{"bike_id":"7f1905bf-da4d-4f13-af14-c5d46804e585","system_id":"levelo_inurba_marseille","lat":43.23199,"lon":5.3555,"is_reserved":false,"is_disabled":false,"rental_uris":{"android":"levelo://app?vid=7f1905bf-da4d-4f13-af14-c5d46804e585","ios":"levelo://app?vid=7f1905bf-da4d-4f13-af14-c5d46804e585"},"vehicle_type_id":"4","last_reported":1741259297,"current_range_meters":10000,"station_id":"ce4bhu92rcd13ifvqi70","pricing_plan_id":"cebpf4jnsgd1na2vs0mg"},{"bike_id":"40d727b2-72cb-498c-8c1a-9c33ec2a16cb","system_id":"levelo_inurba_marseille","lat":43.28154,"lon":5.42653,"is_reserved":false,"is_disabled":false,"rental_uris":{"android":"levelo://app?vid=40d727b2-72cb-498c-8c1a-9c33ec2a16cb","ios":"levelo://app?vid=40d727b2-72cb-498c-8c1a-9c33ec2a16cb"},"vehicle_type_id":"4","last_reported":1741259297,"current_range_meters":10000,"station_id":"ce4bhnh2rcd13ifvqgug","pricing_plan_id":"cebpf4jnsgd1na2vs0mg"},{"bike_id":"deccb326-0579-4f88-8ded-8a796f163b88","system_id":"levelo_inurba_marseille","lat":43.314184,"lon":5.376041,"is_reserved":false,"is_disabled":false,"rental_uris":{"android":"levelo://app?vid=deccb326-0579-4f88-8ded-8a796f163b88","ios":"levelo://app?vid=deccb326-0579-4f88-8ded-8a796f163b88"},"vehicle_type_id":"4","last_reported":1741259297,"current_range_meters":10000,"station_id":"","pricing_plan_id":"cebpf4jnsgd1na2vs0mg"},{"bike_id":"c73740cd-c6d7-4fd4-9ef4-71dcda844117","system_id":"levelo_inurba_marseille","lat":43.31251,"lon":5.3676,"is_reserved":false,"is_disabled":false,"rental_uris":{"android":"levelo://app?vid=c73740cd-c6d7-4fd4-9ef4-71dcda844117","ios":"levelo://app?vid=c73740cd-c6d7-4fd4-9ef4-71dcda844117"},"vehicle_type_id":"4","last_reported":1741259297,"current_range_meters":10000,"station_id":"ce4bgl92rcd13ifvqbq0","pricing_plan_id":"cebpf4jnsgd1na2vs0mg"},{"bike_id":"edb89f42-c75e-43fe-99f2-0dae1c971d40","system_id":"levelo_inurba_marseille","lat":43.264925,"lon":5.395389,"is_reserved":false,"is_disabled":false,"rental_uris":{"android":"levelo://app?vid=edb89f42-c75e-43fe-99f2-0dae1c971d40","ios":"levelo://app?vid=edb89f42-c75e-43fe-99f2-0dae1c971d40"},"vehicle_type_id":"4","last_reported":1741259297,"current_range_meters":10000,"station_id":"ce4bhi12rcd13ifvqfq0","pricing_plan_id":"cebpf4jnsgd1na2vs0mg"},{"bike_id":"405e1412-4655-4207-ad90-c60963c146ed","system_id":"levelo_inurba_marseille","lat":43.292655,"lon":5.374934,"is_reserved":false,"is_disabled":false,"rental_uris":{"android":"levelo://app?vid=405e1412-4655-4207-ad90-c60963c146ed","ios":"levelo://app?vid=405e1412-4655-4207-ad90-c60963c146ed"},"vehicle_type_id":"4","last_reported":1741259297,"current_range_meters":9600,"station_id":"ce4bhh92rcd13ifvqfi0","pricing_plan_id":"cebpf4jnsgd1na2vs0mg"},{"bike_id":"23fecb55-0cbe-4792-b3c6-ba9871470cdb","system_id":"levelo_inurba_marseille","lat":43.32563,"lon":5.41447,"is_reserved":false,"is_disabled":false,"rental_uris":{"android":"levelo://app?vid=23fecb55-0cbe-4792-b3c6-ba9871470cdb","ios":"levelo://app?vid=23fecb55-0cbe-4792-b3c6-ba9871470cdb"},"vehicle_type_id":"4","last_reported":1741259297,"current_range_meters":10000,"station_id":"ce4bhq12rcd13ifvqhhg","pricing_plan_id":"cebpf4jnsgd1na2vs0mg"},{"bike_id":"bc1ff28f-0226-4fe1-bb42-0a1e2869659e","system_id":"levelo_inurba_marseille","lat":43.32366,"lon":5.38884,"is_reserved":false,"is_disabled":false,"rental_uris":{"android":"levelo://app?vid=bc1ff28f-0226-4fe1-bb42-0a1e2869659e","ios":"levelo://app?vid=bc1ff28f-0226-4fe1-bb42-0a1e2869659e"},"vehicle_type_id":"4","last_reported":1741259297,"current_range_meters":10000,"station_id":"ce4bhqp2rcd13ifvqhog","pricing_plan_id":"cebpf4jnsgd1na2vs0mg"},{"bike_id":"9afb8190-a967-434e-b355-d389977ce62d","system_id":"levelo_inurba_marseille","lat":43.24811,"lon":5.3745,"is_reserved":false,"is_disabled":false,"rental_uris":{"android":"levelo://app?vid=9afb8190-a967-434e-b355-d389977ce62d","ios":"levelo://app?vid=9afb8190-a967-434e-b355-d389977ce62d"},"vehicle_type_id":"4","last_reported":1741259297,"current_range_meters":10000,"station_id":"ce4bhgh2rcd13ifvqfb0","pricing_plan_id":"cebpf4jnsgd1na2vs0mg"},{"bike_id":"12dc18f6-3070-4c2f-97de-94cc94625f11","system_id":"levelo_inurba_marseille","lat":43.26693,"lon":5.38271,"is_reserved":false,"is_disabled":false,"rental_uris":{"android":"levelo://app?vid=12dc18f6-3070-4c2f-97de-94cc94625f11","ios":"levelo://app?vid=12dc18f6-3070-4c2f-97de-94cc94625f11"},"vehicle_type_id":"4","last_reported":1741259297,"current_range_meters":10800,"station_id":"ce4bhg92rcd13ifvqf90","pricing_plan_id":"cebpf4jnsgd1na2vs0mg"},{"bike_id":"63815b6e-f9bf-4ae0-9cc4-53a2a981b401","system_id":"levelo_inurba_marseille","lat":43.26796,"lon":5.40298,"is_reserved":false,"is_disabled":false,"rental_uris":{"android":"levelo://app?vid=63815b6e-f9bf-4ae0-9cc4-53a2a981b401","ios":"levelo://app?vid=63815b6e-f9bf-4ae0-9cc4-53a2a981b401"},"vehicle_type_id":"4","last_reported":1741259297,"current_range_meters":10800,"station_id":"ce501612rcd8frsf0b60","pricing_plan_id":"cebpf4jnsgd1na2vs0mg"},{"bike_id":"0a7b2669-dbfd-4e7b-88d0-cb906df84318","system_id":"levelo_inurba_marseille","lat":43.23067,"lon":5.35491,"is_reserved":false,"is_disabled":false,"rental_uris":{"android":"levelo://app?vid=0a7b2669-dbfd-4e7b-88d0-cb906df84318","ios":"levelo://app?vid=0a7b2669-dbfd-4e7b-88d0-cb906df84318"},"vehicle_type_id":"4","last_reported":1741259297,"current_range_meters":10800,"station_id":"cpo3342slgdg3j2ifvpg","pricing_plan_id":"cebpf4jnsgd1na2vs0mg"},{"bike_id":"abd3c288-c1fe-4bd5-abe5-4b7d3428dc5f","system_id":"levelo_inurba_marseille","lat":43.29308,"lon":5.37462,"is_reserved":false,"is_disabled":false,"rental_uris":{"android":"levelo://app?vid=abd3c288-c1fe-4bd5-abe5-4b7d3428dc5f","ios":"levelo://app?vid=abd3c288-c1fe-4bd5-abe5-4b7d3428dc5f"},"vehicle_type_id":"4","last_reported":1741259297,"current_range_meters":10800,"station_id":"ce4bgi12rcd13ifvqb70","pricing_plan_id":"cebpf4jnsgd1na2vs0mg"},{"bike_id":"f4a9b063-e070-437f-9fba-9edf97433ed7","system_id":"levelo_inurba_marseille","lat":43.2795,"lon":5.41042,"is_reserved":false,"is_disabled":false,"rental_uris":{"android":"levelo://app?vid=f4a9b063-e070-437f-9fba-9edf97433ed7","ios":"levelo://app?vid=f4a9b063-e070-437f-9fba-9edf97433ed7"},"vehicle_type_id":"4","last_reported":1741259297,"current_range_meters":10800,"station_id":"ce4bhnp2rcd13ifvqh0g","pricing_plan_id":"cebpf4jnsgd1na2vs0mg"},{"bike_id":"c738f12d-e3a3-49a2-90a6-56758e105a91","system_id":"levelo_inurba_marseille","lat":43.29867,"lon":5.39731,"is_reserved":false,"is_disabled":false,"rental_uris":{"android":"levelo://app?vid=c738f12d-e3a3-49a2-90a6-56758e105a91","ios":"levelo://app?vid=c738f12d-e3a3-49a2-90a6-56758e105a91"},"vehicle_type_id":"4","last_reported":1741259297,"current_range_meters":10800,"station_id":"ce4bh0h2rcd13ifvqd50","pricing_plan_id":"cebpf4jnsgd1na2vs0mg"},{"bike_id":"7adfba6e-40f6-457a-aa9b-e019e32290c1","system_id":"levelo_inurba_marseille","lat":43.26707,"lon":5.38257,"is_reserved":false,"is_disabled":false,"rental_uris":{"android":"levelo://app?vid=7adfba6e-40f6-457a-aa9b-e019e32290c1","ios":"levelo://app?vid=7adfba6e-40f6-457a-aa9b-e019e32290c1"},"vehicle_type_id":"4","last_reported":1741259297,"current_range_meters":10800,"station_id":"ce4bhg92rcd13ifvqf90","pricing_plan_id":"cebpf4jnsgd1na2vs0mg"},{"bike_id":"f0f4eb97-2b33-47ca-a088-86baacee3eb0","system_id":"levelo_inurba_marseille","lat":43.2884,"lon":5.3586,"is_reserved":false,"is_disabled":false,"rental_uris":{"android":"levelo://app?vid=f0f4eb97-2b33-47ca-a088-86baacee3eb0","ios":"levelo://app?vid=f0f4eb97-2b33-47ca-a088-86baacee3eb0"},"vehicle_type_id":"4","last_reported":1741259297,"current_range_meters":10800,"station_id":"ce4bhb12rcd13ifvqem0","pricing_plan_id":"cebpf4jnsgd1na2vs0mg"},{"bike_id":"beb2a1e6-6c51-4fae-9960-e338ac3eafa4","system_id":"levelo_inurba_marseille","lat":43.293,"lon":5.3746,"is_reserved":false,"is_disabled":false,"rental_uris":{"android":"levelo://app?vid=beb2a1e6-6c51-4fae-9960-e338ac3eafa4","ios":"levelo://app?vid=beb2a1e6-6c51-4fae-9960-e338ac3eafa4"},"vehicle_type_id":"4","last_reported":1741259297,"current_range_meters":11200,"station_id":"ce4bgi12rcd13ifvqb70","pricing_plan_id":"cebpf4jnsgd1na2vs0mg"},{"bike_id":"4818b296-36c9-4220-b830-f09fb1ea5b0d","system_id":"levelo_inurba_marseille","lat":43.24659,"lon":5.38163,"is_reserved":false,"is_disabled":false,"rental_uris":{"android":"levelo://app?vid=4818b296-36c9-4220-b830-f09fb1ea5b0d","ios":"levelo://app?vid=4818b296-36c9-4220-b830-f09fb1ea5b0d"},"vehicle_type_id":"4","last_reported":1741259297,"current_range_meters":11200,"station_id":"ce4bhih2rcd13ifvqfr0","pricing_plan_id":"cebpf4jnsgd1na2vs0mg"},{"bike_id":"5ba139a8-b766-4027-9a86-311061f4d0b7","system_id":"levelo_inurba_marseille","lat":43.337444,"lon":5.374475,"is_reserved":false,"is_disabled":true,"rental_uris":{"android":"levelo://app?vid=5ba139a8-b766-4027-9a86-311061f4d0b7","ios":"levelo://app?vid=5ba139a8-b766-4027-9a86-311061f4d0b7"},"vehicle_type_id":"4","last_reported":1741259297,"current_range_meters":11600,"station_id":"","pricing_plan_id":"cebpf4jnsgd1na2vs0mg"},{"bike_id":"88f1cdf8-d5f9-4bd1-9807-7495f7918208","system_id":"levelo_inurba_marseille","lat":43.31251,"lon":5.36865,"is_reserved":false,"is_disabled":false,"rental_uris":{"android":"levelo://app?vid=88f1cdf8-d5f9-4bd1-9807-7495f7918208","ios":"levelo://app?vid=88f1cdf8-d5f9-4bd1-9807-7495f7918208"},"vehicle_type_id":"4","last_reported":1741259297,"current_range_meters":11600,"station_id":"ce4bgl92rcd13ifvqbq0","pricing_plan_id":"cebpf4jnsgd1na2vs0mg"},{"bike_id":"74ef305b-8c9c-452f-bc4a-15f57e847ae0","system_id":"levelo_inurba_marseille","lat":43.25723,"lon":5.41112,"is_reserved":false,"is_disabled":false,"rental_uris":{"android":"levelo://app?vid=74ef305b-8c9c-452f-bc4a-15f57e847ae0","ios":"levelo://app?vid=74ef305b-8c9c-452f-bc4a-15f57e847ae0"},"vehicle_type_id":"4","last_reported":1741259297,"current_range_meters":11600,"station_id":"ce4bhkp2rcd13ifvqgd0","pricing_plan_id":"cebpf4jnsgd1na2vs0mg"},{"bike_id":"e6abf8ac-89f4-411d-80e5-88904d22c020","system_id":"levelo_inurba_marseille","lat":43.24066,"lon":5.3771,"is_reserved":false,"is_disabled":false,"rental_uris":{"android":"levelo://app?vid=e6abf8ac-89f4-411d-80e5-88904d22c020","ios":"levelo://app?vid=e6abf8ac-89f4-411d-80e5-88904d22c020"},"vehicle_type_id":"4","last_reported":1741259297,"current_range_meters":11600,"station_id":"ce4bhnp2rcd13ifvqgvg","pricing_plan_id":"cebpf4jnsgd1na2vs0mg"},{"bike_id":"0b78a1c6-e131-4e72-bb89-0edc713420c0","system_id":"levelo_inurba_marseille","lat":43.286139,"lon":5.351016,"is_reserved":false,"is_disabled":false,"rental_uris":{"android":"levelo://app?vid=0b78a1c6-e131-4e72-bb89-0edc713420c0","ios":"levelo://app?vid=0b78a1c6-e131-4e72-bb89-0edc713420c0"},"vehicle_type_id":"4","last_reported":1741259297,"current_range_meters":12000,"station_id":"ce4bhch2rcd13ifvqeug","pricing_plan_id":"cebpf4jnsgd1na2vs0mg"},{"bike_id":"fb878ffe-48c4-493f-bea4-dad92b2ed37e","system_id":"levelo_inurba_marseille","lat":43.25965,"lon":5.40891,"is_reserved":false,"is_disabled":false,"rental_uris":{"android":"levelo://app?vid=fb878ffe-48c4-493f-bea4-dad92b2ed37e","ios":"levelo://app?vid=fb878ffe-48c4-493f-bea4-dad92b2ed37e"},"vehicle_type_id":"4","last_reported":1741259297,"current_range_meters":12000,"station_id":"ce4bhm92rcd13ifvqglg","pricing_plan_id":"cebpf4jnsgd1na2vs0mg"},{"bike_id":"100936cd-7ffa-448c-93cf-3a5f1181e449","system_id":"levelo_inurba_marseille","lat":43.3016,"lon":5.38088,"is_reserved":false,"is_disabled":false,"rental_uris":{"android":"levelo://app?vid=100936cd-7ffa-448c-93cf-3a5f1181e449","ios":"levelo://app?vid=100936cd-7ffa-448c-93cf-3a5f1181e449"},"vehicle_type_id":"4","last_reported":1741259297,"current_range_meters":12000,"station_id":"ce4bgjp2rcd13ifvqbh0","pricing_plan_id":"cebpf4jnsgd1na2vs0mg"},{"bike_id":"25070293-927b-4a12-bb20-6530074eebac","system_id":"levelo_inurba_marseille","lat":43.29601,"lon":5.38092,"is_reserved":false,"is_disabled":false,"rental_uris":{"android":"levelo://app?vid=25070293-927b-4a12-bb20-6530074eebac","ios":"levelo://app?vid=25070293-927b-4a12-bb20-6530074eebac"},"vehicle_type_id":"4","last_reported":1741259297,"current_range_meters":12400,"station_id":"ce4bgl12rcd13ifvqbo0","pricing_plan_id":"cebpf4jnsgd1na2vs0mg"},{"bike_id":"874c23c8-e11f-44da-acf3-2a35d786f614","system_id":"levelo_inurba_marseille","lat":43.32065,"lon":5.41568,"is_reserved":false,"is_disabled":false,"rental_uris":{"android":"levelo://app?vid=874c23c8-e11f-44da-acf3-2a35d786f614","ios":"levelo://app?vid=874c23c8-e11f-44da-acf3-2a35d786f614"},"vehicle_type_id":"4","last_reported":1741259297,"current_range_meters":12400,"station_id":"ce4bhq92rcd13ifvqhkg","pricing_plan_id":"cebpf4jnsgd1na2vs0mg"},{"bike_id":"fb17b47e-3c41-4002-8ae3-c72bd0a49aa8","system_id":"levelo_inurba_marseille","lat":43.30458,"lon":5.37916,"is_reserved":false,"is_disabled":false,"rental_uris":{"android":"levelo://app?vid=fb17b47e-3c41-4002-8ae3-c72bd0a49aa8","ios":"levelo://app?vid=fb17b47e-3c41-4002-8ae3-c72bd0a49aa8"},"vehicle_type_id":"4","last_reported":1741259297,"current_range_meters":12400,"station_id":"ce4bgup2rcd13ifvqcn0","pricing_plan_id":"cebpf4jnsgd1na2vs0mg"},{"bike_id":"f927a9c8-5d84-472f-b8fd-88f2fc3bc3e6","system_id":"levelo_inurba_marseille","lat":43.299038,"lon":5.436603,"is_reserved":false,"is_disabled":false,"rental_uris":{"android":"levelo://app?vid=f927a9c8-5d84-472f-b8fd-88f2fc3bc3e6","ios":"levelo://app?vid=f927a9c8-5d84-472f-b8fd-88f2fc3bc3e6"},"vehicle_type_id":"4","last_reported":1741259297,"current_range_meters":12400,"station_id":"ce4bhpp2rcd13ifvqhfg","pricing_plan_id":"cebpf4jnsgd1na2vs0mg"},{"bike_id":"bc393c01-9128-437d-8f54-fb73529d8647","system_id":"levelo_inurba_marseille","lat":43.26962,"lon":5.38628,"is_reserved":false,"is_disabled":false,"rental_uris":{"android":"levelo://app?vid=bc393c01-9128-437d-8f54-fb73529d8647","ios":"levelo://app?vid=bc393c01-9128-437d-8f54-fb73529d8647"},"vehicle_type_id":"4","last_reported":1741259297,"current_range_meters":12800,"station_id":"ce4bhh92rcd13ifvqfh0","pricing_plan_id":"cebpf4jnsgd1na2vs0mg"},{"bike_id":"b9c5e362-bc61-4224-9764-0b29a20bf886","system_id":"levelo_inurba_marseille","lat":43.24553,"lon":5.39537,"is_reserved":false,"is_disabled":false,"rental_uris":{"android":"levelo://app?vid=b9c5e362-bc61-4224-9764-0b29a20bf886","ios":"levelo://app?vid=b9c5e362-bc61-4224-9764-0b29a20bf886"},"vehicle_type_id":"4","last_reported":1741259297,"current_range_meters":12400,"station_id":"ce4bhlp2rcd13ifvqgjg","pricing_plan_id":"cebpf4jnsgd1na2vs0mg"},{"bike_id":"00df8c39-4677-4fd1-af83-eef7f4917765","system_id":"levelo_inurba_marseille","lat":43.28423,"lon":5.34979,"is_reserved":false,"is_disabled":false,"rental_uris":{"android":"levelo://app?vid=00df8c39-4677-4fd1-af83-eef7f4917765","ios":"levelo://app?vid=00df8c39-4677-4fd1-af83-eef7f4917765"},"vehicle_type_id":"4","last_reported":1741259297,"current_range_meters":12400,"station_id":"ce4bhbh2rcd13ifvqepg","pricing_plan_id":"cebpf4jnsgd1na2vs0mg"},{"bike_id":"caea0c3c-f1ba-4dcc-9066-7af9fbeab807","system_id":"levelo_inurba_marseille","lat":43.26945,"lon":5.38893,"is_reserved":false,"is_disabled":false,"rental_uris":{"android":"levelo://app?vid=caea0c3c-f1ba-4dcc-9066-7af9fbeab807","ios":"levelo://app?vid=caea0c3c-f1ba-4dcc-9066-7af9fbeab807"},"vehicle_type_id":"4","last_reported":1741259297,"current_range_meters":12800,"station_id":"ce4bhhh2rcd13ifvqfl0","pricing_plan_id":"cebpf4jnsgd1na2vs0mg"},{"bike_id":"535f8f0b-28cc-4056-9264-c1a4f6a27476","system_id":"levelo_inurba_marseille","lat":43.29615,"lon":5.38107,"is_reserved":false,"is_disabled":false,"rental_uris":{"android":"levelo://app?vid=535f8f0b-28cc-4056-9264-c1a4f6a27476","ios":"levelo://app?vid=535f8f0b-28cc-4056-9264-c1a4f6a27476"},"vehicle_type_id":"4","last_reported":1741259297,"current_range_meters":13600,"station_id":"ce4bgl12rcd13ifvqbo0","pricing_plan_id":"cebpf4jnsgd1na2vs0mg"},{"bike_id":"fb62a541-339d-43c0-b2ca-8f32b6c0dfd9","system_id":"levelo_inurba_marseille","lat":43.23155,"lon":5.43718,"is_reserved":false,"is_disabled":false,"rental_uris":{"android":"levelo://app?vid=fb62a541-339d-43c0-b2ca-8f32b6c0dfd9","ios":"levelo://app?vid=fb62a541-339d-43c0-b2ca-8f32b6c0dfd9"},"vehicle_type_id":"4","last_reported":1741259297,"current_range_meters":12800,"station_id":"ce4bhmp2rcd13ifvqgog","pricing_plan_id":"cebpf4jnsgd1na2vs0mg"},{"bike_id":"e0fb2c78-eac2-4ca1-8d1c-5606bae9b50b","system_id":"levelo_inurba_marseille","lat":43.26563,"lon":5.39022,"is_reserved":false,"is_disabled":false,"rental_uris":{"android":"levelo://app?vid=e0fb2c78-eac2-4ca1-8d1c-5606bae9b50b","ios":"levelo://app?vid=e0fb2c78-eac2-4ca1-8d1c-5606bae9b50b"},"vehicle_type_id":"4","last_reported":1741259297,"current_range_meters":12800,"station_id":"ce4bhe12rcd13ifvqf30","pricing_plan_id":"cebpf4jnsgd1na2vs0mg"},{"bike_id":"fd392364-3d9c-4519-a425-0a5ec6596385","system_id":"levelo_inurba_marseille","lat":43.29612,"lon":5.37712,"is_reserved":false,"is_disabled":false,"rental_uris":{"android":"levelo://app?vid=fd392364-3d9c-4519-a425-0a5ec6596385","ios":"levelo://app?vid=fd392364-3d9c-4519-a425-0a5ec6596385"},"vehicle_type_id":"4","last_reported":1741259297,"current_range_meters":12800,"station_id":"ce4bgi92rcd13ifvqb90","pricing_plan_id":"cebpf4jnsgd1na2vs0mg"},{"bike_id":"4f66bd43-ab3e-4c03-af00-7e00a86fac7e","system_id":"levelo_inurba_marseille","lat":43.28383,"lon":5.38626,"is_reserved":false,"is_disabled":false,"rental_uris":{"android":"levelo://app?vid=4f66bd43-ab3e-4c03-af00-7e00a86fac7e","ios":"levelo://app?vid=4f66bd43-ab3e-4c03-af00-7e00a86fac7e"},"vehicle_type_id":"4","last_reported":1741259297,"current_range_meters":12800,"station_id":"ce4bh492rcd13ifvqdvg","pricing_plan_id":"cebpf4jnsgd1na2vs0mg"},{"bike_id":"76ccea9c-0963-4678-bd6c-2ee15628fca7","system_id":"levelo_inurba_marseille","lat":43.30507,"lon":5.36684,"is_reserved":false,"is_disabled":false,"rental_uris":{"android":"levelo://app?vid=76ccea9c-0963-4678-bd6c-2ee15628fca7","ios":"levelo://app?vid=76ccea9c-0963-4678-bd6c-2ee15628fca7"},"vehicle_type_id":"4","last_reported":1741259297,"current_range_meters":12800,"station_id":"","pricing_plan_id":"cebpf4jnsgd1na2vs0mg"},{"bike_id":"5ad276b3-7550-4224-a489-9a6e01714bd6","system_id":"levelo_inurba_marseille","lat":43.294781,"lon":5.37483,"is_reserved":false,"is_disabled":false,"rental_uris":{"android":"levelo://app?vid=5ad276b3-7550-4224-a489-9a6e01714bd6","ios":"levelo://app?vid=5ad276b3-7550-4224-a489-9a6e01714bd6"},"vehicle_type_id":"4","last_reported":1741259297,"current_range_meters":12800,"station_id":"ce4bgkp2rcd13ifvqbmg","pricing_plan_id":"cebpf4jnsgd1na2vs0mg"},{"bike_id":"e9488567-c1bd-480a-b479-f0bc4bd293cc","system_id":"levelo_inurba_marseille","lat":43.24809,"lon":5.3746,"is_reserved":false,"is_disabled":false,"rental_uris":{"android":"levelo://app?vid=e9488567-c1bd-480a-b479-f0bc4bd293cc","ios":"levelo://app?vid=e9488567-c1bd-480a-b479-f0bc4bd293cc"},"vehicle_type_id":"4","last_reported":1741259297,"current_range_meters":12800,"station_id":"ce4bhgh2rcd13ifvqfb0","pricing_plan_id":"cebpf4jnsgd1na2vs0mg"},{"bike_id":"e9ea0b14-f81c-40e0-9aad-18b138d7f8c8","system_id":"levelo_inurba_marseille","lat":43.30155,"lon":5.37436,"is_reserved":false,"is_disabled":false,"rental_uris":{"android":"levelo://app?vid=e9ea0b14-f81c-40e0-9aad-18b138d7f8c8","ios":"levelo://app?vid=e9ea0b14-f81c-40e0-9aad-18b138d7f8c8"},"vehicle_type_id":"4","last_reported":1741259297,"current_range_meters":12800,"station_id":"ce4bgs92rcd13ifvqcc0","pricing_plan_id":"cebpf4jnsgd1na2vs0mg"},{"bike_id":"2c3df1fd-13e4-4dd2-bdf5-46238e2bf3bc","system_id":"levelo_inurba_marseille","lat":43.29048,"lon":5.39955,"is_reserved":false,"is_disabled":false,"rental_uris":{"android":"levelo://app?vid=2c3df1fd-13e4-4dd2-bdf5-46238e2bf3bc","ios":"levelo://app?vid=2c3df1fd-13e4-4dd2-bdf5-46238e2bf3bc"},"vehicle_type_id":"4","last_reported":1741259297,"current_range_meters":13600,"station_id":"ce4bh392rcd13ifvqdm0","pricing_plan_id":"cebpf4jnsgd1na2vs0mg"},{"bike_id":"bf58d102-5f79-4fe1-a6b1-3d04079d1032","system_id":"levelo_inurba_marseille","lat":43.24659,"lon":5.38158,"is_reserved":false,"is_disabled":false,"rental_uris":{"android":"levelo://app?vid=bf58d102-5f79-4fe1-a6b1-3d04079d1032","ios":"levelo://app?vid=bf58d102-5f79-4fe1-a6b1-3d04079d1032"},"vehicle_type_id":"4","last_reported":1741259297,"current_range_meters":13600,"station_id":"ce4bhih2rcd13ifvqfr0","pricing_plan_id":"cebpf4jnsgd1na2vs0mg"},{"bike_id":"c9fa1586-9fc6-4223-9f65-debf1e97cd32","system_id":"levelo_inurba_marseille","lat":43.30462,"lon":5.37903,"is_reserved":false,"is_disabled":false,"rental_uris":{"android":"levelo://app?vid=c9fa1586-9fc6-4223-9f65-debf1e97cd32","ios":"levelo://app?vid=c9fa1586-9fc6-4223-9f65-debf1e97cd32"},"vehicle_type_id":"4","last_reported":1741259297,"current_range_meters":13600,"station_id":"ce4bgup2rcd13ifvqcn0","pricing_plan_id":"cebpf4jnsgd1na2vs0mg"},{"bike_id":"691e75b0-5f13-42b7-8fa4-b5ab60f1ec6c","system_id":"levelo_inurba_marseille","lat":43.28135,"lon":5.42632,"is_reserved":false,"is_disabled":false,"rental_uris":{"android":"levelo://app?vid=691e75b0-5f13-42b7-8fa4-b5ab60f1ec6c","ios":"levelo://app?vid=691e75b0-5f13-42b7-8fa4-b5ab60f1ec6c"},"vehicle_type_id":"4","last_reported":1741259297,"current_range_meters":13600,"station_id":"ce4bhnh2rcd13ifvqgug","pricing_plan_id":"cebpf4jnsgd1na2vs0mg"},{"bike_id":"55fc3aa4-8264-46ea-aeca-3474813a7273","system_id":"levelo_inurba_marseille","lat":43.27329,"lon":5.39073,"is_reserved":false,"is_disabled":false,"rental_uris":{"android":"levelo://app?vid=55fc3aa4-8264-46ea-aeca-3474813a7273","ios":"levelo://app?vid=55fc3aa4-8264-46ea-aeca-3474813a7273"},"vehicle_type_id":"4","last_reported":1741259297,"current_range_meters":13600,"station_id":"ce4bhgp2rcd13ifvqfe0","pricing_plan_id":"cebpf4jnsgd1na2vs0mg"},{"bike_id":"c668bebc-7c6a-48fd-81a2-5bc062208bae","system_id":"levelo_inurba_marseille","lat":43.31175,"lon":5.38708,"is_reserved":false,"is_disabled":false,"rental_uris":{"android":"levelo://app?vid=c668bebc-7c6a-48fd-81a2-5bc062208bae","ios":"levelo://app?vid=c668bebc-7c6a-48fd-81a2-5bc062208bae"},"vehicle_type_id":"4","last_reported":1741259297,"current_range_meters":14000,"station_id":"ce4bgv12rcd13ifvqcp0","pricing_plan_id":"cebpf4jnsgd1na2vs0mg"},{"bike_id":"6051a79d-6e0b-4017-89d3-5f46c47b52a9","system_id":"levelo_inurba_marseille","lat":43.28004,"lon":5.40004,"is_reserved":false,"is_disabled":false,"rental_uris":{"android":"levelo://app?vid=6051a79d-6e0b-4017-89d3-5f46c47b52a9","ios":"levelo://app?vid=6051a79d-6e0b-4017-89d3-5f46c47b52a9"},"vehicle_type_id":"4","last_reported":1741259297,"current_range_meters":14000,"station_id":"ce4bho92rcd13ifvqh4g","pricing_plan_id":"cebpf4jnsgd1na2vs0mg"},{"bike_id":"0683a293-51f0-4d0e-abbf-5ca227d6f896","system_id":"levelo_inurba_marseille","lat":43.3249,"lon":5.36571,"is_reserved":false,"is_disabled":false,"rental_uris":{"android":"levelo://app?vid=0683a293-51f0-4d0e-abbf-5ca227d6f896","ios":"levelo://app?vid=0683a293-51f0-4d0e-abbf-5ca227d6f896"},"vehicle_type_id":"4","last_reported":1741259297,"current_range_meters":14000,"station_id":"ce4bhs12rcd13ifvqhvg","pricing_plan_id":"cebpf4jnsgd1na2vs0mg"},{"bike_id":"2154a662-8635-450e-aff5-645a676ad661","system_id":"levelo_inurba_marseille","lat":43.24079,"lon":5.37756,"is_reserved":false,"is_disabled":false,"rental_uris":{"android":"levelo://app?vid=2154a662-8635-450e-aff5-645a676ad661","ios":"levelo://app?vid=2154a662-8635-450e-aff5-645a676ad661"},"vehicle_type_id":"4","last_reported":1741259297,"current_range_meters":14000,"station_id":"ce4bhnp2rcd13ifvqgvg","pricing_plan_id":"cebpf4jnsgd1na2vs0mg"},{"bike_id":"0fd15513-1c3e-443d-8fc1-867495994c6c","system_id":"levelo_inurba_marseille","lat":43.29968,"lon":5.41329,"is_reserved":false,"is_disabled":false,"rental_uris":{"android":"levelo://app?vid=0fd15513-1c3e-443d-8fc1-867495994c6c","ios":"levelo://app?vid=0fd15513-1c3e-443d-8fc1-867495994c6c"},"vehicle_type_id":"4","last_reported":1741259297,"current_range_meters":14400,"station_id":"ce4bhp12rcd13ifvqh9g","pricing_plan_id":"cebpf4jnsgd1na2vs0mg"},{"bike_id":"0b7b1d4c-a0bb-42b9-8817-6d3b76621878","system_id":"levelo_inurba_marseille","lat":43.24076,"lon":5.3776,"is_reserved":false,"is_disabled":false,"rental_uris":{"android":"levelo://app?vid=0b7b1d4c-a0bb-42b9-8817-6d3b76621878","ios":"levelo://app?vid=0b7b1d4c-a0bb-42b9-8817-6d3b76621878"},"vehicle_type_id":"4","last_reported":1741259297,"current_range_meters":14400,"station_id":"ce4bhnp2rcd13ifvqgvg","pricing_plan_id":"cebpf4jnsgd1na2vs0mg"},{"bike_id":"d535cc86-7509-4b69-8246-94c9a517b5e8","system_id":"levelo_inurba_marseille","lat":43.29103,"lon":5.3813,"is_reserved":false,"is_disabled":false,"rental_uris":{"android":"levelo://app?vid=d535cc86-7509-4b69-8246-94c9a517b5e8","ios":"levelo://app?vid=d535cc86-7509-4b69-8246-94c9a517b5e8"},"vehicle_type_id":"4","last_reported":1741259297,"current_range_meters":14400,"station_id":"ce4bh512rcd13ifvqe2g","pricing_plan_id":"cebpf4jnsgd1na2vs0mg"},{"bike_id":"0d94e7b2-84c7-46d0-85b8-bbbd08a2167f","system_id":"levelo_inurba_marseille","lat":43.23152,"lon":5.43718,"is_reserved":false,"is_disabled":false,"rental_uris":{"android":"levelo://app?vid=0d94e7b2-84c7-46d0-85b8-bbbd08a2167f","ios":"levelo://app?vid=0d94e7b2-84c7-46d0-85b8-bbbd08a2167f"},"vehicle_type_id":"4","last_reported":1741259297,"current_range_meters":14800,"station_id":"ce4bhmp2rcd13ifvqgog","pricing_plan_id":"cebpf4jnsgd1na2vs0mg"},{"bike_id":"9f0f0224-b72b-4ee3-a38d-b5ba80204629","system_id":"levelo_inurba_marseille","lat":43.23196,"lon":5.35555,"is_reserved":false,"is_disabled":false,"rental_uris":{"android":"levelo://app?vid=9f0f0224-b72b-4ee3-a38d-b5ba80204629","ios":"levelo://app?vid=9f0f0224-b72b-4ee3-a38d-b5ba80204629"},"vehicle_type_id":"4","last_reported":1741259297,"current_range_meters":14800,"station_id":"ce4bhu92rcd13ifvqi70","pricing_plan_id":"cebpf4jnsgd1na2vs0mg"},{"bike_id":"227827f5-6a36-4b29-97e4-54048c5f7ce9","system_id":"levelo_inurba_marseille","lat":43.26062,"lon":5.39396,"is_reserved":false,"is_disabled":false,"rental_uris":{"android":"levelo://app?vid=227827f5-6a36-4b29-97e4-54048c5f7ce9","ios":"levelo://app?vid=227827f5-6a36-4b29-97e4-54048c5f7ce9"},"vehicle_type_id":"4","last_reported":1741259297,"current_range_meters":14800,"station_id":"ce4bhh92rcd13ifvqfj0","pricing_plan_id":"cebpf4jnsgd1na2vs0mg"},{"bike_id":"c16ccb51-1ff7-4b93-8e4d-d5c1c6809677","system_id":"levelo_inurba_marseille","lat":43.30418,"lon":5.41273,"is_reserved":false,"is_disabled":false,"rental_uris":{"android":"levelo://app?vid=c16ccb51-1ff7-4b93-8e4d-d5c1c6809677","ios":"levelo://app?vid=c16ccb51-1ff7-4b93-8e4d-d5c1c6809677"},"vehicle_type_id":"4","last_reported":1741259297,"current_range_meters":14800,"station_id":"ce4bhop2rcd13ifvqh8g","pricing_plan_id":"cebpf4jnsgd1na2vs0mg"},{"bike_id":"f47d298b-5528-47e8-9886-3bc4429a765b","system_id":"levelo_inurba_marseille","lat":43.32479,"lon":5.36573,"is_reserved":false,"is_disabled":false,"rental_uris":{"android":"levelo://app?vid=f47d298b-5528-47e8-9886-3bc4429a765b","ios":"levelo://app?vid=f47d298b-5528-47e8-9886-3bc4429a765b"},"vehicle_type_id":"4","last_reported":1741259297,"current_range_meters":14800,"station_id":"ce4bhs12rcd13ifvqhvg","pricing_plan_id":"cebpf4jnsgd1na2vs0mg"},{"bike_id":"1beb12c1-e629-4277-b647-869437ab09f2","system_id":"levelo_inurba_marseille","lat":43.24182,"lon":5.3973,"is_reserved":false,"is_disabled":false,"rental_uris":{"android":"levelo://app?vid=1beb12c1-e629-4277-b647-869437ab09f2","ios":"levelo://app?vid=1beb12c1-e629-4277-b647-869437ab09f2"},"vehicle_type_id":"4","last_reported":1741259297,"current_range_meters":14800,"station_id":"ce4bhn12rcd13ifvqgpg","pricing_plan_id":"cebpf4jnsgd1na2vs0mg"},{"bike_id":"9aca1079-63db-4865-beaf-f26862823891","system_id":"levelo_inurba_marseille","lat":43.29427,"lon":5.38618,"is_reserved":false,"is_disabled":false,"rental_uris":{"android":"levelo://app?vid=9aca1079-63db-4865-beaf-f26862823891","ios":"levelo://app?vid=9aca1079-63db-4865-beaf-f26862823891"},"vehicle_type_id":"4","last_reported":1741259297,"current_range_meters":14400,"station_id":"ce4bh2h2rcd13ifvqdh0","pricing_plan_id":"cebpf4jnsgd1na2vs0mg"},{"bike_id":"b3eaca3c-3e02-4788-8e1c-7df7f67f5818","system_id":"levelo_inurba_marseille","lat":43.29859,"lon":5.36281,"is_reserved":false,"is_disabled":false,"rental_uris":{"android":"levelo://app?vid=b3eaca3c-3e02-4788-8e1c-7df7f67f5818","ios":"levelo://app?vid=b3eaca3c-3e02-4788-8e1c-7df7f67f5818"},"vehicle_type_id":"4","last_reported":1741259297,"current_range_meters":15200,"station_id":"ce4bgpp2rcd13ifvqc3g","pricing_plan_id":"cebpf4jnsgd1na2vs0mg"},{"bike_id":"ce51e43d-08e5-4352-a6bd-d7aa7e8463bf","system_id":"levelo_inurba_marseille","lat":43.32482,"lon":5.36595,"is_reserved":false,"is_disabled":false,"rental_uris":{"android":"levelo://app?vid=ce51e43d-08e5-4352-a6bd-d7aa7e8463bf","ios":"levelo://app?vid=ce51e43d-08e5-4352-a6bd-d7aa7e8463bf"},"vehicle_type_id":"4","last_reported":1741259297,"current_range_meters":15200,"station_id":"ce4bhs12rcd13ifvqhvg","pricing_plan_id":"cebpf4jnsgd1na2vs0mg"},{"bike_id":"3e8c034e-a7d7-4c46-8e31-3a0c6fbfb5cc","system_id":"levelo_inurba_marseille","lat":43.33603,"lon":5.41014,"is_reserved":false,"is_disabled":false,"rental_uris":{"android":"levelo://app?vid=3e8c034e-a7d7-4c46-8e31-3a0c6fbfb5cc","ios":"levelo://app?vid=3e8c034e-a7d7-4c46-8e31-3a0c6fbfb5cc"},"vehicle_type_id":"4","last_reported":1741259297,"current_range_meters":15200,"station_id":"ce4bhqh2rcd13ifvqhmg","pricing_plan_id":"cebpf4jnsgd1na2vs0mg"},{"bike_id":"bc07b15d-e755-445d-b392-3a8e219236e3","system_id":"levelo_inurba_marseille","lat":43.27209,"lon":5.39178,"is_reserved":false,"is_disabled":false,"rental_uris":{"android":"levelo://app?vid=bc07b15d-e755-445d-b392-3a8e219236e3","ios":"levelo://app?vid=bc07b15d-e755-445d-b392-3a8e219236e3"},"vehicle_type_id":"4","last_reported":1741259297,"current_range_meters":15200,"station_id":"ce4bhhp2rcd13ifvqfm0","pricing_plan_id":"cebpf4jnsgd1na2vs0mg"},{"bike_id":"d0975067-6820-4c9b-8967-2dcd7378fd4f","system_id":"levelo_inurba_marseille","lat":43.30456,"lon":5.37909,"is_reserved":false,"is_disabled":false,"rental_uris":{"android":"levelo://app?vid=d0975067-6820-4c9b-8967-2dcd7378fd4f","ios":"levelo://app?vid=d0975067-6820-4c9b-8967-2dcd7378fd4f"},"vehicle_type_id":"4","last_reported":1741259297,"current_range_meters":15200,"station_id":"ce4bgup2rcd13ifvqcn0","pricing_plan_id":"cebpf4jnsgd1na2vs0mg"},{"bike_id":"53c6f008-92e7-4996-9e4a-0bcf734e3563","system_id":"levelo_inurba_marseille","lat":43.30913,"lon":5.36825,"is_reserved":false,"is_disabled":false,"rental_uris":{"android":"levelo://app?vid=53c6f008-92e7-4996-9e4a-0bcf734e3563","ios":"levelo://app?vid=53c6f008-92e7-4996-9e4a-0bcf734e3563"},"vehicle_type_id":"4","last_reported":1741259297,"current_range_meters":15200,"station_id":"ce4bgn92rcd13ifvqbvg","pricing_plan_id":"cebpf4jnsgd1na2vs0mg"},{"bike_id":"eaf3ebe5-8aaa-4ee1-9b97-323ffe2f0861","system_id":"levelo_inurba_marseille","lat":43.27496,"lon":5.4245,"is_reserved":false,"is_disabled":false,"rental_uris":{"android":"levelo://app?vid=eaf3ebe5-8aaa-4ee1-9b97-323ffe2f0861","ios":"levelo://app?vid=eaf3ebe5-8aaa-4ee1-9b97-323ffe2f0861"},"vehicle_type_id":"4","last_reported":1741259297,"current_range_meters":15200,"station_id":"ce4bhn92rcd13ifvqgrg","pricing_plan_id":"cebpf4jnsgd1na2vs0mg"},{"bike_id":"0bae4be7-47b6-4cca-9ae4-652b2983fb72","system_id":"levelo_inurba_marseille","lat":43.24073,"lon":5.37739,"is_reserved":false,"is_disabled":false,"rental_uris":{"android":"levelo://app?vid=0bae4be7-47b6-4cca-9ae4-652b2983fb72","ios":"levelo://app?vid=0bae4be7-47b6-4cca-9ae4-652b2983fb72"},"vehicle_type_id":"4","last_reported":1741259297,"current_range_meters":15200,"station_id":"ce4bhnp2rcd13ifvqgvg","pricing_plan_id":"cebpf4jnsgd1na2vs0mg"},{"bike_id":"2f7f5d6f-ba2a-4126-af71-dfeac7995dcd","system_id":"levelo_inurba_marseille","lat":43.2318,"lon":5.43707,"is_reserved":false,"is_disabled":false,"rental_uris":{"android":"levelo://app?vid=2f7f5d6f-ba2a-4126-af71-dfeac7995dcd","ios":"levelo://app?vid=2f7f5d6f-ba2a-4126-af71-dfeac7995dcd"},"vehicle_type_id":"4","last_reported":1741259297,"current_range_meters":16000,"station_id":"ce4bhmp2rcd13ifvqgog","pricing_plan_id":"cebpf4jnsgd1na2vs0mg"},{"bike_id":"40194dfe-2f33-47d3-b9d8-dcc6842c434a","system_id":"levelo_inurba_marseille","lat":43.29059,"lon":5.39956,"is_reserved":false,"is_disabled":false,"rental_uris":{"android":"levelo://app?vid=40194dfe-2f33-47d3-b9d8-dcc6842c434a","ios":"levelo://app?vid=40194dfe-2f33-47d3-b9d8-dcc6842c434a"},"vehicle_type_id":"4","last_reported":1741259297,"current_range_meters":16000,"station_id":"ce4bh392rcd13ifvqdm0","pricing_plan_id":"cebpf4jnsgd1na2vs0mg"},{"bike_id":"396b3c83-63a7-4e9f-81bd-e5810b939dad","system_id":"levelo_inurba_marseille","lat":43.28622,"lon":5.35103,"is_reserved":false,"is_disabled":false,"rental_uris":{"android":"levelo://app?vid=396b3c83-63a7-4e9f-81bd-e5810b939dad","ios":"levelo://app?vid=396b3c83-63a7-4e9f-81bd-e5810b939dad"},"vehicle_type_id":"4","last_reported":1741259297,"current_range_meters":16000,"station_id":"ce4bhch2rcd13ifvqeug","pricing_plan_id":"cebpf4jnsgd1na2vs0mg"},{"bike_id":"8fb1788b-0182-40df-b865-863da90951b4","system_id":"levelo_inurba_marseille","lat":43.293555,"lon":5.378063,"is_reserved":false,"is_disabled":false,"rental_uris":{"android":"levelo://app?vid=8fb1788b-0182-40df-b865-863da90951b4","ios":"levelo://app?vid=8fb1788b-0182-40df-b865-863da90951b4"},"vehicle_type_id":"4","last_reported":1741259297,"current_range_meters":16000,"station_id":"ce4bgjh2rcd13ifvqbf0","pricing_plan_id":"cebpf4jnsgd1na2vs0mg"},{"bike_id":"075c435d-6b14-4dfb-91b7-09fb5f865434","system_id":"levelo_inurba_marseille","lat":43.31448,"lon":5.36713,"is_reserved":false,"is_disabled":false,"rental_uris":{"android":"levelo://app?vid=075c435d-6b14-4dfb-91b7-09fb5f865434","ios":"levelo://app?vid=075c435d-6b14-4dfb-91b7-09fb5f865434"},"vehicle_type_id":"4","last_reported":1741259297,"current_range_meters":16400,"station_id":"","pricing_plan_id":"cebpf4jnsgd1na2vs0mg"},{"bike_id":"4e954543-370a-412f-b4d6-d9f000c45580","system_id":"levelo_inurba_marseille","lat":43.292612,"lon":5.384342,"is_reserved":false,"is_disabled":false,"rental_uris":{"android":"levelo://app?vid=4e954543-370a-412f-b4d6-d9f000c45580","ios":"levelo://app?vid=4e954543-370a-412f-b4d6-d9f000c45580"},"vehicle_type_id":"4","last_reported":1741259297,"current_range_meters":16000,"station_id":"ce4bh692rcd13ifvqea0","pricing_plan_id":"cebpf4jnsgd1na2vs0mg"},{"bike_id":"5ec6c0ad-1530-4f81-813f-189637cdd41a","system_id":"levelo_inurba_marseille","lat":43.26938,"lon":5.38533,"is_reserved":false,"is_disabled":false,"rental_uris":{"android":"levelo://app?vid=5ec6c0ad-1530-4f81-813f-189637cdd41a","ios":"levelo://app?vid=5ec6c0ad-1530-4f81-813f-189637cdd41a"},"vehicle_type_id":"4","last_reported":1741259297,"current_range_meters":16400,"station_id":"ce4bhh92rcd13ifvqfh0","pricing_plan_id":"cebpf4jnsgd1na2vs0mg"},{"bike_id":"82dc1250-3133-44ae-ab67-1eae2b3ebd4d","system_id":"levelo_inurba_marseille","lat":43.32486,"lon":5.36575,"is_reserved":false,"is_disabled":false,"rental_uris":{"android":"levelo://app?vid=82dc1250-3133-44ae-ab67-1eae2b3ebd4d","ios":"levelo://app?vid=82dc1250-3133-44ae-ab67-1eae2b3ebd4d"},"vehicle_type_id":"4","last_reported":1741259297,"current_range_meters":16400,"station_id":"ce4bhs12rcd13ifvqhvg","pricing_plan_id":"cebpf4jnsgd1na2vs0mg"},{"bike_id":"79ee3c31-2299-42f3-ac7e-88a73d7fad5e","system_id":"levelo_inurba_marseille","lat":43.337444,"lon":5.374475,"is_reserved":false,"is_disabled":true,"rental_uris":{"android":"levelo://app?vid=79ee3c31-2299-42f3-ac7e-88a73d7fad5e","ios":"levelo://app?vid=79ee3c31-2299-42f3-ac7e-88a73d7fad5e"},"vehicle_type_id":"4","last_reported":1741259297,"current_range_meters":16800,"station_id":"","pricing_plan_id":"cebpf4jnsgd1na2vs0mg"},{"bike_id":"89a239ee-7c47-4377-a55d-c10cfde61abd","system_id":"levelo_inurba_marseille","lat":43.30515,"lon":5.36687,"is_reserved":false,"is_disabled":false,"rental_uris":{"android":"levelo://app?vid=89a239ee-7c47-4377-a55d-c10cfde61abd","ios":"levelo://app?vid=89a239ee-7c47-4377-a55d-c10cfde61abd"},"vehicle_type_id":"4","last_reported":1741259297,"current_range_meters":16800,"station_id":"ce4bgrp2rcd13ifvqc9g","pricing_plan_id":"cebpf4jnsgd1na2vs0mg"},{"bike_id":"fe2a1c26-6de6-44ee-8be0-f51cd2d0b446","system_id":"levelo_inurba_marseille","lat":43.28427,"lon":5.34973,"is_reserved":false,"is_disabled":false,"rental_uris":{"android":"levelo://app?vid=fe2a1c26-6de6-44ee-8be0-f51cd2d0b446","ios":"levelo://app?vid=fe2a1c26-6de6-44ee-8be0-f51cd2d0b446"},"vehicle_type_id":"4","last_reported":1741259297,"current_range_meters":16800,"station_id":"ce4bhbh2rcd13ifvqepg","pricing_plan_id":"cebpf4jnsgd1na2vs0mg"},{"bike_id":"59b0ef83-0ced-422e-9540-58cf9a4471b5","system_id":"levelo_inurba_marseille","lat":43.24658,"lon":5.389,"is_reserved":false,"is_disabled":false,"rental_uris":{"android":"levelo://app?vid=59b0ef83-0ced-422e-9540-58cf9a4471b5","ios":"levelo://app?vid=59b0ef83-0ced-422e-9540-58cf9a4471b5"},"vehicle_type_id":"4","last_reported":1741259297,"current_range_meters":16800,"station_id":"ce4bhg12rcd13ifvqf60","pricing_plan_id":"cebpf4jnsgd1na2vs0mg"},{"bike_id":"54833c0a-a9a7-4c42-873b-474bce89055b","system_id":"levelo_inurba_marseille","lat":43.23058,"lon":5.3547,"is_reserved":false,"is_disabled":false,"rental_uris":{"android":"levelo://app?vid=54833c0a-a9a7-4c42-873b-474bce89055b","ios":"levelo://app?vid=54833c0a-a9a7-4c42-873b-474bce89055b"},"vehicle_type_id":"4","last_reported":1741259297,"current_range_meters":16800,"station_id":"cpo3342slgdg3j2ifvpg","pricing_plan_id":"cebpf4jnsgd1na2vs0mg"},{"bike_id":"0ca1bd1a-09a4-403c-bd0e-138ddd469497","system_id":"levelo_inurba_marseille","lat":43.26213,"lon":5.37445,"is_reserved":false,"is_disabled":false,"rental_uris":{"android":"levelo://app?vid=0ca1bd1a-09a4-403c-bd0e-138ddd469497","ios":"levelo://app?vid=0ca1bd1a-09a4-403c-bd0e-138ddd469497"},"vehicle_type_id":"4","last_reported":1741259297,"current_range_meters":16800,"station_id":"ce4bhgp2rcd13ifvqfc0","pricing_plan_id":"cebpf4jnsgd1na2vs0mg"},{"bike_id":"cfc39192-f991-41e4-87e9-a5bd091b9729","system_id":"levelo_inurba_marseille","lat":43.30078,"lon":5.39078,"is_reserved":false,"is_disabled":false,"rental_uris":{"android":"levelo://app?vid=cfc39192-f991-41e4-87e9-a5bd091b9729","ios":"levelo://app?vid=cfc39192-f991-41e4-87e9-a5bd091b9729"},"vehicle_type_id":"4","last_reported":1741259297,"current_range_meters":17200,"station_id":"ce4bh192rcd13ifvqdb0","pricing_plan_id":"cebpf4jnsgd1na2vs0mg"},{"bike_id":"9b9d9974-5a54-42bc-9756-5def0b0a2eb4","system_id":"levelo_inurba_marseille","lat":43.26684,"lon":5.38263,"is_reserved":false,"is_disabled":false,"rental_uris":{"android":"levelo://app?vid=9b9d9974-5a54-42bc-9756-5def0b0a2eb4","ios":"levelo://app?vid=9b9d9974-5a54-42bc-9756-5def0b0a2eb4"},"vehicle_type_id":"4","last_reported":1741259297,"current_range_meters":17200,"station_id":"ce4bhg92rcd13ifvqf90","pricing_plan_id":"cebpf4jnsgd1na2vs0mg"},{"bike_id":"8f8ffd82-d094-4076-99ce-302d87adc130","system_id":"levelo_inurba_marseille","lat":43.30956,"lon":5.39033,"is_reserved":false,"is_disabled":true,"rental_uris":{"android":"levelo://app?vid=8f8ffd82-d094-4076-99ce-302d87adc130","ios":"levelo://app?vid=8f8ffd82-d094-4076-99ce-302d87adc130"},"vehicle_type_id":"4","last_reported":1741259297,"current_range_meters":17200,"station_id":"ce4bgup2rcd13ifvqco0","pricing_plan_id":"cebpf4jnsgd1na2vs0mg"},{"bike_id":"dfb09437-b494-4b45-a34d-a8cebddfa429","system_id":"levelo_inurba_marseille","lat":43.27811,"lon":5.40712,"is_reserved":false,"is_disabled":false,"rental_uris":{"android":"levelo://app?vid=dfb09437-b494-4b45-a34d-a8cebddfa429","ios":"levelo://app?vid=dfb09437-b494-4b45-a34d-a8cebddfa429"},"vehicle_type_id":"4","last_reported":1741259297,"current_range_meters":17200,"station_id":"ce4bhnh2rcd13ifvqgtg","pricing_plan_id":"cebpf4jnsgd1na2vs0mg"},{"bike_id":"6b509aed-b387-4110-a1fb-ac182346d166","system_id":"levelo_inurba_marseille","lat":43.27499,"lon":5.42454,"is_reserved":false,"is_disabled":false,"rental_uris":{"android":"levelo://app?vid=6b509aed-b387-4110-a1fb-ac182346d166","ios":"levelo://app?vid=6b509aed-b387-4110-a1fb-ac182346d166"},"vehicle_type_id":"4","last_reported":1741259297,"current_range_meters":17200,"station_id":"ce4bhn92rcd13ifvqgrg","pricing_plan_id":"cebpf4jnsgd1na2vs0mg"},{"bike_id":"8e253005-1e67-480d-9b43-caaa2b70656b","system_id":"levelo_inurba_marseille","lat":43.27489,"lon":5.42455,"is_reserved":false,"is_disabled":false,"rental_uris":{"android":"levelo://app?vid=8e253005-1e67-480d-9b43-caaa2b70656b","ios":"levelo://app?vid=8e253005-1e67-480d-9b43-caaa2b70656b"},"vehicle_type_id":"4","last_reported":1741259297,"current_range_meters":17200,"station_id":"ce4bhn92rcd13ifvqgrg","pricing_plan_id":"cebpf4jnsgd1na2vs0mg"},{"bike_id":"24e8775b-4532-45f5-b8f7-62c8ef5ed548","system_id":"levelo_inurba_marseille","lat":43.23149,"lon":5.43717,"is_reserved":false,"is_disabled":false,"rental_uris":{"android":"levelo://app?vid=24e8775b-4532-45f5-b8f7-62c8ef5ed548","ios":"levelo://app?vid=24e8775b-4532-45f5-b8f7-62c8ef5ed548"},"vehicle_type_id":"4","last_reported":1741259297,"current_range_meters":17200,"station_id":"ce4bhmp2rcd13ifvqgog","pricing_plan_id":"cebpf4jnsgd1na2vs0mg"},{"bike_id":"5f30fce7-7989-4e43-b41a-54bfced1f32f","system_id":"levelo_inurba_marseille","lat":43.23149,"lon":5.43717,"is_reserved":false,"is_disabled":false,"rental_uris":{"android":"levelo://app?vid=5f30fce7-7989-4e43-b41a-54bfced1f32f","ios":"levelo://app?vid=5f30fce7-7989-4e43-b41a-54bfced1f32f"},"vehicle_type_id":"4","last_reported":1741259297,"current_range_meters":17200,"station_id":"ce4bhmp2rcd13ifvqgog","pricing_plan_id":"cebpf4jnsgd1na2vs0mg"},{"bike_id":"611d419b-8266-41e4-a1de-9813042a170c","system_id":"levelo_inurba_marseille","lat":43.27986,"lon":5.38713,"is_reserved":false,"is_disabled":false,"rental_uris":{"android":"levelo://app?vid=611d419b-8266-41e4-a1de-9813042a170c","ios":"levelo://app?vid=611d419b-8266-41e4-a1de-9813042a170c"},"vehicle_type_id":"4","last_reported":1741259297,"current_range_meters":17200,"station_id":"ce4bhg12rcd13ifvqf80","pricing_plan_id":"cebpf4jnsgd1na2vs0mg"},{"bike_id":"818efea0-538c-4265-af77-c476b3021bd1","system_id":"levelo_inurba_marseille","lat":43.25926,"lon":5.40888,"is_reserved":false,"is_disabled":false,"rental_uris":{"android":"levelo://app?vid=818efea0-538c-4265-af77-c476b3021bd1","ios":"levelo://app?vid=818efea0-538c-4265-af77-c476b3021bd1"},"vehicle_type_id":"4","last_reported":1741259297,"current_range_meters":17200,"station_id":"ce4bhm92rcd13ifvqglg","pricing_plan_id":"cebpf4jnsgd1na2vs0mg"},{"bike_id":"97ee82e2-cf15-4a31-b5f8-a5b527fa6d26","system_id":"levelo_inurba_marseille","lat":43.29021,"lon":5.37573,"is_reserved":false,"is_disabled":false,"rental_uris":{"android":"levelo://app?vid=97ee82e2-cf15-4a31-b5f8-a5b527fa6d26","ios":"levelo://app?vid=97ee82e2-cf15-4a31-b5f8-a5b527fa6d26"},"vehicle_type_id":"4","last_reported":1741259297,"current_range_meters":17200,"station_id":"ce4bh692rcd13ifvqe90","pricing_plan_id":"cebpf4jnsgd1na2vs0mg"},{"bike_id":"d0a9e0b6-7460-48af-b167-fa241d6b44c3","system_id":"levelo_inurba_marseille","lat":43.32113,"lon":5.3679,"is_reserved":false,"is_disabled":false,"rental_uris":{"android":"levelo://app?vid=d0a9e0b6-7460-48af-b167-fa241d6b44c3","ios":"levelo://app?vid=d0a9e0b6-7460-48af-b167-fa241d6b44c3"},"vehicle_type_id":"4","last_reported":1741259297,"current_range_meters":17200,"station_id":"ce4bhrh2rcd13ifvqhug","pricing_plan_id":"cebpf4jnsgd1na2vs0mg"},{"bike_id":"fb210a9b-e156-4e1e-bd90-3a2bd9868821","system_id":"levelo_inurba_marseille","lat":43.31239,"lon":5.36867,"is_reserved":false,"is_disabled":false,"rental_uris":{"android":"levelo://app?vid=fb210a9b-e156-4e1e-bd90-3a2bd9868821","ios":"levelo://app?vid=fb210a9b-e156-4e1e-bd90-3a2bd9868821"},"vehicle_type_id":"4","last_reported":1741259297,"current_range_meters":17200,"station_id":"ce4bgl92rcd13ifvqbq0","pricing_plan_id":"cebpf4jnsgd1na2vs0mg"},{"bike_id":"0fe237f4-849b-4326-b28d-b9d094f29dbe","system_id":"levelo_inurba_marseille","lat":43.26563,"lon":5.39028,"is_reserved":false,"is_disabled":false,"rental_uris":{"android":"levelo://app?vid=0fe237f4-849b-4326-b28d-b9d094f29dbe","ios":"levelo://app?vid=0fe237f4-849b-4326-b28d-b9d094f29dbe"},"vehicle_type_id":"4","last_reported":1741259297,"current_range_meters":17600,"station_id":"ce4bhe12rcd13ifvqf30","pricing_plan_id":"cebpf4jnsgd1na2vs0mg"},{"bike_id":"b48f39d5-c63c-4c30-a52c-fd1c8dab209f","system_id":"levelo_inurba_marseille","lat":43.304342,"lon":5.397476,"is_reserved":false,"is_disabled":false,"rental_uris":{"android":"levelo://app?vid=b48f39d5-c63c-4c30-a52c-fd1c8dab209f","ios":"levelo://app?vid=b48f39d5-c63c-4c30-a52c-fd1c8dab209f"},"vehicle_type_id":"4","last_reported":1741259297,"current_range_meters":17600,"station_id":"ce4bh092rcd13ifvqd20","pricing_plan_id":"cebpf4jnsgd1na2vs0mg"},{"bike_id":"14c75ee1-8fa9-405a-ae33-5c4f783af916","system_id":"levelo_inurba_marseille","lat":43.30169,"lon":5.38093,"is_reserved":false,"is_disabled":false,"rental_uris":{"android":"levelo://app?vid=14c75ee1-8fa9-405a-ae33-5c4f783af916","ios":"levelo://app?vid=14c75ee1-8fa9-405a-ae33-5c4f783af916"},"vehicle_type_id":"4","last_reported":1741259297,"current_range_meters":17600,"station_id":"ce4bgjp2rcd13ifvqbh0","pricing_plan_id":"cebpf4jnsgd1na2vs0mg"},{"bike_id":"4b2e13fe-89ba-4c44-aea8-c07315ef3e8f","system_id":"levelo_inurba_marseille","lat":43.25118,"lon":5.40316,"is_reserved":false,"is_disabled":false,"rental_uris":{"android":"levelo://app?vid=4b2e13fe-89ba-4c44-aea8-c07315ef3e8f","ios":"levelo://app?vid=4b2e13fe-89ba-4c44-aea8-c07315ef3e8f"},"vehicle_type_id":"4","last_reported":1741259297,"current_range_meters":17600,"station_id":"ce4bhlh2rcd13ifvqgig","pricing_plan_id":"cebpf4jnsgd1na2vs0mg"},{"bike_id":"4027819d-10b8-4aa8-923b-c5dab2e5cf2c","system_id":"levelo_inurba_marseille","lat":43.26214,"lon":5.37439,"is_reserved":false,"is_disabled":false,"rental_uris":{"android":"levelo://app?vid=4027819d-10b8-4aa8-923b-c5dab2e5cf2c","ios":"levelo://app?vid=4027819d-10b8-4aa8-923b-c5dab2e5cf2c"},"vehicle_type_id":"4","last_reported":1741259297,"current_range_meters":17600,"station_id":"ce4bhgp2rcd13ifvqfc0","pricing_plan_id":"cebpf4jnsgd1na2vs0mg"},{"bike_id":"c4f40233-8669-4794-a75a-71b48bb7b403","system_id":"levelo_inurba_marseille","lat":43.2866,"lon":5.36347,"is_reserved":false,"is_disabled":false,"rental_uris":{"android":"levelo://app?vid=c4f40233-8669-4794-a75a-71b48bb7b403","ios":"levelo://app?vid=c4f40233-8669-4794-a75a-71b48bb7b403"},"vehicle_type_id":"4","last_reported":1741259297,"current_range_meters":17600,"station_id":"ce4bhah2rcd13ifvqej0","pricing_plan_id":"cebpf4jnsgd1na2vs0mg"},{"bike_id":"10b74c6d-04bc-43c8-b892-4a1d3e03c2bd","system_id":"levelo_inurba_marseille","lat":43.23069,"lon":5.35493,"is_reserved":false,"is_disabled":false,"rental_uris":{"android":"levelo://app?vid=10b74c6d-04bc-43c8-b892-4a1d3e03c2bd","ios":"levelo://app?vid=10b74c6d-04bc-43c8-b892-4a1d3e03c2bd"},"vehicle_type_id":"4","last_reported":1741259297,"current_range_meters":17600,"station_id":"cpo3342slgdg3j2ifvpg","pricing_plan_id":"cebpf4jnsgd1na2vs0mg"},{"bike_id":"63681128-bc9d-4cde-935e-3b9ffa51bfc4","system_id":"levelo_inurba_marseille","lat":43.26943,"lon":5.40253,"is_reserved":false,"is_disabled":false,"rental_uris":{"android":"levelo://app?vid=63681128-bc9d-4cde-935e-3b9ffa51bfc4","ios":"levelo://app?vid=63681128-bc9d-4cde-935e-3b9ffa51bfc4"},"vehicle_type_id":"4","last_reported":1741259297,"current_range_meters":17600,"station_id":"cjm6bp8fraef2m0cb0m0","pricing_plan_id":"cebpf4jnsgd1na2vs0mg"},{"bike_id":"d1a8a141-0cd5-4e90-9dd3-10c7e664a910","system_id":"levelo_inurba_marseille","lat":43.29628,"lon":5.38101,"is_reserved":false,"is_disabled":false,"rental_uris":{"android":"levelo://app?vid=d1a8a141-0cd5-4e90-9dd3-10c7e664a910","ios":"levelo://app?vid=d1a8a141-0cd5-4e90-9dd3-10c7e664a910"},"vehicle_type_id":"4","last_reported":1741259297,"current_range_meters":17600,"station_id":"ce4bgl12rcd13ifvqbo0","pricing_plan_id":"cebpf4jnsgd1na2vs0mg"},{"bike_id":"cd1863e5-dbcb-46dd-ad2b-31c4f3d86a26","system_id":"levelo_inurba_marseille","lat":43.337444,"lon":5.374475,"is_reserved":false,"is_disabled":false,"rental_uris":{"android":"levelo://app?vid=cd1863e5-dbcb-46dd-ad2b-31c4f3d86a26","ios":"levelo://app?vid=cd1863e5-dbcb-46dd-ad2b-31c4f3d86a26"},"vehicle_type_id":"4","last_reported":1741259297,"current_range_meters":17600,"station_id":"ce4bhp92rcd13ifvqhbg","pricing_plan_id":"cebpf4jnsgd1na2vs0mg"},{"bike_id":"609daf18-976d-4f1b-844b-2f094027a4c8","system_id":"levelo_inurba_marseille","lat":43.28948,"lon":5.36416,"is_reserved":false,"is_disabled":false,"rental_uris":{"android":"levelo://app?vid=609daf18-976d-4f1b-844b-2f094027a4c8","ios":"levelo://app?vid=609daf18-976d-4f1b-844b-2f094027a4c8"},"vehicle_type_id":"4","last_reported":1741259297,"current_range_meters":17600,"station_id":"ce4bhc92rcd13ifvqetg","pricing_plan_id":"cebpf4jnsgd1na2vs0mg"},{"bike_id":"c39e12a3-18ed-4997-92bc-211dc2721ced","system_id":"levelo_inurba_marseille","lat":43.24388,"lon":5.37057,"is_reserved":false,"is_disabled":false,"rental_uris":{"android":"levelo://app?vid=c39e12a3-18ed-4997-92bc-211dc2721ced","ios":"levelo://app?vid=c39e12a3-18ed-4997-92bc-211dc2721ced"},"vehicle_type_id":"4","last_reported":1741259297,"current_range_meters":17600,"station_id":"ce4bhhh2rcd13ifvqfk0","pricing_plan_id":"cebpf4jnsgd1na2vs0mg"},{"bike_id":"e0c8e248-c34f-4d98-8acc-9b35025c7bbc","system_id":"levelo_inurba_marseille","lat":43.28975,"lon":5.37844,"is_reserved":false,"is_disabled":false,"rental_uris":{"android":"levelo://app?vid=e0c8e248-c34f-4d98-8acc-9b35025c7bbc","ios":"levelo://app?vid=e0c8e248-c34f-4d98-8acc-9b35025c7bbc"},"vehicle_type_id":"4","last_reported":1741259297,"current_range_meters":17600,"station_id":"ce4bh9p2rcd13ifvqed0","pricing_plan_id":"cebpf4jnsgd1na2vs0mg"},{"bike_id":"8539877a-9deb-47ef-9258-c2e88ce6eb6a","system_id":"levelo_inurba_marseille","lat":43.31222,"lon":5.3687,"is_reserved":false,"is_disabled":false,"rental_uris":{"android":"levelo://app?vid=8539877a-9deb-47ef-9258-c2e88ce6eb6a","ios":"levelo://app?vid=8539877a-9deb-47ef-9258-c2e88ce6eb6a"},"vehicle_type_id":"4","last_reported":1741259297,"current_range_meters":18000,"station_id":"ce4bgl92rcd13ifvqbq0","pricing_plan_id":"cebpf4jnsgd1na2vs0mg"},{"bike_id":"beb81e84-ebc7-4f83-952c-1ae1ddb2e051","system_id":"levelo_inurba_marseille","lat":43.31221,"lon":5.36848,"is_reserved":false,"is_disabled":false,"rental_uris":{"android":"levelo://app?vid=beb81e84-ebc7-4f83-952c-1ae1ddb2e051","ios":"levelo://app?vid=beb81e84-ebc7-4f83-952c-1ae1ddb2e051"},"vehicle_type_id":"4","last_reported":1741259297,"current_range_meters":18000,"station_id":"ce4bgl92rcd13ifvqbq0","pricing_plan_id":"cebpf4jnsgd1na2vs0mg"},{"bike_id":"334c71a6-75ce-4f76-b882-3e18dc4ad12f","system_id":"levelo_inurba_marseille","lat":43.25577,"lon":5.38238,"is_reserved":false,"is_disabled":false,"rental_uris":{"android":"levelo://app?vid=334c71a6-75ce-4f76-b882-3e18dc4ad12f","ios":"levelo://app?vid=334c71a6-75ce-4f76-b882-3e18dc4ad12f"},"vehicle_type_id":"4","last_reported":1741259297,"current_range_meters":18000,"station_id":"ce4bhih2rcd13ifvqfs0","pricing_plan_id":"cebpf4jnsgd1na2vs0mg"},{"bike_id":"c5617794-499d-4a33-a28d-48264c59cf8c","system_id":"levelo_inurba_marseille","lat":43.29039,"lon":5.4,"is_reserved":false,"is_disabled":false,"rental_uris":{"android":"levelo://app?vid=c5617794-499d-4a33-a28d-48264c59cf8c","ios":"levelo://app?vid=c5617794-499d-4a33-a28d-48264c59cf8c"},"vehicle_type_id":"4","last_reported":1741259297,"current_range_meters":17600,"station_id":"ce4bhdp2rcd13ifvqf20","pricing_plan_id":"cebpf4jnsgd1na2vs0mg"},{"bike_id":"45359214-baa5-4edd-972e-ee03a8f6e6ad","system_id":"levelo_inurba_marseille","lat":43.29003,"lon":5.35605,"is_reserved":false,"is_disabled":false,"rental_uris":{"android":"levelo://app?vid=45359214-baa5-4edd-972e-ee03a8f6e6ad","ios":"levelo://app?vid=45359214-baa5-4edd-972e-ee03a8f6e6ad"},"vehicle_type_id":"4","last_reported":1741259297,"current_range_meters":18000,"station_id":"ce4bhb92rcd13ifvqen0","pricing_plan_id":"cebpf4jnsgd1na2vs0mg"},{"bike_id":"ce6d5b58-3d38-4b89-93f8-1f30e881f3ce","system_id":"levelo_inurba_marseille","lat":43.28401,"lon":5.375,"is_reserved":false,"is_disabled":false,"rental_uris":{"android":"levelo://app?vid=ce6d5b58-3d38-4b89-93f8-1f30e881f3ce","ios":"levelo://app?vid=ce6d5b58-3d38-4b89-93f8-1f30e881f3ce"},"vehicle_type_id":"4","last_reported":1741259297,"current_range_meters":18000,"station_id":"ce4bh412rcd13ifvqds0","pricing_plan_id":"cebpf4jnsgd1na2vs0mg"},{"bike_id":"98c1dba0-a5ae-4c3d-9368-039209b928be","system_id":"levelo_inurba_marseille","lat":43.24074,"lon":5.37759,"is_reserved":false,"is_disabled":false,"rental_uris":{"android":"levelo://app?vid=98c1dba0-a5ae-4c3d-9368-039209b928be","ios":"levelo://app?vid=98c1dba0-a5ae-4c3d-9368-039209b928be"},"vehicle_type_id":"4","last_reported":1741259297,"current_range_meters":18000,"station_id":"ce4bhnp2rcd13ifvqgvg","pricing_plan_id":"cebpf4jnsgd1na2vs0mg"},{"bike_id":"eb6c5f42-7fd2-4060-9b77-248a238e461d","system_id":"levelo_inurba_marseille","lat":43.30146,"lon":5.38084,"is_reserved":false,"is_disabled":false,"rental_uris":{"android":"levelo://app?vid=eb6c5f42-7fd2-4060-9b77-248a238e461d","ios":"levelo://app?vid=eb6c5f42-7fd2-4060-9b77-248a238e461d"},"vehicle_type_id":"4","last_reported":1741259297,"current_range_meters":18000,"station_id":"ce4bgjp2rcd13ifvqbh0","pricing_plan_id":"cebpf4jnsgd1na2vs0mg"},{"bike_id":"730e0e8f-a3d7-42ec-811a-f9704817509a","system_id":"levelo_inurba_marseille","lat":43.29413,"lon":5.38633,"is_reserved":false,"is_disabled":false,"rental_uris":{"android":"levelo://app?vid=730e0e8f-a3d7-42ec-811a-f9704817509a","ios":"levelo://app?vid=730e0e8f-a3d7-42ec-811a-f9704817509a"},"vehicle_type_id":"4","last_reported":1741259297,"current_range_meters":18000,"station_id":"ce4bh2h2rcd13ifvqdh0","pricing_plan_id":"cebpf4jnsgd1na2vs0mg"},{"bike_id":"0128255d-f2f8-4ebc-916d-72b2e0b360dd","system_id":"levelo_inurba_marseille","lat":43.28134,"lon":5.42594,"is_reserved":false,"is_disabled":false,"rental_uris":{"android":"levelo://app?vid=0128255d-f2f8-4ebc-916d-72b2e0b360dd","ios":"levelo://app?vid=0128255d-f2f8-4ebc-916d-72b2e0b360dd"},"vehicle_type_id":"4","last_reported":1741259297,"current_range_meters":18000,"station_id":"ce4bhnh2rcd13ifvqgug","pricing_plan_id":"cebpf4jnsgd1na2vs0mg"},{"bike_id":"8d203f57-3343-4bc0-8a9c-79d1c1be1625","system_id":"levelo_inurba_marseille","lat":43.268057,"lon":5.402652,"is_reserved":false,"is_disabled":false,"rental_uris":{"android":"levelo://app?vid=8d203f57-3343-4bc0-8a9c-79d1c1be1625","ios":"levelo://app?vid=8d203f57-3343-4bc0-8a9c-79d1c1be1625"},"vehicle_type_id":"4","last_reported":1741259297,"current_range_meters":18000,"station_id":"ce501612rcd8frsf0b60","pricing_plan_id":"cebpf4jnsgd1na2vs0mg"},{"bike_id":"32a96129-260b-4573-bc06-3dfb8be4601d","system_id":"levelo_inurba_marseille","lat":43.27063,"lon":5.40265,"is_reserved":false,"is_disabled":false,"rental_uris":{"android":"levelo://app?vid=32a96129-260b-4573-bc06-3dfb8be4601d","ios":"levelo://app?vid=32a96129-260b-4573-bc06-3dfb8be4601d"},"vehicle_type_id":"4","last_reported":1741259297,"current_range_meters":18000,"station_id":"ce4bhk92rcd13ifvqgc0","pricing_plan_id":"cebpf4jnsgd1na2vs0mg"},{"bike_id":"df154df8-0efa-402a-b406-9bdccb56e575","system_id":"levelo_inurba_marseille","lat":43.30144,"lon":5.37417,"is_reserved":false,"is_disabled":false,"rental_uris":{"android":"levelo://app?vid=df154df8-0efa-402a-b406-9bdccb56e575","ios":"levelo://app?vid=df154df8-0efa-402a-b406-9bdccb56e575"},"vehicle_type_id":"4","last_reported":1741259297,"current_range_meters":18000,"station_id":"ce4bgs92rcd13ifvqcc0","pricing_plan_id":"cebpf4jnsgd1na2vs0mg"},{"bike_id":"d05bbe1f-1f41-4ea3-bacf-ce471b09537c","system_id":"levelo_inurba_marseille","lat":43.30133,"lon":5.37417,"is_reserved":false,"is_disabled":false,"rental_uris":{"android":"levelo://app?vid=d05bbe1f-1f41-4ea3-bacf-ce471b09537c","ios":"levelo://app?vid=d05bbe1f-1f41-4ea3-bacf-ce471b09537c"},"vehicle_type_id":"4","last_reported":1741259297,"current_range_meters":18800,"station_id":"ce4bgs92rcd13ifvqcc0","pricing_plan_id":"cebpf4jnsgd1na2vs0mg"},{"bike_id":"7a41b180-4725-4802-aaba-9a8f63b434c7","system_id":"levelo_inurba_marseille","lat":43.29603,"lon":5.38102,"is_reserved":false,"is_disabled":false,"rental_uris":{"android":"levelo://app?vid=7a41b180-4725-4802-aaba-9a8f63b434c7","ios":"levelo://app?vid=7a41b180-4725-4802-aaba-9a8f63b434c7"},"vehicle_type_id":"4","last_reported":1741259297,"current_range_meters":18800,"station_id":"ce4bgl12rcd13ifvqbo0","pricing_plan_id":"cebpf4jnsgd1na2vs0mg"},{"bike_id":"554a57ba-490a-4d04-b60e-2874964dddb0","system_id":"levelo_inurba_marseille","lat":43.29306,"lon":5.37162,"is_reserved":false,"is_disabled":false,"rental_uris":{"android":"levelo://app?vid=554a57ba-490a-4d04-b60e-2874964dddb0","ios":"levelo://app?vid=554a57ba-490a-4d04-b60e-2874964dddb0"},"vehicle_type_id":"4","last_reported":1741259297,"current_range_meters":18800,"station_id":"ce4bgh92rcd13ifvqb40","pricing_plan_id":"cebpf4jnsgd1na2vs0mg"},{"bike_id":"3a8de657-33cc-4c30-a379-789772d0f8cb","system_id":"levelo_inurba_marseille","lat":43.32121,"lon":5.36763,"is_reserved":false,"is_disabled":false,"rental_uris":{"android":"levelo://app?vid=3a8de657-33cc-4c30-a379-789772d0f8cb","ios":"levelo://app?vid=3a8de657-33cc-4c30-a379-789772d0f8cb"},"vehicle_type_id":"4","last_reported":1741259297,"current_range_meters":18800,"station_id":"ce4bhrh2rcd13ifvqhug","pricing_plan_id":"cebpf4jnsgd1na2vs0mg"},{"bike_id":"6ae77951-a909-4dfa-a933-35324bca41b7","system_id":"levelo_inurba_marseille","lat":43.25008,"lon":5.38908,"is_reserved":false,"is_disabled":false,"rental_uris":{"android":"levelo://app?vid=6ae77951-a909-4dfa-a933-35324bca41b7","ios":"levelo://app?vid=6ae77951-a909-4dfa-a933-35324bca41b7"},"vehicle_type_id":"4","last_reported":1741259297,"current_range_meters":18800,"station_id":"ce4bhgp2rcd13ifvqfd0","pricing_plan_id":"cebpf4jnsgd1na2vs0mg"},{"bike_id":"90a27eb0-12bd-4952-b10f-eb7281cac83e","system_id":"levelo_inurba_marseille","lat":43.29088,"lon":5.38142,"is_reserved":false,"is_disabled":false,"rental_uris":{"android":"levelo://app?vid=90a27eb0-12bd-4952-b10f-eb7281cac83e","ios":"levelo://app?vid=90a27eb0-12bd-4952-b10f-eb7281cac83e"},"vehicle_type_id":"4","last_reported":1741259297,"current_range_meters":18800,"station_id":"ce4bh512rcd13ifvqe2g","pricing_plan_id":"cebpf4jnsgd1na2vs0mg"},{"bike_id":"359eeabe-4281-4cff-b6d7-34dcaccfb2f9","system_id":"levelo_inurba_marseille","lat":43.27492,"lon":5.42468,"is_reserved":false,"is_disabled":false,"rental_uris":{"android":"levelo://app?vid=359eeabe-4281-4cff-b6d7-34dcaccfb2f9","ios":"levelo://app?vid=359eeabe-4281-4cff-b6d7-34dcaccfb2f9"},"vehicle_type_id":"4","last_reported":1741259297,"current_range_meters":18800,"station_id":"ce4bhn92rcd13ifvqgrg","pricing_plan_id":"cebpf4jnsgd1na2vs0mg"},{"bike_id":"deba5ad5-ffe7-414e-a2ff-5c9aadb14df1","system_id":"levelo_inurba_marseille","lat":43.30144,"lon":5.37401,"is_reserved":false,"is_disabled":false,"rental_uris":{"android":"levelo://app?vid=deba5ad5-ffe7-414e-a2ff-5c9aadb14df1","ios":"levelo://app?vid=deba5ad5-ffe7-414e-a2ff-5c9aadb14df1"},"vehicle_type_id":"4","last_reported":1741259297,"current_range_meters":18800,"station_id":"ce4bgs92rcd13ifvqcc0","pricing_plan_id":"cebpf4jnsgd1na2vs0mg"},{"bike_id":"0fc7b6fe-0ba5-49d6-8124-6e0f28c17d2c","system_id":"levelo_inurba_marseille","lat":43.31347,"lon":5.397,"is_reserved":false,"is_disabled":false,"rental_uris":{"android":"levelo://app?vid=0fc7b6fe-0ba5-49d6-8124-6e0f28c17d2c","ios":"levelo://app?vid=0fc7b6fe-0ba5-49d6-8124-6e0f28c17d2c"},"vehicle_type_id":"4","last_reported":1741259297,"current_range_meters":18800,"station_id":"ce4bgvp2rcd13ifvqcu0","pricing_plan_id":"cebpf4jnsgd1na2vs0mg"},{"bike_id":"107606d2-61c2-49a1-8cbd-023ebbc09511","system_id":"levelo_inurba_marseille","lat":43.27942,"lon":5.41049,"is_reserved":false,"is_disabled":false,"rental_uris":{"android":"levelo://app?vid=107606d2-61c2-49a1-8cbd-023ebbc09511","ios":"levelo://app?vid=107606d2-61c2-49a1-8cbd-023ebbc09511"},"vehicle_type_id":"4","last_reported":1741259297,"current_range_meters":18800,"station_id":"ce4bhnp2rcd13ifvqh0g","pricing_plan_id":"cebpf4jnsgd1na2vs0mg"},{"bike_id":"3c94b931-3649-4c69-bf1c-99f8fd15e284","system_id":"levelo_inurba_marseille","lat":43.32478,"lon":5.36628,"is_reserved":false,"is_disabled":false,"rental_uris":{"android":"levelo://app?vid=3c94b931-3649-4c69-bf1c-99f8fd15e284","ios":"levelo://app?vid=3c94b931-3649-4c69-bf1c-99f8fd15e284"},"vehicle_type_id":"4","last_reported":1741259297,"current_range_meters":19200,"station_id":"ce4bhs12rcd13ifvqhvg","pricing_plan_id":"cebpf4jnsgd1na2vs0mg"},{"bike_id":"a4b4f74b-675b-4b6f-bf46-46174c88524e","system_id":"levelo_inurba_marseille","lat":43.29922,"lon":5.37488,"is_reserved":false,"is_disabled":false,"rental_uris":{"android":"levelo://app?vid=a4b4f74b-675b-4b6f-bf46-46174c88524e","ios":"levelo://app?vid=a4b4f74b-675b-4b6f-bf46-46174c88524e"},"vehicle_type_id":"4","last_reported":1741259297,"current_range_meters":18800,"station_id":"ce4bgjh2rcd13ifvqbg0","pricing_plan_id":"cebpf4jnsgd1na2vs0mg"},{"bike_id":"87187911-4aa7-491c-9101-f22b79e201e6","system_id":"levelo_inurba_marseille","lat":43.30147,"lon":5.38078,"is_reserved":false,"is_disabled":false,"rental_uris":{"android":"levelo://app?vid=87187911-4aa7-491c-9101-f22b79e201e6","ios":"levelo://app?vid=87187911-4aa7-491c-9101-f22b79e201e6"},"vehicle_type_id":"4","last_reported":1741259297,"current_range_meters":19200,"station_id":"ce4bgjp2rcd13ifvqbh0","pricing_plan_id":"cebpf4jnsgd1na2vs0mg"},{"bike_id":"36892414-7253-41db-82a9-f7666b440061","system_id":"levelo_inurba_marseille","lat":43.26573,"lon":5.38997,"is_reserved":false,"is_disabled":false,"rental_uris":{"android":"levelo://app?vid=36892414-7253-41db-82a9-f7666b440061","ios":"levelo://app?vid=36892414-7253-41db-82a9-f7666b440061"},"vehicle_type_id":"4","last_reported":1741259297,"current_range_meters":19200,"station_id":"ce4bhe12rcd13ifvqf30","pricing_plan_id":"cebpf4jnsgd1na2vs0mg"},{"bike_id":"4b7964f7-0e0b-49b5-956e-434702d9d89b","system_id":"levelo_inurba_marseille","lat":43.23157,"lon":5.43731,"is_reserved":false,"is_disabled":false,"rental_uris":{"android":"levelo://app?vid=4b7964f7-0e0b-49b5-956e-434702d9d89b","ios":"levelo://app?vid=4b7964f7-0e0b-49b5-956e-434702d9d89b"},"vehicle_type_id":"4","last_reported":1741259297,"current_range_meters":19200,"station_id":"ce4bhmp2rcd13ifvqgog","pricing_plan_id":"cebpf4jnsgd1na2vs0mg"},{"bike_id":"10a6cbd5-685c-4a0a-89f1-f1fea5af418b","system_id":"levelo_inurba_marseille","lat":43.3043,"lon":5.39749,"is_reserved":false,"is_disabled":false,"rental_uris":{"android":"levelo://app?vid=10a6cbd5-685c-4a0a-89f1-f1fea5af418b","ios":"levelo://app?vid=10a6cbd5-685c-4a0a-89f1-f1fea5af418b"},"vehicle_type_id":"4","last_reported":1741259297,"current_range_meters":19200,"station_id":"ce4bh092rcd13ifvqd20","pricing_plan_id":"cebpf4jnsgd1na2vs0mg"},{"bike_id":"43d55693-be44-4f7b-870d-2b17a576a397","system_id":"levelo_inurba_marseille","lat":43.26211,"lon":5.37445,"is_reserved":false,"is_disabled":false,"rental_uris":{"android":"levelo://app?vid=43d55693-be44-4f7b-870d-2b17a576a397","ios":"levelo://app?vid=43d55693-be44-4f7b-870d-2b17a576a397"},"vehicle_type_id":"4","last_reported":1741259297,"current_range_meters":19200,"station_id":"ce4bhgp2rcd13ifvqfc0","pricing_plan_id":"cebpf4jnsgd1na2vs0mg"},{"bike_id":"cc8caa2f-2a75-4aa0-9014-72615b7bb652","system_id":"levelo_inurba_marseille","lat":43.31459,"lon":5.38553,"is_reserved":false,"is_disabled":false,"rental_uris":{"android":"levelo://app?vid=cc8caa2f-2a75-4aa0-9014-72615b7bb652","ios":"levelo://app?vid=cc8caa2f-2a75-4aa0-9014-72615b7bb652"},"vehicle_type_id":"4","last_reported":1741259297,"current_range_meters":19600,"station_id":"","pricing_plan_id":"cebpf4jnsgd1na2vs0mg"},{"bike_id":"9bdc942b-2bc5-4fcc-97c9-eb88749a046f","system_id":"levelo_inurba_marseille","lat":43.25944,"lon":5.40898,"is_reserved":false,"is_disabled":false,"rental_uris":{"android":"levelo://app?vid=9bdc942b-2bc5-4fcc-97c9-eb88749a046f","ios":"levelo://app?vid=9bdc942b-2bc5-4fcc-97c9-eb88749a046f"},"vehicle_type_id":"4","last_reported":1741259297,"current_range_meters":19600,"station_id":"ce4bhm92rcd13ifvqglg","pricing_plan_id":"cebpf4jnsgd1na2vs0mg"},{"bike_id":"78d5652e-a698-4869-b04d-b82cdc689097","system_id":"levelo_inurba_marseille","lat":43.29022,"lon":5.38626,"is_reserved":false,"is_disabled":false,"rental_uris":{"android":"levelo://app?vid=78d5652e-a698-4869-b04d-b82cdc689097","ios":"levelo://app?vid=78d5652e-a698-4869-b04d-b82cdc689097"},"vehicle_type_id":"4","last_reported":1741259297,"current_range_meters":19600,"station_id":"ce4bh4p2rcd13ifvqe0g","pricing_plan_id":"cebpf4jnsgd1na2vs0mg"},{"bike_id":"2dda80dd-7298-4e38-8a9d-53e43562daef","system_id":"levelo_inurba_marseille","lat":43.30442,"lon":5.39739,"is_reserved":false,"is_disabled":true,"rental_uris":{"android":"levelo://app?vid=2dda80dd-7298-4e38-8a9d-53e43562daef","ios":"levelo://app?vid=2dda80dd-7298-4e38-8a9d-53e43562daef"},"vehicle_type_id":"4","last_reported":1741259297,"current_range_meters":19600,"station_id":"ce4bh092rcd13ifvqd20","pricing_plan_id":"cebpf4jnsgd1na2vs0mg"},{"bike_id":"bc42e0f0-17b2-41d2-a52c-c1a07c61d5a3","system_id":"levelo_inurba_marseille","lat":43.30166,"lon":5.37408,"is_reserved":false,"is_disabled":false,"rental_uris":{"android":"levelo://app?vid=bc42e0f0-17b2-41d2-a52c-c1a07c61d5a3","ios":"levelo://app?vid=bc42e0f0-17b2-41d2-a52c-c1a07c61d5a3"},"vehicle_type_id":"4","last_reported":1741259297,"current_range_meters":19600,"station_id":"ce4bgs92rcd13ifvqcc0","pricing_plan_id":"cebpf4jnsgd1na2vs0mg"},{"bike_id":"4c74eed8-4932-4da1-bb85-bbc9a1ee7df1","system_id":"levelo_inurba_marseille","lat":43.282636,"lon":5.379024,"is_reserved":false,"is_disabled":false,"rental_uris":{"android":"levelo://app?vid=4c74eed8-4932-4da1-bb85-bbc9a1ee7df1","ios":"levelo://app?vid=4c74eed8-4932-4da1-bb85-bbc9a1ee7df1"},"vehicle_type_id":"4","last_reported":1741259297,"current_range_meters":19600,"station_id":"ce4bh3h2rcd13ifvqdn0","pricing_plan_id":"cebpf4jnsgd1na2vs0mg"},{"bike_id":"9587d161-57f9-4907-bb95-16d14ffdb35c","system_id":"levelo_inurba_marseille","lat":43.27057,"lon":5.40289,"is_reserved":false,"is_disabled":false,"rental_uris":{"android":"levelo://app?vid=9587d161-57f9-4907-bb95-16d14ffdb35c","ios":"levelo://app?vid=9587d161-57f9-4907-bb95-16d14ffdb35c"},"vehicle_type_id":"4","last_reported":1741259297,"current_range_meters":19600,"station_id":"ce4bhk92rcd13ifvqgc0","pricing_plan_id":"cebpf4jnsgd1na2vs0mg"},{"bike_id":"813ba96d-d171-40d5-b5ba-2c65e66b4161","system_id":"levelo_inurba_marseille","lat":43.291995,"lon":5.39325,"is_reserved":false,"is_disabled":true,"rental_uris":{"android":"levelo://app?vid=813ba96d-d171-40d5-b5ba-2c65e66b4161","ios":"levelo://app?vid=813ba96d-d171-40d5-b5ba-2c65e66b4161"},"vehicle_type_id":"4","last_reported":1741259297,"current_range_meters":19600,"station_id":"ce4bho92rcd13ifvqh3g","pricing_plan_id":"cebpf4jnsgd1na2vs0mg"},{"bike_id":"e11deeae-95a7-41a4-b958-2ca112a0826c","system_id":"levelo_inurba_marseille","lat":43.25009,"lon":5.38912,"is_reserved":false,"is_disabled":false,"rental_uris":{"android":"levelo://app?vid=e11deeae-95a7-41a4-b958-2ca112a0826c","ios":"levelo://app?vid=e11deeae-95a7-41a4-b958-2ca112a0826c"},"vehicle_type_id":"4","last_reported":1741259297,"current_range_meters":19600,"station_id":"ce4bhgp2rcd13ifvqfd0","pricing_plan_id":"cebpf4jnsgd1na2vs0mg"},