{"last_updated":1760641571,"ttl":60,"version":"2.2","data":{"bikes":[{"bike_id":"1b78d50e-e95b-419e-a5ec-c3093b7e141a","system_id":"levelo_inurba_marseille","lat":43.337444,"lon":5.374475,"is_reserved":false,"is_disabled":true,"rental_uris":{"android":"levelo://app?vid=1b78d50e-e95b-419e-a5ec-c3093b7e141a","ios":"levelo://app?vid=1b78d50e-e95b-419e-a5ec-c3093b7e141a"},"vehicle_type_id":"4","last_reported":1760641571,"current_range_meters":0,"station_id":"","pricing_plan_id":"cebpf4jnsgd1na2vs0mg"},{"bike_id":"84c22208-7ddb-49b8-be8e-b34b5bdf05b2","system_id":"levelo_inurba_marseille","lat":43.33771,"lon":5.37424,"is_reserved":false,"is_disabled":true,"rental_uris":{"android":"levelo://app?vid=84c22208-7ddb-49b8-be8e-b34b5bdf05b2","ios":"levelo://app?vid=84c22208-7ddb-49b8-be8e-b34b5bdf05b2"},"vehicle_type_id":"4","last_reported":1760641571,"current_range_meters":0,"station_id":"","pricing_plan_id":"cebpf4jnsgd1na2vs0mg"},{"bike_id":"da90025a-3512-4db8-9c5c-f808888b7e59","system_id":"levelo_inurba_marseille","lat":43.33751,"lon":5.37456,"is_reserved":false,"is_disabled":true,"rental_uris":{"android":"levelo://app?vid=da90025a-3512-4db8-9c5c-f808888b7e59","ios":"levelo://app?vid=da90025a-3512-4db8-9c5c-f808888b7e59"},"vehicle_type_id":"4","last_reported":1760641571,"current_range_meters":0,"station_id":"","pricing_plan_id":"cebpf4jnsgd1na2vs0mg"},{"bike_id":"783b0905-e73e-4043-b791-e38f037df91f","system_id":"levelo_inurba_marseille","lat":43.33747,"lon":5.37463,"is_reserved":false,"is_disabled":true,"rental_uris":{"android":"levelo://app?vid=783b0905-e73e-4043-b791-e38f037df91f","ios":"levelo://app?vid=783b0905-e73e-4043-b791-e38f037df91f"},"vehicle_type_id":"1","last_reported":1760641571,"current_range_meters":0,"station_id":"","pricing_plan_id":"cebpf4jnsgd1na2vs0mg"},{"bike_id":"8d89ee17-9f9e-4689-8ca8-8bd05eb5782d","system_id":"levelo_inurba_marseille","lat":43.33737,"lon":5.37465,"is_reserved":false,"is_disabled":true,"rental_uris":{"android":"levelo://app?vid=8d89ee17-9f9e-4689-8ca8-8bd05eb5782d","ios":"levelo://app?vid=8d89ee17-9f9e-4689-8ca8-8bd05eb5782d"},"vehicle_type_id":"4","last_reported":1760641571,"current_range_meters":0,"station_id":"","pricing_plan_id":"cebpf4jnsgd1na2vs0mg"},{"bike_id":"0ab0967e-1041-44e0-b599-5f9a08360f34","system_id":"levelo_inurba_marseille","lat":43.33755,"lon":5.37468,"is_reserved":false,"is_disabled":true,"rental_uris":{"android":"levelo://app?vid=0ab0967e-1041-44e0-b599-5f9a08360f34","ios":"levelo://app?vid=0ab0967e-1041-44e0-b599-5f9a08360f34"},"vehicle_type_id":"4","last_reported":1760641571,"current_range_meters":0,"station_id":"","pricing_plan_id":"cebpf4jnsgd1na2vs0mg"},{"bike_id":"44c5d8b8-3b93-4ee7-95d3-747bcabcce2c","system_id":"levelo_inurba_marseille","lat":43.337444,"lon":5.374475,"is_reserved":false,"is_disabled":true,"rental_uris":{"android":"levelo://app?vid=44c5d8b8-3b93-4ee7-95d3-747bcabcce2c","ios":"levelo://app?vid=44c5d8b8-3b93-4ee7-95d3-747bcabcce2c"},"vehicle_type_id":"4","last_reported":1760641571,"current_range_meters":0,"station_id":"","pricing_plan_id":"cebpf4jnsgd1na2vs0mg"},{"bike_id":"af233c89-ff22-4fc0-a87b-2353168c05dd","system_id":"levelo_inurba_marseille","lat":43.27413,"lon":5.41169,"is_reserved":false,"is_disabled":true,"rental_uris":{"android":"levelo://app?vid=af233c89-ff22-4fc0-a87b-2353168c05dd","ios":"levelo://app?vid=af233c89-ff22-4fc0-a87b-2353168c05dd"},"vehicle_type_id":"4","last_reported":1760641571,"current_range_meters":0,"station_id":"","pricing_plan_id":"cebpf4jnsgd1na2vs0mg"},{"bike_id":"e7973983-e409-4d4d-9d5b-ce0cf838629a","system_id":"levelo_inurba_marseille","lat":43.284972,"lon":5.384354,"is_reserved":false,"is_disabled":true,"rental_uris":{"android":"levelo://app?vid=e7973983-e409-4d4d-9d5b-ce0cf838629a","ios":"levelo://app?vid=e7973983-e409-4d4d-9d5b-ce0cf838629a"},"vehicle_type_id":"4","last_reported":1760641571,"current_range_meters":0,"station_id":"","pricing_plan_id":"cebpf4jnsgd1na2vs0mg"},{"bike_id":"e174ec7a-3d90-4146-9085-b8a14d5ce575","system_id":"levelo_inurba_marseille","lat":43.24988,"lon":5.40158,"is_reserved":false,"is_disabled":true,"rental_uris":{"android":"levelo://app?vid=e174ec7a-3d90-4146-9085-b8a14d5ce575","ios":"levelo://app?vid=e174ec7a-3d90-4146-9085-b8a14d5ce575"},"vehicle_type_id":"4","last_reported":1760641571,"current_range_meters":0,"station_id":"","pricing_plan_id":"cebpf4jnsgd1na2vs0mg"},{"bike_id":"16eed657-9695-4baa-b480-c274f8e9018f","system_id":"levelo_inurba_marseille","lat":43.26842,"lon":5.3853,"is_reserved":false,"is_disabled":true,"rental_uris":{"android":"levelo://app?vid=16eed657-9695-4baa-b480-c274f8e9018f","ios":"levelo://app?vid=16eed657-9695-4baa-b480-c274f8e9018f"},"vehicle_type_id":"4","last_reported":1760641571,"current_range_meters":0,"station_id":"","pricing_plan_id":"cebpf4jnsgd1na2vs0mg"},{"bike_id":"83560911-40e0-4475-b727-bda6aeb6ed60","system_id":"levelo_inurba_marseille","lat":43.225331,"lon":5.348328,"is_reserved":false,"is_disabled":true,"rental_uris":{"android":"levelo://app?vid=83560911-40e0-4475-b727-bda6aeb6ed60","ios":"levelo://app?vid=83560911-40e0-4475-b727-bda6aeb6ed60"},"vehicle_type_id":"4","last_reported":1760641571,"current_range_meters":0,"station_id":"","pricing_plan_id":"cebpf4jnsgd1na2vs0mg"},{"bike_id":"3327e998-6a1b-431b-a68a-176444eaf7d0","system_id":"levelo_inurba_marseille","lat":43.29662,"lon":5.36757,"is_reserved":false,"is_disabled":true,"rental_uris":{"android":"levelo://app?vid=3327e998-6a1b-431b-a68a-176444eaf7d0","ios":"levelo://app?vid=3327e998-6a1b-431b-a68a-176444eaf7d0"},"vehicle_type_id":"4","last_reported":1760641571,"current_range_meters":0,"station_id":"","pricing_plan_id":"cebpf4jnsgd1na2vs0mg"},{"bike_id":"4c49ff48-f815-4dd0-8fd4-375b27e08d94","system_id":"levelo_inurba_marseille","lat":43.291488,"lon":5.408176,"is_reserved":false,"is_disabled":true,"rental_uris":{"android":"levelo://app?vid=4c49ff48-f815-4dd0-8fd4-375b27e08d94","ios":"levelo://app?vid=4c49ff48-f815-4dd0-8fd4-375b27e08d94"},"vehicle_type_id":"4","last_reported":1760641571,"current_range_meters":0,"station_id":"","pricing_plan_id":"cebpf4jnsgd1na2vs0mg"},{"bike_id":"6776cb03-734b-4d27-9345-e3fc5cb1d40c","system_id":"levelo_inurba_marseille","lat":43.26343,"lon":5.40102,"is_reserved":false,"is_disabled":true,"rental_uris":{"android":"levelo://app?vid=6776cb03-734b-4d27-9345-e3fc5cb1d40c","ios":"levelo://app?vid=6776cb03-734b-4d27-9345-e3fc5cb1d40c"},"vehicle_type_id":"4","last_reported":1760641571,"current_range_meters":0,"station_id":"","pricing_plan_id":"cebpf4jnsgd1na2vs0mg"},{"bike_id":"3804a29c-a782-4c50-a410-9157f2094310","system_id":"levelo_inurba_marseille","lat":43.274411,"lon":5.384862,"is_reserved":false,"is_disabled":true,"rental_uris":{"android":"levelo://app?vid=3804a29c-a782-4c50-a410-9157f2094310","ios":"levelo://app?vid=3804a29c-a782-4c50-a410-9157f2094310"},"vehicle_type_id":"4","last_reported":1760641571,"current_range_meters":0,"station_id":"","pricing_plan_id":"cebpf4jnsgd1na2vs0mg"},{"bike_id":"c5939fc8-9930-4946-980f-efc9f762c9ae","system_id":"levelo_inurba_marseille","lat":43.25168,"lon":5.37555,"is_reserved":false,"is_disabled":true,"rental_uris":{"android":"levelo://app?vid=c5939fc8-9930-4946-980f-efc9f762c9ae","ios":"levelo://app?vid=c5939fc8-9930-4946-980f-efc9f762c9ae"},"vehicle_type_id":"4","last_reported":1760641571,"current_range_meters":0,"station_id":"","pricing_plan_id":"cebpf4jnsgd1na2vs0mg"},{"bike_id":"4b0f356a-7a97-4f4e-85ee-bd2469184852","system_id":"levelo_inurba_marseille","lat":43.279408,"lon":5.41523,"is_reserved":false,"is_disabled":true,"rental_uris":{"android":"levelo://app?vid=4b0f356a-7a97-4f4e-85ee-bd2469184852","ios":"levelo://app?vid=4b0f356a-7a97-4f4e-85ee-bd2469184852"},"vehicle_type_id":"4","last_reported":1760641571,"current_range_meters":0,"station_id":"","pricing_plan_id":"cebpf4jnsgd1na2vs0mg"},{"bike_id":"124077fa-3fea-4e89-99ac-8687f87c4c44","system_id":"levelo_inurba_marseille","lat":43.2954,"lon":5.383068,"is_reserved":false,"is_disabled":true,"rental_uris":{"android":"levelo://app?vid=124077fa-3fea-4e89-99ac-8687f87c4c44","ios":"levelo://app?vid=124077fa-3fea-4e89-99ac-8687f87c4c44"},"vehicle_type_id":"4","last_reported":1760641571,"current_range_meters":0,"station_id":"","pricing_plan_id":"cebpf4jnsgd1na2vs0mg"},{"bike_id":"5cb07cb5-0b34-4b60-a06d-6b4732ac8358","system_id":"levelo_inurba_marseille","lat":43.27221,"lon":5.39283,"is_reserved":false,"is_disabled":true,"rental_uris":{"android":"levelo://app?vid=5cb07cb5-0b34-4b60-a06d-6b4732ac8358","ios":"levelo://app?vid=5cb07cb5-0b34-4b60-a06d-6b4732ac8358"},"vehicle_type_id":"4","last_reported":1760641571,"current_range_meters":0,"station_id":"","pricing_plan_id":"cebpf4jnsgd1na2vs0mg"},{"bike_id":"14b2c2ae-b21d-4422-a602-7ad9cf908478","system_id":"levelo_inurba_marseille","lat":43.279386,"lon":5.412283,"is_reserved":false,"is_disabled":true,"rental_uris":{"android":"levelo://app?vid=14b2c2ae-b21d-4422-a602-7ad9cf908478","ios":"levelo://app?vid=14b2c2ae-b21d-4422-a602-7ad9cf908478"},"vehicle_type_id":"4","last_reported":1760641571,"current_range_meters":0,"station_id":"","pricing_plan_id":"cebpf4jnsgd1na2vs0mg"},{"bike_id":"964b118d-41da-48ff-a6df-3651a54d2ac0","system_id":"levelo_inurba_marseille","lat":43.337581,"lon":5.374627,"is_reserved":false,"is_disabled":true,"rental_uris":{"android":"levelo://app?vid=964b118d-41da-48ff-a6df-3651a54d2ac0","ios":"levelo://app?vid=964b118d-41da-48ff-a6df-3651a54d2ac0"},"vehicle_type_id":"4","last_reported":1760641571,"current_range_meters":0,"station_id":"","pricing_plan_id":"cebpf4jnsgd1na2vs0mg"},{"bike_id":"9b2fe4aa-88c5-4b16-a8e4-053027ea7bbc","system_id":"levelo_inurba_marseille","lat":43.29609,"lon":5.38095,"is_reserved":false,"is_disabled":true,"rental_uris":{"android":"levelo://app?vid=9b2fe4aa-88c5-4b16-a8e4-053027ea7bbc","ios":"levelo://app?vid=9b2fe4aa-88c5-4b16-a8e4-053027ea7bbc"},"vehicle_type_id":"4","last_reported":1760641571,"current_range_meters":0,"station_id":"ce4bgl12rcd13ifvqbo0","pricing_plan_id":"cebpf4jnsgd1na2vs0mg"},{"bike_id":"13795e40-ba46-438c-a25f-1b5bade251a4","system_id":"levelo_inurba_marseille","lat":43.29624,"lon":5.37163,"is_reserved":false,"is_disabled":true,"rental_uris":{"android":"levelo://app?vid=13795e40-ba46-438c-a25f-1b5bade251a4","ios":"levelo://app?vid=13795e40-ba46-438c-a25f-1b5bade251a4"},"vehicle_type_id":"4","last_reported":1760641571,"current_range_meters":0,"station_id":"ce4bgnh2rcd13ifvqc0g","pricing_plan_id":"cebpf4jnsgd1na2vs0mg"},{"bike_id":"9284a50b-d111-40b6-8742-807643127c55","system_id":"levelo_inurba_marseille","lat":43.30316,"lon":5.36898,"is_reserved":false,"is_disabled":true,"rental_uris":{"android":"levelo://app?vid=9284a50b-d111-40b6-8742-807643127c55","ios":"levelo://app?vid=9284a50b-d111-40b6-8742-807643127c55"},"vehicle_type_id":"4","last_reported":1760641571,"current_range_meters":0,"station_id":"ce4bgqh2rcd13ifvqc5g","pricing_plan_id":"cebpf4jnsgd1na2vs0mg"},{"bike_id":"03dfb43c-3bf6-49da-873a-49e4907c5661","system_id":"levelo_inurba_marseille","lat":43.285797,"lon":5.384104,"is_reserved":false,"is_disabled":true,"rental_uris":{"android":"levelo://app?vid=03dfb43c-3bf6-49da-873a-49e4907c5661","ios":"levelo://app?vid=03dfb43c-3bf6-49da-873a-49e4907c5661"},"vehicle_type_id":"4","last_reported":1760641571,"current_range_meters":0,"station_id":"ce4bhb12rcd13ifvqel0","pricing_plan_id":"cebpf4jnsgd1na2vs0mg"},{"bike_id":"32781f62-932c-4412-99c5-5e0d9ac68fe9","system_id":"levelo_inurba_marseille","lat":43.2737,"lon":5.36269,"is_reserved":false,"is_disabled":true,"rental_uris":{"android":"levelo://app?vid=32781f62-932c-4412-99c5-5e0d9ac68fe9","ios":"levelo://app?vid=32781f62-932c-4412-99c5-5e0d9ac68fe9"},"vehicle_type_id":"4","last_reported":1760641571,"current_range_meters":0,"station_id":"ce4bhbh2rcd13ifvqeo0","pricing_plan_id":"cebpf4jnsgd1na2vs0mg"},{"bike_id":"b3c08bff-bd95-4471-b927-c79b79fc0579","system_id":"levelo_inurba_marseille","lat":43.265638,"lon":5.390107,"is_reserved":false,"is_disabled":true,"rental_uris":{"android":"levelo://app?vid=b3c08bff-bd95-4471-b927-c79b79fc0579","ios":"levelo://app?vid=b3c08bff-bd95-4471-b927-c79b79fc0579"},"vehicle_type_id":"4","last_reported":1760641571,"current_range_meters":0,"station_id":"ce4bhe12rcd13ifvqf30","pricing_plan_id":"cebpf4jnsgd1na2vs0mg"},{"bike_id":"1fb5c78a-5530-40ba-9e9f-f0a67a9538fc","system_id":"levelo_inurba_marseille","lat":43.27915,"lon":5.39592,"is_reserved":false,"is_disabled":true,"rental_uris":{"android":"levelo://app?vid=1fb5c78a-5530-40ba-9e9f-f0a67a9538fc","ios":"levelo://app?vid=1fb5c78a-5530-40ba-9e9f-f0a67a9538fc"},"vehicle_type_id":"4","last_reported":1760641571,"current_range_meters":0,"station_id":"ce4bhf92rcd13ifvqf40","pricing_plan_id":"cebpf4jnsgd1na2vs0mg"},{"bike_id":"b4b294dc-9992-4c50-8f75-a6909841d6c1","system_id":"levelo_inurba_marseille","lat":43.25494,"lon":5.37649,"is_reserved":false,"is_disabled":true,"rental_uris":{"android":"levelo://app?vid=b4b294dc-9992-4c50-8f75-a6909841d6c1","ios":"levelo://app?vid=b4b294dc-9992-4c50-8f75-a6909841d6c1"},"vehicle_type_id":"4","last_reported":1760641571,"current_range_meters":0,"station_id":"ce4bhh12rcd13ifvqff0","pricing_plan_id":"cebpf4jnsgd1na2vs0mg"},{"bike_id":"0c96df3f-b21f-448f-b6ea-7b0baf3c4532","system_id":"levelo_inurba_marseille","lat":43.26062,"lon":5.39397,"is_reserved":false,"is_disabled":true,"rental_uris":{"android":"levelo://app?vid=0c96df3f-b21f-448f-b6ea-7b0baf3c4532","ios":"levelo://app?vid=0c96df3f-b21f-448f-b6ea-7b0baf3c4532"},"vehicle_type_id":"4","last_reported":1760641571,"current_range_meters":0,"station_id":"ce4bhh92rcd13ifvqfj0","pricing_plan_id":"cebpf4jnsgd1na2vs0mg"},{"bike_id":"f55af918-ffda-40d8-af25-7227871cc396","system_id":"levelo_inurba_marseille","lat":43.27826,"lon":5.39216,"is_reserved":false,"is_disabled":true,"rental_uris":{"android":"levelo://app?vid=f55af918-ffda-40d8-af25-7227871cc396","ios":"levelo://app?vid=f55af918-ffda-40d8-af25-7227871cc396"},"vehicle_type_id":"4","last_reported":1760641571,"current_range_meters":0,"station_id":"ce4bhjp2rcd13ifvqga0","pricing_plan_id":"cebpf4jnsgd1na2vs0mg"},{"bike_id":"c7d36d76-2525-4e4f-9472-62db91bd415f","system_id":"levelo_inurba_marseille","lat":43.278195,"lon":5.407126,"is_reserved":false,"is_disabled":true,"rental_uris":{"android":"levelo://app?vid=c7d36d76-2525-4e4f-9472-62db91bd415f","ios":"levelo://app?vid=c7d36d76-2525-4e4f-9472-62db91bd415f"},"vehicle_type_id":"4","last_reported":1760641571,"current_range_meters":0,"station_id":"ce4bhnh2rcd13ifvqgtg","pricing_plan_id":"cebpf4jnsgd1na2vs0mg"},{"bike_id":"be64203e-6886-4c19-8157-e9fa4b2afc54","system_id":"levelo_inurba_marseille","lat":43.27939,"lon":5.41042,"is_reserved":false,"is_disabled":true,"rental_uris":{"android":"levelo://app?vid=be64203e-6886-4c19-8157-e9fa4b2afc54","ios":"levelo://app?vid=be64203e-6886-4c19-8157-e9fa4b2afc54"},"vehicle_type_id":"4","last_reported":1760641571,"current_range_meters":0,"station_id":"ce4bhnp2rcd13ifvqh0g","pricing_plan_id":"cebpf4jnsgd1na2vs0mg"},{"bike_id":"153c9a41-d9c2-4082-980e-b8903c0cfd65","system_id":"levelo_inurba_marseille","lat":43.27976,"lon":5.40566,"is_reserved":false,"is_disabled":true,"rental_uris":{"android":"levelo://app?vid=153c9a41-d9c2-4082-980e-b8903c0cfd65","ios":"levelo://app?vid=153c9a41-d9c2-4082-980e-b8903c0cfd65"},"vehicle_type_id":"4","last_reported":1760641571,"current_range_meters":0,"station_id":"ce4bhoh2rcd13ifvqh5g","pricing_plan_id":"cebpf4jnsgd1na2vs0mg"},{"bike_id":"c1915cd7-799e-4998-88ed-c0e7724045f4","system_id":"levelo_inurba_marseille","lat":43.30375,"lon":5.42489,"is_reserved":false,"is_disabled":true,"rental_uris":{"android":"levelo://app?vid=c1915cd7-799e-4998-88ed-c0e7724045f4","ios":"levelo://app?vid=c1915cd7-799e-4998-88ed-c0e7724045f4"},"vehicle_type_id":"4","last_reported":1760641571,"current_range_meters":0,"station_id":"ce4bhoh2rcd13ifvqh6g","pricing_plan_id":"cebpf4jnsgd1na2vs0mg"},{"bike_id":"ab3968fe-3b55-40ea-bbd1-eae81f0449bd","system_id":"levelo_inurba_marseille","lat":43.21191,"lon":5.35076,"is_reserved":false,"is_disabled":true,"rental_uris":{"android":"levelo://app?vid=ab3968fe-3b55-40ea-bbd1-eae81f0449bd","ios":"levelo://app?vid=ab3968fe-3b55-40ea-bbd1-eae81f0449bd"},"vehicle_type_id":"4","last_reported":1760641571,"current_range_meters":0,"station_id":"st_cvj6sg6p6f1abm77japg","pricing_plan_id":"cebpf4jnsgd1na2vs0mg"},{"bike_id":"a04e8630-5224-4b29-98fc-8117d2c3dc69","system_id":"levelo_inurba_marseille","lat":43.253374,"lon":5.421772,"is_reserved":false,"is_disabled":true,"rental_uris":{"android":"levelo://app?vid=a04e8630-5224-4b29-98fc-8117d2c3dc69","ios":"levelo://app?vid=a04e8630-5224-4b29-98fc-8117d2c3dc69"},"vehicle_type_id":"4","last_reported":1760641571,"current_range_meters":0,"station_id":"st_d2m65c5bi1j21697t3ng","pricing_plan_id":"cebpf4jnsgd1na2vs0mg"},{"bike_id":"d3731958-f139-40e5-99e5-029b7e8fe2f0","system_id":"levelo_inurba_marseille","lat":43.2534,"lon":5.42181,"is_reserved":false,"is_disabled":true,"rental_uris":{"android":"levelo://app?vid=d3731958-f139-40e5-99e5-029b7e8fe2f0","ios":"levelo://app?vid=d3731958-f139-40e5-99e5-029b7e8fe2f0"},"vehicle_type_id":"4","last_reported":1760641571,"current_range_meters":0,"station_id":"st_d2m65c5bi1j21697t3ng","pricing_plan_id":"cebpf4jnsgd1na2vs0mg"},{"bike_id":"593d93ad-87b2-4cc3-bbb6-f7097cd8e227","system_id":"levelo_inurba_marseille","lat":43.24629,"lon":5.43146,"is_reserved":false,"is_disabled":true,"rental_uris":{"android":"levelo://app?vid=593d93ad-87b2-4cc3-bbb6-f7097cd8e227","ios":"levelo://app?vid=593d93ad-87b2-4cc3-bbb6-f7097cd8e227"},"vehicle_type_id":"4","last_reported":1760641571,"current_range_meters":0,"station_id":"st_d2m6c4gdas8pm72e190g","pricing_plan_id":"cebpf4jnsgd1na2vs0mg"},{"bike_id":"fa625895-0138-4f13-bf81-55121e3cabd6","system_id":"levelo_inurba_marseille","lat":43.24953,"lon":5.40488,"is_reserved":false,"is_disabled":true,"rental_uris":{"android":"levelo://app?vid=fa625895-0138-4f13-bf81-55121e3cabd6","ios":"levelo://app?vid=fa625895-0138-4f13-bf81-55121e3cabd6"},"vehicle_type_id":"4","last_reported":1760641571,"current_range_meters":0,"station_id":"st_d2ngiaodas8pm72gd1h0","pricing_plan_id":"cebpf4jnsgd1na2vs0mg"},{"bike_id":"36d609a9-57ea-4167-a882-5c6d907a4d37","system_id":"levelo_inurba_marseille","lat":43.28855,"lon":5.358543,"is_reserved":false,"is_disabled":true,"rental_uris":{"android":"levelo://app?vid=36d609a9-57ea-4167-a882-5c6d907a4d37","ios":"levelo://app?vid=36d609a9-57ea-4167-a882-5c6d907a4d37"},"vehicle_type_id":"4","last_reported":1760641571,"current_range_meters":400,"station_id":"ce4bhb12rcd13ifvqem0","pricing_plan_id":"cebpf4jnsgd1na2vs0mg"},{"bike_id":"5b0627f6-0a3e-4029-a0cb-7c6cfa2e42fb","system_id":"levelo_inurba_marseille","lat":43.23968,"lon":5.36618,"is_reserved":false,"is_disabled":true,"rental_uris":{"android":"levelo://app?vid=5b0627f6-0a3e-4029-a0cb-7c6cfa2e42fb","ios":"levelo://app?vid=5b0627f6-0a3e-4029-a0cb-7c6cfa2e42fb"},"vehicle_type_id":"4","last_reported":1760641571,"current_range_meters":400,"station_id":"ce4bhi12rcd13ifvqfp0","pricing_plan_id":"cebpf4jnsgd1na2vs0mg"},{"bike_id":"46aa589a-8fd2-4153-a5b6-a99691eda882","system_id":"levelo_inurba_marseille","lat":43.29756,"lon":5.42777,"is_reserved":false,"is_disabled":true,"rental_uris":{"android":"levelo://app?vid=46aa589a-8fd2-4153-a5b6-a99691eda882","ios":"levelo://app?vid=46aa589a-8fd2-4153-a5b6-a99691eda882"},"vehicle_type_id":"4","last_reported":1760641571,"current_range_meters":400,"station_id":"st_d3md5207bmas73dh9klg","pricing_plan_id":"cebpf4jnsgd1na2vs0mg"},{"bike_id":"e861565b-f553-4d11-9f03-820db6728f29","system_id":"levelo_inurba_marseille","lat":43.284149,"lon":5.375066,"is_reserved":false,"is_disabled":true,"rental_uris":{"android":"levelo://app?vid=e861565b-f553-4d11-9f03-820db6728f29","ios":"levelo://app?vid=e861565b-f553-4d11-9f03-820db6728f29"},"vehicle_type_id":"4","last_reported":1760641571,"current_range_meters":800,"station_id":"","pricing_plan_id":"cebpf4jnsgd1na2vs0mg"},{"bike_id":"21a18d8d-acf0-4656-ac74-5cb3dd19470a","system_id":"levelo_inurba_marseille","lat":43.292,"lon":5.39314,"is_reserved":false,"is_disabled":true,"rental_uris":{"android":"levelo://app?vid=21a18d8d-acf0-4656-ac74-5cb3dd19470a","ios":"levelo://app?vid=21a18d8d-acf0-4656-ac74-5cb3dd19470a"},"vehicle_type_id":"4","last_reported":1760641571,"current_range_meters":800,"station_id":"ce4bh192rcd13ifvqdd0","pricing_plan_id":"cebpf4jnsgd1na2vs0mg"},{"bike_id":"9ead96d6-7ac9-47f3-8423-01c0595c46e3","system_id":"levelo_inurba_marseille","lat":43.25868,"lon":5.39892,"is_reserved":false,"is_disabled":true,"rental_uris":{"android":"levelo://app?vid=9ead96d6-7ac9-47f3-8423-01c0595c46e3","ios":"levelo://app?vid=9ead96d6-7ac9-47f3-8423-01c0595c46e3"},"vehicle_type_id":"4","last_reported":1760641571,"current_range_meters":800,"station_id":"ce4bhl92rcd13ifvqghg","pricing_plan_id":"cebpf4jnsgd1na2vs0mg"},{"bike_id":"19082993-710b-4cb7-9e30-4e9be843ef85","system_id":"levelo_inurba_marseille","lat":43.30322,"lon":5.40153,"is_reserved":false,"is_disabled":true,"rental_uris":{"android":"levelo://app?vid=19082993-710b-4cb7-9e30-4e9be843ef85","ios":"levelo://app?vid=19082993-710b-4cb7-9e30-4e9be843ef85"},"vehicle_type_id":"4","last_reported":1760641571,"current_range_meters":1200,"station_id":"ce4bgvh2rcd13ifvqcs0","pricing_plan_id":"cebpf4jnsgd1na2vs0mg"},{"bike_id":"2c377af9-53ad-4057-a5cf-869a5030f598","system_id":"levelo_inurba_marseille","lat":43.29045,"lon":5.3591,"is_reserved":false,"is_disabled":true,"rental_uris":{"android":"levelo://app?vid=2c377af9-53ad-4057-a5cf-869a5030f598","ios":"levelo://app?vid=2c377af9-53ad-4057-a5cf-869a5030f598"},"vehicle_type_id":"4","last_reported":1760641571,"current_range_meters":1200,"station_id":"ce4bha92rcd13ifvqeg0","pricing_plan_id":"cebpf4jnsgd1na2vs0mg"},{"bike_id":"8d912af1-2982-4a89-a5e6-60e9735cf0d0","system_id":"levelo_inurba_marseille","lat":43.31994,"lon":5.38162,"is_reserved":false,"is_disabled":true,"rental_uris":{"android":"levelo://app?vid=8d912af1-2982-4a89-a5e6-60e9735cf0d0","ios":"levelo://app?vid=8d912af1-2982-4a89-a5e6-60e9735cf0d0"},"vehicle_type_id":"4","last_reported":1760641571,"current_range_meters":1200,"station_id":"ce4bhr12rcd13ifvqhpg","pricing_plan_id":"cebpf4jnsgd1na2vs0mg"},{"bike_id":"a70ee15f-bd9c-4917-97f3-933f6a3e80d5","system_id":"levelo_inurba_marseille","lat":43.294463,"lon":5.399981,"is_reserved":false,"is_disabled":true,"rental_uris":{"android":"levelo://app?vid=a70ee15f-bd9c-4917-97f3-933f6a3e80d5","ios":"levelo://app?vid=a70ee15f-bd9c-4917-97f3-933f6a3e80d5"},"vehicle_type_id":"4","last_reported":1760641571,"current_range_meters":1600,"station_id":"","pricing_plan_id":"cebpf4jnsgd1na2vs0mg"},{"bike_id":"9853258c-55dc-4d9a-a2a8-a2ac9925c81e","system_id":"levelo_inurba_marseille","lat":43.30645,"lon":5.40098,"is_reserved":false,"is_disabled":true,"rental_uris":{"android":"levelo://app?vid=9853258c-55dc-4d9a-a2a8-a2ac9925c81e","ios":"levelo://app?vid=9853258c-55dc-4d9a-a2a8-a2ac9925c81e"},"vehicle_type_id":"4","last_reported":1760641571,"current_range_meters":1600,"station_id":"ce4bh112rcd13ifvqda0","pricing_plan_id":"cebpf4jnsgd1na2vs0mg"},{"bike_id":"4bae5b54-da88-4561-9f39-fdf7f5d35bd5","system_id":"levelo_inurba_marseille","lat":43.28365,"lon":5.38605,"is_reserved":false,"is_disabled":true,"rental_uris":{"android":"levelo://app?vid=4bae5b54-da88-4561-9f39-fdf7f5d35bd5","ios":"levelo://app?vid=4bae5b54-da88-4561-9f39-fdf7f5d35bd5"},"vehicle_type_id":"4","last_reported":1760641571,"current_range_meters":1600,"station_id":"ce4bh492rcd13ifvqdvg","pricing_plan_id":"cebpf4jnsgd1na2vs0mg"},{"bike_id":"afdf3c83-d6b6-4fa4-a4f2-b2a00686f8a6","system_id":"levelo_inurba_marseille","lat":43.27214,"lon":5.39195,"is_reserved":false,"is_disabled":true,"rental_uris":{"android":"levelo://app?vid=afdf3c83-d6b6-4fa4-a4f2-b2a00686f8a6","ios":"levelo://app?vid=afdf3c83-d6b6-4fa4-a4f2-b2a00686f8a6"},"vehicle_type_id":"4","last_reported":1760641571,"current_range_meters":1600,"station_id":"ce4bhhp2rcd13ifvqfm0","pricing_plan_id":"cebpf4jnsgd1na2vs0mg"},{"bike_id":"9ec7b8fd-7fd9-481b-a94a-9827d71c3cec","system_id":"levelo_inurba_marseille","lat":43.28152,"lon":5.42643,"is_reserved":false,"is_disabled":true,"rental_uris":{"android":"levelo://app?vid=9ec7b8fd-7fd9-481b-a94a-9827d71c3cec","ios":"levelo://app?vid=9ec7b8fd-7fd9-481b-a94a-9827d71c3cec"},"vehicle_type_id":"4","last_reported":1760641571,"current_range_meters":1600,"station_id":"ce4bhnh2rcd13ifvqgug","pricing_plan_id":"cebpf4jnsgd1na2vs0mg"},{"bike_id":"19e18b8e-6e58-455b-a7d2-d9bae8097fa1","system_id":"levelo_inurba_marseille","lat":43.23784,"lon":5.36632,"is_reserved":false,"is_disabled":true,"rental_uris":{"android":"levelo://app?vid=19e18b8e-6e58-455b-a7d2-d9bae8097fa1","ios":"levelo://app?vid=19e18b8e-6e58-455b-a7d2-d9bae8097fa1"},"vehicle_type_id":"4","last_reported":1760641571,"current_range_meters":1600,"station_id":"st_d3nk18o9ro0c73en2l3g","pricing_plan_id":"cebpf4jnsgd1na2vs0mg"},{"bike_id":"6e283e46-60e0-48f1-9729-97b1ee61c9ff","system_id":"levelo_inurba_marseille","lat":43.308905,"lon":5.396638,"is_reserved":false,"is_disabled":true,"rental_uris":{"android":"levelo://app?vid=6e283e46-60e0-48f1-9729-97b1ee61c9ff","ios":"levelo://app?vid=6e283e46-60e0-48f1-9729-97b1ee61c9ff"},"vehicle_type_id":"4","last_reported":1760641571,"current_range_meters":2000,"station_id":"ce4bh012rcd13ifvqcv0","pricing_plan_id":"cebpf4jnsgd1na2vs0mg"},{"bike_id":"213eae7f-fcfd-4a12-bc60-0101c8346c95","system_id":"levelo_inurba_marseille","lat":43.28408,"lon":5.37517,"is_reserved":false,"is_disabled":true,"rental_uris":{"android":"levelo://app?vid=213eae7f-fcfd-4a12-bc60-0101c8346c95","ios":"levelo://app?vid=213eae7f-fcfd-4a12-bc60-0101c8346c95"},"vehicle_type_id":"4","last_reported":1760641571,"current_range_meters":2000,"station_id":"ce4bh412rcd13ifvqds0","pricing_plan_id":"cebpf4jnsgd1na2vs0mg"},{"bike_id":"1a0399d1-6029-44d7-bfa4-58942f0c4887","system_id":"levelo_inurba_marseille","lat":43.289268,"lon":5.363996,"is_reserved":false,"is_disabled":true,"rental_uris":{"android":"levelo://app?vid=1a0399d1-6029-44d7-bfa4-58942f0c4887","ios":"levelo://app?vid=1a0399d1-6029-44d7-bfa4-58942f0c4887"},"vehicle_type_id":"4","last_reported":1760641571,"current_range_meters":2000,"station_id":"ce4bhc92rcd13ifvqetg","pricing_plan_id":"cebpf4jnsgd1na2vs0mg"},{"bike_id":"05744e6b-49fc-4a4f-8471-abcb1c8842a3","system_id":"levelo_inurba_marseille","lat":43.279907,"lon":5.412551,"is_reserved":false,"is_disabled":true,"rental_uris":{"android":"levelo://app?vid=05744e6b-49fc-4a4f-8471-abcb1c8842a3","ios":"levelo://app?vid=05744e6b-49fc-4a4f-8471-abcb1c8842a3"},"vehicle_type_id":"4","last_reported":1760641571,"current_range_meters":2000,"station_id":"ce4bhk92rcd13ifvqgc0","pricing_plan_id":"cebpf4jnsgd1na2vs0mg"},{"bike_id":"b23f7fe1-3151-4c3e-9733-7a15cf7aa177","system_id":"levelo_inurba_marseille","lat":43.27813,"lon":5.40708,"is_reserved":false,"is_disabled":true,"rental_uris":{"android":"levelo://app?vid=b23f7fe1-3151-4c3e-9733-7a15cf7aa177","ios":"levelo://app?vid=b23f7fe1-3151-4c3e-9733-7a15cf7aa177"},"vehicle_type_id":"4","last_reported":1760641571,"current_range_meters":2000,"station_id":"ce4bhnh2rcd13ifvqgtg","pricing_plan_id":"cebpf4jnsgd1na2vs0mg"},{"bike_id":"eb9fdec9-99d7-422d-ba0b-35ee4d7c324b","system_id":"levelo_inurba_marseille","lat":43.22529,"lon":5.34839,"is_reserved":false,"is_disabled":false,"rental_uris":{"android":"levelo://app?vid=eb9fdec9-99d7-422d-ba0b-35ee4d7c324b","ios":"levelo://app?vid=eb9fdec9-99d7-422d-ba0b-35ee4d7c324b"},"vehicle_type_id":"4","last_reported":1760641571,"current_range_meters":2800,"station_id":"","pricing_plan_id":"cebpf4jnsgd1na2vs0mg"},{"bike_id":"5ec44b1d-7992-4802-a08d-9eccc4e311b7","system_id":"levelo_inurba_marseille","lat":43.28935,"lon":5.36399,"is_reserved":false,"is_disabled":false,"rental_uris":{"android":"levelo://app?vid=5ec44b1d-7992-4802-a08d-9eccc4e311b7","ios":"levelo://app?vid=5ec44b1d-7992-4802-a08d-9eccc4e311b7"},"vehicle_type_id":"4","last_reported":1760641571,"current_range_meters":2800,"station_id":"ce4bhc92rcd13ifvqetg","pricing_plan_id":"cebpf4jnsgd1na2vs0mg"},{"bike_id":"24d9c63e-e14e-475e-b808-608bafd3289f","system_id":"levelo_inurba_marseille","lat":43.22428,"lon":5.34657,"is_reserved":false,"is_disabled":false,"rental_uris":{"android":"levelo://app?vid=24d9c63e-e14e-475e-b808-608bafd3289f","ios":"levelo://app?vid=24d9c63e-e14e-475e-b808-608bafd3289f"},"vehicle_type_id":"4","last_reported":1760641571,"current_range_meters":3200,"station_id":"","pricing_plan_id":"cebpf4jnsgd1na2vs0mg"},{"bike_id":"bd9e5ceb-1137-4ead-b29c-458daaa877c6","system_id":"levelo_inurba_marseille","lat":43.291717,"lon":5.371567,"is_reserved":false,"is_disabled":false,"rental_uris":{"android":"levelo://app?vid=bd9e5ceb-1137-4ead-b29c-458daaa877c6","ios":"levelo://app?vid=bd9e5ceb-1137-4ead-b29c-458daaa877c6"},"vehicle_type_id":"4","last_reported":1760641571,"current_range_meters":3200,"station_id":"","pricing_plan_id":"cebpf4jnsgd1na2vs0mg"},{"bike_id":"b4052f7a-27b6-479b-bdb3-900e233c35a7","system_id":"levelo_inurba_marseille","lat":43.29562,"lon":5.36383,"is_reserved":false,"is_disabled":false,"rental_uris":{"android":"levelo://app?vid=b4052f7a-27b6-479b-bdb3-900e233c35a7","ios":"levelo://app?vid=b4052f7a-27b6-479b-bdb3-900e233c35a7"},"vehicle_type_id":"4","last_reported":1760641571,"current_range_meters":3200,"station_id":"","pricing_plan_id":"cebpf4jnsgd1na2vs0mg"},{"bike_id":"372a75ed-4c53-4866-8b7a-c8155bd8d631","system_id":"levelo_inurba_marseille","lat":43.292649,"lon":5.376299,"is_reserved":false,"is_disabled":false,"rental_uris":{"android":"levelo://app?vid=372a75ed-4c53-4866-8b7a-c8155bd8d631","ios":"levelo://app?vid=372a75ed-4c53-4866-8b7a-c8155bd8d631"},"vehicle_type_id":"4","last_reported":1760641571,"current_range_meters":3200,"station_id":"ce4bgi12rcd13ifvqb80","pricing_plan_id":"cebpf4jnsgd1na2vs0mg"},{"bike_id":"883bfdea-09dc-4108-9bd5-411a64015e5d","system_id":"levelo_inurba_marseille","lat":43.28476,"lon":5.38425,"is_reserved":false,"is_disabled":false,"rental_uris":{"android":"levelo://app?vid=883bfdea-09dc-4108-9bd5-411a64015e5d","ios":"levelo://app?vid=883bfdea-09dc-4108-9bd5-411a64015e5d"},"vehicle_type_id":"4","last_reported":1760641571,"current_range_meters":3200,"station_id":"ce4bh512rcd13ifvqe3g","pricing_plan_id":"cebpf4jnsgd1na2vs0mg"},{"bike_id":"5177ea7a-5f6e-4c49-a3d1-ee49ba67c3fd","system_id":"levelo_inurba_marseille","lat":43.295449,"lon":5.385637,"is_reserved":false,"is_disabled":false,"rental_uris":{"android":"levelo://app?vid=5177ea7a-5f6e-4c49-a3d1-ee49ba67c3fd","ios":"levelo://app?vid=5177ea7a-5f6e-4c49-a3d1-ee49ba67c3fd"},"vehicle_type_id":"4","last_reported":1760641571,"current_range_meters":3200,"station_id":"ce4bha12rcd13ifvqee0","pricing_plan_id":"cebpf4jnsgd1na2vs0mg"},{"bike_id":"553aa143-8bed-4b91-9321-6d8341ccfbce","system_id":"levelo_inurba_marseille","lat":43.29197,"lon":5.35814,"is_reserved":false,"is_disabled":false,"rental_uris":{"android":"levelo://app?vid=553aa143-8bed-4b91-9321-6d8341ccfbce","ios":"levelo://app?vid=553aa143-8bed-4b91-9321-6d8341ccfbce"},"vehicle_type_id":"4","last_reported":1760641571,"current_range_meters":3200,"station_id":"ce4bhb12rcd13ifvqel0","pricing_plan_id":"cebpf4jnsgd1na2vs0mg"},{"bike_id":"7eb16c46-a483-4207-a26e-c5a1e82e67d4","system_id":"levelo_inurba_marseille","lat":43.27069,"lon":5.42279,"is_reserved":false,"is_disabled":false,"rental_uris":{"android":"levelo://app?vid=7eb16c46-a483-4207-a26e-c5a1e82e67d4","ios":"levelo://app?vid=7eb16c46-a483-4207-a26e-c5a1e82e67d4"},"vehicle_type_id":"4","last_reported":1760641571,"current_range_meters":3600,"station_id":"ce4bhk92rcd13ifvqgb0","pricing_plan_id":"cebpf4jnsgd1na2vs0mg"},{"bike_id":"0c6ad568-f822-4a7f-b9c5-8cc230b1986d","system_id":"levelo_inurba_marseille","lat":43.27987,"lon":5.4167,"is_reserved":false,"is_disabled":false,"rental_uris":{"android":"levelo://app?vid=0c6ad568-f822-4a7f-b9c5-8cc230b1986d","ios":"levelo://app?vid=0c6ad568-f822-4a7f-b9c5-8cc230b1986d"},"vehicle_type_id":"4","last_reported":1760641571,"current_range_meters":3600,"station_id":"ce4bho12rcd13ifvqh1g","pricing_plan_id":"cebpf4jnsgd1na2vs0mg"},{"bike_id":"f59139d0-468c-4bfb-99fa-481f83984c59","system_id":"levelo_inurba_marseille","lat":43.24951,"lon":5.40484,"is_reserved":false,"is_disabled":false,"rental_uris":{"android":"levelo://app?vid=f59139d0-468c-4bfb-99fa-481f83984c59","ios":"levelo://app?vid=f59139d0-468c-4bfb-99fa-481f83984c59"},"vehicle_type_id":"4","last_reported":1760641571,"current_range_meters":3600,"station_id":"st_d2ngiaodas8pm72gd1h0","pricing_plan_id":"cebpf4jnsgd1na2vs0mg"},{"bike_id":"75b884ad-89eb-49bb-a25b-3723278be90c","system_id":"levelo_inurba_marseille","lat":43.2926,"lon":5.40908,"is_reserved":false,"is_disabled":false,"rental_uris":{"android":"levelo://app?vid=75b884ad-89eb-49bb-a25b-3723278be90c","ios":"levelo://app?vid=75b884ad-89eb-49bb-a25b-3723278be90c"},"vehicle_type_id":"4","last_reported":1760641571,"current_range_meters":4000,"station_id":"ce4bh192rcd13ifvqdc0","pricing_plan_id":"cebpf4jnsgd1na2vs0mg"},{"bike_id":"859dcf5c-2d93-4226-9c1e-3b58130126c5","system_id":"levelo_inurba_marseille","lat":43.29521,"lon":5.36149,"is_reserved":false,"is_disabled":false,"rental_uris":{"android":"levelo://app?vid=859dcf5c-2d93-4226-9c1e-3b58130126c5","ios":"levelo://app?vid=859dcf5c-2d93-4226-9c1e-3b58130126c5"},"vehicle_type_id":"4","last_reported":1760641571,"current_range_meters":4400,"station_id":"","pricing_plan_id":"cebpf4jnsgd1na2vs0mg"},{"bike_id":"b85b27ee-d205-407e-a995-a166f8e782ef","system_id":"levelo_inurba_marseille","lat":43.284597,"lon":5.358897,"is_reserved":false,"is_disabled":false,"rental_uris":{"android":"levelo://app?vid=b85b27ee-d205-407e-a995-a166f8e782ef","ios":"levelo://app?vid=b85b27ee-d205-407e-a995-a166f8e782ef"},"vehicle_type_id":"4","last_reported":1760641571,"current_range_meters":4400,"station_id":"ce4bhah2rcd13ifvqei0","pricing_plan_id":"cebpf4jnsgd1na2vs0mg"},{"bike_id":"830d9cac-afda-43cd-8a23-e342dd849325","system_id":"levelo_inurba_marseille","lat":43.318852,"lon":5.40742,"is_reserved":false,"is_disabled":false,"rental_uris":{"android":"levelo://app?vid=830d9cac-afda-43cd-8a23-e342dd849325","ios":"levelo://app?vid=830d9cac-afda-43cd-8a23-e342dd849325"},"vehicle_type_id":"4","last_reported":1760641571,"current_range_meters":4400,"station_id":"ce4bhq12rcd13ifvqhig","pricing_plan_id":"cebpf4jnsgd1na2vs0mg"},{"bike_id":"cf67e835-51a5-4a52-8c90-96d9f59b7778","system_id":"levelo_inurba_marseille","lat":43.286604,"lon":5.386756,"is_reserved":false,"is_disabled":false,"rental_uris":{"android":"levelo://app?vid=cf67e835-51a5-4a52-8c90-96d9f59b7778","ios":"levelo://app?vid=cf67e835-51a5-4a52-8c90-96d9f59b7778"},"vehicle_type_id":"4","last_reported":1760641571,"current_range_meters":4800,"station_id":"ce4bh492rcd13ifvqdug","pricing_plan_id":"cebpf4jnsgd1na2vs0mg"},{"bike_id":"f7e45d88-4bc2-4dff-96b4-5c397541e881","system_id":"levelo_inurba_marseille","lat":43.24944,"lon":5.40489,"is_reserved":false,"is_disabled":false,"rental_uris":{"android":"levelo://app?vid=f7e45d88-4bc2-4dff-96b4-5c397541e881","ios":"levelo://app?vid=f7e45d88-4bc2-4dff-96b4-5c397541e881"},"vehicle_type_id":"4","last_reported":1760641571,"current_range_meters":4800,"station_id":"st_d2ngiaodas8pm72gd1h0","pricing_plan_id":"cebpf4jnsgd1na2vs0mg"},{"bike_id":"26545edc-91b5-4eb9-98b7-e06eae770ff2","system_id":"levelo_inurba_marseille","lat":43.31732,"lon":5.43913,"is_reserved":false,"is_disabled":false,"rental_uris":{"android":"levelo://app?vid=26545edc-91b5-4eb9-98b7-e06eae770ff2","ios":"levelo://app?vid=26545edc-91b5-4eb9-98b7-e06eae770ff2"},"vehicle_type_id":"4","last_reported":1760641571,"current_range_meters":5600,"station_id":"","pricing_plan_id":"cebpf4jnsgd1na2vs0mg"},{"bike_id":"3b47cc01-183b-4afa-b04c-f1666fd16e3c","system_id":"levelo_inurba_marseille","lat":43.33185,"lon":5.39951,"is_reserved":false,"is_disabled":false,"rental_uris":{"android":"levelo://app?vid=3b47cc01-183b-4afa-b04c-f1666fd16e3c","ios":"levelo://app?vid=3b47cc01-183b-4afa-b04c-f1666fd16e3c"},"vehicle_type_id":"4","last_reported":1760641571,"current_range_meters":5600,"station_id":"","pricing_plan_id":"cebpf4jnsgd1na2vs0mg"},{"bike_id":"e7e00675-87e5-4233-af4c-7ccf57e9ab08","system_id":"levelo_inurba_marseille","lat":43.30123,"lon":5.38773,"is_reserved":false,"is_disabled":false,"rental_uris":{"android":"levelo://app?vid=e7e00675-87e5-4233-af4c-7ccf57e9ab08","ios":"levelo://app?vid=e7e00675-87e5-4233-af4c-7ccf57e9ab08"},"vehicle_type_id":"4","last_reported":1760641571,"current_range_meters":5600,"station_id":"ce4bghh2rcd13ifvqb60","pricing_plan_id":"cebpf4jnsgd1na2vs0mg"},{"bike_id":"d8cba138-a89f-4ee7-8ac1-838b7923fdc5","system_id":"levelo_inurba_marseille","lat":43.26499,"lon":5.39551,"is_reserved":false,"is_disabled":false,"rental_uris":{"android":"levelo://app?vid=d8cba138-a89f-4ee7-8ac1-838b7923fdc5","ios":"levelo://app?vid=d8cba138-a89f-4ee7-8ac1-838b7923fdc5"},"vehicle_type_id":"4","last_reported":1760641571,"current_range_meters":5600,"station_id":"ce4bhi12rcd13ifvqfq0","pricing_plan_id":"cebpf4jnsgd1na2vs0mg"},{"bike_id":"5536ac4b-81dc-456c-b168-f689b30e1c82","system_id":"levelo_inurba_marseille","lat":43.29535,"lon":5.38541,"is_reserved":false,"is_disabled":false,"rental_uris":{"android":"levelo://app?vid=5536ac4b-81dc-456c-b168-f689b30e1c82","ios":"levelo://app?vid=5536ac4b-81dc-456c-b168-f689b30e1c82"},"vehicle_type_id":"4","last_reported":1760641571,"current_range_meters":6000,"station_id":"ce4bgih2rcd13ifvqba0","pricing_plan_id":"cebpf4jnsgd1na2vs0mg"},{"bike_id":"0889bb12-e3fb-4359-998d-5d7973baf526","system_id":"levelo_inurba_marseille","lat":43.25337,"lon":5.42179,"is_reserved":false,"is_disabled":false,"rental_uris":{"android":"levelo://app?vid=0889bb12-e3fb-4359-998d-5d7973baf526","ios":"levelo://app?vid=0889bb12-e3fb-4359-998d-5d7973baf526"},"vehicle_type_id":"4","last_reported":1760641571,"current_range_meters":6000,"station_id":"st_d2m65c5bi1j21697t3ng","pricing_plan_id":"cebpf4jnsgd1na2vs0mg"},{"bike_id":"d1535785-517b-41ee-8ee0-1e9b8477afef","system_id":"levelo_inurba_marseille","lat":43.337444,"lon":5.374475,"is_reserved":false,"is_disabled":false,"rental_uris":{"android":"levelo://app?vid=d1535785-517b-41ee-8ee0-1e9b8477afef","ios":"levelo://app?vid=d1535785-517b-41ee-8ee0-1e9b8477afef"},"vehicle_type_id":"4","last_reported":1760641571,"current_range_meters":6400,"station_id":"","pricing_plan_id":"cebpf4jnsgd1na2vs0mg"},{"bike_id":"3cb5b848-2b77-445f-9436-55a5a252e776","system_id":"levelo_inurba_marseille","lat":43.300392,"lon":5.377214,"is_reserved":false,"is_disabled":false,"rental_uris":{"android":"levelo://app?vid=3cb5b848-2b77-445f-9436-55a5a252e776","ios":"levelo://app?vid=3cb5b848-2b77-445f-9436-55a5a252e776"},"vehicle_type_id":"4","last_reported":1760641571,"current_range_meters":6400,"station_id":"","pricing_plan_id":"cebpf4jnsgd1na2vs0mg"},{"bike_id":"f4446fcb-8e31-443a-b978-3a32bb192da6","system_id":"levelo_inurba_marseille","lat":43.283826,"lon":5.394538,"is_reserved":false,"is_disabled":false,"rental_uris":{"android":"levelo://app?vid=f4446fcb-8e31-443a-b978-3a32bb192da6","ios":"levelo://app?vid=f4446fcb-8e31-443a-b978-3a32bb192da6"},"vehicle_type_id":"4","last_reported":1760641571,"current_range_meters":6400,"station_id":"ce4bgh92rcd13ifvqb50","pricing_plan_id":"cebpf4jnsgd1na2vs0mg"},{"bike_id":"93d7d6dc-48ee-4900-937f-f69d98d7b472","system_id":"levelo_inurba_marseille","lat":43.2962,"lon":5.37163,"is_reserved":false,"is_disabled":false,"rental_uris":{"android":"levelo://app?vid=93d7d6dc-48ee-4900-937f-f69d98d7b472","ios":"levelo://app?vid=93d7d6dc-48ee-4900-937f-f69d98d7b472"},"vehicle_type_id":"4","last_reported":1760641571,"current_range_meters":6400,"station_id":"ce4bgnh2rcd13ifvqc0g","pricing_plan_id":"cebpf4jnsgd1na2vs0mg"},{"bike_id":"13982c6a-7e65-42f5-8f40-394404e94543","system_id":"levelo_inurba_marseille","lat":43.29618,"lon":5.371531,"is_reserved":false,"is_disabled":false,"rental_uris":{"android":"levelo://app?vid=13982c6a-7e65-42f5-8f40-394404e94543","ios":"levelo://app?vid=13982c6a-7e65-42f5-8f40-394404e94543"},"vehicle_type_id":"4","last_reported":1760641571,"current_range_meters":6400,"station_id":"ce4bgnh2rcd13ifvqc0g","pricing_plan_id":"cebpf4jnsgd1na2vs0mg"},{"bike_id":"ba513a25-e0ad-4580-a5bf-b2e3123a7d12","system_id":"levelo_inurba_marseille","lat":43.29555,"lon":5.42293,"is_reserved":false,"is_disabled":false,"rental_uris":{"android":"levelo://app?vid=ba513a25-e0ad-4580-a5bf-b2e3123a7d12","ios":"levelo://app?vid=ba513a25-e0ad-4580-a5bf-b2e3123a7d12"},"vehicle_type_id":"4","last_reported":1760641571,"current_range_meters":6400,"station_id":"ce4bhph2rcd13ifvqhdg","pricing_plan_id":"cebpf4jnsgd1na2vs0mg"},{"bike_id":"d8e9b8f7-08e2-4408-ba5a-bf3e71307936","system_id":"levelo_inurba_marseille","lat":43.21221,"lon":5.35082,"is_reserved":false,"is_disabled":false,"rental_uris":{"android":"levelo://app?vid=d8e9b8f7-08e2-4408-ba5a-bf3e71307936","ios":"levelo://app?vid=d8e9b8f7-08e2-4408-ba5a-bf3e71307936"},"vehicle_type_id":"4","last_reported":1760641571,"current_range_meters":6400,"station_id":"st_cvj6sg6p6f1abm77japg","pricing_plan_id":"cebpf4jnsgd1na2vs0mg"},{"bike_id":"56e8f168-0239-4dab-a231-9caf80fb776c","system_id":"levelo_inurba_marseille","lat":43.292676,"lon":5.376168,"is_reserved":false,"is_disabled":false,"rental_uris":{"android":"levelo://app?vid=56e8f168-0239-4dab-a231-9caf80fb776c","ios":"levelo://app?vid=56e8f168-0239-4dab-a231-9caf80fb776c"},"vehicle_type_id":"4","last_reported":1760641571,"current_range_meters":6800,"station_id":"","pricing_plan_id":"cebpf4jnsgd1na2vs0mg"},{"bike_id":"e0863f88-6065-41da-9ecd-468f1156f9d8","system_id":"levelo_inurba_marseille","lat":43.27334,"lon":5.41415,"is_reserved":false,"is_disabled":false,"rental_uris":{"android":"levelo://app?vid=e0863f88-6065-41da-9ecd-468f1156f9d8","ios":"levelo://app?vid=e0863f88-6065-41da-9ecd-468f1156f9d8"},"vehicle_type_id":"4","last_reported":1760641571,"current_range_meters":6800,"station_id":"","pricing_plan_id":"cebpf4jnsgd1na2vs0mg"},{"bike_id":"4bb75d7a-ac50-4673-96d1-2545e379c9cc","system_id":"levelo_inurba_marseille","lat":43.301213,"lon":5.398596,"is_reserved":false,"is_disabled":false,"rental_uris":{"android":"levelo://app?vid=4bb75d7a-ac50-4673-96d1-2545e379c9cc","ios":"levelo://app?vid=4bb75d7a-ac50-4673-96d1-2545e379c9cc"},"vehicle_type_id":"4","last_reported":1760641571,"current_range_meters":6800,"station_id":"","pricing_plan_id":"cebpf4jnsgd1na2vs0mg"},{"bike_id":"f51082ed-6aac-4222-b730-1ffc6fcd2c53","system_id":"levelo_inurba_marseille","lat":43.29703,"lon":5.37696,"is_reserved":false,"is_disabled":false,"rental_uris":{"android":"levelo://app?vid=f51082ed-6aac-4222-b730-1ffc6fcd2c53","ios":"levelo://app?vid=f51082ed-6aac-4222-b730-1ffc6fcd2c53"},"vehicle_type_id":"4","last_reported":1760641571,"current_range_meters":6800,"station_id":"ce4bgkh2rcd13ifvqbl0","pricing_plan_id":"cebpf4jnsgd1na2vs0mg"},{"bike_id":"cebb2a8c-c457-48b8-9289-8fec8a320690","system_id":"levelo_inurba_marseille","lat":43.29522,"lon":5.39033,"is_reserved":false,"is_disabled":false,"rental_uris":{"android":"levelo://app?vid=cebb2a8c-c457-48b8-9289-8fec8a320690","ios":"levelo://app?vid=cebb2a8c-c457-48b8-9289-8fec8a320690"},"vehicle_type_id":"4","last_reported":1760641571,"current_range_meters":6800,"station_id":"ce4bh3p2rcd13ifvqdp0","pricing_plan_id":"cebpf4jnsgd1na2vs0mg"},{"bike_id":"eb8090d8-727a-4462-8440-0cac5c5d6b9d","system_id":"levelo_inurba_marseille","lat":43.28151,"lon":5.42644,"is_reserved":false,"is_disabled":false,"rental_uris":{"android":"levelo://app?vid=eb8090d8-727a-4462-8440-0cac5c5d6b9d","ios":"levelo://app?vid=eb8090d8-727a-4462-8440-0cac5c5d6b9d"},"vehicle_type_id":"4","last_reported":1760641571,"current_range_meters":6800,"station_id":"ce4bhnh2rcd13ifvqgug","pricing_plan_id":"cebpf4jnsgd1na2vs0mg"},{"bike_id":"76f322af-91c2-4434-b59f-91294700ef00","system_id":"levelo_inurba_marseille","lat":43.284565,"lon":5.391912,"is_reserved":false,"is_disabled":false,"rental_uris":{"android":"levelo://app?vid=76f322af-91c2-4434-b59f-91294700ef00","ios":"levelo://app?vid=76f322af-91c2-4434-b59f-91294700ef00"},"vehicle_type_id":"4","last_reported":1760641571,"current_range_meters":6800,"station_id":"ce4bhoh2rcd13ifvqh5g","pricing_plan_id":"cebpf4jnsgd1na2vs0mg"},{"bike_id":"9244320e-396d-4c10-98a6-00561b8986fb","system_id":"levelo_inurba_marseille","lat":43.28516,"lon":5.44118,"is_reserved":false,"is_disabled":false,"rental_uris":{"android":"levelo://app?vid=9244320e-396d-4c10-98a6-00561b8986fb","ios":"levelo://app?vid=9244320e-396d-4c10-98a6-00561b8986fb"},"vehicle_type_id":"4","last_reported":1760641571,"current_range_meters":6800,"station_id":"st_d3j3df2ikq2c7380ej80","pricing_plan_id":"cebpf4jnsgd1na2vs0mg"},{"bike_id":"435007e7-00e7-449b-9401-1502a72a756a","system_id":"levelo_inurba_marseille","lat":43.23499,"lon":5.36022,"is_reserved":false,"is_disabled":false,"rental_uris":{"android":"levelo://app?vid=435007e7-00e7-449b-9401-1502a72a756a","ios":"levelo://app?vid=435007e7-00e7-449b-9401-1502a72a756a"},"vehicle_type_id":"4","last_reported":1760641571,"current_range_meters":7200,"station_id":"","pricing_plan_id":"cebpf4jnsgd1na2vs0mg"},{"bike_id":"edf1826d-4c94-41f7-b41b-9e4934e632f6","system_id":"levelo_inurba_marseille","lat":43.25202,"lon":5.3791,"is_reserved":false,"is_disabled":false,"rental_uris":{"android":"levelo://app?vid=edf1826d-4c94-41f7-b41b-9e4934e632f6","ios":"levelo://app?vid=edf1826d-4c94-41f7-b41b-9e4934e632f6"},"vehicle_type_id":"4","last_reported":1760641571,"current_range_meters":7200,"station_id":"","pricing_plan_id":"cebpf4jnsgd1na2vs0mg"},{"bike_id":"b0e3fac0-2cba-43db-8a27-05393f9977ec","system_id":"levelo_inurba_marseille","lat":43.297242,"lon":5.373265,"is_reserved":false,"is_disabled":false,"rental_uris":{"android":"levelo://app?vid=b0e3fac0-2cba-43db-8a27-05393f9977ec","ios":"levelo://app?vid=b0e3fac0-2cba-43db-8a27-05393f9977ec"},"vehicle_type_id":"4","last_reported":1760641571,"current_range_meters":7200,"station_id":"","pricing_plan_id":"cebpf4jnsgd1na2vs0mg"},{"bike_id":"7e444206-20cf-47e2-a819-82c6ab3d59a7","system_id":"levelo_inurba_marseille","lat":43.33982,"lon":5.40637,"is_reserved":false,"is_disabled":false,"rental_uris":{"android":"levelo://app?vid=7e444206-20cf-47e2-a819-82c6ab3d59a7","ios":"levelo://app?vid=7e444206-20cf-47e2-a819-82c6ab3d59a7"},"vehicle_type_id":"4","last_reported":1760641571,"current_range_meters":7200,"station_id":"","pricing_plan_id":"cebpf4jnsgd1na2vs0mg"},{"bike_id":"c10806ec-6d45-481a-ae58-b2aac1e05e16","system_id":"levelo_inurba_marseille","lat":43.2337,"lon":5.40513,"is_reserved":false,"is_disabled":false,"rental_uris":{"android":"levelo://app?vid=c10806ec-6d45-481a-ae58-b2aac1e05e16","ios":"levelo://app?vid=c10806ec-6d45-481a-ae58-b2aac1e05e16"},"vehicle_type_id":"4","last_reported":1760641571,"current_range_meters":7200,"station_id":"","pricing_plan_id":"cebpf4jnsgd1na2vs0mg"},{"bike_id":"db8f68d4-db9e-4d9d-bdba-312904e2098d","system_id":"levelo_inurba_marseille","lat":43.30145,"lon":5.39851,"is_reserved":false,"is_disabled":false,"rental_uris":{"android":"levelo://app?vid=db8f68d4-db9e-4d9d-bdba-312904e2098d","ios":"levelo://app?vid=db8f68d4-db9e-4d9d-bdba-312904e2098d"},"vehicle_type_id":"4","last_reported":1760641571,"current_range_meters":7200,"station_id":"ce4bh0h2rcd13ifvqd40","pricing_plan_id":"cebpf4jnsgd1na2vs0mg"},{"bike_id":"51831089-9cf8-4a75-b521-a4df581940c0","system_id":"levelo_inurba_marseille","lat":43.29246,"lon":5.40909,"is_reserved":false,"is_disabled":false,"rental_uris":{"android":"levelo://app?vid=51831089-9cf8-4a75-b521-a4df581940c0","ios":"levelo://app?vid=51831089-9cf8-4a75-b521-a4df581940c0"},"vehicle_type_id":"4","last_reported":1760641571,"current_range_meters":7200,"station_id":"ce4bh192rcd13ifvqdc0","pricing_plan_id":"cebpf4jnsgd1na2vs0mg"},{"bike_id":"e80b7001-47c7-4363-9a98-0f64f3dc9693","system_id":"levelo_inurba_marseille","lat":43.283501,"lon":5.381066,"is_reserved":false,"is_disabled":false,"rental_uris":{"android":"levelo://app?vid=e80b7001-47c7-4363-9a98-0f64f3dc9693","ios":"levelo://app?vid=e80b7001-47c7-4363-9a98-0f64f3dc9693"},"vehicle_type_id":"4","last_reported":1760641571,"current_range_meters":7200,"station_id":"ce4bh412rcd13ifvqdr0","pricing_plan_id":"cebpf4jnsgd1na2vs0mg"},{"bike_id":"01171f1d-cc1a-4f65-be43-1eaad90a160a","system_id":"levelo_inurba_marseille","lat":43.29259,"lon":5.38439,"is_reserved":false,"is_disabled":false,"rental_uris":{"android":"levelo://app?vid=01171f1d-cc1a-4f65-be43-1eaad90a160a","ios":"levelo://app?vid=01171f1d-cc1a-4f65-be43-1eaad90a160a"},"vehicle_type_id":"4","last_reported":1760641571,"current_range_meters":7200,"station_id":"ce4bh692rcd13ifvqea0","pricing_plan_id":"cebpf4jnsgd1na2vs0mg"},{"bike_id":"137f9974-da4f-481a-8307-c7e24038a888","system_id":"levelo_inurba_marseille","lat":43.28445,"lon":5.35909,"is_reserved":false,"is_disabled":false,"rental_uris":{"android":"levelo://app?vid=137f9974-da4f-481a-8307-c7e24038a888","ios":"levelo://app?vid=137f9974-da4f-481a-8307-c7e24038a888"},"vehicle_type_id":"4","last_reported":1760641571,"current_range_meters":7200,"station_id":"ce4bhah2rcd13ifvqei0","pricing_plan_id":"cebpf4jnsgd1na2vs0mg"},{"bike_id":"dfe62b4c-10df-4ab1-9c29-47073089bd0d","system_id":"levelo_inurba_marseille","lat":43.28455,"lon":5.35887,"is_reserved":false,"is_disabled":false,"rental_uris":{"android":"levelo://app?vid=dfe62b4c-10df-4ab1-9c29-47073089bd0d","ios":"levelo://app?vid=dfe62b4c-10df-4ab1-9c29-47073089bd0d"},"vehicle_type_id":"4","last_reported":1760641571,"current_range_meters":7200,"station_id":"ce4bhah2rcd13ifvqei0","pricing_plan_id":"cebpf4jnsgd1na2vs0mg"},{"bike_id":"1e13db08-2f3f-4cfa-acc9-ad3492675777","system_id":"levelo_inurba_marseille","lat":43.27946,"lon":5.4105,"is_reserved":false,"is_disabled":false,"rental_uris":{"android":"levelo://app?vid=1e13db08-2f3f-4cfa-acc9-ad3492675777","ios":"levelo://app?vid=1e13db08-2f3f-4cfa-acc9-ad3492675777"},"vehicle_type_id":"4","last_reported":1760641571,"current_range_meters":7200,"station_id":"ce4bhnp2rcd13ifvqh0g","pricing_plan_id":"cebpf4jnsgd1na2vs0mg"},{"bike_id":"2872f544-e70c-4b2f-b5f5-3a47693c5092","system_id":"levelo_inurba_marseille","lat":43.28705,"lon":5.39987,"is_reserved":false,"is_disabled":false,"rental_uris":{"android":"levelo://app?vid=2872f544-e70c-4b2f-b5f5-3a47693c5092","ios":"levelo://app?vid=2872f544-e70c-4b2f-b5f5-3a47693c5092"},"vehicle_type_id":"4","last_reported":1760641571,"current_range_meters":7200,"station_id":"ce4bho92rcd13ifvqh3g","pricing_plan_id":"cebpf4jnsgd1na2vs0mg"},{"bike_id":"4269c5c2-38fb-43c6-96ee-2883d18a2c3f","system_id":"levelo_inurba_marseille","lat":43.32281,"lon":5.38278,"is_reserved":false,"is_disabled":false,"rental_uris":{"android":"levelo://app?vid=4269c5c2-38fb-43c6-96ee-2883d18a2c3f","ios":"levelo://app?vid=4269c5c2-38fb-43c6-96ee-2883d18a2c3f"},"vehicle_type_id":"4","last_reported":1760641571,"current_range_meters":7200,"station_id":"ce4bhr12rcd13ifvqhqg","pricing_plan_id":"cebpf4jnsgd1na2vs0mg"},{"bike_id":"afd3a141-6f64-4928-ba91-fca21b7af038","system_id":"levelo_inurba_marseille","lat":43.29582,"lon":5.36422,"is_reserved":false,"is_disabled":false,"rental_uris":{"android":"levelo://app?vid=afd3a141-6f64-4928-ba91-fca21b7af038","ios":"levelo://app?vid=afd3a141-6f64-4928-ba91-fca21b7af038"},"vehicle_type_id":"4","last_reported":1760641571,"current_range_meters":8000,"station_id":"","pricing_plan_id":"cebpf4jnsgd1na2vs0mg"},{"bike_id":"e6c13be0-c633-4458-99aa-d904fe15d4f5","system_id":"levelo_inurba_marseille","lat":43.31376,"lon":5.4075,"is_reserved":false,"is_disabled":false,"rental_uris":{"android":"levelo://app?vid=e6c13be0-c633-4458-99aa-d904fe15d4f5","ios":"levelo://app?vid=e6c13be0-c633-4458-99aa-d904fe15d4f5"},"vehicle_type_id":"4","last_reported":1760641571,"current_range_meters":8000,"station_id":"","pricing_plan_id":"cebpf4jnsgd1na2vs0mg"},{"bike_id":"f0622547-115c-4aab-a330-c8c9f80dea9e","system_id":"levelo_inurba_marseille","lat":43.28079,"lon":5.35243,"is_reserved":false,"is_disabled":false,"rental_uris":{"android":"levelo://app?vid=f0622547-115c-4aab-a330-c8c9f80dea9e","ios":"levelo://app?vid=f0622547-115c-4aab-a330-c8c9f80dea9e"},"vehicle_type_id":"4","last_reported":1760641571,"current_range_meters":8000,"station_id":"","pricing_plan_id":"cebpf4jnsgd1na2vs0mg"},{"bike_id":"0050aa48-169b-4e1e-8948-f0e78718ce72","system_id":"levelo_inurba_marseille","lat":43.2925,"lon":5.38439,"is_reserved":false,"is_disabled":false,"rental_uris":{"android":"levelo://app?vid=0050aa48-169b-4e1e-8948-f0e78718ce72","ios":"levelo://app?vid=0050aa48-169b-4e1e-8948-f0e78718ce72"},"vehicle_type_id":"4","last_reported":1760641571,"current_range_meters":8000,"station_id":"ce4bh692rcd13ifvqea0","pricing_plan_id":"cebpf4jnsgd1na2vs0mg"},{"bike_id":"6f358d3d-b300-4151-80af-301a91648290","system_id":"levelo_inurba_marseille","lat":43.27949,"lon":5.41032,"is_reserved":false,"is_disabled":false,"rental_uris":{"android":"levelo://app?vid=6f358d3d-b300-4151-80af-301a91648290","ios":"levelo://app?vid=6f358d3d-b300-4151-80af-301a91648290"},"vehicle_type_id":"4","last_reported":1760641571,"current_range_meters":8000,"station_id":"ce4bhnp2rcd13ifvqh0g","pricing_plan_id":"cebpf4jnsgd1na2vs0mg"},{"bike_id":"bab7c897-133e-4801-a770-b560149a39ec","system_id":"levelo_inurba_marseille","lat":43.22935,"lon":5.35376,"is_reserved":false,"is_disabled":false,"rental_uris":{"android":"levelo://app?vid=bab7c897-133e-4801-a770-b560149a39ec","ios":"levelo://app?vid=bab7c897-133e-4801-a770-b560149a39ec"},"vehicle_type_id":"4","last_reported":1760641571,"current_range_meters":8000,"station_id":"cpo3532slgdg3j2ikp40","pricing_plan_id":"cebpf4jnsgd1na2vs0mg"},{"bike_id":"6d02532e-4cb4-4048-bfac-6338972aaf99","system_id":"levelo_inurba_marseille","lat":43.34348,"lon":5.34984,"is_reserved":false,"is_disabled":false,"rental_uris":{"android":"levelo://app?vid=6d02532e-4cb4-4048-bfac-6338972aaf99","ios":"levelo://app?vid=6d02532e-4cb4-4048-bfac-6338972aaf99"},"vehicle_type_id":"4","last_reported":1760641571,"current_range_meters":8400,"station_id":"","pricing_plan_id":"cebpf4jnsgd1na2vs0mg"},{"bike_id":"37ead649-67b3-4824-b49b-44a7ffa05ce6","system_id":"levelo_inurba_marseille","lat":43.29579,"lon":5.37699,"is_reserved":false,"is_disabled":false,"rental_uris":{"android":"levelo://app?vid=37ead649-67b3-4824-b49b-44a7ffa05ce6","ios":"levelo://app?vid=37ead649-67b3-4824-b49b-44a7ffa05ce6"},"vehicle_type_id":"4","last_reported":1760641571,"current_range_meters":8400,"station_id":"","pricing_plan_id":"cebpf4jnsgd1na2vs0mg"},{"bike_id":"888532e3-8dff-4083-96c9-cb159c428b8b","system_id":"levelo_inurba_marseille","lat":43.29293,"lon":5.38027,"is_reserved":false,"is_disabled":false,"rental_uris":{"android":"levelo://app?vid=888532e3-8dff-4083-96c9-cb159c428b8b","ios":"levelo://app?vid=888532e3-8dff-4083-96c9-cb159c428b8b"},"vehicle_type_id":"4","last_reported":1760641571,"current_range_meters":8400,"station_id":"","pricing_plan_id":"cebpf4jnsgd1na2vs0mg"},{"bike_id":"b3410386-4ee8-47e6-8d2a-b02720b0c0c9","system_id":"levelo_inurba_marseille","lat":43.28476,"lon":5.37908,"is_reserved":false,"is_disabled":false,"rental_uris":{"android":"levelo://app?vid=b3410386-4ee8-47e6-8d2a-b02720b0c0c9","ios":"levelo://app?vid=b3410386-4ee8-47e6-8d2a-b02720b0c0c9"},"vehicle_type_id":"4","last_reported":1760641571,"current_range_meters":8400,"station_id":"","pricing_plan_id":"cebpf4jnsgd1na2vs0mg"},{"bike_id":"490dc7bf-dfa8-4081-a852-64adaddb552d","system_id":"levelo_inurba_marseille","lat":43.30134,"lon":5.387635,"is_reserved":false,"is_disabled":false,"rental_uris":{"android":"levelo://app?vid=490dc7bf-dfa8-4081-a852-64adaddb552d","ios":"levelo://app?vid=490dc7bf-dfa8-4081-a852-64adaddb552d"},"vehicle_type_id":"4","last_reported":1760641571,"current_range_meters":8400,"station_id":"ce4bghh2rcd13ifvqb60","pricing_plan_id":"cebpf4jnsgd1na2vs0mg"},{"bike_id":"f892c4e4-3f00-4e78-93ab-5777ab2848f0","system_id":"levelo_inurba_marseille","lat":43.29613,"lon":5.3772,"is_reserved":false,"is_disabled":false,"rental_uris":{"android":"levelo://app?vid=f892c4e4-3f00-4e78-93ab-5777ab2848f0","ios":"levelo://app?vid=f892c4e4-3f00-4e78-93ab-5777ab2848f0"},"vehicle_type_id":"4","last_reported":1760641571,"current_range_meters":8400,"station_id":"ce4bgi92rcd13ifvqb90","pricing_plan_id":"cebpf4jnsgd1na2vs0mg"},{"bike_id":"a5b4e664-bfeb-42ef-8689-597a2b65dcde","system_id":"levelo_inurba_marseille","lat":43.28938,"lon":5.36385,"is_reserved":false,"is_disabled":false,"rental_uris":{"android":"levelo://app?vid=a5b4e664-bfeb-42ef-8689-597a2b65dcde","ios":"levelo://app?vid=a5b4e664-bfeb-42ef-8689-597a2b65dcde"},"vehicle_type_id":"4","last_reported":1760641571,"current_range_meters":8400,"station_id":"ce4bhc92rcd13ifvqetg","pricing_plan_id":"cebpf4jnsgd1na2vs0mg"},{"bike_id":"76acc2e9-6dcf-44a8-b8c3-46b004e4856d","system_id":"levelo_inurba_marseille","lat":43.29617,"lon":5.37165,"is_reserved":false,"is_disabled":false,"rental_uris":{"android":"levelo://app?vid=76acc2e9-6dcf-44a8-b8c3-46b004e4856d","ios":"levelo://app?vid=76acc2e9-6dcf-44a8-b8c3-46b004e4856d"},"vehicle_type_id":"4","last_reported":1760641571,"current_range_meters":8800,"station_id":"ce4bgnh2rcd13ifvqc0g","pricing_plan_id":"cebpf4jnsgd1na2vs0mg"},{"bike_id":"a90a9605-898d-4b48-898d-d83df78ff9fe","system_id":"levelo_inurba_marseille","lat":43.29623,"lon":5.37159,"is_reserved":false,"is_disabled":false,"rental_uris":{"android":"levelo://app?vid=a90a9605-898d-4b48-898d-d83df78ff9fe","ios":"levelo://app?vid=a90a9605-898d-4b48-898d-d83df78ff9fe"},"vehicle_type_id":"4","last_reported":1760641571,"current_range_meters":8800,"station_id":"ce4bgnh2rcd13ifvqc0g","pricing_plan_id":"cebpf4jnsgd1na2vs0mg"},{"bike_id":"7dcac663-6ba8-4008-bacd-c2fbe86da5c3","system_id":"levelo_inurba_marseille","lat":43.255821,"lon":5.382217,"is_reserved":false,"is_disabled":false,"rental_uris":{"android":"levelo://app?vid=7dcac663-6ba8-4008-bacd-c2fbe86da5c3","ios":"levelo://app?vid=7dcac663-6ba8-4008-bacd-c2fbe86da5c3"},"vehicle_type_id":"4","last_reported":1760641571,"current_range_meters":8800,"station_id":"ce4bhih2rcd13ifvqfs0","pricing_plan_id":"cebpf4jnsgd1na2vs0mg"},{"bike_id":"8cbdec29-a4fd-42ef-b2f2-8459cc5273b1","system_id":"levelo_inurba_marseille","lat":43.27814,"lon":5.40712,"is_reserved":false,"is_disabled":false,"rental_uris":{"android":"levelo://app?vid=8cbdec29-a4fd-42ef-b2f2-8459cc5273b1","ios":"levelo://app?vid=8cbdec29-a4fd-42ef-b2f2-8459cc5273b1"},"vehicle_type_id":"4","last_reported":1760641571,"current_range_meters":8800,"station_id":"ce4bhnh2rcd13ifvqgtg","pricing_plan_id":"cebpf4jnsgd1na2vs0mg"},{"bike_id":"1dc3768d-0b4e-4859-817c-5a4ee299d7ad","system_id":"levelo_inurba_marseille","lat":43.2974,"lon":5.37905,"is_reserved":false,"is_disabled":false,"rental_uris":{"android":"levelo://app?vid=1dc3768d-0b4e-4859-817c-5a4ee299d7ad","ios":"levelo://app?vid=1dc3768d-0b4e-4859-817c-5a4ee299d7ad"},"vehicle_type_id":"4","last_reported":1760641571,"current_range_meters":9200,"station_id":"","pricing_plan_id":"cebpf4jnsgd1na2vs0mg"},{"bike_id":"e653d651-3413-475c-ab3f-d9a552f01fb2","system_id":"levelo_inurba_marseille","lat":43.292572,"lon":5.384416,"is_reserved":false,"is_disabled":false,"rental_uris":{"android":"levelo://app?vid=e653d651-3413-475c-ab3f-d9a552f01fb2","ios":"levelo://app?vid=e653d651-3413-475c-ab3f-d9a552f01fb2"},"vehicle_type_id":"4","last_reported":1760641571,"current_range_meters":9200,"station_id":"","pricing_plan_id":"cebpf4jnsgd1na2vs0mg"},{"bike_id":"93a466ad-b561-40e6-b70f-9c4f49225716","system_id":"levelo_inurba_marseille","lat":43.30792,"lon":5.37647,"is_reserved":false,"is_disabled":false,"rental_uris":{"android":"levelo://app?vid=93a466ad-b561-40e6-b70f-9c4f49225716","ios":"levelo://app?vid=93a466ad-b561-40e6-b70f-9c4f49225716"},"vehicle_type_id":"4","last_reported":1760641571,"current_range_meters":9200,"station_id":"ce4bgv92rcd13ifvqcq0","pricing_plan_id":"cebpf4jnsgd1na2vs0mg"},{"bike_id":"61d30f51-9b28-4ee6-97a3-db5b24b1c4dd","system_id":"levelo_inurba_marseille","lat":43.3009,"lon":5.39064,"is_reserved":false,"is_disabled":false,"rental_uris":{"android":"levelo://app?vid=61d30f51-9b28-4ee6-97a3-db5b24b1c4dd","ios":"levelo://app?vid=61d30f51-9b28-4ee6-97a3-db5b24b1c4dd"},"vehicle_type_id":"4","last_reported":1760641571,"current_range_meters":9200,"station_id":"ce4bh192rcd13ifvqdb0","pricing_plan_id":"cebpf4jnsgd1na2vs0mg"},{"bike_id":"e324e450-4541-42bc-8f3d-a7b90805439e","system_id":"levelo_inurba_marseille","lat":43.304287,"lon":5.38889,"is_reserved":false,"is_disabled":false,"rental_uris":{"android":"levelo://app?vid=e324e450-4541-42bc-8f3d-a7b90805439e","ios":"levelo://app?vid=e324e450-4541-42bc-8f3d-a7b90805439e"},"vehicle_type_id":"4","last_reported":1760641571,"current_range_meters":9200,"station_id":"ce4bh292rcd13ifvqdf0","pricing_plan_id":"cebpf4jnsgd1na2vs0mg"},{"bike_id":"f80d297e-6c72-497c-b756-c1a636d2cd13","system_id":"levelo_inurba_marseille","lat":43.284175,"lon":5.349834,"is_reserved":false,"is_disabled":false,"rental_uris":{"android":"levelo://app?vid=f80d297e-6c72-497c-b756-c1a636d2cd13","ios":"levelo://app?vid=f80d297e-6c72-497c-b756-c1a636d2cd13"},"vehicle_type_id":"4","last_reported":1760641571,"current_range_meters":9200,"station_id":"ce4bhbh2rcd13ifvqepg","pricing_plan_id":"cebpf4jnsgd1na2vs0mg"},{"bike_id":"7a63795d-d6ae-4db3-866d-c16b2af002f1","system_id":"levelo_inurba_marseille","lat":43.29978,"lon":5.37526,"is_reserved":false,"is_disabled":false,"rental_uris":{"android":"levelo://app?vid=7a63795d-d6ae-4db3-866d-c16b2af002f1","ios":"levelo://app?vid=7a63795d-d6ae-4db3-866d-c16b2af002f1"},"vehicle_type_id":"4","last_reported":1760641571,"current_range_meters":9600,"station_id":"","pricing_plan_id":"cebpf4jnsgd1na2vs0mg"},{"bike_id":"850a8e8d-fa0e-48a5-b348-fa42cc424429","system_id":"levelo_inurba_marseille","lat":43.29589,"lon":5.39601,"is_reserved":false,"is_disabled":false,"rental_uris":{"android":"levelo://app?vid=850a8e8d-fa0e-48a5-b348-fa42cc424429","ios":"levelo://app?vid=850a8e8d-fa0e-48a5-b348-fa42cc424429"},"vehicle_type_id":"4","last_reported":1760641571,"current_range_meters":9600,"station_id":"","pricing_plan_id":"cebpf4jnsgd1na2vs0mg"},{"bike_id":"a3cb4bd9-3634-4eb3-803c-69ae7465a7d5","system_id":"levelo_inurba_marseille","lat":43.30542,"lon":5.382259,"is_reserved":false,"is_disabled":false,"rental_uris":{"android":"levelo://app?vid=a3cb4bd9-3634-4eb3-803c-69ae7465a7d5","ios":"levelo://app?vid=a3cb4bd9-3634-4eb3-803c-69ae7465a7d5"},"vehicle_type_id":"4","last_reported":1760641571,"current_range_meters":9600,"station_id":"","pricing_plan_id":"cebpf4jnsgd1na2vs0mg"},{"bike_id":"69f740d3-df3f-477f-8c1e-294f07424eb6","system_id":"levelo_inurba_marseille","lat":43.29536,"lon":5.3855,"is_reserved":false,"is_disabled":false,"rental_uris":{"android":"levelo://app?vid=69f740d3-df3f-477f-8c1e-294f07424eb6","ios":"levelo://app?vid=69f740d3-df3f-477f-8c1e-294f07424eb6"},"vehicle_type_id":"4","last_reported":1760641571,"current_range_meters":9600,"station_id":"ce4bgih2rcd13ifvqba0","pricing_plan_id":"cebpf4jnsgd1na2vs0mg"},{"bike_id":"91c07283-3276-4f5c-8d7f-7fb8df7f49bb","system_id":"levelo_inurba_marseille","lat":43.30669,"lon":5.40097,"is_reserved":false,"is_disabled":false,"rental_uris":{"android":"levelo://app?vid=91c07283-3276-4f5c-8d7f-7fb8df7f49bb","ios":"levelo://app?vid=91c07283-3276-4f5c-8d7f-7fb8df7f49bb"},"vehicle_type_id":"4","last_reported":1760641571,"current_range_meters":9600,"station_id":"ce4bh112rcd13ifvqda0","pricing_plan_id":"cebpf4jnsgd1na2vs0mg"},{"bike_id":"f3b1d7a9-242c-4e91-80cf-31788f8b1154","system_id":"levelo_inurba_marseille","lat":43.29196,"lon":5.39339,"is_reserved":false,"is_disabled":false,"rental_uris":{"android":"levelo://app?vid=f3b1d7a9-242c-4e91-80cf-31788f8b1154","ios":"levelo://app?vid=f3b1d7a9-242c-4e91-80cf-31788f8b1154"},"vehicle_type_id":"4","last_reported":1760641571,"current_range_meters":9600,"station_id":"ce4bh192rcd13ifvqdd0","pricing_plan_id":"cebpf4jnsgd1na2vs0mg"},{"bike_id":"5e894017-24bc-4d82-969a-660982613c79","system_id":"levelo_inurba_marseille","lat":43.28674,"lon":5.3866,"is_reserved":false,"is_disabled":false,"rental_uris":{"android":"levelo://app?vid=5e894017-24bc-4d82-969a-660982613c79","ios":"levelo://app?vid=5e894017-24bc-4d82-969a-660982613c79"},"vehicle_type_id":"4","last_reported":1760641571,"current_range_meters":9600,"station_id":"ce4bh492rcd13ifvqdug","pricing_plan_id":"cebpf4jnsgd1na2vs0mg"},{"bike_id":"69498116-c619-4c18-bdcc-044f697eb141","system_id":"levelo_inurba_marseille","lat":43.288836,"lon":5.38212,"is_reserved":false,"is_disabled":false,"rental_uris":{"android":"levelo://app?vid=69498116-c619-4c18-bdcc-044f697eb141","ios":"levelo://app?vid=69498116-c619-4c18-bdcc-044f697eb141"},"vehicle_type_id":"4","last_reported":1760641571,"current_range_meters":10000,"station_id":"","pricing_plan_id":"cebpf4jnsgd1na2vs0mg"},{"bike_id":"6bfefb95-d299-4119-b5a3-c4608a4de6e6","system_id":"levelo_inurba_marseille","lat":43.30139,"lon":5.38779,"is_reserved":false,"is_disabled":false,"rental_uris":{"android":"levelo://app?vid=6bfefb95-d299-4119-b5a3-c4608a4de6e6","ios":"levelo://app?vid=6bfefb95-d299-4119-b5a3-c4608a4de6e6"},"vehicle_type_id":"4","last_reported":1760641571,"current_range_meters":10000,"station_id":"ce4bghh2rcd13ifvqb60","pricing_plan_id":"cebpf4jnsgd1na2vs0mg"},{"bike_id":"7b957d9d-53a0-4978-b8fb-229920dcfd6e","system_id":"levelo_inurba_marseille","lat":43.29027,"lon":5.38634,"is_reserved":false,"is_disabled":false,"rental_uris":{"android":"levelo://app?vid=7b957d9d-53a0-4978-b8fb-229920dcfd6e","ios":"levelo://app?vid=7b957d9d-53a0-4978-b8fb-229920dcfd6e"},"vehicle_type_id":"4","last_reported":1760641571,"current_range_meters":10000,"station_id":"ce4bh4p2rcd13ifvqe0g","pricing_plan_id":"cebpf4jnsgd1na2vs0mg"},{"bike_id":"0866b9bf-967e-4561-ac7b-890985361df8","system_id":"levelo_inurba_marseille","lat":43.29247,"lon":5.38444,"is_reserved":false,"is_disabled":false,"rental_uris":{"android":"levelo://app?vid=0866b9bf-967e-4561-ac7b-890985361df8","ios":"levelo://app?vid=0866b9bf-967e-4561-ac7b-890985361df8"},"vehicle_type_id":"4","last_reported":1760641571,"current_range_meters":10000,"station_id":"ce4bh692rcd13ifvqea0","pricing_plan_id":"cebpf4jnsgd1na2vs0mg"},{"bike_id":"d68b41be-366f-40d7-a414-434cfe0517a5","system_id":"levelo_inurba_marseille","lat":43.317645,"lon":5.422163,"is_reserved":false,"is_disabled":false,"rental_uris":{"android":"levelo://app?vid=d68b41be-366f-40d7-a414-434cfe0517a5","ios":"levelo://app?vid=d68b41be-366f-40d7-a414-434cfe0517a5"},"vehicle_type_id":"4","last_reported":1760641571,"current_range_meters":10800,"station_id":"","pricing_plan_id":"cebpf4jnsgd1na2vs0mg"},{"bike_id":"47b6a661-48b8-461f-9827-f48295e67bbf","system_id":"levelo_inurba_marseille","lat":43.26308,"lon":5.39835,"is_reserved":false,"is_disabled":false,"rental_uris":{"android":"levelo://app?vid=47b6a661-48b8-461f-9827-f48295e67bbf","ios":"levelo://app?vid=47b6a661-48b8-461f-9827-f48295e67bbf"},"vehicle_type_id":"4","last_reported":1760641571,"current_range_meters":10800,"station_id":"","pricing_plan_id":"cebpf4jnsgd1na2vs0mg"},{"bike_id":"c871ca87-9ea0-4c82-8f96-1d74fe568265","system_id":"levelo_inurba_marseille","lat":43.2857,"lon":5.41482,"is_reserved":false,"is_disabled":false,"rental_uris":{"android":"levelo://app?vid=c871ca87-9ea0-4c82-8f96-1d74fe568265","ios":"levelo://app?vid=c871ca87-9ea0-4c82-8f96-1d74fe568265"},"vehicle_type_id":"4","last_reported":1760641571,"current_range_meters":10800,"station_id":"","pricing_plan_id":"cebpf4jnsgd1na2vs0mg"},{"bike_id":"661eea50-f9d7-42ce-8a65-73894c61902a","system_id":"levelo_inurba_marseille","lat":43.296169,"lon":5.371541,"is_reserved":false,"is_disabled":false,"rental_uris":{"android":"levelo://app?vid=661eea50-f9d7-42ce-8a65-73894c61902a","ios":"levelo://app?vid=661eea50-f9d7-42ce-8a65-73894c61902a"},"vehicle_type_id":"4","last_reported":1760641571,"current_range_meters":10800,"station_id":"ce4bgnh2rcd13ifvqc0g","pricing_plan_id":"cebpf4jnsgd1na2vs0mg"},{"bike_id":"f846f329-5896-44d6-83fe-c8b97f1e4c27","system_id":"levelo_inurba_marseille","lat":43.32992,"lon":5.39119,"is_reserved":false,"is_disabled":false,"rental_uris":{"android":"levelo://app?vid=f846f329-5896-44d6-83fe-c8b97f1e4c27","ios":"levelo://app?vid=f846f329-5896-44d6-83fe-c8b97f1e4c27"},"vehicle_type_id":"4","last_reported":1760641571,"current_range_meters":11200,"station_id":"","pricing_plan_id":"cebpf4jnsgd1na2vs0mg"},{"bike_id":"a0d21127-60a7-45bf-97e7-f347692f625a","system_id":"levelo_inurba_marseille","lat":43.3027,"lon":5.37721,"is_reserved":false,"is_disabled":false,"rental_uris":{"android":"levelo://app?vid=a0d21127-60a7-45bf-97e7-f347692f625a","ios":"levelo://app?vid=a0d21127-60a7-45bf-97e7-f347692f625a"},"vehicle_type_id":"4","last_reported":1760641571,"current_range_meters":11200,"station_id":"ce4bguh2rcd13ifvqcj0","pricing_plan_id":"cebpf4jnsgd1na2vs0mg"},{"bike_id":"89c24311-9c86-4e6e-85f5-8409c2995894","system_id":"levelo_inurba_marseille","lat":43.29145,"lon":5.37166,"is_reserved":false,"is_disabled":false,"rental_uris":{"android":"levelo://app?vid=89c24311-9c86-4e6e-85f5-8409c2995894","ios":"levelo://app?vid=89c24311-9c86-4e6e-85f5-8409c2995894"},"vehicle_type_id":"4","last_reported":1760641571,"current_range_meters":11200,"station_id":"ce4bha92rcd13ifvqeh0","pricing_plan_id":"cebpf4jnsgd1na2vs0mg"},{"bike_id":"6a2a376a-00e6-4b40-8775-ed55d86d0127","system_id":"levelo_inurba_marseille","lat":43.27165,"lon":5.41024,"is_reserved":false,"is_disabled":false,"rental_uris":{"android":"levelo://app?vid=6a2a376a-00e6-4b40-8775-ed55d86d0127","ios":"levelo://app?vid=6a2a376a-00e6-4b40-8775-ed55d86d0127"},"vehicle_type_id":"4","last_reported":1760641571,"current_range_meters":11200,"station_id":"ce4bhl12rcd13ifvqgf0","pricing_plan_id":"cebpf4jnsgd1na2vs0mg"},{"bike_id":"a6c6e31d-6436-4438-b0a1-12ecf34d9ba4","system_id":"levelo_inurba_marseille","lat":43.297942,"lon":5.381113,"is_reserved":false,"is_disabled":false,"rental_uris":{"android":"levelo://app?vid=a6c6e31d-6436-4438-b0a1-12ecf34d9ba4","ios":"levelo://app?vid=a6c6e31d-6436-4438-b0a1-12ecf34d9ba4"},"vehicle_type_id":"4","last_reported":1760641571,"current_range_meters":11600,"station_id":"ce4bgip2rcd13ifvqbb0","pricing_plan_id":"cebpf4jnsgd1na2vs0mg"},{"bike_id":"98870d56-6bf7-4d90-95a9-d17a45aa8104","system_id":"levelo_inurba_marseille","lat":43.30207,"lon":5.39467,"is_reserved":false,"is_disabled":false,"rental_uris":{"android":"levelo://app?vid=98870d56-6bf7-4d90-95a9-d17a45aa8104","ios":"levelo://app?vid=98870d56-6bf7-4d90-95a9-d17a45aa8104"},"vehicle_type_id":"4","last_reported":1760641571,"current_range_meters":11600,"station_id":"ce4bh0p2rcd13ifvqd70","pricing_plan_id":"cebpf4jnsgd1na2vs0mg"},{"bike_id":"1c51ea6a-4b8c-4a6b-be00-e3eaeba54942","system_id":"levelo_inurba_marseille","lat":43.28662,"lon":5.38681,"is_reserved":false,"is_disabled":false,"rental_uris":{"android":"levelo://app?vid=1c51ea6a-4b8c-4a6b-be00-e3eaeba54942","ios":"levelo://app?vid=1c51ea6a-4b8c-4a6b-be00-e3eaeba54942"},"vehicle_type_id":"4","last_reported":1760641571,"current_range_meters":11600,"station_id":"ce4bh492rcd13ifvqdug","pricing_plan_id":"cebpf4jnsgd1na2vs0mg"},{"bike_id":"56f00e15-6d06-4ce5-899b-01bfa6300086","system_id":"levelo_inurba_marseille","lat":43.25001,"lon":5.3892,"is_reserved":false,"is_disabled":false,"rental_uris":{"android":"levelo://app?vid=56f00e15-6d06-4ce5-899b-01bfa6300086","ios":"levelo://app?vid=56f00e15-6d06-4ce5-899b-01bfa6300086"},"vehicle_type_id":"4","last_reported":1760641571,"current_range_meters":11600,"station_id":"ce4bhgp2rcd13ifvqfd0","pricing_plan_id":"cebpf4jnsgd1na2vs0mg"},{"bike_id":"eef523d2-5eb5-4de0-985b-ccb107d5efb2","system_id":"levelo_inurba_marseille","lat":43.25735,"lon":5.41111,"is_reserved":false,"is_disabled":false,"rental_uris":{"android":"levelo://app?vid=eef523d2-5eb5-4de0-985b-ccb107d5efb2","ios":"levelo://app?vid=eef523d2-5eb5-4de0-985b-ccb107d5efb2"},"vehicle_type_id":"4","last_reported":1760641571,"current_range_meters":11600,"station_id":"ce4bhkp2rcd13ifvqgd0","pricing_plan_id":"cebpf4jnsgd1na2vs0mg"},{"bike_id":"a9b3213c-53d5-4a41-9f19-c71b611a2959","system_id":"levelo_inurba_marseille","lat":43.28691,"lon":5.39991,"is_reserved":false,"is_disabled":false,"rental_uris":{"android":"levelo://app?vid=a9b3213c-53d5-4a41-9f19-c71b611a2959","ios":"levelo://app?vid=a9b3213c-53d5-4a41-9f19-c71b611a2959"},"vehicle_type_id":"4","last_reported":1760641571,"current_range_meters":11600,"station_id":"ce4bho92rcd13ifvqh3g","pricing_plan_id":"cebpf4jnsgd1na2vs0mg"},{"bike_id":"bbfe1bea-dcd5-4f1f-831d-b4031a6a2283","system_id":"levelo_inurba_marseille","lat":43.28,"lon":5.40012,"is_reserved":false,"is_disabled":false,"rental_uris":{"android":"levelo://app?vid=bbfe1bea-dcd5-4f1f-831d-b4031a6a2283","ios":"levelo://app?vid=bbfe1bea-dcd5-4f1f-831d-b4031a6a2283"},"vehicle_type_id":"4","last_reported":1760641571,"current_range_meters":11600,"station_id":"ce4bho92rcd13ifvqh4g","pricing_plan_id":"cebpf4jnsgd1na2vs0mg"},{"bike_id":"70f98bd7-8d1e-4b85-ac62-74beb2adecd6","system_id":"levelo_inurba_marseille","lat":43.30417,"lon":5.41279,"is_reserved":false,"is_disabled":false,"rental_uris":{"android":"levelo://app?vid=70f98bd7-8d1e-4b85-ac62-74beb2adecd6","ios":"levelo://app?vid=70f98bd7-8d1e-4b85-ac62-74beb2adecd6"},"vehicle_type_id":"4","last_reported":1760641571,"current_range_meters":11600,"station_id":"ce4bhop2rcd13ifvqh8g","pricing_plan_id":"cebpf4jnsgd1na2vs0mg"},{"bike_id":"b953b5b3-bbaf-44b0-80a6-4c91b38c25dc","system_id":"levelo_inurba_marseille","lat":43.23188,"lon":5.35563,"is_reserved":false,"is_disabled":false,"rental_uris":{"android":"levelo://app?vid=b953b5b3-bbaf-44b0-80a6-4c91b38c25dc","ios":"levelo://app?vid=b953b5b3-bbaf-44b0-80a6-4c91b38c25dc"},"vehicle_type_id":"4","last_reported":1760641571,"current_range_meters":11600,"station_id":"ce4bhu92rcd13ifvqi70","pricing_plan_id":"cebpf4jnsgd1na2vs0mg"},{"bike_id":"342bbd7f-b89e-49c5-9d2b-3dc340ae6c2a","system_id":"levelo_inurba_marseille","lat":43.211871,"lon":5.350734,"is_reserved":false,"is_disabled":false,"rental_uris":{"android":"levelo://app?vid=342bbd7f-b89e-49c5-9d2b-3dc340ae6c2a","ios":"levelo://app?vid=342bbd7f-b89e-49c5-9d2b-3dc340ae6c2a"},"vehicle_type_id":"4","last_reported":1760641571,"current_range_meters":11600,"station_id":"st_cvj6sg6p6f1abm77japg","pricing_plan_id":"cebpf4jnsgd1na2vs0mg"},{"bike_id":"74693b79-e180-4500-87ab-1a5fafe536d5","system_id":"levelo_inurba_marseille","lat":43.27936,"lon":5.39575,"is_reserved":false,"is_disabled":false,"rental_uris":{"android":"levelo://app?vid=74693b79-e180-4500-87ab-1a5fafe536d5","ios":"levelo://app?vid=74693b79-e180-4500-87ab-1a5fafe536d5"},"vehicle_type_id":"4","last_reported":1760641571,"current_range_meters":12000,"station_id":"","pricing_plan_id":"cebpf4jnsgd1na2vs0mg"},{"bike_id":"2935fa5a-befe-4d3d-aa8a-64f80dc3a048","system_id":"levelo_inurba_marseille","lat":43.274501,"lon":5.407335,"is_reserved":false,"is_disabled":false,"rental_uris":{"android":"levelo://app?vid=2935fa5a-befe-4d3d-aa8a-64f80dc3a048","ios":"levelo://app?vid=2935fa5a-befe-4d3d-aa8a-64f80dc3a048"},"vehicle_type_id":"4","last_reported":1760641571,"current_range_meters":12000,"station_id":"","pricing_plan_id":"cebpf4jnsgd1na2vs0mg"},{"bike_id":"23ba1584-fd14-415d-ba85-9bd92642f6cc","system_id":"levelo_inurba_marseille","lat":43.25818,"lon":5.38346,"is_reserved":false,"is_disabled":false,"rental_uris":{"android":"levelo://app?vid=23ba1584-fd14-415d-ba85-9bd92642f6cc","ios":"levelo://app?vid=23ba1584-fd14-415d-ba85-9bd92642f6cc"},"vehicle_type_id":"4","last_reported":1760641571,"current_range_meters":12000,"station_id":"","pricing_plan_id":"cebpf4jnsgd1na2vs0mg"},{"bike_id":"0670def4-b15a-4c00-8829-0cd906a61bcb","system_id":"levelo_inurba_marseille","lat":43.33763,"lon":5.37431,"is_reserved":false,"is_disabled":false,"rental_uris":{"android":"levelo://app?vid=0670def4-b15a-4c00-8829-0cd906a61bcb","ios":"levelo://app?vid=0670def4-b15a-4c00-8829-0cd906a61bcb"},"vehicle_type_id":"4","last_reported":1760641571,"current_range_meters":12000,"station_id":"","pricing_plan_id":"cebpf4jnsgd1na2vs0mg"},{"bike_id":"4d053a6e-6cd8-4c61-a749-9d4aa92678a2","system_id":"levelo_inurba_marseille","lat":43.29196,"lon":5.39314,"is_reserved":false,"is_disabled":false,"rental_uris":{"android":"levelo://app?vid=4d053a6e-6cd8-4c61-a749-9d4aa92678a2","ios":"levelo://app?vid=4d053a6e-6cd8-4c61-a749-9d4aa92678a2"},"vehicle_type_id":"4","last_reported":1760641571,"current_range_meters":12000,"station_id":"ce4bh192rcd13ifvqdd0","pricing_plan_id":"cebpf4jnsgd1na2vs0mg"},{"bike_id":"8cbbd635-7d01-4f5a-952b-7e695a6e83f4","system_id":"levelo_inurba_marseille","lat":43.29249,"lon":5.38449,"is_reserved":false,"is_disabled":false,"rental_uris":{"android":"levelo://app?vid=8cbbd635-7d01-4f5a-952b-7e695a6e83f4","ios":"levelo://app?vid=8cbbd635-7d01-4f5a-952b-7e695a6e83f4"},"vehicle_type_id":"4","last_reported":1760641571,"current_range_meters":12000,"station_id":"ce4bh692rcd13ifvqea0","pricing_plan_id":"cebpf4jnsgd1na2vs0mg"},{"bike_id":"86907f51-b6ac-4d9f-aba0-65e0a3d00f25","system_id":"levelo_inurba_marseille","lat":43.21184,"lon":5.35074,"is_reserved":false,"is_disabled":false,"rental_uris":{"android":"levelo://app?vid=86907f51-b6ac-4d9f-aba0-65e0a3d00f25","ios":"levelo://app?vid=86907f51-b6ac-4d9f-aba0-65e0a3d00f25"},"vehicle_type_id":"4","last_reported":1760641571,"current_range_meters":12000,"station_id":"st_cvj6sg6p6f1abm77japg","pricing_plan_id":"cebpf4jnsgd1na2vs0mg"},{"bike_id":"e257a5c9-b99e-4af1-ac4f-b017f1c8b418","system_id":"levelo_inurba_marseille","lat":43.33759,"lon":5.37438,"is_reserved":false,"is_disabled":false,"rental_uris":{"android":"levelo://app?vid=e257a5c9-b99e-4af1-ac4f-b017f1c8b418","ios":"levelo://app?vid=e257a5c9-b99e-4af1-ac4f-b017f1c8b418"},"vehicle_type_id":"4","last_reported":1760641571,"current_range_meters":12400,"station_id":"","pricing_plan_id":"cebpf4jnsgd1na2vs0mg"},{"bike_id":"121f55c8-5a85-4142-a96c-bf52eb873442","system_id":"levelo_inurba_marseille","lat":43.30497,"lon":5.36901,"is_reserved":false,"is_disabled":false,"rental_uris":{"android":"levelo://app?vid=121f55c8-5a85-4142-a96c-bf52eb873442","ios":"levelo://app?vid=121f55c8-5a85-4142-a96c-bf52eb873442"},"vehicle_type_id":"4","last_reported":1760641571,"current_range_meters":12400,"station_id":"","pricing_plan_id":"cebpf4jnsgd1na2vs0mg"},{"bike_id":"21c3a9fe-adfc-4375-8283-33ee1b7e74f0","system_id":"levelo_inurba_marseille","lat":43.31331,"lon":5.36756,"is_reserved":false,"is_disabled":false,"rental_uris":{"android":"levelo://app?vid=21c3a9fe-adfc-4375-8283-33ee1b7e74f0","ios":"levelo://app?vid=21c3a9fe-adfc-4375-8283-33ee1b7e74f0"},"vehicle_type_id":"4","last_reported":1760641571,"current_range_meters":12400,"station_id":"ce4bgr92rcd13ifvqc6g","pricing_plan_id":"cebpf4jnsgd1na2vs0mg"},{"bike_id":"68bcd59a-9f61-44e6-87ff-5d1de6206810","system_id":"levelo_inurba_marseille","lat":43.29161,"lon":5.37168,"is_reserved":false,"is_disabled":false,"rental_uris":{"android":"levelo://app?vid=68bcd59a-9f61-44e6-87ff-5d1de6206810","ios":"levelo://app?vid=68bcd59a-9f61-44e6-87ff-5d1de6206810"},"vehicle_type_id":"4","last_reported":1760641571,"current_range_meters":12400,"station_id":"ce4bha92rcd13ifvqeh0","pricing_plan_id":"cebpf4jnsgd1na2vs0mg"},{"bike_id":"0eac100f-6297-46cb-8d89-de7214a221a1","system_id":"levelo_inurba_marseille","lat":43.25087,"lon":5.39523,"is_reserved":false,"is_disabled":false,"rental_uris":{"android":"levelo://app?vid=0eac100f-6297-46cb-8d89-de7214a221a1","ios":"levelo://app?vid=0eac100f-6297-46cb-8d89-de7214a221a1"},"vehicle_type_id":"4","last_reported":1760641571,"current_range_meters":12400,"station_id":"ce4bhm12rcd13ifvqgkg","pricing_plan_id":"cebpf4jnsgd1na2vs0mg"},{"bike_id":"9e8d83a7-2cc2-4529-aff6-be354ee209bc","system_id":"levelo_inurba_marseille","lat":43.22556,"lon":5.41634,"is_reserved":false,"is_disabled":false,"rental_uris":{"android":"levelo://app?vid=9e8d83a7-2cc2-4529-aff6-be354ee209bc","ios":"levelo://app?vid=9e8d83a7-2cc2-4529-aff6-be354ee209bc"},"vehicle_type_id":"4","last_reported":1760641571,"current_range_meters":12400,"station_id":"st_d2o4gvlbi1j2169b742g","pricing_plan_id":"cebpf4jnsgd1na2vs0mg"},{"bike_id":"ef6ce674-8e82-4d2e-906d-43fb025211a6","system_id":"levelo_inurba_marseille","lat":43.287,"lon":5.39998,"is_reserved":false,"is_disabled":false,"rental_uris":{"android":"levelo://app?vid=ef6ce674-8e82-4d2e-906d-43fb025211a6","ios":"levelo://app?vid=ef6ce674-8e82-4d2e-906d-43fb025211a6"},"vehicle_type_id":"4","last_reported":1760641571,"current_range_meters":12800,"station_id":"ce4bho92rcd13ifvqh3g","pricing_plan_id":"cebpf4jnsgd1na2vs0mg"},{"bike_id":"48946e5c-cd06-4321-a7c9-59ec17ec0b64","system_id":"levelo_inurba_marseille","lat":43.24172,"lon":5.36394,"is_reserved":false,"is_disabled":false,"rental_uris":{"android":"levelo://app?vid=48946e5c-cd06-4321-a7c9-59ec17ec0b64","ios":"levelo://app?vid=48946e5c-cd06-4321-a7c9-59ec17ec0b64"},"vehicle_type_id":"4","last_reported":1760641571,"current_range_meters":12800,"station_id":"cpo36qri1sfpv3e86is0","pricing_plan_id":"cebpf4jnsgd1na2vs0mg"},{"bike_id":"705c593f-abe0-4f08-b758-a363112007ff","system_id":"levelo_inurba_marseille","lat":43.23781,"lon":5.36629,"is_reserved":false,"is_disabled":false,"rental_uris":{"android":"levelo://app?vid=705c593f-abe0-4f08-b758-a363112007ff","ios":"levelo://app?vid=705c593f-abe0-4f08-b758-a363112007ff"},"vehicle_type_id":"4","last_reported":1760641571,"current_range_meters":12800,"station_id":"st_d3nk18o9ro0c73en2l3g","pricing_plan_id":"cebpf4jnsgd1na2vs0mg"},{"bike_id":"2a5498ee-d604-476f-a7c3-7260eebaa7f3","system_id":"levelo_inurba_marseille","lat":43.29571,"lon":5.37426,"is_reserved":false,"is_disabled":false,"rental_uris":{"android":"levelo://app?vid=2a5498ee-d604-476f-a7c3-7260eebaa7f3","ios":"levelo://app?vid=2a5498ee-d604-476f-a7c3-7260eebaa7f3"},"vehicle_type_id":"4","last_reported":1760641571,"current_range_meters":13600,"station_id":"","pricing_plan_id":"cebpf4jnsgd1na2vs0mg"},{"bike_id":"305418de-26f6-4dee-8be7-3f0e6a31b5c4","system_id":"levelo_inurba_marseille","lat":43.295319,"lon":5.385447,"is_reserved":false,"is_disabled":false,"rental_uris":{"android":"levelo://app?vid=305418de-26f6-4dee-8be7-3f0e6a31b5c4","ios":"levelo://app?vid=305418de-26f6-4dee-8be7-3f0e6a31b5c4"},"vehicle_type_id":"4","last_reported":1760641571,"current_range_meters":13600,"station_id":"ce4bhg12rcd13ifvqf80","pricing_plan_id":"cebpf4jnsgd1na2vs0mg"},{"bike_id":"3655fd76-61e9-4218-be48-a478a5d5ca2c","system_id":"levelo_inurba_marseille","lat":43.27071,"lon":5.42279,"is_reserved":false,"is_disabled":false,"rental_uris":{"android":"levelo://app?vid=3655fd76-61e9-4218-be48-a478a5d5ca2c","ios":"levelo://app?vid=3655fd76-61e9-4218-be48-a478a5d5ca2c"},"vehicle_type_id":"4","last_reported":1760641571,"current_range_meters":13600,"station_id":"ce4bhk92rcd13ifvqgb0","pricing_plan_id":"cebpf4jnsgd1na2vs0mg"},{"bike_id":"24d82d64-1145-442f-a9f5-19238b0b39ef","system_id":"levelo_inurba_marseille","lat":43.272133,"lon":5.391866,"is_reserved":false,"is_disabled":false,"rental_uris":{"android":"levelo://app?vid=24d82d64-1145-442f-a9f5-19238b0b39ef","ios":"levelo://app?vid=24d82d64-1145-442f-a9f5-19238b0b39ef"},"vehicle_type_id":"4","last_reported":1760641571,"current_range_meters":14000,"station_id":"","pricing_plan_id":"cebpf4jnsgd1na2vs0mg"},{"bike_id":"d046d89e-522a-4722-bd06-31659e546c97","system_id":"levelo_inurba_marseille","lat":43.28864,"lon":5.37137,"is_reserved":false,"is_disabled":false,"rental_uris":{"android":"levelo://app?vid=d046d89e-522a-4722-bd06-31659e546c97","ios":"levelo://app?vid=d046d89e-522a-4722-bd06-31659e546c97"},"vehicle_type_id":"4","last_reported":1760641571,"current_range_meters":14000,"station_id":"","pricing_plan_id":"cebpf4jnsgd1na2vs0mg"},{"bike_id":"e794dd8b-2f32-4c26-aa52-5492f5fe0a3c","system_id":"levelo_inurba_marseille","lat":43.30584,"lon":5.39352,"is_reserved":false,"is_disabled":false,"rental_uris":{"android":"levelo://app?vid=e794dd8b-2f32-4c26-aa52-5492f5fe0a3c","ios":"levelo://app?vid=e794dd8b-2f32-4c26-aa52-5492f5fe0a3c"},"vehicle_type_id":"4","last_reported":1760641571,"current_range_meters":14000,"station_id":"ce4bh0p2rcd13ifvqd80","pricing_plan_id":"cebpf4jnsgd1na2vs0mg"},{"bike_id":"e3a08f06-ae52-4553-8166-2061a7ef4b84","system_id":"levelo_inurba_marseille","lat":43.240734,"lon":5.377594,"is_reserved":false,"is_disabled":false,"rental_uris":{"android":"levelo://app?vid=e3a08f06-ae52-4553-8166-2061a7ef4b84","ios":"levelo://app?vid=e3a08f06-ae52-4553-8166-2061a7ef4b84"},"vehicle_type_id":"4","last_reported":1760641571,"current_range_meters":14000,"station_id":"ce4bhnp2rcd13ifvqgvg","pricing_plan_id":"cebpf4jnsgd1na2vs0mg"},{"bike_id":"662e034f-ec92-417c-a838-68762f3020bc","system_id":"levelo_inurba_marseille","lat":43.30729,"lon":5.37105,"is_reserved":false,"is_disabled":false,"rental_uris":{"android":"levelo://app?vid=662e034f-ec92-417c-a838-68762f3020bc","ios":"levelo://app?vid=662e034f-ec92-417c-a838-68762f3020bc"},"vehicle_type_id":"4","last_reported":1760641571,"current_range_meters":14400,"station_id":"","pricing_plan_id":"cebpf4jnsgd1na2vs0mg"},{"bike_id":"82d6a004-eae9-4b0e-bf94-06862ce2a17b","system_id":"levelo_inurba_marseille","lat":43.301422,"lon":5.387758,"is_reserved":false,"is_disabled":false,"rental_uris":{"android":"levelo://app?vid=82d6a004-eae9-4b0e-bf94-06862ce2a17b","ios":"levelo://app?vid=82d6a004-eae9-4b0e-bf94-06862ce2a17b"},"vehicle_type_id":"4","last_reported":1760641571,"current_range_meters":14400,"station_id":"ce4bghh2rcd13ifvqb60","pricing_plan_id":"cebpf4jnsgd1na2vs0mg"},{"bike_id":"e279d853-e99b-4d4e-99ef-941113d9838f","system_id":"levelo_inurba_marseille","lat":43.30134,"lon":5.38773,"is_reserved":false,"is_disabled":false,"rental_uris":{"android":"levelo://app?vid=e279d853-e99b-4d4e-99ef-941113d9838f","ios":"levelo://app?vid=e279d853-e99b-4d4e-99ef-941113d9838f"},"vehicle_type_id":"4","last_reported":1760641571,"current_range_meters":14400,"station_id":"ce4bghh2rcd13ifvqb60","pricing_plan_id":"cebpf4jnsgd1na2vs0mg"},{"bike_id":"9488bb38-147d-4132-9195-0849666174da","system_id":"levelo_inurba_marseille","lat":43.2954,"lon":5.38547,"is_reserved":false,"is_disabled":false,"rental_uris":{"android":"levelo://app?vid=9488bb38-147d-4132-9195-0849666174da","ios":"levelo://app?vid=9488bb38-147d-4132-9195-0849666174da"},"vehicle_type_id":"4","last_reported":1760641571,"current_range_meters":14400,"station_id":"ce4bgih2rcd13ifvqba0","pricing_plan_id":"cebpf4jnsgd1na2vs0mg"},{"bike_id":"6529edf1-0bc0-4312-85cd-0da9ceac8001","system_id":"levelo_inurba_marseille","lat":43.29531,"lon":5.38545,"is_reserved":false,"is_disabled":false,"rental_uris":{"android":"levelo://app?vid=6529edf1-0bc0-4312-85cd-0da9ceac8001","ios":"levelo://app?vid=6529edf1-0bc0-4312-85cd-0da9ceac8001"},"vehicle_type_id":"4","last_reported":1760641571,"current_range_meters":14400,"station_id":"ce4bgih2rcd13ifvqba0","pricing_plan_id":"cebpf4jnsgd1na2vs0mg"},{"bike_id":"59d63f35-5c4e-43eb-9b5e-28be7808b3be","system_id":"levelo_inurba_marseille","lat":43.31173,"lon":5.38717,"is_reserved":false,"is_disabled":false,"rental_uris":{"android":"levelo://app?vid=59d63f35-5c4e-43eb-9b5e-28be7808b3be","ios":"levelo://app?vid=59d63f35-5c4e-43eb-9b5e-28be7808b3be"},"vehicle_type_id":"4","last_reported":1760641571,"current_range_meters":14400,"station_id":"ce4bgv12rcd13ifvqcp0","pricing_plan_id":"cebpf4jnsgd1na2vs0mg"},{"bike_id":"b6cd1ab1-7909-4a24-b03d-24c83ebb4a26","system_id":"levelo_inurba_marseille","lat":43.30786,"lon":5.3764,"is_reserved":false,"is_disabled":false,"rental_uris":{"android":"levelo://app?vid=b6cd1ab1-7909-4a24-b03d-24c83ebb4a26","ios":"levelo://app?vid=b6cd1ab1-7909-4a24-b03d-24c83ebb4a26"},"vehicle_type_id":"4","last_reported":1760641571,"current_range_meters":14400,"station_id":"ce4bgv92rcd13ifvqcq0","pricing_plan_id":"cebpf4jnsgd1na2vs0mg"},{"bike_id":"2d351286-ead5-44c8-a238-b46d0d921e7a","system_id":"levelo_inurba_marseille","lat":43.24064,"lon":5.37756,"is_reserved":false,"is_disabled":false,"rental_uris":{"android":"levelo://app?vid=2d351286-ead5-44c8-a238-b46d0d921e7a","ios":"levelo://app?vid=2d351286-ead5-44c8-a238-b46d0d921e7a"},"vehicle_type_id":"4","last_reported":1760641571,"current_range_meters":14400,"station_id":"ce4bhnp2rcd13ifvqgvg","pricing_plan_id":"cebpf4jnsgd1na2vs0mg"},{"bike_id":"a3396ec4-59eb-4604-a611-d80068224eab","system_id":"levelo_inurba_marseille","lat":43.27997,"lon":5.40016,"is_reserved":false,"is_disabled":false,"rental_uris":{"android":"levelo://app?vid=a3396ec4-59eb-4604-a611-d80068224eab","ios":"levelo://app?vid=a3396ec4-59eb-4604-a611-d80068224eab"},"vehicle_type_id":"4","last_reported":1760641571,"current_range_meters":14400,"station_id":"ce4bho92rcd13ifvqh4g","pricing_plan_id":"cebpf4jnsgd1na2vs0mg"},{"bike_id":"19c4b376-4a33-457b-806f-be31273b18b7","system_id":"levelo_inurba_marseille","lat":43.231959,"lon":5.355758,"is_reserved":false,"is_disabled":false,"rental_uris":{"android":"levelo://app?vid=19c4b376-4a33-457b-806f-be31273b18b7","ios":"levelo://app?vid=19c4b376-4a33-457b-806f-be31273b18b7"},"vehicle_type_id":"4","last_reported":1760641571,"current_range_meters":14400,"station_id":"ce4bhu92rcd13ifvqi70","pricing_plan_id":"cebpf4jnsgd1na2vs0mg"},{"bike_id":"416f580b-31c7-4ade-8604-dbd86eb8155f","system_id":"levelo_inurba_marseille","lat":43.28135,"lon":5.42157,"is_reserved":false,"is_disabled":false,"rental_uris":{"android":"levelo://app?vid=416f580b-31c7-4ade-8604-dbd86eb8155f","ios":"levelo://app?vid=416f580b-31c7-4ade-8604-dbd86eb8155f"},"vehicle_type_id":"4","last_reported":1760641571,"current_range_meters":14800,"station_id":"","pricing_plan_id":"cebpf4jnsgd1na2vs0mg"},{"bike_id":"cb12ac95-b112-40d8-8b7d-06759435ef6f","system_id":"levelo_inurba_marseille","lat":43.29612,"lon":5.37163,"is_reserved":false,"is_disabled":false,"rental_uris":{"android":"levelo://app?vid=cb12ac95-b112-40d8-8b7d-06759435ef6f","ios":"levelo://app?vid=cb12ac95-b112-40d8-8b7d-06759435ef6f"},"vehicle_type_id":"4","last_reported":1760641571,"current_range_meters":14800,"station_id":"","pricing_plan_id":"cebpf4jnsgd1na2vs0mg"},{"bike_id":"fa178e80-b17e-4c77-b9c1-abc82df0db97","system_id":"levelo_inurba_marseille","lat":43.30639,"lon":5.37349,"is_reserved":false,"is_disabled":false,"rental_uris":{"android":"levelo://app?vid=fa178e80-b17e-4c77-b9c1-abc82df0db97","ios":"levelo://app?vid=fa178e80-b17e-4c77-b9c1-abc82df0db97"},"vehicle_type_id":"4","last_reported":1760641571,"current_range_meters":14800,"station_id":"","pricing_plan_id":"cebpf4jnsgd1na2vs0mg"},{"bike_id":"20983010-be61-4fb8-9b7c-75c58362840e","system_id":"levelo_inurba_marseille","lat":43.29622,"lon":5.37162,"is_reserved":false,"is_disabled":false,"rental_uris":{"android":"levelo://app?vid=20983010-be61-4fb8-9b7c-75c58362840e","ios":"levelo://app?vid=20983010-be61-4fb8-9b7c-75c58362840e"},"vehicle_type_id":"4","last_reported":1760641571,"current_range_meters":14800,"station_id":"ce4bgnh2rcd13ifvqc0g","pricing_plan_id":"cebpf4jnsgd1na2vs0mg"},{"bike_id":"10c11557-de5f-4d1f-bc6f-07df62769690","system_id":"levelo_inurba_marseille","lat":43.292546,"lon":5.383751,"is_reserved":false,"is_disabled":false,"rental_uris":{"android":"levelo://app?vid=10c11557-de5f-4d1f-bc6f-07df62769690","ios":"levelo://app?vid=10c11557-de5f-4d1f-bc6f-07df62769690"},"vehicle_type_id":"4","last_reported":1760641571,"current_range_meters":14800,"station_id":"ce4bh412rcd13ifvqds0","pricing_plan_id":"cebpf4jnsgd1na2vs0mg"},{"bike_id":"1175aed1-5234-414f-bdea-1d933a5287f1","system_id":"levelo_inurba_marseille","lat":43.24388,"lon":5.37057,"is_reserved":false,"is_disabled":false,"rental_uris":{"android":"levelo://app?vid=1175aed1-5234-414f-bdea-1d933a5287f1","ios":"levelo://app?vid=1175aed1-5234-414f-bdea-1d933a5287f1"},"vehicle_type_id":"4","last_reported":1760641571,"current_range_meters":14800,"station_id":"ce4bhhh2rcd13ifvqfk0","pricing_plan_id":"cebpf4jnsgd1na2vs0mg"},{"bike_id":"a5e06c43-7a7c-497d-89c4-351a269ad985","system_id":"levelo_inurba_marseille","lat":43.280823,"lon":5.396454,"is_reserved":false,"is_disabled":false,"rental_uris":{"android":"levelo://app?vid=a5e06c43-7a7c-497d-89c4-351a269ad985","ios":"levelo://app?vid=a5e06c43-7a7c-497d-89c4-351a269ad985"},"vehicle_type_id":"4","last_reported":1760641571,"current_range_meters":14800,"station_id":"ce4bho12rcd13ifvqh2g","pricing_plan_id":"cebpf4jnsgd1na2vs0mg"},{"bike_id":"ccb61987-9539-430d-a457-3f2b441dd6f3","system_id":"levelo_inurba_marseille","lat":43.27791,"lon":5.40218,"is_reserved":false,"is_disabled":false,"rental_uris":{"android":"levelo://app?vid=ccb61987-9539-430d-a457-3f2b441dd6f3","ios":"levelo://app?vid=ccb61987-9539-430d-a457-3f2b441dd6f3"},"vehicle_type_id":"4","last_reported":1760641571,"current_range_meters":15200,"station_id":"","pricing_plan_id":"cebpf4jnsgd1na2vs0mg"},{"bike_id":"5fe6e873-dba1-40dd-bc65-77de126f2710","system_id":"levelo_inurba_marseille","lat":43.332893,"lon":5.395256,"is_reserved":false,"is_disabled":false,"rental_uris":{"android":"levelo://app?vid=5fe6e873-dba1-40dd-bc65-77de126f2710","ios":"levelo://app?vid=5fe6e873-dba1-40dd-bc65-77de126f2710"},"vehicle_type_id":"4","last_reported":1760641571,"current_range_meters":15200,"station_id":"","pricing_plan_id":"cebpf4jnsgd1na2vs0mg"},{"bike_id":"ab8dbe06-49f3-423b-99b1-2274be7ed343","system_id":"levelo_inurba_marseille","lat":43.29624,"lon":5.37164,"is_reserved":false,"is_disabled":false,"rental_uris":{"android":"levelo://app?vid=ab8dbe06-49f3-423b-99b1-2274be7ed343","ios":"levelo://app?vid=ab8dbe06-49f3-423b-99b1-2274be7ed343"},"vehicle_type_id":"4","last_reported":1760641571,"current_range_meters":15200,"station_id":"ce4bgnh2rcd13ifvqc0g","pricing_plan_id":"cebpf4jnsgd1na2vs0mg"},{"bike_id":"ed6a2635-072f-4899-bccc-310b2d3ca300","system_id":"levelo_inurba_marseille","lat":43.291994,"lon":5.393119,"is_reserved":false,"is_disabled":false,"rental_uris":{"android":"levelo://app?vid=ed6a2635-072f-4899-bccc-310b2d3ca300","ios":"levelo://app?vid=ed6a2635-072f-4899-bccc-310b2d3ca300"},"vehicle_type_id":"4","last_reported":1760641571,"current_range_meters":15200,"station_id":"ce4bh192rcd13ifvqdd0","pricing_plan_id":"cebpf4jnsgd1na2vs0mg"},{"bike_id":"b924e6bc-d832-437a-a0cb-fe1b17bb5e60","system_id":"levelo_inurba_marseille","lat":43.28347,"lon":5.381,"is_reserved":false,"is_disabled":false,"rental_uris":{"android":"levelo://app?vid=b924e6bc-d832-437a-a0cb-fe1b17bb5e60","ios":"levelo://app?vid=b924e6bc-d832-437a-a0cb-fe1b17bb5e60"},"vehicle_type_id":"4","last_reported":1760641571,"current_range_meters":15200,"station_id":"ce4bh412rcd13ifvqdr0","pricing_plan_id":"cebpf4jnsgd1na2vs0mg"},{"bike_id":"41f49f28-a1ad-4ccf-89d6-28026536ffa7","system_id":"levelo_inurba_marseille","lat":43.29248,"lon":5.38446,"is_reserved":false,"is_disabled":false,"rental_uris":{"android":"levelo://app?vid=41f49f28-a1ad-4ccf-89d6-28026536ffa7","ios":"levelo://app?vid=41f49f28-a1ad-4ccf-89d6-28026536ffa7"},"vehicle_type_id":"4","last_reported":1760641571,"current_range_meters":15200,"station_id":"ce4bh692rcd13ifvqea0","pricing_plan_id":"cebpf4jnsgd1na2vs0mg"},{"bike_id":"a33623e3-83b5-441d-a229-f73b7c838345","system_id":"levelo_inurba_marseille","lat":43.27174,"lon":5.40988,"is_reserved":false,"is_disabled":false,"rental_uris":{"android":"levelo://app?vid=a33623e3-83b5-441d-a229-f73b7c838345","ios":"levelo://app?vid=a33623e3-83b5-441d-a229-f73b7c838345"},"vehicle_type_id":"4","last_reported":1760641571,"current_range_meters":15200,"station_id":"ce4bhl12rcd13ifvqgf0","pricing_plan_id":"cebpf4jnsgd1na2vs0mg"},{"bike_id":"c87b93ed-422e-43b6-8dc5-f87a96c88689","system_id":"levelo_inurba_marseille","lat":43.295328,"lon":5.385441,"is_reserved":false,"is_disabled":false,"rental_uris":{"android":"levelo://app?vid=c87b93ed-422e-43b6-8dc5-f87a96c88689","ios":"levelo://app?vid=c87b93ed-422e-43b6-8dc5-f87a96c88689"},"vehicle_type_id":"4","last_reported":1760641571,"current_range_meters":16000,"station_id":"","pricing_plan_id":"cebpf4jnsgd1na2vs0mg"},{"bike_id":"a19e864a-02d8-44d7-a179-d910ad045a25","system_id":"levelo_inurba_marseille","lat":43.31071,"lon":5.38365,"is_reserved":false,"is_disabled":false,"rental_uris":{"android":"levelo://app?vid=a19e864a-02d8-44d7-a179-d910ad045a25","ios":"levelo://app?vid=a19e864a-02d8-44d7-a179-d910ad045a25"},"vehicle_type_id":"4","last_reported":1760641571,"current_range_meters":16000,"station_id":"ce4bgv92rcd13ifvqcr0","pricing_plan_id":"cebpf4jnsgd1na2vs0mg"},{"bike_id":"120b8cbd-64cc-4f8d-b7bb-5e7152f35584","system_id":"levelo_inurba_marseille","lat":43.27567,"lon":5.38432,"is_reserved":false,"is_disabled":false,"rental_uris":{"android":"levelo://app?vid=120b8cbd-64cc-4f8d-b7bb-5e7152f35584","ios":"levelo://app?vid=120b8cbd-64cc-4f8d-b7bb-5e7152f35584"},"vehicle_type_id":"4","last_reported":1760641571,"current_range_meters":16000,"station_id":"ce4bhh92rcd13ifvqfi0","pricing_plan_id":"cebpf4jnsgd1na2vs0mg"},{"bike_id":"f6fd5406-9f55-4abd-98cc-c7543c7dd5b5","system_id":"levelo_inurba_marseille","lat":43.32363,"lon":5.36769,"is_reserved":false,"is_disabled":false,"rental_uris":{"android":"levelo://app?vid=f6fd5406-9f55-4abd-98cc-c7543c7dd5b5","ios":"levelo://app?vid=f6fd5406-9f55-4abd-98cc-c7543c7dd5b5"},"vehicle_type_id":"4","last_reported":1760641571,"current_range_meters":16000,"station_id":"ce4bhsh2rcd13ifvqi2g","pricing_plan_id":"cebpf4jnsgd1na2vs0mg"},{"bike_id":"b6587072-26bc-4d24-bf89-46b83cab579b","system_id":"levelo_inurba_marseille","lat":43.29312,"lon":5.38632,"is_reserved":false,"is_disabled":false,"rental_uris":{"android":"levelo://app?vid=b6587072-26bc-4d24-bf89-46b83cab579b","ios":"levelo://app?vid=b6587072-26bc-4d24-bf89-46b83cab579b"},"vehicle_type_id":"4","last_reported":1760641571,"current_range_meters":16400,"station_id":"","pricing_plan_id":"cebpf4jnsgd1na2vs0mg"},{"bike_id":"8102e976-6180-4024-afc0-2a713122c14d","system_id":"levelo_inurba_marseille","lat":43.28394,"lon":5.375166,"is_reserved":false,"is_disabled":false,"rental_uris":{"android":"levelo://app?vid=8102e976-6180-4024-afc0-2a713122c14d","ios":"levelo://app?vid=8102e976-6180-4024-afc0-2a713122c14d"},"vehicle_type_id":"4","last_reported":1760641571,"current_range_meters":16400,"station_id":"ce4bh412rcd13ifvqds0","pricing_plan_id":"cebpf4jnsgd1na2vs0mg"},{"bike_id":"ee08f83b-a298-45f9-aeb7-2a40efd0add0","system_id":"levelo_inurba_marseille","lat":43.26551,"lon":5.37277,"is_reserved":false,"is_disabled":false,"rental_uris":{"android":"levelo://app?vid=ee08f83b-a298-45f9-aeb7-2a40efd0add0","ios":"levelo://app?vid=ee08f83b-a298-45f9-aeb7-2a40efd0add0"},"vehicle_type_id":"4","last_reported":1760641571,"current_range_meters":16400,"station_id":"ce4bhg12rcd13ifvqf70","pricing_plan_id":"cebpf4jnsgd1na2vs0mg"},{"bike_id":"ce8cb95b-4a71-4403-95ec-e293ae4be259","system_id":"levelo_inurba_marseille","lat":43.32106,"lon":5.36776,"is_reserved":false,"is_disabled":false,"rental_uris":{"android":"levelo://app?vid=ce8cb95b-4a71-4403-95ec-e293ae4be259","ios":"levelo://app?vid=ce8cb95b-4a71-4403-95ec-e293ae4be259"},"vehicle_type_id":"4","last_reported":1760641571,"current_range_meters":16400,"station_id":"ce4bhrh2rcd13ifvqhug","pricing_plan_id":"cebpf4jnsgd1na2vs0mg"},{"bike_id":"42bc3f62-34df-4095-87cc-aeefd3ee2f7a","system_id":"levelo_inurba_marseille","lat":43.24162,"lon":5.36419,"is_reserved":false,"is_disabled":false,"rental_uris":{"android":"levelo://app?vid=42bc3f62-34df-4095-87cc-aeefd3ee2f7a","ios":"levelo://app?vid=42bc3f62-34df-4095-87cc-aeefd3ee2f7a"},"vehicle_type_id":"4","last_reported":1760641571,"current_range_meters":16400,"station_id":"cpo36qri1sfpv3e86is0","pricing_plan_id":"cebpf4jnsgd1na2vs0mg"},