{"last_updated":1761142266,"ttl":60,"version":"2.2","data":{"bikes":[{"bike_id":"163f1c6c-98e0-4365-ad77-f0d5d98ce2d8","system_id":"levelo_inurba_marseille","lat":43.211908,"lon":5.350735,"is_reserved":false,"is_disabled":false,"rental_uris":{"android":"levelo://app?vid=163f1c6c-98e0-4365-ad77-f0d5d98ce2d8","ios":"levelo://app?vid=163f1c6c-98e0-4365-ad77-f0d5d98ce2d8"},"vehicle_type_id":"4","last_reported":1761142266,"current_range_meters":2800,"station_id":"","pricing_plan_id":"cebpf4jnsgd1na2vs0mg"},{"bike_id":"56808f09-5a62-403b-b8e3-97d89aaf3152","system_id":"levelo_inurba_marseille","lat":43.29799,"lon":5.37914,"is_reserved":false,"is_disabled":false,"rental_uris":{"android":"levelo://app?vid=56808f09-5a62-403b-b8e3-97d89aaf3152","ios":"levelo://app?vid=56808f09-5a62-403b-b8e3-97d89aaf3152"},"vehicle_type_id":"4","last_reported":1761142266,"current_range_meters":2800,"station_id":"","pricing_plan_id":"cebpf4jnsgd1na2vs0mg"},{"bike_id":"98490d11-db71-4361-ab96-f0addd49d050","system_id":"levelo_inurba_marseille","lat":43.29999,"lon":5.373595,"is_reserved":false,"is_disabled":false,"rental_uris":{"android":"levelo://app?vid=98490d11-db71-4361-ab96-f0addd49d050","ios":"levelo://app?vid=98490d11-db71-4361-ab96-f0addd49d050"},"vehicle_type_id":"4","last_reported":1761142266,"current_range_meters":2800,"station_id":"","pricing_plan_id":"cebpf4jnsgd1na2vs0mg"},{"bike_id":"d124ea6b-ae35-448a-8d72-fe072d348816","system_id":"levelo_inurba_marseille","lat":43.225303,"lon":5.348308,"is_reserved":false,"is_disabled":false,"rental_uris":{"android":"levelo://app?vid=d124ea6b-ae35-448a-8d72-fe072d348816","ios":"levelo://app?vid=d124ea6b-ae35-448a-8d72-fe072d348816"},"vehicle_type_id":"4","last_reported":1761142266,"current_range_meters":3200,"station_id":"","pricing_plan_id":"cebpf4jnsgd1na2vs0mg"},{"bike_id":"62927568-00d6-4a00-8878-fefe547eb1dd","system_id":"levelo_inurba_marseille","lat":43.29185,"lon":5.35797,"is_reserved":false,"is_disabled":false,"rental_uris":{"android":"levelo://app?vid=62927568-00d6-4a00-8878-fefe547eb1dd","ios":"levelo://app?vid=62927568-00d6-4a00-8878-fefe547eb1dd"},"vehicle_type_id":"4","last_reported":1761142266,"current_range_meters":3200,"station_id":"ce4bhb12rcd13ifvqel0","pricing_plan_id":"cebpf4jnsgd1na2vs0mg"},{"bike_id":"5d61d72d-af56-4c0a-acdd-704b916acb5a","system_id":"levelo_inurba_marseille","lat":43.276112,"lon":5.360976,"is_reserved":false,"is_disabled":false,"rental_uris":{"android":"levelo://app?vid=5d61d72d-af56-4c0a-acdd-704b916acb5a","ios":"levelo://app?vid=5d61d72d-af56-4c0a-acdd-704b916acb5a"},"vehicle_type_id":"4","last_reported":1761142266,"current_range_meters":3600,"station_id":"ce4bgj92rcd13ifvqbe0","pricing_plan_id":"cebpf4jnsgd1na2vs0mg"},{"bike_id":"b18097e0-23d3-451d-ad4a-050d2876b7f8","system_id":"levelo_inurba_marseille","lat":43.30303,"lon":5.39207,"is_reserved":false,"is_disabled":false,"rental_uris":{"android":"levelo://app?vid=b18097e0-23d3-451d-ad4a-050d2876b7f8","ios":"levelo://app?vid=b18097e0-23d3-451d-ad4a-050d2876b7f8"},"vehicle_type_id":"4","last_reported":1761142266,"current_range_meters":3600,"station_id":"ce4bgkh2rcd13ifvqbk0","pricing_plan_id":"cebpf4jnsgd1na2vs0mg"},{"bike_id":"b0a780e6-940b-4fab-815e-3fdd686f13b4","system_id":"levelo_inurba_marseille","lat":43.26564,"lon":5.40327,"is_reserved":false,"is_disabled":false,"rental_uris":{"android":"levelo://app?vid=b0a780e6-940b-4fab-815e-3fdd686f13b4","ios":"levelo://app?vid=b0a780e6-940b-4fab-815e-3fdd686f13b4"},"vehicle_type_id":"4","last_reported":1761142266,"current_range_meters":4000,"station_id":"ce4bhmp2rcd13ifvqgng","pricing_plan_id":"cebpf4jnsgd1na2vs0mg"},{"bike_id":"535fac65-1c41-4422-afa5-771b1333ecc4","system_id":"levelo_inurba_marseille","lat":43.30887,"lon":5.37189,"is_reserved":false,"is_disabled":false,"rental_uris":{"android":"levelo://app?vid=535fac65-1c41-4422-afa5-771b1333ecc4","ios":"levelo://app?vid=535fac65-1c41-4422-afa5-771b1333ecc4"},"vehicle_type_id":"4","last_reported":1761142266,"current_range_meters":4000,"station_id":"ce4bguh2rcd13ifvqckg","pricing_plan_id":"cebpf4jnsgd1na2vs0mg"},{"bike_id":"8952652d-181d-4647-99e0-dd7c8dc8f72d","system_id":"levelo_inurba_marseille","lat":43.28528,"lon":5.44106,"is_reserved":false,"is_disabled":false,"rental_uris":{"android":"levelo://app?vid=8952652d-181d-4647-99e0-dd7c8dc8f72d","ios":"levelo://app?vid=8952652d-181d-4647-99e0-dd7c8dc8f72d"},"vehicle_type_id":"4","last_reported":1761142266,"current_range_meters":4400,"station_id":"st_d3j3df2ikq2c7380ej80","pricing_plan_id":"cebpf4jnsgd1na2vs0mg"},{"bike_id":"63119936-b3b7-4485-adab-84e86b277ebf","system_id":"levelo_inurba_marseille","lat":43.30117,"lon":5.39853,"is_reserved":false,"is_disabled":false,"rental_uris":{"android":"levelo://app?vid=63119936-b3b7-4485-adab-84e86b277ebf","ios":"levelo://app?vid=63119936-b3b7-4485-adab-84e86b277ebf"},"vehicle_type_id":"4","last_reported":1761142266,"current_range_meters":4400,"station_id":"ce4bh0h2rcd13ifvqd40","pricing_plan_id":"cebpf4jnsgd1na2vs0mg"},{"bike_id":"418ad465-e579-4187-a886-fa3d7c556579","system_id":"levelo_inurba_marseille","lat":43.30441,"lon":5.38892,"is_reserved":false,"is_disabled":false,"rental_uris":{"android":"levelo://app?vid=418ad465-e579-4187-a886-fa3d7c556579","ios":"levelo://app?vid=418ad465-e579-4187-a886-fa3d7c556579"},"vehicle_type_id":"4","last_reported":1761142266,"current_range_meters":4800,"station_id":"ce4bgk12rcd13ifvqbi0","pricing_plan_id":"cebpf4jnsgd1na2vs0mg"},{"bike_id":"53ceb6d0-8095-4baa-88d0-ae53f513e898","system_id":"levelo_inurba_marseille","lat":43.28485,"lon":5.38431,"is_reserved":false,"is_disabled":false,"rental_uris":{"android":"levelo://app?vid=53ceb6d0-8095-4baa-88d0-ae53f513e898","ios":"levelo://app?vid=53ceb6d0-8095-4baa-88d0-ae53f513e898"},"vehicle_type_id":"4","last_reported":1761142266,"current_range_meters":4800,"station_id":"ce4bh512rcd13ifvqe3g","pricing_plan_id":"cebpf4jnsgd1na2vs0mg"},{"bike_id":"a870d8c4-d388-4bd8-a292-a2b1665e7e0e","system_id":"levelo_inurba_marseille","lat":43.304308,"lon":5.405861,"is_reserved":false,"is_disabled":false,"rental_uris":{"android":"levelo://app?vid=a870d8c4-d388-4bd8-a292-a2b1665e7e0e","ios":"levelo://app?vid=a870d8c4-d388-4bd8-a292-a2b1665e7e0e"},"vehicle_type_id":"4","last_reported":1761142266,"current_range_meters":4800,"station_id":"","pricing_plan_id":"cebpf4jnsgd1na2vs0mg"},{"bike_id":"a2e131f8-3c9f-478a-b394-6a9db5f46a7a","system_id":"levelo_inurba_marseille","lat":43.30131,"lon":5.37428,"is_reserved":false,"is_disabled":true,"rental_uris":{"android":"levelo://app?vid=a2e131f8-3c9f-478a-b394-6a9db5f46a7a","ios":"levelo://app?vid=a2e131f8-3c9f-478a-b394-6a9db5f46a7a"},"vehicle_type_id":"4","last_reported":1761142266,"current_range_meters":4800,"station_id":"ce4bgs92rcd13ifvqcc0","pricing_plan_id":"cebpf4jnsgd1na2vs0mg"},{"bike_id":"aa2747e9-2102-48be-9f2c-8105c3b00269","system_id":"levelo_inurba_marseille","lat":43.24383,"lon":5.37055,"is_reserved":false,"is_disabled":false,"rental_uris":{"android":"levelo://app?vid=aa2747e9-2102-48be-9f2c-8105c3b00269","ios":"levelo://app?vid=aa2747e9-2102-48be-9f2c-8105c3b00269"},"vehicle_type_id":"4","last_reported":1761142266,"current_range_meters":4800,"station_id":"ce4bhhh2rcd13ifvqfk0","pricing_plan_id":"cebpf4jnsgd1na2vs0mg"},{"bike_id":"43743f56-d59b-4990-b06a-44ae26d2f530","system_id":"levelo_inurba_marseille","lat":43.2174,"lon":5.34622,"is_reserved":false,"is_disabled":false,"rental_uris":{"android":"levelo://app?vid=43743f56-d59b-4990-b06a-44ae26d2f530","ios":"levelo://app?vid=43743f56-d59b-4990-b06a-44ae26d2f530"},"vehicle_type_id":"4","last_reported":1761142266,"current_range_meters":4800,"station_id":"","pricing_plan_id":"cebpf4jnsgd1na2vs0mg"},{"bike_id":"e7cb61d9-84d9-41c0-8427-00fc6a9e436b","system_id":"levelo_inurba_marseille","lat":43.31059,"lon":5.3757,"is_reserved":false,"is_disabled":false,"rental_uris":{"android":"levelo://app?vid=e7cb61d9-84d9-41c0-8427-00fc6a9e436b","ios":"levelo://app?vid=e7cb61d9-84d9-41c0-8427-00fc6a9e436b"},"vehicle_type_id":"4","last_reported":1761142266,"current_range_meters":4800,"station_id":"","pricing_plan_id":"cebpf4jnsgd1na2vs0mg"},{"bike_id":"4154d683-e72a-4592-9e60-2a3872848698","system_id":"levelo_inurba_marseille","lat":43.28475,"lon":5.48401,"is_reserved":false,"is_disabled":false,"rental_uris":{"android":"levelo://app?vid=4154d683-e72a-4592-9e60-2a3872848698","ios":"levelo://app?vid=4154d683-e72a-4592-9e60-2a3872848698"},"vehicle_type_id":"4","last_reported":1761142266,"current_range_meters":5600,"station_id":"st_d3jp68qikq2c7381ktn0","pricing_plan_id":"cebpf4jnsgd1na2vs0mg"},{"bike_id":"d1dd64c6-e575-4db6-925b-18b8fd852f5c","system_id":"levelo_inurba_marseille","lat":43.26679,"lon":5.38265,"is_reserved":false,"is_disabled":false,"rental_uris":{"android":"levelo://app?vid=d1dd64c6-e575-4db6-925b-18b8fd852f5c","ios":"levelo://app?vid=d1dd64c6-e575-4db6-925b-18b8fd852f5c"},"vehicle_type_id":"4","last_reported":1761142266,"current_range_meters":5600,"station_id":"ce4bhg92rcd13ifvqf90","pricing_plan_id":"cebpf4jnsgd1na2vs0mg"},{"bike_id":"c81f5e27-4352-4867-be60-a2da0cedbfcb","system_id":"levelo_inurba_marseille","lat":43.31487,"lon":5.37302,"is_reserved":false,"is_disabled":false,"rental_uris":{"android":"levelo://app?vid=c81f5e27-4352-4867-be60-a2da0cedbfcb","ios":"levelo://app?vid=c81f5e27-4352-4867-be60-a2da0cedbfcb"},"vehicle_type_id":"4","last_reported":1761142266,"current_range_meters":5600,"station_id":"ce4bgt12rcd13ifvqcd0","pricing_plan_id":"cebpf4jnsgd1na2vs0mg"},{"bike_id":"92316f98-77b6-4364-a55b-38c69e4e0075","system_id":"levelo_inurba_marseille","lat":43.295701,"lon":5.399732,"is_reserved":false,"is_disabled":false,"rental_uris":{"android":"levelo://app?vid=92316f98-77b6-4364-a55b-38c69e4e0075","ios":"levelo://app?vid=92316f98-77b6-4364-a55b-38c69e4e0075"},"vehicle_type_id":"4","last_reported":1761142266,"current_range_meters":5600,"station_id":"ce4bh312rcd13ifvqdj0","pricing_plan_id":"cebpf4jnsgd1na2vs0mg"},{"bike_id":"58b537c5-97ab-46d0-9a55-2d4fe97d2e76","system_id":"levelo_inurba_marseille","lat":43.283996,"lon":5.385515,"is_reserved":false,"is_disabled":true,"rental_uris":{"android":"levelo://app?vid=58b537c5-97ab-46d0-9a55-2d4fe97d2e76","ios":"levelo://app?vid=58b537c5-97ab-46d0-9a55-2d4fe97d2e76"},"vehicle_type_id":"4","last_reported":1761142266,"current_range_meters":5600,"station_id":"ce4bh492rcd13ifvqdvg","pricing_plan_id":"cebpf4jnsgd1na2vs0mg"},{"bike_id":"b2abd4a9-f72f-4a18-97de-b7db81451655","system_id":"levelo_inurba_marseille","lat":43.231969,"lon":5.355516,"is_reserved":false,"is_disabled":false,"rental_uris":{"android":"levelo://app?vid=b2abd4a9-f72f-4a18-97de-b7db81451655","ios":"levelo://app?vid=b2abd4a9-f72f-4a18-97de-b7db81451655"},"vehicle_type_id":"4","last_reported":1761142266,"current_range_meters":6000,"station_id":"ce4bhu92rcd13ifvqi70","pricing_plan_id":"cebpf4jnsgd1na2vs0mg"},{"bike_id":"3611a01f-5c11-4b81-8934-712ae6889242","system_id":"levelo_inurba_marseille","lat":43.30085,"lon":5.3908,"is_reserved":false,"is_disabled":false,"rental_uris":{"android":"levelo://app?vid=3611a01f-5c11-4b81-8934-712ae6889242","ios":"levelo://app?vid=3611a01f-5c11-4b81-8934-712ae6889242"},"vehicle_type_id":"4","last_reported":1761142266,"current_range_meters":6000,"station_id":"ce4bh192rcd13ifvqdb0","pricing_plan_id":"cebpf4jnsgd1na2vs0mg"},{"bike_id":"4cd28b70-2e98-4a7e-a9cf-cd1deeefde99","system_id":"levelo_inurba_marseille","lat":43.30541,"lon":5.36532,"is_reserved":false,"is_disabled":false,"rental_uris":{"android":"levelo://app?vid=4cd28b70-2e98-4a7e-a9cf-cd1deeefde99","ios":"levelo://app?vid=4cd28b70-2e98-4a7e-a9cf-cd1deeefde99"},"vehicle_type_id":"4","last_reported":1761142266,"current_range_meters":6000,"station_id":"ce4bgs12rcd13ifvqcag","pricing_plan_id":"cebpf4jnsgd1na2vs0mg"},{"bike_id":"6c71c903-c896-4e32-be71-290576932766","system_id":"levelo_inurba_marseille","lat":43.28678,"lon":5.38666,"is_reserved":false,"is_disabled":false,"rental_uris":{"android":"levelo://app?vid=6c71c903-c896-4e32-be71-290576932766","ios":"levelo://app?vid=6c71c903-c896-4e32-be71-290576932766"},"vehicle_type_id":"4","last_reported":1761142266,"current_range_meters":6000,"station_id":"ce4bh492rcd13ifvqdug","pricing_plan_id":"cebpf4jnsgd1na2vs0mg"},{"bike_id":"94a33deb-176b-4de3-b63c-6807ef181b81","system_id":"levelo_inurba_marseille","lat":43.29879,"lon":5.3889,"is_reserved":false,"is_disabled":false,"rental_uris":{"android":"levelo://app?vid=94a33deb-176b-4de3-b63c-6807ef181b81","ios":"levelo://app?vid=94a33deb-176b-4de3-b63c-6807ef181b81"},"vehicle_type_id":"4","last_reported":1761142266,"current_range_meters":6000,"station_id":"ce4bh392rcd13ifvqdl0","pricing_plan_id":"cebpf4jnsgd1na2vs0mg"},{"bike_id":"41198b3b-d4fd-4c24-9c28-c48f7891db1e","system_id":"levelo_inurba_marseille","lat":43.21746,"lon":5.34606,"is_reserved":false,"is_disabled":false,"rental_uris":{"android":"levelo://app?vid=41198b3b-d4fd-4c24-9c28-c48f7891db1e","ios":"levelo://app?vid=41198b3b-d4fd-4c24-9c28-c48f7891db1e"},"vehicle_type_id":"4","last_reported":1761142266,"current_range_meters":6000,"station_id":"st_cvj6r9ubvosntc0bgbag","pricing_plan_id":"cebpf4jnsgd1na2vs0mg"},{"bike_id":"805cc412-434c-4829-8363-1954f7f430fd","system_id":"levelo_inurba_marseille","lat":43.29893,"lon":5.38361,"is_reserved":false,"is_disabled":false,"rental_uris":{"android":"levelo://app?vid=805cc412-434c-4829-8363-1954f7f430fd","ios":"levelo://app?vid=805cc412-434c-4829-8363-1954f7f430fd"},"vehicle_type_id":"4","last_reported":1761142266,"current_range_meters":6000,"station_id":"","pricing_plan_id":"cebpf4jnsgd1na2vs0mg"},{"bike_id":"4e43cc6b-d3d7-49bc-8315-c99a5a0426f2","system_id":"levelo_inurba_marseille","lat":43.26569,"lon":5.39006,"is_reserved":false,"is_disabled":false,"rental_uris":{"android":"levelo://app?vid=4e43cc6b-d3d7-49bc-8315-c99a5a0426f2","ios":"levelo://app?vid=4e43cc6b-d3d7-49bc-8315-c99a5a0426f2"},"vehicle_type_id":"4","last_reported":1761142266,"current_range_meters":6400,"station_id":"ce4bhe12rcd13ifvqf30","pricing_plan_id":"cebpf4jnsgd1na2vs0mg"},{"bike_id":"27a0a5b8-bb02-4a68-83d8-ad971dc33659","system_id":"levelo_inurba_marseille","lat":43.29746,"lon":5.37913,"is_reserved":false,"is_disabled":false,"rental_uris":{"android":"levelo://app?vid=27a0a5b8-bb02-4a68-83d8-ad971dc33659","ios":"levelo://app?vid=27a0a5b8-bb02-4a68-83d8-ad971dc33659"},"vehicle_type_id":"4","last_reported":1761142266,"current_range_meters":6400,"station_id":"","pricing_plan_id":"cebpf4jnsgd1na2vs0mg"},{"bike_id":"5d4fb4f1-2719-41e2-8c5d-d4a76dd85072","system_id":"levelo_inurba_marseille","lat":43.29371,"lon":5.37854,"is_reserved":false,"is_disabled":false,"rental_uris":{"android":"levelo://app?vid=5d4fb4f1-2719-41e2-8c5d-d4a76dd85072","ios":"levelo://app?vid=5d4fb4f1-2719-41e2-8c5d-d4a76dd85072"},"vehicle_type_id":"4","last_reported":1761142266,"current_range_meters":6800,"station_id":"ce4bgjh2rcd13ifvqbf0","pricing_plan_id":"cebpf4jnsgd1na2vs0mg"},{"bike_id":"d1b0612d-6592-49b2-8762-c9f1dd971802","system_id":"levelo_inurba_marseille","lat":43.29612,"lon":5.37707,"is_reserved":false,"is_disabled":false,"rental_uris":{"android":"levelo://app?vid=d1b0612d-6592-49b2-8762-c9f1dd971802","ios":"levelo://app?vid=d1b0612d-6592-49b2-8762-c9f1dd971802"},"vehicle_type_id":"4","last_reported":1761142266,"current_range_meters":6800,"station_id":"ce4bgi92rcd13ifvqb90","pricing_plan_id":"cebpf4jnsgd1na2vs0mg"},{"bike_id":"304191d1-ed57-4850-a881-5b8236c27c00","system_id":"levelo_inurba_marseille","lat":43.31496,"lon":5.37295,"is_reserved":false,"is_disabled":false,"rental_uris":{"android":"levelo://app?vid=304191d1-ed57-4850-a881-5b8236c27c00","ios":"levelo://app?vid=304191d1-ed57-4850-a881-5b8236c27c00"},"vehicle_type_id":"4","last_reported":1761142266,"current_range_meters":6800,"station_id":"ce4bgt12rcd13ifvqcd0","pricing_plan_id":"cebpf4jnsgd1na2vs0mg"},{"bike_id":"d15493e8-3b7d-40dd-8eb7-c43369a32ef8","system_id":"levelo_inurba_marseille","lat":43.279877,"lon":5.416678,"is_reserved":false,"is_disabled":false,"rental_uris":{"android":"levelo://app?vid=d15493e8-3b7d-40dd-8eb7-c43369a32ef8","ios":"levelo://app?vid=d15493e8-3b7d-40dd-8eb7-c43369a32ef8"},"vehicle_type_id":"4","last_reported":1761142266,"current_range_meters":7200,"station_id":"ce4bho12rcd13ifvqh1g","pricing_plan_id":"cebpf4jnsgd1na2vs0mg"},{"bike_id":"66bec76d-d7e9-4a1e-a715-39e56334bf96","system_id":"levelo_inurba_marseille","lat":43.2828,"lon":5.39652,"is_reserved":false,"is_disabled":false,"rental_uris":{"android":"levelo://app?vid=66bec76d-d7e9-4a1e-a715-39e56334bf96","ios":"levelo://app?vid=66bec76d-d7e9-4a1e-a715-39e56334bf96"},"vehicle_type_id":"4","last_reported":1761142266,"current_range_meters":7200,"station_id":"","pricing_plan_id":"cebpf4jnsgd1na2vs0mg"},{"bike_id":"321c1c02-d64f-4398-b2f2-c07dc73aeabc","system_id":"levelo_inurba_marseille","lat":43.28418,"lon":5.34997,"is_reserved":false,"is_disabled":false,"rental_uris":{"android":"levelo://app?vid=321c1c02-d64f-4398-b2f2-c07dc73aeabc","ios":"levelo://app?vid=321c1c02-d64f-4398-b2f2-c07dc73aeabc"},"vehicle_type_id":"4","last_reported":1761142266,"current_range_meters":7200,"station_id":"ce4bhbh2rcd13ifvqepg","pricing_plan_id":"cebpf4jnsgd1na2vs0mg"},{"bike_id":"3d068a7d-8c2c-4f97-8d7d-54140fa95800","system_id":"levelo_inurba_marseille","lat":43.273583,"lon":5.39879,"is_reserved":false,"is_disabled":false,"rental_uris":{"android":"levelo://app?vid=3d068a7d-8c2c-4f97-8d7d-54140fa95800","ios":"levelo://app?vid=3d068a7d-8c2c-4f97-8d7d-54140fa95800"},"vehicle_type_id":"4","last_reported":1761142266,"current_range_meters":7200,"station_id":"","pricing_plan_id":"cebpf4jnsgd1na2vs0mg"},{"bike_id":"6809ecf9-fb17-4ae2-bd19-1659dceff134","system_id":"levelo_inurba_marseille","lat":43.28658,"lon":5.4004,"is_reserved":false,"is_disabled":false,"rental_uris":{"android":"levelo://app?vid=6809ecf9-fb17-4ae2-bd19-1659dceff134","ios":"levelo://app?vid=6809ecf9-fb17-4ae2-bd19-1659dceff134"},"vehicle_type_id":"4","last_reported":1761142266,"current_range_meters":7200,"station_id":"ce4bho92rcd13ifvqh3g","pricing_plan_id":"cebpf4jnsgd1na2vs0mg"},{"bike_id":"08f884e1-40bf-4382-9b87-338ee53fe904","system_id":"levelo_inurba_marseille","lat":43.29891,"lon":5.43676,"is_reserved":false,"is_disabled":false,"rental_uris":{"android":"levelo://app?vid=08f884e1-40bf-4382-9b87-338ee53fe904","ios":"levelo://app?vid=08f884e1-40bf-4382-9b87-338ee53fe904"},"vehicle_type_id":"4","last_reported":1761142266,"current_range_meters":7200,"station_id":"ce4bhpp2rcd13ifvqhfg","pricing_plan_id":"cebpf4jnsgd1na2vs0mg"},{"bike_id":"21a770c2-7850-4b78-ba2c-c68039fc32e3","system_id":"levelo_inurba_marseille","lat":43.31225,"lon":5.3695,"is_reserved":false,"is_disabled":false,"rental_uris":{"android":"levelo://app?vid=21a770c2-7850-4b78-ba2c-c68039fc32e3","ios":"levelo://app?vid=21a770c2-7850-4b78-ba2c-c68039fc32e3"},"vehicle_type_id":"4","last_reported":1761142266,"current_range_meters":8000,"station_id":"","pricing_plan_id":"cebpf4jnsgd1na2vs0mg"},{"bike_id":"b7e41c34-cad5-468c-aadc-3ef8a1845b5a","system_id":"levelo_inurba_marseille","lat":43.28171,"lon":5.36132,"is_reserved":false,"is_disabled":false,"rental_uris":{"android":"levelo://app?vid=b7e41c34-cad5-468c-aadc-3ef8a1845b5a","ios":"levelo://app?vid=b7e41c34-cad5-468c-aadc-3ef8a1845b5a"},"vehicle_type_id":"4","last_reported":1761142266,"current_range_meters":8000,"station_id":"","pricing_plan_id":"cebpf4jnsgd1na2vs0mg"},{"bike_id":"97585d63-cae0-46a3-8fec-9651d52b3156","system_id":"levelo_inurba_marseille","lat":43.279138,"lon":5.380119,"is_reserved":false,"is_disabled":true,"rental_uris":{"android":"levelo://app?vid=97585d63-cae0-46a3-8fec-9651d52b3156","ios":"levelo://app?vid=97585d63-cae0-46a3-8fec-9651d52b3156"},"vehicle_type_id":"4","last_reported":1761142266,"current_range_meters":8000,"station_id":"ce4bhf92rcd13ifvqf50","pricing_plan_id":"cebpf4jnsgd1na2vs0mg"},{"bike_id":"ca5abd2d-4198-4e7f-8610-3e45ac56387f","system_id":"levelo_inurba_marseille","lat":43.26682,"lon":5.38272,"is_reserved":false,"is_disabled":false,"rental_uris":{"android":"levelo://app?vid=ca5abd2d-4198-4e7f-8610-3e45ac56387f","ios":"levelo://app?vid=ca5abd2d-4198-4e7f-8610-3e45ac56387f"},"vehicle_type_id":"4","last_reported":1761142266,"current_range_meters":8000,"station_id":"ce4bhg92rcd13ifvqf90","pricing_plan_id":"cebpf4jnsgd1na2vs0mg"},{"bike_id":"e043e2f3-81ad-47bb-8c8f-8950bd9862be","system_id":"levelo_inurba_marseille","lat":43.29025,"lon":5.386341,"is_reserved":false,"is_disabled":false,"rental_uris":{"android":"levelo://app?vid=e043e2f3-81ad-47bb-8c8f-8950bd9862be","ios":"levelo://app?vid=e043e2f3-81ad-47bb-8c8f-8950bd9862be"},"vehicle_type_id":"4","last_reported":1761142266,"current_range_meters":8000,"station_id":"ce4bh4p2rcd13ifvqe0g","pricing_plan_id":"cebpf4jnsgd1na2vs0mg"},{"bike_id":"e8bdbffe-f39c-4a32-858b-65df71956b31","system_id":"levelo_inurba_marseille","lat":43.21192,"lon":5.35075,"is_reserved":false,"is_disabled":false,"rental_uris":{"android":"levelo://app?vid=e8bdbffe-f39c-4a32-858b-65df71956b31","ios":"levelo://app?vid=e8bdbffe-f39c-4a32-858b-65df71956b31"},"vehicle_type_id":"4","last_reported":1761142266,"current_range_meters":8000,"station_id":"","pricing_plan_id":"cebpf4jnsgd1na2vs0mg"},{"bike_id":"da3c5d5d-639d-4a11-88e1-f7b9c2ad220a","system_id":"levelo_inurba_marseille","lat":43.31703,"lon":5.37756,"is_reserved":false,"is_disabled":true,"rental_uris":{"android":"levelo://app?vid=da3c5d5d-639d-4a11-88e1-f7b9c2ad220a","ios":"levelo://app?vid=da3c5d5d-639d-4a11-88e1-f7b9c2ad220a"},"vehicle_type_id":"4","last_reported":1761142266,"current_range_meters":8000,"station_id":"ce4bgth2rcd13ifvqch0","pricing_plan_id":"cebpf4jnsgd1na2vs0mg"},{"bike_id":"12c36be3-5162-4923-9735-810a93ad89d7","system_id":"levelo_inurba_marseille","lat":43.28857,"lon":5.42523,"is_reserved":false,"is_disabled":false,"rental_uris":{"android":"levelo://app?vid=12c36be3-5162-4923-9735-810a93ad89d7","ios":"levelo://app?vid=12c36be3-5162-4923-9735-810a93ad89d7"},"vehicle_type_id":"4","last_reported":1761142266,"current_range_meters":8000,"station_id":"st_d3b462108ojc7389ooeg","pricing_plan_id":"cebpf4jnsgd1na2vs0mg"},{"bike_id":"ba320087-4e90-46a5-8982-c417b39c5529","system_id":"levelo_inurba_marseille","lat":43.27058,"lon":5.40261,"is_reserved":false,"is_disabled":false,"rental_uris":{"android":"levelo://app?vid=ba320087-4e90-46a5-8982-c417b39c5529","ios":"levelo://app?vid=ba320087-4e90-46a5-8982-c417b39c5529"},"vehicle_type_id":"4","last_reported":1761142266,"current_range_meters":8000,"station_id":"ce4bhk92rcd13ifvqgc0","pricing_plan_id":"cebpf4jnsgd1na2vs0mg"},{"bike_id":"c4432b73-0adb-475d-83b3-18f6e7bba483","system_id":"levelo_inurba_marseille","lat":43.31463,"lon":5.40332,"is_reserved":false,"is_disabled":false,"rental_uris":{"android":"levelo://app?vid=c4432b73-0adb-475d-83b3-18f6e7bba483","ios":"levelo://app?vid=c4432b73-0adb-475d-83b3-18f6e7bba483"},"vehicle_type_id":"4","last_reported":1761142266,"current_range_meters":8000,"station_id":"","pricing_plan_id":"cebpf4jnsgd1na2vs0mg"},{"bike_id":"35ca1fe1-a8dd-4e2e-88f5-436a1a499faf","system_id":"levelo_inurba_marseille","lat":43.290202,"lon":5.38127,"is_reserved":false,"is_disabled":false,"rental_uris":{"android":"levelo://app?vid=35ca1fe1-a8dd-4e2e-88f5-436a1a499faf","ios":"levelo://app?vid=35ca1fe1-a8dd-4e2e-88f5-436a1a499faf"},"vehicle_type_id":"4","last_reported":1761142266,"current_range_meters":8400,"station_id":"ce4bh4p2rcd13ifvqe1g","pricing_plan_id":"cebpf4jnsgd1na2vs0mg"},{"bike_id":"3201e625-69d5-420e-838c-f4c3f44666ef","system_id":"levelo_inurba_marseille","lat":43.33819,"lon":5.37426,"is_reserved":false,"is_disabled":false,"rental_uris":{"android":"levelo://app?vid=3201e625-69d5-420e-838c-f4c3f44666ef","ios":"levelo://app?vid=3201e625-69d5-420e-838c-f4c3f44666ef"},"vehicle_type_id":"4","last_reported":1761142266,"current_range_meters":8800,"station_id":"","pricing_plan_id":"cebpf4jnsgd1na2vs0mg"},{"bike_id":"b8457e49-45d1-4539-8d31-1eb0283df508","system_id":"levelo_inurba_marseille","lat":43.33157,"lon":5.35483,"is_reserved":false,"is_disabled":false,"rental_uris":{"android":"levelo://app?vid=b8457e49-45d1-4539-8d31-1eb0283df508","ios":"levelo://app?vid=b8457e49-45d1-4539-8d31-1eb0283df508"},"vehicle_type_id":"4","last_reported":1761142266,"current_range_meters":8800,"station_id":"","pricing_plan_id":"cebpf4jnsgd1na2vs0mg"},{"bike_id":"f0e9b545-7487-4b56-94e6-5d91b7537940","system_id":"levelo_inurba_marseille","lat":43.28932,"lon":5.36643,"is_reserved":false,"is_disabled":false,"rental_uris":{"android":"levelo://app?vid=f0e9b545-7487-4b56-94e6-5d91b7537940","ios":"levelo://app?vid=f0e9b545-7487-4b56-94e6-5d91b7537940"},"vehicle_type_id":"4","last_reported":1761142266,"current_range_meters":8800,"station_id":"ce4bhap2rcd13ifvqek0","pricing_plan_id":"cebpf4jnsgd1na2vs0mg"},{"bike_id":"9f7bf25e-576b-4148-a98c-2ff2718f3287","system_id":"levelo_inurba_marseille","lat":43.30152,"lon":5.38082,"is_reserved":false,"is_disabled":false,"rental_uris":{"android":"levelo://app?vid=9f7bf25e-576b-4148-a98c-2ff2718f3287","ios":"levelo://app?vid=9f7bf25e-576b-4148-a98c-2ff2718f3287"},"vehicle_type_id":"4","last_reported":1761142266,"current_range_meters":8800,"station_id":"ce4bgjp2rcd13ifvqbh0","pricing_plan_id":"cebpf4jnsgd1na2vs0mg"},{"bike_id":"1e828d29-9ce3-4620-8df4-1dbcabd64cc3","system_id":"levelo_inurba_marseille","lat":43.21183,"lon":5.35085,"is_reserved":false,"is_disabled":false,"rental_uris":{"android":"levelo://app?vid=1e828d29-9ce3-4620-8df4-1dbcabd64cc3","ios":"levelo://app?vid=1e828d29-9ce3-4620-8df4-1dbcabd64cc3"},"vehicle_type_id":"4","last_reported":1761142266,"current_range_meters":9200,"station_id":"st_cvj6sg6p6f1abm77japg","pricing_plan_id":"cebpf4jnsgd1na2vs0mg"},{"bike_id":"e7b03f0a-0d7c-4456-a9b9-7359855ae05a","system_id":"levelo_inurba_marseille","lat":43.225198,"lon":5.348312,"is_reserved":false,"is_disabled":false,"rental_uris":{"android":"levelo://app?vid=e7b03f0a-0d7c-4456-a9b9-7359855ae05a","ios":"levelo://app?vid=e7b03f0a-0d7c-4456-a9b9-7359855ae05a"},"vehicle_type_id":"4","last_reported":1761142266,"current_range_meters":9200,"station_id":"","pricing_plan_id":"cebpf4jnsgd1na2vs0mg"},{"bike_id":"37baca27-6337-41b8-ab37-1b85d1951431","system_id":"levelo_inurba_marseille","lat":43.26951,"lon":5.38913,"is_reserved":false,"is_disabled":false,"rental_uris":{"android":"levelo://app?vid=37baca27-6337-41b8-ab37-1b85d1951431","ios":"levelo://app?vid=37baca27-6337-41b8-ab37-1b85d1951431"},"vehicle_type_id":"4","last_reported":1761142266,"current_range_meters":9600,"station_id":"ce4bhhh2rcd13ifvqfl0","pricing_plan_id":"cebpf4jnsgd1na2vs0mg"},{"bike_id":"e3f03a4b-79e8-4c86-8b60-dae37cb49b4e","system_id":"levelo_inurba_marseille","lat":43.2175,"lon":5.34616,"is_reserved":false,"is_disabled":false,"rental_uris":{"android":"levelo://app?vid=e3f03a4b-79e8-4c86-8b60-dae37cb49b4e","ios":"levelo://app?vid=e3f03a4b-79e8-4c86-8b60-dae37cb49b4e"},"vehicle_type_id":"4","last_reported":1761142266,"current_range_meters":9600,"station_id":"st_cvj6r9ubvosntc0bgbag","pricing_plan_id":"cebpf4jnsgd1na2vs0mg"},{"bike_id":"d38bb17a-4ac6-4da6-829b-fc2ffe260364","system_id":"levelo_inurba_marseille","lat":43.318962,"lon":5.407406,"is_reserved":false,"is_disabled":true,"rental_uris":{"android":"levelo://app?vid=d38bb17a-4ac6-4da6-829b-fc2ffe260364","ios":"levelo://app?vid=d38bb17a-4ac6-4da6-829b-fc2ffe260364"},"vehicle_type_id":"4","last_reported":1761142266,"current_range_meters":9600,"station_id":"ce4bhq12rcd13ifvqhig","pricing_plan_id":"cebpf4jnsgd1na2vs0mg"},{"bike_id":"d83ba3b5-f05f-4b3f-995a-05ad1a505367","system_id":"levelo_inurba_marseille","lat":43.31719,"lon":5.42391,"is_reserved":false,"is_disabled":false,"rental_uris":{"android":"levelo://app?vid=d83ba3b5-f05f-4b3f-995a-05ad1a505367","ios":"levelo://app?vid=d83ba3b5-f05f-4b3f-995a-05ad1a505367"},"vehicle_type_id":"4","last_reported":1761142266,"current_range_meters":10000,"station_id":"ce4bhp92rcd13ifvqhbg","pricing_plan_id":"cebpf4jnsgd1na2vs0mg"},{"bike_id":"dac46a03-a053-41f2-b44f-fe18b5243cf4","system_id":"levelo_inurba_marseille","lat":43.21745,"lon":5.34611,"is_reserved":false,"is_disabled":false,"rental_uris":{"android":"levelo://app?vid=dac46a03-a053-41f2-b44f-fe18b5243cf4","ios":"levelo://app?vid=dac46a03-a053-41f2-b44f-fe18b5243cf4"},"vehicle_type_id":"4","last_reported":1761142266,"current_range_meters":10000,"station_id":"","pricing_plan_id":"cebpf4jnsgd1na2vs0mg"},{"bike_id":"323bf2de-3bb4-4b4c-b330-b19ea807dbf5","system_id":"levelo_inurba_marseille","lat":43.31065,"lon":5.38357,"is_reserved":false,"is_disabled":true,"rental_uris":{"android":"levelo://app?vid=323bf2de-3bb4-4b4c-b330-b19ea807dbf5","ios":"levelo://app?vid=323bf2de-3bb4-4b4c-b330-b19ea807dbf5"},"vehicle_type_id":"4","last_reported":1761142266,"current_range_meters":10000,"station_id":"ce4bgv92rcd13ifvqcr0","pricing_plan_id":"cebpf4jnsgd1na2vs0mg"},{"bike_id":"9ba850a3-1f2c-40be-99fd-2b4d97b88460","system_id":"levelo_inurba_marseille","lat":43.28374,"lon":5.38634,"is_reserved":false,"is_disabled":false,"rental_uris":{"android":"levelo://app?vid=9ba850a3-1f2c-40be-99fd-2b4d97b88460","ios":"levelo://app?vid=9ba850a3-1f2c-40be-99fd-2b4d97b88460"},"vehicle_type_id":"4","last_reported":1761142266,"current_range_meters":10000,"station_id":"ce4bh492rcd13ifvqdvg","pricing_plan_id":"cebpf4jnsgd1na2vs0mg"},{"bike_id":"11150be9-5ed2-4a43-ae5f-0ea95444cf9a","system_id":"levelo_inurba_marseille","lat":43.23192,"lon":5.35549,"is_reserved":false,"is_disabled":false,"rental_uris":{"android":"levelo://app?vid=11150be9-5ed2-4a43-ae5f-0ea95444cf9a","ios":"levelo://app?vid=11150be9-5ed2-4a43-ae5f-0ea95444cf9a"},"vehicle_type_id":"4","last_reported":1761142266,"current_range_meters":10800,"station_id":"ce4bhu92rcd13ifvqi70","pricing_plan_id":"cebpf4jnsgd1na2vs0mg"},{"bike_id":"146c2516-bef0-44a7-b04d-fb80b55a97f2","system_id":"levelo_inurba_marseille","lat":43.30125,"lon":5.43113,"is_reserved":false,"is_disabled":false,"rental_uris":{"android":"levelo://app?vid=146c2516-bef0-44a7-b04d-fb80b55a97f2","ios":"levelo://app?vid=146c2516-bef0-44a7-b04d-fb80b55a97f2"},"vehicle_type_id":"4","last_reported":1761142266,"current_range_meters":10800,"station_id":"st_d3js3co5814s73ftftug","pricing_plan_id":"cebpf4jnsgd1na2vs0mg"},{"bike_id":"65ca89ed-18fd-4e7e-9247-025e55d1ba89","system_id":"levelo_inurba_marseille","lat":43.21747,"lon":5.34613,"is_reserved":false,"is_disabled":false,"rental_uris":{"android":"levelo://app?vid=65ca89ed-18fd-4e7e-9247-025e55d1ba89","ios":"levelo://app?vid=65ca89ed-18fd-4e7e-9247-025e55d1ba89"},"vehicle_type_id":"4","last_reported":1761142266,"current_range_meters":10800,"station_id":"st_cvj6r9ubvosntc0bgbag","pricing_plan_id":"cebpf4jnsgd1na2vs0mg"},{"bike_id":"08760b05-dd64-401b-9483-769d9f68a93e","system_id":"levelo_inurba_marseille","lat":43.29966,"lon":5.38495,"is_reserved":false,"is_disabled":false,"rental_uris":{"android":"levelo://app?vid=08760b05-dd64-401b-9483-769d9f68a93e","ios":"levelo://app?vid=08760b05-dd64-401b-9483-769d9f68a93e"},"vehicle_type_id":"4","last_reported":1761142266,"current_range_meters":10800,"station_id":"ce4bgj92rcd13ifvqbd0","pricing_plan_id":"cebpf4jnsgd1na2vs0mg"},{"bike_id":"9969dc89-b3da-432d-a478-1a7bf655bb81","system_id":"levelo_inurba_marseille","lat":43.32358,"lon":5.36769,"is_reserved":false,"is_disabled":false,"rental_uris":{"android":"levelo://app?vid=9969dc89-b3da-432d-a478-1a7bf655bb81","ios":"levelo://app?vid=9969dc89-b3da-432d-a478-1a7bf655bb81"},"vehicle_type_id":"4","last_reported":1761142266,"current_range_meters":10800,"station_id":"ce4bhsh2rcd13ifvqi2g","pricing_plan_id":"cebpf4jnsgd1na2vs0mg"},{"bike_id":"4e7e8f57-06ea-4923-b3c1-ea91802d5920","system_id":"levelo_inurba_marseille","lat":43.27989,"lon":5.41655,"is_reserved":false,"is_disabled":false,"rental_uris":{"android":"levelo://app?vid=4e7e8f57-06ea-4923-b3c1-ea91802d5920","ios":"levelo://app?vid=4e7e8f57-06ea-4923-b3c1-ea91802d5920"},"vehicle_type_id":"4","last_reported":1761142266,"current_range_meters":10800,"station_id":"ce4bho12rcd13ifvqh1g","pricing_plan_id":"cebpf4jnsgd1na2vs0mg"},{"bike_id":"02f7835e-8895-43db-bc46-dc0659a292d5","system_id":"levelo_inurba_marseille","lat":43.29331,"lon":5.3707,"is_reserved":false,"is_disabled":false,"rental_uris":{"android":"levelo://app?vid=02f7835e-8895-43db-bc46-dc0659a292d5","ios":"levelo://app?vid=02f7835e-8895-43db-bc46-dc0659a292d5"},"vehicle_type_id":"4","last_reported":1761142266,"current_range_meters":10800,"station_id":"","pricing_plan_id":"cebpf4jnsgd1na2vs0mg"},{"bike_id":"40e17525-0511-4786-8546-896444b0c93b","system_id":"levelo_inurba_marseille","lat":43.211898,"lon":5.350747,"is_reserved":false,"is_disabled":false,"rental_uris":{"android":"levelo://app?vid=40e17525-0511-4786-8546-896444b0c93b","ios":"levelo://app?vid=40e17525-0511-4786-8546-896444b0c93b"},"vehicle_type_id":"4","last_reported":1761142266,"current_range_meters":10800,"station_id":"st_cvj6sg6p6f1abm77japg","pricing_plan_id":"cebpf4jnsgd1na2vs0mg"},{"bike_id":"4010250f-6a1e-4c14-a48c-f6af023594cc","system_id":"levelo_inurba_marseille","lat":43.29891,"lon":5.43678,"is_reserved":false,"is_disabled":false,"rental_uris":{"android":"levelo://app?vid=4010250f-6a1e-4c14-a48c-f6af023594cc","ios":"levelo://app?vid=4010250f-6a1e-4c14-a48c-f6af023594cc"},"vehicle_type_id":"4","last_reported":1761142266,"current_range_meters":11200,"station_id":"ce4bhpp2rcd13ifvqhfg","pricing_plan_id":"cebpf4jnsgd1na2vs0mg"},{"bike_id":"829ad942-fd55-4fc4-863c-ed3ab8fe0923","system_id":"levelo_inurba_marseille","lat":43.28482,"lon":5.38405,"is_reserved":false,"is_disabled":false,"rental_uris":{"android":"levelo://app?vid=829ad942-fd55-4fc4-863c-ed3ab8fe0923","ios":"levelo://app?vid=829ad942-fd55-4fc4-863c-ed3ab8fe0923"},"vehicle_type_id":"4","last_reported":1761142266,"current_range_meters":11200,"station_id":"ce4bh512rcd13ifvqe3g","pricing_plan_id":"cebpf4jnsgd1na2vs0mg"},{"bike_id":"9b74d84d-2aa0-408e-b68e-d9430a1acd56","system_id":"levelo_inurba_marseille","lat":43.30119,"lon":5.39858,"is_reserved":false,"is_disabled":false,"rental_uris":{"android":"levelo://app?vid=9b74d84d-2aa0-408e-b68e-d9430a1acd56","ios":"levelo://app?vid=9b74d84d-2aa0-408e-b68e-d9430a1acd56"},"vehicle_type_id":"4","last_reported":1761142266,"current_range_meters":11200,"station_id":"ce4bh0h2rcd13ifvqd40","pricing_plan_id":"cebpf4jnsgd1na2vs0mg"},{"bike_id":"35fc1407-284a-40a9-901b-34c757785ead","system_id":"levelo_inurba_marseille","lat":43.24375,"lon":5.37042,"is_reserved":false,"is_disabled":false,"rental_uris":{"android":"levelo://app?vid=35fc1407-284a-40a9-901b-34c757785ead","ios":"levelo://app?vid=35fc1407-284a-40a9-901b-34c757785ead"},"vehicle_type_id":"4","last_reported":1761142266,"current_range_meters":11200,"station_id":"ce4bhhh2rcd13ifvqfk0","pricing_plan_id":"cebpf4jnsgd1na2vs0mg"},{"bike_id":"ac1df8dc-41e5-4954-977f-6f21ed12d11a","system_id":"levelo_inurba_marseille","lat":43.217495,"lon":5.346019,"is_reserved":false,"is_disabled":false,"rental_uris":{"android":"levelo://app?vid=ac1df8dc-41e5-4954-977f-6f21ed12d11a","ios":"levelo://app?vid=ac1df8dc-41e5-4954-977f-6f21ed12d11a"},"vehicle_type_id":"4","last_reported":1761142266,"current_range_meters":11600,"station_id":"ce4bh692rcd13ifvqea0","pricing_plan_id":"cebpf4jnsgd1na2vs0mg"},{"bike_id":"409fcdf7-44de-4a44-b0c7-f061cef08f29","system_id":"levelo_inurba_marseille","lat":43.29794,"lon":5.38107,"is_reserved":false,"is_disabled":false,"rental_uris":{"android":"levelo://app?vid=409fcdf7-44de-4a44-b0c7-f061cef08f29","ios":"levelo://app?vid=409fcdf7-44de-4a44-b0c7-f061cef08f29"},"vehicle_type_id":"4","last_reported":1761142266,"current_range_meters":11600,"station_id":"ce4bgip2rcd13ifvqbb0","pricing_plan_id":"cebpf4jnsgd1na2vs0mg"},{"bike_id":"89dd87c4-c8d0-4de7-8902-2b0447e67475","system_id":"levelo_inurba_marseille","lat":43.31232,"lon":5.36877,"is_reserved":false,"is_disabled":false,"rental_uris":{"android":"levelo://app?vid=89dd87c4-c8d0-4de7-8902-2b0447e67475","ios":"levelo://app?vid=89dd87c4-c8d0-4de7-8902-2b0447e67475"},"vehicle_type_id":"4","last_reported":1761142266,"current_range_meters":11600,"station_id":"","pricing_plan_id":"cebpf4jnsgd1na2vs0mg"},{"bike_id":"fcd9d119-4990-4b2e-937b-f3eda46b00ef","system_id":"levelo_inurba_marseille","lat":43.29363,"lon":5.37861,"is_reserved":false,"is_disabled":false,"rental_uris":{"android":"levelo://app?vid=fcd9d119-4990-4b2e-937b-f3eda46b00ef","ios":"levelo://app?vid=fcd9d119-4990-4b2e-937b-f3eda46b00ef"},"vehicle_type_id":"4","last_reported":1761142266,"current_range_meters":11600,"station_id":"ce4bgjh2rcd13ifvqbf0","pricing_plan_id":"cebpf4jnsgd1na2vs0mg"},{"bike_id":"b869754e-ab30-4b29-93e2-c3b579cde905","system_id":"levelo_inurba_marseille","lat":43.270574,"lon":5.382995,"is_reserved":false,"is_disabled":false,"rental_uris":{"android":"levelo://app?vid=b869754e-ab30-4b29-93e2-c3b579cde905","ios":"levelo://app?vid=b869754e-ab30-4b29-93e2-c3b579cde905"},"vehicle_type_id":"4","last_reported":1761142266,"current_range_meters":11600,"station_id":"st_d3n2fo6cfp8s73cte1j0","pricing_plan_id":"cebpf4jnsgd1na2vs0mg"},{"bike_id":"7a6f32e9-4536-488d-9229-955825286ecb","system_id":"levelo_inurba_marseille","lat":43.32349,"lon":5.36752,"is_reserved":false,"is_disabled":false,"rental_uris":{"android":"levelo://app?vid=7a6f32e9-4536-488d-9229-955825286ecb","ios":"levelo://app?vid=7a6f32e9-4536-488d-9229-955825286ecb"},"vehicle_type_id":"4","last_reported":1761142266,"current_range_meters":12000,"station_id":"ce4bhsh2rcd13ifvqi2g","pricing_plan_id":"cebpf4jnsgd1na2vs0mg"},{"bike_id":"6ea4db1a-bb11-46d4-bc50-dfb3b45ad0dc","system_id":"levelo_inurba_marseille","lat":43.23199,"lon":5.35551,"is_reserved":false,"is_disabled":false,"rental_uris":{"android":"levelo://app?vid=6ea4db1a-bb11-46d4-bc50-dfb3b45ad0dc","ios":"levelo://app?vid=6ea4db1a-bb11-46d4-bc50-dfb3b45ad0dc"},"vehicle_type_id":"4","last_reported":1761142266,"current_range_meters":12000,"station_id":"ce4bhu92rcd13ifvqi70","pricing_plan_id":"cebpf4jnsgd1na2vs0mg"},{"bike_id":"82576c51-8b9b-43eb-aa43-fc4a18c9ea5b","system_id":"levelo_inurba_marseille","lat":43.21747,"lon":5.34591,"is_reserved":false,"is_disabled":false,"rental_uris":{"android":"levelo://app?vid=82576c51-8b9b-43eb-aa43-fc4a18c9ea5b","ios":"levelo://app?vid=82576c51-8b9b-43eb-aa43-fc4a18c9ea5b"},"vehicle_type_id":"4","last_reported":1761142266,"current_range_meters":12000,"station_id":"st_cvj6r9ubvosntc0bgbag","pricing_plan_id":"cebpf4jnsgd1na2vs0mg"},{"bike_id":"8019ec39-0894-4bd0-b05a-e74768265a39","system_id":"levelo_inurba_marseille","lat":43.299219,"lon":5.365281,"is_reserved":false,"is_disabled":false,"rental_uris":{"android":"levelo://app?vid=8019ec39-0894-4bd0-b05a-e74768265a39","ios":"levelo://app?vid=8019ec39-0894-4bd0-b05a-e74768265a39"},"vehicle_type_id":"4","last_reported":1761142266,"current_range_meters":12000,"station_id":"ce4bgj92rcd13ifvqbd0","pricing_plan_id":"cebpf4jnsgd1na2vs0mg"},{"bike_id":"25bf86ff-cce0-4fc2-b49f-b5b99abd09a9","system_id":"levelo_inurba_marseille","lat":43.28268,"lon":5.35061,"is_reserved":false,"is_disabled":false,"rental_uris":{"android":"levelo://app?vid=25bf86ff-cce0-4fc2-b49f-b5b99abd09a9","ios":"levelo://app?vid=25bf86ff-cce0-4fc2-b49f-b5b99abd09a9"},"vehicle_type_id":"4","last_reported":1761142266,"current_range_meters":12000,"station_id":"ce4bhbp2rcd13ifvqerg","pricing_plan_id":"cebpf4jnsgd1na2vs0mg"},{"bike_id":"bbf0e5b3-61ac-473b-99b0-cf0316df431b","system_id":"levelo_inurba_marseille","lat":43.29989,"lon":5.37158,"is_reserved":false,"is_disabled":false,"rental_uris":{"android":"levelo://app?vid=bbf0e5b3-61ac-473b-99b0-cf0316df431b","ios":"levelo://app?vid=bbf0e5b3-61ac-473b-99b0-cf0316df431b"},"vehicle_type_id":"4","last_reported":1761142266,"current_range_meters":12000,"station_id":"ce4bgr92rcd13ifvqc7g","pricing_plan_id":"cebpf4jnsgd1na2vs0mg"},{"bike_id":"5048d45b-2570-49ac-818b-598672b08e95","system_id":"levelo_inurba_marseille","lat":43.296125,"lon":5.381168,"is_reserved":false,"is_disabled":false,"rental_uris":{"android":"levelo://app?vid=5048d45b-2570-49ac-818b-598672b08e95","ios":"levelo://app?vid=5048d45b-2570-49ac-818b-598672b08e95"},"vehicle_type_id":"4","last_reported":1761142266,"current_range_meters":12000,"station_id":"ce4bhjp2rcd13ifvqga0","pricing_plan_id":"cebpf4jnsgd1na2vs0mg"},{"bike_id":"61c3955c-0019-4e8c-ad7f-8f321ece74ae","system_id":"levelo_inurba_marseille","lat":43.29794,"lon":5.40397,"is_reserved":false,"is_disabled":false,"rental_uris":{"android":"levelo://app?vid=61c3955c-0019-4e8c-ad7f-8f321ece74ae","ios":"levelo://app?vid=61c3955c-0019-4e8c-ad7f-8f321ece74ae"},"vehicle_type_id":"4","last_reported":1761142266,"current_range_meters":12400,"station_id":"ce4bh112rcd13ifvqd90","pricing_plan_id":"cebpf4jnsgd1na2vs0mg"},{"bike_id":"6146b6a3-a2f0-4083-b0dd-fa6ecd5a65f0","system_id":"levelo_inurba_marseille","lat":43.27357,"lon":5.36266,"is_reserved":false,"is_disabled":false,"rental_uris":{"android":"levelo://app?vid=6146b6a3-a2f0-4083-b0dd-fa6ecd5a65f0","ios":"levelo://app?vid=6146b6a3-a2f0-4083-b0dd-fa6ecd5a65f0"},"vehicle_type_id":"4","last_reported":1761142266,"current_range_meters":12400,"station_id":"ce4bhbh2rcd13ifvqeo0","pricing_plan_id":"cebpf4jnsgd1na2vs0mg"},{"bike_id":"27e4da55-03ac-4a27-9cbb-4218c6a866bf","system_id":"levelo_inurba_marseille","lat":43.280642,"lon":5.352788,"is_reserved":false,"is_disabled":false,"rental_uris":{"android":"levelo://app?vid=27e4da55-03ac-4a27-9cbb-4218c6a866bf","ios":"levelo://app?vid=27e4da55-03ac-4a27-9cbb-4218c6a866bf"},"vehicle_type_id":"4","last_reported":1761142266,"current_range_meters":12400,"station_id":"","pricing_plan_id":"cebpf4jnsgd1na2vs0mg"},{"bike_id":"d2d51552-cbcd-46e1-b4b8-054d8bdc3fbd","system_id":"levelo_inurba_marseille","lat":43.23963,"lon":5.36626,"is_reserved":false,"is_disabled":false,"rental_uris":{"android":"levelo://app?vid=d2d51552-cbcd-46e1-b4b8-054d8bdc3fbd","ios":"levelo://app?vid=d2d51552-cbcd-46e1-b4b8-054d8bdc3fbd"},"vehicle_type_id":"4","last_reported":1761142266,"current_range_meters":12400,"station_id":"ce4bhi12rcd13ifvqfp0","pricing_plan_id":"cebpf4jnsgd1na2vs0mg"},{"bike_id":"57fb679a-861f-46d6-be89-322e3ed6d680","system_id":"levelo_inurba_marseille","lat":43.21746,"lon":5.34601,"is_reserved":false,"is_disabled":false,"rental_uris":{"android":"levelo://app?vid=57fb679a-861f-46d6-be89-322e3ed6d680","ios":"levelo://app?vid=57fb679a-861f-46d6-be89-322e3ed6d680"},"vehicle_type_id":"4","last_reported":1761142266,"current_range_meters":12400,"station_id":"st_cvj6r9ubvosntc0bgbag","pricing_plan_id":"cebpf4jnsgd1na2vs0mg"},{"bike_id":"19548677-27a6-473b-a62c-e2f48eb4d12b","system_id":"levelo_inurba_marseille","lat":43.28267,"lon":5.35064,"is_reserved":false,"is_disabled":false,"rental_uris":{"android":"levelo://app?vid=19548677-27a6-473b-a62c-e2f48eb4d12b","ios":"levelo://app?vid=19548677-27a6-473b-a62c-e2f48eb4d12b"},"vehicle_type_id":"4","last_reported":1761142266,"current_range_meters":12800,"station_id":"ce4bhbp2rcd13ifvqerg","pricing_plan_id":"cebpf4jnsgd1na2vs0mg"},{"bike_id":"9e45cbf9-0a6b-4913-8c4b-ffe55d791bf1","system_id":"levelo_inurba_marseille","lat":43.26495,"lon":5.39541,"is_reserved":false,"is_disabled":false,"rental_uris":{"android":"levelo://app?vid=9e45cbf9-0a6b-4913-8c4b-ffe55d791bf1","ios":"levelo://app?vid=9e45cbf9-0a6b-4913-8c4b-ffe55d791bf1"},"vehicle_type_id":"4","last_reported":1761142266,"current_range_meters":12800,"station_id":"ce4bhi12rcd13ifvqfq0","pricing_plan_id":"cebpf4jnsgd1na2vs0mg"},{"bike_id":"396aaa55-c35f-41fc-8337-93bac25c9dde","system_id":"levelo_inurba_marseille","lat":43.29239,"lon":5.35566,"is_reserved":false,"is_disabled":false,"rental_uris":{"android":"levelo://app?vid=396aaa55-c35f-41fc-8337-93bac25c9dde","ios":"levelo://app?vid=396aaa55-c35f-41fc-8337-93bac25c9dde"},"vehicle_type_id":"4","last_reported":1761142266,"current_range_meters":12800,"station_id":"","pricing_plan_id":"cebpf4jnsgd1na2vs0mg"},{"bike_id":"c4268d9c-1a57-45af-aced-c9bb0713bd39","system_id":"levelo_inurba_marseille","lat":43.277684,"lon":5.383901,"is_reserved":false,"is_disabled":false,"rental_uris":{"android":"levelo://app?vid=c4268d9c-1a57-45af-aced-c9bb0713bd39","ios":"levelo://app?vid=c4268d9c-1a57-45af-aced-c9bb0713bd39"},"vehicle_type_id":"4","last_reported":1761142266,"current_range_meters":12800,"station_id":"ce4bhh92rcd13ifvqfi0","pricing_plan_id":"cebpf4jnsgd1na2vs0mg"},{"bike_id":"9f0f19e3-84dd-4bcd-9c0d-9aaaf639e4a1","system_id":"levelo_inurba_marseille","lat":43.28003,"lon":5.40013,"is_reserved":false,"is_disabled":false,"rental_uris":{"android":"levelo://app?vid=9f0f19e3-84dd-4bcd-9c0d-9aaaf639e4a1","ios":"levelo://app?vid=9f0f19e3-84dd-4bcd-9c0d-9aaaf639e4a1"},"vehicle_type_id":"4","last_reported":1761142266,"current_range_meters":12800,"station_id":"ce4bho92rcd13ifvqh4g","pricing_plan_id":"cebpf4jnsgd1na2vs0mg"},{"bike_id":"c1111b01-ca2a-49aa-997a-204eb3f34fc9","system_id":"levelo_inurba_marseille","lat":43.292,"lon":5.35812,"is_reserved":false,"is_disabled":false,"rental_uris":{"android":"levelo://app?vid=c1111b01-ca2a-49aa-997a-204eb3f34fc9","ios":"levelo://app?vid=c1111b01-ca2a-49aa-997a-204eb3f34fc9"},"vehicle_type_id":"4","last_reported":1761142266,"current_range_meters":12800,"station_id":"ce4bhb12rcd13ifvqel0","pricing_plan_id":"cebpf4jnsgd1na2vs0mg"},{"bike_id":"37d01fc8-4b4d-4652-a489-1254eb9d4c80","system_id":"levelo_inurba_marseille","lat":43.34076,"lon":5.40411,"is_reserved":false,"is_disabled":false,"rental_uris":{"android":"levelo://app?vid=37d01fc8-4b4d-4652-a489-1254eb9d4c80","ios":"levelo://app?vid=37d01fc8-4b4d-4652-a489-1254eb9d4c80"},"vehicle_type_id":"4","last_reported":1761142266,"current_range_meters":12800,"station_id":"","pricing_plan_id":"cebpf4jnsgd1na2vs0mg"},{"bike_id":"8517d2ad-4627-4d5c-b43d-563f1cd29009","system_id":"levelo_inurba_marseille","lat":43.30444,"lon":5.36929,"is_reserved":false,"is_disabled":false,"rental_uris":{"android":"levelo://app?vid=8517d2ad-4627-4d5c-b43d-563f1cd29009","ios":"levelo://app?vid=8517d2ad-4627-4d5c-b43d-563f1cd29009"},"vehicle_type_id":"4","last_reported":1761142266,"current_range_meters":14000,"station_id":"","pricing_plan_id":"cebpf4jnsgd1na2vs0mg"},{"bike_id":"9ea5bc72-825b-41bc-beaf-784ef1b47a9c","system_id":"levelo_inurba_marseille","lat":43.284942,"lon":5.385594,"is_reserved":false,"is_disabled":false,"rental_uris":{"android":"levelo://app?vid=9ea5bc72-825b-41bc-beaf-784ef1b47a9c","ios":"levelo://app?vid=9ea5bc72-825b-41bc-beaf-784ef1b47a9c"},"vehicle_type_id":"4","last_reported":1761142266,"current_range_meters":14000,"station_id":"ce4bhg12rcd13ifvqf80","pricing_plan_id":"cebpf4jnsgd1na2vs0mg"},{"bike_id":"5d669402-a12e-4d82-a001-ee93d0c779e8","system_id":"levelo_inurba_marseille","lat":43.25116,"lon":5.40317,"is_reserved":false,"is_disabled":false,"rental_uris":{"android":"levelo://app?vid=5d669402-a12e-4d82-a001-ee93d0c779e8","ios":"levelo://app?vid=5d669402-a12e-4d82-a001-ee93d0c779e8"},"vehicle_type_id":"4","last_reported":1761142266,"current_range_meters":14000,"station_id":"ce4bhlh2rcd13ifvqgig","pricing_plan_id":"cebpf4jnsgd1na2vs0mg"},{"bike_id":"eb6c5412-8b38-44a8-b811-036bda830ce8","system_id":"levelo_inurba_marseille","lat":43.307872,"lon":5.376471,"is_reserved":false,"is_disabled":false,"rental_uris":{"android":"levelo://app?vid=eb6c5412-8b38-44a8-b811-036bda830ce8","ios":"levelo://app?vid=eb6c5412-8b38-44a8-b811-036bda830ce8"},"vehicle_type_id":"4","last_reported":1761142266,"current_range_meters":14000,"station_id":"ce4bgv92rcd13ifvqcq0","pricing_plan_id":"cebpf4jnsgd1na2vs0mg"},{"bike_id":"ac4f7d3c-5af7-44ad-8c8b-463d26f4b847","system_id":"levelo_inurba_marseille","lat":43.274451,"lon":5.390878,"is_reserved":false,"is_disabled":false,"rental_uris":{"android":"levelo://app?vid=ac4f7d3c-5af7-44ad-8c8b-463d26f4b847","ios":"levelo://app?vid=ac4f7d3c-5af7-44ad-8c8b-463d26f4b847"},"vehicle_type_id":"4","last_reported":1761142266,"current_range_meters":14000,"station_id":"ce4bhg12rcd13ifvqf80","pricing_plan_id":"cebpf4jnsgd1na2vs0mg"},{"bike_id":"ce264d1a-b1ad-4749-b85d-57a27bc88152","system_id":"levelo_inurba_marseille","lat":43.28568,"lon":5.39505,"is_reserved":false,"is_disabled":false,"rental_uris":{"android":"levelo://app?vid=ce264d1a-b1ad-4749-b85d-57a27bc88152","ios":"levelo://app?vid=ce264d1a-b1ad-4749-b85d-57a27bc88152"},"vehicle_type_id":"4","last_reported":1761142266,"current_range_meters":14000,"station_id":"ce4bh292rcd13ifvqdg0","pricing_plan_id":"cebpf4jnsgd1na2vs0mg"},{"bike_id":"0673451f-c9b8-4211-abb6-e1e5c9ee1aac","system_id":"levelo_inurba_marseille","lat":43.32487,"lon":5.36568,"is_reserved":false,"is_disabled":false,"rental_uris":{"android":"levelo://app?vid=0673451f-c9b8-4211-abb6-e1e5c9ee1aac","ios":"levelo://app?vid=0673451f-c9b8-4211-abb6-e1e5c9ee1aac"},"vehicle_type_id":"4","last_reported":1761142266,"current_range_meters":14000,"station_id":"ce4bhs12rcd13ifvqhvg","pricing_plan_id":"cebpf4jnsgd1na2vs0mg"},{"bike_id":"3d7013be-dfe4-430a-97e8-197a834810ee","system_id":"levelo_inurba_marseille","lat":43.246427,"lon":5.388902,"is_reserved":false,"is_disabled":false,"rental_uris":{"android":"levelo://app?vid=3d7013be-dfe4-430a-97e8-197a834810ee","ios":"levelo://app?vid=3d7013be-dfe4-430a-97e8-197a834810ee"},"vehicle_type_id":"4","last_reported":1761142266,"current_range_meters":14400,"station_id":"ce4bhg12rcd13ifvqf60","pricing_plan_id":"cebpf4jnsgd1na2vs0mg"},{"bike_id":"5b2fb394-b654-4cda-abea-19d87e1a4938","system_id":"levelo_inurba_marseille","lat":43.240822,"lon":5.377519,"is_reserved":false,"is_disabled":false,"rental_uris":{"android":"levelo://app?vid=5b2fb394-b654-4cda-abea-19d87e1a4938","ios":"levelo://app?vid=5b2fb394-b654-4cda-abea-19d87e1a4938"},"vehicle_type_id":"4","last_reported":1761142266,"current_range_meters":14400,"station_id":"ce4bhnp2rcd13ifvqgvg","pricing_plan_id":"cebpf4jnsgd1na2vs0mg"},{"bike_id":"d5d9bf61-252d-4b3c-bf16-89d44f1e7fea","system_id":"levelo_inurba_marseille","lat":43.30445,"lon":5.38896,"is_reserved":false,"is_disabled":false,"rental_uris":{"android":"levelo://app?vid=d5d9bf61-252d-4b3c-bf16-89d44f1e7fea","ios":"levelo://app?vid=d5d9bf61-252d-4b3c-bf16-89d44f1e7fea"},"vehicle_type_id":"4","last_reported":1761142266,"current_range_meters":14400,"station_id":"ce4bgk12rcd13ifvqbi0","pricing_plan_id":"cebpf4jnsgd1na2vs0mg"},{"bike_id":"07e992db-48e1-481b-a50e-3b491cfc1455","system_id":"levelo_inurba_marseille","lat":43.31991,"lon":5.41291,"is_reserved":false,"is_disabled":false,"rental_uris":{"android":"levelo://app?vid=07e992db-48e1-481b-a50e-3b491cfc1455","ios":"levelo://app?vid=07e992db-48e1-481b-a50e-3b491cfc1455"},"vehicle_type_id":"4","last_reported":1761142266,"current_range_meters":14400,"station_id":"","pricing_plan_id":"cebpf4jnsgd1na2vs0mg"},{"bike_id":"9bbda00d-a89d-4593-81c0-c7c78d42c5d1","system_id":"levelo_inurba_marseille","lat":43.2905,"lon":5.37154,"is_reserved":false,"is_disabled":false,"rental_uris":{"android":"levelo://app?vid=9bbda00d-a89d-4593-81c0-c7c78d42c5d1","ios":"levelo://app?vid=9bbda00d-a89d-4593-81c0-c7c78d42c5d1"},"vehicle_type_id":"4","last_reported":1761142266,"current_range_meters":14800,"station_id":"ce4bh5p2rcd13ifvqe4g","pricing_plan_id":"cebpf4jnsgd1na2vs0mg"},{"bike_id":"d2dd40b6-b656-4f7f-8227-3d65dab6eeee","system_id":"levelo_inurba_marseille","lat":43.27379,"lon":5.36258,"is_reserved":false,"is_disabled":false,"rental_uris":{"android":"levelo://app?vid=d2dd40b6-b656-4f7f-8227-3d65dab6eeee","ios":"levelo://app?vid=d2dd40b6-b656-4f7f-8227-3d65dab6eeee"},"vehicle_type_id":"4","last_reported":1761142266,"current_range_meters":14800,"station_id":"ce4bhbh2rcd13ifvqeo0","pricing_plan_id":"cebpf4jnsgd1na2vs0mg"},{"bike_id":"27abb83e-41b9-44dd-8179-d72d6dde274c","system_id":"levelo_inurba_marseille","lat":43.284908,"lon":5.385626,"is_reserved":false,"is_disabled":false,"rental_uris":{"android":"levelo://app?vid=27abb83e-41b9-44dd-8179-d72d6dde274c","ios":"levelo://app?vid=27abb83e-41b9-44dd-8179-d72d6dde274c"},"vehicle_type_id":"4","last_reported":1761142266,"current_range_meters":14800,"station_id":"ce4bh8p2rcd13ifvqeb0","pricing_plan_id":"cebpf4jnsgd1na2vs0mg"},{"bike_id":"e01c0407-9fea-4afc-844a-8e1d738fcda5","system_id":"levelo_inurba_marseille","lat":43.24176,"lon":5.36396,"is_reserved":false,"is_disabled":false,"rental_uris":{"android":"levelo://app?vid=e01c0407-9fea-4afc-844a-8e1d738fcda5","ios":"levelo://app?vid=e01c0407-9fea-4afc-844a-8e1d738fcda5"},"vehicle_type_id":"4","last_reported":1761142266,"current_range_meters":14800,"station_id":"cpo36qri1sfpv3e86is0","pricing_plan_id":"cebpf4jnsgd1na2vs0mg"},{"bike_id":"b61e6817-4496-4ad7-ab43-b524af2e26e5","system_id":"levelo_inurba_marseille","lat":43.2866,"lon":5.38661,"is_reserved":false,"is_disabled":false,"rental_uris":{"android":"levelo://app?vid=b61e6817-4496-4ad7-ab43-b524af2e26e5","ios":"levelo://app?vid=b61e6817-4496-4ad7-ab43-b524af2e26e5"},"vehicle_type_id":"4","last_reported":1761142266,"current_range_meters":14800,"station_id":"","pricing_plan_id":"cebpf4jnsgd1na2vs0mg"},{"bike_id":"2dfee494-599d-4a5d-b9a9-499c3f48592d","system_id":"levelo_inurba_marseille","lat":43.30454,"lon":5.37903,"is_reserved":false,"is_disabled":false,"rental_uris":{"android":"levelo://app?vid=2dfee494-599d-4a5d-b9a9-499c3f48592d","ios":"levelo://app?vid=2dfee494-599d-4a5d-b9a9-499c3f48592d"},"vehicle_type_id":"4","last_reported":1761142266,"current_range_meters":14800,"station_id":"ce4bgup2rcd13ifvqcn0","pricing_plan_id":"cebpf4jnsgd1na2vs0mg"},{"bike_id":"97c5452f-87e0-4210-96a4-6ab42d092aad","system_id":"levelo_inurba_marseille","lat":43.28418,"lon":5.34977,"is_reserved":false,"is_disabled":false,"rental_uris":{"android":"levelo://app?vid=97c5452f-87e0-4210-96a4-6ab42d092aad","ios":"levelo://app?vid=97c5452f-87e0-4210-96a4-6ab42d092aad"},"vehicle_type_id":"4","last_reported":1761142266,"current_range_meters":14800,"station_id":"ce4bhbh2rcd13ifvqepg","pricing_plan_id":"cebpf4jnsgd1na2vs0mg"},{"bike_id":"0529bcda-9068-46b1-a2d9-aaf824a26d2e","system_id":"levelo_inurba_marseille","lat":43.22566,"lon":5.41639,"is_reserved":false,"is_disabled":false,"rental_uris":{"android":"levelo://app?vid=0529bcda-9068-46b1-a2d9-aaf824a26d2e","ios":"levelo://app?vid=0529bcda-9068-46b1-a2d9-aaf824a26d2e"},"vehicle_type_id":"4","last_reported":1761142266,"current_range_meters":14800,"station_id":"st_d2o4gvlbi1j2169b742g","pricing_plan_id":"cebpf4jnsgd1na2vs0mg"},{"bike_id":"9ac1fc2b-7d88-46a4-b565-5615fc983157","system_id":"levelo_inurba_marseille","lat":43.32001,"lon":5.3816,"is_reserved":false,"is_disabled":false,"rental_uris":{"android":"levelo://app?vid=9ac1fc2b-7d88-46a4-b565-5615fc983157","ios":"levelo://app?vid=9ac1fc2b-7d88-46a4-b565-5615fc983157"},"vehicle_type_id":"4","last_reported":1761142266,"current_range_meters":15200,"station_id":"ce4bhr12rcd13ifvqhpg","pricing_plan_id":"cebpf4jnsgd1na2vs0mg"},{"bike_id":"7124aac2-f225-44c0-92ef-540bc0e74f88","system_id":"levelo_inurba_marseille","lat":43.28411,"lon":5.37509,"is_reserved":false,"is_disabled":false,"rental_uris":{"android":"levelo://app?vid=7124aac2-f225-44c0-92ef-540bc0e74f88","ios":"levelo://app?vid=7124aac2-f225-44c0-92ef-540bc0e74f88"},"vehicle_type_id":"4","last_reported":1761142266,"current_range_meters":15200,"station_id":"ce4bh412rcd13ifvqds0","pricing_plan_id":"cebpf4jnsgd1na2vs0mg"},{"bike_id":"4eae2ec4-8862-466e-a3d9-395cca4276d0","system_id":"levelo_inurba_marseille","lat":43.30318,"lon":5.375293,"is_reserved":false,"is_disabled":false,"rental_uris":{"android":"levelo://app?vid=4eae2ec4-8862-466e-a3d9-395cca4276d0","ios":"levelo://app?vid=4eae2ec4-8862-466e-a3d9-395cca4276d0"},"vehicle_type_id":"4","last_reported":1761142266,"current_range_meters":15200,"station_id":"","pricing_plan_id":"cebpf4jnsgd1na2vs0mg"},{"bike_id":"3b7c3b5c-0290-4026-b758-6cdbf06eaedd","system_id":"levelo_inurba_marseille","lat":43.31726,"lon":5.42387,"is_reserved":false,"is_disabled":false,"rental_uris":{"android":"levelo://app?vid=3b7c3b5c-0290-4026-b758-6cdbf06eaedd","ios":"levelo://app?vid=3b7c3b5c-0290-4026-b758-6cdbf06eaedd"},"vehicle_type_id":"4","last_reported":1761142266,"current_range_meters":15200,"station_id":"ce4bhp92rcd13ifvqhbg","pricing_plan_id":"cebpf4jnsgd1na2vs0mg"},{"bike_id":"e7709aff-f080-4c40-b225-77642ea3c5cc","system_id":"levelo_inurba_marseille","lat":43.24174,"lon":5.36404,"is_reserved":false,"is_disabled":false,"rental_uris":{"android":"levelo://app?vid=e7709aff-f080-4c40-b225-77642ea3c5cc","ios":"levelo://app?vid=e7709aff-f080-4c40-b225-77642ea3c5cc"},"vehicle_type_id":"4","last_reported":1761142266,"current_range_meters":15200,"station_id":"cpo36qri1sfpv3e86is0","pricing_plan_id":"cebpf4jnsgd1na2vs0mg"},{"bike_id":"9870a68d-ae62-4bec-82c3-a7443a850bdc","system_id":"levelo_inurba_marseille","lat":43.31269,"lon":5.37771,"is_reserved":false,"is_disabled":false,"rental_uris":{"android":"levelo://app?vid=9870a68d-ae62-4bec-82c3-a7443a850bdc","ios":"levelo://app?vid=9870a68d-ae62-4bec-82c3-a7443a850bdc"},"vehicle_type_id":"4","last_reported":1761142266,"current_range_meters":16000,"station_id":"","pricing_plan_id":"cebpf4jnsgd1na2vs0mg"},{"bike_id":"9d8bcd8e-8ecf-425f-98ef-b7c9398172e2","system_id":"levelo_inurba_marseille","lat":43.32361,"lon":5.36766,"is_reserved":false,"is_disabled":false,"rental_uris":{"android":"levelo://app?vid=9d8bcd8e-8ecf-425f-98ef-b7c9398172e2","ios":"levelo://app?vid=9d8bcd8e-8ecf-425f-98ef-b7c9398172e2"},"vehicle_type_id":"4","last_reported":1761142266,"current_range_meters":16000,"station_id":"ce4bhsh2rcd13ifvqi2g","pricing_plan_id":"cebpf4jnsgd1na2vs0mg"},{"bike_id":"027b5216-0be3-4305-9f75-81fde0a8497b","system_id":"levelo_inurba_marseille","lat":43.28462,"lon":5.3589,"is_reserved":false,"is_disabled":false,"rental_uris":{"android":"levelo://app?vid=027b5216-0be3-4305-9f75-81fde0a8497b","ios":"levelo://app?vid=027b5216-0be3-4305-9f75-81fde0a8497b"},"vehicle_type_id":"4","last_reported":1761142266,"current_range_meters":16000,"station_id":"ce4bhah2rcd13ifvqei0","pricing_plan_id":"cebpf4jnsgd1na2vs0mg"},{"bike_id":"c6c2dba1-db81-4cd1-9c62-d4db3c03abcc","system_id":"levelo_inurba_marseille","lat":43.2558,"lon":5.38233,"is_reserved":false,"is_disabled":false,"rental_uris":{"android":"levelo://app?vid=c6c2dba1-db81-4cd1-9c62-d4db3c03abcc","ios":"levelo://app?vid=c6c2dba1-db81-4cd1-9c62-d4db3c03abcc"},"vehicle_type_id":"4","last_reported":1761142266,"current_range_meters":16000,"station_id":"ce4bhih2rcd13ifvqfs0","pricing_plan_id":"cebpf4jnsgd1na2vs0mg"},{"bike_id":"0cb4e243-d784-4a00-8db9-17b53789339a","system_id":"levelo_inurba_marseille","lat":43.28613,"lon":5.35102,"is_reserved":false,"is_disabled":false,"rental_uris":{"android":"levelo://app?vid=0cb4e243-d784-4a00-8db9-17b53789339a","ios":"levelo://app?vid=0cb4e243-d784-4a00-8db9-17b53789339a"},"vehicle_type_id":"4","last_reported":1761142266,"current_range_meters":16400,"station_id":"ce4bhch2rcd13ifvqeug","pricing_plan_id":"cebpf4jnsgd1na2vs0mg"},{"bike_id":"2ff2319d-129a-4d22-a25d-01d96c2dcbc1","system_id":"levelo_inurba_marseille","lat":43.24648,"lon":5.38903,"is_reserved":false,"is_disabled":false,"rental_uris":{"android":"levelo://app?vid=2ff2319d-129a-4d22-a25d-01d96c2dcbc1","ios":"levelo://app?vid=2ff2319d-129a-4d22-a25d-01d96c2dcbc1"},"vehicle_type_id":"4","last_reported":1761142266,"current_range_meters":16400,"station_id":"ce4bhg12rcd13ifvqf60","pricing_plan_id":"cebpf4jnsgd1na2vs0mg"},{"bike_id":"618a9c44-e479-45b6-b144-58d3228e3132","system_id":"levelo_inurba_marseille","lat":43.24644,"lon":5.38896,"is_reserved":false,"is_disabled":false,"rental_uris":{"android":"levelo://app?vid=618a9c44-e479-45b6-b144-58d3228e3132","ios":"levelo://app?vid=618a9c44-e479-45b6-b144-58d3228e3132"},"vehicle_type_id":"4","last_reported":1761142266,"current_range_meters":16400,"station_id":"ce4bhg12rcd13ifvqf60","pricing_plan_id":"cebpf4jnsgd1na2vs0mg"},{"bike_id":"fd06af52-f6c2-45e0-8f84-23592965275b","system_id":"levelo_inurba_marseille","lat":43.28848,"lon":5.35865,"is_reserved":false,"is_disabled":false,"rental_uris":{"android":"levelo://app?vid=fd06af52-f6c2-45e0-8f84-23592965275b","ios":"levelo://app?vid=fd06af52-f6c2-45e0-8f84-23592965275b"},"vehicle_type_id":"4","last_reported":1761142266,"current_range_meters":16400,"station_id":"ce4bhb12rcd13ifvqem0","pricing_plan_id":"cebpf4jnsgd1na2vs0mg"},{"bike_id":"042b51df-71d2-40e9-9102-008e9be6293c","system_id":"levelo_inurba_marseille","lat":43.31691,"lon":5.40475,"is_reserved":false,"is_disabled":false,"rental_uris":{"android":"levelo://app?vid=042b51df-71d2-40e9-9102-008e9be6293c","ios":"levelo://app?vid=042b51df-71d2-40e9-9102-008e9be6293c"},"vehicle_type_id":"4","last_reported":1761142266,"current_range_meters":16400,"station_id":"ce4bh012rcd13ifvqd00","pricing_plan_id":"cebpf4jnsgd1na2vs0mg"},{"bike_id":"b3b13e92-d401-45af-ad84-a41c7bbeb5fe","system_id":"levelo_inurba_marseille","lat":43.30965,"lon":5.375131,"is_reserved":false,"is_disabled":false,"rental_uris":{"android":"levelo://app?vid=b3b13e92-d401-45af-ad84-a41c7bbeb5fe","ios":"levelo://app?vid=b3b13e92-d401-45af-ad84-a41c7bbeb5fe"},"vehicle_type_id":"4","last_reported":1761142266,"current_range_meters":16400,"station_id":"","pricing_plan_id":"cebpf4jnsgd1na2vs0mg"},{"bike_id":"49925036-1b8c-43d9-9946-a7e75d88720c","system_id":"levelo_inurba_marseille","lat":43.28652,"lon":5.36308,"is_reserved":false,"is_disabled":false,"rental_uris":{"android":"levelo://app?vid=49925036-1b8c-43d9-9946-a7e75d88720c","ios":"levelo://app?vid=49925036-1b8c-43d9-9946-a7e75d88720c"},"vehicle_type_id":"4","last_reported":1761142266,"current_range_meters":16400,"station_id":"ce4bhah2rcd13ifvqej0","pricing_plan_id":"cebpf4jnsgd1na2vs0mg"},{"bike_id":"f91d3059-1a8c-4757-9c90-0e3088167231","system_id":"levelo_inurba_marseille","lat":43.29034,"lon":5.37566,"is_reserved":false,"is_disabled":false,"rental_uris":{"android":"levelo://app?vid=f91d3059-1a8c-4757-9c90-0e3088167231","ios":"levelo://app?vid=f91d3059-1a8c-4757-9c90-0e3088167231"},"vehicle_type_id":"4","last_reported":1761142266,"current_range_meters":16400,"station_id":"ce4bh692rcd13ifvqe90","pricing_plan_id":"cebpf4jnsgd1na2vs0mg"},{"bike_id":"fdd755e3-5e07-4406-bd14-e9d9fe22e2ff","system_id":"levelo_inurba_marseille","lat":43.21192,"lon":5.35084,"is_reserved":false,"is_disabled":false,"rental_uris":{"android":"levelo://app?vid=fdd755e3-5e07-4406-bd14-e9d9fe22e2ff","ios":"levelo://app?vid=fdd755e3-5e07-4406-bd14-e9d9fe22e2ff"},"vehicle_type_id":"4","last_reported":1761142266,"current_range_meters":16400,"station_id":"","pricing_plan_id":"cebpf4jnsgd1na2vs0mg"},{"bike_id":"a79c6bd1-700c-48dd-854c-b0af28c99022","system_id":"levelo_inurba_marseille","lat":43.246414,"lon":5.431431,"is_reserved":false,"is_disabled":false,"rental_uris":{"android":"levelo://app?vid=a79c6bd1-700c-48dd-854c-b0af28c99022","ios":"levelo://app?vid=a79c6bd1-700c-48dd-854c-b0af28c99022"},"vehicle_type_id":"4","last_reported":1761142266,"current_range_meters":16400,"station_id":"st_d2m6c4gdas8pm72e190g","pricing_plan_id":"cebpf4jnsgd1na2vs0mg"},{"bike_id":"c8c0fa58-a519-4343-9887-b0c694f93aef","system_id":"levelo_inurba_marseille","lat":43.288669,"lon":5.425253,"is_reserved":false,"is_disabled":false,"rental_uris":{"android":"levelo://app?vid=c8c0fa58-a519-4343-9887-b0c694f93aef","ios":"levelo://app?vid=c8c0fa58-a519-4343-9887-b0c694f93aef"},"vehicle_type_id":"4","last_reported":1761142266,"current_range_meters":16800,"station_id":"st_d3b462108ojc7389ooeg","pricing_plan_id":"cebpf4jnsgd1na2vs0mg"},{"bike_id":"0ec4ef5d-d495-417b-9bb4-a7234e30b1f5","system_id":"levelo_inurba_marseille","lat":43.24547,"lon":5.3952,"is_reserved":false,"is_disabled":false,"rental_uris":{"android":"levelo://app?vid=0ec4ef5d-d495-417b-9bb4-a7234e30b1f5","ios":"levelo://app?vid=0ec4ef5d-d495-417b-9bb4-a7234e30b1f5"},"vehicle_type_id":"4","last_reported":1761142266,"current_range_meters":16800,"station_id":"ce4bhlp2rcd13ifvqgjg","pricing_plan_id":"cebpf4jnsgd1na2vs0mg"},{"bike_id":"612b7784-911c-4890-a540-330f9d5f4992","system_id":"levelo_inurba_marseille","lat":43.24167,"lon":5.364,"is_reserved":false,"is_disabled":false,"rental_uris":{"android":"levelo://app?vid=612b7784-911c-4890-a540-330f9d5f4992","ios":"levelo://app?vid=612b7784-911c-4890-a540-330f9d5f4992"},"vehicle_type_id":"4","last_reported":1761142266,"current_range_meters":16800,"station_id":"cpo36qri1sfpv3e86is0","pricing_plan_id":"cebpf4jnsgd1na2vs0mg"},{"bike_id":"0cf9e2b8-85c8-4cfa-8657-8b253a599faf","system_id":"levelo_inurba_marseille","lat":43.29281,"lon":5.36843,"is_reserved":false,"is_disabled":false,"rental_uris":{"android":"levelo://app?vid=0cf9e2b8-85c8-4cfa-8657-8b253a599faf","ios":"levelo://app?vid=0cf9e2b8-85c8-4cfa-8657-8b253a599faf"},"vehicle_type_id":"4","last_reported":1761142266,"current_range_meters":16800,"station_id":"ce4bhbp2rcd13ifvqesg","pricing_plan_id":"cebpf4jnsgd1na2vs0mg"},{"bike_id":"ef8f2252-1804-4953-911d-ed249567c829","system_id":"levelo_inurba_marseille","lat":43.27201,"lon":5.3919,"is_reserved":false,"is_disabled":false,"rental_uris":{"android":"levelo://app?vid=ef8f2252-1804-4953-911d-ed249567c829","ios":"levelo://app?vid=ef8f2252-1804-4953-911d-ed249567c829"},"vehicle_type_id":"4","last_reported":1761142266,"current_range_meters":16800,"station_id":"ce4bhhp2rcd13ifvqfm0","pricing_plan_id":"cebpf4jnsgd1na2vs0mg"},{"bike_id":"b4dcee3b-483d-421a-887f-5739986c75a6","system_id":"levelo_inurba_marseille","lat":43.298023,"lon":5.381016,"is_reserved":false,"is_disabled":false,"rental_uris":{"android":"levelo://app?vid=b4dcee3b-483d-421a-887f-5739986c75a6","ios":"levelo://app?vid=b4dcee3b-483d-421a-887f-5739986c75a6"},"vehicle_type_id":"4","last_reported":1761142266,"current_range_meters":17200,"station_id":"ce4bgip2rcd13ifvqbb0","pricing_plan_id":"cebpf4jnsgd1na2vs0mg"},{"bike_id":"c6df92e6-442a-4f75-9a45-f2766c4a930c","system_id":"levelo_inurba_marseille","lat":43.22556,"lon":5.41618,"is_reserved":false,"is_disabled":false,"rental_uris":{"android":"levelo://app?vid=c6df92e6-442a-4f75-9a45-f2766c4a930c","ios":"levelo://app?vid=c6df92e6-442a-4f75-9a45-f2766c4a930c"},"vehicle_type_id":"4","last_reported":1761142266,"current_range_meters":17200,"station_id":"st_d2o4gvlbi1j2169b742g","pricing_plan_id":"cebpf4jnsgd1na2vs0mg"},{"bike_id":"513f7520-1d39-44eb-8bc0-6cc3aa11424a","system_id":"levelo_inurba_marseille","lat":43.296313,"lon":5.405967,"is_reserved":false,"is_disabled":false,"rental_uris":{"android":"levelo://app?vid=513f7520-1d39-44eb-8bc0-6cc3aa11424a","ios":"levelo://app?vid=513f7520-1d39-44eb-8bc0-6cc3aa11424a"},"vehicle_type_id":"4","last_reported":1761142266,"current_range_meters":17200,"station_id":"ce4bh0h2rcd13ifvqd60","pricing_plan_id":"cebpf4jnsgd1na2vs0mg"},{"bike_id":"8e083eb0-8e91-489f-9872-e07db6032d2c","system_id":"levelo_inurba_marseille","lat":43.24807,"lon":5.37461,"is_reserved":false,"is_disabled":false,"rental_uris":{"android":"levelo://app?vid=8e083eb0-8e91-489f-9872-e07db6032d2c","ios":"levelo://app?vid=8e083eb0-8e91-489f-9872-e07db6032d2c"},"vehicle_type_id":"4","last_reported":1761142266,"current_range_meters":17200,"station_id":"ce4bhgh2rcd13ifvqfb0","pricing_plan_id":"cebpf4jnsgd1na2vs0mg"},{"bike_id":"564a64b9-b25b-424e-83ad-05539958ef64","system_id":"levelo_inurba_marseille","lat":43.27496,"lon":5.42455,"is_reserved":false,"is_disabled":false,"rental_uris":{"android":"levelo://app?vid=564a64b9-b25b-424e-83ad-05539958ef64","ios":"levelo://app?vid=564a64b9-b25b-424e-83ad-05539958ef64"},"vehicle_type_id":"4","last_reported":1761142266,"current_range_meters":17200,"station_id":"ce4bhn92rcd13ifvqgrg","pricing_plan_id":"cebpf4jnsgd1na2vs0mg"},{"bike_id":"1db58ee4-5c7d-4ef1-8a33-4047f3a1feb6","system_id":"levelo_inurba_marseille","lat":43.32556,"lon":5.41458,"is_reserved":false,"is_disabled":false,"rental_uris":{"android":"levelo://app?vid=1db58ee4-5c7d-4ef1-8a33-4047f3a1feb6","ios":"levelo://app?vid=1db58ee4-5c7d-4ef1-8a33-4047f3a1feb6"},"vehicle_type_id":"4","last_reported":1761142266,"current_range_meters":17200,"station_id":"ce4bhq12rcd13ifvqhhg","pricing_plan_id":"cebpf4jnsgd1na2vs0mg"},{"bike_id":"d4da7a79-ca5e-4367-bfbd-cf0176fdbd36","system_id":"levelo_inurba_marseille","lat":43.30527,"lon":5.36558,"is_reserved":false,"is_disabled":false,"rental_uris":{"android":"levelo://app?vid=d4da7a79-ca5e-4367-bfbd-cf0176fdbd36","ios":"levelo://app?vid=d4da7a79-ca5e-4367-bfbd-cf0176fdbd36"},"vehicle_type_id":"4","last_reported":1761142266,"current_range_meters":17200,"station_id":"","pricing_plan_id":"cebpf4jnsgd1na2vs0mg"},{"bike_id":"534b1de0-494d-4a1e-b24e-1360410315a9","system_id":"levelo_inurba_marseille","lat":43.292559,"lon":5.3841,"is_reserved":false,"is_disabled":false,"rental_uris":{"android":"levelo://app?vid=534b1de0-494d-4a1e-b24e-1360410315a9","ios":"levelo://app?vid=534b1de0-494d-4a1e-b24e-1360410315a9"},"vehicle_type_id":"4","last_reported":1761142266,"current_range_meters":17200,"station_id":"ce4bh692rcd13ifvqea0","pricing_plan_id":"cebpf4jnsgd1na2vs0mg"},{"bike_id":"a765a3bb-4eca-4b39-aaa6-81453fd0662f","system_id":"levelo_inurba_marseille","lat":43.29799,"lon":5.38112,"is_reserved":false,"is_disabled":false,"rental_uris":{"android":"levelo://app?vid=a765a3bb-4eca-4b39-aaa6-81453fd0662f","ios":"levelo://app?vid=a765a3bb-4eca-4b39-aaa6-81453fd0662f"},"vehicle_type_id":"4","last_reported":1761142266,"current_range_meters":17200,"station_id":"ce4bgip2rcd13ifvqbb0","pricing_plan_id":"cebpf4jnsgd1na2vs0mg"},{"bike_id":"61525fe3-26d4-4c5c-a075-e59599c296c4","system_id":"levelo_inurba_marseille","lat":43.3145,"lon":5.39304,"is_reserved":false,"is_disabled":false,"rental_uris":{"android":"levelo://app?vid=61525fe3-26d4-4c5c-a075-e59599c296c4","ios":"levelo://app?vid=61525fe3-26d4-4c5c-a075-e59599c296c4"},"vehicle_type_id":"4","last_reported":1761142266,"current_range_meters":17600,"station_id":"","pricing_plan_id":"cebpf4jnsgd1na2vs0mg"},{"bike_id":"c6de43d9-df49-4f4e-909f-b4be643297aa","system_id":"levelo_inurba_marseille","lat":43.29094,"lon":5.38115,"is_reserved":false,"is_disabled":false,"rental_uris":{"android":"levelo://app?vid=c6de43d9-df49-4f4e-909f-b4be643297aa","ios":"levelo://app?vid=c6de43d9-df49-4f4e-909f-b4be643297aa"},"vehicle_type_id":"4","last_reported":1761142266,"current_range_meters":17600,"station_id":"ce4bh512rcd13ifvqe2g","pricing_plan_id":"cebpf4jnsgd1na2vs0mg"},{"bike_id":"78f87a21-aa41-4b3f-88ad-d429135c954b","system_id":"levelo_inurba_marseille","lat":43.24546,"lon":5.39522,"is_reserved":false,"is_disabled":false,"rental_uris":{"android":"levelo://app?vid=78f87a21-aa41-4b3f-88ad-d429135c954b","ios":"levelo://app?vid=78f87a21-aa41-4b3f-88ad-d429135c954b"},"vehicle_type_id":"4","last_reported":1761142266,"current_range_meters":17600,"station_id":"ce4bhlp2rcd13ifvqgjg","pricing_plan_id":"cebpf4jnsgd1na2vs0mg"},{"bike_id":"fc088b50-e903-4413-b68e-3a2b8a695866","system_id":"levelo_inurba_marseille","lat":43.246246,"lon":5.43148,"is_reserved":false,"is_disabled":false,"rental_uris":{"android":"levelo://app?vid=fc088b50-e903-4413-b68e-3a2b8a695866","ios":"levelo://app?vid=fc088b50-e903-4413-b68e-3a2b8a695866"},"vehicle_type_id":"4","last_reported":1761142266,"current_range_meters":17600,"station_id":"st_d2m6c4gdas8pm72e190g","pricing_plan_id":"cebpf4jnsgd1na2vs0mg"},{"bike_id":"1965ae0e-f997-450d-bd7e-76415222d0b8","system_id":"levelo_inurba_marseille","lat":43.231904,"lon":5.355601,"is_reserved":false,"is_disabled":false,"rental_uris":{"android":"levelo://app?vid=1965ae0e-f997-450d-bd7e-76415222d0b8","ios":"levelo://app?vid=1965ae0e-f997-450d-bd7e-76415222d0b8"},"vehicle_type_id":"4","last_reported":1761142266,"current_range_meters":17600,"station_id":"ce4bhu92rcd13ifvqi70","pricing_plan_id":"cebpf4jnsgd1na2vs0mg"},{"bike_id":"d9247930-f477-4727-872b-24c5b02f6614","system_id":"levelo_inurba_marseille","lat":43.271887,"lon":5.409897,"is_reserved":false,"is_disabled":false,"rental_uris":{"android":"levelo://app?vid=d9247930-f477-4727-872b-24c5b02f6614","ios":"levelo://app?vid=d9247930-f477-4727-872b-24c5b02f6614"},"vehicle_type_id":"4","last_reported":1761142266,"current_range_meters":17600,"station_id":"ce4bhl12rcd13ifvqgf0","pricing_plan_id":"cebpf4jnsgd1na2vs0mg"},{"bike_id":"de0d71a9-6b65-48af-8cd7-81a368defc29","system_id":"levelo_inurba_marseille","lat":43.30299,"lon":5.39212,"is_reserved":false,"is_disabled":false,"rental_uris":{"android":"levelo://app?vid=de0d71a9-6b65-48af-8cd7-81a368defc29","ios":"levelo://app?vid=de0d71a9-6b65-48af-8cd7-81a368defc29"},"vehicle_type_id":"4","last_reported":1761142266,"current_range_meters":17600,"station_id":"ce4bgkh2rcd13ifvqbk0","pricing_plan_id":"cebpf4jnsgd1na2vs0mg"},{"bike_id":"9f1ecf02-c330-41ac-b66c-bccf64a334e5","system_id":"levelo_inurba_marseille","lat":43.28413,"lon":5.34979,"is_reserved":false,"is_disabled":false,"rental_uris":{"android":"levelo://app?vid=9f1ecf02-c330-41ac-b66c-bccf64a334e5","ios":"levelo://app?vid=9f1ecf02-c330-41ac-b66c-bccf64a334e5"},"vehicle_type_id":"4","last_reported":1761142266,"current_range_meters":18000,"station_id":"ce4bhbh2rcd13ifvqepg","pricing_plan_id":"cebpf4jnsgd1na2vs0mg"},{"bike_id":"4c2b5c5f-ac7a-43d4-a4ed-480a42d5e982","system_id":"levelo_inurba_marseille","lat":43.33926,"lon":5.39764,"is_reserved":false,"is_disabled":false,"rental_uris":{"android":"levelo://app?vid=4c2b5c5f-ac7a-43d4-a4ed-480a42d5e982","ios":"levelo://app?vid=4c2b5c5f-ac7a-43d4-a4ed-480a42d5e982"},"vehicle_type_id":"4","last_reported":1761142266,"current_range_meters":18000,"station_id":"","pricing_plan_id":"cebpf4jnsgd1na2vs0mg"},{"bike_id":"a7f1ea20-3c44-448d-9824-f0bbe6584a23","system_id":"levelo_inurba_marseille","lat":43.29965,"lon":5.38501,"is_reserved":false,"is_disabled":false,"rental_uris":{"android":"levelo://app?vid=a7f1ea20-3c44-448d-9824-f0bbe6584a23","ios":"levelo://app?vid=a7f1ea20-3c44-448d-9824-f0bbe6584a23"},"vehicle_type_id":"4","last_reported":1761142266,"current_range_meters":18000,"station_id":"ce4bgj92rcd13ifvqbd0","pricing_plan_id":"cebpf4jnsgd1na2vs0mg"},{"bike_id":"622a446d-7aa9-48f8-a28a-4bdb017917b6","system_id":"levelo_inurba_marseille","lat":43.301519,"lon":5.380941,"is_reserved":false,"is_disabled":false,"rental_uris":{"android":"levelo://app?vid=622a446d-7aa9-48f8-a28a-4bdb017917b6","ios":"levelo://app?vid=622a446d-7aa9-48f8-a28a-4bdb017917b6"},"vehicle_type_id":"4","last_reported":1761142266,"current_range_meters":18000,"station_id":"ce4bgjp2rcd13ifvqbh0","pricing_plan_id":"cebpf4jnsgd1na2vs0mg"},{"bike_id":"2a22829e-2bd6-41ec-a3e5-ef826e7425d3","system_id":"levelo_inurba_marseille","lat":43.321147,"lon":5.368003,"is_reserved":false,"is_disabled":false,"rental_uris":{"android":"levelo://app?vid=2a22829e-2bd6-41ec-a3e5-ef826e7425d3","ios":"levelo://app?vid=2a22829e-2bd6-41ec-a3e5-ef826e7425d3"},"vehicle_type_id":"4","last_reported":1761142266,"current_range_meters":18000,"station_id":"ce4bhrh2rcd13ifvqhug","pricing_plan_id":"cebpf4jnsgd1na2vs0mg"},{"bike_id":"fbf37e70-990a-48c2-b1b4-a4a42ed4668d","system_id":"levelo_inurba_marseille","lat":43.2315,"lon":5.43713,"is_reserved":false,"is_disabled":false,"rental_uris":{"android":"levelo://app?vid=fbf37e70-990a-48c2-b1b4-a4a42ed4668d","ios":"levelo://app?vid=fbf37e70-990a-48c2-b1b4-a4a42ed4668d"},"vehicle_type_id":"4","last_reported":1761142266,"current_range_meters":18000,"station_id":"ce4bhmp2rcd13ifvqgog","pricing_plan_id":"cebpf4jnsgd1na2vs0mg"},{"bike_id":"bda3ed1a-3199-4eb8-8229-577855d09dbb","system_id":"levelo_inurba_marseille","lat":43.3163,"lon":5.37876,"is_reserved":false,"is_disabled":false,"rental_uris":{"android":"levelo://app?vid=bda3ed1a-3199-4eb8-8229-577855d09dbb","ios":"levelo://app?vid=bda3ed1a-3199-4eb8-8229-577855d09dbb"},"vehicle_type_id":"4","last_reported":1761142266,"current_range_meters":18000,"station_id":"","pricing_plan_id":"cebpf4jnsgd1na2vs0mg"},{"bike_id":"09f2ac65-5a04-431a-a5cc-cb096a1f815f","system_id":"levelo_inurba_marseille","lat":43.29192,"lon":5.36062,"is_reserved":false,"is_disabled":false,"rental_uris":{"android":"levelo://app?vid=09f2ac65-5a04-431a-a5cc-cb096a1f815f","ios":"levelo://app?vid=09f2ac65-5a04-431a-a5cc-cb096a1f815f"},"vehicle_type_id":"4","last_reported":1761142266,"current_range_meters":18000,"station_id":"ce4bhbh2rcd13ifvqeqg","pricing_plan_id":"cebpf4jnsgd1na2vs0mg"},{"bike_id":"af266495-008c-4954-830d-8c00fc03e83d","system_id":"levelo_inurba_marseille","lat":43.26791,"lon":5.39414,"is_reserved":false,"is_disabled":false,"rental_uris":{"android":"levelo://app?vid=af266495-008c-4954-830d-8c00fc03e83d","ios":"levelo://app?vid=af266495-008c-4954-830d-8c00fc03e83d"},"vehicle_type_id":"4","last_reported":1761142266,"current_range_meters":18000,"station_id":"ce4bhh12rcd13ifvqfg0","pricing_plan_id":"cebpf4jnsgd1na2vs0mg"},{"bike_id":"0b5bc8ec-291a-4c82-a7f6-edb070266845","system_id":"levelo_inurba_marseille","lat":43.26581,"lon":5.38992,"is_reserved":false,"is_disabled":false,"rental_uris":{"android":"levelo://app?vid=0b5bc8ec-291a-4c82-a7f6-edb070266845","ios":"levelo://app?vid=0b5bc8ec-291a-4c82-a7f6-edb070266845"},"vehicle_type_id":"4","last_reported":1761142266,"current_range_meters":18000,"station_id":"ce4bhe12rcd13ifvqf30","pricing_plan_id":"cebpf4jnsgd1na2vs0mg"},{"bike_id":"9393f9ef-7253-457f-bdcb-e284d908af29","system_id":"levelo_inurba_marseille","lat":43.28852,"lon":5.35862,"is_reserved":false,"is_disabled":false,"rental_uris":{"android":"levelo://app?vid=9393f9ef-7253-457f-bdcb-e284d908af29","ios":"levelo://app?vid=9393f9ef-7253-457f-bdcb-e284d908af29"},"vehicle_type_id":"4","last_reported":1761142266,"current_range_meters":18000,"station_id":"ce4bhb12rcd13ifvqem0","pricing_plan_id":"cebpf4jnsgd1na2vs0mg"},{"bike_id":"a065fb47-9ff2-4293-8c84-3ebf3f9ebc8b","system_id":"levelo_inurba_marseille","lat":43.284227,"lon":5.34974,"is_reserved":false,"is_disabled":false,"rental_uris":{"android":"levelo://app?vid=a065fb47-9ff2-4293-8c84-3ebf3f9ebc8b","ios":"levelo://app?vid=a065fb47-9ff2-4293-8c84-3ebf3f9ebc8b"},"vehicle_type_id":"4","last_reported":1761142266,"current_range_meters":18000,"station_id":"ce4bhbh2rcd13ifvqepg","pricing_plan_id":"cebpf4jnsgd1na2vs0mg"},{"bike_id":"b39dff13-556c-4b28-bde9-1cd6f4a12842","system_id":"levelo_inurba_marseille","lat":43.30123,"lon":5.39872,"is_reserved":false,"is_disabled":false,"rental_uris":{"android":"levelo://app?vid=b39dff13-556c-4b28-bde9-1cd6f4a12842","ios":"levelo://app?vid=b39dff13-556c-4b28-bde9-1cd6f4a12842"},"vehicle_type_id":"4","last_reported":1761142266,"current_range_meters":18800,"station_id":"ce4bh0h2rcd13ifvqd40","pricing_plan_id":"cebpf4jnsgd1na2vs0mg"},{"bike_id":"dd075339-b4e8-43d6-a62c-d7b89e062a20","system_id":"levelo_inurba_marseille","lat":43.28703,"lon":5.39985,"is_reserved":false,"is_disabled":false,"rental_uris":{"android":"levelo://app?vid=dd075339-b4e8-43d6-a62c-d7b89e062a20","ios":"levelo://app?vid=dd075339-b4e8-43d6-a62c-d7b89e062a20"},"vehicle_type_id":"4","last_reported":1761142266,"current_range_meters":18800,"station_id":"ce4bho92rcd13ifvqh3g","pricing_plan_id":"cebpf4jnsgd1na2vs0mg"},{"bike_id":"e3ca91a6-cfea-4ecc-af81-039b2e89a9d4","system_id":"levelo_inurba_marseille","lat":43.24383,"lon":5.37058,"is_reserved":false,"is_disabled":false,"rental_uris":{"android":"levelo://app?vid=e3ca91a6-cfea-4ecc-af81-039b2e89a9d4","ios":"levelo://app?vid=e3ca91a6-cfea-4ecc-af81-039b2e89a9d4"},"vehicle_type_id":"4","last_reported":1761142266,"current_range_meters":18800,"station_id":"ce4bhhh2rcd13ifvqfk0","pricing_plan_id":"cebpf4jnsgd1na2vs0mg"},{"bike_id":"737aac08-bce1-442f-8da6-3d547f35b57a","system_id":"levelo_inurba_marseille","lat":43.29966,"lon":5.37158,"is_reserved":false,"is_disabled":false,"rental_uris":{"android":"levelo://app?vid=737aac08-bce1-442f-8da6-3d547f35b57a","ios":"levelo://app?vid=737aac08-bce1-442f-8da6-3d547f35b57a"},"vehicle_type_id":"4","last_reported":1761142266,"current_range_meters":18800,"station_id":"ce4bgr92rcd13ifvqc7g","pricing_plan_id":"cebpf4jnsgd1na2vs0mg"},{"bike_id":"dde2fbb2-1981-426e-8107-a26224b7eb4e","system_id":"levelo_inurba_marseille","lat":43.29524,"lon":5.38537,"is_reserved":false,"is_disabled":false,"rental_uris":{"android":"levelo://app?vid=dde2fbb2-1981-426e-8107-a26224b7eb4e","ios":"levelo://app?vid=dde2fbb2-1981-426e-8107-a26224b7eb4e"},"vehicle_type_id":"4","last_reported":1761142266,"current_range_meters":18800,"station_id":"ce4bgih2rcd13ifvqba0","pricing_plan_id":"cebpf4jnsgd1na2vs0mg"},{"bike_id":"bc1ce556-4f70-40b2-a104-08b26a535c74","system_id":"levelo_inurba_marseille","lat":43.22564,"lon":5.41634,"is_reserved":false,"is_disabled":false,"rental_uris":{"android":"levelo://app?vid=bc1ce556-4f70-40b2-a104-08b26a535c74","ios":"levelo://app?vid=bc1ce556-4f70-40b2-a104-08b26a535c74"},"vehicle_type_id":"4","last_reported":1761142266,"current_range_meters":18800,"station_id":"st_d2o4gvlbi1j2169b742g","pricing_plan_id":"cebpf4jnsgd1na2vs0mg"},{"bike_id":"b80724ba-a612-41d3-add5-f8a23f531ed8","system_id":"levelo_inurba_marseille","lat":43.29033,"lon":5.39967,"is_reserved":false,"is_disabled":false,"rental_uris":{"android":"levelo://app?vid=b80724ba-a612-41d3-add5-f8a23f531ed8","ios":"levelo://app?vid=b80724ba-a612-41d3-add5-f8a23f531ed8"},"vehicle_type_id":"4","last_reported":1761142266,"current_range_meters":18800,"station_id":"ce4bh392rcd13ifvqdm0","pricing_plan_id":"cebpf4jnsgd1na2vs0mg"},{"bike_id":"a72f33d4-c8c3-41c7-9f2f-0c59907fcbba","system_id":"levelo_inurba_marseille","lat":43.273751,"lon":5.362626,"is_reserved":false,"is_disabled":false,"rental_uris":{"android":"levelo://app?vid=a72f33d4-c8c3-41c7-9f2f-0c59907fcbba","ios":"levelo://app?vid=a72f33d4-c8c3-41c7-9f2f-0c59907fcbba"},"vehicle_type_id":"4","last_reported":1761142266,"current_range_meters":18800,"station_id":"ce4bhbh2rcd13ifvqeo0","pricing_plan_id":"cebpf4jnsgd1na2vs0mg"},{"bike_id":"900512a2-14c6-421d-969e-c3dc812fd854","system_id":"levelo_inurba_marseille","lat":43.290305,"lon":5.372418,"is_reserved":false,"is_disabled":false,"rental_uris":{"android":"levelo://app?vid=900512a2-14c6-421d-969e-c3dc812fd854","ios":"levelo://app?vid=900512a2-14c6-421d-969e-c3dc812fd854"},"vehicle_type_id":"4","last_reported":1761142266,"current_range_meters":18800,"station_id":"","pricing_plan_id":"cebpf4jnsgd1na2vs0mg"},{"bike_id":"3845b435-b44c-4d46-b19f-33c89d81e372","system_id":"levelo_inurba_marseille","lat":43.263548,"lon":5.396411,"is_reserved":false,"is_disabled":false,"rental_uris":{"android":"levelo://app?vid=3845b435-b44c-4d46-b19f-33c89d81e372","ios":"levelo://app?vid=3845b435-b44c-4d46-b19f-33c89d81e372"},"vehicle_type_id":"4","last_reported":1761142266,"current_range_meters":18800,"station_id":"ce4bhi12rcd13ifvqfq0","pricing_plan_id":"cebpf4jnsgd1na2vs0mg"},{"bike_id":"90824157-1793-4f7b-a89e-a601b7e22f1c","system_id":"levelo_inurba_marseille","lat":43.26783,"lon":5.39415,"is_reserved":false,"is_disabled":false,"rental_uris":{"android":"levelo://app?vid=90824157-1793-4f7b-a89e-a601b7e22f1c","ios":"levelo://app?vid=90824157-1793-4f7b-a89e-a601b7e22f1c"},"vehicle_type_id":"4","last_reported":1761142266,"current_range_meters":19200,"station_id":"ce4bhh12rcd13ifvqfg0","pricing_plan_id":"cebpf4jnsgd1na2vs0mg"},{"bike_id":"692a999f-f646-43fe-b949-d58fd32447f4","system_id":"levelo_inurba_marseille","lat":43.32551,"lon":5.39007,"is_reserved":false,"is_disabled":false,"rental_uris":{"android":"levelo://app?vid=692a999f-f646-43fe-b949-d58fd32447f4","ios":"levelo://app?vid=692a999f-f646-43fe-b949-d58fd32447f4"},"vehicle_type_id":"4","last_reported":1761142266,"current_range_meters":19200,"station_id":"","pricing_plan_id":"cebpf4jnsgd1na2vs0mg"},{"bike_id":"13ffca06-ecc4-46ee-aa82-6818647126c8","system_id":"levelo_inurba_marseille","lat":43.29902,"lon":5.43646,"is_reserved":false,"is_disabled":false,"rental_uris":{"android":"levelo://app?vid=13ffca06-ecc4-46ee-aa82-6818647126c8","ios":"levelo://app?vid=13ffca06-ecc4-46ee-aa82-6818647126c8"},"vehicle_type_id":"4","last_reported":1761142266,"current_range_meters":19200,"station_id":"ce4bhpp2rcd13ifvqhfg","pricing_plan_id":"cebpf4jnsgd1na2vs0mg"},{"bike_id":"6eb9cec2-9853-41d7-ad07-81e478775a6f","system_id":"levelo_inurba_marseille","lat":43.317147,"lon":5.424003,"is_reserved":false,"is_disabled":false,"rental_uris":{"android":"levelo://app?vid=6eb9cec2-9853-41d7-ad07-81e478775a6f","ios":"levelo://app?vid=6eb9cec2-9853-41d7-ad07-81e478775a6f"},"vehicle_type_id":"4","last_reported":1761142266,"current_range_meters":19600,"station_id":"ce4bhp92rcd13ifvqhbg","pricing_plan_id":"cebpf4jnsgd1na2vs0mg"},{"bike_id":"d7f501b0-c3b9-40be-9341-b91d1dfe75b2","system_id":"levelo_inurba_marseille","lat":43.28425,"lon":5.34977,"is_reserved":false,"is_disabled":false,"rental_uris":{"android":"levelo://app?vid=d7f501b0-c3b9-40be-9341-b91d1dfe75b2","ios":"levelo://app?vid=d7f501b0-c3b9-40be-9341-b91d1dfe75b2"},"vehicle_type_id":"4","last_reported":1761142266,"current_range_meters":19600,"station_id":"ce4bhbh2rcd13ifvqepg","pricing_plan_id":"cebpf4jnsgd1na2vs0mg"},{"bike_id":"39c546bc-5d21-4b74-b9a1-0393fbd8f209","system_id":"levelo_inurba_marseille","lat":43.25338,"lon":5.42177,"is_reserved":false,"is_disabled":false,"rental_uris":{"android":"levelo://app?vid=39c546bc-5d21-4b74-b9a1-0393fbd8f209","ios":"levelo://app?vid=39c546bc-5d21-4b74-b9a1-0393fbd8f209"},"vehicle_type_id":"4","last_reported":1761142266,"current_range_meters":19600,"station_id":"st_d2m65c5bi1j21697t3ng","pricing_plan_id":"cebpf4jnsgd1na2vs0mg"},{"bike_id":"3b139051-8b17-4e6a-9c9e-0ba0ddb720db","system_id":"levelo_inurba_marseille","lat":43.24396,"lon":5.37035,"is_reserved":false,"is_disabled":false,"rental_uris":{"android":"levelo://app?vid=3b139051-8b17-4e6a-9c9e-0ba0ddb720db","ios":"levelo://app?vid=3b139051-8b17-4e6a-9c9e-0ba0ddb720db"},"vehicle_type_id":"4","last_reported":1761142266,"current_range_meters":19600,"station_id":"ce4bhhh2rcd13ifvqfk0","pricing_plan_id":"cebpf4jnsgd1na2vs0mg"},{"bike_id":"7e29b7b2-0f9f-45d3-8c19-2b59c104f08b","system_id":"levelo_inurba_marseille","lat":43.30321,"lon":5.36906,"is_reserved":false,"is_disabled":false,"rental_uris":{"android":"levelo://app?vid=7e29b7b2-0f9f-45d3-8c19-2b59c104f08b","ios":"levelo://app?vid=7e29b7b2-0f9f-45d3-8c19-2b59c104f08b"},"vehicle_type_id":"4","last_reported":1761142266,"current_range_meters":19600,"station_id":"ce4bgqh2rcd13ifvqc5g","pricing_plan_id":"cebpf4jnsgd1na2vs0mg"},{"bike_id":"79db06a8-8d0b-4f68-a2e3-4948c01bcef4","system_id":"levelo_inurba_marseille","lat":43.255916,"lon":5.382336,"is_reserved":false,"is_disabled":false,"rental_uris":{"android":"levelo://app?vid=79db06a8-8d0b-4f68-a2e3-4948c01bcef4","ios":"levelo://app?vid=79db06a8-8d0b-4f68-a2e3-4948c01bcef4"},"vehicle_type_id":"4","last_reported":1761142266,"current_range_meters":19600,"station_id":"ce4bhih2rcd13ifvqfs0","pricing_plan_id":"cebpf4jnsgd1na2vs0mg"},{"bike_id":"0602d476-412a-4e1f-a043-34fa4402aca1","system_id":"levelo_inurba_marseille","lat":43.216766,"lon":5.346303,"is_reserved":false,"is_disabled":false,"rental_uris":{"android":"levelo://app?vid=0602d476-412a-4e1f-a043-34fa4402aca1","ios":"levelo://app?vid=0602d476-412a-4e1f-a043-34fa4402aca1"},"vehicle_type_id":"4","last_reported":1761142266,"current_range_meters":19600,"station_id":"st_cvj6r9ubvosntc0bgbag","pricing_plan_id":"cebpf4jnsgd1na2vs0mg"},{"bike_id":"7f58d90b-ce59-4090-a3e2-0f157ec1fc9c","system_id":"levelo_inurba_marseille","lat":43.28034,"lon":5.36945,"is_reserved":false,"is_disabled":false,"rental_uris":{"android":"levelo://app?vid=7f58d90b-ce59-4090-a3e2-0f157ec1fc9c","ios":"levelo://app?vid=7f58d90b-ce59-4090-a3e2-0f157ec1fc9c"},"vehicle_type_id":"4","last_reported":1761142266,"current_range_meters":19600,"station_id":"ce4bha12rcd13ifvqef0","pricing_plan_id":"cebpf4jnsgd1na2vs0mg"},{"bike_id":"4de5a3a5-3b6e-4ce7-8372-1db61e216cbe","system_id":"levelo_inurba_marseille","lat":43.24635,"lon":5.43152,"is_reserved":false,"is_disabled":false,"rental_uris":{"android":"levelo://app?vid=4de5a3a5-3b6e-4ce7-8372-1db61e216cbe","ios":"levelo://app?vid=4de5a3a5-3b6e-4ce7-8372-1db61e216cbe"},"vehicle_type_id":"4","last_reported":1761142266,"current_range_meters":19600,"station_id":"st_d2m6c4gdas8pm72e190g","pricing_plan_id":"cebpf4jnsgd1na2vs0mg"},{"bike_id":"9c023054-f387-47db-bf1d-2774b5d6d642","system_id":"levelo_inurba_marseille","lat":43.3172,"lon":5.38184,"is_reserved":false,"is_disabled":false,"rental_uris":{"android":"levelo://app?vid=9c023054-f387-47db-bf1d-2774b5d6d642","ios":"levelo://app?vid=9c023054-f387-47db-bf1d-2774b5d6d642"},"vehicle_type_id":"4","last_reported":1761142266,"current_range_meters":19600,"station_id":"","pricing_plan_id":"cebpf4jnsgd1na2vs0mg"},{"bike_id":"3c5bffd8-322f-4631-a714-0972e4530d4b","system_id":"levelo_inurba_marseille","lat":43.27368,"lon":5.3625,"is_reserved":false,"is_disabled":false,"rental_uris":{"android":"levelo://app?vid=3c5bffd8-322f-4631-a714-0972e4530d4b","ios":"levelo://app?vid=3c5bffd8-322f-4631-a714-0972e4530d4b"},"vehicle_type_id":"4","last_reported":1761142266,"current_range_meters":20000,"station_id":"ce4bhbh2rcd13ifvqeo0","pricing_plan_id":"cebpf4jnsgd1na2vs0mg"},{"bike_id":"26ecfd90-2879-4ffd-b3cb-633752b421a5","system_id":"levelo_inurba_marseille","lat":43.26558,"lon":5.37291,"is_reserved":false,"is_disabled":false,"rental_uris":{"android":"levelo://app?vid=26ecfd90-2879-4ffd-b3cb-633752b421a5","ios":"levelo://app?vid=26ecfd90-2879-4ffd-b3cb-633752b421a5"},"vehicle_type_id":"4","last_reported":1761142266,"current_range_meters":20000,"station_id":"ce4bhg12rcd13ifvqf70","pricing_plan_id":"cebpf4jnsgd1na2vs0mg"},{"bike_id":"e437460d-805d-4c07-9b55-237013e207ed","system_id":"levelo_inurba_marseille","lat":43.307962,"lon":5.381422,"is_reserved":false,"is_disabled":false,"rental_uris":{"android":"levelo://app?vid=e437460d-805d-4c07-9b55-237013e207ed","ios":"levelo://app?vid=e437460d-805d-4c07-9b55-237013e207ed"},"vehicle_type_id":"4","last_reported":1761142266,"current_range_meters":20000,"station_id":"ce4bgt12rcd13ifvqce0","pricing_plan_id":"cebpf4jnsgd1na2vs0mg"},{"bike_id":"035ca1d7-233f-4f69-9569-4f3393764361","system_id":"levelo_inurba_marseille","lat":43.30845,"lon":5.37338,"is_reserved":false,"is_disabled":false,"rental_uris":{"android":"levelo://app?vid=035ca1d7-233f-4f69-9569-4f3393764361","ios":"levelo://app?vid=035ca1d7-233f-4f69-9569-4f3393764361"},"vehicle_type_id":"4","last_reported":1761142266,"current_range_meters":20000,"station_id":"","pricing_plan_id":"cebpf4jnsgd1na2vs0mg"},{"bike_id":"88b2962d-442b-480d-a54f-7ba286a29a00","system_id":"levelo_inurba_marseille","lat":43.31236,"lon":5.36878,"is_reserved":false,"is_disabled":false,"rental_uris":{"android":"levelo://app?vid=88b2962d-442b-480d-a54f-7ba286a29a00","ios":"levelo://app?vid=88b2962d-442b-480d-a54f-7ba286a29a00"},"vehicle_type_id":"4","last_reported":1761142266,"current_range_meters":20000,"station_id":"ce4bgl92rcd13ifvqbq0","pricing_plan_id":"cebpf4jnsgd1na2vs0mg"},{"bike_id":"8bcacd78-80de-4026-af75-b37ebe3030fe","system_id":"levelo_inurba_marseille","lat":43.334756,"lon":5.404255,"is_reserved":false,"is_disabled":false,"rental_uris":{"android":"levelo://app?vid=8bcacd78-80de-4026-af75-b37ebe3030fe","ios":"levelo://app?vid=8bcacd78-80de-4026-af75-b37ebe3030fe"},"vehicle_type_id":"4","last_reported":1761142266,"current_range_meters":20000,"station_id":"","pricing_plan_id":"cebpf4jnsgd1na2vs0mg"},{"bike_id":"9785c015-4fd9-4760-b3bd-67958109aa5f","system_id":"levelo_inurba_marseille","lat":43.267494,"lon":5.394155,"is_reserved":false,"is_disabled":false,"rental_uris":{"android":"levelo://app?vid=9785c015-4fd9-4760-b3bd-67958109aa5f","ios":"levelo://app?vid=9785c015-4fd9-4760-b3bd-67958109aa5f"},"vehicle_type_id":"4","last_reported":1761142266,"current_range_meters":20000,"station_id":"ce4bhh12rcd13ifvqfg0","pricing_plan_id":"cebpf4jnsgd1na2vs0mg"},{"bike_id":"143afb63-9781-4752-9214-c493a4814417","system_id":"levelo_inurba_marseille","lat":43.30305,"lon":5.36892,"is_reserved":false,"is_disabled":false,"rental_uris":{"android":"levelo://app?vid=143afb63-9781-4752-9214-c493a4814417","ios":"levelo://app?vid=143afb63-9781-4752-9214-c493a4814417"},"vehicle_type_id":"4","last_reported":1761142266,"current_range_meters":20000,"station_id":"ce4bgqh2rcd13ifvqc5g","pricing_plan_id":"cebpf4jnsgd1na2vs0mg"},{"bike_id":"f05d437b-9185-43a4-8c93-fb93c217b697","system_id":"levelo_inurba_marseille","lat":43.29799,"lon":5.38111,"is_reserved":false,"is_disabled":false,"rental_uris":{"android":"levelo://app?vid=f05d437b-9185-43a4-8c93-fb93c217b697","ios":"levelo://app?vid=f05d437b-9185-43a4-8c93-fb93c217b697"},"vehicle_type_id":"4","last_reported":1761142266,"current_range_meters":20000,"station_id":"ce4bgip2rcd13ifvqbb0","pricing_plan_id":"cebpf4jnsgd1na2vs0mg"},{"bike_id":"642db917-5c8b-4e8d-9ef5-47fe9ef8bc7a","system_id":"levelo_inurba_marseille","lat":43.29603,"lon":5.37749,"is_reserved":false,"is_disabled":false,"rental_uris":{"android":"levelo://app?vid=642db917-5c8b-4e8d-9ef5-47fe9ef8bc7a","ios":"levelo://app?vid=642db917-5c8b-4e8d-9ef5-47fe9ef8bc7a"},"vehicle_type_id":"4","last_reported":1761142266,"current_range_meters":20400,"station_id":"ce4bgi92rcd13ifvqb90","pricing_plan_id":"cebpf4jnsgd1na2vs0mg"},{"bike_id":"92b667de-3161-4963-9416-fbdd9cdaa408","system_id":"levelo_inurba_marseille","lat":43.27944,"lon":5.41053,"is_reserved":false,"is_disabled":false,"rental_uris":{"android":"levelo://app?vid=92b667de-3161-4963-9416-fbdd9cdaa408","ios":"levelo://app?vid=92b667de-3161-4963-9416-fbdd9cdaa408"},"vehicle_type_id":"4","last_reported":1761142266,"current_range_meters":20400,"station_id":"ce4bhnp2rcd13ifvqh0g","pricing_plan_id":"cebpf4jnsgd1na2vs0mg"},{"bike_id":"745eb1d9-36e7-43e9-ab13-378f0c560a0c","system_id":"levelo_inurba_marseille","lat":43.33728,"lon":5.39188,"is_reserved":false,"is_disabled":false,"rental_uris":{"android":"levelo://app?vid=745eb1d9-36e7-43e9-ab13-378f0c560a0c","ios":"levelo://app?vid=745eb1d9-36e7-43e9-ab13-378f0c560a0c"},"vehicle_type_id":"4","last_reported":1761142266,"current_range_meters":20400,"station_id":"ce4bhr92rcd13ifvqhsg","pricing_plan_id":"cebpf4jnsgd1na2vs0mg"},{"bike_id":"3f39f326-54eb-4aae-a58b-8646f373029d","system_id":"levelo_inurba_marseille","lat":43.24399,"lon":5.37059,"is_reserved":false,"is_disabled":false,"rental_uris":{"android":"levelo://app?vid=3f39f326-54eb-4aae-a58b-8646f373029d","ios":"levelo://app?vid=3f39f326-54eb-4aae-a58b-8646f373029d"},"vehicle_type_id":"4","last_reported":1761142266,"current_range_meters":20400,"station_id":"ce4bhhh2rcd13ifvqfk0","pricing_plan_id":"cebpf4jnsgd1na2vs0mg"},{"bike_id":"3c51cf93-d439-4f14-bf31-dfec1c3f9efe","system_id":"levelo_inurba_marseille","lat":43.26786,"lon":5.39415,"is_reserved":false,"is_disabled":false,"rental_uris":{"android":"levelo://app?vid=3c51cf93-d439-4f14-bf31-dfec1c3f9efe","ios":"levelo://app?vid=3c51cf93-d439-4f14-bf31-dfec1c3f9efe"},"vehicle_type_id":"4","last_reported":1761142266,"current_range_meters":20400,"station_id":"ce4bhh12rcd13ifvqfg0","pricing_plan_id":"cebpf4jnsgd1na2vs0mg"},{"bike_id":"bd38ac37-a773-4a3d-af0f-c9eb0aba0be9","system_id":"levelo_inurba_marseille","lat":43.27062,"lon":5.40261,"is_reserved":false,"is_disabled":false,"rental_uris":{"android":"levelo://app?vid=bd38ac37-a773-4a3d-af0f-c9eb0aba0be9","ios":"levelo://app?vid=bd38ac37-a773-4a3d-af0f-c9eb0aba0be9"},"vehicle_type_id":"4","last_reported":1761142266,"current_range_meters":20800,"station_id":"ce4bhk92rcd13ifvqgc0","pricing_plan_id":"cebpf4jnsgd1na2vs0mg"},{"bike_id":"1996ea89-9471-4d12-8066-1a9d0b7c69da","system_id":"levelo_inurba_marseille","lat":43.24375,"lon":5.37071,"is_reserved":false,"is_disabled":false,"rental_uris":{"android":"levelo://app?vid=1996ea89-9471-4d12-8066-1a9d0b7c69da","ios":"levelo://app?vid=1996ea89-9471-4d12-8066-1a9d0b7c69da"},"vehicle_type_id":"4","last_reported":1761142266,"current_range_meters":20800,"station_id":"ce4bhhh2rcd13ifvqfk0","pricing_plan_id":"cebpf4jnsgd1na2vs0mg"},{"bike_id":"26339118-4556-4d41-b6a6-12685a214717","system_id":"levelo_inurba_marseille","lat":43.28423,"lon":5.34987,"is_reserved":false,"is_disabled":false,"rental_uris":{"android":"levelo://app?vid=26339118-4556-4d41-b6a6-12685a214717","ios":"levelo://app?vid=26339118-4556-4d41-b6a6-12685a214717"},"vehicle_type_id":"4","last_reported":1761142266,"current_range_meters":20800,"station_id":"ce4bhbh2rcd13ifvqepg","pricing_plan_id":"cebpf4jnsgd1na2vs0mg"},{"bike_id":"f1767e8c-7fb7-4f51-b9bb-5ad11a10d1fc","system_id":"levelo_inurba_marseille","lat":43.315275,"lon":5.380351,"is_reserved":false,"is_disabled":false,"rental_uris":{"android":"levelo://app?vid=f1767e8c-7fb7-4f51-b9bb-5ad11a10d1fc","ios":"levelo://app?vid=f1767e8c-7fb7-4f51-b9bb-5ad11a10d1fc"},"vehicle_type_id":"4","last_reported":1761142266,"current_range_meters":20800,"station_id":"ce4bhsp2rcd13ifvqi50","pricing_plan_id":"cebpf4jnsgd1na2vs0mg"},{"bike_id":"1fc8e9f8-a558-4a80-871e-2367430573dc","system_id":"levelo_inurba_marseille","lat":43.27171,"lon":5.40992,"is_reserved":false,"is_disabled":false,"rental_uris":{"android":"levelo://app?vid=1fc8e9f8-a558-4a80-871e-2367430573dc","ios":"levelo://app?vid=1fc8e9f8-a558-4a80-871e-2367430573dc"},"vehicle_type_id":"4","last_reported":1761142266,"current_range_meters":20800,"station_id":"ce4bhl12rcd13ifvqgf0","pricing_plan_id":"cebpf4jnsgd1na2vs0mg"},{"bike_id":"098f1c2e-b63a-43f9-a9bd-cb79c5753792","system_id":"levelo_inurba_marseille","lat":43.24661,"lon":5.38165,"is_reserved":false,"is_disabled":false,"rental_uris":{"android":"levelo://app?vid=098f1c2e-b63a-43f9-a9bd-cb79c5753792","ios":"levelo://app?vid=098f1c2e-b63a-43f9-a9bd-cb79c5753792"},"vehicle_type_id":"4","last_reported":1761142266,"current_range_meters":20800,"station_id":"ce4bhih2rcd13ifvqfr0","pricing_plan_id":"cebpf4jnsgd1na2vs0mg"},{"bike_id":"6e62cf1c-40f3-4230-ba3a-611416a731d6","system_id":"levelo_inurba_marseille","lat":43.211924,"lon":5.35073,"is_reserved":false,"is_disabled":false,"rental_uris":{"android":"levelo://app?vid=6e62cf1c-40f3-4230-ba3a-611416a731d6","ios":"levelo://app?vid=6e62cf1c-40f3-4230-ba3a-611416a731d6"},"vehicle_type_id":"4","last_reported":1761142266,"current_range_meters":21600,"station_id":"st_cvj6sg6p6f1abm77japg","pricing_plan_id":"cebpf4jnsgd1na2vs0mg"},{"bike_id":"2172ef7f-240b-4c72-bf8d-26c79cc1f73d","system_id":"levelo_inurba_marseille","lat":43.299018,"lon":5.436728,"is_reserved":false,"is_disabled":false,"rental_uris":{"android":"levelo://app?vid=2172ef7f-240b-4c72-bf8d-26c79cc1f73d","ios":"levelo://app?vid=2172ef7f-240b-4c72-bf8d-26c79cc1f73d"},"vehicle_type_id":"4","last_reported":1761142266,"current_range_meters":21600,"station_id":"ce4bhpp2rcd13ifvqhfg","pricing_plan_id":"cebpf4jnsgd1na2vs0mg"},{"bike_id":"9a1972b5-72a6-4763-9884-2f966099622e","system_id":"levelo_inurba_marseille","lat":43.30013,"lon":5.37673,"is_reserved":false,"is_disabled":false,"rental_uris":{"android":"levelo://app?vid=9a1972b5-72a6-4763-9884-2f966099622e","ios":"levelo://app?vid=9a1972b5-72a6-4763-9884-2f966099622e"},"vehicle_type_id":"4","last_reported":1761142266,"current_range_meters":21600,"station_id":"","pricing_plan_id":"cebpf4jnsgd1na2vs0mg"},{"bike_id":"9d3ee974-fef4-4beb-b4c9-4df0516693a8","system_id":"levelo_inurba_marseille","lat":43.296241,"lon":5.377181,"is_reserved":false,"is_disabled":false,"rental_uris":{"android":"levelo://app?vid=9d3ee974-fef4-4beb-b4c9-4df0516693a8","ios":"levelo://app?vid=9d3ee974-fef4-4beb-b4c9-4df0516693a8"},"vehicle_type_id":"4","last_reported":1761142266,"current_range_meters":21600,"station_id":"ce4bgih2rcd13ifvqba0","pricing_plan_id":"cebpf4jnsgd1na2vs0mg"},{"bike_id":"75eebb0f-2447-4bf8-b846-45b5b359059b","system_id":"levelo_inurba_marseille","lat":43.33762,"lon":5.37487,"is_reserved":false,"is_disabled":false,"rental_uris":{"android":"levelo://app?vid=75eebb0f-2447-4bf8-b846-45b5b359059b","ios":"levelo://app?vid=75eebb0f-2447-4bf8-b846-45b5b359059b"},"vehicle_type_id":"4","last_reported":1761142266,"current_range_meters":21600,"station_id":"","pricing_plan_id":"cebpf4jnsgd1na2vs0mg"},