{"last_updated":1730153318,"ttl":60,"version":"2.2","data":{"bikes":[{"bike_id":"9d03e314-eec0-487f-bf11-155efdcb9e76","system_id":"levelo_inurba_marseille","lat":43.26557,"lon":5.3728,"is_reserved":false,"is_disabled":false,"rental_uris":{"android":"levelo://app?vid=9d03e314-eec0-487f-bf11-155efdcb9e76","ios":"levelo://app?vid=9d03e314-eec0-487f-bf11-155efdcb9e76"},"vehicle_type_id":"4","last_reported":1730153318,"current_range_meters":34000,"station_id":"ce4bhg12rcd13ifvqf70","pricing_plan_id":"cebpf4jnsgd1na2vs0mg"},{"bike_id":"837e40ef-b7a2-4e9f-99fb-07a65692485f","system_id":"levelo_inurba_marseille","lat":43.29516,"lon":5.394,"is_reserved":false,"is_disabled":false,"rental_uris":{"android":"levelo://app?vid=837e40ef-b7a2-4e9f-99fb-07a65692485f","ios":"levelo://app?vid=837e40ef-b7a2-4e9f-99fb-07a65692485f"},"vehicle_type_id":"4","last_reported":1730153318,"current_range_meters":12000,"station_id":"ce4bh292rcd13ifvqdf0","pricing_plan_id":"cebpf4jnsgd1na2vs0mg"},{"bike_id":"5b6da0fb-5d65-41eb-8aa7-edd3cba55e1e","system_id":"levelo_inurba_marseille","lat":43.30352,"lon":5.41881,"is_reserved":false,"is_disabled":false,"rental_uris":{"android":"levelo://app?vid=5b6da0fb-5d65-41eb-8aa7-edd3cba55e1e","ios":"levelo://app?vid=5b6da0fb-5d65-41eb-8aa7-edd3cba55e1e"},"vehicle_type_id":"4","last_reported":1730153318,"current_range_meters":4800,"station_id":"ce4bhop2rcd13ifvqh7g","pricing_plan_id":"cebpf4jnsgd1na2vs0mg"},{"bike_id":"9e4044e9-dd72-4f58-b85b-2423a1de6b75","system_id":"levelo_inurba_marseille","lat":43.27175,"lon":5.41002,"is_reserved":false,"is_disabled":false,"rental_uris":{"android":"levelo://app?vid=9e4044e9-dd72-4f58-b85b-2423a1de6b75","ios":"levelo://app?vid=9e4044e9-dd72-4f58-b85b-2423a1de6b75"},"vehicle_type_id":"4","last_reported":1730153318,"current_range_meters":9600,"station_id":"ce4bhl12rcd13ifvqgf0","pricing_plan_id":"cebpf4jnsgd1na2vs0mg"},{"bike_id":"83f7db1f-5175-4f37-854b-cde355acc9c6","system_id":"levelo_inurba_marseille","lat":43.32287,"lon":5.38271,"is_reserved":false,"is_disabled":false,"rental_uris":{"android":"levelo://app?vid=83f7db1f-5175-4f37-854b-cde355acc9c6","ios":"levelo://app?vid=83f7db1f-5175-4f37-854b-cde355acc9c6"},"vehicle_type_id":"4","last_reported":1730153318,"current_range_meters":39200,"station_id":"ce4bhr12rcd13ifvqhqg","pricing_plan_id":"cebpf4jnsgd1na2vs0mg"},{"bike_id":"1512b63c-f0fc-4345-9d33-cf4933db07fa","system_id":"levelo_inurba_marseille","lat":43.28706,"lon":5.39988,"is_reserved":false,"is_disabled":false,"rental_uris":{"android":"levelo://app?vid=1512b63c-f0fc-4345-9d33-cf4933db07fa","ios":"levelo://app?vid=1512b63c-f0fc-4345-9d33-cf4933db07fa"},"vehicle_type_id":"4","last_reported":1730153318,"current_range_meters":37600,"station_id":"ce4bho92rcd13ifvqh3g","pricing_plan_id":"cebpf4jnsgd1na2vs0mg"},{"bike_id":"8691266c-b078-424b-a387-0bb56f925da9","system_id":"levelo_inurba_marseille","lat":43.30416,"lon":5.39756,"is_reserved":false,"is_disabled":false,"rental_uris":{"android":"levelo://app?vid=8691266c-b078-424b-a387-0bb56f925da9","ios":"levelo://app?vid=8691266c-b078-424b-a387-0bb56f925da9"},"vehicle_type_id":"4","last_reported":1730153318,"current_range_meters":38000,"station_id":"ce4bh092rcd13ifvqd20","pricing_plan_id":"cebpf4jnsgd1na2vs0mg"},{"bike_id":"79962e24-45d6-4bc1-ae9c-33ce3d4cfd10","system_id":"levelo_inurba_marseille","lat":43.30089,"lon":5.39088,"is_reserved":false,"is_disabled":false,"rental_uris":{"android":"levelo://app?vid=79962e24-45d6-4bc1-ae9c-33ce3d4cfd10","ios":"levelo://app?vid=79962e24-45d6-4bc1-ae9c-33ce3d4cfd10"},"vehicle_type_id":"4","last_reported":1730153318,"current_range_meters":34000,"station_id":"ce4bh192rcd13ifvqdb0","pricing_plan_id":"cebpf4jnsgd1na2vs0mg"},{"bike_id":"c71ea462-fa82-4114-acb8-31da87755754","system_id":"levelo_inurba_marseille","lat":43.28349,"lon":5.38105,"is_reserved":false,"is_disabled":false,"rental_uris":{"android":"levelo://app?vid=c71ea462-fa82-4114-acb8-31da87755754","ios":"levelo://app?vid=c71ea462-fa82-4114-acb8-31da87755754"},"vehicle_type_id":"4","last_reported":1730153318,"current_range_meters":34800,"station_id":"ce4bh412rcd13ifvqdr0","pricing_plan_id":"cebpf4jnsgd1na2vs0mg"},{"bike_id":"0dd0ccc2-f1bf-42cd-a425-db2be977a4df","system_id":"levelo_inurba_marseille","lat":43.25584,"lon":5.38225,"is_reserved":false,"is_disabled":false,"rental_uris":{"android":"levelo://app?vid=0dd0ccc2-f1bf-42cd-a425-db2be977a4df","ios":"levelo://app?vid=0dd0ccc2-f1bf-42cd-a425-db2be977a4df"},"vehicle_type_id":"4","last_reported":1730153318,"current_range_meters":38400,"station_id":"ce4bhih2rcd13ifvqfs0","pricing_plan_id":"cebpf4jnsgd1na2vs0mg"},{"bike_id":"62b5614c-5f33-4953-a27e-e0c821552090","system_id":"levelo_inurba_marseille","lat":43.23197,"lon":5.3555,"is_reserved":false,"is_disabled":false,"rental_uris":{"android":"levelo://app?vid=62b5614c-5f33-4953-a27e-e0c821552090","ios":"levelo://app?vid=62b5614c-5f33-4953-a27e-e0c821552090"},"vehicle_type_id":"4","last_reported":1730153318,"current_range_meters":38000,"station_id":"ce4bhu92rcd13ifvqi70","pricing_plan_id":"cebpf4jnsgd1na2vs0mg"},{"bike_id":"b380b0eb-d307-4448-9cec-68025981a610","system_id":"levelo_inurba_marseille","lat":43.29522,"lon":5.39395,"is_reserved":false,"is_disabled":false,"rental_uris":{"android":"levelo://app?vid=b380b0eb-d307-4448-9cec-68025981a610","ios":"levelo://app?vid=b380b0eb-d307-4448-9cec-68025981a610"},"vehicle_type_id":"4","last_reported":1730153318,"current_range_meters":38800,"station_id":"ce4bh292rcd13ifvqdf0","pricing_plan_id":"cebpf4jnsgd1na2vs0mg"},{"bike_id":"bc1da436-2a2e-45da-b2a5-32f7806ffa51","system_id":"levelo_inurba_marseille","lat":43.30422,"lon":5.39749,"is_reserved":false,"is_disabled":false,"rental_uris":{"android":"levelo://app?vid=bc1da436-2a2e-45da-b2a5-32f7806ffa51","ios":"levelo://app?vid=bc1da436-2a2e-45da-b2a5-32f7806ffa51"},"vehicle_type_id":"4","last_reported":1730153318,"current_range_meters":19200,"station_id":"ce4bh092rcd13ifvqd20","pricing_plan_id":"cebpf4jnsgd1na2vs0mg"},{"bike_id":"28971a98-def1-4d76-b092-878b2587d9f4","system_id":"levelo_inurba_marseille","lat":43.28367,"lon":5.38628,"is_reserved":false,"is_disabled":false,"rental_uris":{"android":"levelo://app?vid=28971a98-def1-4d76-b092-878b2587d9f4","ios":"levelo://app?vid=28971a98-def1-4d76-b092-878b2587d9f4"},"vehicle_type_id":"4","last_reported":1730153318,"current_range_meters":8000,"station_id":"ce4bh492rcd13ifvqdvg","pricing_plan_id":"cebpf4jnsgd1na2vs0mg"},{"bike_id":"7ef5bbb9-d299-47c2-8408-1446871a4d1e","system_id":"levelo_inurba_marseille","lat":43.33026,"lon":5.39035,"is_reserved":false,"is_disabled":false,"rental_uris":{"android":"levelo://app?vid=7ef5bbb9-d299-47c2-8408-1446871a4d1e","ios":"levelo://app?vid=7ef5bbb9-d299-47c2-8408-1446871a4d1e"},"vehicle_type_id":"4","last_reported":1730153318,"current_range_meters":15200,"station_id":"ce4bhr92rcd13ifvqhrg","pricing_plan_id":"cebpf4jnsgd1na2vs0mg"},{"bike_id":"9c36184f-ceff-4ea5-b950-1cf6d04728f0","system_id":"levelo_inurba_marseille","lat":43.26948,"lon":5.38647,"is_reserved":false,"is_disabled":false,"rental_uris":{"android":"levelo://app?vid=9c36184f-ceff-4ea5-b950-1cf6d04728f0","ios":"levelo://app?vid=9c36184f-ceff-4ea5-b950-1cf6d04728f0"},"vehicle_type_id":"4","last_reported":1730153318,"current_range_meters":38800,"station_id":"ce4bhh92rcd13ifvqfh0","pricing_plan_id":"cebpf4jnsgd1na2vs0mg"},{"bike_id":"85edb087-31a8-4556-b790-f3817167c920","system_id":"levelo_inurba_marseille","lat":43.29448,"lon":5.39741,"is_reserved":false,"is_disabled":false,"rental_uris":{"android":"levelo://app?vid=85edb087-31a8-4556-b790-f3817167c920","ios":"levelo://app?vid=85edb087-31a8-4556-b790-f3817167c920"},"vehicle_type_id":"4","last_reported":1730153318,"current_range_meters":14800,"station_id":"ce4bh3h2rcd13ifvqdo0","pricing_plan_id":"cebpf4jnsgd1na2vs0mg"},{"bike_id":"51b9c34e-2654-4bf1-a82b-140db41fbfc2","system_id":"levelo_inurba_marseille","lat":43.28939,"lon":5.39632,"is_reserved":false,"is_disabled":false,"rental_uris":{"android":"levelo://app?vid=51b9c34e-2654-4bf1-a82b-140db41fbfc2","ios":"levelo://app?vid=51b9c34e-2654-4bf1-a82b-140db41fbfc2"},"vehicle_type_id":"4","last_reported":1730153318,"current_range_meters":38400,"station_id":"ce4bh3h2rcd13ifvqdn0","pricing_plan_id":"cebpf4jnsgd1na2vs0mg"},{"bike_id":"74ce0f25-afa3-4f3f-afa0-7dcd368ef12f","system_id":"levelo_inurba_marseille","lat":43.27908,"lon":5.38005,"is_reserved":false,"is_disabled":false,"rental_uris":{"android":"levelo://app?vid=74ce0f25-afa3-4f3f-afa0-7dcd368ef12f","ios":"levelo://app?vid=74ce0f25-afa3-4f3f-afa0-7dcd368ef12f"},"vehicle_type_id":"4","last_reported":1730153318,"current_range_meters":28000,"station_id":"ce4bhf92rcd13ifvqf50","pricing_plan_id":"cebpf4jnsgd1na2vs0mg"},{"bike_id":"0415be9b-88d6-4d85-9d1e-3930b85f0223","system_id":"levelo_inurba_marseille","lat":43.30423,"lon":5.39751,"is_reserved":false,"is_disabled":false,"rental_uris":{"android":"levelo://app?vid=0415be9b-88d6-4d85-9d1e-3930b85f0223","ios":"levelo://app?vid=0415be9b-88d6-4d85-9d1e-3930b85f0223"},"vehicle_type_id":"4","last_reported":1730153318,"current_range_meters":38800,"station_id":"ce4bh092rcd13ifvqd20","pricing_plan_id":"cebpf4jnsgd1na2vs0mg"},{"bike_id":"8d191566-d8a6-44ba-bebe-2a9d6ff01fde","system_id":"levelo_inurba_marseille","lat":43.27237,"lon":5.387,"is_reserved":false,"is_disabled":false,"rental_uris":{"android":"levelo://app?vid=8d191566-d8a6-44ba-bebe-2a9d6ff01fde","ios":"levelo://app?vid=8d191566-d8a6-44ba-bebe-2a9d6ff01fde"},"vehicle_type_id":"4","last_reported":1730153318,"current_range_meters":26000,"station_id":"","pricing_plan_id":"cebpf4jnsgd1na2vs0mg"},{"bike_id":"3efb1af8-c11e-4251-8304-20c60028fa74","system_id":"levelo_inurba_marseille","lat":43.28615,"lon":5.35107,"is_reserved":false,"is_disabled":false,"rental_uris":{"android":"levelo://app?vid=3efb1af8-c11e-4251-8304-20c60028fa74","ios":"levelo://app?vid=3efb1af8-c11e-4251-8304-20c60028fa74"},"vehicle_type_id":"4","last_reported":1730153318,"current_range_meters":2800,"station_id":"ce4bhch2rcd13ifvqeug","pricing_plan_id":"cebpf4jnsgd1na2vs0mg"},{"bike_id":"18d073cb-83b6-4a56-b36c-f24538a0e583","system_id":"levelo_inurba_marseille","lat":43.23189,"lon":5.39968,"is_reserved":false,"is_disabled":false,"rental_uris":{"android":"levelo://app?vid=18d073cb-83b6-4a56-b36c-f24538a0e583","ios":"levelo://app?vid=18d073cb-83b6-4a56-b36c-f24538a0e583"},"vehicle_type_id":"4","last_reported":1730153318,"current_range_meters":11600,"station_id":"ce4bhn12rcd13ifvqgqg","pricing_plan_id":"cebpf4jnsgd1na2vs0mg"},{"bike_id":"012c2ee5-d9ed-4efb-8323-b37e2b97ac55","system_id":"levelo_inurba_marseille","lat":43.231819,"lon":5.399857,"is_reserved":false,"is_disabled":false,"rental_uris":{"android":"levelo://app?vid=012c2ee5-d9ed-4efb-8323-b37e2b97ac55","ios":"levelo://app?vid=012c2ee5-d9ed-4efb-8323-b37e2b97ac55"},"vehicle_type_id":"4","last_reported":1730153318,"current_range_meters":27200,"station_id":"ce4bhn12rcd13ifvqgqg","pricing_plan_id":"cebpf4jnsgd1na2vs0mg"},{"bike_id":"fb65aaac-8bcd-42f1-b8e9-772193da838a","system_id":"levelo_inurba_marseille","lat":43.27554,"lon":5.38454,"is_reserved":false,"is_disabled":false,"rental_uris":{"android":"levelo://app?vid=fb65aaac-8bcd-42f1-b8e9-772193da838a","ios":"levelo://app?vid=fb65aaac-8bcd-42f1-b8e9-772193da838a"},"vehicle_type_id":"4","last_reported":1730153318,"current_range_meters":16800,"station_id":"ce4bhh92rcd13ifvqfi0","pricing_plan_id":"cebpf4jnsgd1na2vs0mg"},{"bike_id":"5ad31ad7-174f-412e-87d5-b57faa5d4787","system_id":"levelo_inurba_marseille","lat":43.28157,"lon":5.42634,"is_reserved":false,"is_disabled":false,"rental_uris":{"android":"levelo://app?vid=5ad31ad7-174f-412e-87d5-b57faa5d4787","ios":"levelo://app?vid=5ad31ad7-174f-412e-87d5-b57faa5d4787"},"vehicle_type_id":"4","last_reported":1730153318,"current_range_meters":14400,"station_id":"ce4bhnh2rcd13ifvqgug","pricing_plan_id":"cebpf4jnsgd1na2vs0mg"},{"bike_id":"9028ceb3-d950-4419-9b34-cbe99059c190","system_id":"levelo_inurba_marseille","lat":43.32335,"lon":5.40617,"is_reserved":false,"is_disabled":false,"rental_uris":{"android":"levelo://app?vid=9028ceb3-d950-4419-9b34-cbe99059c190","ios":"levelo://app?vid=9028ceb3-d950-4419-9b34-cbe99059c190"},"vehicle_type_id":"4","last_reported":1730153318,"current_range_meters":20000,"station_id":"ce4bhq92rcd13ifvqhjg","pricing_plan_id":"cebpf4jnsgd1na2vs0mg"},{"bike_id":"582346ef-f641-4fb4-b680-a158ffb5bc7f","system_id":"levelo_inurba_marseille","lat":43.3127,"lon":5.40174,"is_reserved":false,"is_disabled":false,"rental_uris":{"android":"levelo://app?vid=582346ef-f641-4fb4-b680-a158ffb5bc7f","ios":"levelo://app?vid=582346ef-f641-4fb4-b680-a158ffb5bc7f"},"vehicle_type_id":"4","last_reported":1730153318,"current_range_meters":24400,"station_id":"ce4bh092rcd13ifvqd30","pricing_plan_id":"cebpf4jnsgd1na2vs0mg"},{"bike_id":"1dda8e03-a199-4ff5-b993-db10045b7caa","system_id":"levelo_inurba_marseille","lat":43.31327,"lon":5.3969,"is_reserved":false,"is_disabled":false,"rental_uris":{"android":"levelo://app?vid=1dda8e03-a199-4ff5-b993-db10045b7caa","ios":"levelo://app?vid=1dda8e03-a199-4ff5-b993-db10045b7caa"},"vehicle_type_id":"4","last_reported":1730153318,"current_range_meters":38000,"station_id":"ce4bgvp2rcd13ifvqcu0","pricing_plan_id":"cebpf4jnsgd1na2vs0mg"},{"bike_id":"c5af5499-58d2-4999-b89d-0c8534274a51","system_id":"levelo_inurba_marseille","lat":43.3122,"lon":5.36851,"is_reserved":false,"is_disabled":false,"rental_uris":{"android":"levelo://app?vid=c5af5499-58d2-4999-b89d-0c8534274a51","ios":"levelo://app?vid=c5af5499-58d2-4999-b89d-0c8534274a51"},"vehicle_type_id":"4","last_reported":1730153318,"current_range_meters":38800,"station_id":"ce4bgl92rcd13ifvqbq0","pricing_plan_id":"cebpf4jnsgd1na2vs0mg"},{"bike_id":"bd8baaec-45d2-4e43-93df-f9f2bae82e2e","system_id":"levelo_inurba_marseille","lat":43.30415,"lon":5.39751,"is_reserved":false,"is_disabled":false,"rental_uris":{"android":"levelo://app?vid=bd8baaec-45d2-4e43-93df-f9f2bae82e2e","ios":"levelo://app?vid=bd8baaec-45d2-4e43-93df-f9f2bae82e2e"},"vehicle_type_id":"4","last_reported":1730153318,"current_range_meters":38800,"station_id":"ce4bh092rcd13ifvqd20","pricing_plan_id":"cebpf4jnsgd1na2vs0mg"},{"bike_id":"559e0993-d3ec-4994-8a4d-edbc5593d328","system_id":"levelo_inurba_marseille","lat":43.2293,"lon":5.35375,"is_reserved":false,"is_disabled":false,"rental_uris":{"android":"levelo://app?vid=559e0993-d3ec-4994-8a4d-edbc5593d328","ios":"levelo://app?vid=559e0993-d3ec-4994-8a4d-edbc5593d328"},"vehicle_type_id":"4","last_reported":1730153318,"current_range_meters":38800,"station_id":"cpo3532slgdg3j2ikp40","pricing_plan_id":"cebpf4jnsgd1na2vs0mg"},{"bike_id":"d1e00fab-a0af-4eee-b85e-c5f241a6cb99","system_id":"levelo_inurba_marseille","lat":43.29259,"lon":5.40903,"is_reserved":false,"is_disabled":false,"rental_uris":{"android":"levelo://app?vid=d1e00fab-a0af-4eee-b85e-c5f241a6cb99","ios":"levelo://app?vid=d1e00fab-a0af-4eee-b85e-c5f241a6cb99"},"vehicle_type_id":"4","last_reported":1730153318,"current_range_meters":16800,"station_id":"ce4bh192rcd13ifvqdc0","pricing_plan_id":"cebpf4jnsgd1na2vs0mg"},{"bike_id":"8706ceeb-0c9c-420d-a36b-ac84e47f7c85","system_id":"levelo_inurba_marseille","lat":43.28852,"lon":5.3931,"is_reserved":false,"is_disabled":false,"rental_uris":{"android":"levelo://app?vid=8706ceeb-0c9c-420d-a36b-ac84e47f7c85","ios":"levelo://app?vid=8706ceeb-0c9c-420d-a36b-ac84e47f7c85"},"vehicle_type_id":"4","last_reported":1730153318,"current_range_meters":6800,"station_id":"ce4bh2p2rcd13ifvqdi0","pricing_plan_id":"cebpf4jnsgd1na2vs0mg"},{"bike_id":"d1dacee6-8f47-4ca5-823b-a2ea6c3413e8","system_id":"levelo_inurba_marseille","lat":43.23195,"lon":5.35559,"is_reserved":false,"is_disabled":false,"rental_uris":{"android":"levelo://app?vid=d1dacee6-8f47-4ca5-823b-a2ea6c3413e8","ios":"levelo://app?vid=d1dacee6-8f47-4ca5-823b-a2ea6c3413e8"},"vehicle_type_id":"4","last_reported":1730153318,"current_range_meters":39200,"station_id":"ce4bhu92rcd13ifvqi70","pricing_plan_id":"cebpf4jnsgd1na2vs0mg"},{"bike_id":"7a608df9-d38c-4539-9618-def54653a395","system_id":"levelo_inurba_marseille","lat":43.2979,"lon":5.37118,"is_reserved":false,"is_disabled":false,"rental_uris":{"android":"levelo://app?vid=7a608df9-d38c-4539-9618-def54653a395","ios":"levelo://app?vid=7a608df9-d38c-4539-9618-def54653a395"},"vehicle_type_id":"4","last_reported":1730153318,"current_range_meters":33200,"station_id":"ce4bgop2rcd13ifvqc1g","pricing_plan_id":"cebpf4jnsgd1na2vs0mg"},{"bike_id":"409aaf5e-680b-47ec-83f6-033c62068ffa","system_id":"levelo_inurba_marseille","lat":43.28106,"lon":5.37835,"is_reserved":false,"is_disabled":false,"rental_uris":{"android":"levelo://app?vid=409aaf5e-680b-47ec-83f6-033c62068ffa","ios":"levelo://app?vid=409aaf5e-680b-47ec-83f6-033c62068ffa"},"vehicle_type_id":"4","last_reported":1730153318,"current_range_meters":38800,"station_id":"ce4bha12rcd13ifvqee0","pricing_plan_id":"cebpf4jnsgd1na2vs0mg"},{"bike_id":"64a6f5fb-0409-46e0-b4cd-18785f02bade","system_id":"levelo_inurba_marseille","lat":43.28705,"lon":5.39983,"is_reserved":false,"is_disabled":false,"rental_uris":{"android":"levelo://app?vid=64a6f5fb-0409-46e0-b4cd-18785f02bade","ios":"levelo://app?vid=64a6f5fb-0409-46e0-b4cd-18785f02bade"},"vehicle_type_id":"4","last_reported":1730153318,"current_range_meters":39200,"station_id":"ce4bho92rcd13ifvqh3g","pricing_plan_id":"cebpf4jnsgd1na2vs0mg"},{"bike_id":"54399a13-f8cb-435f-8b52-6878bec0e3bf","system_id":"levelo_inurba_marseille","lat":43.28155,"lon":5.42644,"is_reserved":false,"is_disabled":false,"rental_uris":{"android":"levelo://app?vid=54399a13-f8cb-435f-8b52-6878bec0e3bf","ios":"levelo://app?vid=54399a13-f8cb-435f-8b52-6878bec0e3bf"},"vehicle_type_id":"4","last_reported":1730153318,"current_range_meters":35600,"station_id":"ce4bhnh2rcd13ifvqgug","pricing_plan_id":"cebpf4jnsgd1na2vs0mg"},{"bike_id":"618966a3-5df8-444c-a40d-3365324f2a05","system_id":"levelo_inurba_marseille","lat":43.2968,"lon":5.37286,"is_reserved":false,"is_disabled":false,"rental_uris":{"android":"levelo://app?vid=618966a3-5df8-444c-a40d-3365324f2a05","ios":"levelo://app?vid=618966a3-5df8-444c-a40d-3365324f2a05"},"vehicle_type_id":"4","last_reported":1730153318,"current_range_meters":8800,"station_id":"ce4bgk12rcd13ifvqbj0","pricing_plan_id":"cebpf4jnsgd1na2vs0mg"},{"bike_id":"f8e40ec6-02d7-48d8-9484-3fe6f97bc7b1","system_id":"levelo_inurba_marseille","lat":43.28666,"lon":5.3634,"is_reserved":false,"is_disabled":false,"rental_uris":{"android":"levelo://app?vid=f8e40ec6-02d7-48d8-9484-3fe6f97bc7b1","ios":"levelo://app?vid=f8e40ec6-02d7-48d8-9484-3fe6f97bc7b1"},"vehicle_type_id":"4","last_reported":1730153318,"current_range_meters":35600,"station_id":"ce4bhah2rcd13ifvqej0","pricing_plan_id":"cebpf4jnsgd1na2vs0mg"},{"bike_id":"b4f985ed-d59b-40ed-a97f-788028bd8167","system_id":"levelo_inurba_marseille","lat":43.29196,"lon":5.39331,"is_reserved":false,"is_disabled":false,"rental_uris":{"android":"levelo://app?vid=b4f985ed-d59b-40ed-a97f-788028bd8167","ios":"levelo://app?vid=b4f985ed-d59b-40ed-a97f-788028bd8167"},"vehicle_type_id":"4","last_reported":1730153318,"current_range_meters":16800,"station_id":"ce4bh192rcd13ifvqdd0","pricing_plan_id":"cebpf4jnsgd1na2vs0mg"},{"bike_id":"4b1f45ca-5ba1-42a7-87e4-e9967261b64c","system_id":"levelo_inurba_marseille","lat":43.31082,"lon":5.42439,"is_reserved":false,"is_disabled":false,"rental_uris":{"android":"levelo://app?vid=4b1f45ca-5ba1-42a7-87e4-e9967261b64c","ios":"levelo://app?vid=4b1f45ca-5ba1-42a7-87e4-e9967261b64c"},"vehicle_type_id":"4","last_reported":1730153318,"current_range_meters":37600,"station_id":"ce4bhp92rcd13ifvqhag","pricing_plan_id":"cebpf4jnsgd1na2vs0mg"},{"bike_id":"5b0a34de-11b0-4ff8-9149-d6c3310f6681","system_id":"levelo_inurba_marseille","lat":43.29534,"lon":5.38535,"is_reserved":false,"is_disabled":false,"rental_uris":{"android":"levelo://app?vid=5b0a34de-11b0-4ff8-9149-d6c3310f6681","ios":"levelo://app?vid=5b0a34de-11b0-4ff8-9149-d6c3310f6681"},"vehicle_type_id":"4","last_reported":1730153318,"current_range_meters":3200,"station_id":"ce4bgih2rcd13ifvqba0","pricing_plan_id":"cebpf4jnsgd1na2vs0mg"},{"bike_id":"9094db15-4bdf-4864-acf9-452b8d5c661a","system_id":"levelo_inurba_marseille","lat":43.27185,"lon":5.40999,"is_reserved":false,"is_disabled":false,"rental_uris":{"android":"levelo://app?vid=9094db15-4bdf-4864-acf9-452b8d5c661a","ios":"levelo://app?vid=9094db15-4bdf-4864-acf9-452b8d5c661a"},"vehicle_type_id":"4","last_reported":1730153318,"current_range_meters":22400,"station_id":"ce4bhl12rcd13ifvqgf0","pricing_plan_id":"cebpf4jnsgd1na2vs0mg"},{"bike_id":"17c8cb4b-2976-4794-8802-8c9f68880de3","system_id":"levelo_inurba_marseille","lat":43.31362,"lon":5.36715,"is_reserved":false,"is_disabled":false,"rental_uris":{"android":"levelo://app?vid=17c8cb4b-2976-4794-8802-8c9f68880de3","ios":"levelo://app?vid=17c8cb4b-2976-4794-8802-8c9f68880de3"},"vehicle_type_id":"4","last_reported":1730153318,"current_range_meters":14800,"station_id":"ce4bgr92rcd13ifvqc6g","pricing_plan_id":"cebpf4jnsgd1na2vs0mg"},{"bike_id":"c5aed74c-2556-4499-81a2-61e56f0ad7bb","system_id":"levelo_inurba_marseille","lat":43.31114,"lon":5.3777,"is_reserved":false,"is_disabled":false,"rental_uris":{"android":"levelo://app?vid=c5aed74c-2556-4499-81a2-61e56f0ad7bb","ios":"levelo://app?vid=c5aed74c-2556-4499-81a2-61e56f0ad7bb"},"vehicle_type_id":"4","last_reported":1730153318,"current_range_meters":26800,"station_id":"ce4bgt92rcd13ifvqcg0","pricing_plan_id":"cebpf4jnsgd1na2vs0mg"},{"bike_id":"64df0b22-11d7-4411-9223-8037b97126e5","system_id":"levelo_inurba_marseille","lat":43.31528,"lon":5.38042,"is_reserved":false,"is_disabled":false,"rental_uris":{"android":"levelo://app?vid=64df0b22-11d7-4411-9223-8037b97126e5","ios":"levelo://app?vid=64df0b22-11d7-4411-9223-8037b97126e5"},"vehicle_type_id":"4","last_reported":1730153318,"current_range_meters":36400,"station_id":"ce4bhsp2rcd13ifvqi50","pricing_plan_id":"cebpf4jnsgd1na2vs0mg"},{"bike_id":"edee228c-76f1-4f9d-b4f7-5773b8a0b850","system_id":"levelo_inurba_marseille","lat":43.23193,"lon":5.35552,"is_reserved":false,"is_disabled":false,"rental_uris":{"android":"levelo://app?vid=edee228c-76f1-4f9d-b4f7-5773b8a0b850","ios":"levelo://app?vid=edee228c-76f1-4f9d-b4f7-5773b8a0b850"},"vehicle_type_id":"4","last_reported":1730153318,"current_range_meters":23200,"station_id":"ce4bhu92rcd13ifvqi70","pricing_plan_id":"cebpf4jnsgd1na2vs0mg"},{"bike_id":"de64aefc-2736-480f-8f17-3a77ec3af0e8","system_id":"levelo_inurba_marseille","lat":43.25579,"lon":5.38231,"is_reserved":false,"is_disabled":false,"rental_uris":{"android":"levelo://app?vid=de64aefc-2736-480f-8f17-3a77ec3af0e8","ios":"levelo://app?vid=de64aefc-2736-480f-8f17-3a77ec3af0e8"},"vehicle_type_id":"4","last_reported":1730153318,"current_range_meters":38800,"station_id":"ce4bhih2rcd13ifvqfs0","pricing_plan_id":"cebpf4jnsgd1na2vs0mg"},{"bike_id":"343b87d6-7bc3-47bb-aa46-9d61479b7b91","system_id":"levelo_inurba_marseille","lat":43.31328,"lon":5.39693,"is_reserved":false,"is_disabled":false,"rental_uris":{"android":"levelo://app?vid=343b87d6-7bc3-47bb-aa46-9d61479b7b91","ios":"levelo://app?vid=343b87d6-7bc3-47bb-aa46-9d61479b7b91"},"vehicle_type_id":"4","last_reported":1730153318,"current_range_meters":28000,"station_id":"ce4bgvp2rcd13ifvqcu0","pricing_plan_id":"cebpf4jnsgd1na2vs0mg"},{"bike_id":"27a3bee1-4ace-4ffd-b4ef-7e7fd88242e2","system_id":"levelo_inurba_marseille","lat":43.31117,"lon":5.37764,"is_reserved":false,"is_disabled":false,"rental_uris":{"android":"levelo://app?vid=27a3bee1-4ace-4ffd-b4ef-7e7fd88242e2","ios":"levelo://app?vid=27a3bee1-4ace-4ffd-b4ef-7e7fd88242e2"},"vehicle_type_id":"4","last_reported":1730153318,"current_range_meters":36400,"station_id":"ce4bgt92rcd13ifvqcg0","pricing_plan_id":"cebpf4jnsgd1na2vs0mg"},{"bike_id":"8ca04872-f5ac-4171-a8d0-c35675004919","system_id":"levelo_inurba_marseille","lat":43.28569,"lon":5.39491,"is_reserved":false,"is_disabled":false,"rental_uris":{"android":"levelo://app?vid=8ca04872-f5ac-4171-a8d0-c35675004919","ios":"levelo://app?vid=8ca04872-f5ac-4171-a8d0-c35675004919"},"vehicle_type_id":"4","last_reported":1730153318,"current_range_meters":37600,"station_id":"ce4bh292rcd13ifvqdg0","pricing_plan_id":"cebpf4jnsgd1na2vs0mg"},{"bike_id":"e3d27640-a7eb-4407-a3ae-d168fb29106a","system_id":"levelo_inurba_marseille","lat":43.31755,"lon":5.39021,"is_reserved":false,"is_disabled":false,"rental_uris":{"android":"levelo://app?vid=e3d27640-a7eb-4407-a3ae-d168fb29106a","ios":"levelo://app?vid=e3d27640-a7eb-4407-a3ae-d168fb29106a"},"vehicle_type_id":"4","last_reported":1730153318,"current_range_meters":36800,"station_id":"ce4bhqp2rcd13ifvqhng","pricing_plan_id":"cebpf4jnsgd1na2vs0mg"},{"bike_id":"cc4f48bc-1ebf-481e-a42a-ef03c2092f7c","system_id":"levelo_inurba_marseille","lat":43.27898,"lon":5.38008,"is_reserved":false,"is_disabled":false,"rental_uris":{"android":"levelo://app?vid=cc4f48bc-1ebf-481e-a42a-ef03c2092f7c","ios":"levelo://app?vid=cc4f48bc-1ebf-481e-a42a-ef03c2092f7c"},"vehicle_type_id":"4","last_reported":1730153318,"current_range_meters":38000,"station_id":"ce4bhf92rcd13ifvqf50","pricing_plan_id":"cebpf4jnsgd1na2vs0mg"},{"bike_id":"03a23e1c-3e41-4707-b2e5-6b250e51a14e","system_id":"levelo_inurba_marseille","lat":43.29422,"lon":5.38628,"is_reserved":false,"is_disabled":false,"rental_uris":{"android":"levelo://app?vid=03a23e1c-3e41-4707-b2e5-6b250e51a14e","ios":"levelo://app?vid=03a23e1c-3e41-4707-b2e5-6b250e51a14e"},"vehicle_type_id":"4","last_reported":1730153318,"current_range_meters":36800,"station_id":"ce4bh2h2rcd13ifvqdh0","pricing_plan_id":"cebpf4jnsgd1na2vs0mg"},{"bike_id":"39178c7c-0dd0-458f-b4db-8a61cbcc8867","system_id":"levelo_inurba_marseille","lat":43.28851,"lon":5.35852,"is_reserved":false,"is_disabled":false,"rental_uris":{"android":"levelo://app?vid=39178c7c-0dd0-458f-b4db-8a61cbcc8867","ios":"levelo://app?vid=39178c7c-0dd0-458f-b4db-8a61cbcc8867"},"vehicle_type_id":"4","last_reported":1730153318,"current_range_meters":25600,"station_id":"ce4bgi92rcd13ifvqb90","pricing_plan_id":"cebpf4jnsgd1na2vs0mg"},{"bike_id":"2f921f60-1890-404a-898c-6dae28d2ff64","system_id":"levelo_inurba_marseille","lat":43.3211,"lon":5.3678,"is_reserved":false,"is_disabled":false,"rental_uris":{"android":"levelo://app?vid=2f921f60-1890-404a-898c-6dae28d2ff64","ios":"levelo://app?vid=2f921f60-1890-404a-898c-6dae28d2ff64"},"vehicle_type_id":"4","last_reported":1730153318,"current_range_meters":38400,"station_id":"ce4bhrh2rcd13ifvqhug","pricing_plan_id":"cebpf4jnsgd1na2vs0mg"},{"bike_id":"e7c28416-4a7f-4d06-99c7-70505e487027","system_id":"levelo_inurba_marseille","lat":43.29272,"lon":5.36836,"is_reserved":false,"is_disabled":false,"rental_uris":{"android":"levelo://app?vid=e7c28416-4a7f-4d06-99c7-70505e487027","ios":"levelo://app?vid=e7c28416-4a7f-4d06-99c7-70505e487027"},"vehicle_type_id":"4","last_reported":1730153318,"current_range_meters":38800,"station_id":"ce4bhbp2rcd13ifvqesg","pricing_plan_id":"cebpf4jnsgd1na2vs0mg"},{"bike_id":"cd420958-f98b-438b-bf94-edd1a2ff26f8","system_id":"levelo_inurba_marseille","lat":43.31692,"lon":5.4047,"is_reserved":false,"is_disabled":false,"rental_uris":{"android":"levelo://app?vid=cd420958-f98b-438b-bf94-edd1a2ff26f8","ios":"levelo://app?vid=cd420958-f98b-438b-bf94-edd1a2ff26f8"},"vehicle_type_id":"4","last_reported":1730153318,"current_range_meters":25600,"station_id":"ce4bh012rcd13ifvqd00","pricing_plan_id":"cebpf4jnsgd1na2vs0mg"},{"bike_id":"9989b398-ea1f-43b4-92f6-cb3a0e8d8247","system_id":"levelo_inurba_marseille","lat":43.31332,"lon":5.39698,"is_reserved":false,"is_disabled":false,"rental_uris":{"android":"levelo://app?vid=9989b398-ea1f-43b4-92f6-cb3a0e8d8247","ios":"levelo://app?vid=9989b398-ea1f-43b4-92f6-cb3a0e8d8247"},"vehicle_type_id":"4","last_reported":1730153318,"current_range_meters":38800,"station_id":"ce4bgvp2rcd13ifvqcu0","pricing_plan_id":"cebpf4jnsgd1na2vs0mg"},{"bike_id":"81b63680-0762-4f4a-aaa3-4fa9f45b5418","system_id":"levelo_inurba_marseille","lat":43.31229,"lon":5.36853,"is_reserved":false,"is_disabled":false,"rental_uris":{"android":"levelo://app?vid=81b63680-0762-4f4a-aaa3-4fa9f45b5418","ios":"levelo://app?vid=81b63680-0762-4f4a-aaa3-4fa9f45b5418"},"vehicle_type_id":"4","last_reported":1730153318,"current_range_meters":38800,"station_id":"ce4bgl92rcd13ifvqbq0","pricing_plan_id":"cebpf4jnsgd1na2vs0mg"},{"bike_id":"ad65a43a-54be-4735-bda1-6e53332bdf74","system_id":"levelo_inurba_marseille","lat":43.29632,"lon":5.40596,"is_reserved":false,"is_disabled":false,"rental_uris":{"android":"levelo://app?vid=ad65a43a-54be-4735-bda1-6e53332bdf74","ios":"levelo://app?vid=ad65a43a-54be-4735-bda1-6e53332bdf74"},"vehicle_type_id":"4","last_reported":1730153318,"current_range_meters":39200,"station_id":"ce4bh0h2rcd13ifvqd60","pricing_plan_id":"cebpf4jnsgd1na2vs0mg"},{"bike_id":"58750843-dc43-4f10-8f78-8975e20a15ef","system_id":"levelo_inurba_marseille","lat":43.27183,"lon":5.4099,"is_reserved":false,"is_disabled":false,"rental_uris":{"android":"levelo://app?vid=58750843-dc43-4f10-8f78-8975e20a15ef","ios":"levelo://app?vid=58750843-dc43-4f10-8f78-8975e20a15ef"},"vehicle_type_id":"4","last_reported":1730153318,"current_range_meters":3200,"station_id":"ce4bhl12rcd13ifvqgf0","pricing_plan_id":"cebpf4jnsgd1na2vs0mg"},{"bike_id":"d9d4a298-8acd-4d1c-8825-3408f5f02c5a","system_id":"levelo_inurba_marseille","lat":43.30805,"lon":5.43524,"is_reserved":false,"is_disabled":false,"rental_uris":{"android":"levelo://app?vid=d9d4a298-8acd-4d1c-8825-3408f5f02c5a","ios":"levelo://app?vid=d9d4a298-8acd-4d1c-8825-3408f5f02c5a"},"vehicle_type_id":"4","last_reported":1730153318,"current_range_meters":30400,"station_id":"ce4bhph2rcd13ifvqheg","pricing_plan_id":"cebpf4jnsgd1na2vs0mg"},{"bike_id":"3596a464-c770-4ebd-b1e2-e40084414ba9","system_id":"levelo_inurba_marseille","lat":43.23184,"lon":5.39982,"is_reserved":false,"is_disabled":false,"rental_uris":{"android":"levelo://app?vid=3596a464-c770-4ebd-b1e2-e40084414ba9","ios":"levelo://app?vid=3596a464-c770-4ebd-b1e2-e40084414ba9"},"vehicle_type_id":"4","last_reported":1730153318,"current_range_meters":33600,"station_id":"ce4bhn12rcd13ifvqgqg","pricing_plan_id":"cebpf4jnsgd1na2vs0mg"},{"bike_id":"df61b96c-b629-4fb1-8a4b-d3354e3de566","system_id":"levelo_inurba_marseille","lat":43.28272,"lon":5.35068,"is_reserved":false,"is_disabled":false,"rental_uris":{"android":"levelo://app?vid=df61b96c-b629-4fb1-8a4b-d3354e3de566","ios":"levelo://app?vid=df61b96c-b629-4fb1-8a4b-d3354e3de566"},"vehicle_type_id":"4","last_reported":1730153318,"current_range_meters":38800,"station_id":"ce4bhbp2rcd13ifvqerg","pricing_plan_id":"cebpf4jnsgd1na2vs0mg"},{"bike_id":"b749049c-0b95-4e56-9192-1f2a45bed9f3","system_id":"levelo_inurba_marseille","lat":43.29452,"lon":5.38318,"is_reserved":false,"is_disabled":false,"rental_uris":{"android":"levelo://app?vid=b749049c-0b95-4e56-9192-1f2a45bed9f3","ios":"levelo://app?vid=b749049c-0b95-4e56-9192-1f2a45bed9f3"},"vehicle_type_id":"4","last_reported":1730153318,"current_range_meters":29600,"station_id":"","pricing_plan_id":"cebpf4jnsgd1na2vs0mg"},{"bike_id":"468aa9c7-6f8e-48c3-85e9-d3d7a1cdcc52","system_id":"levelo_inurba_marseille","lat":43.27119,"lon":5.40293,"is_reserved":false,"is_disabled":false,"rental_uris":{"android":"levelo://app?vid=468aa9c7-6f8e-48c3-85e9-d3d7a1cdcc52","ios":"levelo://app?vid=468aa9c7-6f8e-48c3-85e9-d3d7a1cdcc52"},"vehicle_type_id":"4","last_reported":1730153318,"current_range_meters":32000,"station_id":"","pricing_plan_id":"cebpf4jnsgd1na2vs0mg"},{"bike_id":"cdb47324-5f09-417b-9c69-253828aede39","system_id":"levelo_inurba_marseille","lat":43.30324,"lon":5.40441,"is_reserved":false,"is_disabled":false,"rental_uris":{"android":"levelo://app?vid=cdb47324-5f09-417b-9c69-253828aede39","ios":"levelo://app?vid=cdb47324-5f09-417b-9c69-253828aede39"},"vehicle_type_id":"4","last_reported":1730153318,"current_range_meters":38800,"station_id":"ce4bh012rcd13ifvqd10","pricing_plan_id":"cebpf4jnsgd1na2vs0mg"},{"bike_id":"5cf17535-3492-4177-b838-417fc7fb6174","system_id":"levelo_inurba_marseille","lat":43.29575,"lon":5.39989,"is_reserved":false,"is_disabled":false,"rental_uris":{"android":"levelo://app?vid=5cf17535-3492-4177-b838-417fc7fb6174","ios":"levelo://app?vid=5cf17535-3492-4177-b838-417fc7fb6174"},"vehicle_type_id":"4","last_reported":1730153318,"current_range_meters":38000,"station_id":"ce4bh312rcd13ifvqdj0","pricing_plan_id":"cebpf4jnsgd1na2vs0mg"},{"bike_id":"b7deb22c-cd27-491b-a9d6-00448ff7ef42","system_id":"levelo_inurba_marseille","lat":43.29273,"lon":5.40116,"is_reserved":false,"is_disabled":false,"rental_uris":{"android":"levelo://app?vid=b7deb22c-cd27-491b-a9d6-00448ff7ef42","ios":"levelo://app?vid=b7deb22c-cd27-491b-a9d6-00448ff7ef42"},"vehicle_type_id":"4","last_reported":1730153318,"current_range_meters":38800,"station_id":"ce4bh312rcd13ifvqdk0","pricing_plan_id":"cebpf4jnsgd1na2vs0mg"},{"bike_id":"77cb55b9-befc-4438-9ba0-92a2678dd5ea","system_id":"levelo_inurba_marseille","lat":43.295288,"lon":5.390004,"is_reserved":false,"is_disabled":false,"rental_uris":{"android":"levelo://app?vid=77cb55b9-befc-4438-9ba0-92a2678dd5ea","ios":"levelo://app?vid=77cb55b9-befc-4438-9ba0-92a2678dd5ea"},"vehicle_type_id":"4","last_reported":1730153318,"current_range_meters":23200,"station_id":"ce4bh3p2rcd13ifvqdp0","pricing_plan_id":"cebpf4jnsgd1na2vs0mg"},{"bike_id":"a34a3895-c589-4338-a0bf-de7fa03a3cde","system_id":"levelo_inurba_marseille","lat":43.29417,"lon":5.386173,"is_reserved":false,"is_disabled":false,"rental_uris":{"android":"levelo://app?vid=a34a3895-c589-4338-a0bf-de7fa03a3cde","ios":"levelo://app?vid=a34a3895-c589-4338-a0bf-de7fa03a3cde"},"vehicle_type_id":"4","last_reported":1730153318,"current_range_meters":26800,"station_id":"ce4bhnh2rcd13ifvqgug","pricing_plan_id":"cebpf4jnsgd1na2vs0mg"},{"bike_id":"fe0f4ad9-8221-48ed-be5d-c64547a2f47a","system_id":"levelo_inurba_marseille","lat":43.2863,"lon":5.38358,"is_reserved":false,"is_disabled":false,"rental_uris":{"android":"levelo://app?vid=fe0f4ad9-8221-48ed-be5d-c64547a2f47a","ios":"levelo://app?vid=fe0f4ad9-8221-48ed-be5d-c64547a2f47a"},"vehicle_type_id":"4","last_reported":1730153318,"current_range_meters":19600,"station_id":"ce4bh4p2rcd13ifvqe1g","pricing_plan_id":"cebpf4jnsgd1na2vs0mg"},{"bike_id":"2d2d42f9-9e59-4cc6-8025-a5c9856f0a5b","system_id":"levelo_inurba_marseille","lat":43.30135,"lon":5.39869,"is_reserved":false,"is_disabled":false,"rental_uris":{"android":"levelo://app?vid=2d2d42f9-9e59-4cc6-8025-a5c9856f0a5b","ios":"levelo://app?vid=2d2d42f9-9e59-4cc6-8025-a5c9856f0a5b"},"vehicle_type_id":"4","last_reported":1730153318,"current_range_meters":28400,"station_id":"ce4bh0h2rcd13ifvqd40","pricing_plan_id":"cebpf4jnsgd1na2vs0mg"},{"bike_id":"a846678d-cd93-4890-9fdc-977c67090280","system_id":"levelo_inurba_marseille","lat":43.28413,"lon":5.37504,"is_reserved":false,"is_disabled":false,"rental_uris":{"android":"levelo://app?vid=a846678d-cd93-4890-9fdc-977c67090280","ios":"levelo://app?vid=a846678d-cd93-4890-9fdc-977c67090280"},"vehicle_type_id":"4","last_reported":1730153318,"current_range_meters":34800,"station_id":"ce4bh412rcd13ifvqds0","pricing_plan_id":"cebpf4jnsgd1na2vs0mg"},{"bike_id":"4bcd1886-adca-47f0-b11a-c93bb04ae42e","system_id":"levelo_inurba_marseille","lat":43.281,"lon":5.37837,"is_reserved":false,"is_disabled":false,"rental_uris":{"android":"levelo://app?vid=4bcd1886-adca-47f0-b11a-c93bb04ae42e","ios":"levelo://app?vid=4bcd1886-adca-47f0-b11a-c93bb04ae42e"},"vehicle_type_id":"4","last_reported":1730153318,"current_range_meters":32800,"station_id":"ce4bha12rcd13ifvqee0","pricing_plan_id":"cebpf4jnsgd1na2vs0mg"},{"bike_id":"c103f3cf-a699-4d79-9cc1-df1ab22121e9","system_id":"levelo_inurba_marseille","lat":43.2866,"lon":5.3635,"is_reserved":false,"is_disabled":false,"rental_uris":{"android":"levelo://app?vid=c103f3cf-a699-4d79-9cc1-df1ab22121e9","ios":"levelo://app?vid=c103f3cf-a699-4d79-9cc1-df1ab22121e9"},"vehicle_type_id":"4","last_reported":1730153318,"current_range_meters":36000,"station_id":"ce4bhah2rcd13ifvqej0","pricing_plan_id":"cebpf4jnsgd1na2vs0mg"},{"bike_id":"21b0d405-022c-4046-9483-b0c711fb60b5","system_id":"levelo_inurba_marseille","lat":43.29553,"lon":5.42281,"is_reserved":false,"is_disabled":false,"rental_uris":{"android":"levelo://app?vid=21b0d405-022c-4046-9483-b0c711fb60b5","ios":"levelo://app?vid=21b0d405-022c-4046-9483-b0c711fb60b5"},"vehicle_type_id":"4","last_reported":1730153318,"current_range_meters":39200,"station_id":"ce4bhph2rcd13ifvqhdg","pricing_plan_id":"cebpf4jnsgd1na2vs0mg"},{"bike_id":"8b694fe2-e19d-43f7-b2ea-25b2c62904cf","system_id":"levelo_inurba_marseille","lat":43.29205,"lon":5.373,"is_reserved":false,"is_disabled":false,"rental_uris":{"android":"levelo://app?vid=8b694fe2-e19d-43f7-b2ea-25b2c62904cf","ios":"levelo://app?vid=8b694fe2-e19d-43f7-b2ea-25b2c62904cf"},"vehicle_type_id":"4","last_reported":1730153318,"current_range_meters":14800,"station_id":"","pricing_plan_id":"cebpf4jnsgd1na2vs0mg"},{"bike_id":"b3c95314-deff-4948-8213-391859cbe57d","system_id":"levelo_inurba_marseille","lat":43.29567,"lon":5.39987,"is_reserved":false,"is_disabled":false,"rental_uris":{"android":"levelo://app?vid=b3c95314-deff-4948-8213-391859cbe57d","ios":"levelo://app?vid=b3c95314-deff-4948-8213-391859cbe57d"},"vehicle_type_id":"4","last_reported":1730153318,"current_range_meters":38800,"station_id":"ce4bh312rcd13ifvqdj0","pricing_plan_id":"cebpf4jnsgd1na2vs0mg"},{"bike_id":"25028520-e5aa-4a68-8236-3d3a3251506e","system_id":"levelo_inurba_marseille","lat":43.28932,"lon":5.38393,"is_reserved":false,"is_disabled":false,"rental_uris":{"android":"levelo://app?vid=25028520-e5aa-4a68-8236-3d3a3251506e","ios":"levelo://app?vid=25028520-e5aa-4a68-8236-3d3a3251506e"},"vehicle_type_id":"4","last_reported":1730153318,"current_range_meters":15200,"station_id":"ce4bh612rcd13ifvqe6g","pricing_plan_id":"cebpf4jnsgd1na2vs0mg"},{"bike_id":"ded9e8ce-6371-48d9-a655-56dc566cd753","system_id":"levelo_inurba_marseille","lat":43.298523,"lon":5.384282,"is_reserved":false,"is_disabled":false,"rental_uris":{"android":"levelo://app?vid=ded9e8ce-6371-48d9-a655-56dc566cd753","ios":"levelo://app?vid=ded9e8ce-6371-48d9-a655-56dc566cd753"},"vehicle_type_id":"4","last_reported":1730153318,"current_range_meters":27200,"station_id":"","pricing_plan_id":"cebpf4jnsgd1na2vs0mg"},{"bike_id":"0473670c-d21f-43a8-8796-3c5e59de209e","system_id":"levelo_inurba_marseille","lat":43.32054,"lon":5.41535,"is_reserved":false,"is_disabled":false,"rental_uris":{"android":"levelo://app?vid=0473670c-d21f-43a8-8796-3c5e59de209e","ios":"levelo://app?vid=0473670c-d21f-43a8-8796-3c5e59de209e"},"vehicle_type_id":"4","last_reported":1730153318,"current_range_meters":38800,"station_id":"ce4bhq92rcd13ifvqhkg","pricing_plan_id":"cebpf4jnsgd1na2vs0mg"},{"bike_id":"a3232012-fec1-44cd-9f21-0f3bd3439eac","system_id":"levelo_inurba_marseille","lat":43.2894,"lon":5.39627,"is_reserved":false,"is_disabled":false,"rental_uris":{"android":"levelo://app?vid=a3232012-fec1-44cd-9f21-0f3bd3439eac","ios":"levelo://app?vid=a3232012-fec1-44cd-9f21-0f3bd3439eac"},"vehicle_type_id":"4","last_reported":1730153318,"current_range_meters":9200,"station_id":"ce4bh3h2rcd13ifvqdn0","pricing_plan_id":"cebpf4jnsgd1na2vs0mg"},{"bike_id":"7edaf7fe-1abb-43ad-bf45-23e93d3c6287","system_id":"levelo_inurba_marseille","lat":43.25821,"lon":5.39436,"is_reserved":false,"is_disabled":false,"rental_uris":{"android":"levelo://app?vid=7edaf7fe-1abb-43ad-bf45-23e93d3c6287","ios":"levelo://app?vid=7edaf7fe-1abb-43ad-bf45-23e93d3c6287"},"vehicle_type_id":"4","last_reported":1730153318,"current_range_meters":38800,"station_id":"ce4bhip2rcd13ifvqft0","pricing_plan_id":"cebpf4jnsgd1na2vs0mg"},{"bike_id":"e113f747-4daa-44f7-a218-9e030daa2565","system_id":"levelo_inurba_marseille","lat":43.321,"lon":5.36769,"is_reserved":false,"is_disabled":false,"rental_uris":{"android":"levelo://app?vid=e113f747-4daa-44f7-a218-9e030daa2565","ios":"levelo://app?vid=e113f747-4daa-44f7-a218-9e030daa2565"},"vehicle_type_id":"4","last_reported":1730153318,"current_range_meters":18800,"station_id":"ce4bhrh2rcd13ifvqhug","pricing_plan_id":"cebpf4jnsgd1na2vs0mg"},{"bike_id":"66e28388-948c-4989-b2c4-2a01d249c29c","system_id":"levelo_inurba_marseille","lat":43.29529,"lon":5.38539,"is_reserved":false,"is_disabled":false,"rental_uris":{"android":"levelo://app?vid=66e28388-948c-4989-b2c4-2a01d249c29c","ios":"levelo://app?vid=66e28388-948c-4989-b2c4-2a01d249c29c"},"vehicle_type_id":"4","last_reported":1730153318,"current_range_meters":20400,"station_id":"ce4bgih2rcd13ifvqba0","pricing_plan_id":"cebpf4jnsgd1na2vs0mg"},{"bike_id":"c83bf92a-895e-4031-90cc-0a4806604b3f","system_id":"levelo_inurba_marseille","lat":43.23054,"lon":5.35491,"is_reserved":false,"is_disabled":false,"rental_uris":{"android":"levelo://app?vid=c83bf92a-895e-4031-90cc-0a4806604b3f","ios":"levelo://app?vid=c83bf92a-895e-4031-90cc-0a4806604b3f"},"vehicle_type_id":"4","last_reported":1730153318,"current_range_meters":35600,"station_id":"cpo3342slgdg3j2ifvpg","pricing_plan_id":"cebpf4jnsgd1na2vs0mg"},{"bike_id":"3f4e9f7d-d364-447b-b7a3-5938ab5df8c4","system_id":"levelo_inurba_marseille","lat":43.32487,"lon":5.36559,"is_reserved":false,"is_disabled":false,"rental_uris":{"android":"levelo://app?vid=3f4e9f7d-d364-447b-b7a3-5938ab5df8c4","ios":"levelo://app?vid=3f4e9f7d-d364-447b-b7a3-5938ab5df8c4"},"vehicle_type_id":"4","last_reported":1730153318,"current_range_meters":31200,"station_id":"ce4bhs12rcd13ifvqhvg","pricing_plan_id":"cebpf4jnsgd1na2vs0mg"},{"bike_id":"9fd56fad-5f3d-42b4-b491-7b57b76bc0cf","system_id":"levelo_inurba_marseille","lat":43.27817,"lon":5.4072,"is_reserved":false,"is_disabled":false,"rental_uris":{"android":"levelo://app?vid=9fd56fad-5f3d-42b4-b491-7b57b76bc0cf","ios":"levelo://app?vid=9fd56fad-5f3d-42b4-b491-7b57b76bc0cf"},"vehicle_type_id":"4","last_reported":1730153318,"current_range_meters":14400,"station_id":"ce4bhnh2rcd13ifvqgtg","pricing_plan_id":"cebpf4jnsgd1na2vs0mg"},{"bike_id":"d84610d6-c6a3-4a38-822d-08ccd78292c6","system_id":"levelo_inurba_marseille","lat":43.28932,"lon":5.36369,"is_reserved":false,"is_disabled":false,"rental_uris":{"android":"levelo://app?vid=d84610d6-c6a3-4a38-822d-08ccd78292c6","ios":"levelo://app?vid=d84610d6-c6a3-4a38-822d-08ccd78292c6"},"vehicle_type_id":"4","last_reported":1730153318,"current_range_meters":38800,"station_id":"ce4bhc92rcd13ifvqetg","pricing_plan_id":"cebpf4jnsgd1na2vs0mg"},{"bike_id":"29e730b5-77d0-469f-aebb-f8f3daf3000c","system_id":"levelo_inurba_marseille","lat":43.24656,"lon":5.38157,"is_reserved":false,"is_disabled":false,"rental_uris":{"android":"levelo://app?vid=29e730b5-77d0-469f-aebb-f8f3daf3000c","ios":"levelo://app?vid=29e730b5-77d0-469f-aebb-f8f3daf3000c"},"vehicle_type_id":"4","last_reported":1730153318,"current_range_meters":25200,"station_id":"ce4bhih2rcd13ifvqfr0","pricing_plan_id":"cebpf4jnsgd1na2vs0mg"},{"bike_id":"4f8e0151-b9cf-42df-91c6-a6845ec26e07","system_id":"levelo_inurba_marseille","lat":43.27836,"lon":5.39211,"is_reserved":false,"is_disabled":false,"rental_uris":{"android":"levelo://app?vid=4f8e0151-b9cf-42df-91c6-a6845ec26e07","ios":"levelo://app?vid=4f8e0151-b9cf-42df-91c6-a6845ec26e07"},"vehicle_type_id":"4","last_reported":1730153318,"current_range_meters":28000,"station_id":"ce4bhjp2rcd13ifvqga0","pricing_plan_id":"cebpf4jnsgd1na2vs0mg"},{"bike_id":"be140c2c-9e9f-4116-823c-bebf1b666941","system_id":"levelo_inurba_marseille","lat":43.27912,"lon":5.3801,"is_reserved":false,"is_disabled":false,"rental_uris":{"android":"levelo://app?vid=be140c2c-9e9f-4116-823c-bebf1b666941","ios":"levelo://app?vid=be140c2c-9e9f-4116-823c-bebf1b666941"},"vehicle_type_id":"4","last_reported":1730153318,"current_range_meters":28800,"station_id":"ce4bhf92rcd13ifvqf50","pricing_plan_id":"cebpf4jnsgd1na2vs0mg"},{"bike_id":"84fb256a-a8e2-4be8-a18b-9ab2318d1bb4","system_id":"levelo_inurba_marseille","lat":43.26212,"lon":5.37441,"is_reserved":false,"is_disabled":false,"rental_uris":{"android":"levelo://app?vid=84fb256a-a8e2-4be8-a18b-9ab2318d1bb4","ios":"levelo://app?vid=84fb256a-a8e2-4be8-a18b-9ab2318d1bb4"},"vehicle_type_id":"4","last_reported":1730153318,"current_range_meters":38000,"station_id":"ce4bhgp2rcd13ifvqfc0","pricing_plan_id":"cebpf4jnsgd1na2vs0mg"},{"bike_id":"aa8f4925-471b-4b88-b998-03124e04a231","system_id":"levelo_inurba_marseille","lat":43.2903,"lon":5.39975,"is_reserved":false,"is_disabled":false,"rental_uris":{"android":"levelo://app?vid=aa8f4925-471b-4b88-b998-03124e04a231","ios":"levelo://app?vid=aa8f4925-471b-4b88-b998-03124e04a231"},"vehicle_type_id":"4","last_reported":1730153318,"current_range_meters":38800,"station_id":"ce4bh392rcd13ifvqdm0","pricing_plan_id":"cebpf4jnsgd1na2vs0mg"},{"bike_id":"58dae29b-f48b-40fb-a35a-9f2acd3829e3","system_id":"levelo_inurba_marseille","lat":43.27828,"lon":5.39206,"is_reserved":false,"is_disabled":false,"rental_uris":{"android":"levelo://app?vid=58dae29b-f48b-40fb-a35a-9f2acd3829e3","ios":"levelo://app?vid=58dae29b-f48b-40fb-a35a-9f2acd3829e3"},"vehicle_type_id":"4","last_reported":1730153318,"current_range_meters":8800,"station_id":"ce4bhjp2rcd13ifvqga0","pricing_plan_id":"cebpf4jnsgd1na2vs0mg"},{"bike_id":"4d66afb4-54af-4867-a686-241e6de1cbbd","system_id":"levelo_inurba_marseille","lat":43.32551,"lon":5.4145,"is_reserved":false,"is_disabled":false,"rental_uris":{"android":"levelo://app?vid=4d66afb4-54af-4867-a686-241e6de1cbbd","ios":"levelo://app?vid=4d66afb4-54af-4867-a686-241e6de1cbbd"},"vehicle_type_id":"4","last_reported":1730153318,"current_range_meters":38000,"station_id":"ce4bhq12rcd13ifvqhhg","pricing_plan_id":"cebpf4jnsgd1na2vs0mg"},{"bike_id":"3f8626e1-e8a4-4f10-9a3b-b01695500b9e","system_id":"levelo_inurba_marseille","lat":43.29264,"lon":5.40909,"is_reserved":false,"is_disabled":false,"rental_uris":{"android":"levelo://app?vid=3f8626e1-e8a4-4f10-9a3b-b01695500b9e","ios":"levelo://app?vid=3f8626e1-e8a4-4f10-9a3b-b01695500b9e"},"vehicle_type_id":"4","last_reported":1730153318,"current_range_meters":38800,"station_id":"ce4bh192rcd13ifvqdc0","pricing_plan_id":"cebpf4jnsgd1na2vs0mg"},{"bike_id":"0fd75aec-f85d-44e0-8541-1d2bc2efde6c","system_id":"levelo_inurba_marseille","lat":43.29871,"lon":5.39744,"is_reserved":false,"is_disabled":false,"rental_uris":{"android":"levelo://app?vid=0fd75aec-f85d-44e0-8541-1d2bc2efde6c","ios":"levelo://app?vid=0fd75aec-f85d-44e0-8541-1d2bc2efde6c"},"vehicle_type_id":"4","last_reported":1730153318,"current_range_meters":22000,"station_id":"ce4bh0h2rcd13ifvqd50","pricing_plan_id":"cebpf4jnsgd1na2vs0mg"},{"bike_id":"d7130213-5f63-4734-a5d3-ec784fc960ee","system_id":"levelo_inurba_marseille","lat":43.28427,"lon":5.36075,"is_reserved":false,"is_disabled":false,"rental_uris":{"android":"levelo://app?vid=d7130213-5f63-4734-a5d3-ec784fc960ee","ios":"levelo://app?vid=d7130213-5f63-4734-a5d3-ec784fc960ee"},"vehicle_type_id":"4","last_reported":1730153318,"current_range_meters":12000,"station_id":"","pricing_plan_id":"cebpf4jnsgd1na2vs0mg"},{"bike_id":"90c8200e-54ac-43e4-b6dc-b62c65fea28e","system_id":"levelo_inurba_marseille","lat":43.29462,"lon":5.38143,"is_reserved":false,"is_disabled":false,"rental_uris":{"android":"levelo://app?vid=90c8200e-54ac-43e4-b6dc-b62c65fea28e","ios":"levelo://app?vid=90c8200e-54ac-43e4-b6dc-b62c65fea28e"},"vehicle_type_id":"4","last_reported":1730153318,"current_range_meters":4000,"station_id":"","pricing_plan_id":"cebpf4jnsgd1na2vs0mg"},{"bike_id":"23672e5b-050f-4837-a454-e50245d17695","system_id":"levelo_inurba_marseille","lat":43.31715,"lon":5.37724,"is_reserved":false,"is_disabled":false,"rental_uris":{"android":"levelo://app?vid=23672e5b-050f-4837-a454-e50245d17695","ios":"levelo://app?vid=23672e5b-050f-4837-a454-e50245d17695"},"vehicle_type_id":"4","last_reported":1730153318,"current_range_meters":7200,"station_id":"ce4bgth2rcd13ifvqch0","pricing_plan_id":"cebpf4jnsgd1na2vs0mg"},{"bike_id":"029f108d-ae8d-4a0c-9c62-f39e5e27d309","system_id":"levelo_inurba_marseille","lat":43.28615,"lon":5.35106,"is_reserved":false,"is_disabled":false,"rental_uris":{"android":"levelo://app?vid=029f108d-ae8d-4a0c-9c62-f39e5e27d309","ios":"levelo://app?vid=029f108d-ae8d-4a0c-9c62-f39e5e27d309"},"vehicle_type_id":"4","last_reported":1730153318,"current_range_meters":38800,"station_id":"ce4bhch2rcd13ifvqeug","pricing_plan_id":"cebpf4jnsgd1na2vs0mg"},{"bike_id":"8ff214c0-7c27-4a71-8a7a-6fc7b318ca0e","system_id":"levelo_inurba_marseille","lat":43.30805,"lon":5.38138,"is_reserved":false,"is_disabled":false,"rental_uris":{"android":"levelo://app?vid=8ff214c0-7c27-4a71-8a7a-6fc7b318ca0e","ios":"levelo://app?vid=8ff214c0-7c27-4a71-8a7a-6fc7b318ca0e"},"vehicle_type_id":"4","last_reported":1730153318,"current_range_meters":11200,"station_id":"ce4bgt12rcd13ifvqce0","pricing_plan_id":"cebpf4jnsgd1na2vs0mg"},{"bike_id":"6eeb570e-5001-43cc-b0b1-007d89caa70a","system_id":"levelo_inurba_marseille","lat":43.29439,"lon":5.39756,"is_reserved":false,"is_disabled":false,"rental_uris":{"android":"levelo://app?vid=6eeb570e-5001-43cc-b0b1-007d89caa70a","ios":"levelo://app?vid=6eeb570e-5001-43cc-b0b1-007d89caa70a"},"vehicle_type_id":"4","last_reported":1730153318,"current_range_meters":22000,"station_id":"ce4bh3h2rcd13ifvqdo0","pricing_plan_id":"cebpf4jnsgd1na2vs0mg"},{"bike_id":"f3b058ed-8a0e-4829-adb4-cf1ea18a2a53","system_id":"levelo_inurba_marseille","lat":43.29788,"lon":5.39354,"is_reserved":false,"is_disabled":false,"rental_uris":{"android":"levelo://app?vid=f3b058ed-8a0e-4829-adb4-cf1ea18a2a53","ios":"levelo://app?vid=f3b058ed-8a0e-4829-adb4-cf1ea18a2a53"},"vehicle_type_id":"4","last_reported":1730153318,"current_range_meters":14400,"station_id":"chh1huq6cuj3fo74tm60","pricing_plan_id":"cebpf4jnsgd1na2vs0mg"},{"bike_id":"483a242c-ff66-4b30-9b1e-99fa173f6f27","system_id":"levelo_inurba_marseille","lat":43.28103,"lon":5.37842,"is_reserved":false,"is_disabled":false,"rental_uris":{"android":"levelo://app?vid=483a242c-ff66-4b30-9b1e-99fa173f6f27","ios":"levelo://app?vid=483a242c-ff66-4b30-9b1e-99fa173f6f27"},"vehicle_type_id":"4","last_reported":1730153318,"current_range_meters":36800,"station_id":"ce4bha12rcd13ifvqee0","pricing_plan_id":"cebpf4jnsgd1na2vs0mg"},{"bike_id":"8c481f3d-6b8d-4cff-9fe9-4866a2d5404c","system_id":"levelo_inurba_marseille","lat":43.31172,"lon":5.38714,"is_reserved":false,"is_disabled":false,"rental_uris":{"android":"levelo://app?vid=8c481f3d-6b8d-4cff-9fe9-4866a2d5404c","ios":"levelo://app?vid=8c481f3d-6b8d-4cff-9fe9-4866a2d5404c"},"vehicle_type_id":"4","last_reported":1730153318,"current_range_meters":38000,"station_id":"ce4bgv12rcd13ifvqcp0","pricing_plan_id":"cebpf4jnsgd1na2vs0mg"},{"bike_id":"0767fba8-2acc-437e-85a2-d8e45257d9b6","system_id":"levelo_inurba_marseille","lat":43.31328,"lon":5.39695,"is_reserved":false,"is_disabled":false,"rental_uris":{"android":"levelo://app?vid=0767fba8-2acc-437e-85a2-d8e45257d9b6","ios":"levelo://app?vid=0767fba8-2acc-437e-85a2-d8e45257d9b6"},"vehicle_type_id":"4","last_reported":1730153318,"current_range_meters":39200,"station_id":"ce4bgvp2rcd13ifvqcu0","pricing_plan_id":"cebpf4jnsgd1na2vs0mg"},{"bike_id":"5e463af8-f5f7-4b0b-a807-c0b734d103b1","system_id":"levelo_inurba_marseille","lat":43.24811,"lon":5.37455,"is_reserved":false,"is_disabled":false,"rental_uris":{"android":"levelo://app?vid=5e463af8-f5f7-4b0b-a807-c0b734d103b1","ios":"levelo://app?vid=5e463af8-f5f7-4b0b-a807-c0b734d103b1"},"vehicle_type_id":"4","last_reported":1730153318,"current_range_meters":4800,"station_id":"ce4bhgh2rcd13ifvqfb0","pricing_plan_id":"cebpf4jnsgd1na2vs0mg"},{"bike_id":"f7a50275-88a4-4be4-ac33-5cce1242cfaa","system_id":"levelo_inurba_marseille","lat":43.31657,"lon":5.37687,"is_reserved":false,"is_disabled":false,"rental_uris":{"android":"levelo://app?vid=f7a50275-88a4-4be4-ac33-5cce1242cfaa","ios":"levelo://app?vid=f7a50275-88a4-4be4-ac33-5cce1242cfaa"},"vehicle_type_id":"4","last_reported":1730153318,"current_range_meters":37600,"station_id":"","pricing_plan_id":"cebpf4jnsgd1na2vs0mg"},{"bike_id":"69d3a6e2-3f07-40ef-bdf0-53e5bd3677a3","system_id":"levelo_inurba_marseille","lat":43.287,"lon":5.39979,"is_reserved":false,"is_disabled":false,"rental_uris":{"android":"levelo://app?vid=69d3a6e2-3f07-40ef-bdf0-53e5bd3677a3","ios":"levelo://app?vid=69d3a6e2-3f07-40ef-bdf0-53e5bd3677a3"},"vehicle_type_id":"4","last_reported":1730153318,"current_range_meters":39200,"station_id":"ce4bho92rcd13ifvqh3g","pricing_plan_id":"cebpf4jnsgd1na2vs0mg"},{"bike_id":"c60fcbfa-5bba-48ae-bafc-8dcd56afe436","system_id":"levelo_inurba_marseille","lat":43.28661,"lon":5.36353,"is_reserved":false,"is_disabled":false,"rental_uris":{"android":"levelo://app?vid=c60fcbfa-5bba-48ae-bafc-8dcd56afe436","ios":"levelo://app?vid=c60fcbfa-5bba-48ae-bafc-8dcd56afe436"},"vehicle_type_id":"4","last_reported":1730153318,"current_range_meters":16400,"station_id":"ce4bhah2rcd13ifvqej0","pricing_plan_id":"cebpf4jnsgd1na2vs0mg"},{"bike_id":"0ad1c1ac-95e3-40f0-9596-991e2ab8e647","system_id":"levelo_inurba_marseille","lat":43.29163,"lon":5.37159,"is_reserved":false,"is_disabled":false,"rental_uris":{"android":"levelo://app?vid=0ad1c1ac-95e3-40f0-9596-991e2ab8e647","ios":"levelo://app?vid=0ad1c1ac-95e3-40f0-9596-991e2ab8e647"},"vehicle_type_id":"4","last_reported":1730153318,"current_range_meters":38800,"station_id":"ce4bha92rcd13ifvqeh0","pricing_plan_id":"cebpf4jnsgd1na2vs0mg"},{"bike_id":"6627e12e-9cb1-4b91-ab1a-b51812344191","system_id":"levelo_inurba_marseille","lat":43.27066,"lon":5.42274,"is_reserved":false,"is_disabled":false,"rental_uris":{"android":"levelo://app?vid=6627e12e-9cb1-4b91-ab1a-b51812344191","ios":"levelo://app?vid=6627e12e-9cb1-4b91-ab1a-b51812344191"},"vehicle_type_id":"4","last_reported":1730153318,"current_range_meters":23200,"station_id":"ce4bhk92rcd13ifvqgb0","pricing_plan_id":"cebpf4jnsgd1na2vs0mg"},{"bike_id":"9f0a823c-0a23-47d1-8e59-da94a117ebff","system_id":"levelo_inurba_marseille","lat":43.286957,"lon":5.364192,"is_reserved":false,"is_disabled":false,"rental_uris":{"android":"levelo://app?vid=9f0a823c-0a23-47d1-8e59-da94a117ebff","ios":"levelo://app?vid=9f0a823c-0a23-47d1-8e59-da94a117ebff"},"vehicle_type_id":"4","last_reported":1730153318,"current_range_meters":38400,"station_id":"ce4bhah2rcd13ifvqej0","pricing_plan_id":"cebpf4jnsgd1na2vs0mg"},{"bike_id":"4a7d2e78-51b9-46d2-bf89-98a48709d13a","system_id":"levelo_inurba_marseille","lat":43.31722,"lon":5.42395,"is_reserved":false,"is_disabled":false,"rental_uris":{"android":"levelo://app?vid=4a7d2e78-51b9-46d2-bf89-98a48709d13a","ios":"levelo://app?vid=4a7d2e78-51b9-46d2-bf89-98a48709d13a"},"vehicle_type_id":"4","last_reported":1730153318,"current_range_meters":39200,"station_id":"ce4bhp92rcd13ifvqhbg","pricing_plan_id":"cebpf4jnsgd1na2vs0mg"},{"bike_id":"bdad40da-4714-4179-a84e-4bbe5a2c808e","system_id":"levelo_inurba_marseille","lat":43.268147,"lon":5.411201,"is_reserved":false,"is_disabled":false,"rental_uris":{"android":"levelo://app?vid=bdad40da-4714-4179-a84e-4bbe5a2c808e","ios":"levelo://app?vid=bdad40da-4714-4179-a84e-4bbe5a2c808e"},"vehicle_type_id":"4","last_reported":1730153318,"current_range_meters":22800,"station_id":"","pricing_plan_id":"cebpf4jnsgd1na2vs0mg"},{"bike_id":"aca5908c-a986-4929-b9cc-0b01fabd3d1d","system_id":"levelo_inurba_marseille","lat":43.29282,"lon":5.36853,"is_reserved":false,"is_disabled":false,"rental_uris":{"android":"levelo://app?vid=aca5908c-a986-4929-b9cc-0b01fabd3d1d","ios":"levelo://app?vid=aca5908c-a986-4929-b9cc-0b01fabd3d1d"},"vehicle_type_id":"4","last_reported":1730153318,"current_range_meters":37600,"station_id":"ce4bhbp2rcd13ifvqesg","pricing_plan_id":"cebpf4jnsgd1na2vs0mg"},{"bike_id":"0c53382f-83fb-45ec-871d-d4e880c7383e","system_id":"levelo_inurba_marseille","lat":43.27999,"lon":5.40018,"is_reserved":false,"is_disabled":false,"rental_uris":{"android":"levelo://app?vid=0c53382f-83fb-45ec-871d-d4e880c7383e","ios":"levelo://app?vid=0c53382f-83fb-45ec-871d-d4e880c7383e"},"vehicle_type_id":"4","last_reported":1730153318,"current_range_meters":13600,"station_id":"ce4bho92rcd13ifvqh4g","pricing_plan_id":"cebpf4jnsgd1na2vs0mg"},{"bike_id":"bbb35f61-a519-4645-9b22-46711c1276a4","system_id":"levelo_inurba_marseille","lat":43.29567,"lon":5.39975,"is_reserved":false,"is_disabled":false,"rental_uris":{"android":"levelo://app?vid=bbb35f61-a519-4645-9b22-46711c1276a4","ios":"levelo://app?vid=bbb35f61-a519-4645-9b22-46711c1276a4"},"vehicle_type_id":"4","last_reported":1730153318,"current_range_meters":38000,"station_id":"ce4bh312rcd13ifvqdj0","pricing_plan_id":"cebpf4jnsgd1na2vs0mg"},{"bike_id":"6f487d93-ed54-4bc3-8917-f0af52bd63dd","system_id":"levelo_inurba_marseille","lat":43.27914,"lon":5.39587,"is_reserved":false,"is_disabled":false,"rental_uris":{"android":"levelo://app?vid=6f487d93-ed54-4bc3-8917-f0af52bd63dd","ios":"levelo://app?vid=6f487d93-ed54-4bc3-8917-f0af52bd63dd"},"vehicle_type_id":"4","last_reported":1730153318,"current_range_meters":8000,"station_id":"ce4bhf92rcd13ifvqf40","pricing_plan_id":"cebpf4jnsgd1na2vs0mg"},{"bike_id":"eadfee46-9822-40ad-8cda-cc07633b3b78","system_id":"levelo_inurba_marseille","lat":43.27905,"lon":5.38002,"is_reserved":false,"is_disabled":false,"rental_uris":{"android":"levelo://app?vid=eadfee46-9822-40ad-8cda-cc07633b3b78","ios":"levelo://app?vid=eadfee46-9822-40ad-8cda-cc07633b3b78"},"vehicle_type_id":"4","last_reported":1730153318,"current_range_meters":16400,"station_id":"ce4bhf92rcd13ifvqf50","pricing_plan_id":"cebpf4jnsgd1na2vs0mg"},{"bike_id":"9befed88-9f8c-464c-b07b-093bd97066bb","system_id":"levelo_inurba_marseille","lat":43.29805,"lon":5.37136,"is_reserved":false,"is_disabled":false,"rental_uris":{"android":"levelo://app?vid=9befed88-9f8c-464c-b07b-093bd97066bb","ios":"levelo://app?vid=9befed88-9f8c-464c-b07b-093bd97066bb"},"vehicle_type_id":"4","last_reported":1730153318,"current_range_meters":13600,"station_id":"","pricing_plan_id":"cebpf4jnsgd1na2vs0mg"},{"bike_id":"c8a92740-2b09-4ca5-9043-1ba83935e34d","system_id":"levelo_inurba_marseille","lat":43.24389,"lon":5.37068,"is_reserved":false,"is_disabled":false,"rental_uris":{"android":"levelo://app?vid=c8a92740-2b09-4ca5-9043-1ba83935e34d","ios":"levelo://app?vid=c8a92740-2b09-4ca5-9043-1ba83935e34d"},"vehicle_type_id":"4","last_reported":1730153318,"current_range_meters":38800,"station_id":"ce4bhhh2rcd13ifvqfk0","pricing_plan_id":"cebpf4jnsgd1na2vs0mg"},{"bike_id":"d89738db-46f7-4419-afe9-5c262921f5df","system_id":"levelo_inurba_marseille","lat":43.26212,"lon":5.37443,"is_reserved":false,"is_disabled":false,"rental_uris":{"android":"levelo://app?vid=d89738db-46f7-4419-afe9-5c262921f5df","ios":"levelo://app?vid=d89738db-46f7-4419-afe9-5c262921f5df"},"vehicle_type_id":"4","last_reported":1730153318,"current_range_meters":30400,"station_id":"ce4bhgp2rcd13ifvqfc0","pricing_plan_id":"cebpf4jnsgd1na2vs0mg"},{"bike_id":"60f32535-25cf-438a-ad7f-66bbda915bb8","system_id":"levelo_inurba_marseille","lat":43.315,"lon":5.37307,"is_reserved":false,"is_disabled":false,"rental_uris":{"android":"levelo://app?vid=60f32535-25cf-438a-ad7f-66bbda915bb8","ios":"levelo://app?vid=60f32535-25cf-438a-ad7f-66bbda915bb8"},"vehicle_type_id":"4","last_reported":1730153318,"current_range_meters":8400,"station_id":"ce4bgt12rcd13ifvqcd0","pricing_plan_id":"cebpf4jnsgd1na2vs0mg"},{"bike_id":"2de29851-ae7c-4f1b-8124-871379c2cd77","system_id":"levelo_inurba_marseille","lat":43.29176,"lon":5.37532,"is_reserved":false,"is_disabled":false,"rental_uris":{"android":"levelo://app?vid=2de29851-ae7c-4f1b-8124-871379c2cd77","ios":"levelo://app?vid=2de29851-ae7c-4f1b-8124-871379c2cd77"},"vehicle_type_id":"4","last_reported":1730153318,"current_range_meters":36000,"station_id":"ce4bh3p2rcd13ifvqdq0","pricing_plan_id":"cebpf4jnsgd1na2vs0mg"},{"bike_id":"f9a2aa18-615d-43f8-9a19-eb948e242e45","system_id":"levelo_inurba_marseille","lat":43.25009,"lon":5.38919,"is_reserved":false,"is_disabled":false,"rental_uris":{"android":"levelo://app?vid=f9a2aa18-615d-43f8-9a19-eb948e242e45","ios":"levelo://app?vid=f9a2aa18-615d-43f8-9a19-eb948e242e45"},"vehicle_type_id":"4","last_reported":1730153318,"current_range_meters":38800,"station_id":"ce4bhgp2rcd13ifvqfd0","pricing_plan_id":"cebpf4jnsgd1na2vs0mg"},{"bike_id":"030d5436-e5c6-49ae-96dd-772652ca16f5","system_id":"levelo_inurba_marseille","lat":43.34689,"lon":5.38047,"is_reserved":false,"is_disabled":false,"rental_uris":{"android":"levelo://app?vid=030d5436-e5c6-49ae-96dd-772652ca16f5","ios":"levelo://app?vid=030d5436-e5c6-49ae-96dd-772652ca16f5"},"vehicle_type_id":"4","last_reported":1730153318,"current_range_meters":28800,"station_id":"","pricing_plan_id":"cebpf4jnsgd1na2vs0mg"},{"bike_id":"99be546e-23a0-4a8f-897d-f4ebd4b3bc15","system_id":"levelo_inurba_marseille","lat":43.27378,"lon":5.36257,"is_reserved":false,"is_disabled":false,"rental_uris":{"android":"levelo://app?vid=99be546e-23a0-4a8f-897d-f4ebd4b3bc15","ios":"levelo://app?vid=99be546e-23a0-4a8f-897d-f4ebd4b3bc15"},"vehicle_type_id":"4","last_reported":1730153318,"current_range_meters":38800,"station_id":"ce4bhbh2rcd13ifvqeo0","pricing_plan_id":"cebpf4jnsgd1na2vs0mg"},{"bike_id":"5e918a46-16d8-438e-88a0-86a0e45c5e53","system_id":"levelo_inurba_marseille","lat":43.25114,"lon":5.40327,"is_reserved":false,"is_disabled":false,"rental_uris":{"android":"levelo://app?vid=5e918a46-16d8-438e-88a0-86a0e45c5e53","ios":"levelo://app?vid=5e918a46-16d8-438e-88a0-86a0e45c5e53"},"vehicle_type_id":"4","last_reported":1730153318,"current_range_meters":18800,"station_id":"ce4bhlh2rcd13ifvqgig","pricing_plan_id":"cebpf4jnsgd1na2vs0mg"},{"bike_id":"844023ff-6d0b-454c-9110-ed149a7ecdf3","system_id":"levelo_inurba_marseille","lat":43.33608,"lon":5.4103,"is_reserved":false,"is_disabled":false,"rental_uris":{"android":"levelo://app?vid=844023ff-6d0b-454c-9110-ed149a7ecdf3","ios":"levelo://app?vid=844023ff-6d0b-454c-9110-ed149a7ecdf3"},"vehicle_type_id":"4","last_reported":1730153318,"current_range_meters":20000,"station_id":"ce4bhqh2rcd13ifvqhmg","pricing_plan_id":"cebpf4jnsgd1na2vs0mg"},{"bike_id":"6967ff5b-04da-439b-aacc-0ed05cc002bb","system_id":"levelo_inurba_marseille","lat":43.28567,"lon":5.39491,"is_reserved":false,"is_disabled":false,"rental_uris":{"android":"levelo://app?vid=6967ff5b-04da-439b-aacc-0ed05cc002bb","ios":"levelo://app?vid=6967ff5b-04da-439b-aacc-0ed05cc002bb"},"vehicle_type_id":"4","last_reported":1730153318,"current_range_meters":38400,"station_id":"ce4bh292rcd13ifvqdg0","pricing_plan_id":"cebpf4jnsgd1na2vs0mg"},{"bike_id":"db407270-14e4-450d-916b-188e766022fd","system_id":"levelo_inurba_marseille","lat":43.28082,"lon":5.39645,"is_reserved":false,"is_disabled":false,"rental_uris":{"android":"levelo://app?vid=db407270-14e4-450d-916b-188e766022fd","ios":"levelo://app?vid=db407270-14e4-450d-916b-188e766022fd"},"vehicle_type_id":"4","last_reported":1730153318,"current_range_meters":20000,"station_id":"ce4bho12rcd13ifvqh2g","pricing_plan_id":"cebpf4jnsgd1na2vs0mg"},{"bike_id":"a1d4c5e8-df12-4372-bde5-940110035ad1","system_id":"levelo_inurba_marseille","lat":43.28201,"lon":5.393647,"is_reserved":false,"is_disabled":false,"rental_uris":{"android":"levelo://app?vid=a1d4c5e8-df12-4372-bde5-940110035ad1","ios":"levelo://app?vid=a1d4c5e8-df12-4372-bde5-940110035ad1"},"vehicle_type_id":"4","last_reported":1730153318,"current_range_meters":36400,"station_id":"ce4bho12rcd13ifvqh2g","pricing_plan_id":"cebpf4jnsgd1na2vs0mg"},{"bike_id":"1b0fd3f0-29d5-4908-8ab9-1a00b8883aba","system_id":"levelo_inurba_marseille","lat":43.30877,"lon":5.39624,"is_reserved":false,"is_disabled":false,"rental_uris":{"android":"levelo://app?vid=1b0fd3f0-29d5-4908-8ab9-1a00b8883aba","ios":"levelo://app?vid=1b0fd3f0-29d5-4908-8ab9-1a00b8883aba"},"vehicle_type_id":"4","last_reported":1730153318,"current_range_meters":38800,"station_id":"ce4bh012rcd13ifvqcv0","pricing_plan_id":"cebpf4jnsgd1na2vs0mg"},{"bike_id":"86af7185-af18-474c-bcb9-202fb450d530","system_id":"levelo_inurba_marseille","lat":43.28364,"lon":5.38629,"is_reserved":false,"is_disabled":false,"rental_uris":{"android":"levelo://app?vid=86af7185-af18-474c-bcb9-202fb450d530","ios":"levelo://app?vid=86af7185-af18-474c-bcb9-202fb450d530"},"vehicle_type_id":"4","last_reported":1730153318,"current_range_meters":39200,"station_id":"ce4bh492rcd13ifvqdvg","pricing_plan_id":"cebpf4jnsgd1na2vs0mg"},{"bike_id":"bf0f96cf-0556-405e-a53d-bf2cceb406fb","system_id":"levelo_inurba_marseille","lat":43.28705,"lon":5.37381,"is_reserved":false,"is_disabled":false,"rental_uris":{"android":"levelo://app?vid=bf0f96cf-0556-405e-a53d-bf2cceb406fb","ios":"levelo://app?vid=bf0f96cf-0556-405e-a53d-bf2cceb406fb"},"vehicle_type_id":"4","last_reported":1730153318,"current_range_meters":17600,"station_id":"ce4bh3p2rcd13ifvqdq0","pricing_plan_id":"cebpf4jnsgd1na2vs0mg"},{"bike_id":"15828898-49fb-41a1-ba88-7883e1f9dcd0","system_id":"levelo_inurba_marseille","lat":43.29006,"lon":5.35614,"is_reserved":false,"is_disabled":false,"rental_uris":{"android":"levelo://app?vid=15828898-49fb-41a1-ba88-7883e1f9dcd0","ios":"levelo://app?vid=15828898-49fb-41a1-ba88-7883e1f9dcd0"},"vehicle_type_id":"4","last_reported":1730153318,"current_range_meters":37600,"station_id":"ce4bhb92rcd13ifvqen0","pricing_plan_id":"cebpf4jnsgd1na2vs0mg"},{"bike_id":"d59aa319-34fa-4d80-9f02-8177e87beeed","system_id":"levelo_inurba_marseille","lat":43.30258,"lon":5.40084,"is_reserved":false,"is_disabled":false,"rental_uris":{"android":"levelo://app?vid=d59aa319-34fa-4d80-9f02-8177e87beeed","ios":"levelo://app?vid=d59aa319-34fa-4d80-9f02-8177e87beeed"},"vehicle_type_id":"4","last_reported":1730153318,"current_range_meters":5600,"station_id":"ce4bgvh2rcd13ifvqcs0","pricing_plan_id":"cebpf4jnsgd1na2vs0mg"},{"bike_id":"e31650d1-6313-4c09-96ff-bc5a7403b852","system_id":"levelo_inurba_marseille","lat":43.323303,"lon":5.406317,"is_reserved":false,"is_disabled":false,"rental_uris":{"android":"levelo://app?vid=e31650d1-6313-4c09-96ff-bc5a7403b852","ios":"levelo://app?vid=e31650d1-6313-4c09-96ff-bc5a7403b852"},"vehicle_type_id":"4","last_reported":1730153318,"current_range_meters":38400,"station_id":"ce4bhq92rcd13ifvqhjg","pricing_plan_id":"cebpf4jnsgd1na2vs0mg"},{"bike_id":"aefac986-b0c6-43dd-b63b-a00cd751d12d","system_id":"levelo_inurba_marseille","lat":43.3199,"lon":5.38147,"is_reserved":false,"is_disabled":false,"rental_uris":{"android":"levelo://app?vid=aefac986-b0c6-43dd-b63b-a00cd751d12d","ios":"levelo://app?vid=aefac986-b0c6-43dd-b63b-a00cd751d12d"},"vehicle_type_id":"4","last_reported":1730153318,"current_range_meters":39200,"station_id":"ce4bhr12rcd13ifvqhpg","pricing_plan_id":"cebpf4jnsgd1na2vs0mg"},{"bike_id":"f581e29b-f342-4b13-9690-dc98c45a898a","system_id":"levelo_inurba_marseille","lat":43.286702,"lon":5.363531,"is_reserved":false,"is_disabled":false,"rental_uris":{"android":"levelo://app?vid=f581e29b-f342-4b13-9690-dc98c45a898a","ios":"levelo://app?vid=f581e29b-f342-4b13-9690-dc98c45a898a"},"vehicle_type_id":"4","last_reported":1730153318,"current_range_meters":39200,"station_id":"ce4bhah2rcd13ifvqej0","pricing_plan_id":"cebpf4jnsgd1na2vs0mg"},{"bike_id":"32676fa4-6f73-4cfb-bac2-2a7af620a425","system_id":"levelo_inurba_marseille","lat":43.29577,"lon":5.39973,"is_reserved":false,"is_disabled":false,"rental_uris":{"android":"levelo://app?vid=32676fa4-6f73-4cfb-bac2-2a7af620a425","ios":"levelo://app?vid=32676fa4-6f73-4cfb-bac2-2a7af620a425"},"vehicle_type_id":"4","last_reported":1730153318,"current_range_meters":38000,"station_id":"ce4bh312rcd13ifvqdj0","pricing_plan_id":"cebpf4jnsgd1na2vs0mg"},{"bike_id":"703cc5f2-ff31-4e4f-93b4-b5e558e8137f","system_id":"levelo_inurba_marseille","lat":43.29626,"lon":5.40592,"is_reserved":false,"is_disabled":false,"rental_uris":{"android":"levelo://app?vid=703cc5f2-ff31-4e4f-93b4-b5e558e8137f","ios":"levelo://app?vid=703cc5f2-ff31-4e4f-93b4-b5e558e8137f"},"vehicle_type_id":"4","last_reported":1730153318,"current_range_meters":16000,"station_id":"ce4bh0h2rcd13ifvqd60","pricing_plan_id":"cebpf4jnsgd1na2vs0mg"},{"bike_id":"a115272b-d982-443a-87c0-8ebb7cafe252","system_id":"levelo_inurba_marseille","lat":43.24072,"lon":5.37762,"is_reserved":false,"is_disabled":false,"rental_uris":{"android":"levelo://app?vid=a115272b-d982-443a-87c0-8ebb7cafe252","ios":"levelo://app?vid=a115272b-d982-443a-87c0-8ebb7cafe252"},"vehicle_type_id":"4","last_reported":1730153318,"current_range_meters":27200,"station_id":"ce4bhnp2rcd13ifvqgvg","pricing_plan_id":"cebpf4jnsgd1na2vs0mg"},{"bike_id":"52f03022-ed04-406c-9137-1e8d8833656e","system_id":"levelo_inurba_marseille","lat":43.31705,"lon":5.37755,"is_reserved":false,"is_disabled":false,"rental_uris":{"android":"levelo://app?vid=52f03022-ed04-406c-9137-1e8d8833656e","ios":"levelo://app?vid=52f03022-ed04-406c-9137-1e8d8833656e"},"vehicle_type_id":"4","last_reported":1730153318,"current_range_meters":34800,"station_id":"ce4bgth2rcd13ifvqch0","pricing_plan_id":"cebpf4jnsgd1na2vs0mg"},{"bike_id":"b9342b5e-ebd2-487d-abdc-955016487de0","system_id":"levelo_inurba_marseille","lat":43.2902,"lon":5.38637,"is_reserved":false,"is_disabled":false,"rental_uris":{"android":"levelo://app?vid=b9342b5e-ebd2-487d-abdc-955016487de0","ios":"levelo://app?vid=b9342b5e-ebd2-487d-abdc-955016487de0"},"vehicle_type_id":"4","last_reported":1730153318,"current_range_meters":38400,"station_id":"ce4bh4p2rcd13ifvqe0g","pricing_plan_id":"cebpf4jnsgd1na2vs0mg"},{"bike_id":"483223fc-9e92-4dfa-a133-4e620d08b2db","system_id":"levelo_inurba_marseille","lat":43.29306,"lon":5.3717,"is_reserved":false,"is_disabled":false,"rental_uris":{"android":"levelo://app?vid=483223fc-9e92-4dfa-a133-4e620d08b2db","ios":"levelo://app?vid=483223fc-9e92-4dfa-a133-4e620d08b2db"},"vehicle_type_id":"4","last_reported":1730153318,"current_range_meters":12800,"station_id":"ce4bgh92rcd13ifvqb40","pricing_plan_id":"cebpf4jnsgd1na2vs0mg"},{"bike_id":"c0092ab4-93c7-48c4-9025-4950ccdd284a","system_id":"levelo_inurba_marseille","lat":43.28942,"lon":5.3664,"is_reserved":false,"is_disabled":false,"rental_uris":{"android":"levelo://app?vid=c0092ab4-93c7-48c4-9025-4950ccdd284a","ios":"levelo://app?vid=c0092ab4-93c7-48c4-9025-4950ccdd284a"},"vehicle_type_id":"4","last_reported":1730153318,"current_range_meters":39200,"station_id":"ce4bhap2rcd13ifvqek0","pricing_plan_id":"cebpf4jnsgd1na2vs0mg"},{"bike_id":"c8e08f0d-e096-46a9-85df-e9986c03816a","system_id":"levelo_inurba_marseille","lat":43.304625,"lon":5.379009,"is_reserved":false,"is_disabled":false,"rental_uris":{"android":"levelo://app?vid=c8e08f0d-e096-46a9-85df-e9986c03816a","ios":"levelo://app?vid=c8e08f0d-e096-46a9-85df-e9986c03816a"},"vehicle_type_id":"4","last_reported":1730153318,"current_range_meters":28800,"station_id":"ce4bgup2rcd13ifvqcn0","pricing_plan_id":"cebpf4jnsgd1na2vs0mg"},{"bike_id":"1eff294a-efba-4a3e-8998-9849ddb2d364","system_id":"levelo_inurba_marseille","lat":43.27913,"lon":5.39591,"is_reserved":false,"is_disabled":false,"rental_uris":{"android":"levelo://app?vid=1eff294a-efba-4a3e-8998-9849ddb2d364","ios":"levelo://app?vid=1eff294a-efba-4a3e-8998-9849ddb2d364"},"vehicle_type_id":"4","last_reported":1730153318,"current_range_meters":9600,"station_id":"ce4bhf92rcd13ifvqf40","pricing_plan_id":"cebpf4jnsgd1na2vs0mg"},{"bike_id":"698899f6-3487-4fb4-b742-af5da9820346","system_id":"levelo_inurba_marseille","lat":43.32662,"lon":5.41,"is_reserved":false,"is_disabled":false,"rental_uris":{"android":"levelo://app?vid=698899f6-3487-4fb4-b742-af5da9820346","ios":"levelo://app?vid=698899f6-3487-4fb4-b742-af5da9820346"},"vehicle_type_id":"4","last_reported":1730153318,"current_range_meters":25600,"station_id":"ce4bhpp2rcd13ifvqhgg","pricing_plan_id":"cebpf4jnsgd1na2vs0mg"},{"bike_id":"42d1cb38-6e83-4b53-aa8b-9b3713837569","system_id":"levelo_inurba_marseille","lat":43.27424,"lon":5.39414,"is_reserved":false,"is_disabled":false,"rental_uris":{"android":"levelo://app?vid=42d1cb38-6e83-4b53-aa8b-9b3713837569","ios":"levelo://app?vid=42d1cb38-6e83-4b53-aa8b-9b3713837569"},"vehicle_type_id":"4","last_reported":1730153318,"current_range_meters":36000,"station_id":"ce4bhdp2rcd13ifvqf20","pricing_plan_id":"cebpf4jnsgd1na2vs0mg"},{"bike_id":"422ad5a2-6b97-4f87-a31a-779032955239","system_id":"levelo_inurba_marseille","lat":43.286346,"lon":5.38534,"is_reserved":false,"is_disabled":false,"rental_uris":{"android":"levelo://app?vid=422ad5a2-6b97-4f87-a31a-779032955239","ios":"levelo://app?vid=422ad5a2-6b97-4f87-a31a-779032955239"},"vehicle_type_id":"4","last_reported":1730153318,"current_range_meters":38400,"station_id":"ce4bh492rcd13ifvqdug","pricing_plan_id":"cebpf4jnsgd1na2vs0mg"},{"bike_id":"60b8b964-c042-41c3-a94b-f87c5cff29c8","system_id":"levelo_inurba_marseille","lat":43.2926,"lon":5.40908,"is_reserved":false,"is_disabled":false,"rental_uris":{"android":"levelo://app?vid=60b8b964-c042-41c3-a94b-f87c5cff29c8","ios":"levelo://app?vid=60b8b964-c042-41c3-a94b-f87c5cff29c8"},"vehicle_type_id":"4","last_reported":1730153318,"current_range_meters":30400,"station_id":"ce4bh192rcd13ifvqdc0","pricing_plan_id":"cebpf4jnsgd1na2vs0mg"},{"bike_id":"2ed9a150-ecea-4344-9803-fb28924dbd56","system_id":"levelo_inurba_marseille","lat":43.2872,"lon":5.37941,"is_reserved":false,"is_disabled":false,"rental_uris":{"android":"levelo://app?vid=2ed9a150-ecea-4344-9803-fb28924dbd56","ios":"levelo://app?vid=2ed9a150-ecea-4344-9803-fb28924dbd56"},"vehicle_type_id":"4","last_reported":1730153318,"current_range_meters":38000,"station_id":"ce4bh9p2rcd13ifvqec0","pricing_plan_id":"cebpf4jnsgd1na2vs0mg"},{"bike_id":"dfc479fb-83a5-4ceb-b137-2c8f87d3ae29","system_id":"levelo_inurba_marseille","lat":43.29883,"lon":5.38905,"is_reserved":false,"is_disabled":false,"rental_uris":{"android":"levelo://app?vid=dfc479fb-83a5-4ceb-b137-2c8f87d3ae29","ios":"levelo://app?vid=dfc479fb-83a5-4ceb-b137-2c8f87d3ae29"},"vehicle_type_id":"4","last_reported":1730153318,"current_range_meters":4000,"station_id":"ce4bh392rcd13ifvqdl0","pricing_plan_id":"cebpf4jnsgd1na2vs0mg"},{"bike_id":"03892c30-173f-42f0-aa9b-9ffed04c53bd","system_id":"levelo_inurba_marseille","lat":43.29711,"lon":5.36605,"is_reserved":false,"is_disabled":false,"rental_uris":{"android":"levelo://app?vid=03892c30-173f-42f0-aa9b-9ffed04c53bd","ios":"levelo://app?vid=03892c30-173f-42f0-aa9b-9ffed04c53bd"},"vehicle_type_id":"4","last_reported":1730153318,"current_range_meters":36400,"station_id":"ce4bgn12rcd13ifvqbt0","pricing_plan_id":"cebpf4jnsgd1na2vs0mg"},{"bike_id":"bd801bbe-605a-44d5-aa84-a87dae5a750a","system_id":"levelo_inurba_marseille","lat":43.24069,"lon":5.37766,"is_reserved":false,"is_disabled":false,"rental_uris":{"android":"levelo://app?vid=bd801bbe-605a-44d5-aa84-a87dae5a750a","ios":"levelo://app?vid=bd801bbe-605a-44d5-aa84-a87dae5a750a"},"vehicle_type_id":"4","last_reported":1730153318,"current_range_meters":35600,"station_id":"ce4bhnp2rcd13ifvqgvg","pricing_plan_id":"cebpf4jnsgd1na2vs0mg"},{"bike_id":"3c5d53f8-a9fd-4253-821c-a2ecf91f8e79","system_id":"levelo_inurba_marseille","lat":43.300907,"lon":5.390836,"is_reserved":false,"is_disabled":false,"rental_uris":{"android":"levelo://app?vid=3c5d53f8-a9fd-4253-821c-a2ecf91f8e79","ios":"levelo://app?vid=3c5d53f8-a9fd-4253-821c-a2ecf91f8e79"},"vehicle_type_id":"4","last_reported":1730153318,"current_range_meters":38800,"station_id":"ce4bh192rcd13ifvqdb0","pricing_plan_id":"cebpf4jnsgd1na2vs0mg"},{"bike_id":"510a5fc5-038b-4b7e-95a7-062cbdaa3be9","system_id":"levelo_inurba_marseille","lat":43.31274,"lon":5.40164,"is_reserved":false,"is_disabled":false,"rental_uris":{"android":"levelo://app?vid=510a5fc5-038b-4b7e-95a7-062cbdaa3be9","ios":"levelo://app?vid=510a5fc5-038b-4b7e-95a7-062cbdaa3be9"},"vehicle_type_id":"4","last_reported":1730153318,"current_range_meters":32400,"station_id":"ce4bh092rcd13ifvqd30","pricing_plan_id":"cebpf4jnsgd1na2vs0mg"},{"bike_id":"3d36dc0c-0f96-4b07-b17a-78a838fe800f","system_id":"levelo_inurba_marseille","lat":43.31729,"lon":5.42392,"is_reserved":false,"is_disabled":false,"rental_uris":{"android":"levelo://app?vid=3d36dc0c-0f96-4b07-b17a-78a838fe800f","ios":"levelo://app?vid=3d36dc0c-0f96-4b07-b17a-78a838fe800f"},"vehicle_type_id":"4","last_reported":1730153318,"current_range_meters":17600,"station_id":"ce4bhp92rcd13ifvqhbg","pricing_plan_id":"cebpf4jnsgd1na2vs0mg"},{"bike_id":"5a343c2c-b013-4634-aadf-9e6e4e37fb46","system_id":"levelo_inurba_marseille","lat":43.31491,"lon":5.37304,"is_reserved":false,"is_disabled":false,"rental_uris":{"android":"levelo://app?vid=5a343c2c-b013-4634-aadf-9e6e4e37fb46","ios":"levelo://app?vid=5a343c2c-b013-4634-aadf-9e6e4e37fb46"},"vehicle_type_id":"4","last_reported":1730153318,"current_range_meters":23200,"station_id":"ce4bgt12rcd13ifvqcd0","pricing_plan_id":"cebpf4jnsgd1na2vs0mg"},{"bike_id":"637e9d7d-59a2-4300-b38b-31b2f1fbc965","system_id":"levelo_inurba_marseille","lat":43.31077,"lon":5.3835,"is_reserved":false,"is_disabled":false,"rental_uris":{"android":"levelo://app?vid=637e9d7d-59a2-4300-b38b-31b2f1fbc965","ios":"levelo://app?vid=637e9d7d-59a2-4300-b38b-31b2f1fbc965"},"vehicle_type_id":"4","last_reported":1730153318,"current_range_meters":22000,"station_id":"ce4bgv92rcd13ifvqcr0","pricing_plan_id":"cebpf4jnsgd1na2vs0mg"},{"bike_id":"a4603ba6-3f91-46d7-ad56-9b320fac50c1","system_id":"levelo_inurba_marseille","lat":43.30894,"lon":5.372,"is_reserved":false,"is_disabled":false,"rental_uris":{"android":"levelo://app?vid=a4603ba6-3f91-46d7-ad56-9b320fac50c1","ios":"levelo://app?vid=a4603ba6-3f91-46d7-ad56-9b320fac50c1"},"vehicle_type_id":"4","last_reported":1730153318,"current_range_meters":16800,"station_id":"ce4bguh2rcd13ifvqckg","pricing_plan_id":"cebpf4jnsgd1na2vs0mg"},{"bike_id":"76df0ed3-d64f-4d6b-ae54-1acd7ab2a8b6","system_id":"levelo_inurba_marseille","lat":43.28848,"lon":5.39316,"is_reserved":false,"is_disabled":false,"rental_uris":{"android":"levelo://app?vid=76df0ed3-d64f-4d6b-ae54-1acd7ab2a8b6","ios":"levelo://app?vid=76df0ed3-d64f-4d6b-ae54-1acd7ab2a8b6"},"vehicle_type_id":"4","last_reported":1730153318,"current_range_meters":26000,"station_id":"ce4bh2p2rcd13ifvqdi0","pricing_plan_id":"cebpf4jnsgd1na2vs0mg"},{"bike_id":"286a1ad0-de56-404d-b964-bab8becdd08e","system_id":"levelo_inurba_marseille","lat":43.29634,"lon":5.40594,"is_reserved":false,"is_disabled":false,"rental_uris":{"android":"levelo://app?vid=286a1ad0-de56-404d-b964-bab8becdd08e","ios":"levelo://app?vid=286a1ad0-de56-404d-b964-bab8becdd08e"},"vehicle_type_id":"4","last_reported":1730153318,"current_range_meters":30400,"station_id":"ce4bh0h2rcd13ifvqd60","pricing_plan_id":"cebpf4jnsgd1na2vs0mg"},{"bike_id":"e94be738-1f81-4ef2-8919-b6162fbe12c8","system_id":"levelo_inurba_marseille","lat":43.32364,"lon":5.38886,"is_reserved":false,"is_disabled":false,"rental_uris":{"android":"levelo://app?vid=e94be738-1f81-4ef2-8919-b6162fbe12c8","ios":"levelo://app?vid=e94be738-1f81-4ef2-8919-b6162fbe12c8"},"vehicle_type_id":"4","last_reported":1730153318,"current_range_meters":30800,"station_id":"ce4bhqp2rcd13ifvqhog","pricing_plan_id":"cebpf4jnsgd1na2vs0mg"},{"bike_id":"7fda42aa-28d7-4fc7-858b-960ce986865c","system_id":"levelo_inurba_marseille","lat":43.23192,"lon":5.35546,"is_reserved":false,"is_disabled":false,"rental_uris":{"android":"levelo://app?vid=7fda42aa-28d7-4fc7-858b-960ce986865c","ios":"levelo://app?vid=7fda42aa-28d7-4fc7-858b-960ce986865c"},"vehicle_type_id":"4","last_reported":1730153318,"current_range_meters":20400,"station_id":"ce4bhu92rcd13ifvqi70","pricing_plan_id":"cebpf4jnsgd1na2vs0mg"},{"bike_id":"4a29d797-7e3c-4c28-9a31-2c968dd4daeb","system_id":"levelo_inurba_marseille","lat":43.28438,"lon":5.39197,"is_reserved":false,"is_disabled":false,"rental_uris":{"android":"levelo://app?vid=4a29d797-7e3c-4c28-9a31-2c968dd4daeb","ios":"levelo://app?vid=4a29d797-7e3c-4c28-9a31-2c968dd4daeb"},"vehicle_type_id":"4","last_reported":1730153318,"current_range_meters":39200,"station_id":"ce4bhoh2rcd13ifvqh5g","pricing_plan_id":"cebpf4jnsgd1na2vs0mg"},{"bike_id":"d9b58fe4-f6ba-4315-a1da-1e41fea68d74","system_id":"levelo_inurba_marseille","lat":43.34141,"lon":5.409,"is_reserved":false,"is_disabled":false,"rental_uris":{"android":"levelo://app?vid=d9b58fe4-f6ba-4315-a1da-1e41fea68d74","ios":"levelo://app?vid=d9b58fe4-f6ba-4315-a1da-1e41fea68d74"},"vehicle_type_id":"4","last_reported":1730153318,"current_range_meters":8800,"station_id":"ce4bhqh2rcd13ifvqhlg","pricing_plan_id":"cebpf4jnsgd1na2vs0mg"},{"bike_id":"6c9b8f7f-d03e-4d6e-94a2-b3c749c788c2","system_id":"levelo_inurba_marseille","lat":43.28267,"lon":5.35055,"is_reserved":false,"is_disabled":false,"rental_uris":{"android":"levelo://app?vid=6c9b8f7f-d03e-4d6e-94a2-b3c749c788c2","ios":"levelo://app?vid=6c9b8f7f-d03e-4d6e-94a2-b3c749c788c2"},"vehicle_type_id":"4","last_reported":1730153318,"current_range_meters":15200,"station_id":"ce4bhbp2rcd13ifvqerg","pricing_plan_id":"cebpf4jnsgd1na2vs0mg"},{"bike_id":"9ccf2487-1819-40a8-a632-c77a1ac8b9a4","system_id":"levelo_inurba_marseille","lat":43.28932,"lon":5.36622,"is_reserved":false,"is_disabled":false,"rental_uris":{"android":"levelo://app?vid=9ccf2487-1819-40a8-a632-c77a1ac8b9a4","ios":"levelo://app?vid=9ccf2487-1819-40a8-a632-c77a1ac8b9a4"},"vehicle_type_id":"4","last_reported":1730153318,"current_range_meters":2800,"station_id":"ce4bhap2rcd13ifvqek0","pricing_plan_id":"cebpf4jnsgd1na2vs0mg"},{"bike_id":"a2ccfcdf-deb5-47c4-a54f-c8a980800b93","system_id":"levelo_inurba_marseille","lat":43.30132,"lon":5.39868,"is_reserved":false,"is_disabled":false,"rental_uris":{"android":"levelo://app?vid=a2ccfcdf-deb5-47c4-a54f-c8a980800b93","ios":"levelo://app?vid=a2ccfcdf-deb5-47c4-a54f-c8a980800b93"},"vehicle_type_id":"4","last_reported":1730153318,"current_range_meters":32000,"station_id":"ce4bh0h2rcd13ifvqd40","pricing_plan_id":"cebpf4jnsgd1na2vs0mg"},{"bike_id":"49f32741-11bd-4708-beba-7f7f852ef140","system_id":"levelo_inurba_marseille","lat":43.31368,"lon":5.38497,"is_reserved":false,"is_disabled":false,"rental_uris":{"android":"levelo://app?vid=49f32741-11bd-4708-beba-7f7f852ef140","ios":"levelo://app?vid=49f32741-11bd-4708-beba-7f7f852ef140"},"vehicle_type_id":"4","last_reported":1730153318,"current_range_meters":2800,"station_id":"ce4bgt92rcd13ifvqcf0","pricing_plan_id":"cebpf4jnsgd1na2vs0mg"},{"bike_id":"94a45546-f24d-4ea1-9021-40cb22bb06eb","system_id":"levelo_inurba_marseille","lat":43.29522,"lon":5.39401,"is_reserved":false,"is_disabled":false,"rental_uris":{"android":"levelo://app?vid=94a45546-f24d-4ea1-9021-40cb22bb06eb","ios":"levelo://app?vid=94a45546-f24d-4ea1-9021-40cb22bb06eb"},"vehicle_type_id":"4","last_reported":1730153318,"current_range_meters":37600,"station_id":"ce4bh292rcd13ifvqdf0","pricing_plan_id":"cebpf4jnsgd1na2vs0mg"},{"bike_id":"a98938fa-4554-4955-b1b4-33813cc9ac3d","system_id":"levelo_inurba_marseille","lat":43.278112,"lon":5.407155,"is_reserved":false,"is_disabled":false,"rental_uris":{"android":"levelo://app?vid=a98938fa-4554-4955-b1b4-33813cc9ac3d","ios":"levelo://app?vid=a98938fa-4554-4955-b1b4-33813cc9ac3d"},"vehicle_type_id":"4","last_reported":1730153318,"current_range_meters":3600,"station_id":"ce4bhnh2rcd13ifvqgtg","pricing_plan_id":"cebpf4jnsgd1na2vs0mg"},{"bike_id":"cf7e6558-3551-4e04-b42d-9ddce72c2b12","system_id":"levelo_inurba_marseille","lat":43.273808,"lon":5.362528,"is_reserved":false,"is_disabled":false,"rental_uris":{"android":"levelo://app?vid=cf7e6558-3551-4e04-b42d-9ddce72c2b12","ios":"levelo://app?vid=cf7e6558-3551-4e04-b42d-9ddce72c2b12"},"vehicle_type_id":"4","last_reported":1730153318,"current_range_meters":31200,"station_id":"ce4bhbh2rcd13ifvqeo0","pricing_plan_id":"cebpf4jnsgd1na2vs0mg"},{"bike_id":"414b37e3-7f51-47d0-b26c-139d06b823ac","system_id":"levelo_inurba_marseille","lat":43.28004,"lon":5.40003,"is_reserved":false,"is_disabled":false,"rental_uris":{"android":"levelo://app?vid=414b37e3-7f51-47d0-b26c-139d06b823ac","ios":"levelo://app?vid=414b37e3-7f51-47d0-b26c-139d06b823ac"},"vehicle_type_id":"4","last_reported":1730153318,"current_range_meters":2800,"station_id":"ce4bho92rcd13ifvqh4g","pricing_plan_id":"cebpf4jnsgd1na2vs0mg"},{"bike_id":"7bd6cc61-6544-4d18-8f4c-8de115c1d27e","system_id":"levelo_inurba_marseille","lat":43.24665,"lon":5.38163,"is_reserved":false,"is_disabled":false,"rental_uris":{"android":"levelo://app?vid=7bd6cc61-6544-4d18-8f4c-8de115c1d27e","ios":"levelo://app?vid=7bd6cc61-6544-4d18-8f4c-8de115c1d27e"},"vehicle_type_id":"4","last_reported":1730153318,"current_range_meters":38800,"station_id":"ce4bhih2rcd13ifvqfr0","pricing_plan_id":"cebpf4jnsgd1na2vs0mg"},{"bike_id":"dcd98ba9-c8cc-4340-a071-62f2c6f4e9dc","system_id":"levelo_inurba_marseille","lat":43.30881,"lon":5.37193,"is_reserved":false,"is_disabled":false,"rental_uris":{"android":"levelo://app?vid=dcd98ba9-c8cc-4340-a071-62f2c6f4e9dc","ios":"levelo://app?vid=dcd98ba9-c8cc-4340-a071-62f2c6f4e9dc"},"vehicle_type_id":"4","last_reported":1730153318,"current_range_meters":6800,"station_id":"ce4bguh2rcd13ifvqckg","pricing_plan_id":"cebpf4jnsgd1na2vs0mg"},{"bike_id":"82aeab4e-d74d-4b17-9d95-0eab62ee46b1","system_id":"levelo_inurba_marseille","lat":43.30877,"lon":5.39639,"is_reserved":false,"is_disabled":false,"rental_uris":{"android":"levelo://app?vid=82aeab4e-d74d-4b17-9d95-0eab62ee46b1","ios":"levelo://app?vid=82aeab4e-d74d-4b17-9d95-0eab62ee46b1"},"vehicle_type_id":"4","last_reported":1730153318,"current_range_meters":38800,"station_id":"ce4bh012rcd13ifvqcv0","pricing_plan_id":"cebpf4jnsgd1na2vs0mg"},{"bike_id":"38b46ee2-0885-4055-9d4e-2d10fce41684","system_id":"levelo_inurba_marseille","lat":43.28444,"lon":5.39194,"is_reserved":false,"is_disabled":false,"rental_uris":{"android":"levelo://app?vid=38b46ee2-0885-4055-9d4e-2d10fce41684","ios":"levelo://app?vid=38b46ee2-0885-4055-9d4e-2d10fce41684"},"vehicle_type_id":"4","last_reported":1730153318,"current_range_meters":36000,"station_id":"ce4bhoh2rcd13ifvqh5g","pricing_plan_id":"cebpf4jnsgd1na2vs0mg"},{"bike_id":"1a84b4d1-8439-4895-8b00-5da5a3861707","system_id":"levelo_inurba_marseille","lat":43.2466,"lon":5.38159,"is_reserved":false,"is_disabled":false,"rental_uris":{"android":"levelo://app?vid=1a84b4d1-8439-4895-8b00-5da5a3861707","ios":"levelo://app?vid=1a84b4d1-8439-4895-8b00-5da5a3861707"},"vehicle_type_id":"4","last_reported":1730153318,"current_range_meters":14400,"station_id":"ce4bhih2rcd13ifvqfr0","pricing_plan_id":"cebpf4jnsgd1na2vs0mg"},{"bike_id":"5c05f131-a563-4378-9457-751dbcbf2546","system_id":"levelo_inurba_marseille","lat":43.28848,"lon":5.3584,"is_reserved":false,"is_disabled":false,"rental_uris":{"android":"levelo://app?vid=5c05f131-a563-4378-9457-751dbcbf2546","ios":"levelo://app?vid=5c05f131-a563-4378-9457-751dbcbf2546"},"vehicle_type_id":"4","last_reported":1730153318,"current_range_meters":25600,"station_id":"ce4bhb12rcd13ifvqem0","pricing_plan_id":"cebpf4jnsgd1na2vs0mg"},{"bike_id":"b813d4d8-9d97-470a-b667-136139dc5331","system_id":"levelo_inurba_marseille","lat":43.30901,"lon":5.37195,"is_reserved":false,"is_disabled":false,"rental_uris":{"android":"levelo://app?vid=b813d4d8-9d97-470a-b667-136139dc5331","ios":"levelo://app?vid=b813d4d8-9d97-470a-b667-136139dc5331"},"vehicle_type_id":"4","last_reported":1730153318,"current_range_meters":39200,"station_id":"ce4bguh2rcd13ifvqckg","pricing_plan_id":"cebpf4jnsgd1na2vs0mg"},{"bike_id":"6d426020-479c-4cb2-808a-4d4613fbd9f4","system_id":"levelo_inurba_marseille","lat":43.29031,"lon":5.38641,"is_reserved":false,"is_disabled":false,"rental_uris":{"android":"levelo://app?vid=6d426020-479c-4cb2-808a-4d4613fbd9f4","ios":"levelo://app?vid=6d426020-479c-4cb2-808a-4d4613fbd9f4"},"vehicle_type_id":"4","last_reported":1730153318,"current_range_meters":38800,"station_id":"ce4bh4p2rcd13ifvqe0g","pricing_plan_id":"cebpf4jnsgd1na2vs0mg"},{"bike_id":"37635e21-b06e-48a7-92ec-abffe892e01e","system_id":"levelo_inurba_marseille","lat":43.30888,"lon":5.37202,"is_reserved":false,"is_disabled":false,"rental_uris":{"android":"levelo://app?vid=37635e21-b06e-48a7-92ec-abffe892e01e","ios":"levelo://app?vid=37635e21-b06e-48a7-92ec-abffe892e01e"},"vehicle_type_id":"4","last_reported":1730153318,"current_range_meters":38800,"station_id":"ce4bguh2rcd13ifvqckg","pricing_plan_id":"cebpf4jnsgd1na2vs0mg"},{"bike_id":"a53ded0a-65ad-4325-8524-45c94b1f2041","system_id":"levelo_inurba_marseille","lat":43.31167,"lon":5.38722,"is_reserved":false,"is_disabled":false,"rental_uris":{"android":"levelo://app?vid=a53ded0a-65ad-4325-8524-45c94b1f2041","ios":"levelo://app?vid=a53ded0a-65ad-4325-8524-45c94b1f2041"},"vehicle_type_id":"4","last_reported":1730153318,"current_range_meters":24400,"station_id":"ce4bgv12rcd13ifvqcp0","pricing_plan_id":"cebpf4jnsgd1na2vs0mg"},{"bike_id":"59d8b387-6895-4e74-91e7-5aee194d2c18","system_id":"levelo_inurba_marseille","lat":43.30638,"lon":5.40074,"is_reserved":false,"is_disabled":false,"rental_uris":{"android":"levelo://app?vid=59d8b387-6895-4e74-91e7-5aee194d2c18","ios":"levelo://app?vid=59d8b387-6895-4e74-91e7-5aee194d2c18"},"vehicle_type_id":"4","last_reported":1730153318,"current_range_meters":39200,"station_id":"ce4bh112rcd13ifvqda0","pricing_plan_id":"cebpf4jnsgd1na2vs0mg"},{"bike_id":"f474737c-417e-4fa3-9fb7-32dfdb567584","system_id":"levelo_inurba_marseille","lat":43.30307,"lon":5.36892,"is_reserved":false,"is_disabled":false,"rental_uris":{"android":"levelo://app?vid=f474737c-417e-4fa3-9fb7-32dfdb567584","ios":"levelo://app?vid=f474737c-417e-4fa3-9fb7-32dfdb567584"},"vehicle_type_id":"4","last_reported":1730153318,"current_range_meters":30000,"station_id":"ce4bgqh2rcd13ifvqc5g","pricing_plan_id":"cebpf4jnsgd1na2vs0mg"},{"bike_id":"bc38b640-5a30-4314-86cf-c4be8572290c","system_id":"levelo_inurba_marseille","lat":43.28943,"lon":5.36395,"is_reserved":false,"is_disabled":false,"rental_uris":{"android":"levelo://app?vid=bc38b640-5a30-4314-86cf-c4be8572290c","ios":"levelo://app?vid=bc38b640-5a30-4314-86cf-c4be8572290c"},"vehicle_type_id":"4","last_reported":1730153318,"current_range_meters":18800,"station_id":"ce4bhc92rcd13ifvqetg","pricing_plan_id":"cebpf4jnsgd1na2vs0mg"},{"bike_id":"d0ea6bdb-0d55-44ce-b1f3-28685c3ee8c6","system_id":"levelo_inurba_marseille","lat":43.28942,"lon":5.36642,"is_reserved":false,"is_disabled":false,"rental_uris":{"android":"levelo://app?vid=d0ea6bdb-0d55-44ce-b1f3-28685c3ee8c6","ios":"levelo://app?vid=d0ea6bdb-0d55-44ce-b1f3-28685c3ee8c6"},"vehicle_type_id":"4","last_reported":1730153318,"current_range_meters":30800,"station_id":"ce4bhap2rcd13ifvqek0","pricing_plan_id":"cebpf4jnsgd1na2vs0mg"},{"bike_id":"f868bb34-7843-446d-b500-343057d56adc","system_id":"levelo_inurba_marseille","lat":43.28466,"lon":5.35883,"is_reserved":false,"is_disabled":false,"rental_uris":{"android":"levelo://app?vid=f868bb34-7843-446d-b500-343057d56adc","ios":"levelo://app?vid=f868bb34-7843-446d-b500-343057d56adc"},"vehicle_type_id":"4","last_reported":1730153318,"current_range_meters":16800,"station_id":"ce4bhah2rcd13ifvqei0","pricing_plan_id":"cebpf4jnsgd1na2vs0mg"},{"bike_id":"f4b58118-bd8b-48c2-94fd-250965cf9e7a","system_id":"levelo_inurba_marseille","lat":43.23176,"lon":5.39985,"is_reserved":false,"is_disabled":false,"rental_uris":{"android":"levelo://app?vid=f4b58118-bd8b-48c2-94fd-250965cf9e7a","ios":"levelo://app?vid=f4b58118-bd8b-48c2-94fd-250965cf9e7a"},"vehicle_type_id":"4","last_reported":1730153318,"current_range_meters":24400,"station_id":"ce4bhn12rcd13ifvqgqg","pricing_plan_id":"cebpf4jnsgd1na2vs0mg"},{"bike_id":"e204fae9-c448-4403-800d-f9f2113ea37b","system_id":"levelo_inurba_marseille","lat":43.300323,"lon":5.388605,"is_reserved":false,"is_disabled":false,"rental_uris":{"android":"levelo://app?vid=e204fae9-c448-4403-800d-f9f2113ea37b","ios":"levelo://app?vid=e204fae9-c448-4403-800d-f9f2113ea37b"},"vehicle_type_id":"4","last_reported":1730153318,"current_range_meters":13600,"station_id":"ce4bgv92rcd13ifvqcq0","pricing_plan_id":"cebpf4jnsgd1na2vs0mg"},{"bike_id":"96be379b-25c9-4df6-a7e1-d02fd6e58f6d","system_id":"levelo_inurba_marseille","lat":43.25825,"lon":5.39433,"is_reserved":false,"is_disabled":false,"rental_uris":{"android":"levelo://app?vid=96be379b-25c9-4df6-a7e1-d02fd6e58f6d","ios":"levelo://app?vid=96be379b-25c9-4df6-a7e1-d02fd6e58f6d"},"vehicle_type_id":"4","last_reported":1730153318,"current_range_meters":19600,"station_id":"ce4bhip2rcd13ifvqft0","pricing_plan_id":"cebpf4jnsgd1na2vs0mg"},{"bike_id":"939e3fab-27e3-4316-a5e5-8bd3ec2713f7","system_id":"levelo_inurba_marseille","lat":43.24662,"lon":5.38158,"is_reserved":false,"is_disabled":false,"rental_uris":{"android":"levelo://app?vid=939e3fab-27e3-4316-a5e5-8bd3ec2713f7","ios":"levelo://app?vid=939e3fab-27e3-4316-a5e5-8bd3ec2713f7"},"vehicle_type_id":"4","last_reported":1730153318,"current_range_meters":36800,"station_id":"ce4bhih2rcd13ifvqfr0","pricing_plan_id":"cebpf4jnsgd1na2vs0mg"},{"bike_id":"ab2eb86f-8248-4715-bc1d-fb613c267db0","system_id":"levelo_inurba_marseille","lat":43.30253,"lon":5.40062,"is_reserved":false,"is_disabled":false,"rental_uris":{"android":"levelo://app?vid=ab2eb86f-8248-4715-bc1d-fb613c267db0","ios":"levelo://app?vid=ab2eb86f-8248-4715-bc1d-fb613c267db0"},"vehicle_type_id":"4","last_reported":1730153318,"current_range_meters":9200,"station_id":"ce4bgvh2rcd13ifvqcs0","pricing_plan_id":"cebpf4jnsgd1na2vs0mg"},{"bike_id":"69f94342-34ca-4ec5-a4b1-25c71be3673f","system_id":"levelo_inurba_marseille","lat":43.28917,"lon":5.38397,"is_reserved":false,"is_disabled":false,"rental_uris":{"android":"levelo://app?vid=69f94342-34ca-4ec5-a4b1-25c71be3673f","ios":"levelo://app?vid=69f94342-34ca-4ec5-a4b1-25c71be3673f"},"vehicle_type_id":"4","last_reported":1730153318,"current_range_meters":27200,"station_id":"ce4bh612rcd13ifvqe6g","pricing_plan_id":"cebpf4jnsgd1na2vs0mg"},{"bike_id":"4f21f473-d6ef-4678-b028-ed29a51ab020","system_id":"levelo_inurba_marseille","lat":43.31674,"lon":5.43553,"is_reserved":false,"is_disabled":false,"rental_uris":{"android":"levelo://app?vid=4f21f473-d6ef-4678-b028-ed29a51ab020","ios":"levelo://app?vid=4f21f473-d6ef-4678-b028-ed29a51ab020"},"vehicle_type_id":"4","last_reported":1730153318,"current_range_meters":27200,"station_id":"","pricing_plan_id":"cebpf4jnsgd1na2vs0mg"},{"bike_id":"4b43d7a9-64d7-4efe-8db4-3c74c9073722","system_id":"levelo_inurba_marseille","lat":43.28699,"lon":5.39986,"is_reserved":false,"is_disabled":false,"rental_uris":{"android":"levelo://app?vid=4b43d7a9-64d7-4efe-8db4-3c74c9073722","ios":"levelo://app?vid=4b43d7a9-64d7-4efe-8db4-3c74c9073722"},"vehicle_type_id":"4","last_reported":1730153318,"current_range_meters":14400,"station_id":"ce4bho92rcd13ifvqh3g","pricing_plan_id":"cebpf4jnsgd1na2vs0mg"},{"bike_id":"3ece8f6d-5bd5-46b7-b8ff-a4ba26b66643","system_id":"levelo_inurba_marseille","lat":43.30352,"lon":5.41877,"is_reserved":false,"is_disabled":false,"rental_uris":{"android":"levelo://app?vid=3ece8f6d-5bd5-46b7-b8ff-a4ba26b66643","ios":"levelo://app?vid=3ece8f6d-5bd5-46b7-b8ff-a4ba26b66643"},"vehicle_type_id":"4","last_reported":1730153318,"current_range_meters":31200,"station_id":"ce4bhop2rcd13ifvqh7g","pricing_plan_id":"cebpf4jnsgd1na2vs0mg"},{"bike_id":"d97d7e58-0bdb-4114-9249-8f863e0e9a7c","system_id":"levelo_inurba_marseille","lat":43.28413,"lon":5.37509,"is_reserved":false,"is_disabled":false,"rental_uris":{"android":"levelo://app?vid=d97d7e58-0bdb-4114-9249-8f863e0e9a7c","ios":"levelo://app?vid=d97d7e58-0bdb-4114-9249-8f863e0e9a7c"},"vehicle_type_id":"4","last_reported":1730153318,"current_range_meters":9200,"station_id":"ce4bh412rcd13ifvqds0","pricing_plan_id":"cebpf4jnsgd1na2vs0mg"},{"bike_id":"db93ba7e-4493-4061-87e4-8ca94491ee7e","system_id":"levelo_inurba_marseille","lat":43.28365,"lon":5.3863,"is_reserved":false,"is_disabled":false,"rental_uris":{"android":"levelo://app?vid=db93ba7e-4493-4061-87e4-8ca94491ee7e","ios":"levelo://app?vid=db93ba7e-4493-4061-87e4-8ca94491ee7e"},"vehicle_type_id":"4","last_reported":1730153318,"current_range_meters":35600,"station_id":"ce4bh492rcd13ifvqdvg","pricing_plan_id":"cebpf4jnsgd1na2vs0mg"},{"bike_id":"73c3c11a-6f24-4899-a04d-d5cdd86831b7","system_id":"levelo_inurba_marseille","lat":43.31324,"lon":5.39696,"is_reserved":false,"is_disabled":false,"rental_uris":{"android":"levelo://app?vid=73c3c11a-6f24-4899-a04d-d5cdd86831b7","ios":"levelo://app?vid=73c3c11a-6f24-4899-a04d-d5cdd86831b7"},"vehicle_type_id":"4","last_reported":1730153318,"current_range_meters":28400,"station_id":"ce4bgvp2rcd13ifvqcu0","pricing_plan_id":"cebpf4jnsgd1na2vs0mg"},{"bike_id":"f06a33d9-a4b8-4248-8422-bfa380d536dc","system_id":"levelo_inurba_marseille","lat":43.28108,"lon":5.3784,"is_reserved":false,"is_disabled":false,"rental_uris":{"android":"levelo://app?vid=f06a33d9-a4b8-4248-8422-bfa380d536dc","ios":"levelo://app?vid=f06a33d9-a4b8-4248-8422-bfa380d536dc"},"vehicle_type_id":"4","last_reported":1730153318,"current_range_meters":21600,"station_id":"ce4bha12rcd13ifvqee0","pricing_plan_id":"cebpf4jnsgd1na2vs0mg"},{"bike_id":"5d8df523-bcf5-40d9-87db-5f6aac45833a","system_id":"levelo_inurba_marseille","lat":43.28102,"lon":5.37836,"is_reserved":false,"is_disabled":false,"rental_uris":{"android":"levelo://app?vid=5d8df523-bcf5-40d9-87db-5f6aac45833a","ios":"levelo://app?vid=5d8df523-bcf5-40d9-87db-5f6aac45833a"},"vehicle_type_id":"4","last_reported":1730153318,"current_range_meters":36400,"station_id":"ce4bha12rcd13ifvqee0","pricing_plan_id":"cebpf4jnsgd1na2vs0mg"},{"bike_id":"cd9a7cf0-7157-4771-98e2-fed344eaf641","system_id":"levelo_inurba_marseille","lat":43.28271,"lon":5.35057,"is_reserved":false,"is_disabled":false,"rental_uris":{"android":"levelo://app?vid=cd9a7cf0-7157-4771-98e2-fed344eaf641","ios":"levelo://app?vid=cd9a7cf0-7157-4771-98e2-fed344eaf641"},"vehicle_type_id":"4","last_reported":1730153318,"current_range_meters":9600,"station_id":"ce4bhbp2rcd13ifvqerg","pricing_plan_id":"cebpf4jnsgd1na2vs0mg"},{"bike_id":"b7cdb225-b8d2-428a-9659-1844801c9c20","system_id":"levelo_inurba_marseille","lat":43.31326,"lon":5.39694,"is_reserved":false,"is_disabled":false,"rental_uris":{"android":"levelo://app?vid=b7cdb225-b8d2-428a-9659-1844801c9c20","ios":"levelo://app?vid=b7cdb225-b8d2-428a-9659-1844801c9c20"},"vehicle_type_id":"4","last_reported":1730153318,"current_range_meters":35200,"station_id":"ce4bgvp2rcd13ifvqcu0","pricing_plan_id":"cebpf4jnsgd1na2vs0mg"},{"bike_id":"174a8b34-a620-4875-b76f-a684b8099941","system_id":"levelo_inurba_marseille","lat":43.3108,"lon":5.38355,"is_reserved":false,"is_disabled":false,"rental_uris":{"android":"levelo://app?vid=174a8b34-a620-4875-b76f-a684b8099941","ios":"levelo://app?vid=174a8b34-a620-4875-b76f-a684b8099941"},"vehicle_type_id":"4","last_reported":1730153318,"current_range_meters":24800,"station_id":"ce4bgv92rcd13ifvqcr0","pricing_plan_id":"cebpf4jnsgd1na2vs0mg"},{"bike_id":"587f35f1-4ca3-4726-938e-103307e4500f","system_id":"levelo_inurba_marseille","lat":43.28933,"lon":5.36399,"is_reserved":false,"is_disabled":false,"rental_uris":{"android":"levelo://app?vid=587f35f1-4ca3-4726-938e-103307e4500f","ios":"levelo://app?vid=587f35f1-4ca3-4726-938e-103307e4500f"},"vehicle_type_id":"4","last_reported":1730153318,"current_range_meters":28000,"station_id":"ce4bhc92rcd13ifvqetg","pricing_plan_id":"cebpf4jnsgd1na2vs0mg"},{"bike_id":"f98d57d1-395f-41a3-a8e7-8feb5dc88a18","system_id":"levelo_inurba_marseille","lat":43.28712,"lon":5.37384,"is_reserved":false,"is_disabled":false,"rental_uris":{"android":"levelo://app?vid=f98d57d1-395f-41a3-a8e7-8feb5dc88a18","ios":"levelo://app?vid=f98d57d1-395f-41a3-a8e7-8feb5dc88a18"},"vehicle_type_id":"4","last_reported":1730153318,"current_range_meters":32000,"station_id":"ce4bh3p2rcd13ifvqdq0","pricing_plan_id":"cebpf4jnsgd1na2vs0mg"},{"bike_id":"3e25f5e7-0943-4739-be07-7abea685d00a","system_id":"levelo_inurba_marseille","lat":43.30355,"lon":5.41878,"is_reserved":false,"is_disabled":false,"rental_uris":{"android":"levelo://app?vid=3e25f5e7-0943-4739-be07-7abea685d00a","ios":"levelo://app?vid=3e25f5e7-0943-4739-be07-7abea685d00a"},"vehicle_type_id":"4","last_reported":1730153318,"current_range_meters":36800,"station_id":"ce4bhop2rcd13ifvqh7g","pricing_plan_id":"cebpf4jnsgd1na2vs0mg"},