{"last_updated":1758611433,"ttl":60,"version":"2.2","data":{"bikes":[{"bike_id":"3db05dd3-0d66-4fdb-94de-5bd4574dab07","system_id":"levelo_inurba_marseille","lat":43.27483,"lon":5.42455,"is_reserved":false,"is_disabled":false,"rental_uris":{"android":"levelo://app?vid=3db05dd3-0d66-4fdb-94de-5bd4574dab07","ios":"levelo://app?vid=3db05dd3-0d66-4fdb-94de-5bd4574dab07"},"vehicle_type_id":"4","last_reported":1758611433,"current_range_meters":2800,"station_id":"ce4bhn92rcd13ifvqgrg","pricing_plan_id":"cebpf4jnsgd1na2vs0mg"},{"bike_id":"2edd5510-9eb5-48a1-b1a5-d5bead298fd2","system_id":"levelo_inurba_marseille","lat":43.28275,"lon":5.3506,"is_reserved":false,"is_disabled":false,"rental_uris":{"android":"levelo://app?vid=2edd5510-9eb5-48a1-b1a5-d5bead298fd2","ios":"levelo://app?vid=2edd5510-9eb5-48a1-b1a5-d5bead298fd2"},"vehicle_type_id":"4","last_reported":1758611433,"current_range_meters":2800,"station_id":"ce4bhbp2rcd13ifvqerg","pricing_plan_id":"cebpf4jnsgd1na2vs0mg"},{"bike_id":"589b56fc-edee-4378-b101-fb2683d988b2","system_id":"levelo_inurba_marseille","lat":43.3054,"lon":5.36534,"is_reserved":false,"is_disabled":false,"rental_uris":{"android":"levelo://app?vid=589b56fc-edee-4378-b101-fb2683d988b2","ios":"levelo://app?vid=589b56fc-edee-4378-b101-fb2683d988b2"},"vehicle_type_id":"4","last_reported":1758611433,"current_range_meters":2800,"station_id":"ce4bgs12rcd13ifvqcag","pricing_plan_id":"cebpf4jnsgd1na2vs0mg"},{"bike_id":"989c307f-457d-4394-b015-27867ab91cee","system_id":"levelo_inurba_marseille","lat":43.29043,"lon":5.37566,"is_reserved":false,"is_disabled":false,"rental_uris":{"android":"levelo://app?vid=989c307f-457d-4394-b015-27867ab91cee","ios":"levelo://app?vid=989c307f-457d-4394-b015-27867ab91cee"},"vehicle_type_id":"4","last_reported":1758611433,"current_range_meters":3200,"station_id":"ce4bh692rcd13ifvqe90","pricing_plan_id":"cebpf4jnsgd1na2vs0mg"},{"bike_id":"2a621aed-cc20-42cf-9f2d-c07e0b38d2d3","system_id":"levelo_inurba_marseille","lat":43.292826,"lon":5.377146,"is_reserved":false,"is_disabled":false,"rental_uris":{"android":"levelo://app?vid=2a621aed-cc20-42cf-9f2d-c07e0b38d2d3","ios":"levelo://app?vid=2a621aed-cc20-42cf-9f2d-c07e0b38d2d3"},"vehicle_type_id":"4","last_reported":1758611433,"current_range_meters":3200,"station_id":"ce4bgph2rcd13ifvqc2g","pricing_plan_id":"cebpf4jnsgd1na2vs0mg"},{"bike_id":"5fafbbc6-b8c6-42a0-91c5-a2230a090df9","system_id":"levelo_inurba_marseille","lat":43.33611,"lon":5.41039,"is_reserved":false,"is_disabled":false,"rental_uris":{"android":"levelo://app?vid=5fafbbc6-b8c6-42a0-91c5-a2230a090df9","ios":"levelo://app?vid=5fafbbc6-b8c6-42a0-91c5-a2230a090df9"},"vehicle_type_id":"4","last_reported":1758611433,"current_range_meters":3200,"station_id":"ce4bhqh2rcd13ifvqhmg","pricing_plan_id":"cebpf4jnsgd1na2vs0mg"},{"bike_id":"8d060d3c-fdb9-4bac-b958-c1cedcbfa7e4","system_id":"levelo_inurba_marseille","lat":43.25728,"lon":5.4111,"is_reserved":false,"is_disabled":false,"rental_uris":{"android":"levelo://app?vid=8d060d3c-fdb9-4bac-b958-c1cedcbfa7e4","ios":"levelo://app?vid=8d060d3c-fdb9-4bac-b958-c1cedcbfa7e4"},"vehicle_type_id":"4","last_reported":1758611433,"current_range_meters":3200,"station_id":"ce4bhkp2rcd13ifvqgd0","pricing_plan_id":"cebpf4jnsgd1na2vs0mg"},{"bike_id":"a51c1eba-2cde-42a2-bfdf-e10d83bc36a0","system_id":"levelo_inurba_marseille","lat":43.24389,"lon":5.37066,"is_reserved":false,"is_disabled":false,"rental_uris":{"android":"levelo://app?vid=a51c1eba-2cde-42a2-bfdf-e10d83bc36a0","ios":"levelo://app?vid=a51c1eba-2cde-42a2-bfdf-e10d83bc36a0"},"vehicle_type_id":"4","last_reported":1758611433,"current_range_meters":3200,"station_id":"ce4bhhh2rcd13ifvqfk0","pricing_plan_id":"cebpf4jnsgd1na2vs0mg"},{"bike_id":"6d8e5d08-ba95-4377-a39e-113620edceec","system_id":"levelo_inurba_marseille","lat":43.29299,"lon":5.37472,"is_reserved":false,"is_disabled":false,"rental_uris":{"android":"levelo://app?vid=6d8e5d08-ba95-4377-a39e-113620edceec","ios":"levelo://app?vid=6d8e5d08-ba95-4377-a39e-113620edceec"},"vehicle_type_id":"4","last_reported":1758611433,"current_range_meters":3200,"station_id":"ce4bgi12rcd13ifvqb70","pricing_plan_id":"cebpf4jnsgd1na2vs0mg"},{"bike_id":"65376478-accd-4945-b205-17f885ab337a","system_id":"levelo_inurba_marseille","lat":43.26556,"lon":5.37293,"is_reserved":false,"is_disabled":false,"rental_uris":{"android":"levelo://app?vid=65376478-accd-4945-b205-17f885ab337a","ios":"levelo://app?vid=65376478-accd-4945-b205-17f885ab337a"},"vehicle_type_id":"4","last_reported":1758611433,"current_range_meters":3200,"station_id":"ce4bhg12rcd13ifvqf70","pricing_plan_id":"cebpf4jnsgd1na2vs0mg"},{"bike_id":"55686997-d9e9-4495-a9f0-18ec5933b9a4","system_id":"levelo_inurba_marseille","lat":43.28948,"lon":5.36374,"is_reserved":false,"is_disabled":false,"rental_uris":{"android":"levelo://app?vid=55686997-d9e9-4495-a9f0-18ec5933b9a4","ios":"levelo://app?vid=55686997-d9e9-4495-a9f0-18ec5933b9a4"},"vehicle_type_id":"4","last_reported":1758611433,"current_range_meters":3200,"station_id":"ce4bhc92rcd13ifvqetg","pricing_plan_id":"cebpf4jnsgd1na2vs0mg"},{"bike_id":"f3abae84-f314-4b71-8af5-0305b38b68bc","system_id":"levelo_inurba_marseille","lat":43.302157,"lon":5.394685,"is_reserved":false,"is_disabled":false,"rental_uris":{"android":"levelo://app?vid=f3abae84-f314-4b71-8af5-0305b38b68bc","ios":"levelo://app?vid=f3abae84-f314-4b71-8af5-0305b38b68bc"},"vehicle_type_id":"4","last_reported":1758611433,"current_range_meters":3600,"station_id":"ce4bh0p2rcd13ifvqd70","pricing_plan_id":"cebpf4jnsgd1na2vs0mg"},{"bike_id":"ae28da14-6440-4ce2-8e5e-3ff6802ca67d","system_id":"levelo_inurba_marseille","lat":43.29034,"lon":5.37565,"is_reserved":false,"is_disabled":false,"rental_uris":{"android":"levelo://app?vid=ae28da14-6440-4ce2-8e5e-3ff6802ca67d","ios":"levelo://app?vid=ae28da14-6440-4ce2-8e5e-3ff6802ca67d"},"vehicle_type_id":"4","last_reported":1758611433,"current_range_meters":3600,"station_id":"ce4bh692rcd13ifvqe90","pricing_plan_id":"cebpf4jnsgd1na2vs0mg"},{"bike_id":"906223e0-7f0b-4506-8707-36d1364f6232","system_id":"levelo_inurba_marseille","lat":43.29487,"lon":5.37413,"is_reserved":false,"is_disabled":true,"rental_uris":{"android":"levelo://app?vid=906223e0-7f0b-4506-8707-36d1364f6232","ios":"levelo://app?vid=906223e0-7f0b-4506-8707-36d1364f6232"},"vehicle_type_id":"4","last_reported":1758611433,"current_range_meters":3600,"station_id":"","pricing_plan_id":"cebpf4jnsgd1na2vs0mg"},{"bike_id":"8de526fc-7faf-493a-8ac6-3b9545883c15","system_id":"levelo_inurba_marseille","lat":43.30434,"lon":5.38886,"is_reserved":false,"is_disabled":false,"rental_uris":{"android":"levelo://app?vid=8de526fc-7faf-493a-8ac6-3b9545883c15","ios":"levelo://app?vid=8de526fc-7faf-493a-8ac6-3b9545883c15"},"vehicle_type_id":"4","last_reported":1758611433,"current_range_meters":3600,"station_id":"ce4bgk12rcd13ifvqbi0","pricing_plan_id":"cebpf4jnsgd1na2vs0mg"},{"bike_id":"2289a0ff-9c3e-4f79-ad38-4b41158d6057","system_id":"levelo_inurba_marseille","lat":43.29882,"lon":5.37911,"is_reserved":false,"is_disabled":false,"rental_uris":{"android":"levelo://app?vid=2289a0ff-9c3e-4f79-ad38-4b41158d6057","ios":"levelo://app?vid=2289a0ff-9c3e-4f79-ad38-4b41158d6057"},"vehicle_type_id":"4","last_reported":1758611433,"current_range_meters":3600,"station_id":"","pricing_plan_id":"cebpf4jnsgd1na2vs0mg"},{"bike_id":"dfc8c75b-6f31-49c0-af83-cce1fc0363ab","system_id":"levelo_inurba_marseille","lat":43.29542,"lon":5.38564,"is_reserved":false,"is_disabled":false,"rental_uris":{"android":"levelo://app?vid=dfc8c75b-6f31-49c0-af83-cce1fc0363ab","ios":"levelo://app?vid=dfc8c75b-6f31-49c0-af83-cce1fc0363ab"},"vehicle_type_id":"4","last_reported":1758611433,"current_range_meters":3600,"station_id":"ce4bgih2rcd13ifvqba0","pricing_plan_id":"cebpf4jnsgd1na2vs0mg"},{"bike_id":"55d1bc08-fd54-4a82-afc7-2adcaa7b1c4e","system_id":"levelo_inurba_marseille","lat":43.30032,"lon":5.37709,"is_reserved":false,"is_disabled":false,"rental_uris":{"android":"levelo://app?vid=55d1bc08-fd54-4a82-afc7-2adcaa7b1c4e","ios":"levelo://app?vid=55d1bc08-fd54-4a82-afc7-2adcaa7b1c4e"},"vehicle_type_id":"4","last_reported":1758611433,"current_range_meters":3600,"station_id":"","pricing_plan_id":"cebpf4jnsgd1na2vs0mg"},{"bike_id":"0ad5c6a5-8b05-4faa-8590-609348c11288","system_id":"levelo_inurba_marseille","lat":43.27818,"lon":5.4071,"is_reserved":false,"is_disabled":true,"rental_uris":{"android":"levelo://app?vid=0ad5c6a5-8b05-4faa-8590-609348c11288","ios":"levelo://app?vid=0ad5c6a5-8b05-4faa-8590-609348c11288"},"vehicle_type_id":"4","last_reported":1758611433,"current_range_meters":4000,"station_id":"ce4bhnh2rcd13ifvqgtg","pricing_plan_id":"cebpf4jnsgd1na2vs0mg"},{"bike_id":"48f5113d-6a0b-431f-b92b-620dfd4214e3","system_id":"levelo_inurba_marseille","lat":43.30098,"lon":5.39103,"is_reserved":false,"is_disabled":false,"rental_uris":{"android":"levelo://app?vid=48f5113d-6a0b-431f-b92b-620dfd4214e3","ios":"levelo://app?vid=48f5113d-6a0b-431f-b92b-620dfd4214e3"},"vehicle_type_id":"4","last_reported":1758611433,"current_range_meters":4000,"station_id":"ce4bh192rcd13ifvqdb0","pricing_plan_id":"cebpf4jnsgd1na2vs0mg"},{"bike_id":"68adab37-f5ad-4072-b58a-fe6c68285ca6","system_id":"levelo_inurba_marseille","lat":43.30635,"lon":5.37678,"is_reserved":false,"is_disabled":false,"rental_uris":{"android":"levelo://app?vid=68adab37-f5ad-4072-b58a-fe6c68285ca6","ios":"levelo://app?vid=68adab37-f5ad-4072-b58a-fe6c68285ca6"},"vehicle_type_id":"4","last_reported":1758611433,"current_range_meters":4000,"station_id":"","pricing_plan_id":"cebpf4jnsgd1na2vs0mg"},{"bike_id":"2c31372e-1fab-4fef-9897-027ede525661","system_id":"levelo_inurba_marseille","lat":43.304698,"lon":5.379173,"is_reserved":false,"is_disabled":false,"rental_uris":{"android":"levelo://app?vid=2c31372e-1fab-4fef-9897-027ede525661","ios":"levelo://app?vid=2c31372e-1fab-4fef-9897-027ede525661"},"vehicle_type_id":"4","last_reported":1758611433,"current_range_meters":4000,"station_id":"ce4bgup2rcd13ifvqcn0","pricing_plan_id":"cebpf4jnsgd1na2vs0mg"},{"bike_id":"c6cf202a-f9b1-4c55-b394-d944d9234113","system_id":"levelo_inurba_marseille","lat":43.32485,"lon":5.36557,"is_reserved":false,"is_disabled":false,"rental_uris":{"android":"levelo://app?vid=c6cf202a-f9b1-4c55-b394-d944d9234113","ios":"levelo://app?vid=c6cf202a-f9b1-4c55-b394-d944d9234113"},"vehicle_type_id":"4","last_reported":1758611433,"current_range_meters":4000,"station_id":"ce4bhs12rcd13ifvqhvg","pricing_plan_id":"cebpf4jnsgd1na2vs0mg"},{"bike_id":"8d27bc93-9df1-4afc-b889-bb565543a336","system_id":"levelo_inurba_marseille","lat":43.30472,"lon":5.37923,"is_reserved":false,"is_disabled":false,"rental_uris":{"android":"levelo://app?vid=8d27bc93-9df1-4afc-b889-bb565543a336","ios":"levelo://app?vid=8d27bc93-9df1-4afc-b889-bb565543a336"},"vehicle_type_id":"4","last_reported":1758611433,"current_range_meters":4000,"station_id":"ce4bgup2rcd13ifvqcn0","pricing_plan_id":"cebpf4jnsgd1na2vs0mg"},{"bike_id":"679fe2ad-a5e5-4e77-a726-aff37e053884","system_id":"levelo_inurba_marseille","lat":43.299701,"lon":5.384995,"is_reserved":false,"is_disabled":false,"rental_uris":{"android":"levelo://app?vid=679fe2ad-a5e5-4e77-a726-aff37e053884","ios":"levelo://app?vid=679fe2ad-a5e5-4e77-a726-aff37e053884"},"vehicle_type_id":"4","last_reported":1758611433,"current_range_meters":4000,"station_id":"ce4bgj92rcd13ifvqbd0","pricing_plan_id":"cebpf4jnsgd1na2vs0mg"},{"bike_id":"895a1c58-568a-4209-81a0-42b87ae7fb42","system_id":"levelo_inurba_marseille","lat":43.30801,"lon":5.38156,"is_reserved":false,"is_disabled":false,"rental_uris":{"android":"levelo://app?vid=895a1c58-568a-4209-81a0-42b87ae7fb42","ios":"levelo://app?vid=895a1c58-568a-4209-81a0-42b87ae7fb42"},"vehicle_type_id":"4","last_reported":1758611433,"current_range_meters":4000,"station_id":"ce4bgt12rcd13ifvqce0","pricing_plan_id":"cebpf4jnsgd1na2vs0mg"},{"bike_id":"922e7484-6e53-4b8d-8a95-cf9f5390d601","system_id":"levelo_inurba_marseille","lat":43.21183,"lon":5.3509,"is_reserved":false,"is_disabled":false,"rental_uris":{"android":"levelo://app?vid=922e7484-6e53-4b8d-8a95-cf9f5390d601","ios":"levelo://app?vid=922e7484-6e53-4b8d-8a95-cf9f5390d601"},"vehicle_type_id":"4","last_reported":1758611433,"current_range_meters":4800,"station_id":"st_cvj6sg6p6f1abm77japg","pricing_plan_id":"cebpf4jnsgd1na2vs0mg"},{"bike_id":"1b790372-5d34-489f-a29a-5f2319ad70e0","system_id":"levelo_inurba_marseille","lat":43.28261,"lon":5.35048,"is_reserved":false,"is_disabled":true,"rental_uris":{"android":"levelo://app?vid=1b790372-5d34-489f-a29a-5f2319ad70e0","ios":"levelo://app?vid=1b790372-5d34-489f-a29a-5f2319ad70e0"},"vehicle_type_id":"4","last_reported":1758611433,"current_range_meters":4800,"station_id":"ce4bhbp2rcd13ifvqerg","pricing_plan_id":"cebpf4jnsgd1na2vs0mg"},{"bike_id":"5ba75f19-d8cc-4291-a920-ba82d9a560ab","system_id":"levelo_inurba_marseille","lat":43.310407,"lon":5.372527,"is_reserved":false,"is_disabled":false,"rental_uris":{"android":"levelo://app?vid=5ba75f19-d8cc-4291-a920-ba82d9a560ab","ios":"levelo://app?vid=5ba75f19-d8cc-4291-a920-ba82d9a560ab"},"vehicle_type_id":"4","last_reported":1758611433,"current_range_meters":4800,"station_id":"ce4bguh2rcd13ifvqckg","pricing_plan_id":"cebpf4jnsgd1na2vs0mg"},{"bike_id":"0dbc7da0-0362-4020-94e8-7c158950cbc3","system_id":"levelo_inurba_marseille","lat":43.27062,"lon":5.40283,"is_reserved":false,"is_disabled":true,"rental_uris":{"android":"levelo://app?vid=0dbc7da0-0362-4020-94e8-7c158950cbc3","ios":"levelo://app?vid=0dbc7da0-0362-4020-94e8-7c158950cbc3"},"vehicle_type_id":"4","last_reported":1758611433,"current_range_meters":5600,"station_id":"ce4bhk92rcd13ifvqgc0","pricing_plan_id":"cebpf4jnsgd1na2vs0mg"},{"bike_id":"54502de0-09ba-43cd-a1f2-9f84e6e6c1cb","system_id":"levelo_inurba_marseille","lat":43.290149,"lon":5.381283,"is_reserved":false,"is_disabled":false,"rental_uris":{"android":"levelo://app?vid=54502de0-09ba-43cd-a1f2-9f84e6e6c1cb","ios":"levelo://app?vid=54502de0-09ba-43cd-a1f2-9f84e6e6c1cb"},"vehicle_type_id":"4","last_reported":1758611433,"current_range_meters":5600,"station_id":"","pricing_plan_id":"cebpf4jnsgd1na2vs0mg"},{"bike_id":"6cb880a8-7e9c-40a6-8dc1-33998afc4d57","system_id":"levelo_inurba_marseille","lat":43.302174,"lon":5.39474,"is_reserved":false,"is_disabled":false,"rental_uris":{"android":"levelo://app?vid=6cb880a8-7e9c-40a6-8dc1-33998afc4d57","ios":"levelo://app?vid=6cb880a8-7e9c-40a6-8dc1-33998afc4d57"},"vehicle_type_id":"4","last_reported":1758611433,"current_range_meters":5600,"station_id":"","pricing_plan_id":"cebpf4jnsgd1na2vs0mg"},{"bike_id":"30844860-faf8-4863-ba11-5ddb1f4f6d68","system_id":"levelo_inurba_marseille","lat":43.25579,"lon":5.38231,"is_reserved":false,"is_disabled":false,"rental_uris":{"android":"levelo://app?vid=30844860-faf8-4863-ba11-5ddb1f4f6d68","ios":"levelo://app?vid=30844860-faf8-4863-ba11-5ddb1f4f6d68"},"vehicle_type_id":"4","last_reported":1758611433,"current_range_meters":5600,"station_id":"ce4bhih2rcd13ifvqfs0","pricing_plan_id":"cebpf4jnsgd1na2vs0mg"},{"bike_id":"df1d17d6-886a-4741-a167-63a3f5e8a5dd","system_id":"levelo_inurba_marseille","lat":43.2408,"lon":5.37751,"is_reserved":false,"is_disabled":false,"rental_uris":{"android":"levelo://app?vid=df1d17d6-886a-4741-a167-63a3f5e8a5dd","ios":"levelo://app?vid=df1d17d6-886a-4741-a167-63a3f5e8a5dd"},"vehicle_type_id":"4","last_reported":1758611433,"current_range_meters":5600,"station_id":"ce4bhnp2rcd13ifvqgvg","pricing_plan_id":"cebpf4jnsgd1na2vs0mg"},{"bike_id":"759e47b9-2553-49c5-b2a0-35471b025155","system_id":"levelo_inurba_marseille","lat":43.30591,"lon":5.3934,"is_reserved":false,"is_disabled":false,"rental_uris":{"android":"levelo://app?vid=759e47b9-2553-49c5-b2a0-35471b025155","ios":"levelo://app?vid=759e47b9-2553-49c5-b2a0-35471b025155"},"vehicle_type_id":"4","last_reported":1758611433,"current_range_meters":6000,"station_id":"ce4bh0p2rcd13ifvqd80","pricing_plan_id":"cebpf4jnsgd1na2vs0mg"},{"bike_id":"7ed3e504-3bf5-49f4-9c8d-1bd65653f9f8","system_id":"levelo_inurba_marseille","lat":43.31225,"lon":5.36867,"is_reserved":false,"is_disabled":false,"rental_uris":{"android":"levelo://app?vid=7ed3e504-3bf5-49f4-9c8d-1bd65653f9f8","ios":"levelo://app?vid=7ed3e504-3bf5-49f4-9c8d-1bd65653f9f8"},"vehicle_type_id":"4","last_reported":1758611433,"current_range_meters":6000,"station_id":"ce4bgl92rcd13ifvqbq0","pricing_plan_id":"cebpf4jnsgd1na2vs0mg"},{"bike_id":"c6700079-fa26-4098-bca4-aaeb91fd24d1","system_id":"levelo_inurba_marseille","lat":43.23147,"lon":5.43717,"is_reserved":false,"is_disabled":false,"rental_uris":{"android":"levelo://app?vid=c6700079-fa26-4098-bca4-aaeb91fd24d1","ios":"levelo://app?vid=c6700079-fa26-4098-bca4-aaeb91fd24d1"},"vehicle_type_id":"4","last_reported":1758611433,"current_range_meters":6000,"station_id":"ce4bhmp2rcd13ifvqgog","pricing_plan_id":"cebpf4jnsgd1na2vs0mg"},{"bike_id":"922ff5b0-aa3c-405c-96a0-206ccfb318a0","system_id":"levelo_inurba_marseille","lat":43.26686,"lon":5.38275,"is_reserved":false,"is_disabled":false,"rental_uris":{"android":"levelo://app?vid=922ff5b0-aa3c-405c-96a0-206ccfb318a0","ios":"levelo://app?vid=922ff5b0-aa3c-405c-96a0-206ccfb318a0"},"vehicle_type_id":"4","last_reported":1758611433,"current_range_meters":6000,"station_id":"ce4bhg92rcd13ifvqf90","pricing_plan_id":"cebpf4jnsgd1na2vs0mg"},{"bike_id":"822a41c4-eb3c-491f-a392-2ad22e81489c","system_id":"levelo_inurba_marseille","lat":43.27498,"lon":5.42459,"is_reserved":false,"is_disabled":false,"rental_uris":{"android":"levelo://app?vid=822a41c4-eb3c-491f-a392-2ad22e81489c","ios":"levelo://app?vid=822a41c4-eb3c-491f-a392-2ad22e81489c"},"vehicle_type_id":"4","last_reported":1758611433,"current_range_meters":6400,"station_id":"ce4bhn92rcd13ifvqgrg","pricing_plan_id":"cebpf4jnsgd1na2vs0mg"},{"bike_id":"34e41d84-c218-450d-aa5a-7f2f4f8a3b48","system_id":"levelo_inurba_marseille","lat":43.23142,"lon":5.43729,"is_reserved":false,"is_disabled":false,"rental_uris":{"android":"levelo://app?vid=34e41d84-c218-450d-aa5a-7f2f4f8a3b48","ios":"levelo://app?vid=34e41d84-c218-450d-aa5a-7f2f4f8a3b48"},"vehicle_type_id":"4","last_reported":1758611433,"current_range_meters":6400,"station_id":"ce4bhmp2rcd13ifvqgog","pricing_plan_id":"cebpf4jnsgd1na2vs0mg"},{"bike_id":"6b6c7815-1e52-483b-acac-ffd21540c987","system_id":"levelo_inurba_marseille","lat":43.25726,"lon":5.41124,"is_reserved":false,"is_disabled":false,"rental_uris":{"android":"levelo://app?vid=6b6c7815-1e52-483b-acac-ffd21540c987","ios":"levelo://app?vid=6b6c7815-1e52-483b-acac-ffd21540c987"},"vehicle_type_id":"4","last_reported":1758611433,"current_range_meters":6400,"station_id":"ce4bhkp2rcd13ifvqgd0","pricing_plan_id":"cebpf4jnsgd1na2vs0mg"},{"bike_id":"9176512c-2cc1-4df2-a8e0-6be514fbcdbf","system_id":"levelo_inurba_marseille","lat":43.33748,"lon":5.37465,"is_reserved":false,"is_disabled":false,"rental_uris":{"android":"levelo://app?vid=9176512c-2cc1-4df2-a8e0-6be514fbcdbf","ios":"levelo://app?vid=9176512c-2cc1-4df2-a8e0-6be514fbcdbf"},"vehicle_type_id":"4","last_reported":1758611433,"current_range_meters":6400,"station_id":"","pricing_plan_id":"cebpf4jnsgd1na2vs0mg"},{"bike_id":"bfcfe20b-f1c9-4345-80d3-d94f6dda72af","system_id":"levelo_inurba_marseille","lat":43.26141,"lon":5.37496,"is_reserved":false,"is_disabled":false,"rental_uris":{"android":"levelo://app?vid=bfcfe20b-f1c9-4345-80d3-d94f6dda72af","ios":"levelo://app?vid=bfcfe20b-f1c9-4345-80d3-d94f6dda72af"},"vehicle_type_id":"4","last_reported":1758611433,"current_range_meters":6400,"station_id":"","pricing_plan_id":"cebpf4jnsgd1na2vs0mg"},{"bike_id":"9f50c3ed-18ab-4841-b2de-1fe469f49da2","system_id":"levelo_inurba_marseille","lat":43.27496,"lon":5.42452,"is_reserved":false,"is_disabled":false,"rental_uris":{"android":"levelo://app?vid=9f50c3ed-18ab-4841-b2de-1fe469f49da2","ios":"levelo://app?vid=9f50c3ed-18ab-4841-b2de-1fe469f49da2"},"vehicle_type_id":"4","last_reported":1758611433,"current_range_meters":6800,"station_id":"ce4bhn92rcd13ifvqgrg","pricing_plan_id":"cebpf4jnsgd1na2vs0mg"},{"bike_id":"cf15f0ab-4027-43c7-82dc-a40724160eb1","system_id":"levelo_inurba_marseille","lat":43.21757,"lon":5.34603,"is_reserved":false,"is_disabled":false,"rental_uris":{"android":"levelo://app?vid=cf15f0ab-4027-43c7-82dc-a40724160eb1","ios":"levelo://app?vid=cf15f0ab-4027-43c7-82dc-a40724160eb1"},"vehicle_type_id":"4","last_reported":1758611433,"current_range_meters":6800,"station_id":"st_cvj6r9ubvosntc0bgbag","pricing_plan_id":"cebpf4jnsgd1na2vs0mg"},{"bike_id":"1fea9656-1b7e-40ba-bd01-d375246437ff","system_id":"levelo_inurba_marseille","lat":43.26217,"lon":5.37439,"is_reserved":false,"is_disabled":false,"rental_uris":{"android":"levelo://app?vid=1fea9656-1b7e-40ba-bd01-d375246437ff","ios":"levelo://app?vid=1fea9656-1b7e-40ba-bd01-d375246437ff"},"vehicle_type_id":"4","last_reported":1758611433,"current_range_meters":6800,"station_id":"ce4bhgp2rcd13ifvqfc0","pricing_plan_id":"cebpf4jnsgd1na2vs0mg"},{"bike_id":"0094702c-7828-4296-ac91-dae23f931def","system_id":"levelo_inurba_marseille","lat":43.251084,"lon":5.403226,"is_reserved":false,"is_disabled":false,"rental_uris":{"android":"levelo://app?vid=0094702c-7828-4296-ac91-dae23f931def","ios":"levelo://app?vid=0094702c-7828-4296-ac91-dae23f931def"},"vehicle_type_id":"4","last_reported":1758611433,"current_range_meters":6800,"station_id":"","pricing_plan_id":"cebpf4jnsgd1na2vs0mg"},{"bike_id":"0ab6be39-f6f4-4f8a-84a4-b4dfad088288","system_id":"levelo_inurba_marseille","lat":43.304593,"lon":5.379044,"is_reserved":false,"is_disabled":false,"rental_uris":{"android":"levelo://app?vid=0ab6be39-f6f4-4f8a-84a4-b4dfad088288","ios":"levelo://app?vid=0ab6be39-f6f4-4f8a-84a4-b4dfad088288"},"vehicle_type_id":"4","last_reported":1758611433,"current_range_meters":6800,"station_id":"ce4bgup2rcd13ifvqcn0","pricing_plan_id":"cebpf4jnsgd1na2vs0mg"},{"bike_id":"c940dacc-3f29-417b-a827-68d907097050","system_id":"levelo_inurba_marseille","lat":43.27497,"lon":5.42448,"is_reserved":false,"is_disabled":false,"rental_uris":{"android":"levelo://app?vid=c940dacc-3f29-417b-a827-68d907097050","ios":"levelo://app?vid=c940dacc-3f29-417b-a827-68d907097050"},"vehicle_type_id":"4","last_reported":1758611433,"current_range_meters":6800,"station_id":"ce4bhn92rcd13ifvqgrg","pricing_plan_id":"cebpf4jnsgd1na2vs0mg"},{"bike_id":"438ead59-de14-4fa0-a61d-03a70a4122ae","system_id":"levelo_inurba_marseille","lat":43.97285,"lon":4.89134,"is_reserved":false,"is_disabled":true,"rental_uris":{"android":"levelo://app?vid=438ead59-de14-4fa0-a61d-03a70a4122ae","ios":"levelo://app?vid=438ead59-de14-4fa0-a61d-03a70a4122ae"},"vehicle_type_id":"4","last_reported":1758611433,"current_range_meters":6800,"station_id":"","pricing_plan_id":"cebpf4jnsgd1na2vs0mg"},{"bike_id":"0c5cb4d4-10f9-4d24-a31a-ec9e49576f88","system_id":"levelo_inurba_marseille","lat":43.34153,"lon":5.40928,"is_reserved":false,"is_disabled":false,"rental_uris":{"android":"levelo://app?vid=0c5cb4d4-10f9-4d24-a31a-ec9e49576f88","ios":"levelo://app?vid=0c5cb4d4-10f9-4d24-a31a-ec9e49576f88"},"vehicle_type_id":"4","last_reported":1758611433,"current_range_meters":7200,"station_id":"ce4bhqh2rcd13ifvqhlg","pricing_plan_id":"cebpf4jnsgd1na2vs0mg"},{"bike_id":"1c110ed9-2ed8-4790-95f8-6c69b3ebb1f0","system_id":"levelo_inurba_marseille","lat":43.29258,"lon":5.37627,"is_reserved":false,"is_disabled":false,"rental_uris":{"android":"levelo://app?vid=1c110ed9-2ed8-4790-95f8-6c69b3ebb1f0","ios":"levelo://app?vid=1c110ed9-2ed8-4790-95f8-6c69b3ebb1f0"},"vehicle_type_id":"4","last_reported":1758611433,"current_range_meters":7200,"station_id":"ce4bgi12rcd13ifvqb80","pricing_plan_id":"cebpf4jnsgd1na2vs0mg"},{"bike_id":"698a1659-1be4-4464-8e40-0054e6845364","system_id":"levelo_inurba_marseille","lat":43.2939,"lon":5.40399,"is_reserved":false,"is_disabled":false,"rental_uris":{"android":"levelo://app?vid=698a1659-1be4-4464-8e40-0054e6845364","ios":"levelo://app?vid=698a1659-1be4-4464-8e40-0054e6845364"},"vehicle_type_id":"4","last_reported":1758611433,"current_range_meters":7200,"station_id":"","pricing_plan_id":"cebpf4jnsgd1na2vs0mg"},{"bike_id":"59362b21-e7ae-4d89-a581-7623f0cabe74","system_id":"levelo_inurba_marseille","lat":43.29012,"lon":5.35617,"is_reserved":false,"is_disabled":true,"rental_uris":{"android":"levelo://app?vid=59362b21-e7ae-4d89-a581-7623f0cabe74","ios":"levelo://app?vid=59362b21-e7ae-4d89-a581-7623f0cabe74"},"vehicle_type_id":"4","last_reported":1758611433,"current_range_meters":7200,"station_id":"ce4bhb92rcd13ifvqen0","pricing_plan_id":"cebpf4jnsgd1na2vs0mg"},{"bike_id":"49c500af-f486-4f4a-a798-d3d69187ff2d","system_id":"levelo_inurba_marseille","lat":43.33607,"lon":5.41038,"is_reserved":false,"is_disabled":false,"rental_uris":{"android":"levelo://app?vid=49c500af-f486-4f4a-a798-d3d69187ff2d","ios":"levelo://app?vid=49c500af-f486-4f4a-a798-d3d69187ff2d"},"vehicle_type_id":"4","last_reported":1758611433,"current_range_meters":7200,"station_id":"ce4bhqh2rcd13ifvqhmg","pricing_plan_id":"cebpf4jnsgd1na2vs0mg"},{"bike_id":"8d74e51c-cff0-443f-a53a-1bac4fc3bd4f","system_id":"levelo_inurba_marseille","lat":43.24082,"lon":5.37769,"is_reserved":false,"is_disabled":false,"rental_uris":{"android":"levelo://app?vid=8d74e51c-cff0-443f-a53a-1bac4fc3bd4f","ios":"levelo://app?vid=8d74e51c-cff0-443f-a53a-1bac4fc3bd4f"},"vehicle_type_id":"4","last_reported":1758611433,"current_range_meters":7200,"station_id":"ce4bhnp2rcd13ifvqgvg","pricing_plan_id":"cebpf4jnsgd1na2vs0mg"},{"bike_id":"7c6d4c54-1f59-4bf5-b576-36a1620b97d0","system_id":"levelo_inurba_marseille","lat":43.27578,"lon":5.38427,"is_reserved":false,"is_disabled":false,"rental_uris":{"android":"levelo://app?vid=7c6d4c54-1f59-4bf5-b576-36a1620b97d0","ios":"levelo://app?vid=7c6d4c54-1f59-4bf5-b576-36a1620b97d0"},"vehicle_type_id":"4","last_reported":1758611433,"current_range_meters":7200,"station_id":"ce4bhh92rcd13ifvqfi0","pricing_plan_id":"cebpf4jnsgd1na2vs0mg"},{"bike_id":"3b014743-401a-4508-ab65-83f19fbe9a8a","system_id":"levelo_inurba_marseille","lat":43.26061,"lon":5.39398,"is_reserved":false,"is_disabled":false,"rental_uris":{"android":"levelo://app?vid=3b014743-401a-4508-ab65-83f19fbe9a8a","ios":"levelo://app?vid=3b014743-401a-4508-ab65-83f19fbe9a8a"},"vehicle_type_id":"4","last_reported":1758611433,"current_range_meters":7200,"station_id":"ce4bhh92rcd13ifvqfj0","pricing_plan_id":"cebpf4jnsgd1na2vs0mg"},{"bike_id":"443760b4-4ede-4666-8804-a655094e3946","system_id":"levelo_inurba_marseille","lat":43.30913,"lon":5.36845,"is_reserved":false,"is_disabled":false,"rental_uris":{"android":"levelo://app?vid=443760b4-4ede-4666-8804-a655094e3946","ios":"levelo://app?vid=443760b4-4ede-4666-8804-a655094e3946"},"vehicle_type_id":"4","last_reported":1758611433,"current_range_meters":8000,"station_id":"ce4bgn92rcd13ifvqbvg","pricing_plan_id":"cebpf4jnsgd1na2vs0mg"},{"bike_id":"76ddf0ec-5630-4145-87a4-c2dd11d6c324","system_id":"levelo_inurba_marseille","lat":43.33613,"lon":5.40983,"is_reserved":false,"is_disabled":false,"rental_uris":{"android":"levelo://app?vid=76ddf0ec-5630-4145-87a4-c2dd11d6c324","ios":"levelo://app?vid=76ddf0ec-5630-4145-87a4-c2dd11d6c324"},"vehicle_type_id":"4","last_reported":1758611433,"current_range_meters":7200,"station_id":"ce4bhqh2rcd13ifvqhmg","pricing_plan_id":"cebpf4jnsgd1na2vs0mg"},{"bike_id":"41e03531-d926-4714-9cb0-33d759375f30","system_id":"levelo_inurba_marseille","lat":43.312292,"lon":5.3686,"is_reserved":false,"is_disabled":false,"rental_uris":{"android":"levelo://app?vid=41e03531-d926-4714-9cb0-33d759375f30","ios":"levelo://app?vid=41e03531-d926-4714-9cb0-33d759375f30"},"vehicle_type_id":"4","last_reported":1758611433,"current_range_meters":8000,"station_id":"ce4bgl92rcd13ifvqbq0","pricing_plan_id":"cebpf4jnsgd1na2vs0mg"},{"bike_id":"0ca405c5-50f7-42f0-ad59-fa4f401dba3d","system_id":"levelo_inurba_marseille","lat":43.246714,"lon":5.382322,"is_reserved":false,"is_disabled":false,"rental_uris":{"android":"levelo://app?vid=0ca405c5-50f7-42f0-ad59-fa4f401dba3d","ios":"levelo://app?vid=0ca405c5-50f7-42f0-ad59-fa4f401dba3d"},"vehicle_type_id":"4","last_reported":1758611433,"current_range_meters":8400,"station_id":"","pricing_plan_id":"cebpf4jnsgd1na2vs0mg"},{"bike_id":"3f83ed9f-4667-4663-946c-86cb861e5a4a","system_id":"levelo_inurba_marseille","lat":43.27671,"lon":5.38884,"is_reserved":false,"is_disabled":false,"rental_uris":{"android":"levelo://app?vid=3f83ed9f-4667-4663-946c-86cb861e5a4a","ios":"levelo://app?vid=3f83ed9f-4667-4663-946c-86cb861e5a4a"},"vehicle_type_id":"4","last_reported":1758611433,"current_range_meters":8400,"station_id":"ce4bhi12rcd13ifvqfo0","pricing_plan_id":"cebpf4jnsgd1na2vs0mg"},{"bike_id":"c3cafe8e-8846-4e03-bc52-99432d97b7f8","system_id":"levelo_inurba_marseille","lat":43.242322,"lon":5.368008,"is_reserved":false,"is_disabled":false,"rental_uris":{"android":"levelo://app?vid=c3cafe8e-8846-4e03-bc52-99432d97b7f8","ios":"levelo://app?vid=c3cafe8e-8846-4e03-bc52-99432d97b7f8"},"vehicle_type_id":"4","last_reported":1758611433,"current_range_meters":8400,"station_id":"cpo36qri1sfpv3e86is0","pricing_plan_id":"cebpf4jnsgd1na2vs0mg"},{"bike_id":"7a9d054a-33d2-4ab9-8282-d7fe3644a2a9","system_id":"levelo_inurba_marseille","lat":43.33613,"lon":5.4101,"is_reserved":false,"is_disabled":false,"rental_uris":{"android":"levelo://app?vid=7a9d054a-33d2-4ab9-8282-d7fe3644a2a9","ios":"levelo://app?vid=7a9d054a-33d2-4ab9-8282-d7fe3644a2a9"},"vehicle_type_id":"4","last_reported":1758611433,"current_range_meters":8400,"station_id":"ce4bhqh2rcd13ifvqhmg","pricing_plan_id":"cebpf4jnsgd1na2vs0mg"},{"bike_id":"a15e48c8-16c3-437e-a237-62b9e19d84cb","system_id":"levelo_inurba_marseille","lat":43.21747,"lon":5.3462,"is_reserved":false,"is_disabled":false,"rental_uris":{"android":"levelo://app?vid=a15e48c8-16c3-437e-a237-62b9e19d84cb","ios":"levelo://app?vid=a15e48c8-16c3-437e-a237-62b9e19d84cb"},"vehicle_type_id":"4","last_reported":1758611433,"current_range_meters":8800,"station_id":"st_cvj6r9ubvosntc0bgbag","pricing_plan_id":"cebpf4jnsgd1na2vs0mg"},{"bike_id":"6e417fed-8d43-4963-b52e-c54cd79d652e","system_id":"levelo_inurba_marseille","lat":43.301424,"lon":5.387988,"is_reserved":false,"is_disabled":true,"rental_uris":{"android":"levelo://app?vid=6e417fed-8d43-4963-b52e-c54cd79d652e","ios":"levelo://app?vid=6e417fed-8d43-4963-b52e-c54cd79d652e"},"vehicle_type_id":"4","last_reported":1758611433,"current_range_meters":8800,"station_id":"ce4bghh2rcd13ifvqb60","pricing_plan_id":"cebpf4jnsgd1na2vs0mg"},{"bike_id":"c07e2816-467a-4d5b-aab2-f49fd8a4f6dc","system_id":"levelo_inurba_marseille","lat":43.23967,"lon":5.36644,"is_reserved":false,"is_disabled":false,"rental_uris":{"android":"levelo://app?vid=c07e2816-467a-4d5b-aab2-f49fd8a4f6dc","ios":"levelo://app?vid=c07e2816-467a-4d5b-aab2-f49fd8a4f6dc"},"vehicle_type_id":"4","last_reported":1758611433,"current_range_meters":8800,"station_id":"ce4bhi12rcd13ifvqfp0","pricing_plan_id":"cebpf4jnsgd1na2vs0mg"},{"bike_id":"bacddc7d-66f3-48ae-9215-ba0c6ddcc168","system_id":"levelo_inurba_marseille","lat":43.29358,"lon":5.378374,"is_reserved":false,"is_disabled":false,"rental_uris":{"android":"levelo://app?vid=bacddc7d-66f3-48ae-9215-ba0c6ddcc168","ios":"levelo://app?vid=bacddc7d-66f3-48ae-9215-ba0c6ddcc168"},"vehicle_type_id":"4","last_reported":1758611433,"current_range_meters":8800,"station_id":"ce4bgjh2rcd13ifvqbf0","pricing_plan_id":"cebpf4jnsgd1na2vs0mg"},{"bike_id":"c4f95835-6d9e-444c-b66e-44b7aa2606a9","system_id":"levelo_inurba_marseille","lat":43.24156,"lon":5.3976,"is_reserved":false,"is_disabled":false,"rental_uris":{"android":"levelo://app?vid=c4f95835-6d9e-444c-b66e-44b7aa2606a9","ios":"levelo://app?vid=c4f95835-6d9e-444c-b66e-44b7aa2606a9"},"vehicle_type_id":"4","last_reported":1758611433,"current_range_meters":9200,"station_id":"ce4bhn12rcd13ifvqgpg","pricing_plan_id":"cebpf4jnsgd1na2vs0mg"},{"bike_id":"49d9eb13-9c16-42a5-8b0a-553a0ab4ac5f","system_id":"levelo_inurba_marseille","lat":43.33625,"lon":5.40993,"is_reserved":false,"is_disabled":false,"rental_uris":{"android":"levelo://app?vid=49d9eb13-9c16-42a5-8b0a-553a0ab4ac5f","ios":"levelo://app?vid=49d9eb13-9c16-42a5-8b0a-553a0ab4ac5f"},"vehicle_type_id":"4","last_reported":1758611433,"current_range_meters":9200,"station_id":"ce4bhqh2rcd13ifvqhmg","pricing_plan_id":"cebpf4jnsgd1na2vs0mg"},{"bike_id":"d601c5ac-9f40-4413-b704-6528d37b20d6","system_id":"levelo_inurba_marseille","lat":43.29558,"lon":5.38174,"is_reserved":false,"is_disabled":true,"rental_uris":{"android":"levelo://app?vid=d601c5ac-9f40-4413-b704-6528d37b20d6","ios":"levelo://app?vid=d601c5ac-9f40-4413-b704-6528d37b20d6"},"vehicle_type_id":"4","last_reported":1758611433,"current_range_meters":9200,"station_id":"","pricing_plan_id":"cebpf4jnsgd1na2vs0mg"},{"bike_id":"23a99486-9e19-4104-8ccf-e90c497a65ae","system_id":"levelo_inurba_marseille","lat":43.28851,"lon":5.35865,"is_reserved":false,"is_disabled":false,"rental_uris":{"android":"levelo://app?vid=23a99486-9e19-4104-8ccf-e90c497a65ae","ios":"levelo://app?vid=23a99486-9e19-4104-8ccf-e90c497a65ae"},"vehicle_type_id":"4","last_reported":1758611433,"current_range_meters":9200,"station_id":"ce4bhb12rcd13ifvqem0","pricing_plan_id":"cebpf4jnsgd1na2vs0mg"},{"bike_id":"90e14a2d-1c9e-457a-a1d7-7257e3270581","system_id":"levelo_inurba_marseille","lat":43.27988,"lon":5.41663,"is_reserved":false,"is_disabled":true,"rental_uris":{"android":"levelo://app?vid=90e14a2d-1c9e-457a-a1d7-7257e3270581","ios":"levelo://app?vid=90e14a2d-1c9e-457a-a1d7-7257e3270581"},"vehicle_type_id":"4","last_reported":1758611433,"current_range_meters":9200,"station_id":"ce4bho12rcd13ifvqh1g","pricing_plan_id":"cebpf4jnsgd1na2vs0mg"},{"bike_id":"a6b4fbba-a210-4fc9-be2d-977932bad51e","system_id":"levelo_inurba_marseille","lat":43.29981,"lon":5.37185,"is_reserved":false,"is_disabled":false,"rental_uris":{"android":"levelo://app?vid=a6b4fbba-a210-4fc9-be2d-977932bad51e","ios":"levelo://app?vid=a6b4fbba-a210-4fc9-be2d-977932bad51e"},"vehicle_type_id":"4","last_reported":1758611433,"current_range_meters":9200,"station_id":"ce4bgr92rcd13ifvqc7g","pricing_plan_id":"cebpf4jnsgd1na2vs0mg"},{"bike_id":"c1d61037-553e-45cc-ab0a-e1124412b9d7","system_id":"levelo_inurba_marseille","lat":43.23177,"lon":5.39988,"is_reserved":false,"is_disabled":false,"rental_uris":{"android":"levelo://app?vid=c1d61037-553e-45cc-ab0a-e1124412b9d7","ios":"levelo://app?vid=c1d61037-553e-45cc-ab0a-e1124412b9d7"},"vehicle_type_id":"4","last_reported":1758611433,"current_range_meters":9200,"station_id":"ce4bhn12rcd13ifvqgqg","pricing_plan_id":"cebpf4jnsgd1na2vs0mg"},{"bike_id":"7d430680-5b99-4e4d-bced-5540a76e37cd","system_id":"levelo_inurba_marseille","lat":43.281509,"lon":5.426502,"is_reserved":false,"is_disabled":false,"rental_uris":{"android":"levelo://app?vid=7d430680-5b99-4e4d-bced-5540a76e37cd","ios":"levelo://app?vid=7d430680-5b99-4e4d-bced-5540a76e37cd"},"vehicle_type_id":"4","last_reported":1758611433,"current_range_meters":9600,"station_id":"ce4bhnh2rcd13ifvqgug","pricing_plan_id":"cebpf4jnsgd1na2vs0mg"},{"bike_id":"2958cf5d-bdaf-43a0-acd7-95812639df4b","system_id":"levelo_inurba_marseille","lat":43.29559,"lon":5.42284,"is_reserved":false,"is_disabled":false,"rental_uris":{"android":"levelo://app?vid=2958cf5d-bdaf-43a0-acd7-95812639df4b","ios":"levelo://app?vid=2958cf5d-bdaf-43a0-acd7-95812639df4b"},"vehicle_type_id":"4","last_reported":1758611433,"current_range_meters":9200,"station_id":"ce4bhph2rcd13ifvqhdg","pricing_plan_id":"cebpf4jnsgd1na2vs0mg"},{"bike_id":"889d2300-c498-423c-8ceb-b16ea2c56fdb","system_id":"levelo_inurba_marseille","lat":43.309497,"lon":5.390299,"is_reserved":false,"is_disabled":false,"rental_uris":{"android":"levelo://app?vid=889d2300-c498-423c-8ceb-b16ea2c56fdb","ios":"levelo://app?vid=889d2300-c498-423c-8ceb-b16ea2c56fdb"},"vehicle_type_id":"4","last_reported":1758611433,"current_range_meters":9600,"station_id":"ce4bgup2rcd13ifvqco0","pricing_plan_id":"cebpf4jnsgd1na2vs0mg"},{"bike_id":"c1098c30-802f-469d-a622-0d5b8f468640","system_id":"levelo_inurba_marseille","lat":43.24663,"lon":5.38167,"is_reserved":false,"is_disabled":false,"rental_uris":{"android":"levelo://app?vid=c1098c30-802f-469d-a622-0d5b8f468640","ios":"levelo://app?vid=c1098c30-802f-469d-a622-0d5b8f468640"},"vehicle_type_id":"4","last_reported":1758611433,"current_range_meters":9600,"station_id":"ce4bhih2rcd13ifvqfr0","pricing_plan_id":"cebpf4jnsgd1na2vs0mg"},{"bike_id":"011f84b4-5472-4c55-b6b1-385317e696e1","system_id":"levelo_inurba_marseille","lat":43.30479,"lon":5.37915,"is_reserved":false,"is_disabled":false,"rental_uris":{"android":"levelo://app?vid=011f84b4-5472-4c55-b6b1-385317e696e1","ios":"levelo://app?vid=011f84b4-5472-4c55-b6b1-385317e696e1"},"vehicle_type_id":"4","last_reported":1758611433,"current_range_meters":9600,"station_id":"ce4bgup2rcd13ifvqcn0","pricing_plan_id":"cebpf4jnsgd1na2vs0mg"},{"bike_id":"01c07ce0-570c-4b52-bda3-11cbe624d39f","system_id":"levelo_inurba_marseille","lat":43.259385,"lon":5.40903,"is_reserved":false,"is_disabled":false,"rental_uris":{"android":"levelo://app?vid=01c07ce0-570c-4b52-bda3-11cbe624d39f","ios":"levelo://app?vid=01c07ce0-570c-4b52-bda3-11cbe624d39f"},"vehicle_type_id":"4","last_reported":1758611433,"current_range_meters":9600,"station_id":"ce4bhm92rcd13ifvqglg","pricing_plan_id":"cebpf4jnsgd1na2vs0mg"},{"bike_id":"950521fc-7bb0-460c-8673-46223633df4e","system_id":"levelo_inurba_marseille","lat":43.24183,"lon":5.39729,"is_reserved":false,"is_disabled":false,"rental_uris":{"android":"levelo://app?vid=950521fc-7bb0-460c-8673-46223633df4e","ios":"levelo://app?vid=950521fc-7bb0-460c-8673-46223633df4e"},"vehicle_type_id":"4","last_reported":1758611433,"current_range_meters":10000,"station_id":"ce4bhn12rcd13ifvqgpg","pricing_plan_id":"cebpf4jnsgd1na2vs0mg"},{"bike_id":"99742242-65b4-4e57-be4f-fce52b84fb5d","system_id":"levelo_inurba_marseille","lat":43.25454,"lon":5.37634,"is_reserved":false,"is_disabled":false,"rental_uris":{"android":"levelo://app?vid=99742242-65b4-4e57-be4f-fce52b84fb5d","ios":"levelo://app?vid=99742242-65b4-4e57-be4f-fce52b84fb5d"},"vehicle_type_id":"4","last_reported":1758611433,"current_range_meters":10000,"station_id":"","pricing_plan_id":"cebpf4jnsgd1na2vs0mg"},{"bike_id":"0b2230e3-adb9-421c-91b1-c113eb397705","system_id":"levelo_inurba_marseille","lat":43.2889,"lon":5.37661,"is_reserved":false,"is_disabled":false,"rental_uris":{"android":"levelo://app?vid=0b2230e3-adb9-421c-91b1-c113eb397705","ios":"levelo://app?vid=0b2230e3-adb9-421c-91b1-c113eb397705"},"vehicle_type_id":"4","last_reported":1758611433,"current_range_meters":10000,"station_id":"","pricing_plan_id":"cebpf4jnsgd1na2vs0mg"},{"bike_id":"01689711-fb2b-48ab-ab43-64fedbf37369","system_id":"levelo_inurba_marseille","lat":43.259396,"lon":5.409044,"is_reserved":false,"is_disabled":false,"rental_uris":{"android":"levelo://app?vid=01689711-fb2b-48ab-ab43-64fedbf37369","ios":"levelo://app?vid=01689711-fb2b-48ab-ab43-64fedbf37369"},"vehicle_type_id":"4","last_reported":1758611433,"current_range_meters":10000,"station_id":"ce4bhm92rcd13ifvqglg","pricing_plan_id":"cebpf4jnsgd1na2vs0mg"},{"bike_id":"77eeb9b5-0e68-4a7b-b5d1-530ce6c04cd4","system_id":"levelo_inurba_marseille","lat":43.22929,"lon":5.35395,"is_reserved":false,"is_disabled":false,"rental_uris":{"android":"levelo://app?vid=77eeb9b5-0e68-4a7b-b5d1-530ce6c04cd4","ios":"levelo://app?vid=77eeb9b5-0e68-4a7b-b5d1-530ce6c04cd4"},"vehicle_type_id":"4","last_reported":1758611433,"current_range_meters":10000,"station_id":"cpo3532slgdg3j2ikp40","pricing_plan_id":"cebpf4jnsgd1na2vs0mg"},{"bike_id":"723b58ad-a8eb-48f1-8c17-cdfd7c839376","system_id":"levelo_inurba_marseille","lat":43.31336,"lon":5.397013,"is_reserved":false,"is_disabled":false,"rental_uris":{"android":"levelo://app?vid=723b58ad-a8eb-48f1-8c17-cdfd7c839376","ios":"levelo://app?vid=723b58ad-a8eb-48f1-8c17-cdfd7c839376"},"vehicle_type_id":"4","last_reported":1758611433,"current_range_meters":10000,"station_id":"ce4bgvp2rcd13ifvqcu0","pricing_plan_id":"cebpf4jnsgd1na2vs0mg"},{"bike_id":"e19dc2ef-7663-4a34-9840-315ac2ee5776","system_id":"levelo_inurba_marseille","lat":43.32474,"lon":5.36588,"is_reserved":false,"is_disabled":false,"rental_uris":{"android":"levelo://app?vid=e19dc2ef-7663-4a34-9840-315ac2ee5776","ios":"levelo://app?vid=e19dc2ef-7663-4a34-9840-315ac2ee5776"},"vehicle_type_id":"4","last_reported":1758611433,"current_range_meters":10000,"station_id":"ce4bhs12rcd13ifvqhvg","pricing_plan_id":"cebpf4jnsgd1na2vs0mg"},{"bike_id":"b0cf2af9-c8f7-4165-98a7-6358a8f914d1","system_id":"levelo_inurba_marseille","lat":43.27072,"lon":5.42284,"is_reserved":false,"is_disabled":false,"rental_uris":{"android":"levelo://app?vid=b0cf2af9-c8f7-4165-98a7-6358a8f914d1","ios":"levelo://app?vid=b0cf2af9-c8f7-4165-98a7-6358a8f914d1"},"vehicle_type_id":"4","last_reported":1758611433,"current_range_meters":10800,"station_id":"ce4bhk92rcd13ifvqgb0","pricing_plan_id":"cebpf4jnsgd1na2vs0mg"},{"bike_id":"ccb937b8-d5b8-4b41-ab0b-2b34b150306e","system_id":"levelo_inurba_marseille","lat":43.28937,"lon":5.36641,"is_reserved":false,"is_disabled":false,"rental_uris":{"android":"levelo://app?vid=ccb937b8-d5b8-4b41-ab0b-2b34b150306e","ios":"levelo://app?vid=ccb937b8-d5b8-4b41-ab0b-2b34b150306e"},"vehicle_type_id":"4","last_reported":1758611433,"current_range_meters":10800,"station_id":"ce4bhap2rcd13ifvqek0","pricing_plan_id":"cebpf4jnsgd1na2vs0mg"},{"bike_id":"5c0e13b0-dc88-4dad-ae05-eebf1d40089f","system_id":"levelo_inurba_marseille","lat":43.2928,"lon":5.36845,"is_reserved":false,"is_disabled":false,"rental_uris":{"android":"levelo://app?vid=5c0e13b0-dc88-4dad-ae05-eebf1d40089f","ios":"levelo://app?vid=5c0e13b0-dc88-4dad-ae05-eebf1d40089f"},"vehicle_type_id":"4","last_reported":1758611433,"current_range_meters":10800,"station_id":"ce4bhbp2rcd13ifvqesg","pricing_plan_id":"cebpf4jnsgd1na2vs0mg"},{"bike_id":"8d5a9e5a-2243-417e-9398-58e31878a41d","system_id":"levelo_inurba_marseille","lat":43.24635,"lon":5.43147,"is_reserved":false,"is_disabled":false,"rental_uris":{"android":"levelo://app?vid=8d5a9e5a-2243-417e-9398-58e31878a41d","ios":"levelo://app?vid=8d5a9e5a-2243-417e-9398-58e31878a41d"},"vehicle_type_id":"4","last_reported":1758611433,"current_range_meters":10800,"station_id":"st_d2m6c4gdas8pm72e190g","pricing_plan_id":"cebpf4jnsgd1na2vs0mg"},{"bike_id":"155d53ad-6c48-4e28-a49f-d726e6e0006f","system_id":"levelo_inurba_marseille","lat":43.30936,"lon":5.39051,"is_reserved":false,"is_disabled":false,"rental_uris":{"android":"levelo://app?vid=155d53ad-6c48-4e28-a49f-d726e6e0006f","ios":"levelo://app?vid=155d53ad-6c48-4e28-a49f-d726e6e0006f"},"vehicle_type_id":"4","last_reported":1758611433,"current_range_meters":5600,"station_id":"ce4bgup2rcd13ifvqco0","pricing_plan_id":"cebpf4jnsgd1na2vs0mg"},{"bike_id":"dd83bee8-c803-47e8-91dd-afab74068a08","system_id":"levelo_inurba_marseille","lat":43.24061,"lon":5.37767,"is_reserved":false,"is_disabled":false,"rental_uris":{"android":"levelo://app?vid=dd83bee8-c803-47e8-91dd-afab74068a08","ios":"levelo://app?vid=dd83bee8-c803-47e8-91dd-afab74068a08"},"vehicle_type_id":"4","last_reported":1758611433,"current_range_meters":10800,"station_id":"ce4bhnp2rcd13ifvqgvg","pricing_plan_id":"cebpf4jnsgd1na2vs0mg"},{"bike_id":"b2be2404-53eb-4f74-9829-8104df3de106","system_id":"levelo_inurba_marseille","lat":43.33616,"lon":5.35441,"is_reserved":false,"is_disabled":false,"rental_uris":{"android":"levelo://app?vid=b2be2404-53eb-4f74-9829-8104df3de106","ios":"levelo://app?vid=b2be2404-53eb-4f74-9829-8104df3de106"},"vehicle_type_id":"4","last_reported":1758611433,"current_range_meters":10800,"station_id":"","pricing_plan_id":"cebpf4jnsgd1na2vs0mg"},{"bike_id":"eb14e0c2-3194-45ec-8471-2fc50af87dad","system_id":"levelo_inurba_marseille","lat":43.22917,"lon":5.35384,"is_reserved":false,"is_disabled":false,"rental_uris":{"android":"levelo://app?vid=eb14e0c2-3194-45ec-8471-2fc50af87dad","ios":"levelo://app?vid=eb14e0c2-3194-45ec-8471-2fc50af87dad"},"vehicle_type_id":"4","last_reported":1758611433,"current_range_meters":11200,"station_id":"cpo3532slgdg3j2ikp40","pricing_plan_id":"cebpf4jnsgd1na2vs0mg"},{"bike_id":"1efddf8d-578f-4e4c-8c3f-e3a8bd592ba4","system_id":"levelo_inurba_marseille","lat":43.29574,"lon":5.37409,"is_reserved":false,"is_disabled":false,"rental_uris":{"android":"levelo://app?vid=1efddf8d-578f-4e4c-8c3f-e3a8bd592ba4","ios":"levelo://app?vid=1efddf8d-578f-4e4c-8c3f-e3a8bd592ba4"},"vehicle_type_id":"4","last_reported":1758611433,"current_range_meters":11200,"station_id":"","pricing_plan_id":"cebpf4jnsgd1na2vs0mg"},{"bike_id":"a91749b4-aaae-4e4f-8268-4431e262dabf","system_id":"levelo_inurba_marseille","lat":43.24163,"lon":5.39706,"is_reserved":false,"is_disabled":false,"rental_uris":{"android":"levelo://app?vid=a91749b4-aaae-4e4f-8268-4431e262dabf","ios":"levelo://app?vid=a91749b4-aaae-4e4f-8268-4431e262dabf"},"vehicle_type_id":"4","last_reported":1758611433,"current_range_meters":11200,"station_id":"ce4bhn12rcd13ifvqgpg","pricing_plan_id":"cebpf4jnsgd1na2vs0mg"},{"bike_id":"ef75d15d-c28a-4fe7-853a-ed887e41d629","system_id":"levelo_inurba_marseille","lat":43.21757,"lon":5.34618,"is_reserved":false,"is_disabled":false,"rental_uris":{"android":"levelo://app?vid=ef75d15d-c28a-4fe7-853a-ed887e41d629","ios":"levelo://app?vid=ef75d15d-c28a-4fe7-853a-ed887e41d629"},"vehicle_type_id":"4","last_reported":1758611433,"current_range_meters":11200,"station_id":"st_cvj6r9ubvosntc0bgbag","pricing_plan_id":"cebpf4jnsgd1na2vs0mg"},{"bike_id":"7efc364d-bc6c-4387-be38-16e92a4acdb7","system_id":"levelo_inurba_marseille","lat":43.25001,"lon":5.38926,"is_reserved":false,"is_disabled":false,"rental_uris":{"android":"levelo://app?vid=7efc364d-bc6c-4387-be38-16e92a4acdb7","ios":"levelo://app?vid=7efc364d-bc6c-4387-be38-16e92a4acdb7"},"vehicle_type_id":"4","last_reported":1758611433,"current_range_meters":11200,"station_id":"ce4bhgp2rcd13ifvqfd0","pricing_plan_id":"cebpf4jnsgd1na2vs0mg"},{"bike_id":"5923b342-719e-4cbf-b408-19b6a9d906d5","system_id":"levelo_inurba_marseille","lat":43.24998,"lon":5.38932,"is_reserved":false,"is_disabled":false,"rental_uris":{"android":"levelo://app?vid=5923b342-719e-4cbf-b408-19b6a9d906d5","ios":"levelo://app?vid=5923b342-719e-4cbf-b408-19b6a9d906d5"},"vehicle_type_id":"4","last_reported":1758611433,"current_range_meters":11200,"station_id":"ce4bhgp2rcd13ifvqfd0","pricing_plan_id":"cebpf4jnsgd1na2vs0mg"},{"bike_id":"94d430e6-52b3-4d21-80c9-c6dd4519a8fb","system_id":"levelo_inurba_marseille","lat":43.31776,"lon":5.38292,"is_reserved":false,"is_disabled":false,"rental_uris":{"android":"levelo://app?vid=94d430e6-52b3-4d21-80c9-c6dd4519a8fb","ios":"levelo://app?vid=94d430e6-52b3-4d21-80c9-c6dd4519a8fb"},"vehicle_type_id":"4","last_reported":1758611433,"current_range_meters":11200,"station_id":"","pricing_plan_id":"cebpf4jnsgd1na2vs0mg"},{"bike_id":"4bd99102-57b6-4acf-a1f9-d448906c94db","system_id":"levelo_inurba_marseille","lat":43.24172,"lon":5.36413,"is_reserved":false,"is_disabled":false,"rental_uris":{"android":"levelo://app?vid=4bd99102-57b6-4acf-a1f9-d448906c94db","ios":"levelo://app?vid=4bd99102-57b6-4acf-a1f9-d448906c94db"},"vehicle_type_id":"4","last_reported":1758611433,"current_range_meters":11200,"station_id":"cpo36qri1sfpv3e86is0","pricing_plan_id":"cebpf4jnsgd1na2vs0mg"},{"bike_id":"8ec75b03-7872-4f1a-b0a8-f1f6268f3e53","system_id":"levelo_inurba_marseille","lat":43.33594,"lon":5.41046,"is_reserved":false,"is_disabled":false,"rental_uris":{"android":"levelo://app?vid=8ec75b03-7872-4f1a-b0a8-f1f6268f3e53","ios":"levelo://app?vid=8ec75b03-7872-4f1a-b0a8-f1f6268f3e53"},"vehicle_type_id":"4","last_reported":1758611433,"current_range_meters":11200,"station_id":"ce4bhqh2rcd13ifvqhmg","pricing_plan_id":"cebpf4jnsgd1na2vs0mg"},{"bike_id":"f14f0085-2f3a-4298-b969-55075656919b","system_id":"levelo_inurba_marseille","lat":43.30464,"lon":5.379115,"is_reserved":false,"is_disabled":false,"rental_uris":{"android":"levelo://app?vid=f14f0085-2f3a-4298-b969-55075656919b","ios":"levelo://app?vid=f14f0085-2f3a-4298-b969-55075656919b"},"vehicle_type_id":"4","last_reported":1758611433,"current_range_meters":11200,"station_id":"ce4bgup2rcd13ifvqcn0","pricing_plan_id":"cebpf4jnsgd1na2vs0mg"},{"bike_id":"156ba3ee-2d05-4060-9b3c-44e608592be0","system_id":"levelo_inurba_marseille","lat":43.27991,"lon":5.41677,"is_reserved":false,"is_disabled":true,"rental_uris":{"android":"levelo://app?vid=156ba3ee-2d05-4060-9b3c-44e608592be0","ios":"levelo://app?vid=156ba3ee-2d05-4060-9b3c-44e608592be0"},"vehicle_type_id":"4","last_reported":1758611433,"current_range_meters":11200,"station_id":"ce4bho12rcd13ifvqh1g","pricing_plan_id":"cebpf4jnsgd1na2vs0mg"},{"bike_id":"239c893c-a482-4890-a8d0-83cba2bbb59d","system_id":"levelo_inurba_marseille","lat":43.24543,"lon":5.39534,"is_reserved":false,"is_disabled":false,"rental_uris":{"android":"levelo://app?vid=239c893c-a482-4890-a8d0-83cba2bbb59d","ios":"levelo://app?vid=239c893c-a482-4890-a8d0-83cba2bbb59d"},"vehicle_type_id":"4","last_reported":1758611433,"current_range_meters":11200,"station_id":"ce4bhlp2rcd13ifvqgjg","pricing_plan_id":"cebpf4jnsgd1na2vs0mg"},{"bike_id":"d97aa819-cdd6-433c-8c50-6fca79c707b6","system_id":"levelo_inurba_marseille","lat":43.2991,"lon":5.38151,"is_reserved":false,"is_disabled":false,"rental_uris":{"android":"levelo://app?vid=d97aa819-cdd6-433c-8c50-6fca79c707b6","ios":"levelo://app?vid=d97aa819-cdd6-433c-8c50-6fca79c707b6"},"vehicle_type_id":"4","last_reported":1758611433,"current_range_meters":11600,"station_id":"ce4bgj12rcd13ifvqbc0","pricing_plan_id":"cebpf4jnsgd1na2vs0mg"},{"bike_id":"5ecad78b-2f22-4b82-8e80-32fe66b360cc","system_id":"levelo_inurba_marseille","lat":43.28939,"lon":5.36402,"is_reserved":false,"is_disabled":false,"rental_uris":{"android":"levelo://app?vid=5ecad78b-2f22-4b82-8e80-32fe66b360cc","ios":"levelo://app?vid=5ecad78b-2f22-4b82-8e80-32fe66b360cc"},"vehicle_type_id":"4","last_reported":1758611433,"current_range_meters":11600,"station_id":"ce4bhc92rcd13ifvqetg","pricing_plan_id":"cebpf4jnsgd1na2vs0mg"},{"bike_id":"42c265b9-ed01-4e09-bfe4-f16370266a80","system_id":"levelo_inurba_marseille","lat":43.260346,"lon":5.386899,"is_reserved":false,"is_disabled":false,"rental_uris":{"android":"levelo://app?vid=42c265b9-ed01-4e09-bfe4-f16370266a80","ios":"levelo://app?vid=42c265b9-ed01-4e09-bfe4-f16370266a80"},"vehicle_type_id":"4","last_reported":1758611433,"current_range_meters":11200,"station_id":"ce4bhih2rcd13ifvqfs0","pricing_plan_id":"cebpf4jnsgd1na2vs0mg"},{"bike_id":"05ffe9a6-4a01-4566-a6c5-04b47ca5b439","system_id":"levelo_inurba_marseille","lat":43.24075,"lon":5.37777,"is_reserved":false,"is_disabled":false,"rental_uris":{"android":"levelo://app?vid=05ffe9a6-4a01-4566-a6c5-04b47ca5b439","ios":"levelo://app?vid=05ffe9a6-4a01-4566-a6c5-04b47ca5b439"},"vehicle_type_id":"4","last_reported":1758611433,"current_range_meters":12000,"station_id":"ce4bhnp2rcd13ifvqgvg","pricing_plan_id":"cebpf4jnsgd1na2vs0mg"},{"bike_id":"a7a8b6c6-999f-4a84-a1be-158d5b45a56b","system_id":"levelo_inurba_marseille","lat":43.25924,"lon":5.40885,"is_reserved":false,"is_disabled":false,"rental_uris":{"android":"levelo://app?vid=a7a8b6c6-999f-4a84-a1be-158d5b45a56b","ios":"levelo://app?vid=a7a8b6c6-999f-4a84-a1be-158d5b45a56b"},"vehicle_type_id":"4","last_reported":1758611433,"current_range_meters":11600,"station_id":"ce4bhm92rcd13ifvqglg","pricing_plan_id":"cebpf4jnsgd1na2vs0mg"},{"bike_id":"3bfc7233-1d4c-4ab0-aa6d-49f172a59866","system_id":"levelo_inurba_marseille","lat":43.32961,"lon":5.41395,"is_reserved":false,"is_disabled":false,"rental_uris":{"android":"levelo://app?vid=3bfc7233-1d4c-4ab0-aa6d-49f172a59866","ios":"levelo://app?vid=3bfc7233-1d4c-4ab0-aa6d-49f172a59866"},"vehicle_type_id":"4","last_reported":1758611433,"current_range_meters":11600,"station_id":"ce4bhqh2rcd13ifvqhmg","pricing_plan_id":"cebpf4jnsgd1na2vs0mg"},{"bike_id":"e928cb80-192e-403c-981a-31571abb9cb0","system_id":"levelo_inurba_marseille","lat":43.23189,"lon":5.39991,"is_reserved":false,"is_disabled":true,"rental_uris":{"android":"levelo://app?vid=e928cb80-192e-403c-981a-31571abb9cb0","ios":"levelo://app?vid=e928cb80-192e-403c-981a-31571abb9cb0"},"vehicle_type_id":"4","last_reported":1758611433,"current_range_meters":11600,"station_id":"ce4bhn12rcd13ifvqgqg","pricing_plan_id":"cebpf4jnsgd1na2vs0mg"},{"bike_id":"8b852b66-fb7e-4535-92fe-73c711cb13c6","system_id":"levelo_inurba_marseille","lat":43.30793,"lon":5.37656,"is_reserved":false,"is_disabled":false,"rental_uris":{"android":"levelo://app?vid=8b852b66-fb7e-4535-92fe-73c711cb13c6","ios":"levelo://app?vid=8b852b66-fb7e-4535-92fe-73c711cb13c6"},"vehicle_type_id":"4","last_reported":1758611433,"current_range_meters":11600,"station_id":"ce4bgrp2rcd13ifvqc9g","pricing_plan_id":"cebpf4jnsgd1na2vs0mg"},{"bike_id":"73ef818b-0f41-47ab-9dce-e4a4f3926d95","system_id":"levelo_inurba_marseille","lat":43.2718,"lon":5.41001,"is_reserved":false,"is_disabled":false,"rental_uris":{"android":"levelo://app?vid=73ef818b-0f41-47ab-9dce-e4a4f3926d95","ios":"levelo://app?vid=73ef818b-0f41-47ab-9dce-e4a4f3926d95"},"vehicle_type_id":"4","last_reported":1758611433,"current_range_meters":11600,"station_id":"ce4bhl12rcd13ifvqgf0","pricing_plan_id":"cebpf4jnsgd1na2vs0mg"},{"bike_id":"ca5043d1-e787-444b-ab15-85713ac21934","system_id":"levelo_inurba_marseille","lat":43.25938,"lon":5.40916,"is_reserved":false,"is_disabled":false,"rental_uris":{"android":"levelo://app?vid=ca5043d1-e787-444b-ab15-85713ac21934","ios":"levelo://app?vid=ca5043d1-e787-444b-ab15-85713ac21934"},"vehicle_type_id":"4","last_reported":1758611433,"current_range_meters":12000,"station_id":"ce4bhm92rcd13ifvqglg","pricing_plan_id":"cebpf4jnsgd1na2vs0mg"},{"bike_id":"7262bd76-e709-408d-b05c-a8dd1c302429","system_id":"levelo_inurba_marseille","lat":43.30277,"lon":5.37689,"is_reserved":false,"is_disabled":false,"rental_uris":{"android":"levelo://app?vid=7262bd76-e709-408d-b05c-a8dd1c302429","ios":"levelo://app?vid=7262bd76-e709-408d-b05c-a8dd1c302429"},"vehicle_type_id":"4","last_reported":1758611433,"current_range_meters":12000,"station_id":"ce4bguh2rcd13ifvqcj0","pricing_plan_id":"cebpf4jnsgd1na2vs0mg"},{"bike_id":"30a45839-bcf9-4766-8e20-c8b30ef16a15","system_id":"levelo_inurba_marseille","lat":43.32331,"lon":5.40649,"is_reserved":false,"is_disabled":false,"rental_uris":{"android":"levelo://app?vid=30a45839-bcf9-4766-8e20-c8b30ef16a15","ios":"levelo://app?vid=30a45839-bcf9-4766-8e20-c8b30ef16a15"},"vehicle_type_id":"4","last_reported":1758611433,"current_range_meters":12000,"station_id":"ce4bhq92rcd13ifvqhjg","pricing_plan_id":"cebpf4jnsgd1na2vs0mg"},{"bike_id":"0ceafd37-2aa0-4518-a2ed-2ee38ccb4b03","system_id":"levelo_inurba_marseille","lat":43.24084,"lon":5.37753,"is_reserved":false,"is_disabled":false,"rental_uris":{"android":"levelo://app?vid=0ceafd37-2aa0-4518-a2ed-2ee38ccb4b03","ios":"levelo://app?vid=0ceafd37-2aa0-4518-a2ed-2ee38ccb4b03"},"vehicle_type_id":"4","last_reported":1758611433,"current_range_meters":12000,"station_id":"ce4bhnp2rcd13ifvqgvg","pricing_plan_id":"cebpf4jnsgd1na2vs0mg"},{"bike_id":"03d66478-c49f-4af7-8312-69d1c75a1906","system_id":"levelo_inurba_marseille","lat":43.29988,"lon":5.37185,"is_reserved":false,"is_disabled":false,"rental_uris":{"android":"levelo://app?vid=03d66478-c49f-4af7-8312-69d1c75a1906","ios":"levelo://app?vid=03d66478-c49f-4af7-8312-69d1c75a1906"},"vehicle_type_id":"4","last_reported":1758611433,"current_range_meters":12000,"station_id":"ce4bgr92rcd13ifvqc7g","pricing_plan_id":"cebpf4jnsgd1na2vs0mg"},{"bike_id":"34072093-f9b6-4017-998e-95b181d82c91","system_id":"levelo_inurba_marseille","lat":43.294531,"lon":5.388318,"is_reserved":false,"is_disabled":false,"rental_uris":{"android":"levelo://app?vid=34072093-f9b6-4017-998e-95b181d82c91","ios":"levelo://app?vid=34072093-f9b6-4017-998e-95b181d82c91"},"vehicle_type_id":"4","last_reported":1758611433,"current_range_meters":12000,"station_id":"","pricing_plan_id":"cebpf4jnsgd1na2vs0mg"},{"bike_id":"8d243e83-cc74-44d3-bf18-f20421549672","system_id":"levelo_inurba_marseille","lat":43.289261,"lon":5.359256,"is_reserved":false,"is_disabled":false,"rental_uris":{"android":"levelo://app?vid=8d243e83-cc74-44d3-bf18-f20421549672","ios":"levelo://app?vid=8d243e83-cc74-44d3-bf18-f20421549672"},"vehicle_type_id":"4","last_reported":1758611433,"current_range_meters":12000,"station_id":"","pricing_plan_id":"cebpf4jnsgd1na2vs0mg"},{"bike_id":"fba19968-2566-4703-a008-8eddd0622987","system_id":"levelo_inurba_marseille","lat":43.3248,"lon":5.36573,"is_reserved":false,"is_disabled":false,"rental_uris":{"android":"levelo://app?vid=fba19968-2566-4703-a008-8eddd0622987","ios":"levelo://app?vid=fba19968-2566-4703-a008-8eddd0622987"},"vehicle_type_id":"4","last_reported":1758611433,"current_range_meters":12000,"station_id":"ce4bhs12rcd13ifvqhvg","pricing_plan_id":"cebpf4jnsgd1na2vs0mg"},{"bike_id":"acd69273-9115-4c3f-9400-d9fa46eb8c71","system_id":"levelo_inurba_marseille","lat":43.26939,"lon":5.38917,"is_reserved":false,"is_disabled":false,"rental_uris":{"android":"levelo://app?vid=acd69273-9115-4c3f-9400-d9fa46eb8c71","ios":"levelo://app?vid=acd69273-9115-4c3f-9400-d9fa46eb8c71"},"vehicle_type_id":"4","last_reported":1758611433,"current_range_meters":12400,"station_id":"ce4bhhh2rcd13ifvqfl0","pricing_plan_id":"cebpf4jnsgd1na2vs0mg"},{"bike_id":"5337dcdc-c6f5-44ae-a466-a1ebe14dfbb3","system_id":"levelo_inurba_marseille","lat":43.24171,"lon":5.36424,"is_reserved":false,"is_disabled":false,"rental_uris":{"android":"levelo://app?vid=5337dcdc-c6f5-44ae-a466-a1ebe14dfbb3","ios":"levelo://app?vid=5337dcdc-c6f5-44ae-a466-a1ebe14dfbb3"},"vehicle_type_id":"4","last_reported":1758611433,"current_range_meters":12400,"station_id":"cpo36qri1sfpv3e86is0","pricing_plan_id":"cebpf4jnsgd1na2vs0mg"},{"bike_id":"51a9c263-d6ee-4c02-8240-84e51c074158","system_id":"levelo_inurba_marseille","lat":43.31687,"lon":5.43685,"is_reserved":false,"is_disabled":false,"rental_uris":{"android":"levelo://app?vid=51a9c263-d6ee-4c02-8240-84e51c074158","ios":"levelo://app?vid=51a9c263-d6ee-4c02-8240-84e51c074158"},"vehicle_type_id":"4","last_reported":1758611433,"current_range_meters":12400,"station_id":"ce4bhp92rcd13ifvqhcg","pricing_plan_id":"cebpf4jnsgd1na2vs0mg"},{"bike_id":"32f4cd6f-4e94-4c59-93a4-798d16693bff","system_id":"levelo_inurba_marseille","lat":43.2594,"lon":5.40913,"is_reserved":false,"is_disabled":false,"rental_uris":{"android":"levelo://app?vid=32f4cd6f-4e94-4c59-93a4-798d16693bff","ios":"levelo://app?vid=32f4cd6f-4e94-4c59-93a4-798d16693bff"},"vehicle_type_id":"4","last_reported":1758611433,"current_range_meters":12800,"station_id":"ce4bhm92rcd13ifvqglg","pricing_plan_id":"cebpf4jnsgd1na2vs0mg"},{"bike_id":"c8a40297-3031-42d7-9046-86d186c76d67","system_id":"levelo_inurba_marseille","lat":43.27495,"lon":5.42437,"is_reserved":false,"is_disabled":false,"rental_uris":{"android":"levelo://app?vid=c8a40297-3031-42d7-9046-86d186c76d67","ios":"levelo://app?vid=c8a40297-3031-42d7-9046-86d186c76d67"},"vehicle_type_id":"4","last_reported":1758611433,"current_range_meters":12800,"station_id":"ce4bhn92rcd13ifvqgrg","pricing_plan_id":"cebpf4jnsgd1na2vs0mg"},{"bike_id":"beb42e98-dff7-41f2-be88-1fa7f6f0819a","system_id":"levelo_inurba_marseille","lat":43.25344,"lon":5.42179,"is_reserved":false,"is_disabled":false,"rental_uris":{"android":"levelo://app?vid=beb42e98-dff7-41f2-be88-1fa7f6f0819a","ios":"levelo://app?vid=beb42e98-dff7-41f2-be88-1fa7f6f0819a"},"vehicle_type_id":"4","last_reported":1758611433,"current_range_meters":12800,"station_id":"st_d2m65c5bi1j21697t3ng","pricing_plan_id":"cebpf4jnsgd1na2vs0mg"},{"bike_id":"5b1a36c8-304b-48bf-aa9d-28113bdf9ed6","system_id":"levelo_inurba_marseille","lat":43.3039,"lon":5.42492,"is_reserved":false,"is_disabled":false,"rental_uris":{"android":"levelo://app?vid=5b1a36c8-304b-48bf-aa9d-28113bdf9ed6","ios":"levelo://app?vid=5b1a36c8-304b-48bf-aa9d-28113bdf9ed6"},"vehicle_type_id":"4","last_reported":1758611433,"current_range_meters":12800,"station_id":"ce4bhoh2rcd13ifvqh6g","pricing_plan_id":"cebpf4jnsgd1na2vs0mg"},{"bike_id":"d357d2f0-6140-4621-9e4f-aa5ee387565d","system_id":"levelo_inurba_marseille","lat":43.27185,"lon":5.41,"is_reserved":false,"is_disabled":false,"rental_uris":{"android":"levelo://app?vid=d357d2f0-6140-4621-9e4f-aa5ee387565d","ios":"levelo://app?vid=d357d2f0-6140-4621-9e4f-aa5ee387565d"},"vehicle_type_id":"4","last_reported":1758611433,"current_range_meters":13600,"station_id":"ce4bhl12rcd13ifvqgf0","pricing_plan_id":"cebpf4jnsgd1na2vs0mg"},{"bike_id":"e688bc1c-0263-4a47-a830-254b589086aa","system_id":"levelo_inurba_marseille","lat":43.30912,"lon":5.36853,"is_reserved":false,"is_disabled":false,"rental_uris":{"android":"levelo://app?vid=e688bc1c-0263-4a47-a830-254b589086aa","ios":"levelo://app?vid=e688bc1c-0263-4a47-a830-254b589086aa"},"vehicle_type_id":"4","last_reported":1758611433,"current_range_meters":13600,"station_id":"ce4bgn92rcd13ifvqbvg","pricing_plan_id":"cebpf4jnsgd1na2vs0mg"},{"bike_id":"ddfb50f5-9d4d-4dc8-9814-65e6ca0416b9","system_id":"levelo_inurba_marseille","lat":43.31351,"lon":5.36778,"is_reserved":false,"is_disabled":false,"rental_uris":{"android":"levelo://app?vid=ddfb50f5-9d4d-4dc8-9814-65e6ca0416b9","ios":"levelo://app?vid=ddfb50f5-9d4d-4dc8-9814-65e6ca0416b9"},"vehicle_type_id":"4","last_reported":1758611433,"current_range_meters":13600,"station_id":"ce4bgr92rcd13ifvqc6g","pricing_plan_id":"cebpf4jnsgd1na2vs0mg"},{"bike_id":"09da0cf8-592d-4b7c-91f4-1d1e5551047b","system_id":"levelo_inurba_marseille","lat":43.289788,"lon":5.378392,"is_reserved":false,"is_disabled":false,"rental_uris":{"android":"levelo://app?vid=09da0cf8-592d-4b7c-91f4-1d1e5551047b","ios":"levelo://app?vid=09da0cf8-592d-4b7c-91f4-1d1e5551047b"},"vehicle_type_id":"4","last_reported":1758611433,"current_range_meters":13600,"station_id":"ce4bht12rcd13ifvqi60","pricing_plan_id":"cebpf4jnsgd1na2vs0mg"},{"bike_id":"6d37a9bc-58da-48d0-af29-c0508dfff581","system_id":"levelo_inurba_marseille","lat":43.25939,"lon":5.409036,"is_reserved":false,"is_disabled":false,"rental_uris":{"android":"levelo://app?vid=6d37a9bc-58da-48d0-af29-c0508dfff581","ios":"levelo://app?vid=6d37a9bc-58da-48d0-af29-c0508dfff581"},"vehicle_type_id":"4","last_reported":1758611433,"current_range_meters":14000,"station_id":"ce4bhm92rcd13ifvqglg","pricing_plan_id":"cebpf4jnsgd1na2vs0mg"},{"bike_id":"5b56ae56-3f83-4f3a-bf98-57685dc316b9","system_id":"levelo_inurba_marseille","lat":43.32479,"lon":5.36558,"is_reserved":false,"is_disabled":false,"rental_uris":{"android":"levelo://app?vid=5b56ae56-3f83-4f3a-bf98-57685dc316b9","ios":"levelo://app?vid=5b56ae56-3f83-4f3a-bf98-57685dc316b9"},"vehicle_type_id":"4","last_reported":1758611433,"current_range_meters":14000,"station_id":"ce4bhs12rcd13ifvqhvg","pricing_plan_id":"cebpf4jnsgd1na2vs0mg"},{"bike_id":"2db17ebf-30c0-4484-b4df-5e514cd2afe3","system_id":"levelo_inurba_marseille","lat":43.23963,"lon":5.3663,"is_reserved":false,"is_disabled":false,"rental_uris":{"android":"levelo://app?vid=2db17ebf-30c0-4484-b4df-5e514cd2afe3","ios":"levelo://app?vid=2db17ebf-30c0-4484-b4df-5e514cd2afe3"},"vehicle_type_id":"4","last_reported":1758611433,"current_range_meters":14000,"station_id":"ce4bhi12rcd13ifvqfp0","pricing_plan_id":"cebpf4jnsgd1na2vs0mg"},{"bike_id":"c641d20c-51f8-48fd-b454-a4988dd58c2a","system_id":"levelo_inurba_marseille","lat":43.24664,"lon":5.3816,"is_reserved":false,"is_disabled":false,"rental_uris":{"android":"levelo://app?vid=c641d20c-51f8-48fd-b454-a4988dd58c2a","ios":"levelo://app?vid=c641d20c-51f8-48fd-b454-a4988dd58c2a"},"vehicle_type_id":"4","last_reported":1758611433,"current_range_meters":14000,"station_id":"ce4bhih2rcd13ifvqfr0","pricing_plan_id":"cebpf4jnsgd1na2vs0mg"},{"bike_id":"2a2f1ce0-5eb2-4ab6-a692-64d9649dcb94","system_id":"levelo_inurba_marseille","lat":43.22568,"lon":5.41648,"is_reserved":false,"is_disabled":false,"rental_uris":{"android":"levelo://app?vid=2a2f1ce0-5eb2-4ab6-a692-64d9649dcb94","ios":"levelo://app?vid=2a2f1ce0-5eb2-4ab6-a692-64d9649dcb94"},"vehicle_type_id":"4","last_reported":1758611433,"current_range_meters":14000,"station_id":"st_d2o4gvlbi1j2169b742g","pricing_plan_id":"cebpf4jnsgd1na2vs0mg"},{"bike_id":"cd32d5fa-71cf-4797-acec-fc5460711915","system_id":"levelo_inurba_marseille","lat":43.25726,"lon":5.41097,"is_reserved":false,"is_disabled":true,"rental_uris":{"android":"levelo://app?vid=cd32d5fa-71cf-4797-acec-fc5460711915","ios":"levelo://app?vid=cd32d5fa-71cf-4797-acec-fc5460711915"},"vehicle_type_id":"4","last_reported":1758611433,"current_range_meters":14000,"station_id":"ce4bhkp2rcd13ifvqgd0","pricing_plan_id":"cebpf4jnsgd1na2vs0mg"},{"bike_id":"eba01587-aeed-4123-b2ce-9abc98879f91","system_id":"levelo_inurba_marseille","lat":43.27085,"lon":5.42296,"is_reserved":false,"is_disabled":false,"rental_uris":{"android":"levelo://app?vid=eba01587-aeed-4123-b2ce-9abc98879f91","ios":"levelo://app?vid=eba01587-aeed-4123-b2ce-9abc98879f91"},"vehicle_type_id":"4","last_reported":1758611433,"current_range_meters":14400,"station_id":"ce4bhk92rcd13ifvqgb0","pricing_plan_id":"cebpf4jnsgd1na2vs0mg"},{"bike_id":"0d93d80f-23fc-4b4f-918d-28fde704208b","system_id":"levelo_inurba_marseille","lat":43.24177,"lon":5.36427,"is_reserved":false,"is_disabled":false,"rental_uris":{"android":"levelo://app?vid=0d93d80f-23fc-4b4f-918d-28fde704208b","ios":"levelo://app?vid=0d93d80f-23fc-4b4f-918d-28fde704208b"},"vehicle_type_id":"4","last_reported":1758611433,"current_range_meters":14400,"station_id":"cpo36qri1sfpv3e86is0","pricing_plan_id":"cebpf4jnsgd1na2vs0mg"},{"bike_id":"da64a509-72ad-45f0-a9bf-3cc012993de2","system_id":"levelo_inurba_marseille","lat":43.29706,"lon":5.36624,"is_reserved":false,"is_disabled":true,"rental_uris":{"android":"levelo://app?vid=da64a509-72ad-45f0-a9bf-3cc012993de2","ios":"levelo://app?vid=da64a509-72ad-45f0-a9bf-3cc012993de2"},"vehicle_type_id":"4","last_reported":1758611433,"current_range_meters":14400,"station_id":"ce4bgn12rcd13ifvqbt0","pricing_plan_id":"cebpf4jnsgd1na2vs0mg"},{"bike_id":"e9367d39-b6b6-49f7-a927-f20392264ccb","system_id":"levelo_inurba_marseille","lat":43.273581,"lon":5.362426,"is_reserved":false,"is_disabled":false,"rental_uris":{"android":"levelo://app?vid=e9367d39-b6b6-49f7-a927-f20392264ccb","ios":"levelo://app?vid=e9367d39-b6b6-49f7-a927-f20392264ccb"},"vehicle_type_id":"4","last_reported":1758611433,"current_range_meters":14400,"station_id":"ce4bhbh2rcd13ifvqeo0","pricing_plan_id":"cebpf4jnsgd1na2vs0mg"},{"bike_id":"3a2f0200-19f6-4563-8356-bbb5c698396a","system_id":"levelo_inurba_marseille","lat":43.21751,"lon":5.34606,"is_reserved":false,"is_disabled":false,"rental_uris":{"android":"levelo://app?vid=3a2f0200-19f6-4563-8356-bbb5c698396a","ios":"levelo://app?vid=3a2f0200-19f6-4563-8356-bbb5c698396a"},"vehicle_type_id":"4","last_reported":1758611433,"current_range_meters":14400,"station_id":"st_cvj6r9ubvosntc0bgbag","pricing_plan_id":"cebpf4jnsgd1na2vs0mg"},{"bike_id":"b459244b-d61d-4072-8513-1c5324b74b98","system_id":"levelo_inurba_marseille","lat":43.30904,"lon":5.36848,"is_reserved":false,"is_disabled":false,"rental_uris":{"android":"levelo://app?vid=b459244b-d61d-4072-8513-1c5324b74b98","ios":"levelo://app?vid=b459244b-d61d-4072-8513-1c5324b74b98"},"vehicle_type_id":"4","last_reported":1758611433,"current_range_meters":14400,"station_id":"ce4bgn92rcd13ifvqbvg","pricing_plan_id":"cebpf4jnsgd1na2vs0mg"},{"bike_id":"cfc80a43-2d16-4b63-be05-5d4bc0e458a9","system_id":"levelo_inurba_marseille","lat":43.292678,"lon":5.400932,"is_reserved":false,"is_disabled":false,"rental_uris":{"android":"levelo://app?vid=cfc80a43-2d16-4b63-be05-5d4bc0e458a9","ios":"levelo://app?vid=cfc80a43-2d16-4b63-be05-5d4bc0e458a9"},"vehicle_type_id":"4","last_reported":1758611433,"current_range_meters":14800,"station_id":"ce4bh312rcd13ifvqdk0","pricing_plan_id":"cebpf4jnsgd1na2vs0mg"},{"bike_id":"ab680727-f299-4762-905c-8013eef6b11f","system_id":"levelo_inurba_marseille","lat":43.309484,"lon":5.390277,"is_reserved":false,"is_disabled":false,"rental_uris":{"android":"levelo://app?vid=ab680727-f299-4762-905c-8013eef6b11f","ios":"levelo://app?vid=ab680727-f299-4762-905c-8013eef6b11f"},"vehicle_type_id":"4","last_reported":1758611433,"current_range_meters":14800,"station_id":"ce4bgup2rcd13ifvqco0","pricing_plan_id":"cebpf4jnsgd1na2vs0mg"},{"bike_id":"2d87fd37-542a-42d0-b0b0-9ec6a0ac9730","system_id":"levelo_inurba_marseille","lat":43.26196,"lon":5.37486,"is_reserved":false,"is_disabled":false,"rental_uris":{"android":"levelo://app?vid=2d87fd37-542a-42d0-b0b0-9ec6a0ac9730","ios":"levelo://app?vid=2d87fd37-542a-42d0-b0b0-9ec6a0ac9730"},"vehicle_type_id":"4","last_reported":1758611433,"current_range_meters":14800,"station_id":"","pricing_plan_id":"cebpf4jnsgd1na2vs0mg"},{"bike_id":"ffa81433-6c41-45dd-892a-4ceb78340aa7","system_id":"levelo_inurba_marseille","lat":43.260806,"lon":5.406731,"is_reserved":false,"is_disabled":false,"rental_uris":{"android":"levelo://app?vid=ffa81433-6c41-45dd-892a-4ceb78340aa7","ios":"levelo://app?vid=ffa81433-6c41-45dd-892a-4ceb78340aa7"},"vehicle_type_id":"4","last_reported":1758611433,"current_range_meters":14800,"station_id":"ce4bhkp2rcd13ifvqgd0","pricing_plan_id":"cebpf4jnsgd1na2vs0mg"},{"bike_id":"b30f9f3b-7927-469a-abd4-f1fe9c24fa43","system_id":"levelo_inurba_marseille","lat":43.32292,"lon":5.3828,"is_reserved":false,"is_disabled":false,"rental_uris":{"android":"levelo://app?vid=b30f9f3b-7927-469a-abd4-f1fe9c24fa43","ios":"levelo://app?vid=b30f9f3b-7927-469a-abd4-f1fe9c24fa43"},"vehicle_type_id":"4","last_reported":1758611433,"current_range_meters":14800,"station_id":"ce4bhr12rcd13ifvqhqg","pricing_plan_id":"cebpf4jnsgd1na2vs0mg"},{"bike_id":"30bb83fe-1759-4439-94c7-873da2c2a5e5","system_id":"levelo_inurba_marseille","lat":43.23143,"lon":5.43731,"is_reserved":false,"is_disabled":false,"rental_uris":{"android":"levelo://app?vid=30bb83fe-1759-4439-94c7-873da2c2a5e5","ios":"levelo://app?vid=30bb83fe-1759-4439-94c7-873da2c2a5e5"},"vehicle_type_id":"4","last_reported":1758611433,"current_range_meters":14800,"station_id":"ce4bhmp2rcd13ifvqgog","pricing_plan_id":"cebpf4jnsgd1na2vs0mg"},{"bike_id":"dbda0f9b-f10d-4368-94b9-da813112fe99","system_id":"levelo_inurba_marseille","lat":43.33602,"lon":5.41013,"is_reserved":false,"is_disabled":false,"rental_uris":{"android":"levelo://app?vid=dbda0f9b-f10d-4368-94b9-da813112fe99","ios":"levelo://app?vid=dbda0f9b-f10d-4368-94b9-da813112fe99"},"vehicle_type_id":"4","last_reported":1758611433,"current_range_meters":14800,"station_id":"ce4bhqh2rcd13ifvqhmg","pricing_plan_id":"cebpf4jnsgd1na2vs0mg"},{"bike_id":"236b0c98-95eb-4d0b-96a2-c958537bffce","system_id":"levelo_inurba_marseille","lat":43.32475,"lon":5.36589,"is_reserved":false,"is_disabled":false,"rental_uris":{"android":"levelo://app?vid=236b0c98-95eb-4d0b-96a2-c958537bffce","ios":"levelo://app?vid=236b0c98-95eb-4d0b-96a2-c958537bffce"},"vehicle_type_id":"4","last_reported":1758611433,"current_range_meters":14800,"station_id":"ce4bhs12rcd13ifvqhvg","pricing_plan_id":"cebpf4jnsgd1na2vs0mg"},{"bike_id":"ed883389-1672-49b0-a5c4-8def0ee0fc42","system_id":"levelo_inurba_marseille","lat":43.27487,"lon":5.42457,"is_reserved":false,"is_disabled":false,"rental_uris":{"android":"levelo://app?vid=ed883389-1672-49b0-a5c4-8def0ee0fc42","ios":"levelo://app?vid=ed883389-1672-49b0-a5c4-8def0ee0fc42"},"vehicle_type_id":"4","last_reported":1758611433,"current_range_meters":15200,"station_id":"ce4bhn92rcd13ifvqgrg","pricing_plan_id":"cebpf4jnsgd1na2vs0mg"},{"bike_id":"36f59c8d-fcf6-4ab2-8f57-cf61bb820dbb","system_id":"levelo_inurba_marseille","lat":43.259386,"lon":5.409024,"is_reserved":false,"is_disabled":false,"rental_uris":{"android":"levelo://app?vid=36f59c8d-fcf6-4ab2-8f57-cf61bb820dbb","ios":"levelo://app?vid=36f59c8d-fcf6-4ab2-8f57-cf61bb820dbb"},"vehicle_type_id":"4","last_reported":1758611433,"current_range_meters":15200,"station_id":"ce4bhm92rcd13ifvqglg","pricing_plan_id":"cebpf4jnsgd1na2vs0mg"},{"bike_id":"723cb045-22d5-41e7-9e37-726f3eb8c03f","system_id":"levelo_inurba_marseille","lat":43.30145,"lon":5.37417,"is_reserved":false,"is_disabled":false,"rental_uris":{"android":"levelo://app?vid=723cb045-22d5-41e7-9e37-726f3eb8c03f","ios":"levelo://app?vid=723cb045-22d5-41e7-9e37-726f3eb8c03f"},"vehicle_type_id":"4","last_reported":1758611433,"current_range_meters":15200,"station_id":"ce4bgs92rcd13ifvqcc0","pricing_plan_id":"cebpf4jnsgd1na2vs0mg"},{"bike_id":"6ac17a81-0487-4557-9f83-8f554f6e083e","system_id":"levelo_inurba_marseille","lat":43.32003,"lon":5.37195,"is_reserved":false,"is_disabled":false,"rental_uris":{"android":"levelo://app?vid=6ac17a81-0487-4557-9f83-8f554f6e083e","ios":"levelo://app?vid=6ac17a81-0487-4557-9f83-8f554f6e083e"},"vehicle_type_id":"4","last_reported":1758611433,"current_range_meters":15200,"station_id":"","pricing_plan_id":"cebpf4jnsgd1na2vs0mg"},{"bike_id":"6d533051-1e2b-475d-8af2-2c5d402777d7","system_id":"levelo_inurba_marseille","lat":43.31999,"lon":5.38144,"is_reserved":false,"is_disabled":false,"rental_uris":{"android":"levelo://app?vid=6d533051-1e2b-475d-8af2-2c5d402777d7","ios":"levelo://app?vid=6d533051-1e2b-475d-8af2-2c5d402777d7"},"vehicle_type_id":"4","last_reported":1758611433,"current_range_meters":15200,"station_id":"ce4bhr12rcd13ifvqhpg","pricing_plan_id":"cebpf4jnsgd1na2vs0mg"},{"bike_id":"43d57fd4-047e-4ac8-97e5-ec9b96239472","system_id":"levelo_inurba_marseille","lat":43.33231,"lon":5.39821,"is_reserved":false,"is_disabled":false,"rental_uris":{"android":"levelo://app?vid=43d57fd4-047e-4ac8-97e5-ec9b96239472","ios":"levelo://app?vid=43d57fd4-047e-4ac8-97e5-ec9b96239472"},"vehicle_type_id":"4","last_reported":1758611433,"current_range_meters":15200,"station_id":"","pricing_plan_id":"cebpf4jnsgd1na2vs0mg"},{"bike_id":"fb891cf0-f442-4842-8e6c-3b43e94f9945","system_id":"levelo_inurba_marseille","lat":43.30546,"lon":5.3656,"is_reserved":false,"is_disabled":false,"rental_uris":{"android":"levelo://app?vid=fb891cf0-f442-4842-8e6c-3b43e94f9945","ios":"levelo://app?vid=fb891cf0-f442-4842-8e6c-3b43e94f9945"},"vehicle_type_id":"4","last_reported":1758611433,"current_range_meters":15200,"station_id":"ce4bgs12rcd13ifvqcag","pricing_plan_id":"cebpf4jnsgd1na2vs0mg"},{"bike_id":"dc9bac6b-4879-4dc7-859a-31c98360d959","system_id":"levelo_inurba_marseille","lat":43.23964,"lon":5.36635,"is_reserved":false,"is_disabled":false,"rental_uris":{"android":"levelo://app?vid=dc9bac6b-4879-4dc7-859a-31c98360d959","ios":"levelo://app?vid=dc9bac6b-4879-4dc7-859a-31c98360d959"},"vehicle_type_id":"4","last_reported":1758611433,"current_range_meters":16000,"station_id":"ce4bhi12rcd13ifvqfp0","pricing_plan_id":"cebpf4jnsgd1na2vs0mg"},{"bike_id":"7c0482c3-9253-4d1b-b4f3-be55cdb7721d","system_id":"levelo_inurba_marseille","lat":43.33757,"lon":5.37466,"is_reserved":false,"is_disabled":false,"rental_uris":{"android":"levelo://app?vid=7c0482c3-9253-4d1b-b4f3-be55cdb7721d","ios":"levelo://app?vid=7c0482c3-9253-4d1b-b4f3-be55cdb7721d"},"vehicle_type_id":"4","last_reported":1758611433,"current_range_meters":16000,"station_id":"","pricing_plan_id":"cebpf4jnsgd1na2vs0mg"},{"bike_id":"394c6b33-ec87-424b-9211-1074dbe89956","system_id":"levelo_inurba_marseille","lat":43.28416,"lon":5.34972,"is_reserved":false,"is_disabled":false,"rental_uris":{"android":"levelo://app?vid=394c6b33-ec87-424b-9211-1074dbe89956","ios":"levelo://app?vid=394c6b33-ec87-424b-9211-1074dbe89956"},"vehicle_type_id":"4","last_reported":1758611433,"current_range_meters":16000,"station_id":"ce4bhbh2rcd13ifvqepg","pricing_plan_id":"cebpf4jnsgd1na2vs0mg"},{"bike_id":"63974245-7963-411e-90b4-62ad8fe49585","system_id":"levelo_inurba_marseille","lat":43.25937,"lon":5.4091,"is_reserved":false,"is_disabled":false,"rental_uris":{"android":"levelo://app?vid=63974245-7963-411e-90b4-62ad8fe49585","ios":"levelo://app?vid=63974245-7963-411e-90b4-62ad8fe49585"},"vehicle_type_id":"4","last_reported":1758611433,"current_range_meters":16000,"station_id":"ce4bhm92rcd13ifvqglg","pricing_plan_id":"cebpf4jnsgd1na2vs0mg"},{"bike_id":"a1e06df0-87b9-409a-9b1e-f1bc83ecc770","system_id":"levelo_inurba_marseille","lat":43.28114,"lon":5.40483,"is_reserved":false,"is_disabled":false,"rental_uris":{"android":"levelo://app?vid=a1e06df0-87b9-409a-9b1e-f1bc83ecc770","ios":"levelo://app?vid=a1e06df0-87b9-409a-9b1e-f1bc83ecc770"},"vehicle_type_id":"4","last_reported":1758611433,"current_range_meters":16000,"station_id":"","pricing_plan_id":"cebpf4jnsgd1na2vs0mg"},{"bike_id":"4c0b651b-953c-4759-a0f7-0074f59a45eb","system_id":"levelo_inurba_marseille","lat":43.25801,"lon":5.39283,"is_reserved":false,"is_disabled":false,"rental_uris":{"android":"levelo://app?vid=4c0b651b-953c-4759-a0f7-0074f59a45eb","ios":"levelo://app?vid=4c0b651b-953c-4759-a0f7-0074f59a45eb"},"vehicle_type_id":"4","last_reported":1758611433,"current_range_meters":16000,"station_id":"","pricing_plan_id":"cebpf4jnsgd1na2vs0mg"},{"bike_id":"1964a7c4-f341-4518-b3f3-4cff78a650f1","system_id":"levelo_inurba_marseille","lat":43.324837,"lon":5.365635,"is_reserved":false,"is_disabled":false,"rental_uris":{"android":"levelo://app?vid=1964a7c4-f341-4518-b3f3-4cff78a650f1","ios":"levelo://app?vid=1964a7c4-f341-4518-b3f3-4cff78a650f1"},"vehicle_type_id":"4","last_reported":1758611433,"current_range_meters":16000,"station_id":"ce4bhs12rcd13ifvqhvg","pricing_plan_id":"cebpf4jnsgd1na2vs0mg"},{"bike_id":"afb79e5d-408e-4ac5-94ba-12634eb1377b","system_id":"levelo_inurba_marseille","lat":43.29243,"lon":5.360463,"is_reserved":false,"is_disabled":false,"rental_uris":{"android":"levelo://app?vid=afb79e5d-408e-4ac5-94ba-12634eb1377b","ios":"levelo://app?vid=afb79e5d-408e-4ac5-94ba-12634eb1377b"},"vehicle_type_id":"4","last_reported":1758611433,"current_range_meters":16000,"station_id":"ce4bhbh2rcd13ifvqeqg","pricing_plan_id":"cebpf4jnsgd1na2vs0mg"},{"bike_id":"d24dd466-02ce-4a40-865e-e4b5699b5ac4","system_id":"levelo_inurba_marseille","lat":43.292636,"lon":5.384441,"is_reserved":false,"is_disabled":false,"rental_uris":{"android":"levelo://app?vid=d24dd466-02ce-4a40-865e-e4b5699b5ac4","ios":"levelo://app?vid=d24dd466-02ce-4a40-865e-e4b5699b5ac4"},"vehicle_type_id":"4","last_reported":1758611433,"current_range_meters":16400,"station_id":"","pricing_plan_id":"cebpf4jnsgd1na2vs0mg"},{"bike_id":"2d4e9e1d-14dc-44bb-8381-dfef8e19a136","system_id":"levelo_inurba_marseille","lat":43.25104,"lon":5.40337,"is_reserved":false,"is_disabled":true,"rental_uris":{"android":"levelo://app?vid=2d4e9e1d-14dc-44bb-8381-dfef8e19a136","ios":"levelo://app?vid=2d4e9e1d-14dc-44bb-8381-dfef8e19a136"},"vehicle_type_id":"4","last_reported":1758611433,"current_range_meters":16400,"station_id":"ce4bhlh2rcd13ifvqgig","pricing_plan_id":"cebpf4jnsgd1na2vs0mg"},{"bike_id":"b0b4631e-3fe3-47ae-a1f2-5862ae6a4392","system_id":"levelo_inurba_marseille","lat":43.30283,"lon":5.40035,"is_reserved":false,"is_disabled":true,"rental_uris":{"android":"levelo://app?vid=b0b4631e-3fe3-47ae-a1f2-5862ae6a4392","ios":"levelo://app?vid=b0b4631e-3fe3-47ae-a1f2-5862ae6a4392"},"vehicle_type_id":"4","last_reported":1758611433,"current_range_meters":16400,"station_id":"ce4bgvh2rcd13ifvqcs0","pricing_plan_id":"cebpf4jnsgd1na2vs0mg"},{"bike_id":"8f63bb28-daf3-434a-b520-4ffc9e66dc1c","system_id":"levelo_inurba_marseille","lat":43.25607,"lon":5.41219,"is_reserved":false,"is_disabled":false,"rental_uris":{"android":"levelo://app?vid=8f63bb28-daf3-434a-b520-4ffc9e66dc1c","ios":"levelo://app?vid=8f63bb28-daf3-434a-b520-4ffc9e66dc1c"},"vehicle_type_id":"4","last_reported":1758611433,"current_range_meters":16400,"station_id":"","pricing_plan_id":"cebpf4jnsgd1na2vs0mg"},{"bike_id":"a411eeec-a9f5-4b92-ae2b-a2beb01c14eb","system_id":"levelo_inurba_marseille","lat":43.259385,"lon":5.409037,"is_reserved":false,"is_disabled":false,"rental_uris":{"android":"levelo://app?vid=a411eeec-a9f5-4b92-ae2b-a2beb01c14eb","ios":"levelo://app?vid=a411eeec-a9f5-4b92-ae2b-a2beb01c14eb"},"vehicle_type_id":"4","last_reported":1758611433,"current_range_meters":16400,"station_id":"ce4bhm92rcd13ifvqglg","pricing_plan_id":"cebpf4jnsgd1na2vs0mg"},{"bike_id":"06a24bce-028d-4b4a-b4a3-d45296145db5","system_id":"levelo_inurba_marseille","lat":43.28425,"lon":5.34991,"is_reserved":false,"is_disabled":true,"rental_uris":{"android":"levelo://app?vid=06a24bce-028d-4b4a-b4a3-d45296145db5","ios":"levelo://app?vid=06a24bce-028d-4b4a-b4a3-d45296145db5"},"vehicle_type_id":"4","last_reported":1758611433,"current_range_meters":16400,"station_id":"ce4bhch2rcd13ifvqeug","pricing_plan_id":"cebpf4jnsgd1na2vs0mg"},{"bike_id":"e198ef9d-5f88-4209-87ad-7b1fadd8d3a1","system_id":"levelo_inurba_marseille","lat":43.266952,"lon":5.382686,"is_reserved":false,"is_disabled":false,"rental_uris":{"android":"levelo://app?vid=e198ef9d-5f88-4209-87ad-7b1fadd8d3a1","ios":"levelo://app?vid=e198ef9d-5f88-4209-87ad-7b1fadd8d3a1"},"vehicle_type_id":"4","last_reported":1758611433,"current_range_meters":16400,"station_id":"ce4bhg92rcd13ifvqf90","pricing_plan_id":"cebpf4jnsgd1na2vs0mg"},{"bike_id":"e17a8d70-d304-4d59-9570-95e87414f4f9","system_id":"levelo_inurba_marseille","lat":43.299676,"lon":5.371587,"is_reserved":false,"is_disabled":false,"rental_uris":{"android":"levelo://app?vid=e17a8d70-d304-4d59-9570-95e87414f4f9","ios":"levelo://app?vid=e17a8d70-d304-4d59-9570-95e87414f4f9"},"vehicle_type_id":"4","last_reported":1758611433,"current_range_meters":16800,"station_id":"ce4bgr92rcd13ifvqc7g","pricing_plan_id":"cebpf4jnsgd1na2vs0mg"},{"bike_id":"9bfad9f8-d51a-4453-9f16-44d0f30b6792","system_id":"levelo_inurba_marseille","lat":43.259389,"lon":5.409033,"is_reserved":false,"is_disabled":false,"rental_uris":{"android":"levelo://app?vid=9bfad9f8-d51a-4453-9f16-44d0f30b6792","ios":"levelo://app?vid=9bfad9f8-d51a-4453-9f16-44d0f30b6792"},"vehicle_type_id":"4","last_reported":1758611433,"current_range_meters":16400,"station_id":"ce4bhm92rcd13ifvqglg","pricing_plan_id":"cebpf4jnsgd1na2vs0mg"},{"bike_id":"4620b491-f668-485e-9c4b-8506a6d8453e","system_id":"levelo_inurba_marseille","lat":43.240595,"lon":5.377702,"is_reserved":false,"is_disabled":false,"rental_uris":{"android":"levelo://app?vid=4620b491-f668-485e-9c4b-8506a6d8453e","ios":"levelo://app?vid=4620b491-f668-485e-9c4b-8506a6d8453e"},"vehicle_type_id":"4","last_reported":1758611433,"current_range_meters":16800,"station_id":"","pricing_plan_id":"cebpf4jnsgd1na2vs0mg"},{"bike_id":"a57ec678-3f9e-4769-a06b-b0e36f8205fe","system_id":"levelo_inurba_marseille","lat":43.23195,"lon":5.40021,"is_reserved":false,"is_disabled":false,"rental_uris":{"android":"levelo://app?vid=a57ec678-3f9e-4769-a06b-b0e36f8205fe","ios":"levelo://app?vid=a57ec678-3f9e-4769-a06b-b0e36f8205fe"},"vehicle_type_id":"4","last_reported":1758611433,"current_range_meters":16800,"station_id":"ce4bhn12rcd13ifvqgqg","pricing_plan_id":"cebpf4jnsgd1na2vs0mg"},{"bike_id":"8b5048eb-188a-4758-896d-b555c5dbb909","system_id":"levelo_inurba_marseille","lat":43.29531,"lon":5.38546,"is_reserved":false,"is_disabled":false,"rental_uris":{"android":"levelo://app?vid=8b5048eb-188a-4758-896d-b555c5dbb909","ios":"levelo://app?vid=8b5048eb-188a-4758-896d-b555c5dbb909"},"vehicle_type_id":"4","last_reported":1758611433,"current_range_meters":16800,"station_id":"","pricing_plan_id":"cebpf4jnsgd1na2vs0mg"},{"bike_id":"47fe8ecd-0327-4d83-b8c0-ab7264c95b0b","system_id":"levelo_inurba_marseille","lat":43.245394,"lon":5.395114,"is_reserved":false,"is_disabled":false,"rental_uris":{"android":"levelo://app?vid=47fe8ecd-0327-4d83-b8c0-ab7264c95b0b","ios":"levelo://app?vid=47fe8ecd-0327-4d83-b8c0-ab7264c95b0b"},"vehicle_type_id":"4","last_reported":1758611433,"current_range_meters":16800,"station_id":"ce4bhlp2rcd13ifvqgjg","pricing_plan_id":"cebpf4jnsgd1na2vs0mg"},{"bike_id":"2a52b0bb-783a-489f-a7b9-793ba892f121","system_id":"levelo_inurba_marseille","lat":43.25334,"lon":5.4216,"is_reserved":false,"is_disabled":false,"rental_uris":{"android":"levelo://app?vid=2a52b0bb-783a-489f-a7b9-793ba892f121","ios":"levelo://app?vid=2a52b0bb-783a-489f-a7b9-793ba892f121"},"vehicle_type_id":"4","last_reported":1758611433,"current_range_meters":16800,"station_id":"st_d2m65c5bi1j21697t3ng","pricing_plan_id":"cebpf4jnsgd1na2vs0mg"},{"bike_id":"8552fe36-10d8-46fd-997b-c97d2970480a","system_id":"levelo_inurba_marseille","lat":43.323646,"lon":5.367307,"is_reserved":false,"is_disabled":false,"rental_uris":{"android":"levelo://app?vid=8552fe36-10d8-46fd-997b-c97d2970480a","ios":"levelo://app?vid=8552fe36-10d8-46fd-997b-c97d2970480a"},"vehicle_type_id":"4","last_reported":1758611433,"current_range_meters":16800,"station_id":"ce4bhsh2rcd13ifvqi2g","pricing_plan_id":"cebpf4jnsgd1na2vs0mg"},{"bike_id":"2b5cf6d2-5cda-4640-9461-0ca51ece55aa","system_id":"levelo_inurba_marseille","lat":43.31486,"lon":5.37305,"is_reserved":false,"is_disabled":false,"rental_uris":{"android":"levelo://app?vid=2b5cf6d2-5cda-4640-9461-0ca51ece55aa","ios":"levelo://app?vid=2b5cf6d2-5cda-4640-9461-0ca51ece55aa"},"vehicle_type_id":"4","last_reported":1758611433,"current_range_meters":17200,"station_id":"ce4bgt12rcd13ifvqcd0","pricing_plan_id":"cebpf4jnsgd1na2vs0mg"},{"bike_id":"487ff905-c3d9-46a9-b748-757208ea915d","system_id":"levelo_inurba_marseille","lat":43.261393,"lon":5.409172,"is_reserved":false,"is_disabled":false,"rental_uris":{"android":"levelo://app?vid=487ff905-c3d9-46a9-b748-757208ea915d","ios":"levelo://app?vid=487ff905-c3d9-46a9-b748-757208ea915d"},"vehicle_type_id":"4","last_reported":1758611433,"current_range_meters":17200,"station_id":"ce4bhm92rcd13ifvqglg","pricing_plan_id":"cebpf4jnsgd1na2vs0mg"},{"bike_id":"c3e6cc38-8443-41f0-8b93-3da119df4b84","system_id":"levelo_inurba_marseille","lat":43.25927,"lon":5.40918,"is_reserved":false,"is_disabled":false,"rental_uris":{"android":"levelo://app?vid=c3e6cc38-8443-41f0-8b93-3da119df4b84","ios":"levelo://app?vid=c3e6cc38-8443-41f0-8b93-3da119df4b84"},"vehicle_type_id":"4","last_reported":1758611433,"current_range_meters":17200,"station_id":"ce4bhm92rcd13ifvqglg","pricing_plan_id":"cebpf4jnsgd1na2vs0mg"},{"bike_id":"73e948e8-5ced-4035-9e38-1f12f6f040b8","system_id":"levelo_inurba_marseille","lat":43.25931,"lon":5.40916,"is_reserved":false,"is_disabled":false,"rental_uris":{"android":"levelo://app?vid=73e948e8-5ced-4035-9e38-1f12f6f040b8","ios":"levelo://app?vid=73e948e8-5ced-4035-9e38-1f12f6f040b8"},"vehicle_type_id":"4","last_reported":1758611433,"current_range_meters":17200,"station_id":"ce4bhm92rcd13ifvqglg","pricing_plan_id":"cebpf4jnsgd1na2vs0mg"},{"bike_id":"dddca5ef-4a33-499b-936a-6d8e6136a417","system_id":"levelo_inurba_marseille","lat":43.22934,"lon":5.35388,"is_reserved":false,"is_disabled":false,"rental_uris":{"android":"levelo://app?vid=dddca5ef-4a33-499b-936a-6d8e6136a417","ios":"levelo://app?vid=dddca5ef-4a33-499b-936a-6d8e6136a417"},"vehicle_type_id":"4","last_reported":1758611433,"current_range_meters":17200,"station_id":"cpo3532slgdg3j2ikp40","pricing_plan_id":"cebpf4jnsgd1na2vs0mg"},{"bike_id":"2d912d8b-398b-4153-85b0-ee74bb81442c","system_id":"levelo_inurba_marseille","lat":43.23155,"lon":5.43717,"is_reserved":false,"is_disabled":false,"rental_uris":{"android":"levelo://app?vid=2d912d8b-398b-4153-85b0-ee74bb81442c","ios":"levelo://app?vid=2d912d8b-398b-4153-85b0-ee74bb81442c"},"vehicle_type_id":"4","last_reported":1758611433,"current_range_meters":17200,"station_id":"ce4bhmp2rcd13ifvqgog","pricing_plan_id":"cebpf4jnsgd1na2vs0mg"},{"bike_id":"35450425-2f77-4cc3-9bf2-34774855a5c4","system_id":"levelo_inurba_marseille","lat":43.25741,"lon":5.4112,"is_reserved":false,"is_disabled":true,"rental_uris":{"android":"levelo://app?vid=35450425-2f77-4cc3-9bf2-34774855a5c4","ios":"levelo://app?vid=35450425-2f77-4cc3-9bf2-34774855a5c4"},"vehicle_type_id":"4","last_reported":1758611433,"current_range_meters":17600,"station_id":"ce4bhkp2rcd13ifvqgd0","pricing_plan_id":"cebpf4jnsgd1na2vs0mg"},{"bike_id":"902a85b4-786a-4a10-b45c-52ec35967b94","system_id":"levelo_inurba_marseille","lat":43.24095,"lon":5.37782,"is_reserved":false,"is_disabled":false,"rental_uris":{"android":"levelo://app?vid=902a85b4-786a-4a10-b45c-52ec35967b94","ios":"levelo://app?vid=902a85b4-786a-4a10-b45c-52ec35967b94"},"vehicle_type_id":"4","last_reported":1758611433,"current_range_meters":17600,"station_id":"ce4bhnp2rcd13ifvqgvg","pricing_plan_id":"cebpf4jnsgd1na2vs0mg"},{"bike_id":"e6e104ca-9460-44a7-a557-a74dfb2f3aa1","system_id":"levelo_inurba_marseille","lat":43.3093,"lon":5.3722,"is_reserved":false,"is_disabled":false,"rental_uris":{"android":"levelo://app?vid=e6e104ca-9460-44a7-a557-a74dfb2f3aa1","ios":"levelo://app?vid=e6e104ca-9460-44a7-a557-a74dfb2f3aa1"},"vehicle_type_id":"4","last_reported":1758611433,"current_range_meters":17600,"station_id":"ce4bguh2rcd13ifvqckg","pricing_plan_id":"cebpf4jnsgd1na2vs0mg"},{"bike_id":"c7784061-4436-4bdc-8dba-c84d605f6073","system_id":"levelo_inurba_marseille","lat":43.3359,"lon":5.40991,"is_reserved":false,"is_disabled":false,"rental_uris":{"android":"levelo://app?vid=c7784061-4436-4bdc-8dba-c84d605f6073","ios":"levelo://app?vid=c7784061-4436-4bdc-8dba-c84d605f6073"},"vehicle_type_id":"4","last_reported":1758611433,"current_range_meters":17600,"station_id":"ce4bhqh2rcd13ifvqhmg","pricing_plan_id":"cebpf4jnsgd1na2vs0mg"},{"bike_id":"3c0fa725-f739-4599-965d-e73d3e7b2c8f","system_id":"levelo_inurba_marseille","lat":43.32365,"lon":5.36752,"is_reserved":false,"is_disabled":false,"rental_uris":{"android":"levelo://app?vid=3c0fa725-f739-4599-965d-e73d3e7b2c8f","ios":"levelo://app?vid=3c0fa725-f739-4599-965d-e73d3e7b2c8f"},"vehicle_type_id":"4","last_reported":1758611433,"current_range_meters":17600,"station_id":"ce4bhsh2rcd13ifvqi2g","pricing_plan_id":"cebpf4jnsgd1na2vs0mg"},{"bike_id":"9feb0e0f-24fa-4463-b0f3-30472830c043","system_id":"levelo_inurba_marseille","lat":43.31757,"lon":5.39002,"is_reserved":false,"is_disabled":false,"rental_uris":{"android":"levelo://app?vid=9feb0e0f-24fa-4463-b0f3-30472830c043","ios":"levelo://app?vid=9feb0e0f-24fa-4463-b0f3-30472830c043"},"vehicle_type_id":"4","last_reported":1758611433,"current_range_meters":18000,"station_id":"ce4bhqp2rcd13ifvqhng","pricing_plan_id":"cebpf4jnsgd1na2vs0mg"},{"bike_id":"96b52191-cdd8-4909-9fad-4de0aaa5f927","system_id":"levelo_inurba_marseille","lat":43.30959,"lon":5.39051,"is_reserved":false,"is_disabled":true,"rental_uris":{"android":"levelo://app?vid=96b52191-cdd8-4909-9fad-4de0aaa5f927","ios":"levelo://app?vid=96b52191-cdd8-4909-9fad-4de0aaa5f927"},"vehicle_type_id":"4","last_reported":1758611433,"current_range_meters":18000,"station_id":"ce4bgup2rcd13ifvqco0","pricing_plan_id":"cebpf4jnsgd1na2vs0mg"},{"bike_id":"e41453be-f948-4d1f-bc4a-e8c33e167012","system_id":"levelo_inurba_marseille","lat":43.30889,"lon":5.39658,"is_reserved":false,"is_disabled":false,"rental_uris":{"android":"levelo://app?vid=e41453be-f948-4d1f-bc4a-e8c33e167012","ios":"levelo://app?vid=e41453be-f948-4d1f-bc4a-e8c33e167012"},"vehicle_type_id":"4","last_reported":1758611433,"current_range_meters":18000,"station_id":"ce4bh012rcd13ifvqcv0","pricing_plan_id":"cebpf4jnsgd1na2vs0mg"},{"bike_id":"84206851-8a06-4401-859f-ea2e1619e01d","system_id":"levelo_inurba_marseille","lat":43.30547,"lon":5.36714,"is_reserved":false,"is_disabled":false,"rental_uris":{"android":"levelo://app?vid=84206851-8a06-4401-859f-ea2e1619e01d","ios":"levelo://app?vid=84206851-8a06-4401-859f-ea2e1619e01d"},"vehicle_type_id":"4","last_reported":1758611433,"current_range_meters":19200,"station_id":"ce4bgrp2rcd13ifvqc9g","pricing_plan_id":"cebpf4jnsgd1na2vs0mg"},{"bike_id":"a60abba9-f9b8-477b-8786-175fc2b6218b","system_id":"levelo_inurba_marseille","lat":43.30869,"lon":5.37187,"is_reserved":false,"is_disabled":false,"rental_uris":{"android":"levelo://app?vid=a60abba9-f9b8-477b-8786-175fc2b6218b","ios":"levelo://app?vid=a60abba9-f9b8-477b-8786-175fc2b6218b"},"vehicle_type_id":"4","last_reported":1758611433,"current_range_meters":18000,"station_id":"ce4bguh2rcd13ifvqckg","pricing_plan_id":"cebpf4jnsgd1na2vs0mg"},{"bike_id":"74119b0d-5e0d-4ef6-aaa9-0e7eeb63be1a","system_id":"levelo_inurba_marseille","lat":43.32659,"lon":5.40996,"is_reserved":false,"is_disabled":false,"rental_uris":{"android":"levelo://app?vid=74119b0d-5e0d-4ef6-aaa9-0e7eeb63be1a","ios":"levelo://app?vid=74119b0d-5e0d-4ef6-aaa9-0e7eeb63be1a"},"vehicle_type_id":"4","last_reported":1758611433,"current_range_meters":18000,"station_id":"ce4bhpp2rcd13ifvqhgg","pricing_plan_id":"cebpf4jnsgd1na2vs0mg"},{"bike_id":"0b404429-a098-40d6-91ee-809ea746e020","system_id":"levelo_inurba_marseille","lat":43.29936,"lon":5.36546,"is_reserved":false,"is_disabled":false,"rental_uris":{"android":"levelo://app?vid=0b404429-a098-40d6-91ee-809ea746e020","ios":"levelo://app?vid=0b404429-a098-40d6-91ee-809ea746e020"},"vehicle_type_id":"4","last_reported":1758611433,"current_range_meters":18000,"station_id":"ce4bgm92rcd13ifvqbr0","pricing_plan_id":"cebpf4jnsgd1na2vs0mg"},{"bike_id":"f5cc4d8c-8853-48ea-b213-efa8e2532702","system_id":"levelo_inurba_marseille","lat":43.27375,"lon":5.36262,"is_reserved":false,"is_disabled":false,"rental_uris":{"android":"levelo://app?vid=f5cc4d8c-8853-48ea-b213-efa8e2532702","ios":"levelo://app?vid=f5cc4d8c-8853-48ea-b213-efa8e2532702"},"vehicle_type_id":"4","last_reported":1758611433,"current_range_meters":18000,"station_id":"ce4bhbh2rcd13ifvqeo0","pricing_plan_id":"cebpf4jnsgd1na2vs0mg"},{"bike_id":"95092148-5f75-4663-be7d-7c8aa2863391","system_id":"levelo_inurba_marseille","lat":43.24167,"lon":5.36408,"is_reserved":false,"is_disabled":false,"rental_uris":{"android":"levelo://app?vid=95092148-5f75-4663-be7d-7c8aa2863391","ios":"levelo://app?vid=95092148-5f75-4663-be7d-7c8aa2863391"},"vehicle_type_id":"4","last_reported":1758611433,"current_range_meters":18000,"station_id":"cpo36qri1sfpv3e86is0","pricing_plan_id":"cebpf4jnsgd1na2vs0mg"},{"bike_id":"7e369899-bc1f-4cc0-924e-33018945dd99","system_id":"levelo_inurba_marseille","lat":43.25705,"lon":5.4113,"is_reserved":false,"is_disabled":false,"rental_uris":{"android":"levelo://app?vid=7e369899-bc1f-4cc0-924e-33018945dd99","ios":"levelo://app?vid=7e369899-bc1f-4cc0-924e-33018945dd99"},"vehicle_type_id":"4","last_reported":1758611433,"current_range_meters":18000,"station_id":"ce4bhkp2rcd13ifvqgd0","pricing_plan_id":"cebpf4jnsgd1na2vs0mg"},{"bike_id":"b39ffcde-8d4a-4e25-86c3-967d542890a2","system_id":"levelo_inurba_marseille","lat":43.26949,"lon":5.40284,"is_reserved":false,"is_disabled":true,"rental_uris":{"android":"levelo://app?vid=b39ffcde-8d4a-4e25-86c3-967d542890a2","ios":"levelo://app?vid=b39ffcde-8d4a-4e25-86c3-967d542890a2"},"vehicle_type_id":"4","last_reported":1758611433,"current_range_meters":18800,"station_id":"cjm6bp8fraef2m0cb0m0","pricing_plan_id":"cebpf4jnsgd1na2vs0mg"},{"bike_id":"b5097eea-9912-4be2-9cf9-14c224c5fab6","system_id":"levelo_inurba_marseille","lat":43.23209,"lon":5.35536,"is_reserved":false,"is_disabled":false,"rental_uris":{"android":"levelo://app?vid=b5097eea-9912-4be2-9cf9-14c224c5fab6","ios":"levelo://app?vid=b5097eea-9912-4be2-9cf9-14c224c5fab6"},"vehicle_type_id":"4","last_reported":1758611433,"current_range_meters":18800,"station_id":"ce4bhu92rcd13ifvqi70","pricing_plan_id":"cebpf4jnsgd1na2vs0mg"},{"bike_id":"aa7fb19a-dee8-4dc4-bf16-e94fc02d332a","system_id":"levelo_inurba_marseille","lat":43.30151,"lon":5.37423,"is_reserved":false,"is_disabled":false,"rental_uris":{"android":"levelo://app?vid=aa7fb19a-dee8-4dc4-bf16-e94fc02d332a","ios":"levelo://app?vid=aa7fb19a-dee8-4dc4-bf16-e94fc02d332a"},"vehicle_type_id":"4","last_reported":1758611433,"current_range_meters":18800,"station_id":"ce4bgs92rcd13ifvqcc0","pricing_plan_id":"cebpf4jnsgd1na2vs0mg"},{"bike_id":"1cd420c9-83fb-4bc1-b7d7-4ff4e3fc796c","system_id":"levelo_inurba_marseille","lat":43.32111,"lon":5.36773,"is_reserved":false,"is_disabled":false,"rental_uris":{"android":"levelo://app?vid=1cd420c9-83fb-4bc1-b7d7-4ff4e3fc796c","ios":"levelo://app?vid=1cd420c9-83fb-4bc1-b7d7-4ff4e3fc796c"},"vehicle_type_id":"4","last_reported":1758611433,"current_range_meters":18800,"station_id":"ce4bhrh2rcd13ifvqhug","pricing_plan_id":"cebpf4jnsgd1na2vs0mg"},{"bike_id":"58cfdea1-6418-4c9f-95fe-481270bef5e4","system_id":"levelo_inurba_marseille","lat":43.30943,"lon":5.39036,"is_reserved":false,"is_disabled":false,"rental_uris":{"android":"levelo://app?vid=58cfdea1-6418-4c9f-95fe-481270bef5e4","ios":"levelo://app?vid=58cfdea1-6418-4c9f-95fe-481270bef5e4"},"vehicle_type_id":"4","last_reported":1758611433,"current_range_meters":18800,"station_id":"ce4bgup2rcd13ifvqco0","pricing_plan_id":"cebpf4jnsgd1na2vs0mg"},{"bike_id":"ee94e61b-8cd8-48d5-b186-9b46938eaccf","system_id":"levelo_inurba_marseille","lat":43.304786,"lon":5.379462,"is_reserved":false,"is_disabled":false,"rental_uris":{"android":"levelo://app?vid=ee94e61b-8cd8-48d5-b186-9b46938eaccf","ios":"levelo://app?vid=ee94e61b-8cd8-48d5-b186-9b46938eaccf"},"vehicle_type_id":"4","last_reported":1758611433,"current_range_meters":18800,"station_id":"ce4bgup2rcd13ifvqcn0","pricing_plan_id":"cebpf4jnsgd1na2vs0mg"},{"bike_id":"72ca9785-3eaa-429a-adce-ef30ae6246ca","system_id":"levelo_inurba_marseille","lat":43.259702,"lon":5.408589,"is_reserved":false,"is_disabled":false,"rental_uris":{"android":"levelo://app?vid=72ca9785-3eaa-429a-adce-ef30ae6246ca","ios":"levelo://app?vid=72ca9785-3eaa-429a-adce-ef30ae6246ca"},"vehicle_type_id":"4","last_reported":1758611433,"current_range_meters":18800,"station_id":"ce4bhm92rcd13ifvqglg","pricing_plan_id":"cebpf4jnsgd1na2vs0mg"},{"bike_id":"8f3d3d72-9af2-4f9b-9b62-e82fc3d41eda","system_id":"levelo_inurba_marseille","lat":43.25349,"lon":5.4218,"is_reserved":false,"is_disabled":false,"rental_uris":{"android":"levelo://app?vid=8f3d3d72-9af2-4f9b-9b62-e82fc3d41eda","ios":"levelo://app?vid=8f3d3d72-9af2-4f9b-9b62-e82fc3d41eda"},"vehicle_type_id":"4","last_reported":1758611433,"current_range_meters":19200,"station_id":"st_d2m65c5bi1j21697t3ng","pricing_plan_id":"cebpf4jnsgd1na2vs0mg"},{"bike_id":"039bd8ca-030d-4e67-b8b5-8430b49c043c","system_id":"levelo_inurba_marseille","lat":43.2718,"lon":5.41004,"is_reserved":false,"is_disabled":false,"rental_uris":{"android":"levelo://app?vid=039bd8ca-030d-4e67-b8b5-8430b49c043c","ios":"levelo://app?vid=039bd8ca-030d-4e67-b8b5-8430b49c043c"},"vehicle_type_id":"4","last_reported":1758611433,"current_range_meters":19200,"station_id":"ce4bhl12rcd13ifvqgf0","pricing_plan_id":"cebpf4jnsgd1na2vs0mg"},{"bike_id":"e34a534e-40a2-424f-9a9f-8dd078555d70","system_id":"levelo_inurba_marseille","lat":43.31342,"lon":5.36744,"is_reserved":false,"is_disabled":false,"rental_uris":{"android":"levelo://app?vid=e34a534e-40a2-424f-9a9f-8dd078555d70","ios":"levelo://app?vid=e34a534e-40a2-424f-9a9f-8dd078555d70"},"vehicle_type_id":"4","last_reported":1758611433,"current_range_meters":19200,"station_id":"ce4bgr92rcd13ifvqc6g","pricing_plan_id":"cebpf4jnsgd1na2vs0mg"},{"bike_id":"608fdbb6-da53-4603-97ce-b26630a839e8","system_id":"levelo_inurba_marseille","lat":43.30946,"lon":5.39041,"is_reserved":false,"is_disabled":false,"rental_uris":{"android":"levelo://app?vid=608fdbb6-da53-4603-97ce-b26630a839e8","ios":"levelo://app?vid=608fdbb6-da53-4603-97ce-b26630a839e8"},"vehicle_type_id":"4","last_reported":1758611433,"current_range_meters":19200,"station_id":"ce4bgup2rcd13ifvqco0","pricing_plan_id":"cebpf4jnsgd1na2vs0mg"},{"bike_id":"23baf6a0-4317-4935-bb68-8e08c344b99c","system_id":"levelo_inurba_marseille","lat":43.29709,"lon":5.37672,"is_reserved":false,"is_disabled":false,"rental_uris":{"android":"levelo://app?vid=23baf6a0-4317-4935-bb68-8e08c344b99c","ios":"levelo://app?vid=23baf6a0-4317-4935-bb68-8e08c344b99c"},"vehicle_type_id":"4","last_reported":1758611433,"current_range_meters":19200,"station_id":"ce4bgkh2rcd13ifvqbl0","pricing_plan_id":"cebpf4jnsgd1na2vs0mg"},{"bike_id":"ea3cca86-986c-483a-aa9e-65c2bebb5bcf","system_id":"levelo_inurba_marseille","lat":43.31226,"lon":5.36863,"is_reserved":false,"is_disabled":false,"rental_uris":{"android":"levelo://app?vid=ea3cca86-986c-483a-aa9e-65c2bebb5bcf","ios":"levelo://app?vid=ea3cca86-986c-483a-aa9e-65c2bebb5bcf"},"vehicle_type_id":"4","last_reported":1758611433,"current_range_meters":19200,"station_id":"ce4bgl92rcd13ifvqbq0","pricing_plan_id":"cebpf4jnsgd1na2vs0mg"},