{"last_updated":1713384465,"ttl":30,"version":"2.2","data":{"bikes":[{"bike_id":"a1e77aa0-a7d3-4a85-92cf-10384991fc53","system_id":"levelo_inurba_marseille","lat":43.3135,"lon":5.36713,"is_reserved":false,"is_disabled":false,"rental_uris":{"android":"levelo://app?vid=a1e77aa0-a7d3-4a85-92cf-10384991fc53","ios":"levelo://app?vid=a1e77aa0-a7d3-4a85-92cf-10384991fc53"},"vehicle_type_id":"4","last_reported":1713384465,"current_range_meters":0,"station_id":"ce4bgr92rcd13ifvqc6g","pricing_plan_id":"cebpf4jnsgd1na2vs0mg"},{"bike_id":"37d96a07-5104-4a22-81ea-28f342c2da83","system_id":"levelo_inurba_marseille","lat":43.312239,"lon":5.368562,"is_reserved":false,"is_disabled":false,"rental_uris":{"android":"levelo://app?vid=37d96a07-5104-4a22-81ea-28f342c2da83","ios":"levelo://app?vid=37d96a07-5104-4a22-81ea-28f342c2da83"},"vehicle_type_id":"4","last_reported":1713384465,"current_range_meters":0,"station_id":"ce4bgl92rcd13ifvqbq0","pricing_plan_id":"cebpf4jnsgd1na2vs0mg"},{"bike_id":"93fe1c2b-c031-4c8d-9b07-769fdaf358d0","system_id":"levelo_inurba_marseille","lat":43.312239,"lon":5.368562,"is_reserved":false,"is_disabled":false,"rental_uris":{"android":"levelo://app?vid=93fe1c2b-c031-4c8d-9b07-769fdaf358d0","ios":"levelo://app?vid=93fe1c2b-c031-4c8d-9b07-769fdaf358d0"},"vehicle_type_id":"4","last_reported":1713384465,"current_range_meters":6800,"station_id":"ce4bgl92rcd13ifvqbq0","pricing_plan_id":"cebpf4jnsgd1na2vs0mg"},{"bike_id":"d5f8eb1c-4b27-440f-8f2f-4f733e92eb5e","system_id":"levelo_inurba_marseille","lat":43.312239,"lon":5.368562,"is_reserved":false,"is_disabled":false,"rental_uris":{"android":"levelo://app?vid=d5f8eb1c-4b27-440f-8f2f-4f733e92eb5e","ios":"levelo://app?vid=d5f8eb1c-4b27-440f-8f2f-4f733e92eb5e"},"vehicle_type_id":"4","last_reported":1713384465,"current_range_meters":14800,"station_id":"ce4bgl92rcd13ifvqbq0","pricing_plan_id":"cebpf4jnsgd1na2vs0mg"},{"bike_id":"65644675-ca40-423d-ad98-40f711e59ebf","system_id":"levelo_inurba_marseille","lat":43.312239,"lon":5.368562,"is_reserved":false,"is_disabled":false,"rental_uris":{"android":"levelo://app?vid=65644675-ca40-423d-ad98-40f711e59ebf","ios":"levelo://app?vid=65644675-ca40-423d-ad98-40f711e59ebf"},"vehicle_type_id":"4","last_reported":1713384465,"current_range_meters":6800,"station_id":"ce4bgl92rcd13ifvqbq0","pricing_plan_id":"cebpf4jnsgd1na2vs0mg"},{"bike_id":"49c9b006-3f70-4066-901c-0558fa3c6cb3","system_id":"levelo_inurba_marseille","lat":43.309076,"lon":5.368465,"is_reserved":false,"is_disabled":false,"rental_uris":{"android":"levelo://app?vid=49c9b006-3f70-4066-901c-0558fa3c6cb3","ios":"levelo://app?vid=49c9b006-3f70-4066-901c-0558fa3c6cb3"},"vehicle_type_id":"4","last_reported":1713384465,"current_range_meters":2000,"station_id":"ce4bgn92rcd13ifvqbvg","pricing_plan_id":"cebpf4jnsgd1na2vs0mg"},{"bike_id":"7a76ac97-9ab4-48ee-a466-9be8d7b9f7b6","system_id":"levelo_inurba_marseille","lat":43.31339,"lon":5.37282,"is_reserved":false,"is_disabled":false,"rental_uris":{"android":"levelo://app?vid=7a76ac97-9ab4-48ee-a466-9be8d7b9f7b6","ios":"levelo://app?vid=7a76ac97-9ab4-48ee-a466-9be8d7b9f7b6"},"vehicle_type_id":"4","last_reported":1713384465,"current_range_meters":14400,"station_id":"","pricing_plan_id":"cebpf4jnsgd1na2vs0mg"},{"bike_id":"583648fc-9add-4455-96d8-1e5eb5065a7c","system_id":"levelo_inurba_marseille","lat":43.314811,"lon":5.373103,"is_reserved":false,"is_disabled":false,"rental_uris":{"android":"levelo://app?vid=583648fc-9add-4455-96d8-1e5eb5065a7c","ios":"levelo://app?vid=583648fc-9add-4455-96d8-1e5eb5065a7c"},"vehicle_type_id":"4","last_reported":1713384465,"current_range_meters":0,"station_id":"ce4bgt12rcd13ifvqcd0","pricing_plan_id":"cebpf4jnsgd1na2vs0mg"},{"bike_id":"1e054610-3734-4e14-ad39-b6b799ff0023","system_id":"levelo_inurba_marseille","lat":43.314811,"lon":5.373103,"is_reserved":false,"is_disabled":false,"rental_uris":{"android":"levelo://app?vid=1e054610-3734-4e14-ad39-b6b799ff0023","ios":"levelo://app?vid=1e054610-3734-4e14-ad39-b6b799ff0023"},"vehicle_type_id":"4","last_reported":1713384465,"current_range_meters":15200,"station_id":"ce4bgt12rcd13ifvqcd0","pricing_plan_id":"cebpf4jnsgd1na2vs0mg"},{"bike_id":"503c24d8-41d8-4000-bf72-a3f2230604c2","system_id":"levelo_inurba_marseille","lat":43.314811,"lon":5.373103,"is_reserved":false,"is_disabled":false,"rental_uris":{"android":"levelo://app?vid=503c24d8-41d8-4000-bf72-a3f2230604c2","ios":"levelo://app?vid=503c24d8-41d8-4000-bf72-a3f2230604c2"},"vehicle_type_id":"4","last_reported":1713384465,"current_range_meters":8000,"station_id":"ce4bgt12rcd13ifvqcd0","pricing_plan_id":"cebpf4jnsgd1na2vs0mg"},{"bike_id":"4035555c-2068-4f58-872c-79906db38193","system_id":"levelo_inurba_marseille","lat":43.314811,"lon":5.373103,"is_reserved":false,"is_disabled":false,"rental_uris":{"android":"levelo://app?vid=4035555c-2068-4f58-872c-79906db38193","ios":"levelo://app?vid=4035555c-2068-4f58-872c-79906db38193"},"vehicle_type_id":"4","last_reported":1713384465,"current_range_meters":3200,"station_id":"ce4bgt12rcd13ifvqcd0","pricing_plan_id":"cebpf4jnsgd1na2vs0mg"},{"bike_id":"33ebaeb3-1802-4450-aa4a-218c490e3ca2","system_id":"levelo_inurba_marseille","lat":43.314811,"lon":5.373103,"is_reserved":false,"is_disabled":false,"rental_uris":{"android":"levelo://app?vid=33ebaeb3-1802-4450-aa4a-218c490e3ca2","ios":"levelo://app?vid=33ebaeb3-1802-4450-aa4a-218c490e3ca2"},"vehicle_type_id":"4","last_reported":1713384465,"current_range_meters":28400,"station_id":"ce4bgt12rcd13ifvqcd0","pricing_plan_id":"cebpf4jnsgd1na2vs0mg"},{"bike_id":"50c2df5d-5bb5-43cf-a454-8ca400998c1c","system_id":"levelo_inurba_marseille","lat":43.309034,"lon":5.371783,"is_reserved":false,"is_disabled":false,"rental_uris":{"android":"levelo://app?vid=50c2df5d-5bb5-43cf-a454-8ca400998c1c","ios":"levelo://app?vid=50c2df5d-5bb5-43cf-a454-8ca400998c1c"},"vehicle_type_id":"4","last_reported":1713384465,"current_range_meters":28400,"station_id":"ce4bguh2rcd13ifvqckg","pricing_plan_id":"cebpf4jnsgd1na2vs0mg"},{"bike_id":"52f22b5a-486d-4c62-a4ac-137bfb2f235e","system_id":"levelo_inurba_marseille","lat":43.30554,"lon":5.36534,"is_reserved":false,"is_disabled":false,"rental_uris":{"android":"levelo://app?vid=52f22b5a-486d-4c62-a4ac-137bfb2f235e","ios":"levelo://app?vid=52f22b5a-486d-4c62-a4ac-137bfb2f235e"},"vehicle_type_id":"4","last_reported":1713384465,"current_range_meters":28800,"station_id":"","pricing_plan_id":"cebpf4jnsgd1na2vs0mg"},{"bike_id":"7266e7a7-5e08-49b2-afe6-14a6a03e209b","system_id":"levelo_inurba_marseille","lat":43.31158,"lon":5.37754,"is_reserved":false,"is_disabled":false,"rental_uris":{"android":"levelo://app?vid=7266e7a7-5e08-49b2-afe6-14a6a03e209b","ios":"levelo://app?vid=7266e7a7-5e08-49b2-afe6-14a6a03e209b"},"vehicle_type_id":"4","last_reported":1713384465,"current_range_meters":3200,"station_id":"","pricing_plan_id":"cebpf4jnsgd1na2vs0mg"},{"bike_id":"b32cd1f0-9d32-4d04-9aab-dc79dcdcf347","system_id":"levelo_inurba_marseille","lat":43.311125,"lon":5.377624,"is_reserved":false,"is_disabled":false,"rental_uris":{"android":"levelo://app?vid=b32cd1f0-9d32-4d04-9aab-dc79dcdcf347","ios":"levelo://app?vid=b32cd1f0-9d32-4d04-9aab-dc79dcdcf347"},"vehicle_type_id":"4","last_reported":1713384465,"current_range_meters":1600,"station_id":"ce4bgt92rcd13ifvqcg0","pricing_plan_id":"cebpf4jnsgd1na2vs0mg"},{"bike_id":"8cd28707-e8cf-46d7-80cc-a309603c9931","system_id":"levelo_inurba_marseille","lat":43.311125,"lon":5.377624,"is_reserved":false,"is_disabled":false,"rental_uris":{"android":"levelo://app?vid=8cd28707-e8cf-46d7-80cc-a309603c9931","ios":"levelo://app?vid=8cd28707-e8cf-46d7-80cc-a309603c9931"},"vehicle_type_id":"4","last_reported":1713384465,"current_range_meters":0,"station_id":"ce4bgt92rcd13ifvqcg0","pricing_plan_id":"cebpf4jnsgd1na2vs0mg"},{"bike_id":"38c3a9aa-a319-4559-8849-56585697adb0","system_id":"levelo_inurba_marseille","lat":43.311125,"lon":5.377624,"is_reserved":false,"is_disabled":false,"rental_uris":{"android":"levelo://app?vid=38c3a9aa-a319-4559-8849-56585697adb0","ios":"levelo://app?vid=38c3a9aa-a319-4559-8849-56585697adb0"},"vehicle_type_id":"4","last_reported":1713384465,"current_range_meters":16400,"station_id":"ce4bgt92rcd13ifvqcg0","pricing_plan_id":"cebpf4jnsgd1na2vs0mg"},{"bike_id":"894b6731-0d45-4ce5-aadb-37025b76f227","system_id":"levelo_inurba_marseille","lat":43.311125,"lon":5.377624,"is_reserved":false,"is_disabled":false,"rental_uris":{"android":"levelo://app?vid=894b6731-0d45-4ce5-aadb-37025b76f227","ios":"levelo://app?vid=894b6731-0d45-4ce5-aadb-37025b76f227"},"vehicle_type_id":"4","last_reported":1713384465,"current_range_meters":13600,"station_id":"ce4bgt92rcd13ifvqcg0","pricing_plan_id":"cebpf4jnsgd1na2vs0mg"},{"bike_id":"6259b3f4-c079-4a8f-9977-927bf520d560","system_id":"levelo_inurba_marseille","lat":43.315289,"lon":5.380349,"is_reserved":false,"is_disabled":false,"rental_uris":{"android":"levelo://app?vid=6259b3f4-c079-4a8f-9977-927bf520d560","ios":"levelo://app?vid=6259b3f4-c079-4a8f-9977-927bf520d560"},"vehicle_type_id":"4","last_reported":1713384465,"current_range_meters":7200,"station_id":"ce4bhsp2rcd13ifvqi50","pricing_plan_id":"cebpf4jnsgd1na2vs0mg"},{"bike_id":"71b65339-6b13-4e47-9e85-3cfcd095267f","system_id":"levelo_inurba_marseille","lat":43.311125,"lon":5.377624,"is_reserved":false,"is_disabled":false,"rental_uris":{"android":"levelo://app?vid=71b65339-6b13-4e47-9e85-3cfcd095267f","ios":"levelo://app?vid=71b65339-6b13-4e47-9e85-3cfcd095267f"},"vehicle_type_id":"4","last_reported":1713384465,"current_range_meters":4400,"station_id":"ce4bgt92rcd13ifvqcg0","pricing_plan_id":"cebpf4jnsgd1na2vs0mg"},{"bike_id":"253a5f9d-2c31-4ebb-aa5b-d595850d1abf","system_id":"levelo_inurba_marseille","lat":43.314811,"lon":5.373103,"is_reserved":false,"is_disabled":false,"rental_uris":{"android":"levelo://app?vid=253a5f9d-2c31-4ebb-aa5b-d595850d1abf","ios":"levelo://app?vid=253a5f9d-2c31-4ebb-aa5b-d595850d1abf"},"vehicle_type_id":"4","last_reported":1713384465,"current_range_meters":24400,"station_id":"ce4bgt12rcd13ifvqcd0","pricing_plan_id":"cebpf4jnsgd1na2vs0mg"},{"bike_id":"8d826c26-006d-4a3a-95e9-63589001d083","system_id":"levelo_inurba_marseille","lat":43.30781,"lon":5.37651,"is_reserved":false,"is_disabled":false,"rental_uris":{"android":"levelo://app?vid=8d826c26-006d-4a3a-95e9-63589001d083","ios":"levelo://app?vid=8d826c26-006d-4a3a-95e9-63589001d083"},"vehicle_type_id":"4","last_reported":1713384465,"current_range_meters":27200,"station_id":"ce4bgv92rcd13ifvqcq0","pricing_plan_id":"cebpf4jnsgd1na2vs0mg"},{"bike_id":"f9ebc6a5-f928-42da-974f-9087afaf2421","system_id":"levelo_inurba_marseille","lat":43.307945,"lon":5.376487,"is_reserved":false,"is_disabled":false,"rental_uris":{"android":"levelo://app?vid=f9ebc6a5-f928-42da-974f-9087afaf2421","ios":"levelo://app?vid=f9ebc6a5-f928-42da-974f-9087afaf2421"},"vehicle_type_id":"4","last_reported":1713384465,"current_range_meters":22400,"station_id":"ce4bgv92rcd13ifvqcq0","pricing_plan_id":"cebpf4jnsgd1na2vs0mg"},{"bike_id":"4c1d3d42-2aa7-4df6-adf6-5165eefcd157","system_id":"levelo_inurba_marseille","lat":43.317075,"lon":5.377367,"is_reserved":false,"is_disabled":false,"rental_uris":{"android":"levelo://app?vid=4c1d3d42-2aa7-4df6-adf6-5165eefcd157","ios":"levelo://app?vid=4c1d3d42-2aa7-4df6-adf6-5165eefcd157"},"vehicle_type_id":"4","last_reported":1713384465,"current_range_meters":800,"station_id":"ce4bgth2rcd13ifvqch0","pricing_plan_id":"cebpf4jnsgd1na2vs0mg"},{"bike_id":"8e1342a2-de23-4fa6-a10f-010afc912687","system_id":"levelo_inurba_marseille","lat":43.317075,"lon":5.377367,"is_reserved":false,"is_disabled":false,"rental_uris":{"android":"levelo://app?vid=8e1342a2-de23-4fa6-a10f-010afc912687","ios":"levelo://app?vid=8e1342a2-de23-4fa6-a10f-010afc912687"},"vehicle_type_id":"4","last_reported":1713384465,"current_range_meters":10400,"station_id":"ce4bgth2rcd13ifvqch0","pricing_plan_id":"cebpf4jnsgd1na2vs0mg"},{"bike_id":"e07c981e-638b-4ba6-ac96-fe5ee9e5a164","system_id":"levelo_inurba_marseille","lat":43.317075,"lon":5.377367,"is_reserved":false,"is_disabled":false,"rental_uris":{"android":"levelo://app?vid=e07c981e-638b-4ba6-ac96-fe5ee9e5a164","ios":"levelo://app?vid=e07c981e-638b-4ba6-ac96-fe5ee9e5a164"},"vehicle_type_id":"4","last_reported":1713384465,"current_range_meters":31200,"station_id":"ce4bgth2rcd13ifvqch0","pricing_plan_id":"cebpf4jnsgd1na2vs0mg"},{"bike_id":"bee8e9da-0701-47bf-afcd-9c04190ff22c","system_id":"levelo_inurba_marseille","lat":43.317075,"lon":5.377367,"is_reserved":false,"is_disabled":false,"rental_uris":{"android":"levelo://app?vid=bee8e9da-0701-47bf-afcd-9c04190ff22c","ios":"levelo://app?vid=bee8e9da-0701-47bf-afcd-9c04190ff22c"},"vehicle_type_id":"4","last_reported":1713384465,"current_range_meters":6000,"station_id":"ce4bgth2rcd13ifvqch0","pricing_plan_id":"cebpf4jnsgd1na2vs0mg"},{"bike_id":"e00f5c9c-82f1-4595-be09-fbbeee63189b","system_id":"levelo_inurba_marseille","lat":43.317075,"lon":5.377367,"is_reserved":false,"is_disabled":false,"rental_uris":{"android":"levelo://app?vid=e00f5c9c-82f1-4595-be09-fbbeee63189b","ios":"levelo://app?vid=e00f5c9c-82f1-4595-be09-fbbeee63189b"},"vehicle_type_id":"4","last_reported":1713384465,"current_range_meters":31200,"station_id":"ce4bgth2rcd13ifvqch0","pricing_plan_id":"cebpf4jnsgd1na2vs0mg"},{"bike_id":"af121c7d-0da1-405c-8b31-1d7369540008","system_id":"levelo_inurba_marseille","lat":43.31292,"lon":5.37946,"is_reserved":false,"is_disabled":false,"rental_uris":{"android":"levelo://app?vid=af121c7d-0da1-405c-8b31-1d7369540008","ios":"levelo://app?vid=af121c7d-0da1-405c-8b31-1d7369540008"},"vehicle_type_id":"4","last_reported":1713384465,"current_range_meters":20400,"station_id":"","pricing_plan_id":"cebpf4jnsgd1na2vs0mg"},{"bike_id":"1318186f-a486-4651-8972-8d8dc1a08d29","system_id":"levelo_inurba_marseille","lat":43.30304,"lon":5.368987,"is_reserved":false,"is_disabled":false,"rental_uris":{"android":"levelo://app?vid=1318186f-a486-4651-8972-8d8dc1a08d29","ios":"levelo://app?vid=1318186f-a486-4651-8972-8d8dc1a08d29"},"vehicle_type_id":"4","last_reported":1713384465,"current_range_meters":0,"station_id":"ce4bgqh2rcd13ifvqc5g","pricing_plan_id":"cebpf4jnsgd1na2vs0mg"},{"bike_id":"01359525-8ee3-4431-83ce-9dc5da79037f","system_id":"levelo_inurba_marseille","lat":43.315289,"lon":5.380349,"is_reserved":false,"is_disabled":false,"rental_uris":{"android":"levelo://app?vid=01359525-8ee3-4431-83ce-9dc5da79037f","ios":"levelo://app?vid=01359525-8ee3-4431-83ce-9dc5da79037f"},"vehicle_type_id":"4","last_reported":1713384465,"current_range_meters":7200,"station_id":"ce4bhsp2rcd13ifvqi50","pricing_plan_id":"cebpf4jnsgd1na2vs0mg"},{"bike_id":"c863db18-9b5d-4479-849d-cb1c0af5f262","system_id":"levelo_inurba_marseille","lat":43.314811,"lon":5.373103,"is_reserved":false,"is_disabled":false,"rental_uris":{"android":"levelo://app?vid=c863db18-9b5d-4479-849d-cb1c0af5f262","ios":"levelo://app?vid=c863db18-9b5d-4479-849d-cb1c0af5f262"},"vehicle_type_id":"4","last_reported":1713384465,"current_range_meters":2000,"station_id":"ce4bgt12rcd13ifvqcd0","pricing_plan_id":"cebpf4jnsgd1na2vs0mg"},{"bike_id":"bef97fed-895d-4639-85d9-12f1477f4ad3","system_id":"levelo_inurba_marseille","lat":43.301939,"lon":5.366286,"is_reserved":false,"is_disabled":false,"rental_uris":{"android":"levelo://app?vid=bef97fed-895d-4639-85d9-12f1477f4ad3","ios":"levelo://app?vid=bef97fed-895d-4639-85d9-12f1477f4ad3"},"vehicle_type_id":"4","last_reported":1713384465,"current_range_meters":5600,"station_id":"ce4bgrh2rcd13ifvqc8g","pricing_plan_id":"cebpf4jnsgd1na2vs0mg"},{"bike_id":"5c3d3d44-77a2-4a0a-a921-c35de7db95b7","system_id":"levelo_inurba_marseille","lat":43.301939,"lon":5.366286,"is_reserved":false,"is_disabled":false,"rental_uris":{"android":"levelo://app?vid=5c3d3d44-77a2-4a0a-a921-c35de7db95b7","ios":"levelo://app?vid=5c3d3d44-77a2-4a0a-a921-c35de7db95b7"},"vehicle_type_id":"4","last_reported":1713384465,"current_range_meters":28400,"station_id":"ce4bgrh2rcd13ifvqc8g","pricing_plan_id":"cebpf4jnsgd1na2vs0mg"},{"bike_id":"ccc763a9-49fc-4fef-91e1-d1236c010226","system_id":"levelo_inurba_marseille","lat":43.30192,"lon":5.36635,"is_reserved":false,"is_disabled":false,"rental_uris":{"android":"levelo://app?vid=ccc763a9-49fc-4fef-91e1-d1236c010226","ios":"levelo://app?vid=ccc763a9-49fc-4fef-91e1-d1236c010226"},"vehicle_type_id":"4","last_reported":1713384465,"current_range_meters":7200,"station_id":"ce4bgrh2rcd13ifvqc8g","pricing_plan_id":"cebpf4jnsgd1na2vs0mg"},{"bike_id":"7373a98a-1388-48c3-8b39-4739d6971962","system_id":"levelo_inurba_marseille","lat":43.308012,"lon":5.381511,"is_reserved":false,"is_disabled":false,"rental_uris":{"android":"levelo://app?vid=7373a98a-1388-48c3-8b39-4739d6971962","ios":"levelo://app?vid=7373a98a-1388-48c3-8b39-4739d6971962"},"vehicle_type_id":"4","last_reported":1713384465,"current_range_meters":18400,"station_id":"ce4bgt12rcd13ifvqce0","pricing_plan_id":"cebpf4jnsgd1na2vs0mg"},{"bike_id":"2a66eb3f-0f91-40aa-8f69-acee2753c0c7","system_id":"levelo_inurba_marseille","lat":43.308069,"lon":5.38163,"is_reserved":false,"is_disabled":false,"rental_uris":{"android":"levelo://app?vid=2a66eb3f-0f91-40aa-8f69-acee2753c0c7","ios":"levelo://app?vid=2a66eb3f-0f91-40aa-8f69-acee2753c0c7"},"vehicle_type_id":"4","last_reported":1713384465,"current_range_meters":0,"station_id":"ce4bgt12rcd13ifvqce0","pricing_plan_id":"cebpf4jnsgd1na2vs0mg"},{"bike_id":"db143ab5-dec8-40dd-a621-e2d05978584f","system_id":"levelo_inurba_marseille","lat":43.308012,"lon":5.381511,"is_reserved":false,"is_disabled":false,"rental_uris":{"android":"levelo://app?vid=db143ab5-dec8-40dd-a621-e2d05978584f","ios":"levelo://app?vid=db143ab5-dec8-40dd-a621-e2d05978584f"},"vehicle_type_id":"4","last_reported":1713384465,"current_range_meters":21200,"station_id":"ce4bgt12rcd13ifvqce0","pricing_plan_id":"cebpf4jnsgd1na2vs0mg"},{"bike_id":"18b65d5b-5fb9-4a2c-863b-5ee1f1f28540","system_id":"levelo_inurba_marseille","lat":43.308012,"lon":5.381511,"is_reserved":false,"is_disabled":false,"rental_uris":{"android":"levelo://app?vid=18b65d5b-5fb9-4a2c-863b-5ee1f1f28540","ios":"levelo://app?vid=18b65d5b-5fb9-4a2c-863b-5ee1f1f28540"},"vehicle_type_id":"4","last_reported":1713384465,"current_range_meters":4800,"station_id":"ce4bgt12rcd13ifvqce0","pricing_plan_id":"cebpf4jnsgd1na2vs0mg"},{"bike_id":"a905ca68-14b4-4270-a3d7-ea02618ce3d6","system_id":"levelo_inurba_marseille","lat":43.296935,"lon":5.376544,"is_reserved":false,"is_disabled":false,"rental_uris":{"android":"levelo://app?vid=a905ca68-14b4-4270-a3d7-ea02618ce3d6","ios":"levelo://app?vid=a905ca68-14b4-4270-a3d7-ea02618ce3d6"},"vehicle_type_id":"4","last_reported":1713384465,"current_range_meters":17200,"station_id":"ce4bgkh2rcd13ifvqbl0","pricing_plan_id":"cebpf4jnsgd1na2vs0mg"},{"bike_id":"474525dc-99c8-49dd-a4ec-bf353f39ecc7","system_id":"levelo_inurba_marseille","lat":43.308012,"lon":5.381511,"is_reserved":false,"is_disabled":false,"rental_uris":{"android":"levelo://app?vid=474525dc-99c8-49dd-a4ec-bf353f39ecc7","ios":"levelo://app?vid=474525dc-99c8-49dd-a4ec-bf353f39ecc7"},"vehicle_type_id":"4","last_reported":1713384465,"current_range_meters":5600,"station_id":"ce4bgt12rcd13ifvqce0","pricing_plan_id":"cebpf4jnsgd1na2vs0mg"},{"bike_id":"6b2ac776-9495-4cd4-bbae-eac90b27dc61","system_id":"levelo_inurba_marseille","lat":43.308012,"lon":5.381511,"is_reserved":false,"is_disabled":false,"rental_uris":{"android":"levelo://app?vid=6b2ac776-9495-4cd4-bbae-eac90b27dc61","ios":"levelo://app?vid=6b2ac776-9495-4cd4-bbae-eac90b27dc61"},"vehicle_type_id":"4","last_reported":1713384465,"current_range_meters":14800,"station_id":"ce4bgt12rcd13ifvqce0","pricing_plan_id":"cebpf4jnsgd1na2vs0mg"},{"bike_id":"bdd5fc7e-d9fd-4a61-a4e9-353797c4a696","system_id":"levelo_inurba_marseille","lat":43.324771,"lon":5.36557,"is_reserved":false,"is_disabled":false,"rental_uris":{"android":"levelo://app?vid=bdd5fc7e-d9fd-4a61-a4e9-353797c4a696","ios":"levelo://app?vid=bdd5fc7e-d9fd-4a61-a4e9-353797c4a696"},"vehicle_type_id":"4","last_reported":1713384465,"current_range_meters":14400,"station_id":"ce4bhs12rcd13ifvqhvg","pricing_plan_id":"cebpf4jnsgd1na2vs0mg"},{"bike_id":"2361f870-47a0-4ae4-a065-afb3cf02f8b1","system_id":"levelo_inurba_marseille","lat":43.324771,"lon":5.36557,"is_reserved":false,"is_disabled":false,"rental_uris":{"android":"levelo://app?vid=2361f870-47a0-4ae4-a065-afb3cf02f8b1","ios":"levelo://app?vid=2361f870-47a0-4ae4-a065-afb3cf02f8b1"},"vehicle_type_id":"4","last_reported":1713384465,"current_range_meters":17600,"station_id":"ce4bhs12rcd13ifvqhvg","pricing_plan_id":"cebpf4jnsgd1na2vs0mg"},{"bike_id":"732115dd-fc36-4cea-9cd6-0e4cc350a9d7","system_id":"levelo_inurba_marseille","lat":43.324771,"lon":5.36557,"is_reserved":false,"is_disabled":false,"rental_uris":{"android":"levelo://app?vid=732115dd-fc36-4cea-9cd6-0e4cc350a9d7","ios":"levelo://app?vid=732115dd-fc36-4cea-9cd6-0e4cc350a9d7"},"vehicle_type_id":"4","last_reported":1713384465,"current_range_meters":20800,"station_id":"ce4bhs12rcd13ifvqhvg","pricing_plan_id":"cebpf4jnsgd1na2vs0mg"},{"bike_id":"9650e995-0d72-455f-838e-dca00d5136ce","system_id":"levelo_inurba_marseille","lat":43.324771,"lon":5.36557,"is_reserved":false,"is_disabled":false,"rental_uris":{"android":"levelo://app?vid=9650e995-0d72-455f-838e-dca00d5136ce","ios":"levelo://app?vid=9650e995-0d72-455f-838e-dca00d5136ce"},"vehicle_type_id":"4","last_reported":1713384465,"current_range_meters":24400,"station_id":"ce4bhs12rcd13ifvqhvg","pricing_plan_id":"cebpf4jnsgd1na2vs0mg"},{"bike_id":"bada93fb-f3e7-4072-b03f-debca43b0142","system_id":"levelo_inurba_marseille","lat":43.32484,"lon":5.3657,"is_reserved":false,"is_disabled":false,"rental_uris":{"android":"levelo://app?vid=bada93fb-f3e7-4072-b03f-debca43b0142","ios":"levelo://app?vid=bada93fb-f3e7-4072-b03f-debca43b0142"},"vehicle_type_id":"4","last_reported":1713384465,"current_range_meters":400,"station_id":"ce4bhs12rcd13ifvqhvg","pricing_plan_id":"cebpf4jnsgd1na2vs0mg"},{"bike_id":"a51b9dbd-b6b4-4e62-aede-beb536c98b5a","system_id":"levelo_inurba_marseille","lat":43.324874,"lon":5.365685,"is_reserved":false,"is_disabled":false,"rental_uris":{"android":"levelo://app?vid=a51b9dbd-b6b4-4e62-aede-beb536c98b5a","ios":"levelo://app?vid=a51b9dbd-b6b4-4e62-aede-beb536c98b5a"},"vehicle_type_id":"4","last_reported":1713384465,"current_range_meters":6400,"station_id":"ce4bhs12rcd13ifvqhvg","pricing_plan_id":"cebpf4jnsgd1na2vs0mg"},{"bike_id":"6850d3ac-6118-46b8-87a3-283cb8f13775","system_id":"levelo_inurba_marseille","lat":43.324771,"lon":5.36557,"is_reserved":false,"is_disabled":false,"rental_uris":{"android":"levelo://app?vid=6850d3ac-6118-46b8-87a3-283cb8f13775","ios":"levelo://app?vid=6850d3ac-6118-46b8-87a3-283cb8f13775"},"vehicle_type_id":"4","last_reported":1713384465,"current_range_meters":9600,"station_id":"ce4bhs12rcd13ifvqhvg","pricing_plan_id":"cebpf4jnsgd1na2vs0mg"},{"bike_id":"9bbefdf2-7c06-403e-9cee-2009c98fa6ca","system_id":"levelo_inurba_marseille","lat":43.310804,"lon":5.38359,"is_reserved":false,"is_disabled":false,"rental_uris":{"android":"levelo://app?vid=9bbefdf2-7c06-403e-9cee-2009c98fa6ca","ios":"levelo://app?vid=9bbefdf2-7c06-403e-9cee-2009c98fa6ca"},"vehicle_type_id":"4","last_reported":1713384465,"current_range_meters":12000,"station_id":"ce4bgv92rcd13ifvqcr0","pricing_plan_id":"cebpf4jnsgd1na2vs0mg"},{"bike_id":"a31a9ace-59be-4a38-9ee4-bd2de146c1af","system_id":"levelo_inurba_marseille","lat":43.310804,"lon":5.38359,"is_reserved":false,"is_disabled":false,"rental_uris":{"android":"levelo://app?vid=a31a9ace-59be-4a38-9ee4-bd2de146c1af","ios":"levelo://app?vid=a31a9ace-59be-4a38-9ee4-bd2de146c1af"},"vehicle_type_id":"4","last_reported":1713384465,"current_range_meters":20800,"station_id":"ce4bgv92rcd13ifvqcr0","pricing_plan_id":"cebpf4jnsgd1na2vs0mg"},{"bike_id":"d986bd22-f831-4a7d-a74f-59573012fbf0","system_id":"levelo_inurba_marseille","lat":43.310794,"lon":5.383616,"is_reserved":false,"is_disabled":false,"rental_uris":{"android":"levelo://app?vid=d986bd22-f831-4a7d-a74f-59573012fbf0","ios":"levelo://app?vid=d986bd22-f831-4a7d-a74f-59573012fbf0"},"vehicle_type_id":"4","last_reported":1713384465,"current_range_meters":11200,"station_id":"ce4bgv92rcd13ifvqcr0","pricing_plan_id":"cebpf4jnsgd1na2vs0mg"},{"bike_id":"9d351e48-66f1-4a32-ab2d-887111a0b14c","system_id":"levelo_inurba_marseille","lat":43.310804,"lon":5.38359,"is_reserved":false,"is_disabled":false,"rental_uris":{"android":"levelo://app?vid=9d351e48-66f1-4a32-ab2d-887111a0b14c","ios":"levelo://app?vid=9d351e48-66f1-4a32-ab2d-887111a0b14c"},"vehicle_type_id":"4","last_reported":1713384465,"current_range_meters":16400,"station_id":"ce4bgv92rcd13ifvqcr0","pricing_plan_id":"cebpf4jnsgd1na2vs0mg"},{"bike_id":"5e9f910f-4fe9-4c61-b402-813ef9397143","system_id":"levelo_inurba_marseille","lat":43.292644,"lon":5.384257,"is_reserved":false,"is_disabled":false,"rental_uris":{"android":"levelo://app?vid=5e9f910f-4fe9-4c61-b402-813ef9397143","ios":"levelo://app?vid=5e9f910f-4fe9-4c61-b402-813ef9397143"},"vehicle_type_id":"4","last_reported":1713384465,"current_range_meters":14400,"station_id":"ce4bh692rcd13ifvqea0","pricing_plan_id":"cebpf4jnsgd1na2vs0mg"},{"bike_id":"b8feb9d2-3951-40e7-a9aa-7b5fd456b9c5","system_id":"levelo_inurba_marseille","lat":43.310804,"lon":5.38359,"is_reserved":false,"is_disabled":false,"rental_uris":{"android":"levelo://app?vid=b8feb9d2-3951-40e7-a9aa-7b5fd456b9c5","ios":"levelo://app?vid=b8feb9d2-3951-40e7-a9aa-7b5fd456b9c5"},"vehicle_type_id":"4","last_reported":1713384465,"current_range_meters":10000,"station_id":"ce4bgv92rcd13ifvqcr0","pricing_plan_id":"cebpf4jnsgd1na2vs0mg"},{"bike_id":"cbc0bbea-c725-46ce-ad86-1bd853928776","system_id":"levelo_inurba_marseille","lat":43.302784,"lon":5.377158,"is_reserved":false,"is_disabled":false,"rental_uris":{"android":"levelo://app?vid=cbc0bbea-c725-46ce-ad86-1bd853928776","ios":"levelo://app?vid=cbc0bbea-c725-46ce-ad86-1bd853928776"},"vehicle_type_id":"4","last_reported":1713384465,"current_range_meters":28000,"station_id":"ce4bguh2rcd13ifvqcj0","pricing_plan_id":"cebpf4jnsgd1na2vs0mg"},{"bike_id":"cab6c3b8-ed94-412e-9856-9fd7fe60542c","system_id":"levelo_inurba_marseille","lat":43.302784,"lon":5.377158,"is_reserved":false,"is_disabled":false,"rental_uris":{"android":"levelo://app?vid=cab6c3b8-ed94-412e-9856-9fd7fe60542c","ios":"levelo://app?vid=cab6c3b8-ed94-412e-9856-9fd7fe60542c"},"vehicle_type_id":"4","last_reported":1713384465,"current_range_meters":27600,"station_id":"ce4bguh2rcd13ifvqcj0","pricing_plan_id":"cebpf4jnsgd1na2vs0mg"},{"bike_id":"b34cca82-54c4-4e7a-a429-9f5ca4cb48bc","system_id":"levelo_inurba_marseille","lat":43.310804,"lon":5.38359,"is_reserved":false,"is_disabled":false,"rental_uris":{"android":"levelo://app?vid=b34cca82-54c4-4e7a-a429-9f5ca4cb48bc","ios":"levelo://app?vid=b34cca82-54c4-4e7a-a429-9f5ca4cb48bc"},"vehicle_type_id":"4","last_reported":1713384465,"current_range_meters":6400,"station_id":"ce4bgv92rcd13ifvqcr0","pricing_plan_id":"cebpf4jnsgd1na2vs0mg"},{"bike_id":"5e0422c4-4db2-4cd5-8ec6-f1a5f73617e2","system_id":"levelo_inurba_marseille","lat":43.3056,"lon":5.38146,"is_reserved":false,"is_disabled":false,"rental_uris":{"android":"levelo://app?vid=5e0422c4-4db2-4cd5-8ec6-f1a5f73617e2","ios":"levelo://app?vid=5e0422c4-4db2-4cd5-8ec6-f1a5f73617e2"},"vehicle_type_id":"4","last_reported":1713384465,"current_range_meters":18000,"station_id":"","pricing_plan_id":"cebpf4jnsgd1na2vs0mg"},{"bike_id":"334e3407-4f9b-4b57-a5ef-39033f25d948","system_id":"levelo_inurba_marseille","lat":43.319935,"lon":5.381699,"is_reserved":false,"is_disabled":false,"rental_uris":{"android":"levelo://app?vid=334e3407-4f9b-4b57-a5ef-39033f25d948","ios":"levelo://app?vid=334e3407-4f9b-4b57-a5ef-39033f25d948"},"vehicle_type_id":"4","last_reported":1713384465,"current_range_meters":20000,"station_id":"ce4bhr12rcd13ifvqhpg","pricing_plan_id":"cebpf4jnsgd1na2vs0mg"},{"bike_id":"d212c281-3522-420a-b06f-b80966290c73","system_id":"levelo_inurba_marseille","lat":43.319935,"lon":5.381699,"is_reserved":false,"is_disabled":false,"rental_uris":{"android":"levelo://app?vid=d212c281-3522-420a-b06f-b80966290c73","ios":"levelo://app?vid=d212c281-3522-420a-b06f-b80966290c73"},"vehicle_type_id":"4","last_reported":1713384465,"current_range_meters":23600,"station_id":"ce4bhr12rcd13ifvqhpg","pricing_plan_id":"cebpf4jnsgd1na2vs0mg"},{"bike_id":"ce7fa476-bb4f-43d3-8318-023d7f9567ab","system_id":"levelo_inurba_marseille","lat":43.319935,"lon":5.381699,"is_reserved":false,"is_disabled":false,"rental_uris":{"android":"levelo://app?vid=ce7fa476-bb4f-43d3-8318-023d7f9567ab","ios":"levelo://app?vid=ce7fa476-bb4f-43d3-8318-023d7f9567ab"},"vehicle_type_id":"4","last_reported":1713384465,"current_range_meters":19200,"station_id":"ce4bhr12rcd13ifvqhpg","pricing_plan_id":"cebpf4jnsgd1na2vs0mg"},{"bike_id":"b81b1e3e-2172-4dfd-8720-aafb0057bf12","system_id":"levelo_inurba_marseille","lat":43.319935,"lon":5.381699,"is_reserved":false,"is_disabled":false,"rental_uris":{"android":"levelo://app?vid=b81b1e3e-2172-4dfd-8720-aafb0057bf12","ios":"levelo://app?vid=b81b1e3e-2172-4dfd-8720-aafb0057bf12"},"vehicle_type_id":"4","last_reported":1713384465,"current_range_meters":8800,"station_id":"ce4bhr12rcd13ifvqhpg","pricing_plan_id":"cebpf4jnsgd1na2vs0mg"},{"bike_id":"f020809e-e197-4eb4-9e13-8310c8f35000","system_id":"levelo_inurba_marseille","lat":43.319965,"lon":5.381505,"is_reserved":false,"is_disabled":false,"rental_uris":{"android":"levelo://app?vid=f020809e-e197-4eb4-9e13-8310c8f35000","ios":"levelo://app?vid=f020809e-e197-4eb4-9e13-8310c8f35000"},"vehicle_type_id":"4","last_reported":1713384465,"current_range_meters":9200,"station_id":"ce4bhr12rcd13ifvqhpg","pricing_plan_id":"cebpf4jnsgd1na2vs0mg"},{"bike_id":"fc2df9fc-0879-4333-955e-d7f8d52b1a38","system_id":"levelo_inurba_marseille","lat":43.319935,"lon":5.381699,"is_reserved":false,"is_disabled":false,"rental_uris":{"android":"levelo://app?vid=fc2df9fc-0879-4333-955e-d7f8d52b1a38","ios":"levelo://app?vid=fc2df9fc-0879-4333-955e-d7f8d52b1a38"},"vehicle_type_id":"4","last_reported":1713384465,"current_range_meters":800,"station_id":"ce4bhr12rcd13ifvqhpg","pricing_plan_id":"cebpf4jnsgd1na2vs0mg"},{"bike_id":"eb084826-c14b-4714-abc5-e75cc896773b","system_id":"levelo_inurba_marseille","lat":43.319935,"lon":5.381699,"is_reserved":false,"is_disabled":false,"rental_uris":{"android":"levelo://app?vid=eb084826-c14b-4714-abc5-e75cc896773b","ios":"levelo://app?vid=eb084826-c14b-4714-abc5-e75cc896773b"},"vehicle_type_id":"4","last_reported":1713384465,"current_range_meters":9200,"station_id":"ce4bhr12rcd13ifvqhpg","pricing_plan_id":"cebpf4jnsgd1na2vs0mg"},{"bike_id":"f1a17ac3-bf0f-4378-ae6f-719bc9a96880","system_id":"levelo_inurba_marseille","lat":43.319935,"lon":5.381699,"is_reserved":false,"is_disabled":false,"rental_uris":{"android":"levelo://app?vid=f1a17ac3-bf0f-4378-ae6f-719bc9a96880","ios":"levelo://app?vid=f1a17ac3-bf0f-4378-ae6f-719bc9a96880"},"vehicle_type_id":"4","last_reported":1713384465,"current_range_meters":1200,"station_id":"ce4bhr12rcd13ifvqhpg","pricing_plan_id":"cebpf4jnsgd1na2vs0mg"},{"bike_id":"8ce762a3-5d5b-4cf2-afa1-d3fa5bbc8b07","system_id":"levelo_inurba_marseille","lat":43.32004,"lon":5.38156,"is_reserved":false,"is_disabled":false,"rental_uris":{"android":"levelo://app?vid=8ce762a3-5d5b-4cf2-afa1-d3fa5bbc8b07","ios":"levelo://app?vid=8ce762a3-5d5b-4cf2-afa1-d3fa5bbc8b07"},"vehicle_type_id":"4","last_reported":1713384465,"current_range_meters":8800,"station_id":"ce4bhr12rcd13ifvqhpg","pricing_plan_id":"cebpf4jnsgd1na2vs0mg"},{"bike_id":"8608e23e-7f9a-414f-ad7e-86dba4433338","system_id":"levelo_inurba_marseille","lat":43.319935,"lon":5.381699,"is_reserved":false,"is_disabled":false,"rental_uris":{"android":"levelo://app?vid=8608e23e-7f9a-414f-ad7e-86dba4433338","ios":"levelo://app?vid=8608e23e-7f9a-414f-ad7e-86dba4433338"},"vehicle_type_id":"4","last_reported":1713384465,"current_range_meters":12400,"station_id":"ce4bhr12rcd13ifvqhpg","pricing_plan_id":"cebpf4jnsgd1na2vs0mg"},{"bike_id":"9ddf28a5-aa30-4141-a69c-67a9ed2e8e98","system_id":"levelo_inurba_marseille","lat":43.319935,"lon":5.381699,"is_reserved":false,"is_disabled":false,"rental_uris":{"android":"levelo://app?vid=9ddf28a5-aa30-4141-a69c-67a9ed2e8e98","ios":"levelo://app?vid=9ddf28a5-aa30-4141-a69c-67a9ed2e8e98"},"vehicle_type_id":"4","last_reported":1713384465,"current_range_meters":23600,"station_id":"ce4bhr12rcd13ifvqhpg","pricing_plan_id":"cebpf4jnsgd1na2vs0mg"},{"bike_id":"592f0002-f51e-454a-948b-76b054acb9a8","system_id":"levelo_inurba_marseille","lat":43.319935,"lon":5.381699,"is_reserved":false,"is_disabled":false,"rental_uris":{"android":"levelo://app?vid=592f0002-f51e-454a-948b-76b054acb9a8","ios":"levelo://app?vid=592f0002-f51e-454a-948b-76b054acb9a8"},"vehicle_type_id":"4","last_reported":1713384465,"current_range_meters":14800,"station_id":"ce4bhr12rcd13ifvqhpg","pricing_plan_id":"cebpf4jnsgd1na2vs0mg"},{"bike_id":"7a6e1c2e-307f-44da-ab4b-7057ef8b4cbd","system_id":"levelo_inurba_marseille","lat":43.313571,"lon":5.384829,"is_reserved":false,"is_disabled":false,"rental_uris":{"android":"levelo://app?vid=7a6e1c2e-307f-44da-ab4b-7057ef8b4cbd","ios":"levelo://app?vid=7a6e1c2e-307f-44da-ab4b-7057ef8b4cbd"},"vehicle_type_id":"4","last_reported":1713384465,"current_range_meters":15200,"station_id":"ce4bgt92rcd13ifvqcf0","pricing_plan_id":"cebpf4jnsgd1na2vs0mg"},{"bike_id":"3efafc78-abec-43f0-9659-df20b378bc3a","system_id":"levelo_inurba_marseille","lat":43.313652,"lon":5.384924,"is_reserved":false,"is_disabled":false,"rental_uris":{"android":"levelo://app?vid=3efafc78-abec-43f0-9659-df20b378bc3a","ios":"levelo://app?vid=3efafc78-abec-43f0-9659-df20b378bc3a"},"vehicle_type_id":"4","last_reported":1713384465,"current_range_meters":0,"station_id":"ce4bgt92rcd13ifvqcf0","pricing_plan_id":"cebpf4jnsgd1na2vs0mg"},{"bike_id":"1cc39bba-192c-4bcc-b37f-24dc500d85ff","system_id":"levelo_inurba_marseille","lat":43.313573,"lon":5.384943,"is_reserved":false,"is_disabled":false,"rental_uris":{"android":"levelo://app?vid=1cc39bba-192c-4bcc-b37f-24dc500d85ff","ios":"levelo://app?vid=1cc39bba-192c-4bcc-b37f-24dc500d85ff"},"vehicle_type_id":"4","last_reported":1713384465,"current_range_meters":4400,"station_id":"ce4bgt92rcd13ifvqcf0","pricing_plan_id":"cebpf4jnsgd1na2vs0mg"},{"bike_id":"c7dee089-83fa-4b61-b886-5de977427e84","system_id":"levelo_inurba_marseille","lat":43.299724,"lon":5.371829,"is_reserved":false,"is_disabled":false,"rental_uris":{"android":"levelo://app?vid=c7dee089-83fa-4b61-b886-5de977427e84","ios":"levelo://app?vid=c7dee089-83fa-4b61-b886-5de977427e84"},"vehicle_type_id":"4","last_reported":1713384465,"current_range_meters":8000,"station_id":"ce4bgr92rcd13ifvqc7g","pricing_plan_id":"cebpf4jnsgd1na2vs0mg"},{"bike_id":"3753b1ce-a44d-42b8-9ac1-d5fa7c6eb3ec","system_id":"levelo_inurba_marseille","lat":43.299724,"lon":5.371829,"is_reserved":false,"is_disabled":false,"rental_uris":{"android":"levelo://app?vid=3753b1ce-a44d-42b8-9ac1-d5fa7c6eb3ec","ios":"levelo://app?vid=3753b1ce-a44d-42b8-9ac1-d5fa7c6eb3ec"},"vehicle_type_id":"4","last_reported":1713384465,"current_range_meters":27600,"station_id":"ce4bgr92rcd13ifvqc7g","pricing_plan_id":"cebpf4jnsgd1na2vs0mg"},{"bike_id":"c0583c56-7f09-4aee-bb66-b8ca2c5683b4","system_id":"levelo_inurba_marseille","lat":43.299724,"lon":5.371829,"is_reserved":false,"is_disabled":false,"rental_uris":{"android":"levelo://app?vid=c0583c56-7f09-4aee-bb66-b8ca2c5683b4","ios":"levelo://app?vid=c0583c56-7f09-4aee-bb66-b8ca2c5683b4"},"vehicle_type_id":"4","last_reported":1713384465,"current_range_meters":31200,"station_id":"ce4bgr92rcd13ifvqc7g","pricing_plan_id":"cebpf4jnsgd1na2vs0mg"},{"bike_id":"c7ea5a96-0521-458c-8366-f7cf88222984","system_id":"levelo_inurba_marseille","lat":43.299724,"lon":5.371829,"is_reserved":false,"is_disabled":false,"rental_uris":{"android":"levelo://app?vid=c7ea5a96-0521-458c-8366-f7cf88222984","ios":"levelo://app?vid=c7ea5a96-0521-458c-8366-f7cf88222984"},"vehicle_type_id":"4","last_reported":1713384465,"current_range_meters":22800,"station_id":"ce4bgr92rcd13ifvqc7g","pricing_plan_id":"cebpf4jnsgd1na2vs0mg"},{"bike_id":"b340d8b9-62f5-43f2-905d-76df15a9bc67","system_id":"levelo_inurba_marseille","lat":43.299724,"lon":5.371829,"is_reserved":false,"is_disabled":false,"rental_uris":{"android":"levelo://app?vid=b340d8b9-62f5-43f2-905d-76df15a9bc67","ios":"levelo://app?vid=b340d8b9-62f5-43f2-905d-76df15a9bc67"},"vehicle_type_id":"4","last_reported":1713384465,"current_range_meters":23200,"station_id":"ce4bgr92rcd13ifvqc7g","pricing_plan_id":"cebpf4jnsgd1na2vs0mg"},{"bike_id":"79b1484c-7ca2-4a8d-b15b-2987062d3cb2","system_id":"levelo_inurba_marseille","lat":43.300151,"lon":5.376564,"is_reserved":false,"is_disabled":false,"rental_uris":{"android":"levelo://app?vid=79b1484c-7ca2-4a8d-b15b-2987062d3cb2","ios":"levelo://app?vid=79b1484c-7ca2-4a8d-b15b-2987062d3cb2"},"vehicle_type_id":"4","last_reported":1713384465,"current_range_meters":24000,"station_id":"","pricing_plan_id":"cebpf4jnsgd1na2vs0mg"},{"bike_id":"45a1e597-dfc5-4023-bb81-8736fd7f17a5","system_id":"levelo_inurba_marseille","lat":43.29853,"lon":5.36293,"is_reserved":false,"is_disabled":false,"rental_uris":{"android":"levelo://app?vid=45a1e597-dfc5-4023-bb81-8736fd7f17a5","ios":"levelo://app?vid=45a1e597-dfc5-4023-bb81-8736fd7f17a5"},"vehicle_type_id":"4","last_reported":1713384465,"current_range_meters":8400,"station_id":"ce4bgpp2rcd13ifvqc3g","pricing_plan_id":"cebpf4jnsgd1na2vs0mg"},{"bike_id":"e130b02e-3c4d-460e-b9c4-20980ae89568","system_id":"levelo_inurba_marseille","lat":43.305523,"lon":5.384313,"is_reserved":false,"is_disabled":false,"rental_uris":{"android":"levelo://app?vid=e130b02e-3c4d-460e-b9c4-20980ae89568","ios":"levelo://app?vid=e130b02e-3c4d-460e-b9c4-20980ae89568"},"vehicle_type_id":"4","last_reported":1713384465,"current_range_meters":0,"station_id":"ce4bgg92rcd13ifvqb30","pricing_plan_id":"cebpf4jnsgd1na2vs0mg"},{"bike_id":"d501ebb8-aa6f-4c77-bf98-94eb51951abc","system_id":"levelo_inurba_marseille","lat":43.314811,"lon":5.373104,"is_reserved":false,"is_disabled":false,"rental_uris":{"android":"levelo://app?vid=d501ebb8-aa6f-4c77-bf98-94eb51951abc","ios":"levelo://app?vid=d501ebb8-aa6f-4c77-bf98-94eb51951abc"},"vehicle_type_id":"4","last_reported":1713384465,"current_range_meters":12000,"station_id":"ce4bgt12rcd13ifvqcd0","pricing_plan_id":"cebpf4jnsgd1na2vs0mg"},{"bike_id":"20bf56a7-0ff7-4d9f-b828-37cc9c05620f","system_id":"levelo_inurba_marseille","lat":43.305364,"lon":5.384119,"is_reserved":false,"is_disabled":false,"rental_uris":{"android":"levelo://app?vid=20bf56a7-0ff7-4d9f-b828-37cc9c05620f","ios":"levelo://app?vid=20bf56a7-0ff7-4d9f-b828-37cc9c05620f"},"vehicle_type_id":"4","last_reported":1713384465,"current_range_meters":6800,"station_id":"ce4bgg92rcd13ifvqb30","pricing_plan_id":"cebpf4jnsgd1na2vs0mg"},{"bike_id":"cb918a48-0ef9-4bde-bc52-6f2cf8148377","system_id":"levelo_inurba_marseille","lat":43.299189,"lon":5.374774,"is_reserved":false,"is_disabled":false,"rental_uris":{"android":"levelo://app?vid=cb918a48-0ef9-4bde-bc52-6f2cf8148377","ios":"levelo://app?vid=cb918a48-0ef9-4bde-bc52-6f2cf8148377"},"vehicle_type_id":"4","last_reported":1713384465,"current_range_meters":31200,"station_id":"ce4bgjh2rcd13ifvqbg0","pricing_plan_id":"cebpf4jnsgd1na2vs0mg"},{"bike_id":"512bcc89-f21c-4c90-bcfe-b702dd7d144d","system_id":"levelo_inurba_marseille","lat":43.311722,"lon":5.387247,"is_reserved":false,"is_disabled":false,"rental_uris":{"android":"levelo://app?vid=512bcc89-f21c-4c90-bcfe-b702dd7d144d","ios":"levelo://app?vid=512bcc89-f21c-4c90-bcfe-b702dd7d144d"},"vehicle_type_id":"4","last_reported":1713384465,"current_range_meters":11600,"station_id":"ce4bgv12rcd13ifvqcp0","pricing_plan_id":"cebpf4jnsgd1na2vs0mg"},{"bike_id":"80ea55d7-c610-4883-a8a9-1fc39ca82327","system_id":"levelo_inurba_marseille","lat":43.311722,"lon":5.387247,"is_reserved":false,"is_disabled":false,"rental_uris":{"android":"levelo://app?vid=80ea55d7-c610-4883-a8a9-1fc39ca82327","ios":"levelo://app?vid=80ea55d7-c610-4883-a8a9-1fc39ca82327"},"vehicle_type_id":"4","last_reported":1713384465,"current_range_meters":15600,"station_id":"ce4bgv12rcd13ifvqcp0","pricing_plan_id":"cebpf4jnsgd1na2vs0mg"},{"bike_id":"3de02f77-f3c0-476d-a4d4-fbecd456b2ad","system_id":"levelo_inurba_marseille","lat":43.31167,"lon":5.38727,"is_reserved":false,"is_disabled":false,"rental_uris":{"android":"levelo://app?vid=3de02f77-f3c0-476d-a4d4-fbecd456b2ad","ios":"levelo://app?vid=3de02f77-f3c0-476d-a4d4-fbecd456b2ad"},"vehicle_type_id":"4","last_reported":1713384465,"current_range_meters":0,"station_id":"ce4bgv12rcd13ifvqcp0","pricing_plan_id":"cebpf4jnsgd1na2vs0mg"},{"bike_id":"53f5718e-9a19-47d1-a5f4-af5afcfa1676","system_id":"levelo_inurba_marseille","lat":43.297794,"lon":5.370888,"is_reserved":false,"is_disabled":false,"rental_uris":{"android":"levelo://app?vid=53f5718e-9a19-47d1-a5f4-af5afcfa1676","ios":"levelo://app?vid=53f5718e-9a19-47d1-a5f4-af5afcfa1676"},"vehicle_type_id":"4","last_reported":1713384465,"current_range_meters":8400,"station_id":"ce4bgop2rcd13ifvqc1g","pricing_plan_id":"cebpf4jnsgd1na2vs0mg"},{"bike_id":"116bf5db-e12d-4d32-8c42-8d320c2316e8","system_id":"levelo_inurba_marseille","lat":43.297794,"lon":5.370888,"is_reserved":false,"is_disabled":false,"rental_uris":{"android":"levelo://app?vid=116bf5db-e12d-4d32-8c42-8d320c2316e8","ios":"levelo://app?vid=116bf5db-e12d-4d32-8c42-8d320c2316e8"},"vehicle_type_id":"4","last_reported":1713384465,"current_range_meters":25200,"station_id":"ce4bgop2rcd13ifvqc1g","pricing_plan_id":"cebpf4jnsgd1na2vs0mg"},{"bike_id":"77bf658f-f395-4124-9987-d428c4bd1da5","system_id":"levelo_inurba_marseille","lat":43.297774,"lon":5.370875,"is_reserved":false,"is_disabled":false,"rental_uris":{"android":"levelo://app?vid=77bf658f-f395-4124-9987-d428c4bd1da5","ios":"levelo://app?vid=77bf658f-f395-4124-9987-d428c4bd1da5"},"vehicle_type_id":"4","last_reported":1713384465,"current_range_meters":24400,"station_id":"ce4bgop2rcd13ifvqc1g","pricing_plan_id":"cebpf4jnsgd1na2vs0mg"},{"bike_id":"b3a857fb-6d35-4a10-b4f8-94592f0bbb24","system_id":"levelo_inurba_marseille","lat":43.297794,"lon":5.370888,"is_reserved":false,"is_disabled":false,"rental_uris":{"android":"levelo://app?vid=b3a857fb-6d35-4a10-b4f8-94592f0bbb24","ios":"levelo://app?vid=b3a857fb-6d35-4a10-b4f8-94592f0bbb24"},"vehicle_type_id":"4","last_reported":1713384465,"current_range_meters":11600,"station_id":"ce4bgop2rcd13ifvqc1g","pricing_plan_id":"cebpf4jnsgd1na2vs0mg"},{"bike_id":"7d61ec06-9395-4362-b671-e7b8489f284d","system_id":"levelo_inurba_marseille","lat":43.297794,"lon":5.370888,"is_reserved":false,"is_disabled":false,"rental_uris":{"android":"levelo://app?vid=7d61ec06-9395-4362-b671-e7b8489f284d","ios":"levelo://app?vid=7d61ec06-9395-4362-b671-e7b8489f284d"},"vehicle_type_id":"4","last_reported":1713384465,"current_range_meters":22800,"station_id":"ce4bgop2rcd13ifvqc1g","pricing_plan_id":"cebpf4jnsgd1na2vs0mg"},{"bike_id":"7d5fd475-d045-43ea-a449-bbf319400056","system_id":"levelo_inurba_marseille","lat":43.30221,"lon":5.38199,"is_reserved":false,"is_disabled":false,"rental_uris":{"android":"levelo://app?vid=7d5fd475-d045-43ea-a449-bbf319400056","ios":"levelo://app?vid=7d5fd475-d045-43ea-a449-bbf319400056"},"vehicle_type_id":"4","last_reported":1713384465,"current_range_meters":6800,"station_id":"","pricing_plan_id":"cebpf4jnsgd1na2vs0mg"},{"bike_id":"e6ab72cf-f560-4717-91c1-42b63f3ee6c8","system_id":"levelo_inurba_marseille","lat":43.322872,"lon":5.382756,"is_reserved":false,"is_disabled":false,"rental_uris":{"android":"levelo://app?vid=e6ab72cf-f560-4717-91c1-42b63f3ee6c8","ios":"levelo://app?vid=e6ab72cf-f560-4717-91c1-42b63f3ee6c8"},"vehicle_type_id":"4","last_reported":1713384465,"current_range_meters":28800,"station_id":"ce4bhr12rcd13ifvqhqg","pricing_plan_id":"cebpf4jnsgd1na2vs0mg"},{"bike_id":"3791d0fc-3fbc-4499-8da1-29f4627ac9c5","system_id":"levelo_inurba_marseille","lat":43.322872,"lon":5.382756,"is_reserved":false,"is_disabled":false,"rental_uris":{"android":"levelo://app?vid=3791d0fc-3fbc-4499-8da1-29f4627ac9c5","ios":"levelo://app?vid=3791d0fc-3fbc-4499-8da1-29f4627ac9c5"},"vehicle_type_id":"4","last_reported":1713384465,"current_range_meters":800,"station_id":"ce4bhr12rcd13ifvqhqg","pricing_plan_id":"cebpf4jnsgd1na2vs0mg"},{"bike_id":"50c48fd1-1d17-430a-a7e2-4475109305e2","system_id":"levelo_inurba_marseille","lat":43.322872,"lon":5.382756,"is_reserved":false,"is_disabled":false,"rental_uris":{"android":"levelo://app?vid=50c48fd1-1d17-430a-a7e2-4475109305e2","ios":"levelo://app?vid=50c48fd1-1d17-430a-a7e2-4475109305e2"},"vehicle_type_id":"4","last_reported":1713384465,"current_range_meters":19600,"station_id":"ce4bhr12rcd13ifvqhqg","pricing_plan_id":"cebpf4jnsgd1na2vs0mg"},{"bike_id":"6c4d1a0b-97b3-4e86-87c5-6e727d67c919","system_id":"levelo_inurba_marseille","lat":43.322872,"lon":5.382756,"is_reserved":false,"is_disabled":false,"rental_uris":{"android":"levelo://app?vid=6c4d1a0b-97b3-4e86-87c5-6e727d67c919","ios":"levelo://app?vid=6c4d1a0b-97b3-4e86-87c5-6e727d67c919"},"vehicle_type_id":"4","last_reported":1713384465,"current_range_meters":31200,"station_id":"ce4bhr12rcd13ifvqhqg","pricing_plan_id":"cebpf4jnsgd1na2vs0mg"},{"bike_id":"cd97d608-1f2b-4521-b814-7007f99b3edf","system_id":"levelo_inurba_marseille","lat":43.297163,"lon":5.365866,"is_reserved":false,"is_disabled":false,"rental_uris":{"android":"levelo://app?vid=cd97d608-1f2b-4521-b814-7007f99b3edf","ios":"levelo://app?vid=cd97d608-1f2b-4521-b814-7007f99b3edf"},"vehicle_type_id":"4","last_reported":1713384465,"current_range_meters":15600,"station_id":"ce4bgn12rcd13ifvqbt0","pricing_plan_id":"cebpf4jnsgd1na2vs0mg"},{"bike_id":"94d5ee86-2da4-4c2f-8c1e-3aeabf9a39e6","system_id":"levelo_inurba_marseille","lat":43.297163,"lon":5.365866,"is_reserved":false,"is_disabled":false,"rental_uris":{"android":"levelo://app?vid=94d5ee86-2da4-4c2f-8c1e-3aeabf9a39e6","ios":"levelo://app?vid=94d5ee86-2da4-4c2f-8c1e-3aeabf9a39e6"},"vehicle_type_id":"4","last_reported":1713384465,"current_range_meters":30400,"station_id":"ce4bgn12rcd13ifvqbt0","pricing_plan_id":"cebpf4jnsgd1na2vs0mg"},{"bike_id":"54de0e48-aa0f-4785-b9c7-99fb196f3395","system_id":"levelo_inurba_marseille","lat":43.29706,"lon":5.36612,"is_reserved":false,"is_disabled":false,"rental_uris":{"android":"levelo://app?vid=54de0e48-aa0f-4785-b9c7-99fb196f3395","ios":"levelo://app?vid=54de0e48-aa0f-4785-b9c7-99fb196f3395"},"vehicle_type_id":"4","last_reported":1713384465,"current_range_meters":17200,"station_id":"ce4bgn12rcd13ifvqbt0","pricing_plan_id":"cebpf4jnsgd1na2vs0mg"},{"bike_id":"a266d83d-6a9f-4242-a941-5be188022d7a","system_id":"levelo_inurba_marseille","lat":43.297163,"lon":5.365866,"is_reserved":false,"is_disabled":false,"rental_uris":{"android":"levelo://app?vid=a266d83d-6a9f-4242-a941-5be188022d7a","ios":"levelo://app?vid=a266d83d-6a9f-4242-a941-5be188022d7a"},"vehicle_type_id":"4","last_reported":1713384465,"current_range_meters":4000,"station_id":"ce4bgn12rcd13ifvqbt0","pricing_plan_id":"cebpf4jnsgd1na2vs0mg"},{"bike_id":"c38d10b0-2fa1-4477-b330-24ef71e6b57d","system_id":"levelo_inurba_marseille","lat":43.299028,"lon":5.381509,"is_reserved":false,"is_disabled":false,"rental_uris":{"android":"levelo://app?vid=c38d10b0-2fa1-4477-b330-24ef71e6b57d","ios":"levelo://app?vid=c38d10b0-2fa1-4477-b330-24ef71e6b57d"},"vehicle_type_id":"4","last_reported":1713384465,"current_range_meters":2800,"station_id":"ce4bgj12rcd13ifvqbc0","pricing_plan_id":"cebpf4jnsgd1na2vs0mg"},{"bike_id":"bfdeaaba-fe35-46de-b925-88b134a23a26","system_id":"levelo_inurba_marseille","lat":43.29883,"lon":5.381107,"is_reserved":false,"is_disabled":false,"rental_uris":{"android":"levelo://app?vid=bfdeaaba-fe35-46de-b925-88b134a23a26","ios":"levelo://app?vid=bfdeaaba-fe35-46de-b925-88b134a23a26"},"vehicle_type_id":"4","last_reported":1713384465,"current_range_meters":20400,"station_id":"ce4bgj12rcd13ifvqbc0","pricing_plan_id":"cebpf4jnsgd1na2vs0mg"},{"bike_id":"4b05403d-9ca8-4d41-bdc4-aed289ebaeb1","system_id":"levelo_inurba_marseille","lat":43.296921,"lon":5.376579,"is_reserved":false,"is_disabled":false,"rental_uris":{"android":"levelo://app?vid=4b05403d-9ca8-4d41-bdc4-aed289ebaeb1","ios":"levelo://app?vid=4b05403d-9ca8-4d41-bdc4-aed289ebaeb1"},"vehicle_type_id":"4","last_reported":1713384465,"current_range_meters":15200,"station_id":"ce4bgkh2rcd13ifvqbl0","pricing_plan_id":"cebpf4jnsgd1na2vs0mg"},{"bike_id":"e6245ced-6502-4282-bc2f-4c0ec54f7906","system_id":"levelo_inurba_marseille","lat":43.317557,"lon":5.390173,"is_reserved":false,"is_disabled":false,"rental_uris":{"android":"levelo://app?vid=e6245ced-6502-4282-bc2f-4c0ec54f7906","ios":"levelo://app?vid=e6245ced-6502-4282-bc2f-4c0ec54f7906"},"vehicle_type_id":"4","last_reported":1713384465,"current_range_meters":28000,"station_id":"ce4bhqp2rcd13ifvqhng","pricing_plan_id":"cebpf4jnsgd1na2vs0mg"},{"bike_id":"c14fbef5-3575-4829-9d17-0a3d7f85eb41","system_id":"levelo_inurba_marseille","lat":43.304274,"lon":5.388873,"is_reserved":false,"is_disabled":false,"rental_uris":{"android":"levelo://app?vid=c14fbef5-3575-4829-9d17-0a3d7f85eb41","ios":"levelo://app?vid=c14fbef5-3575-4829-9d17-0a3d7f85eb41"},"vehicle_type_id":"4","last_reported":1713384465,"current_range_meters":24400,"station_id":"ce4bgk12rcd13ifvqbi0","pricing_plan_id":"cebpf4jnsgd1na2vs0mg"},{"bike_id":"2845a7f4-cab8-4fcd-82dc-f1356b95cb35","system_id":"levelo_inurba_marseille","lat":43.305364,"lon":5.384119,"is_reserved":false,"is_disabled":false,"rental_uris":{"android":"levelo://app?vid=2845a7f4-cab8-4fcd-82dc-f1356b95cb35","ios":"levelo://app?vid=2845a7f4-cab8-4fcd-82dc-f1356b95cb35"},"vehicle_type_id":"4","last_reported":1713384465,"current_range_meters":10800,"station_id":"ce4bgg92rcd13ifvqb30","pricing_plan_id":"cebpf4jnsgd1na2vs0mg"},{"bike_id":"4a1b6299-b899-41e6-8c81-fa154c18c529","system_id":"levelo_inurba_marseille","lat":43.304274,"lon":5.388873,"is_reserved":false,"is_disabled":false,"rental_uris":{"android":"levelo://app?vid=4a1b6299-b899-41e6-8c81-fa154c18c529","ios":"levelo://app?vid=4a1b6299-b899-41e6-8c81-fa154c18c529"},"vehicle_type_id":"4","last_reported":1713384465,"current_range_meters":0,"station_id":"ce4bgk12rcd13ifvqbi0","pricing_plan_id":"cebpf4jnsgd1na2vs0mg"},{"bike_id":"2e9db876-4669-4cbd-9401-1f4750d86132","system_id":"levelo_inurba_marseille","lat":43.296263,"lon":5.377094,"is_reserved":false,"is_disabled":false,"rental_uris":{"android":"levelo://app?vid=2e9db876-4669-4cbd-9401-1f4750d86132","ios":"levelo://app?vid=2e9db876-4669-4cbd-9401-1f4750d86132"},"vehicle_type_id":"4","last_reported":1713384465,"current_range_meters":2000,"station_id":"ce4bgi92rcd13ifvqb90","pricing_plan_id":"cebpf4jnsgd1na2vs0mg"},{"bike_id":"4eb574d4-43ac-46fe-ac30-8c2643c65202","system_id":"levelo_inurba_marseille","lat":43.304274,"lon":5.388873,"is_reserved":false,"is_disabled":false,"rental_uris":{"android":"levelo://app?vid=4eb574d4-43ac-46fe-ac30-8c2643c65202","ios":"levelo://app?vid=4eb574d4-43ac-46fe-ac30-8c2643c65202"},"vehicle_type_id":"4","last_reported":1713384465,"current_range_meters":31200,"station_id":"ce4bgk12rcd13ifvqbi0","pricing_plan_id":"cebpf4jnsgd1na2vs0mg"},{"bike_id":"d410cfa7-a5de-4b2d-8c02-4e9c77bb2e3d","system_id":"levelo_inurba_marseille","lat":43.304278,"lon":5.388868,"is_reserved":false,"is_disabled":false,"rental_uris":{"android":"levelo://app?vid=d410cfa7-a5de-4b2d-8c02-4e9c77bb2e3d","ios":"levelo://app?vid=d410cfa7-a5de-4b2d-8c02-4e9c77bb2e3d"},"vehicle_type_id":"4","last_reported":1713384465,"current_range_meters":29200,"station_id":"ce4bgk12rcd13ifvqbi0","pricing_plan_id":"cebpf4jnsgd1na2vs0mg"},{"bike_id":"d22ceeaf-0a05-4ff1-855b-73063c67aad6","system_id":"levelo_inurba_marseille","lat":43.304278,"lon":5.388868,"is_reserved":false,"is_disabled":false,"rental_uris":{"android":"levelo://app?vid=d22ceeaf-0a05-4ff1-855b-73063c67aad6","ios":"levelo://app?vid=d22ceeaf-0a05-4ff1-855b-73063c67aad6"},"vehicle_type_id":"4","last_reported":1713384465,"current_range_meters":14400,"station_id":"ce4bgk12rcd13ifvqbi0","pricing_plan_id":"cebpf4jnsgd1na2vs0mg"},{"bike_id":"f107b5c4-fd2d-47d1-92f4-c9b431aa32a0","system_id":"levelo_inurba_marseille","lat":43.304278,"lon":5.388868,"is_reserved":false,"is_disabled":false,"rental_uris":{"android":"levelo://app?vid=f107b5c4-fd2d-47d1-92f4-c9b431aa32a0","ios":"levelo://app?vid=f107b5c4-fd2d-47d1-92f4-c9b431aa32a0"},"vehicle_type_id":"4","last_reported":1713384465,"current_range_meters":9600,"station_id":"ce4bgk12rcd13ifvqbi0","pricing_plan_id":"cebpf4jnsgd1na2vs0mg"},{"bike_id":"45170d8f-f00b-43c6-af80-4ba01b58aa16","system_id":"levelo_inurba_marseille","lat":43.304278,"lon":5.388868,"is_reserved":false,"is_disabled":false,"rental_uris":{"android":"levelo://app?vid=45170d8f-f00b-43c6-af80-4ba01b58aa16","ios":"levelo://app?vid=45170d8f-f00b-43c6-af80-4ba01b58aa16"},"vehicle_type_id":"4","last_reported":1713384465,"current_range_meters":20800,"station_id":"ce4bgk12rcd13ifvqbi0","pricing_plan_id":"cebpf4jnsgd1na2vs0mg"},{"bike_id":"5a11c1a0-b0a1-4c79-a6be-adec026ea403","system_id":"levelo_inurba_marseille","lat":43.304274,"lon":5.388873,"is_reserved":false,"is_disabled":false,"rental_uris":{"android":"levelo://app?vid=5a11c1a0-b0a1-4c79-a6be-adec026ea403","ios":"levelo://app?vid=5a11c1a0-b0a1-4c79-a6be-adec026ea403"},"vehicle_type_id":"4","last_reported":1713384465,"current_range_meters":5200,"station_id":"ce4bgk12rcd13ifvqbi0","pricing_plan_id":"cebpf4jnsgd1na2vs0mg"},{"bike_id":"1609b739-13c5-407d-8c5d-4931ed2016a4","system_id":"levelo_inurba_marseille","lat":43.304274,"lon":5.388873,"is_reserved":false,"is_disabled":false,"rental_uris":{"android":"levelo://app?vid=1609b739-13c5-407d-8c5d-4931ed2016a4","ios":"levelo://app?vid=1609b739-13c5-407d-8c5d-4931ed2016a4"},"vehicle_type_id":"4","last_reported":1713384465,"current_range_meters":0,"station_id":"ce4bgk12rcd13ifvqbi0","pricing_plan_id":"cebpf4jnsgd1na2vs0mg"},{"bike_id":"567908ff-af7a-470f-a67e-14cb4efdd25b","system_id":"levelo_inurba_marseille","lat":43.32367,"lon":5.388836,"is_reserved":false,"is_disabled":false,"rental_uris":{"android":"levelo://app?vid=567908ff-af7a-470f-a67e-14cb4efdd25b","ios":"levelo://app?vid=567908ff-af7a-470f-a67e-14cb4efdd25b"},"vehicle_type_id":"4","last_reported":1713384465,"current_range_meters":0,"station_id":"ce4bhqp2rcd13ifvqhog","pricing_plan_id":"cebpf4jnsgd1na2vs0mg"},{"bike_id":"2507d039-283c-4515-bced-f26a28c54abf","system_id":"levelo_inurba_marseille","lat":43.32367,"lon":5.388836,"is_reserved":false,"is_disabled":false,"rental_uris":{"android":"levelo://app?vid=2507d039-283c-4515-bced-f26a28c54abf","ios":"levelo://app?vid=2507d039-283c-4515-bced-f26a28c54abf"},"vehicle_type_id":"4","last_reported":1713384465,"current_range_meters":22400,"station_id":"ce4bhqp2rcd13ifvqhog","pricing_plan_id":"cebpf4jnsgd1na2vs0mg"},{"bike_id":"ee3f6774-dd2d-4629-83b9-e1175c492c7c","system_id":"levelo_inurba_marseille","lat":43.32367,"lon":5.388836,"is_reserved":false,"is_disabled":false,"rental_uris":{"android":"levelo://app?vid=ee3f6774-dd2d-4629-83b9-e1175c492c7c","ios":"levelo://app?vid=ee3f6774-dd2d-4629-83b9-e1175c492c7c"},"vehicle_type_id":"4","last_reported":1713384465,"current_range_meters":8000,"station_id":"ce4bhqp2rcd13ifvqhog","pricing_plan_id":"cebpf4jnsgd1na2vs0mg"},{"bike_id":"47cea0d7-d32f-4905-99ee-66d9522440d5","system_id":"levelo_inurba_marseille","lat":43.32367,"lon":5.388836,"is_reserved":false,"is_disabled":false,"rental_uris":{"android":"levelo://app?vid=47cea0d7-d32f-4905-99ee-66d9522440d5","ios":"levelo://app?vid=47cea0d7-d32f-4905-99ee-66d9522440d5"},"vehicle_type_id":"4","last_reported":1713384465,"current_range_meters":15200,"station_id":"ce4bhqp2rcd13ifvqhog","pricing_plan_id":"cebpf4jnsgd1na2vs0mg"},{"bike_id":"82af7f51-ae40-476e-8ce0-8e533c1df6fb","system_id":"levelo_inurba_marseille","lat":43.29602,"lon":5.381084,"is_reserved":false,"is_disabled":false,"rental_uris":{"android":"levelo://app?vid=82af7f51-ae40-476e-8ce0-8e533c1df6fb","ios":"levelo://app?vid=82af7f51-ae40-476e-8ce0-8e533c1df6fb"},"vehicle_type_id":"4","last_reported":1713384465,"current_range_meters":30400,"station_id":"ce4bgl12rcd13ifvqbo0","pricing_plan_id":"cebpf4jnsgd1na2vs0mg"},{"bike_id":"6fde745e-4adf-493a-91bc-e7c4ab0e4ef5","system_id":"levelo_inurba_marseille","lat":43.29602,"lon":5.381084,"is_reserved":false,"is_disabled":false,"rental_uris":{"android":"levelo://app?vid=6fde745e-4adf-493a-91bc-e7c4ab0e4ef5","ios":"levelo://app?vid=6fde745e-4adf-493a-91bc-e7c4ab0e4ef5"},"vehicle_type_id":"4","last_reported":1713384465,"current_range_meters":17200,"station_id":"ce4bgl12rcd13ifvqbo0","pricing_plan_id":"cebpf4jnsgd1na2vs0mg"},{"bike_id":"b3d7bad1-191a-4e8c-ac2e-d079e0025f0b","system_id":"levelo_inurba_marseille","lat":43.29602,"lon":5.381084,"is_reserved":false,"is_disabled":false,"rental_uris":{"android":"levelo://app?vid=b3d7bad1-191a-4e8c-ac2e-d079e0025f0b","ios":"levelo://app?vid=b3d7bad1-191a-4e8c-ac2e-d079e0025f0b"},"vehicle_type_id":"4","last_reported":1713384465,"current_range_meters":15600,"station_id":"ce4bgl12rcd13ifvqbo0","pricing_plan_id":"cebpf4jnsgd1na2vs0mg"},{"bike_id":"7e01a1a0-26b9-4bda-9818-bc255d28d3a6","system_id":"levelo_inurba_marseille","lat":43.292644,"lon":5.384257,"is_reserved":false,"is_disabled":false,"rental_uris":{"android":"levelo://app?vid=7e01a1a0-26b9-4bda-9818-bc255d28d3a6","ios":"levelo://app?vid=7e01a1a0-26b9-4bda-9818-bc255d28d3a6"},"vehicle_type_id":"4","last_reported":1713384465,"current_range_meters":20000,"station_id":"ce4bh692rcd13ifvqea0","pricing_plan_id":"cebpf4jnsgd1na2vs0mg"},{"bike_id":"d1817761-3716-40a7-be7a-181171cf46af","system_id":"levelo_inurba_marseille","lat":43.292749,"lon":5.368398,"is_reserved":false,"is_disabled":false,"rental_uris":{"android":"levelo://app?vid=d1817761-3716-40a7-be7a-181171cf46af","ios":"levelo://app?vid=d1817761-3716-40a7-be7a-181171cf46af"},"vehicle_type_id":"4","last_reported":1713384465,"current_range_meters":29200,"station_id":"ce4bhbp2rcd13ifvqesg","pricing_plan_id":"cebpf4jnsgd1na2vs0mg"},{"bike_id":"cf161567-63de-4f4e-aef8-9133aa88c086","system_id":"levelo_inurba_marseille","lat":43.293249,"lon":5.371578,"is_reserved":false,"is_disabled":false,"rental_uris":{"android":"levelo://app?vid=cf161567-63de-4f4e-aef8-9133aa88c086","ios":"levelo://app?vid=cf161567-63de-4f4e-aef8-9133aa88c086"},"vehicle_type_id":"4","last_reported":1713384465,"current_range_meters":8400,"station_id":"ce4bgh92rcd13ifvqb40","pricing_plan_id":"cebpf4jnsgd1na2vs0mg"},{"bike_id":"c5fbdaae-981b-488a-9b2c-824dcb8c69f1","system_id":"levelo_inurba_marseille","lat":43.29309,"lon":5.37176,"is_reserved":false,"is_disabled":false,"rental_uris":{"android":"levelo://app?vid=c5fbdaae-981b-488a-9b2c-824dcb8c69f1","ios":"levelo://app?vid=c5fbdaae-981b-488a-9b2c-824dcb8c69f1"},"vehicle_type_id":"4","last_reported":1713384465,"current_range_meters":4000,"station_id":"ce4bgh92rcd13ifvqb40","pricing_plan_id":"cebpf4jnsgd1na2vs0mg"},{"bike_id":"f7db7842-2fc7-4cdc-84af-d2b4c261897e","system_id":"levelo_inurba_marseille","lat":43.292749,"lon":5.368398,"is_reserved":false,"is_disabled":false,"rental_uris":{"android":"levelo://app?vid=f7db7842-2fc7-4cdc-84af-d2b4c261897e","ios":"levelo://app?vid=f7db7842-2fc7-4cdc-84af-d2b4c261897e"},"vehicle_type_id":"4","last_reported":1713384465,"current_range_meters":2800,"station_id":"ce4bhbp2rcd13ifvqesg","pricing_plan_id":"cebpf4jnsgd1na2vs0mg"},{"bike_id":"672391c7-d7ed-4ba6-970c-25129cc93e2c","system_id":"levelo_inurba_marseille","lat":43.29305,"lon":5.37171,"is_reserved":false,"is_disabled":false,"rental_uris":{"android":"levelo://app?vid=672391c7-d7ed-4ba6-970c-25129cc93e2c","ios":"levelo://app?vid=672391c7-d7ed-4ba6-970c-25129cc93e2c"},"vehicle_type_id":"4","last_reported":1713384465,"current_range_meters":4400,"station_id":"ce4bgh92rcd13ifvqb40","pricing_plan_id":"cebpf4jnsgd1na2vs0mg"},{"bike_id":"166b2780-898c-4651-be25-61411444b34b","system_id":"levelo_inurba_marseille","lat":43.29306,"lon":5.37179,"is_reserved":false,"is_disabled":false,"rental_uris":{"android":"levelo://app?vid=166b2780-898c-4651-be25-61411444b34b","ios":"levelo://app?vid=166b2780-898c-4651-be25-61411444b34b"},"vehicle_type_id":"4","last_reported":1713384465,"current_range_meters":9600,"station_id":"ce4bgh92rcd13ifvqb40","pricing_plan_id":"cebpf4jnsgd1na2vs0mg"},{"bike_id":"d4eaf6af-aaa1-4cf5-ab18-e5f1f8a5503a","system_id":"levelo_inurba_marseille","lat":43.292749,"lon":5.368402,"is_reserved":false,"is_disabled":false,"rental_uris":{"android":"levelo://app?vid=d4eaf6af-aaa1-4cf5-ab18-e5f1f8a5503a","ios":"levelo://app?vid=d4eaf6af-aaa1-4cf5-ab18-e5f1f8a5503a"},"vehicle_type_id":"4","last_reported":1713384465,"current_range_meters":400,"station_id":"ce4bhbp2rcd13ifvqesg","pricing_plan_id":"cebpf4jnsgd1na2vs0mg"},{"bike_id":"a6fa51eb-ec90-4c07-b058-b6d03b9531bc","system_id":"levelo_inurba_marseille","lat":43.292749,"lon":5.368402,"is_reserved":false,"is_disabled":false,"rental_uris":{"android":"levelo://app?vid=a6fa51eb-ec90-4c07-b058-b6d03b9531bc","ios":"levelo://app?vid=a6fa51eb-ec90-4c07-b058-b6d03b9531bc"},"vehicle_type_id":"4","last_reported":1713384465,"current_range_meters":29200,"station_id":"ce4bhbp2rcd13ifvqesg","pricing_plan_id":"cebpf4jnsgd1na2vs0mg"},{"bike_id":"d1c046c9-165b-4e7d-af07-f2513eae4bc8","system_id":"levelo_inurba_marseille","lat":43.2931,"lon":5.37452,"is_reserved":false,"is_disabled":false,"rental_uris":{"android":"levelo://app?vid=d1c046c9-165b-4e7d-af07-f2513eae4bc8","ios":"levelo://app?vid=d1c046c9-165b-4e7d-af07-f2513eae4bc8"},"vehicle_type_id":"4","last_reported":1713384465,"current_range_meters":4400,"station_id":"ce4bgi12rcd13ifvqb70","pricing_plan_id":"cebpf4jnsgd1na2vs0mg"},{"bike_id":"bb62e3fe-7265-4df7-9130-63e2c36b192b","system_id":"levelo_inurba_marseille","lat":43.305994,"lon":5.393687,"is_reserved":false,"is_disabled":false,"rental_uris":{"android":"levelo://app?vid=bb62e3fe-7265-4df7-9130-63e2c36b192b","ios":"levelo://app?vid=bb62e3fe-7265-4df7-9130-63e2c36b192b"},"vehicle_type_id":"4","last_reported":1713384465,"current_range_meters":17200,"station_id":"ce4bh0p2rcd13ifvqd80","pricing_plan_id":"cebpf4jnsgd1na2vs0mg"},{"bike_id":"570fd248-29d9-443c-a4fa-7321ae43e7d3","system_id":"levelo_inurba_marseille","lat":43.305994,"lon":5.393687,"is_reserved":false,"is_disabled":false,"rental_uris":{"android":"levelo://app?vid=570fd248-29d9-443c-a4fa-7321ae43e7d3","ios":"levelo://app?vid=570fd248-29d9-443c-a4fa-7321ae43e7d3"},"vehicle_type_id":"4","last_reported":1713384465,"current_range_meters":3600,"station_id":"ce4bh0p2rcd13ifvqd80","pricing_plan_id":"cebpf4jnsgd1na2vs0mg"},{"bike_id":"d9b438f7-9397-4d9d-9297-7e9351a09769","system_id":"levelo_inurba_marseille","lat":43.305994,"lon":5.393687,"is_reserved":false,"is_disabled":false,"rental_uris":{"android":"levelo://app?vid=d9b438f7-9397-4d9d-9297-7e9351a09769","ios":"levelo://app?vid=d9b438f7-9397-4d9d-9297-7e9351a09769"},"vehicle_type_id":"4","last_reported":1713384465,"current_range_meters":28400,"station_id":"ce4bh0p2rcd13ifvqd80","pricing_plan_id":"cebpf4jnsgd1na2vs0mg"},{"bike_id":"9415eb3d-3363-45b8-b380-b16461fcae8d","system_id":"levelo_inurba_marseille","lat":43.305994,"lon":5.393687,"is_reserved":false,"is_disabled":false,"rental_uris":{"android":"levelo://app?vid=9415eb3d-3363-45b8-b380-b16461fcae8d","ios":"levelo://app?vid=9415eb3d-3363-45b8-b380-b16461fcae8d"},"vehicle_type_id":"4","last_reported":1713384465,"current_range_meters":17200,"station_id":"ce4bh0p2rcd13ifvqd80","pricing_plan_id":"cebpf4jnsgd1na2vs0mg"},{"bike_id":"109b7a92-3416-4fd8-9d94-ec965e2410ec","system_id":"levelo_inurba_marseille","lat":43.305994,"lon":5.393687,"is_reserved":false,"is_disabled":false,"rental_uris":{"android":"levelo://app?vid=109b7a92-3416-4fd8-9d94-ec965e2410ec","ios":"levelo://app?vid=109b7a92-3416-4fd8-9d94-ec965e2410ec"},"vehicle_type_id":"4","last_reported":1713384465,"current_range_meters":22800,"station_id":"ce4bh0p2rcd13ifvqd80","pricing_plan_id":"cebpf4jnsgd1na2vs0mg"},{"bike_id":"30e57d97-48ad-414a-a3ed-dc6af7a18c97","system_id":"levelo_inurba_marseille","lat":43.29529,"lon":5.385581,"is_reserved":false,"is_disabled":false,"rental_uris":{"android":"levelo://app?vid=30e57d97-48ad-414a-a3ed-dc6af7a18c97","ios":"levelo://app?vid=30e57d97-48ad-414a-a3ed-dc6af7a18c97"},"vehicle_type_id":"4","last_reported":1713384465,"current_range_meters":2800,"station_id":"ce4bgih2rcd13ifvqba0","pricing_plan_id":"cebpf4jnsgd1na2vs0mg"},{"bike_id":"8e7c0851-f965-408f-8fec-efc96c36bb54","system_id":"levelo_inurba_marseille","lat":43.303002,"lon":5.392142,"is_reserved":false,"is_disabled":false,"rental_uris":{"android":"levelo://app?vid=8e7c0851-f965-408f-8fec-efc96c36bb54","ios":"levelo://app?vid=8e7c0851-f965-408f-8fec-efc96c36bb54"},"vehicle_type_id":"4","last_reported":1713384465,"current_range_meters":24800,"station_id":"ce4bgkh2rcd13ifvqbk0","pricing_plan_id":"cebpf4jnsgd1na2vs0mg"},{"bike_id":"a82429c4-d956-4d13-b7e4-c143bc5360d0","system_id":"levelo_inurba_marseille","lat":43.29372,"lon":5.37855,"is_reserved":false,"is_disabled":false,"rental_uris":{"android":"levelo://app?vid=a82429c4-d956-4d13-b7e4-c143bc5360d0","ios":"levelo://app?vid=a82429c4-d956-4d13-b7e4-c143bc5360d0"},"vehicle_type_id":"4","last_reported":1713384465,"current_range_meters":28800,"station_id":"ce4bgjh2rcd13ifvqbf0","pricing_plan_id":"cebpf4jnsgd1na2vs0mg"},{"bike_id":"0f388a68-1825-4022-a9d8-3d258f15019a","system_id":"levelo_inurba_marseille","lat":43.300852,"lon":5.390859,"is_reserved":false,"is_disabled":false,"rental_uris":{"android":"levelo://app?vid=0f388a68-1825-4022-a9d8-3d258f15019a","ios":"levelo://app?vid=0f388a68-1825-4022-a9d8-3d258f15019a"},"vehicle_type_id":"4","last_reported":1713384465,"current_range_meters":13200,"station_id":"ce4bh192rcd13ifvqdb0","pricing_plan_id":"cebpf4jnsgd1na2vs0mg"},{"bike_id":"42c72979-5639-4401-be32-082f09d1f914","system_id":"levelo_inurba_marseille","lat":43.292311,"lon":5.360731,"is_reserved":false,"is_disabled":false,"rental_uris":{"android":"levelo://app?vid=42c72979-5639-4401-be32-082f09d1f914","ios":"levelo://app?vid=42c72979-5639-4401-be32-082f09d1f914"},"vehicle_type_id":"4","last_reported":1713384465,"current_range_meters":6000,"station_id":"ce4bhbh2rcd13ifvqeqg","pricing_plan_id":"cebpf4jnsgd1na2vs0mg"},{"bike_id":"e971208d-ae64-41a3-bfdb-2860c96e4a0b","system_id":"levelo_inurba_marseille","lat":43.30085,"lon":5.390856,"is_reserved":false,"is_disabled":false,"rental_uris":{"android":"levelo://app?vid=e971208d-ae64-41a3-bfdb-2860c96e4a0b","ios":"levelo://app?vid=e971208d-ae64-41a3-bfdb-2860c96e4a0b"},"vehicle_type_id":"4","last_reported":1713384465,"current_range_meters":28000,"station_id":"ce4bh192rcd13ifvqdb0","pricing_plan_id":"cebpf4jnsgd1na2vs0mg"},{"bike_id":"cc17e555-0b64-4026-9926-3480d49bde44","system_id":"levelo_inurba_marseille","lat":43.300852,"lon":5.390859,"is_reserved":false,"is_disabled":false,"rental_uris":{"android":"levelo://app?vid=cc17e555-0b64-4026-9926-3480d49bde44","ios":"levelo://app?vid=cc17e555-0b64-4026-9926-3480d49bde44"},"vehicle_type_id":"4","last_reported":1713384465,"current_range_meters":6800,"station_id":"ce4bh192rcd13ifvqdb0","pricing_plan_id":"cebpf4jnsgd1na2vs0mg"},{"bike_id":"6b606019-1df5-4088-86c9-857e0286735f","system_id":"levelo_inurba_marseille","lat":43.300852,"lon":5.390859,"is_reserved":false,"is_disabled":false,"rental_uris":{"android":"levelo://app?vid=6b606019-1df5-4088-86c9-857e0286735f","ios":"levelo://app?vid=6b606019-1df5-4088-86c9-857e0286735f"},"vehicle_type_id":"4","last_reported":1713384465,"current_range_meters":6000,"station_id":"ce4bh192rcd13ifvqdb0","pricing_plan_id":"cebpf4jnsgd1na2vs0mg"},{"bike_id":"2eb1fd04-97b6-481a-a8ed-ea4b0ba02e53","system_id":"levelo_inurba_marseille","lat":43.300852,"lon":5.390859,"is_reserved":false,"is_disabled":false,"rental_uris":{"android":"levelo://app?vid=2eb1fd04-97b6-481a-a8ed-ea4b0ba02e53","ios":"levelo://app?vid=2eb1fd04-97b6-481a-a8ed-ea4b0ba02e53"},"vehicle_type_id":"4","last_reported":1713384465,"current_range_meters":2800,"station_id":"ce4bh192rcd13ifvqdb0","pricing_plan_id":"cebpf4jnsgd1na2vs0mg"},{"bike_id":"37625a74-2145-4b01-a6dd-1a0fdcdc0d0a","system_id":"levelo_inurba_marseille","lat":43.291675,"lon":5.371583,"is_reserved":false,"is_disabled":false,"rental_uris":{"android":"levelo://app?vid=37625a74-2145-4b01-a6dd-1a0fdcdc0d0a","ios":"levelo://app?vid=37625a74-2145-4b01-a6dd-1a0fdcdc0d0a"},"vehicle_type_id":"4","last_reported":1713384465,"current_range_meters":20400,"station_id":"ce4bha92rcd13ifvqeh0","pricing_plan_id":"cebpf4jnsgd1na2vs0mg"},{"bike_id":"67f10ab0-1a4a-484f-bf45-f9f31f7ef193","system_id":"levelo_inurba_marseille","lat":43.29172,"lon":5.37141,"is_reserved":false,"is_disabled":false,"rental_uris":{"android":"levelo://app?vid=67f10ab0-1a4a-484f-bf45-f9f31f7ef193","ios":"levelo://app?vid=67f10ab0-1a4a-484f-bf45-f9f31f7ef193"},"vehicle_type_id":"4","last_reported":1713384465,"current_range_meters":30400,"station_id":"ce4bha92rcd13ifvqeh0","pricing_plan_id":"cebpf4jnsgd1na2vs0mg"},{"bike_id":"c47eeb31-5b5d-4015-8c00-505ab36c993c","system_id":"levelo_inurba_marseille","lat":43.291675,"lon":5.371583,"is_reserved":false,"is_disabled":false,"rental_uris":{"android":"levelo://app?vid=c47eeb31-5b5d-4015-8c00-505ab36c993c","ios":"levelo://app?vid=c47eeb31-5b5d-4015-8c00-505ab36c993c"},"vehicle_type_id":"4","last_reported":1713384465,"current_range_meters":20000,"station_id":"ce4bha92rcd13ifvqeh0","pricing_plan_id":"cebpf4jnsgd1na2vs0mg"},{"bike_id":"02869303-044f-416e-b123-85611ac2c876","system_id":"levelo_inurba_marseille","lat":43.291675,"lon":5.371583,"is_reserved":false,"is_disabled":false,"rental_uris":{"android":"levelo://app?vid=02869303-044f-416e-b123-85611ac2c876","ios":"levelo://app?vid=02869303-044f-416e-b123-85611ac2c876"},"vehicle_type_id":"4","last_reported":1713384465,"current_range_meters":0,"station_id":"ce4bha92rcd13ifvqeh0","pricing_plan_id":"cebpf4jnsgd1na2vs0mg"},{"bike_id":"fb08ffd4-954e-404c-9d80-b5af432a6dca","system_id":"levelo_inurba_marseille","lat":43.291671,"lon":5.371575,"is_reserved":false,"is_disabled":false,"rental_uris":{"android":"levelo://app?vid=fb08ffd4-954e-404c-9d80-b5af432a6dca","ios":"levelo://app?vid=fb08ffd4-954e-404c-9d80-b5af432a6dca"},"vehicle_type_id":"4","last_reported":1713384465,"current_range_meters":10400,"station_id":"ce4bha92rcd13ifvqeh0","pricing_plan_id":"cebpf4jnsgd1na2vs0mg"},{"bike_id":"f50aafa2-0063-4da8-9633-288683c5aca6","system_id":"levelo_inurba_marseille","lat":43.298764,"lon":5.388973,"is_reserved":false,"is_disabled":false,"rental_uris":{"android":"levelo://app?vid=f50aafa2-0063-4da8-9633-288683c5aca6","ios":"levelo://app?vid=f50aafa2-0063-4da8-9633-288683c5aca6"},"vehicle_type_id":"4","last_reported":1713384465,"current_range_meters":20800,"station_id":"ce4bh392rcd13ifvqdl0","pricing_plan_id":"cebpf4jnsgd1na2vs0mg"},{"bike_id":"e517c8fd-e3ce-4a38-98d7-32838f03d9d8","system_id":"levelo_inurba_marseille","lat":43.298764,"lon":5.388973,"is_reserved":false,"is_disabled":false,"rental_uris":{"android":"levelo://app?vid=e517c8fd-e3ce-4a38-98d7-32838f03d9d8","ios":"levelo://app?vid=e517c8fd-e3ce-4a38-98d7-32838f03d9d8"},"vehicle_type_id":"4","last_reported":1713384465,"current_range_meters":15600,"station_id":"ce4bh392rcd13ifvqdl0","pricing_plan_id":"cebpf4jnsgd1na2vs0mg"},{"bike_id":"b6d41020-e7d3-4f43-a677-5afa2cbb6fe3","system_id":"levelo_inurba_marseille","lat":43.298764,"lon":5.388973,"is_reserved":false,"is_disabled":false,"rental_uris":{"android":"levelo://app?vid=b6d41020-e7d3-4f43-a677-5afa2cbb6fe3","ios":"levelo://app?vid=b6d41020-e7d3-4f43-a677-5afa2cbb6fe3"},"vehicle_type_id":"4","last_reported":1713384465,"current_range_meters":13200,"station_id":"ce4bh392rcd13ifvqdl0","pricing_plan_id":"cebpf4jnsgd1na2vs0mg"},{"bike_id":"0510c6d3-d41d-4a0a-89e0-dd609c3d0217","system_id":"levelo_inurba_marseille","lat":43.298764,"lon":5.388973,"is_reserved":false,"is_disabled":false,"rental_uris":{"android":"levelo://app?vid=0510c6d3-d41d-4a0a-89e0-dd609c3d0217","ios":"levelo://app?vid=0510c6d3-d41d-4a0a-89e0-dd609c3d0217"},"vehicle_type_id":"4","last_reported":1713384465,"current_range_meters":4800,"station_id":"ce4bh392rcd13ifvqdl0","pricing_plan_id":"cebpf4jnsgd1na2vs0mg"},{"bike_id":"dcc6eb97-50dd-45ee-aa7a-68fe0925e478","system_id":"levelo_inurba_marseille","lat":43.29869,"lon":5.38909,"is_reserved":false,"is_disabled":false,"rental_uris":{"android":"levelo://app?vid=dcc6eb97-50dd-45ee-aa7a-68fe0925e478","ios":"levelo://app?vid=dcc6eb97-50dd-45ee-aa7a-68fe0925e478"},"vehicle_type_id":"4","last_reported":1713384465,"current_range_meters":23600,"station_id":"ce4bh392rcd13ifvqdl0","pricing_plan_id":"cebpf4jnsgd1na2vs0mg"},{"bike_id":"72bf6028-2955-4401-b783-432b4c965108","system_id":"levelo_inurba_marseille","lat":43.298764,"lon":5.388973,"is_reserved":false,"is_disabled":false,"rental_uris":{"android":"levelo://app?vid=72bf6028-2955-4401-b783-432b4c965108","ios":"levelo://app?vid=72bf6028-2955-4401-b783-432b4c965108"},"vehicle_type_id":"4","last_reported":1713384465,"current_range_meters":26000,"station_id":"ce4bh392rcd13ifvqdl0","pricing_plan_id":"cebpf4jnsgd1na2vs0mg"},{"bike_id":"cd5c3be6-2076-4c0a-8ecb-3e1acd9ea4c6","system_id":"levelo_inurba_marseille","lat":43.292005,"lon":5.357875,"is_reserved":false,"is_disabled":false,"rental_uris":{"android":"levelo://app?vid=cd5c3be6-2076-4c0a-8ecb-3e1acd9ea4c6","ios":"levelo://app?vid=cd5c3be6-2076-4c0a-8ecb-3e1acd9ea4c6"},"vehicle_type_id":"4","last_reported":1713384465,"current_range_meters":20000,"station_id":"ce4bhb12rcd13ifvqel0","pricing_plan_id":"cebpf4jnsgd1na2vs0mg"},{"bike_id":"01f09620-eaec-4b53-b082-f8b294445808","system_id":"levelo_inurba_marseille","lat":43.292005,"lon":5.357875,"is_reserved":false,"is_disabled":false,"rental_uris":{"android":"levelo://app?vid=01f09620-eaec-4b53-b082-f8b294445808","ios":"levelo://app?vid=01f09620-eaec-4b53-b082-f8b294445808"},"vehicle_type_id":"4","last_reported":1713384465,"current_range_meters":23600,"station_id":"ce4bhb12rcd13ifvqel0","pricing_plan_id":"cebpf4jnsgd1na2vs0mg"},{"bike_id":"2349e14a-b3b0-48f7-9326-3774a64bd127","system_id":"levelo_inurba_marseille","lat":43.291675,"lon":5.371583,"is_reserved":false,"is_disabled":false,"rental_uris":{"android":"levelo://app?vid=2349e14a-b3b0-48f7-9326-3774a64bd127","ios":"levelo://app?vid=2349e14a-b3b0-48f7-9326-3774a64bd127"},"vehicle_type_id":"4","last_reported":1713384465,"current_range_meters":5200,"station_id":"ce4bha92rcd13ifvqeh0","pricing_plan_id":"cebpf4jnsgd1na2vs0mg"},{"bike_id":"60e64a94-26b1-477b-ac63-c81beb040e12","system_id":"levelo_inurba_marseille","lat":43.313291,"lon":5.396838,"is_reserved":false,"is_disabled":false,"rental_uris":{"android":"levelo://app?vid=60e64a94-26b1-477b-ac63-c81beb040e12","ios":"levelo://app?vid=60e64a94-26b1-477b-ac63-c81beb040e12"},"vehicle_type_id":"4","last_reported":1713384465,"current_range_meters":15200,"station_id":"ce4bgvp2rcd13ifvqcu0","pricing_plan_id":"cebpf4jnsgd1na2vs0mg"},{"bike_id":"3964d1cc-c736-40a1-97dd-7344ddf29ac3","system_id":"levelo_inurba_marseille","lat":43.309047,"lon":5.396551,"is_reserved":false,"is_disabled":false,"rental_uris":{"android":"levelo://app?vid=3964d1cc-c736-40a1-97dd-7344ddf29ac3","ios":"levelo://app?vid=3964d1cc-c736-40a1-97dd-7344ddf29ac3"},"vehicle_type_id":"4","last_reported":1713384465,"current_range_meters":6800,"station_id":"ce4bh012rcd13ifvqcv0","pricing_plan_id":"cebpf4jnsgd1na2vs0mg"},{"bike_id":"57e2721c-d1a6-4596-9f5e-aa32afa21f10","system_id":"levelo_inurba_marseille","lat":43.309038,"lon":5.396546,"is_reserved":false,"is_disabled":false,"rental_uris":{"android":"levelo://app?vid=57e2721c-d1a6-4596-9f5e-aa32afa21f10","ios":"levelo://app?vid=57e2721c-d1a6-4596-9f5e-aa32afa21f10"},"vehicle_type_id":"4","last_reported":1713384465,"current_range_meters":13600,"station_id":"ce4bh012rcd13ifvqcv0","pricing_plan_id":"cebpf4jnsgd1na2vs0mg"},{"bike_id":"403c3eb4-f29e-458b-aa8b-0bcd36f03df8","system_id":"levelo_inurba_marseille","lat":43.309038,"lon":5.396546,"is_reserved":false,"is_disabled":false,"rental_uris":{"android":"levelo://app?vid=403c3eb4-f29e-458b-aa8b-0bcd36f03df8","ios":"levelo://app?vid=403c3eb4-f29e-458b-aa8b-0bcd36f03df8"},"vehicle_type_id":"4","last_reported":1713384465,"current_range_meters":14800,"station_id":"ce4bh012rcd13ifvqcv0","pricing_plan_id":"cebpf4jnsgd1na2vs0mg"},{"bike_id":"802b576a-8419-404c-a30c-ac5216bf02fe","system_id":"levelo_inurba_marseille","lat":43.309038,"lon":5.396546,"is_reserved":false,"is_disabled":false,"rental_uris":{"android":"levelo://app?vid=802b576a-8419-404c-a30c-ac5216bf02fe","ios":"levelo://app?vid=802b576a-8419-404c-a30c-ac5216bf02fe"},"vehicle_type_id":"4","last_reported":1713384465,"current_range_meters":11600,"station_id":"ce4bh012rcd13ifvqcv0","pricing_plan_id":"cebpf4jnsgd1na2vs0mg"},{"bike_id":"47ab2a16-4807-4bf9-a0dc-53faca72ae2a","system_id":"levelo_inurba_marseille","lat":43.309047,"lon":5.396551,"is_reserved":false,"is_disabled":false,"rental_uris":{"android":"levelo://app?vid=47ab2a16-4807-4bf9-a0dc-53faca72ae2a","ios":"levelo://app?vid=47ab2a16-4807-4bf9-a0dc-53faca72ae2a"},"vehicle_type_id":"4","last_reported":1713384465,"current_range_meters":2000,"station_id":"ce4bh012rcd13ifvqcv0","pricing_plan_id":"cebpf4jnsgd1na2vs0mg"},{"bike_id":"268a4c5a-7ac6-48b5-8c49-8f3d9014bbb2","system_id":"levelo_inurba_marseille","lat":43.309047,"lon":5.396551,"is_reserved":false,"is_disabled":false,"rental_uris":{"android":"levelo://app?vid=268a4c5a-7ac6-48b5-8c49-8f3d9014bbb2","ios":"levelo://app?vid=268a4c5a-7ac6-48b5-8c49-8f3d9014bbb2"},"vehicle_type_id":"4","last_reported":1713384465,"current_range_meters":28400,"station_id":"ce4bh012rcd13ifvqcv0","pricing_plan_id":"cebpf4jnsgd1na2vs0mg"},{"bike_id":"9fa474a5-81bf-4bb5-803b-50c696430964","system_id":"levelo_inurba_marseille","lat":43.309038,"lon":5.396546,"is_reserved":false,"is_disabled":false,"rental_uris":{"android":"levelo://app?vid=9fa474a5-81bf-4bb5-803b-50c696430964","ios":"levelo://app?vid=9fa474a5-81bf-4bb5-803b-50c696430964"},"vehicle_type_id":"4","last_reported":1713384465,"current_range_meters":12400,"station_id":"ce4bh012rcd13ifvqcv0","pricing_plan_id":"cebpf4jnsgd1na2vs0mg"},{"bike_id":"a1c1a92d-82a8-458a-8b25-f5a502544865","system_id":"levelo_inurba_marseille","lat":43.309038,"lon":5.396546,"is_reserved":false,"is_disabled":false,"rental_uris":{"android":"levelo://app?vid=a1c1a92d-82a8-458a-8b25-f5a502544865","ios":"levelo://app?vid=a1c1a92d-82a8-458a-8b25-f5a502544865"},"vehicle_type_id":"4","last_reported":1713384465,"current_range_meters":7200,"station_id":"ce4bh012rcd13ifvqcv0","pricing_plan_id":"cebpf4jnsgd1na2vs0mg"},{"bike_id":"2f847d6e-64b9-4263-a218-92f218b94975","system_id":"levelo_inurba_marseille","lat":43.309038,"lon":5.396546,"is_reserved":false,"is_disabled":false,"rental_uris":{"android":"levelo://app?vid=2f847d6e-64b9-4263-a218-92f218b94975","ios":"levelo://app?vid=2f847d6e-64b9-4263-a218-92f218b94975"},"vehicle_type_id":"4","last_reported":1713384465,"current_range_meters":13200,"station_id":"ce4bh012rcd13ifvqcv0","pricing_plan_id":"cebpf4jnsgd1na2vs0mg"},{"bike_id":"f0d35847-9d5d-44d1-8728-a7b8550e0eaa","system_id":"levelo_inurba_marseille","lat":43.309047,"lon":5.396551,"is_reserved":false,"is_disabled":false,"rental_uris":{"android":"levelo://app?vid=f0d35847-9d5d-44d1-8728-a7b8550e0eaa","ios":"levelo://app?vid=f0d35847-9d5d-44d1-8728-a7b8550e0eaa"},"vehicle_type_id":"4","last_reported":1713384465,"current_range_meters":17600,"station_id":"ce4bh012rcd13ifvqcv0","pricing_plan_id":"cebpf4jnsgd1na2vs0mg"},{"bike_id":"192cbd4f-c842-4657-b972-0e645775d072","system_id":"levelo_inurba_marseille","lat":43.290984,"lon":5.371894,"is_reserved":false,"is_disabled":false,"rental_uris":{"android":"levelo://app?vid=192cbd4f-c842-4657-b972-0e645775d072","ios":"levelo://app?vid=192cbd4f-c842-4657-b972-0e645775d072"},"vehicle_type_id":"4","last_reported":1713384465,"current_range_meters":30000,"station_id":"ce4bh5p2rcd13ifvqe4g","pricing_plan_id":"cebpf4jnsgd1na2vs0mg"},{"bike_id":"162e23bb-0865-406e-8b35-efc46e9e9fef","system_id":"levelo_inurba_marseille","lat":43.290779,"lon":5.371482,"is_reserved":false,"is_disabled":false,"rental_uris":{"android":"levelo://app?vid=162e23bb-0865-406e-8b35-efc46e9e9fef","ios":"levelo://app?vid=162e23bb-0865-406e-8b35-efc46e9e9fef"},"vehicle_type_id":"4","last_reported":1713384465,"current_range_meters":24400,"station_id":"ce4bh5p2rcd13ifvqe4g","pricing_plan_id":"cebpf4jnsgd1na2vs0mg"},{"bike_id":"f51fb2b9-8a43-431e-b24e-56d41b7abb70","system_id":"levelo_inurba_marseille","lat":43.290779,"lon":5.371482,"is_reserved":false,"is_disabled":false,"rental_uris":{"android":"levelo://app?vid=f51fb2b9-8a43-431e-b24e-56d41b7abb70","ios":"levelo://app?vid=f51fb2b9-8a43-431e-b24e-56d41b7abb70"},"vehicle_type_id":"4","last_reported":1713384465,"current_range_meters":18800,"station_id":"ce4bh5p2rcd13ifvqe4g","pricing_plan_id":"cebpf4jnsgd1na2vs0mg"},{"bike_id":"18b28315-36b6-4c3e-a285-c056ff69574e","system_id":"levelo_inurba_marseille","lat":43.302008,"lon":5.394694,"is_reserved":false,"is_disabled":false,"rental_uris":{"android":"levelo://app?vid=18b28315-36b6-4c3e-a285-c056ff69574e","ios":"levelo://app?vid=18b28315-36b6-4c3e-a285-c056ff69574e"},"vehicle_type_id":"4","last_reported":1713384465,"current_range_meters":0,"station_id":"ce4bh0p2rcd13ifvqd70","pricing_plan_id":"cebpf4jnsgd1na2vs0mg"},{"bike_id":"f19a3a0c-9996-4f8d-b237-f63f888faa99","system_id":"levelo_inurba_marseille","lat":43.302008,"lon":5.394694,"is_reserved":false,"is_disabled":false,"rental_uris":{"android":"levelo://app?vid=f19a3a0c-9996-4f8d-b237-f63f888faa99","ios":"levelo://app?vid=f19a3a0c-9996-4f8d-b237-f63f888faa99"},"vehicle_type_id":"4","last_reported":1713384465,"current_range_meters":7200,"station_id":"ce4bh0p2rcd13ifvqd70","pricing_plan_id":"cebpf4jnsgd1na2vs0mg"},{"bike_id":"ac4a952a-4e5e-42e8-851b-9053c0596115","system_id":"levelo_inurba_marseille","lat":43.302008,"lon":5.394694,"is_reserved":false,"is_disabled":false,"rental_uris":{"android":"levelo://app?vid=ac4a952a-4e5e-42e8-851b-9053c0596115","ios":"levelo://app?vid=ac4a952a-4e5e-42e8-851b-9053c0596115"},"vehicle_type_id":"4","last_reported":1713384465,"current_range_meters":10800,"station_id":"ce4bh0p2rcd13ifvqd70","pricing_plan_id":"cebpf4jnsgd1na2vs0mg"},{"bike_id":"6b684bc4-3aa0-485c-8a8c-1d05c852aae2","system_id":"levelo_inurba_marseille","lat":43.290624,"lon":5.359245,"is_reserved":false,"is_disabled":false,"rental_uris":{"android":"levelo://app?vid=6b684bc4-3aa0-485c-8a8c-1d05c852aae2","ios":"levelo://app?vid=6b684bc4-3aa0-485c-8a8c-1d05c852aae2"},"vehicle_type_id":"4","last_reported":1713384465,"current_range_meters":7200,"station_id":"ce4bha92rcd13ifvqeg0","pricing_plan_id":"cebpf4jnsgd1na2vs0mg"},{"bike_id":"38613420-b56d-4afd-b2ab-4235cc940500","system_id":"levelo_inurba_marseille","lat":43.290624,"lon":5.359245,"is_reserved":false,"is_disabled":false,"rental_uris":{"android":"levelo://app?vid=38613420-b56d-4afd-b2ab-4235cc940500","ios":"levelo://app?vid=38613420-b56d-4afd-b2ab-4235cc940500"},"vehicle_type_id":"4","last_reported":1713384465,"current_range_meters":6000,"station_id":"ce4bha92rcd13ifvqeg0","pricing_plan_id":"cebpf4jnsgd1na2vs0mg"},{"bike_id":"d4c31041-a05a-4f6b-ad35-7a1b4ff0ffb6","system_id":"levelo_inurba_marseille","lat":43.290631,"lon":5.359244,"is_reserved":false,"is_disabled":false,"rental_uris":{"android":"levelo://app?vid=d4c31041-a05a-4f6b-ad35-7a1b4ff0ffb6","ios":"levelo://app?vid=d4c31041-a05a-4f6b-ad35-7a1b4ff0ffb6"},"vehicle_type_id":"4","last_reported":1713384465,"current_range_meters":25600,"station_id":"ce4bha92rcd13ifvqeg0","pricing_plan_id":"cebpf4jnsgd1na2vs0mg"},{"bike_id":"651ac3cd-5772-4db6-82e4-efada5176bab","system_id":"levelo_inurba_marseille","lat":43.290624,"lon":5.359245,"is_reserved":false,"is_disabled":false,"rental_uris":{"android":"levelo://app?vid=651ac3cd-5772-4db6-82e4-efada5176bab","ios":"levelo://app?vid=651ac3cd-5772-4db6-82e4-efada5176bab"},"vehicle_type_id":"4","last_reported":1713384465,"current_range_meters":15200,"station_id":"ce4bha92rcd13ifvqeg0","pricing_plan_id":"cebpf4jnsgd1na2vs0mg"},{"bike_id":"1233a182-f6d1-46b2-8f49-e4dd613afbcf","system_id":"levelo_inurba_marseille","lat":43.290631,"lon":5.359244,"is_reserved":false,"is_disabled":false,"rental_uris":{"android":"levelo://app?vid=1233a182-f6d1-46b2-8f49-e4dd613afbcf","ios":"levelo://app?vid=1233a182-f6d1-46b2-8f49-e4dd613afbcf"},"vehicle_type_id":"4","last_reported":1713384465,"current_range_meters":20800,"station_id":"ce4bha92rcd13ifvqeg0","pricing_plan_id":"cebpf4jnsgd1na2vs0mg"},{"bike_id":"53d54651-b68b-4c7a-9bc3-28c5a4f98f7a","system_id":"levelo_inurba_marseille","lat":43.290624,"lon":5.359245,"is_reserved":false,"is_disabled":false,"rental_uris":{"android":"levelo://app?vid=53d54651-b68b-4c7a-9bc3-28c5a4f98f7a","ios":"levelo://app?vid=53d54651-b68b-4c7a-9bc3-28c5a4f98f7a"},"vehicle_type_id":"4","last_reported":1713384465,"current_range_meters":18400,"station_id":"ce4bha92rcd13ifvqeg0","pricing_plan_id":"cebpf4jnsgd1na2vs0mg"},{"bike_id":"e8ca7aed-037f-4d59-9305-3a0dc4d5eb0c","system_id":"levelo_inurba_marseille","lat":43.290319,"lon":5.375732,"is_reserved":false,"is_disabled":false,"rental_uris":{"android":"levelo://app?vid=e8ca7aed-037f-4d59-9305-3a0dc4d5eb0c","ios":"levelo://app?vid=e8ca7aed-037f-4d59-9305-3a0dc4d5eb0c"},"vehicle_type_id":"4","last_reported":1713384465,"current_range_meters":10800,"station_id":"ce4bh692rcd13ifvqe90","pricing_plan_id":"cebpf4jnsgd1na2vs0mg"},{"bike_id":"2afcf7bf-a146-4549-aceb-716998525c6f","system_id":"levelo_inurba_marseille","lat":43.290631,"lon":5.359244,"is_reserved":false,"is_disabled":false,"rental_uris":{"android":"levelo://app?vid=2afcf7bf-a146-4549-aceb-716998525c6f","ios":"levelo://app?vid=2afcf7bf-a146-4549-aceb-716998525c6f"},"vehicle_type_id":"4","last_reported":1713384465,"current_range_meters":21200,"station_id":"ce4bha92rcd13ifvqeg0","pricing_plan_id":"cebpf4jnsgd1na2vs0mg"},{"bike_id":"f9d3c2bc-7786-40e4-af4f-0db2f18fc007","system_id":"levelo_inurba_marseille","lat":43.290319,"lon":5.375732,"is_reserved":false,"is_disabled":false,"rental_uris":{"android":"levelo://app?vid=f9d3c2bc-7786-40e4-af4f-0db2f18fc007","ios":"levelo://app?vid=f9d3c2bc-7786-40e4-af4f-0db2f18fc007"},"vehicle_type_id":"4","last_reported":1713384465,"current_range_meters":16400,"station_id":"ce4bh692rcd13ifvqe90","pricing_plan_id":"cebpf4jnsgd1na2vs0mg"},{"bike_id":"7b6c170d-2623-437a-8cd7-8d7e72554dd3","system_id":"levelo_inurba_marseille","lat":43.294153,"lon":5.386305,"is_reserved":false,"is_disabled":false,"rental_uris":{"android":"levelo://app?vid=7b6c170d-2623-437a-8cd7-8d7e72554dd3","ios":"levelo://app?vid=7b6c170d-2623-437a-8cd7-8d7e72554dd3"},"vehicle_type_id":"4","last_reported":1713384465,"current_range_meters":26000,"station_id":"ce4bh2h2rcd13ifvqdh0","pricing_plan_id":"cebpf4jnsgd1na2vs0mg"},{"bike_id":"bf8f0ad8-6ec9-4d96-9725-a8fa9ee0b8be","system_id":"levelo_inurba_marseille","lat":43.294153,"lon":5.386305,"is_reserved":false,"is_disabled":false,"rental_uris":{"android":"levelo://app?vid=bf8f0ad8-6ec9-4d96-9725-a8fa9ee0b8be","ios":"levelo://app?vid=bf8f0ad8-6ec9-4d96-9725-a8fa9ee0b8be"},"vehicle_type_id":"4","last_reported":1713384465,"current_range_meters":30400,"station_id":"ce4bh2h2rcd13ifvqdh0","pricing_plan_id":"cebpf4jnsgd1na2vs0mg"},{"bike_id":"99bc846b-8c30-4459-b29e-4c7bbe1c99d3","system_id":"levelo_inurba_marseille","lat":43.290319,"lon":5.375732,"is_reserved":false,"is_disabled":false,"rental_uris":{"android":"levelo://app?vid=99bc846b-8c30-4459-b29e-4c7bbe1c99d3","ios":"levelo://app?vid=99bc846b-8c30-4459-b29e-4c7bbe1c99d3"},"vehicle_type_id":"4","last_reported":1713384465,"current_range_meters":8400,"station_id":"ce4bh692rcd13ifvqe90","pricing_plan_id":"cebpf4jnsgd1na2vs0mg"},{"bike_id":"617c76e5-aa7c-4c0d-9a23-b0534783abf4","system_id":"levelo_inurba_marseille","lat":43.294162,"lon":5.386292,"is_reserved":false,"is_disabled":false,"rental_uris":{"android":"levelo://app?vid=617c76e5-aa7c-4c0d-9a23-b0534783abf4","ios":"levelo://app?vid=617c76e5-aa7c-4c0d-9a23-b0534783abf4"},"vehicle_type_id":"4","last_reported":1713384465,"current_range_meters":31200,"station_id":"ce4bh2h2rcd13ifvqdh0","pricing_plan_id":"cebpf4jnsgd1na2vs0mg"},{"bike_id":"79b01428-119e-46b2-ac3d-8d4d63783d0b","system_id":"levelo_inurba_marseille","lat":43.294162,"lon":5.386292,"is_reserved":false,"is_disabled":false,"rental_uris":{"android":"levelo://app?vid=79b01428-119e-46b2-ac3d-8d4d63783d0b","ios":"levelo://app?vid=79b01428-119e-46b2-ac3d-8d4d63783d0b"},"vehicle_type_id":"4","last_reported":1713384465,"current_range_meters":1200,"station_id":"ce4bh2h2rcd13ifvqdh0","pricing_plan_id":"cebpf4jnsgd1na2vs0mg"},{"bike_id":"bf9b0ab3-6806-4932-8c6d-0644e4c7e292","system_id":"levelo_inurba_marseille","lat":43.294162,"lon":5.386292,"is_reserved":false,"is_disabled":false,"rental_uris":{"android":"levelo://app?vid=bf9b0ab3-6806-4932-8c6d-0644e4c7e292","ios":"levelo://app?vid=bf9b0ab3-6806-4932-8c6d-0644e4c7e292"},"vehicle_type_id":"4","last_reported":1713384465,"current_range_meters":30000,"station_id":"ce4bh2h2rcd13ifvqdh0","pricing_plan_id":"cebpf4jnsgd1na2vs0mg"},{"bike_id":"96511f97-c847-4831-9562-d6b4f2e60d4b","system_id":"levelo_inurba_marseille","lat":43.289468,"lon":5.363719,"is_reserved":false,"is_disabled":false,"rental_uris":{"android":"levelo://app?vid=96511f97-c847-4831-9562-d6b4f2e60d4b","ios":"levelo://app?vid=96511f97-c847-4831-9562-d6b4f2e60d4b"},"vehicle_type_id":"4","last_reported":1713384465,"current_range_meters":16800,"station_id":"ce4bhc92rcd13ifvqetg","pricing_plan_id":"cebpf4jnsgd1na2vs0mg"},{"bike_id":"701f1650-73ab-4dd3-8161-b7dd442475ea","system_id":"levelo_inurba_marseille","lat":43.294153,"lon":5.386305,"is_reserved":false,"is_disabled":false,"rental_uris":{"android":"levelo://app?vid=701f1650-73ab-4dd3-8161-b7dd442475ea","ios":"levelo://app?vid=701f1650-73ab-4dd3-8161-b7dd442475ea"},"vehicle_type_id":"4","last_reported":1713384465,"current_range_meters":25200,"station_id":"ce4bh2h2rcd13ifvqdh0","pricing_plan_id":"cebpf4jnsgd1na2vs0mg"},{"bike_id":"4ea1c8a3-46b7-43a6-a011-13f3ab3e1319","system_id":"levelo_inurba_marseille","lat":43.290319,"lon":5.375732,"is_reserved":false,"is_disabled":false,"rental_uris":{"android":"levelo://app?vid=4ea1c8a3-46b7-43a6-a011-13f3ab3e1319","ios":"levelo://app?vid=4ea1c8a3-46b7-43a6-a011-13f3ab3e1319"},"vehicle_type_id":"4","last_reported":1713384465,"current_range_meters":3200,"station_id":"ce4bh692rcd13ifvqe90","pricing_plan_id":"cebpf4jnsgd1na2vs0mg"},{"bike_id":"81a2b8de-b334-4545-ac04-924c49f718fb","system_id":"levelo_inurba_marseille","lat":43.28935,"lon":5.36638,"is_reserved":false,"is_disabled":false,"rental_uris":{"android":"levelo://app?vid=81a2b8de-b334-4545-ac04-924c49f718fb","ios":"levelo://app?vid=81a2b8de-b334-4545-ac04-924c49f718fb"},"vehicle_type_id":"4","last_reported":1713384465,"current_range_meters":3600,"station_id":"ce4bhap2rcd13ifvqek0","pricing_plan_id":"cebpf4jnsgd1na2vs0mg"},{"bike_id":"09ac2558-3618-433a-a899-1e8eada84244","system_id":"levelo_inurba_marseille","lat":43.28934,"lon":5.36632,"is_reserved":false,"is_disabled":false,"rental_uris":{"android":"levelo://app?vid=09ac2558-3618-433a-a899-1e8eada84244","ios":"levelo://app?vid=09ac2558-3618-433a-a899-1e8eada84244"},"vehicle_type_id":"4","last_reported":1713384465,"current_range_meters":8400,"station_id":"ce4bhap2rcd13ifvqek0","pricing_plan_id":"cebpf4jnsgd1na2vs0mg"},{"bike_id":"9bed4170-e232-40cc-998b-d36bc4690307","system_id":"levelo_inurba_marseille","lat":43.289468,"lon":5.363719,"is_reserved":false,"is_disabled":false,"rental_uris":{"android":"levelo://app?vid=9bed4170-e232-40cc-998b-d36bc4690307","ios":"levelo://app?vid=9bed4170-e232-40cc-998b-d36bc4690307"},"vehicle_type_id":"4","last_reported":1713384465,"current_range_meters":5600,"station_id":"ce4bhc92rcd13ifvqetg","pricing_plan_id":"cebpf4jnsgd1na2vs0mg"},{"bike_id":"559b6df3-4100-4c86-b9be-bd15ddd08c5e","system_id":"levelo_inurba_marseille","lat":43.289468,"lon":5.363719,"is_reserved":false,"is_disabled":false,"rental_uris":{"android":"levelo://app?vid=559b6df3-4100-4c86-b9be-bd15ddd08c5e","ios":"levelo://app?vid=559b6df3-4100-4c86-b9be-bd15ddd08c5e"},"vehicle_type_id":"4","last_reported":1713384465,"current_range_meters":14400,"station_id":"ce4bhc92rcd13ifvqetg","pricing_plan_id":"cebpf4jnsgd1na2vs0mg"},{"bike_id":"95ffa579-88c5-4395-a2dc-fc1cd417692c","system_id":"levelo_inurba_marseille","lat":43.289468,"lon":5.363719,"is_reserved":false,"is_disabled":false,"rental_uris":{"android":"levelo://app?vid=95ffa579-88c5-4395-a2dc-fc1cd417692c","ios":"levelo://app?vid=95ffa579-88c5-4395-a2dc-fc1cd417692c"},"vehicle_type_id":"4","last_reported":1713384465,"current_range_meters":6000,"station_id":"ce4bhc92rcd13ifvqetg","pricing_plan_id":"cebpf4jnsgd1na2vs0mg"},{"bike_id":"23ff9eb8-15c8-443b-b74d-247a9d383ea5","system_id":"levelo_inurba_marseille","lat":43.289468,"lon":5.363719,"is_reserved":false,"is_disabled":false,"rental_uris":{"android":"levelo://app?vid=23ff9eb8-15c8-443b-b74d-247a9d383ea5","ios":"levelo://app?vid=23ff9eb8-15c8-443b-b74d-247a9d383ea5"},"vehicle_type_id":"4","last_reported":1713384465,"current_range_meters":26400,"station_id":"ce4bhc92rcd13ifvqetg","pricing_plan_id":"cebpf4jnsgd1na2vs0mg"},{"bike_id":"95cb39e1-d9bb-428f-bba3-03cefd0c5d79","system_id":"levelo_inurba_marseille","lat":43.289468,"lon":5.363719,"is_reserved":false,"is_disabled":false,"rental_uris":{"android":"levelo://app?vid=95cb39e1-d9bb-428f-bba3-03cefd0c5d79","ios":"levelo://app?vid=95cb39e1-d9bb-428f-bba3-03cefd0c5d79"},"vehicle_type_id":"4","last_reported":1713384465,"current_range_meters":4800,"station_id":"ce4bhc92rcd13ifvqetg","pricing_plan_id":"cebpf4jnsgd1na2vs0mg"},{"bike_id":"da6db3d3-78b4-45b8-9f32-035750bbdd2e","system_id":"levelo_inurba_marseille","lat":43.304296,"lon":5.397513,"is_reserved":false,"is_disabled":false,"rental_uris":{"android":"levelo://app?vid=da6db3d3-78b4-45b8-9f32-035750bbdd2e","ios":"levelo://app?vid=da6db3d3-78b4-45b8-9f32-035750bbdd2e"},"vehicle_type_id":"4","last_reported":1713384465,"current_range_meters":4800,"station_id":"ce4bh092rcd13ifvqd20","pricing_plan_id":"cebpf4jnsgd1na2vs0mg"},{"bike_id":"78ec917f-05db-4ec3-bb1f-a810272fb67e","system_id":"levelo_inurba_marseille","lat":43.292644,"lon":5.384257,"is_reserved":false,"is_disabled":false,"rental_uris":{"android":"levelo://app?vid=78ec917f-05db-4ec3-bb1f-a810272fb67e","ios":"levelo://app?vid=78ec917f-05db-4ec3-bb1f-a810272fb67e"},"vehicle_type_id":"4","last_reported":1713384465,"current_range_meters":20800,"station_id":"ce4bh692rcd13ifvqea0","pricing_plan_id":"cebpf4jnsgd1na2vs0mg"},{"bike_id":"56b73eda-407d-4dfc-a0cb-357341c6d65f","system_id":"levelo_inurba_marseille","lat":43.292644,"lon":5.384257,"is_reserved":false,"is_disabled":false,"rental_uris":{"android":"levelo://app?vid=56b73eda-407d-4dfc-a0cb-357341c6d65f","ios":"levelo://app?vid=56b73eda-407d-4dfc-a0cb-357341c6d65f"},"vehicle_type_id":"4","last_reported":1713384465,"current_range_meters":31600,"station_id":"ce4bh692rcd13ifvqea0","pricing_plan_id":"cebpf4jnsgd1na2vs0mg"},{"bike_id":"acca0e08-a512-405f-8124-6aff8155d426","system_id":"levelo_inurba_marseille","lat":43.308012,"lon":5.381511,"is_reserved":false,"is_disabled":false,"rental_uris":{"android":"levelo://app?vid=acca0e08-a512-405f-8124-6aff8155d426","ios":"levelo://app?vid=acca0e08-a512-405f-8124-6aff8155d426"},"vehicle_type_id":"4","last_reported":1713384465,"current_range_meters":29600,"station_id":"ce4bgt12rcd13ifvqce0","pricing_plan_id":"cebpf4jnsgd1na2vs0mg"},{"bike_id":"666e226b-090f-4259-80da-9873172fcba9","system_id":"levelo_inurba_marseille","lat":43.301117,"lon":5.398795,"is_reserved":false,"is_disabled":false,"rental_uris":{"android":"levelo://app?vid=666e226b-090f-4259-80da-9873172fcba9","ios":"levelo://app?vid=666e226b-090f-4259-80da-9873172fcba9"},"vehicle_type_id":"4","last_reported":1713384465,"current_range_meters":7600,"station_id":"ce4bh0h2rcd13ifvqd40","pricing_plan_id":"cebpf4jnsgd1na2vs0mg"},{"bike_id":"2d157adf-81e2-4e7c-8c6a-75cabf1c8e2f","system_id":"levelo_inurba_marseille","lat":43.292644,"lon":5.384257,"is_reserved":false,"is_disabled":false,"rental_uris":{"android":"levelo://app?vid=2d157adf-81e2-4e7c-8c6a-75cabf1c8e2f","ios":"levelo://app?vid=2d157adf-81e2-4e7c-8c6a-75cabf1c8e2f"},"vehicle_type_id":"4","last_reported":1713384465,"current_range_meters":17600,"station_id":"ce4bh692rcd13ifvqea0","pricing_plan_id":"cebpf4jnsgd1na2vs0mg"},{"bike_id":"766e308f-2b17-4692-a169-c8907d2b6679","system_id":"levelo_inurba_marseille","lat":43.290104,"lon":5.356111,"is_reserved":false,"is_disabled":false,"rental_uris":{"android":"levelo://app?vid=766e308f-2b17-4692-a169-c8907d2b6679","ios":"levelo://app?vid=766e308f-2b17-4692-a169-c8907d2b6679"},"vehicle_type_id":"4","last_reported":1713384465,"current_range_meters":21200,"station_id":"ce4bhb92rcd13ifvqen0","pricing_plan_id":"cebpf4jnsgd1na2vs0mg"},{"bike_id":"b04d0d95-245b-4a2d-8ae9-7716d5450ee5","system_id":"levelo_inurba_marseille","lat":43.292644,"lon":5.384257,"is_reserved":false,"is_disabled":false,"rental_uris":{"android":"levelo://app?vid=b04d0d95-245b-4a2d-8ae9-7716d5450ee5","ios":"levelo://app?vid=b04d0d95-245b-4a2d-8ae9-7716d5450ee5"},"vehicle_type_id":"4","last_reported":1713384465,"current_range_meters":0,"station_id":"ce4bh692rcd13ifvqea0","pricing_plan_id":"cebpf4jnsgd1na2vs0mg"},{"bike_id":"0b8dde07-da77-450e-a814-8009c7e3d01c","system_id":"levelo_inurba_marseille","lat":43.292644,"lon":5.384257,"is_reserved":false,"is_disabled":false,"rental_uris":{"android":"levelo://app?vid=0b8dde07-da77-450e-a814-8009c7e3d01c","ios":"levelo://app?vid=0b8dde07-da77-450e-a814-8009c7e3d01c"},"vehicle_type_id":"4","last_reported":1713384465,"current_range_meters":29200,"station_id":"ce4bh692rcd13ifvqea0","pricing_plan_id":"cebpf4jnsgd1na2vs0mg"},{"bike_id":"c86c6b0e-90f0-49ff-ad6b-29a0c9982720","system_id":"levelo_inurba_marseille","lat":43.304296,"lon":5.397513,"is_reserved":false,"is_disabled":false,"rental_uris":{"android":"levelo://app?vid=c86c6b0e-90f0-49ff-ad6b-29a0c9982720","ios":"levelo://app?vid=c86c6b0e-90f0-49ff-ad6b-29a0c9982720"},"vehicle_type_id":"4","last_reported":1713384465,"current_range_meters":2800,"station_id":"ce4bh092rcd13ifvqd20","pricing_plan_id":"cebpf4jnsgd1na2vs0mg"},{"bike_id":"d134c406-a9fb-4ecc-8926-6c12c199d63b","system_id":"levelo_inurba_marseille","lat":43.292644,"lon":5.384257,"is_reserved":false,"is_disabled":false,"rental_uris":{"android":"levelo://app?vid=d134c406-a9fb-4ecc-8926-6c12c199d63b","ios":"levelo://app?vid=d134c406-a9fb-4ecc-8926-6c12c199d63b"},"vehicle_type_id":"4","last_reported":1713384465,"current_range_meters":30000,"station_id":"ce4bh692rcd13ifvqea0","pricing_plan_id":"cebpf4jnsgd1na2vs0mg"},{"bike_id":"40721743-e4ac-45df-9ac7-8d2e47d8e76a","system_id":"levelo_inurba_marseille","lat":43.292644,"lon":5.384257,"is_reserved":false,"is_disabled":false,"rental_uris":{"android":"levelo://app?vid=40721743-e4ac-45df-9ac7-8d2e47d8e76a","ios":"levelo://app?vid=40721743-e4ac-45df-9ac7-8d2e47d8e76a"},"vehicle_type_id":"4","last_reported":1713384465,"current_range_meters":31200,"station_id":"ce4bh692rcd13ifvqea0","pricing_plan_id":"cebpf4jnsgd1na2vs0mg"},{"bike_id":"d886b050-2a99-4d54-80b1-717113b0194c","system_id":"levelo_inurba_marseille","lat":43.292644,"lon":5.384257,"is_reserved":false,"is_disabled":false,"rental_uris":{"android":"levelo://app?vid=d886b050-2a99-4d54-80b1-717113b0194c","ios":"levelo://app?vid=d886b050-2a99-4d54-80b1-717113b0194c"},"vehicle_type_id":"4","last_reported":1713384465,"current_range_meters":8000,"station_id":"ce4bh692rcd13ifvqea0","pricing_plan_id":"cebpf4jnsgd1na2vs0mg"},