{"last_updated":1781389264,"ttl":60,"version":"2.2","data":{"bikes":[{"bike_id":"ec12d144-24c8-4071-abf6-197e520eae96","system_id":"levelo_inurba_marseille","lat":43.337444,"lon":5.374475,"is_reserved":false,"is_disabled":false,"rental_uris":{"android":"levelo://app?vid=ec12d144-24c8-4071-abf6-197e520eae96","ios":"levelo://app?vid=ec12d144-24c8-4071-abf6-197e520eae96"},"vehicle_type_id":"4","last_reported":1781389265,"current_range_meters":0,"station_id":"","pricing_plan_id":"cebpf4jnsgd1na2vs0mg"},{"bike_id":"0633c0b2-cd61-4107-9084-a3953fc3765a","system_id":"levelo_inurba_marseille","lat":43.2922,"lon":5.37634,"is_reserved":false,"is_disabled":true,"rental_uris":{"android":"levelo://app?vid=0633c0b2-cd61-4107-9084-a3953fc3765a","ios":"levelo://app?vid=0633c0b2-cd61-4107-9084-a3953fc3765a"},"vehicle_type_id":"4","last_reported":1781389265,"current_range_meters":2800,"station_id":"","pricing_plan_id":"cebpf4jnsgd1na2vs0mg"},{"bike_id":"40495bca-76aa-44b1-aa99-365eb7375130","system_id":"levelo_inurba_marseille","lat":43.28613,"lon":5.39875,"is_reserved":false,"is_disabled":false,"rental_uris":{"android":"levelo://app?vid=40495bca-76aa-44b1-aa99-365eb7375130","ios":"levelo://app?vid=40495bca-76aa-44b1-aa99-365eb7375130"},"vehicle_type_id":"4","last_reported":1781389265,"current_range_meters":2800,"station_id":"","pricing_plan_id":"cebpf4jnsgd1na2vs0mg"},{"bike_id":"81dc7289-eccb-4fc7-a01c-e9563772018d","system_id":"levelo_inurba_marseille","lat":43.267761,"lon":5.394189,"is_reserved":false,"is_disabled":false,"rental_uris":{"android":"levelo://app?vid=81dc7289-eccb-4fc7-a01c-e9563772018d","ios":"levelo://app?vid=81dc7289-eccb-4fc7-a01c-e9563772018d"},"vehicle_type_id":"4","last_reported":1781389265,"current_range_meters":2800,"station_id":"ce4bhi12rcd13ifvqfq0","pricing_plan_id":"cebpf4jnsgd1na2vs0mg"},{"bike_id":"a921a687-4f8b-4d1b-a254-2ddeeeaf8a37","system_id":"levelo_inurba_marseille","lat":43.24202,"lon":5.37063,"is_reserved":false,"is_disabled":false,"rental_uris":{"android":"levelo://app?vid=a921a687-4f8b-4d1b-a254-2ddeeeaf8a37","ios":"levelo://app?vid=a921a687-4f8b-4d1b-a254-2ddeeeaf8a37"},"vehicle_type_id":"4","last_reported":1781389265,"current_range_meters":2800,"station_id":"","pricing_plan_id":"cebpf4jnsgd1na2vs0mg"},{"bike_id":"a0d2ac5f-fff6-43f6-831d-dfa81e9c3981","system_id":"levelo_inurba_marseille","lat":43.29597,"lon":5.36421,"is_reserved":false,"is_disabled":false,"rental_uris":{"android":"levelo://app?vid=a0d2ac5f-fff6-43f6-831d-dfa81e9c3981","ios":"levelo://app?vid=a0d2ac5f-fff6-43f6-831d-dfa81e9c3981"},"vehicle_type_id":"4","last_reported":1781389265,"current_range_meters":2800,"station_id":"","pricing_plan_id":"cebpf4jnsgd1na2vs0mg"},{"bike_id":"a97b1785-d44a-4f07-9988-e80dd9573fdc","system_id":"levelo_inurba_marseille","lat":43.23789,"lon":5.36648,"is_reserved":false,"is_disabled":false,"rental_uris":{"android":"levelo://app?vid=a97b1785-d44a-4f07-9988-e80dd9573fdc","ios":"levelo://app?vid=a97b1785-d44a-4f07-9988-e80dd9573fdc"},"vehicle_type_id":"4","last_reported":1781389265,"current_range_meters":2800,"station_id":"st_d3nk18o9ro0c73en2l3g","pricing_plan_id":"cebpf4jnsgd1na2vs0mg"},{"bike_id":"f6c5cd24-c50e-406d-9da3-9f703728b262","system_id":"levelo_inurba_marseille","lat":43.22936,"lon":5.3538,"is_reserved":false,"is_disabled":false,"rental_uris":{"android":"levelo://app?vid=f6c5cd24-c50e-406d-9da3-9f703728b262","ios":"levelo://app?vid=f6c5cd24-c50e-406d-9da3-9f703728b262"},"vehicle_type_id":"4","last_reported":1781389265,"current_range_meters":2800,"station_id":"cpo3532slgdg3j2ikp40","pricing_plan_id":"cebpf4jnsgd1na2vs0mg"},{"bike_id":"5c437076-8d6c-45e2-b4e8-286618976cc4","system_id":"levelo_inurba_marseille","lat":43.30122,"lon":5.39853,"is_reserved":false,"is_disabled":false,"rental_uris":{"android":"levelo://app?vid=5c437076-8d6c-45e2-b4e8-286618976cc4","ios":"levelo://app?vid=5c437076-8d6c-45e2-b4e8-286618976cc4"},"vehicle_type_id":"4","last_reported":1781389265,"current_range_meters":2800,"station_id":"ce4bh0h2rcd13ifvqd40","pricing_plan_id":"cebpf4jnsgd1na2vs0mg"},{"bike_id":"8a9f3474-1ba5-4fc3-b4e6-1d2f8579f9d1","system_id":"levelo_inurba_marseille","lat":43.26558,"lon":5.39055,"is_reserved":false,"is_disabled":true,"rental_uris":{"android":"levelo://app?vid=8a9f3474-1ba5-4fc3-b4e6-1d2f8579f9d1","ios":"levelo://app?vid=8a9f3474-1ba5-4fc3-b4e6-1d2f8579f9d1"},"vehicle_type_id":"4","last_reported":1781389265,"current_range_meters":2800,"station_id":"ce4bhe12rcd13ifvqf30","pricing_plan_id":"cebpf4jnsgd1na2vs0mg"},{"bike_id":"52279bb9-5f9f-440e-8878-e68de708296c","system_id":"levelo_inurba_marseille","lat":43.28942,"lon":5.36662,"is_reserved":false,"is_disabled":true,"rental_uris":{"android":"levelo://app?vid=52279bb9-5f9f-440e-8878-e68de708296c","ios":"levelo://app?vid=52279bb9-5f9f-440e-8878-e68de708296c"},"vehicle_type_id":"4","last_reported":1781389265,"current_range_meters":2800,"station_id":"ce4bhap2rcd13ifvqek0","pricing_plan_id":"cebpf4jnsgd1na2vs0mg"},{"bike_id":"9e0f36c3-3683-4ca6-860d-982bbc91c309","system_id":"levelo_inurba_marseille","lat":43.29196,"lon":5.39316,"is_reserved":false,"is_disabled":true,"rental_uris":{"android":"levelo://app?vid=9e0f36c3-3683-4ca6-860d-982bbc91c309","ios":"levelo://app?vid=9e0f36c3-3683-4ca6-860d-982bbc91c309"},"vehicle_type_id":"4","last_reported":1781389265,"current_range_meters":2800,"station_id":"ce4bh192rcd13ifvqdd0","pricing_plan_id":"cebpf4jnsgd1na2vs0mg"},{"bike_id":"9608da4c-a1e4-4079-9b2d-ea64b02bf9d9","system_id":"levelo_inurba_marseille","lat":43.29019,"lon":5.39995,"is_reserved":false,"is_disabled":false,"rental_uris":{"android":"levelo://app?vid=9608da4c-a1e4-4079-9b2d-ea64b02bf9d9","ios":"levelo://app?vid=9608da4c-a1e4-4079-9b2d-ea64b02bf9d9"},"vehicle_type_id":"4","last_reported":1781389265,"current_range_meters":2800,"station_id":"ce4bh392rcd13ifvqdm0","pricing_plan_id":"cebpf4jnsgd1na2vs0mg"},{"bike_id":"029a4896-0b54-43c6-a3ee-baeb34625a17","system_id":"levelo_inurba_marseille","lat":43.28356,"lon":5.38099,"is_reserved":false,"is_disabled":false,"rental_uris":{"android":"levelo://app?vid=029a4896-0b54-43c6-a3ee-baeb34625a17","ios":"levelo://app?vid=029a4896-0b54-43c6-a3ee-baeb34625a17"},"vehicle_type_id":"4","last_reported":1781389265,"current_range_meters":2800,"station_id":"ce4bh412rcd13ifvqdr0","pricing_plan_id":"cebpf4jnsgd1na2vs0mg"},{"bike_id":"6df11b2e-cd2c-448d-931f-f1a97e9c473d","system_id":"levelo_inurba_marseille","lat":43.25118,"lon":5.4032,"is_reserved":false,"is_disabled":false,"rental_uris":{"android":"levelo://app?vid=6df11b2e-cd2c-448d-931f-f1a97e9c473d","ios":"levelo://app?vid=6df11b2e-cd2c-448d-931f-f1a97e9c473d"},"vehicle_type_id":"4","last_reported":1781389265,"current_range_meters":2800,"station_id":"ce4bhlh2rcd13ifvqgig","pricing_plan_id":"cebpf4jnsgd1na2vs0mg"},{"bike_id":"b3e9ca8a-6aa3-4f56-a9ff-cc8382a1b954","system_id":"levelo_inurba_marseille","lat":43.32486,"lon":5.36567,"is_reserved":false,"is_disabled":false,"rental_uris":{"android":"levelo://app?vid=b3e9ca8a-6aa3-4f56-a9ff-cc8382a1b954","ios":"levelo://app?vid=b3e9ca8a-6aa3-4f56-a9ff-cc8382a1b954"},"vehicle_type_id":"4","last_reported":1781389265,"current_range_meters":2800,"station_id":"ce4bhs12rcd13ifvqhvg","pricing_plan_id":"cebpf4jnsgd1na2vs0mg"},{"bike_id":"3ad6a9bb-33cd-4dcd-b169-bcd0e4a78825","system_id":"levelo_inurba_marseille","lat":43.26565,"lon":5.39025,"is_reserved":false,"is_disabled":false,"rental_uris":{"android":"levelo://app?vid=3ad6a9bb-33cd-4dcd-b169-bcd0e4a78825","ios":"levelo://app?vid=3ad6a9bb-33cd-4dcd-b169-bcd0e4a78825"},"vehicle_type_id":"4","last_reported":1781389265,"current_range_meters":3200,"station_id":"ce4bhe12rcd13ifvqf30","pricing_plan_id":"cebpf4jnsgd1na2vs0mg"},{"bike_id":"a88c18f7-a05b-424b-a2e6-87c48e40dd60","system_id":"levelo_inurba_marseille","lat":43.23895,"lon":5.37465,"is_reserved":false,"is_disabled":true,"rental_uris":{"android":"levelo://app?vid=a88c18f7-a05b-424b-a2e6-87c48e40dd60","ios":"levelo://app?vid=a88c18f7-a05b-424b-a2e6-87c48e40dd60"},"vehicle_type_id":"4","last_reported":1781389265,"current_range_meters":3200,"station_id":"st_d6sm7csbq4hs73f8fpjg","pricing_plan_id":"cebpf4jnsgd1na2vs0mg"},{"bike_id":"98c0a183-7ee6-4b0b-b809-46c8824508e7","system_id":"levelo_inurba_marseille","lat":43.29612,"lon":5.41945,"is_reserved":false,"is_disabled":false,"rental_uris":{"android":"levelo://app?vid=98c0a183-7ee6-4b0b-b809-46c8824508e7","ios":"levelo://app?vid=98c0a183-7ee6-4b0b-b809-46c8824508e7"},"vehicle_type_id":"4","last_reported":1781389265,"current_range_meters":3200,"station_id":"","pricing_plan_id":"cebpf4jnsgd1na2vs0mg"},{"bike_id":"a1f49648-b59d-44f3-81ec-65ff760537ac","system_id":"levelo_inurba_marseille","lat":43.24173,"lon":5.3972,"is_reserved":false,"is_disabled":false,"rental_uris":{"android":"levelo://app?vid=a1f49648-b59d-44f3-81ec-65ff760537ac","ios":"levelo://app?vid=a1f49648-b59d-44f3-81ec-65ff760537ac"},"vehicle_type_id":"4","last_reported":1781389265,"current_range_meters":3200,"station_id":"ce4bhn12rcd13ifvqgpg","pricing_plan_id":"cebpf4jnsgd1na2vs0mg"},{"bike_id":"f312a474-3688-43e4-8515-a784a5c48528","system_id":"levelo_inurba_marseille","lat":43.2119,"lon":5.35072,"is_reserved":false,"is_disabled":true,"rental_uris":{"android":"levelo://app?vid=f312a474-3688-43e4-8515-a784a5c48528","ios":"levelo://app?vid=f312a474-3688-43e4-8515-a784a5c48528"},"vehicle_type_id":"4","last_reported":1781389265,"current_range_meters":3200,"station_id":"st_cvj6sg6p6f1abm77japg","pricing_plan_id":"cebpf4jnsgd1na2vs0mg"},{"bike_id":"db825a5e-3256-426b-a46f-1f919ceba07d","system_id":"levelo_inurba_marseille","lat":43.27929,"lon":5.3872,"is_reserved":false,"is_disabled":false,"rental_uris":{"android":"levelo://app?vid=db825a5e-3256-426b-a46f-1f919ceba07d","ios":"levelo://app?vid=db825a5e-3256-426b-a46f-1f919ceba07d"},"vehicle_type_id":"4","last_reported":1781389265,"current_range_meters":3200,"station_id":"ce4bhg12rcd13ifvqf80","pricing_plan_id":"cebpf4jnsgd1na2vs0mg"},{"bike_id":"7bf6aea3-b6b7-4a23-9f60-b150cc23b36a","system_id":"levelo_inurba_marseille","lat":43.26019,"lon":5.37566,"is_reserved":false,"is_disabled":false,"rental_uris":{"android":"levelo://app?vid=7bf6aea3-b6b7-4a23-9f60-b150cc23b36a","ios":"levelo://app?vid=7bf6aea3-b6b7-4a23-9f60-b150cc23b36a"},"vehicle_type_id":"4","last_reported":1781389265,"current_range_meters":3200,"station_id":"ce4bhgh2rcd13ifvqfa0","pricing_plan_id":"cebpf4jnsgd1na2vs0mg"},{"bike_id":"e6a05f18-e75c-47b6-8e84-506a85469b8f","system_id":"levelo_inurba_marseille","lat":43.26358,"lon":5.37821,"is_reserved":false,"is_disabled":false,"rental_uris":{"android":"levelo://app?vid=e6a05f18-e75c-47b6-8e84-506a85469b8f","ios":"levelo://app?vid=e6a05f18-e75c-47b6-8e84-506a85469b8f"},"vehicle_type_id":"4","last_reported":1781389265,"current_range_meters":3200,"station_id":"st_d163nis0mtpqnht9uue0","pricing_plan_id":"cebpf4jnsgd1na2vs0mg"},{"bike_id":"e37613eb-2b80-45f6-8be7-6bbc2d17cf64","system_id":"levelo_inurba_marseille","lat":43.24808,"lon":5.37452,"is_reserved":false,"is_disabled":true,"rental_uris":{"android":"levelo://app?vid=e37613eb-2b80-45f6-8be7-6bbc2d17cf64","ios":"levelo://app?vid=e37613eb-2b80-45f6-8be7-6bbc2d17cf64"},"vehicle_type_id":"4","last_reported":1781389265,"current_range_meters":3200,"station_id":"ce4bhgh2rcd13ifvqfb0","pricing_plan_id":"cebpf4jnsgd1na2vs0mg"},{"bike_id":"1c0c8bb9-621f-4df8-9761-4f06228d5f3b","system_id":"levelo_inurba_marseille","lat":43.24044,"lon":5.37746,"is_reserved":false,"is_disabled":false,"rental_uris":{"android":"levelo://app?vid=1c0c8bb9-621f-4df8-9761-4f06228d5f3b","ios":"levelo://app?vid=1c0c8bb9-621f-4df8-9761-4f06228d5f3b"},"vehicle_type_id":"4","last_reported":1781389265,"current_range_meters":3200,"station_id":"ce4bhnp2rcd13ifvqgvg","pricing_plan_id":"cebpf4jnsgd1na2vs0mg"},{"bike_id":"34e5564c-8077-4b57-a187-1453bcb69c9b","system_id":"levelo_inurba_marseille","lat":43.29034,"lon":5.38658,"is_reserved":false,"is_disabled":false,"rental_uris":{"android":"levelo://app?vid=34e5564c-8077-4b57-a187-1453bcb69c9b","ios":"levelo://app?vid=34e5564c-8077-4b57-a187-1453bcb69c9b"},"vehicle_type_id":"4","last_reported":1781389265,"current_range_meters":3200,"station_id":"ce4bh4p2rcd13ifvqe0g","pricing_plan_id":"cebpf4jnsgd1na2vs0mg"},{"bike_id":"77a3e5cd-10a1-4b18-bd77-e146c62f220c","system_id":"levelo_inurba_marseille","lat":43.28004,"lon":5.3755,"is_reserved":false,"is_disabled":false,"rental_uris":{"android":"levelo://app?vid=77a3e5cd-10a1-4b18-bd77-e146c62f220c","ios":"levelo://app?vid=77a3e5cd-10a1-4b18-bd77-e146c62f220c"},"vehicle_type_id":"4","last_reported":1781389265,"current_range_meters":3200,"station_id":"","pricing_plan_id":"cebpf4jnsgd1na2vs0mg"},{"bike_id":"aba9c826-7f6c-4888-a338-4f7f0c75502c","system_id":"levelo_inurba_marseille","lat":43.28537,"lon":5.44108,"is_reserved":false,"is_disabled":false,"rental_uris":{"android":"levelo://app?vid=aba9c826-7f6c-4888-a338-4f7f0c75502c","ios":"levelo://app?vid=aba9c826-7f6c-4888-a338-4f7f0c75502c"},"vehicle_type_id":"4","last_reported":1781389265,"current_range_meters":3600,"station_id":"st_d3j3df2ikq2c7380ej80","pricing_plan_id":"cebpf4jnsgd1na2vs0mg"},{"bike_id":"3e16236a-b1a7-4f74-90d7-ef9461349247","system_id":"levelo_inurba_marseille","lat":43.26004,"lon":5.37596,"is_reserved":false,"is_disabled":false,"rental_uris":{"android":"levelo://app?vid=3e16236a-b1a7-4f74-90d7-ef9461349247","ios":"levelo://app?vid=3e16236a-b1a7-4f74-90d7-ef9461349247"},"vehicle_type_id":"4","last_reported":1781389265,"current_range_meters":3600,"station_id":"ce4bhgh2rcd13ifvqfa0","pricing_plan_id":"cebpf4jnsgd1na2vs0mg"},{"bike_id":"6a27404a-fd45-46ef-b0c6-d19df52b0472","system_id":"levelo_inurba_marseille","lat":43.30072,"lon":5.37744,"is_reserved":false,"is_disabled":false,"rental_uris":{"android":"levelo://app?vid=6a27404a-fd45-46ef-b0c6-d19df52b0472","ios":"levelo://app?vid=6a27404a-fd45-46ef-b0c6-d19df52b0472"},"vehicle_type_id":"4","last_reported":1781389265,"current_range_meters":3600,"station_id":"","pricing_plan_id":"cebpf4jnsgd1na2vs0mg"},{"bike_id":"fae9e422-64fd-48b6-a83b-e62363853497","system_id":"levelo_inurba_marseille","lat":43.30109,"lon":5.38285,"is_reserved":false,"is_disabled":false,"rental_uris":{"android":"levelo://app?vid=fae9e422-64fd-48b6-a83b-e62363853497","ios":"levelo://app?vid=fae9e422-64fd-48b6-a83b-e62363853497"},"vehicle_type_id":"4","last_reported":1781389265,"current_range_meters":3600,"station_id":"","pricing_plan_id":"cebpf4jnsgd1na2vs0mg"},{"bike_id":"4ac310f6-09e5-4d6c-9de5-32a35fb6fd89","system_id":"levelo_inurba_marseille","lat":43.279069,"lon":5.380061,"is_reserved":false,"is_disabled":false,"rental_uris":{"android":"levelo://app?vid=4ac310f6-09e5-4d6c-9de5-32a35fb6fd89","ios":"levelo://app?vid=4ac310f6-09e5-4d6c-9de5-32a35fb6fd89"},"vehicle_type_id":"4","last_reported":1781389265,"current_range_meters":3600,"station_id":"ce4bhf92rcd13ifvqf50","pricing_plan_id":"cebpf4jnsgd1na2vs0mg"},{"bike_id":"44368fe8-42bc-4d15-af49-3e8cdb900dbb","system_id":"levelo_inurba_marseille","lat":43.32488,"lon":5.38278,"is_reserved":false,"is_disabled":false,"rental_uris":{"android":"levelo://app?vid=44368fe8-42bc-4d15-af49-3e8cdb900dbb","ios":"levelo://app?vid=44368fe8-42bc-4d15-af49-3e8cdb900dbb"},"vehicle_type_id":"4","last_reported":1781389265,"current_range_meters":3600,"station_id":"st_d4asgbiv49dc73anf9m0","pricing_plan_id":"cebpf4jnsgd1na2vs0mg"},{"bike_id":"abb500d4-9db3-49c1-855d-09267fc106f9","system_id":"levelo_inurba_marseille","lat":43.2507,"lon":5.39546,"is_reserved":false,"is_disabled":false,"rental_uris":{"android":"levelo://app?vid=abb500d4-9db3-49c1-855d-09267fc106f9","ios":"levelo://app?vid=abb500d4-9db3-49c1-855d-09267fc106f9"},"vehicle_type_id":"4","last_reported":1781389265,"current_range_meters":3600,"station_id":"ce4bhm12rcd13ifvqgkg","pricing_plan_id":"cebpf4jnsgd1na2vs0mg"},{"bike_id":"61abc050-794c-43f3-96ae-15565612cd1b","system_id":"levelo_inurba_marseille","lat":43.28695,"lon":5.46667,"is_reserved":false,"is_disabled":false,"rental_uris":{"android":"levelo://app?vid=61abc050-794c-43f3-96ae-15565612cd1b","ios":"levelo://app?vid=61abc050-794c-43f3-96ae-15565612cd1b"},"vehicle_type_id":"4","last_reported":1781389265,"current_range_meters":3600,"station_id":"st_d6tc3vkotcvc738tfjhg","pricing_plan_id":"cebpf4jnsgd1na2vs0mg"},{"bike_id":"4ce4b88d-0d81-4914-af74-9bf51bf4371e","system_id":"levelo_inurba_marseille","lat":43.2799,"lon":5.387062,"is_reserved":false,"is_disabled":false,"rental_uris":{"android":"levelo://app?vid=4ce4b88d-0d81-4914-af74-9bf51bf4371e","ios":"levelo://app?vid=4ce4b88d-0d81-4914-af74-9bf51bf4371e"},"vehicle_type_id":"4","last_reported":1781389265,"current_range_meters":3600,"station_id":"ce4bhg12rcd13ifvqf80","pricing_plan_id":"cebpf4jnsgd1na2vs0mg"},{"bike_id":"70074e2a-94c4-4bb0-bbca-a24f4105eb9f","system_id":"levelo_inurba_marseille","lat":43.29093,"lon":5.38413,"is_reserved":false,"is_disabled":false,"rental_uris":{"android":"levelo://app?vid=70074e2a-94c4-4bb0-bbca-a24f4105eb9f","ios":"levelo://app?vid=70074e2a-94c4-4bb0-bbca-a24f4105eb9f"},"vehicle_type_id":"4","last_reported":1781389265,"current_range_meters":3600,"station_id":"","pricing_plan_id":"cebpf4jnsgd1na2vs0mg"},{"bike_id":"1f4cf7cf-98e2-40ce-8e0b-c74ae682295d","system_id":"levelo_inurba_marseille","lat":43.26234,"lon":5.38765,"is_reserved":false,"is_disabled":false,"rental_uris":{"android":"levelo://app?vid=1f4cf7cf-98e2-40ce-8e0b-c74ae682295d","ios":"levelo://app?vid=1f4cf7cf-98e2-40ce-8e0b-c74ae682295d"},"vehicle_type_id":"4","last_reported":1781389265,"current_range_meters":3600,"station_id":"st_d8gjfg747rts73coq3b0","pricing_plan_id":"cebpf4jnsgd1na2vs0mg"},{"bike_id":"1dacb047-1697-41ac-9438-74bd08fa1773","system_id":"levelo_inurba_marseille","lat":43.24937,"lon":5.4049,"is_reserved":false,"is_disabled":false,"rental_uris":{"android":"levelo://app?vid=1dacb047-1697-41ac-9438-74bd08fa1773","ios":"levelo://app?vid=1dacb047-1697-41ac-9438-74bd08fa1773"},"vehicle_type_id":"4","last_reported":1781389265,"current_range_meters":3600,"station_id":"st_d2ngiaodas8pm72gd1h0","pricing_plan_id":"cebpf4jnsgd1na2vs0mg"},{"bike_id":"5245b8db-6377-46b1-b931-155a581da557","system_id":"levelo_inurba_marseille","lat":43.27779,"lon":5.40726,"is_reserved":false,"is_disabled":false,"rental_uris":{"android":"levelo://app?vid=5245b8db-6377-46b1-b931-155a581da557","ios":"levelo://app?vid=5245b8db-6377-46b1-b931-155a581da557"},"vehicle_type_id":"4","last_reported":1781389265,"current_range_meters":3600,"station_id":"ce4bhnh2rcd13ifvqgtg","pricing_plan_id":"cebpf4jnsgd1na2vs0mg"},{"bike_id":"292ba82b-0dab-46c1-b4a2-48a52268ff1c","system_id":"levelo_inurba_marseille","lat":43.26557,"lon":5.39012,"is_reserved":false,"is_disabled":true,"rental_uris":{"android":"levelo://app?vid=292ba82b-0dab-46c1-b4a2-48a52268ff1c","ios":"levelo://app?vid=292ba82b-0dab-46c1-b4a2-48a52268ff1c"},"vehicle_type_id":"4","last_reported":1781389265,"current_range_meters":3600,"station_id":"ce4bhe12rcd13ifvqf30","pricing_plan_id":"cebpf4jnsgd1na2vs0mg"},{"bike_id":"eda98293-5c91-4dae-89c6-486a45b00f60","system_id":"levelo_inurba_marseille","lat":43.23272,"lon":5.40097,"is_reserved":false,"is_disabled":false,"rental_uris":{"android":"levelo://app?vid=eda98293-5c91-4dae-89c6-486a45b00f60","ios":"levelo://app?vid=eda98293-5c91-4dae-89c6-486a45b00f60"},"vehicle_type_id":"4","last_reported":1781389265,"current_range_meters":3600,"station_id":"","pricing_plan_id":"cebpf4jnsgd1na2vs0mg"},{"bike_id":"db8c5b68-a2ae-4ccd-8b82-df47b61ade41","system_id":"levelo_inurba_marseille","lat":43.24651,"lon":5.37995,"is_reserved":false,"is_disabled":false,"rental_uris":{"android":"levelo://app?vid=db8c5b68-a2ae-4ccd-8b82-df47b61ade41","ios":"levelo://app?vid=db8c5b68-a2ae-4ccd-8b82-df47b61ade41"},"vehicle_type_id":"4","last_reported":1781389265,"current_range_meters":3600,"station_id":"","pricing_plan_id":"cebpf4jnsgd1na2vs0mg"},{"bike_id":"c22b70f8-6b67-4ec4-b277-d5e7b04eef8e","system_id":"levelo_inurba_marseille","lat":43.29796,"lon":5.404,"is_reserved":false,"is_disabled":false,"rental_uris":{"android":"levelo://app?vid=c22b70f8-6b67-4ec4-b277-d5e7b04eef8e","ios":"levelo://app?vid=c22b70f8-6b67-4ec4-b277-d5e7b04eef8e"},"vehicle_type_id":"4","last_reported":1781389265,"current_range_meters":3600,"station_id":"ce4bh112rcd13ifvqd90","pricing_plan_id":"cebpf4jnsgd1na2vs0mg"},{"bike_id":"01909788-91ab-48dc-a2ec-bcecce517fde","system_id":"levelo_inurba_marseille","lat":43.29896,"lon":5.38156,"is_reserved":false,"is_disabled":false,"rental_uris":{"android":"levelo://app?vid=01909788-91ab-48dc-a2ec-bcecce517fde","ios":"levelo://app?vid=01909788-91ab-48dc-a2ec-bcecce517fde"},"vehicle_type_id":"4","last_reported":1781389265,"current_range_meters":3600,"station_id":"ce4bgj12rcd13ifvqbc0","pricing_plan_id":"cebpf4jnsgd1na2vs0mg"},{"bike_id":"9f069751-295a-496b-b19c-281f4491a5fd","system_id":"levelo_inurba_marseille","lat":43.35041,"lon":5.3501,"is_reserved":false,"is_disabled":false,"rental_uris":{"android":"levelo://app?vid=9f069751-295a-496b-b19c-281f4491a5fd","ios":"levelo://app?vid=9f069751-295a-496b-b19c-281f4491a5fd"},"vehicle_type_id":"4","last_reported":1781389265,"current_range_meters":4000,"station_id":"","pricing_plan_id":"cebpf4jnsgd1na2vs0mg"},{"bike_id":"1c2ef152-9632-42ad-be32-9cbea9645d01","system_id":"levelo_inurba_marseille","lat":43.25387,"lon":5.37631,"is_reserved":false,"is_disabled":false,"rental_uris":{"android":"levelo://app?vid=1c2ef152-9632-42ad-be32-9cbea9645d01","ios":"levelo://app?vid=1c2ef152-9632-42ad-be32-9cbea9645d01"},"vehicle_type_id":"4","last_reported":1781389265,"current_range_meters":4000,"station_id":"","pricing_plan_id":"cebpf4jnsgd1na2vs0mg"},{"bike_id":"84922035-8b7a-40e7-99b5-1ee6a926de30","system_id":"levelo_inurba_marseille","lat":43.29053,"lon":5.36965,"is_reserved":false,"is_disabled":false,"rental_uris":{"android":"levelo://app?vid=84922035-8b7a-40e7-99b5-1ee6a926de30","ios":"levelo://app?vid=84922035-8b7a-40e7-99b5-1ee6a926de30"},"vehicle_type_id":"4","last_reported":1781389265,"current_range_meters":4000,"station_id":"","pricing_plan_id":"cebpf4jnsgd1na2vs0mg"},{"bike_id":"969f0094-9783-4737-a331-08e385485b6b","system_id":"levelo_inurba_marseille","lat":43.25586,"lon":5.38202,"is_reserved":false,"is_disabled":false,"rental_uris":{"android":"levelo://app?vid=969f0094-9783-4737-a331-08e385485b6b","ios":"levelo://app?vid=969f0094-9783-4737-a331-08e385485b6b"},"vehicle_type_id":"4","last_reported":1781389265,"current_range_meters":4000,"station_id":"ce4bhih2rcd13ifvqfs0","pricing_plan_id":"cebpf4jnsgd1na2vs0mg"},{"bike_id":"2d8a047b-0411-40fc-a69f-3169f78c4ee9","system_id":"levelo_inurba_marseille","lat":43.32359,"lon":5.36747,"is_reserved":false,"is_disabled":false,"rental_uris":{"android":"levelo://app?vid=2d8a047b-0411-40fc-a69f-3169f78c4ee9","ios":"levelo://app?vid=2d8a047b-0411-40fc-a69f-3169f78c4ee9"},"vehicle_type_id":"4","last_reported":1781389265,"current_range_meters":4000,"station_id":"ce4bhsh2rcd13ifvqi2g","pricing_plan_id":"cebpf4jnsgd1na2vs0mg"},{"bike_id":"35565049-90de-4fb4-b35d-e9c548924e41","system_id":"levelo_inurba_marseille","lat":43.26861,"lon":5.39318,"is_reserved":false,"is_disabled":true,"rental_uris":{"android":"levelo://app?vid=35565049-90de-4fb4-b35d-e9c548924e41","ios":"levelo://app?vid=35565049-90de-4fb4-b35d-e9c548924e41"},"vehicle_type_id":"4","last_reported":1781389265,"current_range_meters":4000,"station_id":"","pricing_plan_id":"cebpf4jnsgd1na2vs0mg"},{"bike_id":"41ffd840-44f2-46ea-bf9b-6a3d78a82d86","system_id":"levelo_inurba_marseille","lat":43.28648,"lon":5.38702,"is_reserved":false,"is_disabled":false,"rental_uris":{"android":"levelo://app?vid=41ffd840-44f2-46ea-bf9b-6a3d78a82d86","ios":"levelo://app?vid=41ffd840-44f2-46ea-bf9b-6a3d78a82d86"},"vehicle_type_id":"4","last_reported":1781389265,"current_range_meters":4000,"station_id":"ce4bh492rcd13ifvqdug","pricing_plan_id":"cebpf4jnsgd1na2vs0mg"},{"bike_id":"2fb8096d-566e-4dcc-8758-24010e467184","system_id":"levelo_inurba_marseille","lat":43.263327,"lon":5.378331,"is_reserved":false,"is_disabled":false,"rental_uris":{"android":"levelo://app?vid=2fb8096d-566e-4dcc-8758-24010e467184","ios":"levelo://app?vid=2fb8096d-566e-4dcc-8758-24010e467184"},"vehicle_type_id":"4","last_reported":1781389265,"current_range_meters":4000,"station_id":"","pricing_plan_id":"cebpf4jnsgd1na2vs0mg"},{"bike_id":"0d77b0d4-f5c0-4b3b-b9fc-7041e3b654e3","system_id":"levelo_inurba_marseille","lat":43.28689,"lon":5.38669,"is_reserved":false,"is_disabled":true,"rental_uris":{"android":"levelo://app?vid=0d77b0d4-f5c0-4b3b-b9fc-7041e3b654e3","ios":"levelo://app?vid=0d77b0d4-f5c0-4b3b-b9fc-7041e3b654e3"},"vehicle_type_id":"4","last_reported":1781389265,"current_range_meters":4000,"station_id":"ce4bh492rcd13ifvqdug","pricing_plan_id":"cebpf4jnsgd1na2vs0mg"},{"bike_id":"67eab827-ed39-45e0-8930-3403642933ee","system_id":"levelo_inurba_marseille","lat":43.29488,"lon":5.43314,"is_reserved":false,"is_disabled":false,"rental_uris":{"android":"levelo://app?vid=67eab827-ed39-45e0-8930-3403642933ee","ios":"levelo://app?vid=67eab827-ed39-45e0-8930-3403642933ee"},"vehicle_type_id":"4","last_reported":1781389265,"current_range_meters":4000,"station_id":"st_d3j5ugp08ojc73fj9d10","pricing_plan_id":"cebpf4jnsgd1na2vs0mg"},{"bike_id":"ff1d5c47-ad23-4c83-93bd-4d0a580f7a21","system_id":"levelo_inurba_marseille","lat":43.292736,"lon":5.401096,"is_reserved":false,"is_disabled":false,"rental_uris":{"android":"levelo://app?vid=ff1d5c47-ad23-4c83-93bd-4d0a580f7a21","ios":"levelo://app?vid=ff1d5c47-ad23-4c83-93bd-4d0a580f7a21"},"vehicle_type_id":"4","last_reported":1781389265,"current_range_meters":4000,"station_id":"ce4bh312rcd13ifvqdk0","pricing_plan_id":"cebpf4jnsgd1na2vs0mg"},{"bike_id":"521a3a42-fce6-4db8-a48e-6826976c55af","system_id":"levelo_inurba_marseille","lat":43.31658,"lon":5.42397,"is_reserved":false,"is_disabled":false,"rental_uris":{"android":"levelo://app?vid=521a3a42-fce6-4db8-a48e-6826976c55af","ios":"levelo://app?vid=521a3a42-fce6-4db8-a48e-6826976c55af"},"vehicle_type_id":"4","last_reported":1781389265,"current_range_meters":4000,"station_id":"","pricing_plan_id":"cebpf4jnsgd1na2vs0mg"},{"bike_id":"1625d25d-0aae-4e8f-bda7-815f82406869","system_id":"levelo_inurba_marseille","lat":43.299268,"lon":5.413193,"is_reserved":false,"is_disabled":true,"rental_uris":{"android":"levelo://app?vid=1625d25d-0aae-4e8f-bda7-815f82406869","ios":"levelo://app?vid=1625d25d-0aae-4e8f-bda7-815f82406869"},"vehicle_type_id":"4","last_reported":1781389265,"current_range_meters":4000,"station_id":"","pricing_plan_id":"cebpf4jnsgd1na2vs0mg"},{"bike_id":"d7197004-59e2-49b0-8c97-35db7b90f513","system_id":"levelo_inurba_marseille","lat":43.23771,"lon":5.36629,"is_reserved":false,"is_disabled":false,"rental_uris":{"android":"levelo://app?vid=d7197004-59e2-49b0-8c97-35db7b90f513","ios":"levelo://app?vid=d7197004-59e2-49b0-8c97-35db7b90f513"},"vehicle_type_id":"4","last_reported":1781389265,"current_range_meters":4000,"station_id":"st_d3nk18o9ro0c73en2l3g","pricing_plan_id":"cebpf4jnsgd1na2vs0mg"},{"bike_id":"01974ce9-2ce7-4184-9698-03768bec9bb4","system_id":"levelo_inurba_marseille","lat":43.2868,"lon":5.46639,"is_reserved":false,"is_disabled":false,"rental_uris":{"android":"levelo://app?vid=01974ce9-2ce7-4184-9698-03768bec9bb4","ios":"levelo://app?vid=01974ce9-2ce7-4184-9698-03768bec9bb4"},"vehicle_type_id":"4","last_reported":1781389265,"current_range_meters":4000,"station_id":"st_d6tc3vkotcvc738tfjhg","pricing_plan_id":"cebpf4jnsgd1na2vs0mg"},{"bike_id":"d3efbfd3-28f5-4e45-b224-dd326d26e02e","system_id":"levelo_inurba_marseille","lat":43.26366,"lon":5.37839,"is_reserved":false,"is_disabled":false,"rental_uris":{"android":"levelo://app?vid=d3efbfd3-28f5-4e45-b224-dd326d26e02e","ios":"levelo://app?vid=d3efbfd3-28f5-4e45-b224-dd326d26e02e"},"vehicle_type_id":"4","last_reported":1781389265,"current_range_meters":4000,"station_id":"st_d163nis0mtpqnht9uue0","pricing_plan_id":"cebpf4jnsgd1na2vs0mg"},{"bike_id":"93803c4e-ba89-4aae-a4d8-c0d2a148430e","system_id":"levelo_inurba_marseille","lat":43.30582,"lon":5.37256,"is_reserved":false,"is_disabled":false,"rental_uris":{"android":"levelo://app?vid=93803c4e-ba89-4aae-a4d8-c0d2a148430e","ios":"levelo://app?vid=93803c4e-ba89-4aae-a4d8-c0d2a148430e"},"vehicle_type_id":"4","last_reported":1781389265,"current_range_meters":4000,"station_id":"ce4bgqh2rcd13ifvqc4g","pricing_plan_id":"cebpf4jnsgd1na2vs0mg"},{"bike_id":"44c94aa1-6d43-4de1-bf1f-52b0672a538b","system_id":"levelo_inurba_marseille","lat":43.26324,"lon":5.37831,"is_reserved":false,"is_disabled":false,"rental_uris":{"android":"levelo://app?vid=44c94aa1-6d43-4de1-bf1f-52b0672a538b","ios":"levelo://app?vid=44c94aa1-6d43-4de1-bf1f-52b0672a538b"},"vehicle_type_id":"4","last_reported":1781389265,"current_range_meters":4000,"station_id":"","pricing_plan_id":"cebpf4jnsgd1na2vs0mg"},{"bike_id":"2d18be53-2cdf-4b6c-9fdb-87b4f7e862e4","system_id":"levelo_inurba_marseille","lat":43.30906,"lon":5.36847,"is_reserved":false,"is_disabled":false,"rental_uris":{"android":"levelo://app?vid=2d18be53-2cdf-4b6c-9fdb-87b4f7e862e4","ios":"levelo://app?vid=2d18be53-2cdf-4b6c-9fdb-87b4f7e862e4"},"vehicle_type_id":"4","last_reported":1781389265,"current_range_meters":4000,"station_id":"ce4bgn92rcd13ifvqbvg","pricing_plan_id":"cebpf4jnsgd1na2vs0mg"},{"bike_id":"5f68454a-3f46-4716-98ea-a07b68026da7","system_id":"levelo_inurba_marseille","lat":43.30098,"lon":5.3772,"is_reserved":false,"is_disabled":false,"rental_uris":{"android":"levelo://app?vid=5f68454a-3f46-4716-98ea-a07b68026da7","ios":"levelo://app?vid=5f68454a-3f46-4716-98ea-a07b68026da7"},"vehicle_type_id":"4","last_reported":1781389265,"current_range_meters":4000,"station_id":"","pricing_plan_id":"cebpf4jnsgd1na2vs0mg"},{"bike_id":"7bd1dc89-b9bb-44f1-b921-0eb49d8d443c","system_id":"levelo_inurba_marseille","lat":43.26963,"lon":5.40222,"is_reserved":false,"is_disabled":false,"rental_uris":{"android":"levelo://app?vid=7bd1dc89-b9bb-44f1-b921-0eb49d8d443c","ios":"levelo://app?vid=7bd1dc89-b9bb-44f1-b921-0eb49d8d443c"},"vehicle_type_id":"4","last_reported":1781389265,"current_range_meters":4000,"station_id":"cjm6bp8fraef2m0cb0m0","pricing_plan_id":"cebpf4jnsgd1na2vs0mg"},{"bike_id":"509373eb-147f-4741-9057-7f742f1948d7","system_id":"levelo_inurba_marseille","lat":43.32658,"lon":5.41,"is_reserved":false,"is_disabled":false,"rental_uris":{"android":"levelo://app?vid=509373eb-147f-4741-9057-7f742f1948d7","ios":"levelo://app?vid=509373eb-147f-4741-9057-7f742f1948d7"},"vehicle_type_id":"4","last_reported":1781389265,"current_range_meters":4000,"station_id":"ce4bhpp2rcd13ifvqhgg","pricing_plan_id":"cebpf4jnsgd1na2vs0mg"},{"bike_id":"54bd145f-3282-4937-bc36-7daed387df88","system_id":"levelo_inurba_marseille","lat":43.25,"lon":5.38924,"is_reserved":false,"is_disabled":false,"rental_uris":{"android":"levelo://app?vid=54bd145f-3282-4937-bc36-7daed387df88","ios":"levelo://app?vid=54bd145f-3282-4937-bc36-7daed387df88"},"vehicle_type_id":"4","last_reported":1781389265,"current_range_meters":4000,"station_id":"ce4bhgp2rcd13ifvqfd0","pricing_plan_id":"cebpf4jnsgd1na2vs0mg"},{"bike_id":"5f189998-b2b6-4e38-b849-68910c9a3d84","system_id":"levelo_inurba_marseille","lat":43.317514,"lon":5.39012,"is_reserved":false,"is_disabled":false,"rental_uris":{"android":"levelo://app?vid=5f189998-b2b6-4e38-b849-68910c9a3d84","ios":"levelo://app?vid=5f189998-b2b6-4e38-b849-68910c9a3d84"},"vehicle_type_id":"4","last_reported":1781389265,"current_range_meters":4000,"station_id":"","pricing_plan_id":"cebpf4jnsgd1na2vs0mg"},{"bike_id":"437e3ba7-ea12-4e88-a20f-de0ed79ac149","system_id":"levelo_inurba_marseille","lat":43.2407,"lon":5.37769,"is_reserved":false,"is_disabled":true,"rental_uris":{"android":"levelo://app?vid=437e3ba7-ea12-4e88-a20f-de0ed79ac149","ios":"levelo://app?vid=437e3ba7-ea12-4e88-a20f-de0ed79ac149"},"vehicle_type_id":"4","last_reported":1781389265,"current_range_meters":4000,"station_id":"ce4bhnp2rcd13ifvqgvg","pricing_plan_id":"cebpf4jnsgd1na2vs0mg"},{"bike_id":"5a3d4fe4-e59d-4e59-a510-666531c9244a","system_id":"levelo_inurba_marseille","lat":43.28731,"lon":5.36096,"is_reserved":false,"is_disabled":false,"rental_uris":{"android":"levelo://app?vid=5a3d4fe4-e59d-4e59-a510-666531c9244a","ios":"levelo://app?vid=5a3d4fe4-e59d-4e59-a510-666531c9244a"},"vehicle_type_id":"4","last_reported":1781389265,"current_range_meters":4000,"station_id":"cki0cbj6b192h4jlfktg","pricing_plan_id":"cebpf4jnsgd1na2vs0mg"},{"bike_id":"d9a42db2-0aea-4602-8922-23ab9a2d33a3","system_id":"levelo_inurba_marseille","lat":43.29374,"lon":5.37857,"is_reserved":false,"is_disabled":false,"rental_uris":{"android":"levelo://app?vid=d9a42db2-0aea-4602-8922-23ab9a2d33a3","ios":"levelo://app?vid=d9a42db2-0aea-4602-8922-23ab9a2d33a3"},"vehicle_type_id":"4","last_reported":1781389265,"current_range_meters":4000,"station_id":"ce4bgjh2rcd13ifvqbf0","pricing_plan_id":"cebpf4jnsgd1na2vs0mg"},{"bike_id":"6db0e189-20d1-4d92-ab9f-a2ad8e479225","system_id":"levelo_inurba_marseille","lat":43.29254,"lon":5.35524,"is_reserved":false,"is_disabled":false,"rental_uris":{"android":"levelo://app?vid=6db0e189-20d1-4d92-ab9f-a2ad8e479225","ios":"levelo://app?vid=6db0e189-20d1-4d92-ab9f-a2ad8e479225"},"vehicle_type_id":"4","last_reported":1781389265,"current_range_meters":4000,"station_id":"","pricing_plan_id":"cebpf4jnsgd1na2vs0mg"},{"bike_id":"7d57ab03-6493-474e-9052-837e45c3ffee","system_id":"levelo_inurba_marseille","lat":43.22538,"lon":5.3483,"is_reserved":false,"is_disabled":false,"rental_uris":{"android":"levelo://app?vid=7d57ab03-6493-474e-9052-837e45c3ffee","ios":"levelo://app?vid=7d57ab03-6493-474e-9052-837e45c3ffee"},"vehicle_type_id":"4","last_reported":1781389265,"current_range_meters":4000,"station_id":"st_cvj5dfep6f1abm77gieg","pricing_plan_id":"cebpf4jnsgd1na2vs0mg"},{"bike_id":"7333863b-abc5-447a-8aea-1b21b6738b45","system_id":"levelo_inurba_marseille","lat":43.3136,"lon":5.38493,"is_reserved":false,"is_disabled":false,"rental_uris":{"android":"levelo://app?vid=7333863b-abc5-447a-8aea-1b21b6738b45","ios":"levelo://app?vid=7333863b-abc5-447a-8aea-1b21b6738b45"},"vehicle_type_id":"4","last_reported":1781389265,"current_range_meters":4000,"station_id":"ce4bgt92rcd13ifvqcf0","pricing_plan_id":"cebpf4jnsgd1na2vs0mg"},{"bike_id":"6edf579f-78f6-4a80-8faa-35bdd39ec8f9","system_id":"levelo_inurba_marseille","lat":43.30533,"lon":5.36545,"is_reserved":false,"is_disabled":false,"rental_uris":{"android":"levelo://app?vid=6edf579f-78f6-4a80-8faa-35bdd39ec8f9","ios":"levelo://app?vid=6edf579f-78f6-4a80-8faa-35bdd39ec8f9"},"vehicle_type_id":"4","last_reported":1781389265,"current_range_meters":4400,"station_id":"ce4bgs12rcd13ifvqcag","pricing_plan_id":"cebpf4jnsgd1na2vs0mg"},{"bike_id":"86b4821b-066f-4af7-9341-601c3120669c","system_id":"levelo_inurba_marseille","lat":43.26231,"lon":5.38767,"is_reserved":false,"is_disabled":false,"rental_uris":{"android":"levelo://app?vid=86b4821b-066f-4af7-9341-601c3120669c","ios":"levelo://app?vid=86b4821b-066f-4af7-9341-601c3120669c"},"vehicle_type_id":"4","last_reported":1781389265,"current_range_meters":4400,"station_id":"st_d8gjfg747rts73coq3b0","pricing_plan_id":"cebpf4jnsgd1na2vs0mg"},{"bike_id":"b9d1843a-d85f-480b-9e0d-ac8e9afe5d9f","system_id":"levelo_inurba_marseille","lat":43.337444,"lon":5.374475,"is_reserved":false,"is_disabled":false,"rental_uris":{"android":"levelo://app?vid=b9d1843a-d85f-480b-9e0d-ac8e9afe5d9f","ios":"levelo://app?vid=b9d1843a-d85f-480b-9e0d-ac8e9afe5d9f"},"vehicle_type_id":"4","last_reported":1781389265,"current_range_meters":4400,"station_id":"","pricing_plan_id":"cebpf4jnsgd1na2vs0mg"},{"bike_id":"de34cc43-9c18-41de-a3e9-5ab17a96e097","system_id":"levelo_inurba_marseille","lat":43.29784,"lon":5.3809,"is_reserved":false,"is_disabled":true,"rental_uris":{"android":"levelo://app?vid=de34cc43-9c18-41de-a3e9-5ab17a96e097","ios":"levelo://app?vid=de34cc43-9c18-41de-a3e9-5ab17a96e097"},"vehicle_type_id":"4","last_reported":1781389265,"current_range_meters":4400,"station_id":"ce4bgip2rcd13ifvqbb0","pricing_plan_id":"cebpf4jnsgd1na2vs0mg"},{"bike_id":"3101f75d-9d62-4afa-ae55-a544c4fa449d","system_id":"levelo_inurba_marseille","lat":43.28737,"lon":5.37399,"is_reserved":false,"is_disabled":false,"rental_uris":{"android":"levelo://app?vid=3101f75d-9d62-4afa-ae55-a544c4fa449d","ios":"levelo://app?vid=3101f75d-9d62-4afa-ae55-a544c4fa449d"},"vehicle_type_id":"4","last_reported":1781389265,"current_range_meters":4400,"station_id":"ce4bh3p2rcd13ifvqdq0","pricing_plan_id":"cebpf4jnsgd1na2vs0mg"},{"bike_id":"a303e4db-b9ba-4d63-9eff-f7e5a8e536c2","system_id":"levelo_inurba_marseille","lat":43.28034,"lon":5.40931,"is_reserved":false,"is_disabled":false,"rental_uris":{"android":"levelo://app?vid=a303e4db-b9ba-4d63-9eff-f7e5a8e536c2","ios":"levelo://app?vid=a303e4db-b9ba-4d63-9eff-f7e5a8e536c2"},"vehicle_type_id":"4","last_reported":1781389265,"current_range_meters":4400,"station_id":"","pricing_plan_id":"cebpf4jnsgd1na2vs0mg"},{"bike_id":"4b84cc20-93d9-4e85-811a-ba432f50bc38","system_id":"levelo_inurba_marseille","lat":43.26187,"lon":5.38083,"is_reserved":false,"is_disabled":false,"rental_uris":{"android":"levelo://app?vid=4b84cc20-93d9-4e85-811a-ba432f50bc38","ios":"levelo://app?vid=4b84cc20-93d9-4e85-811a-ba432f50bc38"},"vehicle_type_id":"4","last_reported":1781389265,"current_range_meters":4400,"station_id":"","pricing_plan_id":"cebpf4jnsgd1na2vs0mg"},{"bike_id":"3e47267f-2022-42b3-84d3-2b810f5fb233","system_id":"levelo_inurba_marseille","lat":43.30304,"lon":5.36887,"is_reserved":false,"is_disabled":false,"rental_uris":{"android":"levelo://app?vid=3e47267f-2022-42b3-84d3-2b810f5fb233","ios":"levelo://app?vid=3e47267f-2022-42b3-84d3-2b810f5fb233"},"vehicle_type_id":"4","last_reported":1781389265,"current_range_meters":4400,"station_id":"ce4bgqh2rcd13ifvqc5g","pricing_plan_id":"cebpf4jnsgd1na2vs0mg"},{"bike_id":"626cb758-6f24-46c0-b417-f4560003d4cd","system_id":"levelo_inurba_marseille","lat":43.26215,"lon":5.37453,"is_reserved":false,"is_disabled":false,"rental_uris":{"android":"levelo://app?vid=626cb758-6f24-46c0-b417-f4560003d4cd","ios":"levelo://app?vid=626cb758-6f24-46c0-b417-f4560003d4cd"},"vehicle_type_id":"4","last_reported":1781389265,"current_range_meters":4400,"station_id":"ce4bhgp2rcd13ifvqfc0","pricing_plan_id":"cebpf4jnsgd1na2vs0mg"},{"bike_id":"fe131b0b-1ef9-4416-9fb2-6e419e6feba9","system_id":"levelo_inurba_marseille","lat":43.24393,"lon":5.3707,"is_reserved":false,"is_disabled":true,"rental_uris":{"android":"levelo://app?vid=fe131b0b-1ef9-4416-9fb2-6e419e6feba9","ios":"levelo://app?vid=fe131b0b-1ef9-4416-9fb2-6e419e6feba9"},"vehicle_type_id":"4","last_reported":1781389265,"current_range_meters":4400,"station_id":"ce4bhhh2rcd13ifvqfk0","pricing_plan_id":"cebpf4jnsgd1na2vs0mg"},{"bike_id":"98f70fc7-cdac-42d7-8f96-010fe6fcaa36","system_id":"levelo_inurba_marseille","lat":43.29253,"lon":5.38409,"is_reserved":false,"is_disabled":false,"rental_uris":{"android":"levelo://app?vid=98f70fc7-cdac-42d7-8f96-010fe6fcaa36","ios":"levelo://app?vid=98f70fc7-cdac-42d7-8f96-010fe6fcaa36"},"vehicle_type_id":"4","last_reported":1781389265,"current_range_meters":4400,"station_id":"ce4bh692rcd13ifvqea0","pricing_plan_id":"cebpf4jnsgd1na2vs0mg"},{"bike_id":"e4c56b64-0873-4275-bd50-2db4b788361f","system_id":"levelo_inurba_marseille","lat":43.3136,"lon":5.38506,"is_reserved":false,"is_disabled":false,"rental_uris":{"android":"levelo://app?vid=e4c56b64-0873-4275-bd50-2db4b788361f","ios":"levelo://app?vid=e4c56b64-0873-4275-bd50-2db4b788361f"},"vehicle_type_id":"4","last_reported":1781389265,"current_range_meters":4400,"station_id":"ce4bgt92rcd13ifvqcf0","pricing_plan_id":"cebpf4jnsgd1na2vs0mg"},{"bike_id":"ac6be00f-cb8d-43a7-8880-9ea1dd20dd70","system_id":"levelo_inurba_marseille","lat":43.30415,"lon":5.41321,"is_reserved":false,"is_disabled":false,"rental_uris":{"android":"levelo://app?vid=ac6be00f-cb8d-43a7-8880-9ea1dd20dd70","ios":"levelo://app?vid=ac6be00f-cb8d-43a7-8880-9ea1dd20dd70"},"vehicle_type_id":"4","last_reported":1781389265,"current_range_meters":4400,"station_id":"ce4bhop2rcd13ifvqh8g","pricing_plan_id":"cebpf4jnsgd1na2vs0mg"},{"bike_id":"60ef35b5-2df4-436e-b925-da19a11c6328","system_id":"levelo_inurba_marseille","lat":43.32128,"lon":5.36806,"is_reserved":false,"is_disabled":false,"rental_uris":{"android":"levelo://app?vid=60ef35b5-2df4-436e-b925-da19a11c6328","ios":"levelo://app?vid=60ef35b5-2df4-436e-b925-da19a11c6328"},"vehicle_type_id":"4","last_reported":1781389265,"current_range_meters":4800,"station_id":"","pricing_plan_id":"cebpf4jnsgd1na2vs0mg"},{"bike_id":"d90e7aca-9b96-45d7-8c82-5368a16a48c7","system_id":"levelo_inurba_marseille","lat":43.31495,"lon":5.373,"is_reserved":false,"is_disabled":false,"rental_uris":{"android":"levelo://app?vid=d90e7aca-9b96-45d7-8c82-5368a16a48c7","ios":"levelo://app?vid=d90e7aca-9b96-45d7-8c82-5368a16a48c7"},"vehicle_type_id":"4","last_reported":1781389265,"current_range_meters":4800,"station_id":"ce4bgt12rcd13ifvqcd0","pricing_plan_id":"cebpf4jnsgd1na2vs0mg"},{"bike_id":"465e0762-7e26-4b03-a02d-d8d6b3d24c2a","system_id":"levelo_inurba_marseille","lat":43.29536,"lon":5.38536,"is_reserved":false,"is_disabled":false,"rental_uris":{"android":"levelo://app?vid=465e0762-7e26-4b03-a02d-d8d6b3d24c2a","ios":"levelo://app?vid=465e0762-7e26-4b03-a02d-d8d6b3d24c2a"},"vehicle_type_id":"4","last_reported":1781389265,"current_range_meters":4800,"station_id":"ce4bgih2rcd13ifvqba0","pricing_plan_id":"cebpf4jnsgd1na2vs0mg"},{"bike_id":"bf601120-2f22-4bcd-8556-91c5f1ccc8b1","system_id":"levelo_inurba_marseille","lat":43.31405,"lon":5.38113,"is_reserved":false,"is_disabled":false,"rental_uris":{"android":"levelo://app?vid=bf601120-2f22-4bcd-8556-91c5f1ccc8b1","ios":"levelo://app?vid=bf601120-2f22-4bcd-8556-91c5f1ccc8b1"},"vehicle_type_id":"4","last_reported":1781389265,"current_range_meters":4800,"station_id":"","pricing_plan_id":"cebpf4jnsgd1na2vs0mg"},{"bike_id":"ac3358ce-481e-4fda-9f9b-670be68b265e","system_id":"levelo_inurba_marseille","lat":43.31481,"lon":5.40236,"is_reserved":false,"is_disabled":false,"rental_uris":{"android":"levelo://app?vid=ac3358ce-481e-4fda-9f9b-670be68b265e","ios":"levelo://app?vid=ac3358ce-481e-4fda-9f9b-670be68b265e"},"vehicle_type_id":"4","last_reported":1781389265,"current_range_meters":4800,"station_id":"","pricing_plan_id":"cebpf4jnsgd1na2vs0mg"},{"bike_id":"a31ebd8b-6676-4cd1-a38b-623e2ed09d5b","system_id":"levelo_inurba_marseille","lat":43.30819,"lon":5.38168,"is_reserved":false,"is_disabled":false,"rental_uris":{"android":"levelo://app?vid=a31ebd8b-6676-4cd1-a38b-623e2ed09d5b","ios":"levelo://app?vid=a31ebd8b-6676-4cd1-a38b-623e2ed09d5b"},"vehicle_type_id":"4","last_reported":1781389265,"current_range_meters":4800,"station_id":"ce4bgt12rcd13ifvqce0","pricing_plan_id":"cebpf4jnsgd1na2vs0mg"},{"bike_id":"be004f60-661b-45b9-a00d-02d877da6c38","system_id":"levelo_inurba_marseille","lat":43.25375,"lon":5.42298,"is_reserved":false,"is_disabled":false,"rental_uris":{"android":"levelo://app?vid=be004f60-661b-45b9-a00d-02d877da6c38","ios":"levelo://app?vid=be004f60-661b-45b9-a00d-02d877da6c38"},"vehicle_type_id":"4","last_reported":1781389265,"current_range_meters":4800,"station_id":"","pricing_plan_id":"cebpf4jnsgd1na2vs0mg"},{"bike_id":"e946dae2-a9db-4a74-9c6e-805b3abf5a48","system_id":"levelo_inurba_marseille","lat":43.25746,"lon":5.38254,"is_reserved":false,"is_disabled":false,"rental_uris":{"android":"levelo://app?vid=e946dae2-a9db-4a74-9c6e-805b3abf5a48","ios":"levelo://app?vid=e946dae2-a9db-4a74-9c6e-805b3abf5a48"},"vehicle_type_id":"4","last_reported":1781389265,"current_range_meters":4800,"station_id":"","pricing_plan_id":"cebpf4jnsgd1na2vs0mg"},{"bike_id":"1604ce63-55c7-46ac-bdbb-dd37aeac50f3","system_id":"levelo_inurba_marseille","lat":43.26061,"lon":5.39407,"is_reserved":false,"is_disabled":false,"rental_uris":{"android":"levelo://app?vid=1604ce63-55c7-46ac-bdbb-dd37aeac50f3","ios":"levelo://app?vid=1604ce63-55c7-46ac-bdbb-dd37aeac50f3"},"vehicle_type_id":"4","last_reported":1781389265,"current_range_meters":4800,"station_id":"ce4bhh92rcd13ifvqfj0","pricing_plan_id":"cebpf4jnsgd1na2vs0mg"},{"bike_id":"d40de561-7307-41ce-9fd9-699a8fa0c762","system_id":"levelo_inurba_marseille","lat":43.32002,"lon":5.38138,"is_reserved":false,"is_disabled":false,"rental_uris":{"android":"levelo://app?vid=d40de561-7307-41ce-9fd9-699a8fa0c762","ios":"levelo://app?vid=d40de561-7307-41ce-9fd9-699a8fa0c762"},"vehicle_type_id":"4","last_reported":1781389265,"current_range_meters":4800,"station_id":"ce4bhr12rcd13ifvqhpg","pricing_plan_id":"cebpf4jnsgd1na2vs0mg"},{"bike_id":"79e477ba-9e7d-4c22-95b8-adf38afbcad6","system_id":"levelo_inurba_marseille","lat":43.28458,"lon":5.35888,"is_reserved":false,"is_disabled":false,"rental_uris":{"android":"levelo://app?vid=79e477ba-9e7d-4c22-95b8-adf38afbcad6","ios":"levelo://app?vid=79e477ba-9e7d-4c22-95b8-adf38afbcad6"},"vehicle_type_id":"4","last_reported":1781389265,"current_range_meters":4800,"station_id":"ce4bhah2rcd13ifvqei0","pricing_plan_id":"cebpf4jnsgd1na2vs0mg"},{"bike_id":"2a91e8d4-c513-4501-a4a3-312ef25ad226","system_id":"levelo_inurba_marseille","lat":43.276525,"lon":5.388642,"is_reserved":false,"is_disabled":false,"rental_uris":{"android":"levelo://app?vid=2a91e8d4-c513-4501-a4a3-312ef25ad226","ios":"levelo://app?vid=2a91e8d4-c513-4501-a4a3-312ef25ad226"},"vehicle_type_id":"4","last_reported":1781389265,"current_range_meters":4800,"station_id":"ce4bhi12rcd13ifvqfo0","pricing_plan_id":"cebpf4jnsgd1na2vs0mg"},{"bike_id":"dd642cd4-21e5-4e97-885f-8917ed7d336e","system_id":"levelo_inurba_marseille","lat":43.21742,"lon":5.34609,"is_reserved":false,"is_disabled":false,"rental_uris":{"android":"levelo://app?vid=dd642cd4-21e5-4e97-885f-8917ed7d336e","ios":"levelo://app?vid=dd642cd4-21e5-4e97-885f-8917ed7d336e"},"vehicle_type_id":"4","last_reported":1781389265,"current_range_meters":4800,"station_id":"st_cvj6r9ubvosntc0bgbag","pricing_plan_id":"cebpf4jnsgd1na2vs0mg"},{"bike_id":"74f7660a-9096-4feb-beb3-160be45c0ab9","system_id":"levelo_inurba_marseille","lat":43.25352,"lon":5.41773,"is_reserved":false,"is_disabled":false,"rental_uris":{"android":"levelo://app?vid=74f7660a-9096-4feb-beb3-160be45c0ab9","ios":"levelo://app?vid=74f7660a-9096-4feb-beb3-160be45c0ab9"},"vehicle_type_id":"4","last_reported":1781389265,"current_range_meters":4800,"station_id":"","pricing_plan_id":"cebpf4jnsgd1na2vs0mg"},{"bike_id":"3981d750-5e1c-4000-9b73-15f5013e5287","system_id":"levelo_inurba_marseille","lat":43.293762,"lon":5.378411,"is_reserved":false,"is_disabled":false,"rental_uris":{"android":"levelo://app?vid=3981d750-5e1c-4000-9b73-15f5013e5287","ios":"levelo://app?vid=3981d750-5e1c-4000-9b73-15f5013e5287"},"vehicle_type_id":"4","last_reported":1781389265,"current_range_meters":4800,"station_id":"ce4bgjh2rcd13ifvqbf0","pricing_plan_id":"cebpf4jnsgd1na2vs0mg"},{"bike_id":"8f5b297e-a101-4dac-9b10-8764ca019902","system_id":"levelo_inurba_marseille","lat":43.313634,"lon":5.38489,"is_reserved":false,"is_disabled":true,"rental_uris":{"android":"levelo://app?vid=8f5b297e-a101-4dac-9b10-8764ca019902","ios":"levelo://app?vid=8f5b297e-a101-4dac-9b10-8764ca019902"},"vehicle_type_id":"4","last_reported":1781389265,"current_range_meters":4800,"station_id":"","pricing_plan_id":"cebpf4jnsgd1na2vs0mg"},{"bike_id":"c6555d54-519a-459c-a7d8-0f5386f527ae","system_id":"levelo_inurba_marseille","lat":43.29727,"lon":5.37379,"is_reserved":false,"is_disabled":false,"rental_uris":{"android":"levelo://app?vid=c6555d54-519a-459c-a7d8-0f5386f527ae","ios":"levelo://app?vid=c6555d54-519a-459c-a7d8-0f5386f527ae"},"vehicle_type_id":"4","last_reported":1781389265,"current_range_meters":4800,"station_id":"","pricing_plan_id":"cebpf4jnsgd1na2vs0mg"},{"bike_id":"56c6581f-b173-4ad0-a879-90f3eca1cb90","system_id":"levelo_inurba_marseille","lat":43.27641,"lon":5.3612,"is_reserved":false,"is_disabled":false,"rental_uris":{"android":"levelo://app?vid=56c6581f-b173-4ad0-a879-90f3eca1cb90","ios":"levelo://app?vid=56c6581f-b173-4ad0-a879-90f3eca1cb90"},"vehicle_type_id":"4","last_reported":1781389265,"current_range_meters":4800,"station_id":"ce4bgj92rcd13ifvqbe0","pricing_plan_id":"cebpf4jnsgd1na2vs0mg"},{"bike_id":"b0e1c627-e366-414e-b921-4572a58307db","system_id":"levelo_inurba_marseille","lat":43.28615,"lon":5.35116,"is_reserved":false,"is_disabled":true,"rental_uris":{"android":"levelo://app?vid=b0e1c627-e366-414e-b921-4572a58307db","ios":"levelo://app?vid=b0e1c627-e366-414e-b921-4572a58307db"},"vehicle_type_id":"4","last_reported":1781389265,"current_range_meters":4800,"station_id":"ce4bhch2rcd13ifvqeug","pricing_plan_id":"cebpf4jnsgd1na2vs0mg"},{"bike_id":"e85eacf2-df37-4560-92c7-59f7e311147c","system_id":"levelo_inurba_marseille","lat":43.2558,"lon":5.38236,"is_reserved":false,"is_disabled":false,"rental_uris":{"android":"levelo://app?vid=e85eacf2-df37-4560-92c7-59f7e311147c","ios":"levelo://app?vid=e85eacf2-df37-4560-92c7-59f7e311147c"},"vehicle_type_id":"4","last_reported":1781389265,"current_range_meters":4800,"station_id":"ce4bhih2rcd13ifvqfs0","pricing_plan_id":"cebpf4jnsgd1na2vs0mg"},{"bike_id":"fc863954-b2b0-4600-8ee1-0e095a163394","system_id":"levelo_inurba_marseille","lat":43.30336,"lon":5.40462,"is_reserved":false,"is_disabled":false,"rental_uris":{"android":"levelo://app?vid=fc863954-b2b0-4600-8ee1-0e095a163394","ios":"levelo://app?vid=fc863954-b2b0-4600-8ee1-0e095a163394"},"vehicle_type_id":"4","last_reported":1781389265,"current_range_meters":4800,"station_id":"ce4bh012rcd13ifvqd10","pricing_plan_id":"cebpf4jnsgd1na2vs0mg"},{"bike_id":"bf740f93-dcae-45bd-8189-93f0bf5977b3","system_id":"levelo_inurba_marseille","lat":43.22556,"lon":5.41642,"is_reserved":false,"is_disabled":false,"rental_uris":{"android":"levelo://app?vid=bf740f93-dcae-45bd-8189-93f0bf5977b3","ios":"levelo://app?vid=bf740f93-dcae-45bd-8189-93f0bf5977b3"},"vehicle_type_id":"4","last_reported":1781389265,"current_range_meters":4800,"station_id":"st_d2o4gvlbi1j2169b742g","pricing_plan_id":"cebpf4jnsgd1na2vs0mg"},{"bike_id":"8e220ecf-bf2e-4209-bd0b-74b77f772687","system_id":"levelo_inurba_marseille","lat":43.29973,"lon":5.38473,"is_reserved":false,"is_disabled":true,"rental_uris":{"android":"levelo://app?vid=8e220ecf-bf2e-4209-bd0b-74b77f772687","ios":"levelo://app?vid=8e220ecf-bf2e-4209-bd0b-74b77f772687"},"vehicle_type_id":"4","last_reported":1781389265,"current_range_meters":4800,"station_id":"ce4bgj92rcd13ifvqbd0","pricing_plan_id":"cebpf4jnsgd1na2vs0mg"},{"bike_id":"418bc5b3-59f7-4656-96a2-6db965f1b268","system_id":"levelo_inurba_marseille","lat":43.29031,"lon":5.38654,"is_reserved":false,"is_disabled":false,"rental_uris":{"android":"levelo://app?vid=418bc5b3-59f7-4656-96a2-6db965f1b268","ios":"levelo://app?vid=418bc5b3-59f7-4656-96a2-6db965f1b268"},"vehicle_type_id":"4","last_reported":1781389265,"current_range_meters":4800,"station_id":"ce4bh4p2rcd13ifvqe0g","pricing_plan_id":"cebpf4jnsgd1na2vs0mg"},{"bike_id":"502be65e-7cd6-413d-96be-2158d1ce5bc6","system_id":"levelo_inurba_marseille","lat":43.29027,"lon":5.38623,"is_reserved":false,"is_disabled":false,"rental_uris":{"android":"levelo://app?vid=502be65e-7cd6-413d-96be-2158d1ce5bc6","ios":"levelo://app?vid=502be65e-7cd6-413d-96be-2158d1ce5bc6"},"vehicle_type_id":"4","last_reported":1781389265,"current_range_meters":4800,"station_id":"ce4bh4p2rcd13ifvqe0g","pricing_plan_id":"cebpf4jnsgd1na2vs0mg"},{"bike_id":"eb274e9d-6990-4113-8c77-43786f58701d","system_id":"levelo_inurba_marseille","lat":43.27839,"lon":5.39215,"is_reserved":false,"is_disabled":false,"rental_uris":{"android":"levelo://app?vid=eb274e9d-6990-4113-8c77-43786f58701d","ios":"levelo://app?vid=eb274e9d-6990-4113-8c77-43786f58701d"},"vehicle_type_id":"4","last_reported":1781389265,"current_range_meters":4800,"station_id":"ce4bhjp2rcd13ifvqga0","pricing_plan_id":"cebpf4jnsgd1na2vs0mg"},{"bike_id":"a4367c49-3ad9-4e5d-b890-d24a763f0a44","system_id":"levelo_inurba_marseille","lat":43.28797,"lon":5.42756,"is_reserved":false,"is_disabled":false,"rental_uris":{"android":"levelo://app?vid=a4367c49-3ad9-4e5d-b890-d24a763f0a44","ios":"levelo://app?vid=a4367c49-3ad9-4e5d-b890-d24a763f0a44"},"vehicle_type_id":"4","last_reported":1781389265,"current_range_meters":4800,"station_id":"","pricing_plan_id":"cebpf4jnsgd1na2vs0mg"},{"bike_id":"39ad2548-b100-442f-8f93-834811bc733b","system_id":"levelo_inurba_marseille","lat":43.29631,"lon":5.406,"is_reserved":false,"is_disabled":false,"rental_uris":{"android":"levelo://app?vid=39ad2548-b100-442f-8f93-834811bc733b","ios":"levelo://app?vid=39ad2548-b100-442f-8f93-834811bc733b"},"vehicle_type_id":"4","last_reported":1781389265,"current_range_meters":4800,"station_id":"ce4bh0h2rcd13ifvqd60","pricing_plan_id":"cebpf4jnsgd1na2vs0mg"},{"bike_id":"0a71f412-36be-4694-9adc-7fef2b7fa966","system_id":"levelo_inurba_marseille","lat":43.28947,"lon":5.36634,"is_reserved":false,"is_disabled":true,"rental_uris":{"android":"levelo://app?vid=0a71f412-36be-4694-9adc-7fef2b7fa966","ios":"levelo://app?vid=0a71f412-36be-4694-9adc-7fef2b7fa966"},"vehicle_type_id":"4","last_reported":1781389265,"current_range_meters":4800,"station_id":"ce4bhap2rcd13ifvqek0","pricing_plan_id":"cebpf4jnsgd1na2vs0mg"},{"bike_id":"1d888fc3-9121-499f-8c64-28ba938a17ef","system_id":"levelo_inurba_marseille","lat":43.29266,"lon":5.38436,"is_reserved":false,"is_disabled":false,"rental_uris":{"android":"levelo://app?vid=1d888fc3-9121-499f-8c64-28ba938a17ef","ios":"levelo://app?vid=1d888fc3-9121-499f-8c64-28ba938a17ef"},"vehicle_type_id":"4","last_reported":1781389265,"current_range_meters":4800,"station_id":"ce4bh692rcd13ifvqea0","pricing_plan_id":"cebpf4jnsgd1na2vs0mg"},{"bike_id":"5215f856-46a9-476f-933a-7b736a4a324f","system_id":"levelo_inurba_marseille","lat":43.2824,"lon":5.37351,"is_reserved":false,"is_disabled":false,"rental_uris":{"android":"levelo://app?vid=5215f856-46a9-476f-933a-7b736a4a324f","ios":"levelo://app?vid=5215f856-46a9-476f-933a-7b736a4a324f"},"vehicle_type_id":"4","last_reported":1781389265,"current_range_meters":5600,"station_id":"","pricing_plan_id":"cebpf4jnsgd1na2vs0mg"},{"bike_id":"07c05683-e3df-449f-a3ba-519e5bbd2a17","system_id":"levelo_inurba_marseille","lat":43.28149,"lon":5.42626,"is_reserved":false,"is_disabled":false,"rental_uris":{"android":"levelo://app?vid=07c05683-e3df-449f-a3ba-519e5bbd2a17","ios":"levelo://app?vid=07c05683-e3df-449f-a3ba-519e5bbd2a17"},"vehicle_type_id":"4","last_reported":1781389265,"current_range_meters":5600,"station_id":"ce4bhnh2rcd13ifvqgug","pricing_plan_id":"cebpf4jnsgd1na2vs0mg"},{"bike_id":"15ecac18-ce4f-4e3d-ab1f-79b4461fe65b","system_id":"levelo_inurba_marseille","lat":43.27062,"lon":5.38312,"is_reserved":false,"is_disabled":false,"rental_uris":{"android":"levelo://app?vid=15ecac18-ce4f-4e3d-ab1f-79b4461fe65b","ios":"levelo://app?vid=15ecac18-ce4f-4e3d-ab1f-79b4461fe65b"},"vehicle_type_id":"4","last_reported":1781389265,"current_range_meters":5600,"station_id":"st_d3n2fo6cfp8s73cte1j0","pricing_plan_id":"cebpf4jnsgd1na2vs0mg"},{"bike_id":"f36f7bc3-5369-421b-a0c2-4abd9bc7d3cf","system_id":"levelo_inurba_marseille","lat":43.24547,"lon":5.39529,"is_reserved":false,"is_disabled":false,"rental_uris":{"android":"levelo://app?vid=f36f7bc3-5369-421b-a0c2-4abd9bc7d3cf","ios":"levelo://app?vid=f36f7bc3-5369-421b-a0c2-4abd9bc7d3cf"},"vehicle_type_id":"4","last_reported":1781389265,"current_range_meters":5600,"station_id":"ce4bhlp2rcd13ifvqgjg","pricing_plan_id":"cebpf4jnsgd1na2vs0mg"},{"bike_id":"304e2ad1-5fdd-4ded-bb19-21ad67ea8e97","system_id":"levelo_inurba_marseille","lat":43.28481,"lon":5.38421,"is_reserved":false,"is_disabled":false,"rental_uris":{"android":"levelo://app?vid=304e2ad1-5fdd-4ded-bb19-21ad67ea8e97","ios":"levelo://app?vid=304e2ad1-5fdd-4ded-bb19-21ad67ea8e97"},"vehicle_type_id":"4","last_reported":1781389265,"current_range_meters":5600,"station_id":"ce4bh512rcd13ifvqe3g","pricing_plan_id":"cebpf4jnsgd1na2vs0mg"},{"bike_id":"2e296511-deb4-43a9-83f0-81592d7a3463","system_id":"levelo_inurba_marseille","lat":43.33196,"lon":5.37715,"is_reserved":false,"is_disabled":false,"rental_uris":{"android":"levelo://app?vid=2e296511-deb4-43a9-83f0-81592d7a3463","ios":"levelo://app?vid=2e296511-deb4-43a9-83f0-81592d7a3463"},"vehicle_type_id":"4","last_reported":1781389265,"current_range_meters":5600,"station_id":"","pricing_plan_id":"cebpf4jnsgd1na2vs0mg"},{"bike_id":"269b03cd-18c2-4b7a-a856-bbc449073cc1","system_id":"levelo_inurba_marseille","lat":43.27565,"lon":5.38423,"is_reserved":false,"is_disabled":false,"rental_uris":{"android":"levelo://app?vid=269b03cd-18c2-4b7a-a856-bbc449073cc1","ios":"levelo://app?vid=269b03cd-18c2-4b7a-a856-bbc449073cc1"},"vehicle_type_id":"4","last_reported":1781389265,"current_range_meters":5600,"station_id":"ce4bhh92rcd13ifvqfi0","pricing_plan_id":"cebpf4jnsgd1na2vs0mg"},{"bike_id":"3be574d1-90c7-4231-a431-56873c1fd61f","system_id":"levelo_inurba_marseille","lat":43.2954,"lon":5.38552,"is_reserved":false,"is_disabled":false,"rental_uris":{"android":"levelo://app?vid=3be574d1-90c7-4231-a431-56873c1fd61f","ios":"levelo://app?vid=3be574d1-90c7-4231-a431-56873c1fd61f"},"vehicle_type_id":"4","last_reported":1781389265,"current_range_meters":5600,"station_id":"ce4bgih2rcd13ifvqba0","pricing_plan_id":"cebpf4jnsgd1na2vs0mg"},{"bike_id":"5b5ea2fb-3ba8-4c10-841c-ca34891a615c","system_id":"levelo_inurba_marseille","lat":43.29345,"lon":5.36395,"is_reserved":false,"is_disabled":false,"rental_uris":{"android":"levelo://app?vid=5b5ea2fb-3ba8-4c10-841c-ca34891a615c","ios":"levelo://app?vid=5b5ea2fb-3ba8-4c10-841c-ca34891a615c"},"vehicle_type_id":"4","last_reported":1781389265,"current_range_meters":5600,"station_id":"","pricing_plan_id":"cebpf4jnsgd1na2vs0mg"},{"bike_id":"b75b860e-f642-4d57-ae10-a57f8b9673f2","system_id":"levelo_inurba_marseille","lat":43.26232,"lon":5.38779,"is_reserved":false,"is_disabled":false,"rental_uris":{"android":"levelo://app?vid=b75b860e-f642-4d57-ae10-a57f8b9673f2","ios":"levelo://app?vid=b75b860e-f642-4d57-ae10-a57f8b9673f2"},"vehicle_type_id":"4","last_reported":1781389265,"current_range_meters":5600,"station_id":"st_d8gjfg747rts73coq3b0","pricing_plan_id":"cebpf4jnsgd1na2vs0mg"},{"bike_id":"aa4d4832-791f-46b6-b904-76b96512b7a5","system_id":"levelo_inurba_marseille","lat":43.29595,"lon":5.43992,"is_reserved":false,"is_disabled":false,"rental_uris":{"android":"levelo://app?vid=aa4d4832-791f-46b6-b904-76b96512b7a5","ios":"levelo://app?vid=aa4d4832-791f-46b6-b904-76b96512b7a5"},"vehicle_type_id":"4","last_reported":1781389265,"current_range_meters":5600,"station_id":"","pricing_plan_id":"cebpf4jnsgd1na2vs0mg"},{"bike_id":"9828c3de-7c91-4ef9-ac4a-01c95a8966bb","system_id":"levelo_inurba_marseille","lat":43.30884,"lon":5.39662,"is_reserved":false,"is_disabled":false,"rental_uris":{"android":"levelo://app?vid=9828c3de-7c91-4ef9-ac4a-01c95a8966bb","ios":"levelo://app?vid=9828c3de-7c91-4ef9-ac4a-01c95a8966bb"},"vehicle_type_id":"4","last_reported":1781389265,"current_range_meters":5600,"station_id":"ce4bh012rcd13ifvqcv0","pricing_plan_id":"cebpf4jnsgd1na2vs0mg"},{"bike_id":"c839b6f0-2b21-4900-a862-7b8a19b42ff5","system_id":"levelo_inurba_marseille","lat":43.26804,"lon":5.40272,"is_reserved":false,"is_disabled":false,"rental_uris":{"android":"levelo://app?vid=c839b6f0-2b21-4900-a862-7b8a19b42ff5","ios":"levelo://app?vid=c839b6f0-2b21-4900-a862-7b8a19b42ff5"},"vehicle_type_id":"4","last_reported":1781389265,"current_range_meters":5600,"station_id":"ce501612rcd8frsf0b60","pricing_plan_id":"cebpf4jnsgd1na2vs0mg"},{"bike_id":"132661cb-9d8a-4df2-82e1-13b15034cf8f","system_id":"levelo_inurba_marseille","lat":43.29261,"lon":5.38412,"is_reserved":false,"is_disabled":true,"rental_uris":{"android":"levelo://app?vid=132661cb-9d8a-4df2-82e1-13b15034cf8f","ios":"levelo://app?vid=132661cb-9d8a-4df2-82e1-13b15034cf8f"},"vehicle_type_id":"4","last_reported":1781389265,"current_range_meters":5600,"station_id":"ce4bh692rcd13ifvqea0","pricing_plan_id":"cebpf4jnsgd1na2vs0mg"},{"bike_id":"1968775c-96c5-44f4-80cb-76565459dec8","system_id":"levelo_inurba_marseille","lat":43.27568,"lon":5.38427,"is_reserved":false,"is_disabled":false,"rental_uris":{"android":"levelo://app?vid=1968775c-96c5-44f4-80cb-76565459dec8","ios":"levelo://app?vid=1968775c-96c5-44f4-80cb-76565459dec8"},"vehicle_type_id":"4","last_reported":1781389265,"current_range_meters":5600,"station_id":"ce4bhh92rcd13ifvqfi0","pricing_plan_id":"cebpf4jnsgd1na2vs0mg"},{"bike_id":"3431c704-991e-4545-8eec-fa15e92ea294","system_id":"levelo_inurba_marseille","lat":43.31452,"lon":5.3737,"is_reserved":false,"is_disabled":true,"rental_uris":{"android":"levelo://app?vid=3431c704-991e-4545-8eec-fa15e92ea294","ios":"levelo://app?vid=3431c704-991e-4545-8eec-fa15e92ea294"},"vehicle_type_id":"4","last_reported":1781389265,"current_range_meters":5600,"station_id":"","pricing_plan_id":"cebpf4jnsgd1na2vs0mg"},{"bike_id":"f1db22ae-8509-4c3b-a0b6-f19e3ce81763","system_id":"levelo_inurba_marseille","lat":43.273838,"lon":5.362266,"is_reserved":false,"is_disabled":false,"rental_uris":{"android":"levelo://app?vid=f1db22ae-8509-4c3b-a0b6-f19e3ce81763","ios":"levelo://app?vid=f1db22ae-8509-4c3b-a0b6-f19e3ce81763"},"vehicle_type_id":"4","last_reported":1781389265,"current_range_meters":5600,"station_id":"ce4bhbh2rcd13ifvqeo0","pricing_plan_id":"cebpf4jnsgd1na2vs0mg"},{"bike_id":"014e3db0-7317-4593-b6a7-96e2b82e0a90","system_id":"levelo_inurba_marseille","lat":43.283,"lon":5.38562,"is_reserved":false,"is_disabled":false,"rental_uris":{"android":"levelo://app?vid=014e3db0-7317-4593-b6a7-96e2b82e0a90","ios":"levelo://app?vid=014e3db0-7317-4593-b6a7-96e2b82e0a90"},"vehicle_type_id":"4","last_reported":1781389265,"current_range_meters":5600,"station_id":"","pricing_plan_id":"cebpf4jnsgd1na2vs0mg"},{"bike_id":"fdc2f588-e9f9-4d5d-92c3-be1d373f5b1f","system_id":"levelo_inurba_marseille","lat":43.29275,"lon":5.36846,"is_reserved":false,"is_disabled":true,"rental_uris":{"android":"levelo://app?vid=fdc2f588-e9f9-4d5d-92c3-be1d373f5b1f","ios":"levelo://app?vid=fdc2f588-e9f9-4d5d-92c3-be1d373f5b1f"},"vehicle_type_id":"4","last_reported":1781389265,"current_range_meters":5600,"station_id":"ce4bhbp2rcd13ifvqesg","pricing_plan_id":"cebpf4jnsgd1na2vs0mg"},{"bike_id":"3203cca6-69a8-424a-bf02-b169bd2825a3","system_id":"levelo_inurba_marseille","lat":43.26692,"lon":5.38295,"is_reserved":false,"is_disabled":false,"rental_uris":{"android":"levelo://app?vid=3203cca6-69a8-424a-bf02-b169bd2825a3","ios":"levelo://app?vid=3203cca6-69a8-424a-bf02-b169bd2825a3"},"vehicle_type_id":"4","last_reported":1781389265,"current_range_meters":5600,"station_id":"ce4bhg92rcd13ifvqf90","pricing_plan_id":"cebpf4jnsgd1na2vs0mg"},{"bike_id":"4a2047bf-d539-4eca-97fe-ef17fca37f67","system_id":"levelo_inurba_marseille","lat":43.28669,"lon":5.36363,"is_reserved":false,"is_disabled":false,"rental_uris":{"android":"levelo://app?vid=4a2047bf-d539-4eca-97fe-ef17fca37f67","ios":"levelo://app?vid=4a2047bf-d539-4eca-97fe-ef17fca37f67"},"vehicle_type_id":"4","last_reported":1781389265,"current_range_meters":5600,"station_id":"ce4bhah2rcd13ifvqej0","pricing_plan_id":"cebpf4jnsgd1na2vs0mg"},{"bike_id":"e4d86a05-2db3-434f-a83e-222b4c27c368","system_id":"levelo_inurba_marseille","lat":43.25078,"lon":5.39506,"is_reserved":false,"is_disabled":false,"rental_uris":{"android":"levelo://app?vid=e4d86a05-2db3-434f-a83e-222b4c27c368","ios":"levelo://app?vid=e4d86a05-2db3-434f-a83e-222b4c27c368"},"vehicle_type_id":"4","last_reported":1781389265,"current_range_meters":5600,"station_id":"ce4bhm12rcd13ifvqgkg","pricing_plan_id":"cebpf4jnsgd1na2vs0mg"},{"bike_id":"3d41d590-46bf-4903-8489-6a5dfbeed357","system_id":"levelo_inurba_marseille","lat":43.25078,"lon":5.3952,"is_reserved":false,"is_disabled":false,"rental_uris":{"android":"levelo://app?vid=3d41d590-46bf-4903-8489-6a5dfbeed357","ios":"levelo://app?vid=3d41d590-46bf-4903-8489-6a5dfbeed357"},"vehicle_type_id":"4","last_reported":1781389265,"current_range_meters":5600,"station_id":"ce4bhm12rcd13ifvqgkg","pricing_plan_id":"cebpf4jnsgd1na2vs0mg"},{"bike_id":"4691831a-b96b-489f-8c7b-238eee99da92","system_id":"levelo_inurba_marseille","lat":43.29967,"lon":5.38507,"is_reserved":false,"is_disabled":false,"rental_uris":{"android":"levelo://app?vid=4691831a-b96b-489f-8c7b-238eee99da92","ios":"levelo://app?vid=4691831a-b96b-489f-8c7b-238eee99da92"},"vehicle_type_id":"4","last_reported":1781389265,"current_range_meters":5600,"station_id":"ce4bgj92rcd13ifvqbd0","pricing_plan_id":"cebpf4jnsgd1na2vs0mg"},{"bike_id":"6fb07b35-b88f-45ae-9e9e-ceed1b219374","system_id":"levelo_inurba_marseille","lat":43.32491,"lon":5.36561,"is_reserved":false,"is_disabled":true,"rental_uris":{"android":"levelo://app?vid=6fb07b35-b88f-45ae-9e9e-ceed1b219374","ios":"levelo://app?vid=6fb07b35-b88f-45ae-9e9e-ceed1b219374"},"vehicle_type_id":"4","last_reported":1781389265,"current_range_meters":5600,"station_id":"ce4bhs12rcd13ifvqhvg","pricing_plan_id":"cebpf4jnsgd1na2vs0mg"},{"bike_id":"865b81ac-c9a2-4fec-9972-01915fe112cc","system_id":"levelo_inurba_marseille","lat":43.30213,"lon":5.40093,"is_reserved":false,"is_disabled":false,"rental_uris":{"android":"levelo://app?vid=865b81ac-c9a2-4fec-9972-01915fe112cc","ios":"levelo://app?vid=865b81ac-c9a2-4fec-9972-01915fe112cc"},"vehicle_type_id":"4","last_reported":1781389265,"current_range_meters":5600,"station_id":"","pricing_plan_id":"cebpf4jnsgd1na2vs0mg"},{"bike_id":"1b6a2b76-8e4c-45cf-97dc-6423eee85429","system_id":"levelo_inurba_marseille","lat":43.24944,"lon":5.40493,"is_reserved":false,"is_disabled":false,"rental_uris":{"android":"levelo://app?vid=1b6a2b76-8e4c-45cf-97dc-6423eee85429","ios":"levelo://app?vid=1b6a2b76-8e4c-45cf-97dc-6423eee85429"},"vehicle_type_id":"4","last_reported":1781389265,"current_range_meters":5600,"station_id":"st_d2ngiaodas8pm72gd1h0","pricing_plan_id":"cebpf4jnsgd1na2vs0mg"},{"bike_id":"3fbb2764-0b12-4e74-8368-49daf4025050","system_id":"levelo_inurba_marseille","lat":43.29261,"lon":5.38406,"is_reserved":false,"is_disabled":false,"rental_uris":{"android":"levelo://app?vid=3fbb2764-0b12-4e74-8368-49daf4025050","ios":"levelo://app?vid=3fbb2764-0b12-4e74-8368-49daf4025050"},"vehicle_type_id":"4","last_reported":1781389265,"current_range_meters":5600,"station_id":"ce4bh692rcd13ifvqea0","pricing_plan_id":"cebpf4jnsgd1na2vs0mg"},{"bike_id":"58636ab8-7a37-4b70-93e5-e54816efa03f","system_id":"levelo_inurba_marseille","lat":43.23962,"lon":5.36644,"is_reserved":false,"is_disabled":false,"rental_uris":{"android":"levelo://app?vid=58636ab8-7a37-4b70-93e5-e54816efa03f","ios":"levelo://app?vid=58636ab8-7a37-4b70-93e5-e54816efa03f"},"vehicle_type_id":"4","last_reported":1781389265,"current_range_meters":5600,"station_id":"ce4bhi12rcd13ifvqfp0","pricing_plan_id":"cebpf4jnsgd1na2vs0mg"},{"bike_id":"40cb0155-c556-484f-915b-b738bc0d2ea4","system_id":"levelo_inurba_marseille","lat":43.21203,"lon":5.35096,"is_reserved":false,"is_disabled":false,"rental_uris":{"android":"levelo://app?vid=40cb0155-c556-484f-915b-b738bc0d2ea4","ios":"levelo://app?vid=40cb0155-c556-484f-915b-b738bc0d2ea4"},"vehicle_type_id":"4","last_reported":1781389265,"current_range_meters":5600,"station_id":"st_cvj6sg6p6f1abm77japg","pricing_plan_id":"cebpf4jnsgd1na2vs0mg"},{"bike_id":"59abd848-b938-4706-8b9d-aa54cd5d850e","system_id":"levelo_inurba_marseille","lat":43.28248,"lon":5.35079,"is_reserved":false,"is_disabled":true,"rental_uris":{"android":"levelo://app?vid=59abd848-b938-4706-8b9d-aa54cd5d850e","ios":"levelo://app?vid=59abd848-b938-4706-8b9d-aa54cd5d850e"},"vehicle_type_id":"4","last_reported":1781389265,"current_range_meters":5600,"station_id":"ce4bhbp2rcd13ifvqerg","pricing_plan_id":"cebpf4jnsgd1na2vs0mg"},{"bike_id":"45469403-b2c5-4518-9427-6181c2421365","system_id":"levelo_inurba_marseille","lat":43.22537,"lon":5.34869,"is_reserved":false,"is_disabled":false,"rental_uris":{"android":"levelo://app?vid=45469403-b2c5-4518-9427-6181c2421365","ios":"levelo://app?vid=45469403-b2c5-4518-9427-6181c2421365"},"vehicle_type_id":"4","last_reported":1781389265,"current_range_meters":5600,"station_id":"st_cvj5dfep6f1abm77gieg","pricing_plan_id":"cebpf4jnsgd1na2vs0mg"},{"bike_id":"524b5098-c1ae-4877-837e-5df2fc9fb64c","system_id":"levelo_inurba_marseille","lat":43.28151,"lon":5.42628,"is_reserved":false,"is_disabled":false,"rental_uris":{"android":"levelo://app?vid=524b5098-c1ae-4877-837e-5df2fc9fb64c","ios":"levelo://app?vid=524b5098-c1ae-4877-837e-5df2fc9fb64c"},"vehicle_type_id":"4","last_reported":1781389265,"current_range_meters":6000,"station_id":"ce4bhnh2rcd13ifvqgug","pricing_plan_id":"cebpf4jnsgd1na2vs0mg"},{"bike_id":"7750fed4-d122-41f8-ad9e-d930d3ad1cf1","system_id":"levelo_inurba_marseille","lat":43.27296,"lon":5.40083,"is_reserved":false,"is_disabled":false,"rental_uris":{"android":"levelo://app?vid=7750fed4-d122-41f8-ad9e-d930d3ad1cf1","ios":"levelo://app?vid=7750fed4-d122-41f8-ad9e-d930d3ad1cf1"},"vehicle_type_id":"4","last_reported":1781389265,"current_range_meters":6000,"station_id":"","pricing_plan_id":"cebpf4jnsgd1na2vs0mg"},{"bike_id":"589d39c3-c5d3-4771-9a3e-f5ca7e8ced1c","system_id":"levelo_inurba_marseille","lat":43.26345,"lon":5.37849,"is_reserved":false,"is_disabled":false,"rental_uris":{"android":"levelo://app?vid=589d39c3-c5d3-4771-9a3e-f5ca7e8ced1c","ios":"levelo://app?vid=589d39c3-c5d3-4771-9a3e-f5ca7e8ced1c"},"vehicle_type_id":"4","last_reported":1781389265,"current_range_meters":6000,"station_id":"st_d163nis0mtpqnht9uue0","pricing_plan_id":"cebpf4jnsgd1na2vs0mg"},{"bike_id":"ef293e77-26fb-424a-811c-723a43388552","system_id":"levelo_inurba_marseille","lat":43.31383,"lon":5.38502,"is_reserved":false,"is_disabled":false,"rental_uris":{"android":"levelo://app?vid=ef293e77-26fb-424a-811c-723a43388552","ios":"levelo://app?vid=ef293e77-26fb-424a-811c-723a43388552"},"vehicle_type_id":"4","last_reported":1781389265,"current_range_meters":6000,"station_id":"ce4bgt92rcd13ifvqcf0","pricing_plan_id":"cebpf4jnsgd1na2vs0mg"},{"bike_id":"526d1100-b60b-4aa7-8024-9fd1686e91c4","system_id":"levelo_inurba_marseille","lat":43.30337,"lon":5.40431,"is_reserved":false,"is_disabled":false,"rental_uris":{"android":"levelo://app?vid=526d1100-b60b-4aa7-8024-9fd1686e91c4","ios":"levelo://app?vid=526d1100-b60b-4aa7-8024-9fd1686e91c4"},"vehicle_type_id":"4","last_reported":1781389265,"current_range_meters":6000,"station_id":"ce4bh012rcd13ifvqd10","pricing_plan_id":"cebpf4jnsgd1na2vs0mg"},{"bike_id":"c175211b-3da4-46cc-a60f-4967a28b1b76","system_id":"levelo_inurba_marseille","lat":43.33167,"lon":5.37734,"is_reserved":false,"is_disabled":false,"rental_uris":{"android":"levelo://app?vid=c175211b-3da4-46cc-a60f-4967a28b1b76","ios":"levelo://app?vid=c175211b-3da4-46cc-a60f-4967a28b1b76"},"vehicle_type_id":"4","last_reported":1781389265,"current_range_meters":6000,"station_id":"st_d46cu089ee8s73dldbu0","pricing_plan_id":"cebpf4jnsgd1na2vs0mg"},{"bike_id":"c43c92bc-16e7-4616-8292-b9ed941fbd42","system_id":"levelo_inurba_marseille","lat":43.22563,"lon":5.41638,"is_reserved":false,"is_disabled":false,"rental_uris":{"android":"levelo://app?vid=c43c92bc-16e7-4616-8292-b9ed941fbd42","ios":"levelo://app?vid=c43c92bc-16e7-4616-8292-b9ed941fbd42"},"vehicle_type_id":"4","last_reported":1781389265,"current_range_meters":6000,"station_id":"st_d2o4gvlbi1j2169b742g","pricing_plan_id":"cebpf4jnsgd1na2vs0mg"},{"bike_id":"5d715a19-3ca0-47f6-91e2-a0ce1b286f9a","system_id":"levelo_inurba_marseille","lat":43.31361,"lon":5.38493,"is_reserved":false,"is_disabled":false,"rental_uris":{"android":"levelo://app?vid=5d715a19-3ca0-47f6-91e2-a0ce1b286f9a","ios":"levelo://app?vid=5d715a19-3ca0-47f6-91e2-a0ce1b286f9a"},"vehicle_type_id":"4","last_reported":1781389265,"current_range_meters":6000,"station_id":"ce4bgt92rcd13ifvqcf0","pricing_plan_id":"cebpf4jnsgd1na2vs0mg"},{"bike_id":"12326527-aa04-43ed-8122-fab62005bcac","system_id":"levelo_inurba_marseille","lat":43.27378,"lon":5.36254,"is_reserved":false,"is_disabled":true,"rental_uris":{"android":"levelo://app?vid=12326527-aa04-43ed-8122-fab62005bcac","ios":"levelo://app?vid=12326527-aa04-43ed-8122-fab62005bcac"},"vehicle_type_id":"4","last_reported":1781389265,"current_range_meters":6000,"station_id":"ce4bhbh2rcd13ifvqeo0","pricing_plan_id":"cebpf4jnsgd1na2vs0mg"},{"bike_id":"c1a82450-f78f-44ec-bcba-a0f08a78e1c2","system_id":"levelo_inurba_marseille","lat":43.30639,"lon":5.40068,"is_reserved":false,"is_disabled":false,"rental_uris":{"android":"levelo://app?vid=c1a82450-f78f-44ec-bcba-a0f08a78e1c2","ios":"levelo://app?vid=c1a82450-f78f-44ec-bcba-a0f08a78e1c2"},"vehicle_type_id":"4","last_reported":1781389265,"current_range_meters":6000,"station_id":"ce4bh112rcd13ifvqda0","pricing_plan_id":"cebpf4jnsgd1na2vs0mg"},{"bike_id":"dc3e3e35-560a-41ac-8b92-c31e5b3f3434","system_id":"levelo_inurba_marseille","lat":43.2669,"lon":5.39291,"is_reserved":false,"is_disabled":false,"rental_uris":{"android":"levelo://app?vid=dc3e3e35-560a-41ac-8b92-c31e5b3f3434","ios":"levelo://app?vid=dc3e3e35-560a-41ac-8b92-c31e5b3f3434"},"vehicle_type_id":"4","last_reported":1781389265,"current_range_meters":6000,"station_id":"","pricing_plan_id":"cebpf4jnsgd1na2vs0mg"},{"bike_id":"53f415ca-c930-47a3-b30e-bcfcd7946af3","system_id":"levelo_inurba_marseille","lat":43.27971,"lon":5.38688,"is_reserved":false,"is_disabled":false,"rental_uris":{"android":"levelo://app?vid=53f415ca-c930-47a3-b30e-bcfcd7946af3","ios":"levelo://app?vid=53f415ca-c930-47a3-b30e-bcfcd7946af3"},"vehicle_type_id":"4","last_reported":1781389265,"current_range_meters":6000,"station_id":"ce4bhg12rcd13ifvqf80","pricing_plan_id":"cebpf4jnsgd1na2vs0mg"},{"bike_id":"3ac38b3a-df68-4ddb-8be7-f5ce5af56eb3","system_id":"levelo_inurba_marseille","lat":43.28998,"lon":5.35625,"is_reserved":false,"is_disabled":true,"rental_uris":{"android":"levelo://app?vid=3ac38b3a-df68-4ddb-8be7-f5ce5af56eb3","ios":"levelo://app?vid=3ac38b3a-df68-4ddb-8be7-f5ce5af56eb3"},"vehicle_type_id":"4","last_reported":1781389265,"current_range_meters":6000,"station_id":"ce4bhb92rcd13ifvqen0","pricing_plan_id":"cebpf4jnsgd1na2vs0mg"},{"bike_id":"ef048e93-3c21-4aea-ad20-87c8427753a3","system_id":"levelo_inurba_marseille","lat":43.28861,"lon":5.42534,"is_reserved":false,"is_disabled":false,"rental_uris":{"android":"levelo://app?vid=ef048e93-3c21-4aea-ad20-87c8427753a3","ios":"levelo://app?vid=ef048e93-3c21-4aea-ad20-87c8427753a3"},"vehicle_type_id":"4","last_reported":1781389265,"current_range_meters":6000,"station_id":"st_d3b462108ojc7389ooeg","pricing_plan_id":"cebpf4jnsgd1na2vs0mg"},{"bike_id":"dbd3bdc5-4538-4f24-86f3-9d743ada8e11","system_id":"levelo_inurba_marseille","lat":43.26035,"lon":5.37536,"is_reserved":false,"is_disabled":false,"rental_uris":{"android":"levelo://app?vid=dbd3bdc5-4538-4f24-86f3-9d743ada8e11","ios":"levelo://app?vid=dbd3bdc5-4538-4f24-86f3-9d743ada8e11"},"vehicle_type_id":"4","last_reported":1781389265,"current_range_meters":6000,"station_id":"ce4bhgh2rcd13ifvqfa0","pricing_plan_id":"cebpf4jnsgd1na2vs0mg"},{"bike_id":"5bc53581-ac65-49e4-b56b-f1ece78f0664","system_id":"levelo_inurba_marseille","lat":43.26693,"lon":5.3827,"is_reserved":false,"is_disabled":true,"rental_uris":{"android":"levelo://app?vid=5bc53581-ac65-49e4-b56b-f1ece78f0664","ios":"levelo://app?vid=5bc53581-ac65-49e4-b56b-f1ece78f0664"},"vehicle_type_id":"4","last_reported":1781389265,"current_range_meters":6000,"station_id":"ce4bhg92rcd13ifvqf90","pricing_plan_id":"cebpf4jnsgd1na2vs0mg"},{"bike_id":"7278433e-cc6e-4c60-bedf-e94ca0ca8dec","system_id":"levelo_inurba_marseille","lat":43.28291,"lon":5.37444,"is_reserved":false,"is_disabled":false,"rental_uris":{"android":"levelo://app?vid=7278433e-cc6e-4c60-bedf-e94ca0ca8dec","ios":"levelo://app?vid=7278433e-cc6e-4c60-bedf-e94ca0ca8dec"},"vehicle_type_id":"4","last_reported":1781389265,"current_range_meters":6000,"station_id":"","pricing_plan_id":"cebpf4jnsgd1na2vs0mg"},{"bike_id":"8ba918c5-0ca2-4d92-8d18-c1f9af78d3f1","system_id":"levelo_inurba_marseille","lat":43.283661,"lon":5.386421,"is_reserved":false,"is_disabled":false,"rental_uris":{"android":"levelo://app?vid=8ba918c5-0ca2-4d92-8d18-c1f9af78d3f1","ios":"levelo://app?vid=8ba918c5-0ca2-4d92-8d18-c1f9af78d3f1"},"vehicle_type_id":"4","last_reported":1781389265,"current_range_meters":6400,"station_id":"ce4bh492rcd13ifvqdvg","pricing_plan_id":"cebpf4jnsgd1na2vs0mg"},{"bike_id":"0a26bba0-65c5-4738-9fea-dd6d0f24d8b6","system_id":"levelo_inurba_marseille","lat":43.281,"lon":5.37835,"is_reserved":false,"is_disabled":false,"rental_uris":{"android":"levelo://app?vid=0a26bba0-65c5-4738-9fea-dd6d0f24d8b6","ios":"levelo://app?vid=0a26bba0-65c5-4738-9fea-dd6d0f24d8b6"},"vehicle_type_id":"4","last_reported":1781389265,"current_range_meters":6400,"station_id":"ce4bha12rcd13ifvqee0","pricing_plan_id":"cebpf4jnsgd1na2vs0mg"},{"bike_id":"fca4716d-363f-4061-9268-5fdf2b190705","system_id":"levelo_inurba_marseille","lat":43.281035,"lon":5.367145,"is_reserved":false,"is_disabled":true,"rental_uris":{"android":"levelo://app?vid=fca4716d-363f-4061-9268-5fdf2b190705","ios":"levelo://app?vid=fca4716d-363f-4061-9268-5fdf2b190705"},"vehicle_type_id":"4","last_reported":1781389265,"current_range_meters":6400,"station_id":"ce4bhgp2rcd13ifvqfc0","pricing_plan_id":"cebpf4jnsgd1na2vs0mg"},{"bike_id":"2d5036af-f9df-45c6-97e4-648868345309","system_id":"levelo_inurba_marseille","lat":43.33143,"lon":5.38938,"is_reserved":false,"is_disabled":false,"rental_uris":{"android":"levelo://app?vid=2d5036af-f9df-45c6-97e4-648868345309","ios":"levelo://app?vid=2d5036af-f9df-45c6-97e4-648868345309"},"vehicle_type_id":"4","last_reported":1781389265,"current_range_meters":6400,"station_id":"","pricing_plan_id":"cebpf4jnsgd1na2vs0mg"},{"bike_id":"1c6ec17f-2ff8-41f3-8499-51a9b77fe4b5","system_id":"levelo_inurba_marseille","lat":43.26033,"lon":5.37545,"is_reserved":false,"is_disabled":false,"rental_uris":{"android":"levelo://app?vid=1c6ec17f-2ff8-41f3-8499-51a9b77fe4b5","ios":"levelo://app?vid=1c6ec17f-2ff8-41f3-8499-51a9b77fe4b5"},"vehicle_type_id":"4","last_reported":1781389265,"current_range_meters":6400,"station_id":"ce4bhgh2rcd13ifvqfa0","pricing_plan_id":"cebpf4jnsgd1na2vs0mg"},{"bike_id":"1be84025-d267-4515-957c-91dae421ff6c","system_id":"levelo_inurba_marseille","lat":43.2668,"lon":5.38289,"is_reserved":false,"is_disabled":false,"rental_uris":{"android":"levelo://app?vid=1be84025-d267-4515-957c-91dae421ff6c","ios":"levelo://app?vid=1be84025-d267-4515-957c-91dae421ff6c"},"vehicle_type_id":"4","last_reported":1781389265,"current_range_meters":6400,"station_id":"ce4bhg92rcd13ifvqf90","pricing_plan_id":"cebpf4jnsgd1na2vs0mg"},{"bike_id":"3964cfec-2447-4c38-a9ab-5ebac4f72b6e","system_id":"levelo_inurba_marseille","lat":43.23197,"lon":5.35566,"is_reserved":false,"is_disabled":false,"rental_uris":{"android":"levelo://app?vid=3964cfec-2447-4c38-a9ab-5ebac4f72b6e","ios":"levelo://app?vid=3964cfec-2447-4c38-a9ab-5ebac4f72b6e"},"vehicle_type_id":"4","last_reported":1781389265,"current_range_meters":6400,"station_id":"ce4bhu92rcd13ifvqi70","pricing_plan_id":"cebpf4jnsgd1na2vs0mg"},{"bike_id":"e91d4c37-49e1-4eb2-811e-d4c855f1b23c","system_id":"levelo_inurba_marseille","lat":43.31713,"lon":5.37754,"is_reserved":false,"is_disabled":false,"rental_uris":{"android":"levelo://app?vid=e91d4c37-49e1-4eb2-811e-d4c855f1b23c","ios":"levelo://app?vid=e91d4c37-49e1-4eb2-811e-d4c855f1b23c"},"vehicle_type_id":"4","last_reported":1781389265,"current_range_meters":6400,"station_id":"ce4bgth2rcd13ifvqch0","pricing_plan_id":"cebpf4jnsgd1na2vs0mg"},{"bike_id":"7911489c-d669-48c8-806a-ae5df483f8c3","system_id":"levelo_inurba_marseille","lat":43.26219,"lon":5.38766,"is_reserved":false,"is_disabled":false,"rental_uris":{"android":"levelo://app?vid=7911489c-d669-48c8-806a-ae5df483f8c3","ios":"levelo://app?vid=7911489c-d669-48c8-806a-ae5df483f8c3"},"vehicle_type_id":"4","last_reported":1781389265,"current_range_meters":6400,"station_id":"st_d8gjfg747rts73coq3b0","pricing_plan_id":"cebpf4jnsgd1na2vs0mg"},{"bike_id":"4e4a7a0b-3306-4fbf-b261-5b0620384373","system_id":"levelo_inurba_marseille","lat":43.26551,"lon":5.37293,"is_reserved":false,"is_disabled":false,"rental_uris":{"android":"levelo://app?vid=4e4a7a0b-3306-4fbf-b261-5b0620384373","ios":"levelo://app?vid=4e4a7a0b-3306-4fbf-b261-5b0620384373"},"vehicle_type_id":"4","last_reported":1781389265,"current_range_meters":6400,"station_id":"ce4bhg12rcd13ifvqf70","pricing_plan_id":"cebpf4jnsgd1na2vs0mg"},{"bike_id":"39045dda-7d48-48b4-8953-1841de64fad0","system_id":"levelo_inurba_marseille","lat":43.28693,"lon":5.399892,"is_reserved":false,"is_disabled":false,"rental_uris":{"android":"levelo://app?vid=39045dda-7d48-48b4-8953-1841de64fad0","ios":"levelo://app?vid=39045dda-7d48-48b4-8953-1841de64fad0"},"vehicle_type_id":"4","last_reported":1781389265,"current_range_meters":6400,"station_id":"ce4bho92rcd13ifvqh3g","pricing_plan_id":"cebpf4jnsgd1na2vs0mg"},{"bike_id":"9a234ee4-189a-4927-904a-c6f72c9e5bbf","system_id":"levelo_inurba_marseille","lat":43.28464,"lon":5.38413,"is_reserved":false,"is_disabled":true,"rental_uris":{"android":"levelo://app?vid=9a234ee4-189a-4927-904a-c6f72c9e5bbf","ios":"levelo://app?vid=9a234ee4-189a-4927-904a-c6f72c9e5bbf"},"vehicle_type_id":"4","last_reported":1781389265,"current_range_meters":6400,"station_id":"ce4bh512rcd13ifvqe3g","pricing_plan_id":"cebpf4jnsgd1na2vs0mg"},{"bike_id":"56ba7663-2026-4d85-97d3-07b4c55727bc","system_id":"levelo_inurba_marseille","lat":43.28647,"lon":5.36358,"is_reserved":false,"is_disabled":false,"rental_uris":{"android":"levelo://app?vid=56ba7663-2026-4d85-97d3-07b4c55727bc","ios":"levelo://app?vid=56ba7663-2026-4d85-97d3-07b4c55727bc"},"vehicle_type_id":"4","last_reported":1781389265,"current_range_meters":6400,"station_id":"ce4bhah2rcd13ifvqej0","pricing_plan_id":"cebpf4jnsgd1na2vs0mg"},{"bike_id":"474c718f-210f-418f-b4ff-82dd40b0c6d2","system_id":"levelo_inurba_marseille","lat":43.27998,"lon":5.41665,"is_reserved":false,"is_disabled":false,"rental_uris":{"android":"levelo://app?vid=474c718f-210f-418f-b4ff-82dd40b0c6d2","ios":"levelo://app?vid=474c718f-210f-418f-b4ff-82dd40b0c6d2"},"vehicle_type_id":"4","last_reported":1781389265,"current_range_meters":6400,"station_id":"ce4bho12rcd13ifvqh1g","pricing_plan_id":"cebpf4jnsgd1na2vs0mg"},{"bike_id":"d9df716e-04c3-410e-a684-88b6b88fa6c5","system_id":"levelo_inurba_marseille","lat":43.24402,"lon":5.37087,"is_reserved":false,"is_disabled":true,"rental_uris":{"android":"levelo://app?vid=d9df716e-04c3-410e-a684-88b6b88fa6c5","ios":"levelo://app?vid=d9df716e-04c3-410e-a684-88b6b88fa6c5"},"vehicle_type_id":"4","last_reported":1781389265,"current_range_meters":6400,"station_id":"ce4bhhh2rcd13ifvqfk0","pricing_plan_id":"cebpf4jnsgd1na2vs0mg"},{"bike_id":"5926216b-9418-4573-b66b-49f5c102014d","system_id":"levelo_inurba_marseille","lat":43.31905,"lon":5.36828,"is_reserved":false,"is_disabled":false,"rental_uris":{"android":"levelo://app?vid=5926216b-9418-4573-b66b-49f5c102014d","ios":"levelo://app?vid=5926216b-9418-4573-b66b-49f5c102014d"},"vehicle_type_id":"4","last_reported":1781389265,"current_range_meters":6400,"station_id":"st_d6o2h0d0559c73evc1b0","pricing_plan_id":"cebpf4jnsgd1na2vs0mg"},{"bike_id":"ea0fe0a6-d792-472b-ac51-c34cc4a588d6","system_id":"levelo_inurba_marseille","lat":43.27488,"lon":5.42457,"is_reserved":false,"is_disabled":false,"rental_uris":{"android":"levelo://app?vid=ea0fe0a6-d792-472b-ac51-c34cc4a588d6","ios":"levelo://app?vid=ea0fe0a6-d792-472b-ac51-c34cc4a588d6"},"vehicle_type_id":"4","last_reported":1781389265,"current_range_meters":6400,"station_id":"ce4bhn92rcd13ifvqgrg","pricing_plan_id":"cebpf4jnsgd1na2vs0mg"},{"bike_id":"8541f017-3968-4a6a-a25b-5885257483a8","system_id":"levelo_inurba_marseille","lat":43.24175,"lon":5.39747,"is_reserved":false,"is_disabled":false,"rental_uris":{"android":"levelo://app?vid=8541f017-3968-4a6a-a25b-5885257483a8","ios":"levelo://app?vid=8541f017-3968-4a6a-a25b-5885257483a8"},"vehicle_type_id":"4","last_reported":1781389265,"current_range_meters":6400,"station_id":"ce4bhn12rcd13ifvqgpg","pricing_plan_id":"cebpf4jnsgd1na2vs0mg"},{"bike_id":"48de77fe-85e2-4ed0-b073-9689fb2f1b98","system_id":"levelo_inurba_marseille","lat":43.29171,"lon":5.3715,"is_reserved":false,"is_disabled":true,"rental_uris":{"android":"levelo://app?vid=48de77fe-85e2-4ed0-b073-9689fb2f1b98","ios":"levelo://app?vid=48de77fe-85e2-4ed0-b073-9689fb2f1b98"},"vehicle_type_id":"4","last_reported":1781389265,"current_range_meters":6400,"station_id":"ce4bha92rcd13ifvqeh0","pricing_plan_id":"cebpf4jnsgd1na2vs0mg"},{"bike_id":"61acdcff-76d7-4bb2-a256-e2ec611550e8","system_id":"levelo_inurba_marseille","lat":43.26565,"lon":5.38997,"is_reserved":false,"is_disabled":true,"rental_uris":{"android":"levelo://app?vid=61acdcff-76d7-4bb2-a256-e2ec611550e8","ios":"levelo://app?vid=61acdcff-76d7-4bb2-a256-e2ec611550e8"},"vehicle_type_id":"4","last_reported":1781389265,"current_range_meters":6400,"station_id":"ce4bhe12rcd13ifvqf30","pricing_plan_id":"cebpf4jnsgd1na2vs0mg"},{"bike_id":"c97fb99a-7c2e-4698-a401-a6886e4eb5f4","system_id":"levelo_inurba_marseille","lat":43.28734,"lon":5.42727,"is_reserved":false,"is_disabled":false,"rental_uris":{"android":"levelo://app?vid=c97fb99a-7c2e-4698-a401-a6886e4eb5f4","ios":"levelo://app?vid=c97fb99a-7c2e-4698-a401-a6886e4eb5f4"},"vehicle_type_id":"4","last_reported":1781389265,"current_range_meters":6400,"station_id":"","pricing_plan_id":"cebpf4jnsgd1na2vs0mg"},{"bike_id":"3f683387-f7ec-4b9f-9801-ff63896077b4","system_id":"levelo_inurba_marseille","lat":43.23952,"lon":5.36533,"is_reserved":false,"is_disabled":false,"rental_uris":{"android":"levelo://app?vid=3f683387-f7ec-4b9f-9801-ff63896077b4","ios":"levelo://app?vid=3f683387-f7ec-4b9f-9801-ff63896077b4"},"vehicle_type_id":"4","last_reported":1781389265,"current_range_meters":6400,"station_id":"","pricing_plan_id":"cebpf4jnsgd1na2vs0mg"},{"bike_id":"9eb6a1f9-dc84-43b6-9bb0-4a0cef9916f8","system_id":"levelo_inurba_marseille","lat":43.25119,"lon":5.40343,"is_reserved":false,"is_disabled":false,"rental_uris":{"android":"levelo://app?vid=9eb6a1f9-dc84-43b6-9bb0-4a0cef9916f8","ios":"levelo://app?vid=9eb6a1f9-dc84-43b6-9bb0-4a0cef9916f8"},"vehicle_type_id":"4","last_reported":1781389265,"current_range_meters":6400,"station_id":"ce4bhlh2rcd13ifvqgig","pricing_plan_id":"cebpf4jnsgd1na2vs0mg"},{"bike_id":"9f0be29b-c3fc-43d2-88d9-7ef79e23fe90","system_id":"levelo_inurba_marseille","lat":43.24543,"lon":5.39523,"is_reserved":false,"is_disabled":false,"rental_uris":{"android":"levelo://app?vid=9f0be29b-c3fc-43d2-88d9-7ef79e23fe90","ios":"levelo://app?vid=9f0be29b-c3fc-43d2-88d9-7ef79e23fe90"},"vehicle_type_id":"4","last_reported":1781389265,"current_range_meters":6800,"station_id":"ce4bhlp2rcd13ifvqgjg","pricing_plan_id":"cebpf4jnsgd1na2vs0mg"},{"bike_id":"cf0c68e9-108f-4cb2-8999-26e59936ff8c","system_id":"levelo_inurba_marseille","lat":43.23068,"lon":5.3549,"is_reserved":false,"is_disabled":false,"rental_uris":{"android":"levelo://app?vid=cf0c68e9-108f-4cb2-8999-26e59936ff8c","ios":"levelo://app?vid=cf0c68e9-108f-4cb2-8999-26e59936ff8c"},"vehicle_type_id":"4","last_reported":1781389265,"current_range_meters":6800,"station_id":"cpo3342slgdg3j2ifvpg","pricing_plan_id":"cebpf4jnsgd1na2vs0mg"},{"bike_id":"da49f8bf-ac47-4f75-a9fc-b5a0f8173bc6","system_id":"levelo_inurba_marseille","lat":43.28455,"lon":5.35888,"is_reserved":false,"is_disabled":true,"rental_uris":{"android":"levelo://app?vid=da49f8bf-ac47-4f75-a9fc-b5a0f8173bc6","ios":"levelo://app?vid=da49f8bf-ac47-4f75-a9fc-b5a0f8173bc6"},"vehicle_type_id":"4","last_reported":1781389265,"current_range_meters":6800,"station_id":"ce4bhah2rcd13ifvqei0","pricing_plan_id":"cebpf4jnsgd1na2vs0mg"},{"bike_id":"8f809aba-fb91-4274-9669-f9211fc8e411","system_id":"levelo_inurba_marseille","lat":43.23315,"lon":5.39959,"is_reserved":false,"is_disabled":false,"rental_uris":{"android":"levelo://app?vid=8f809aba-fb91-4274-9669-f9211fc8e411","ios":"levelo://app?vid=8f809aba-fb91-4274-9669-f9211fc8e411"},"vehicle_type_id":"4","last_reported":1781389265,"current_range_meters":6800,"station_id":"","pricing_plan_id":"cebpf4jnsgd1na2vs0mg"},{"bike_id":"5ae9d935-bc7b-4be2-9dc4-082be59e17d9","system_id":"levelo_inurba_marseille","lat":43.28411,"lon":5.37519,"is_reserved":false,"is_disabled":false,"rental_uris":{"android":"levelo://app?vid=5ae9d935-bc7b-4be2-9dc4-082be59e17d9","ios":"levelo://app?vid=5ae9d935-bc7b-4be2-9dc4-082be59e17d9"},"vehicle_type_id":"4","last_reported":1781389265,"current_range_meters":6800,"station_id":"","pricing_plan_id":"cebpf4jnsgd1na2vs0mg"},{"bike_id":"195f1d1e-36bb-48d2-9a0b-ee215f42c586","system_id":"levelo_inurba_marseille","lat":43.24471,"lon":5.42531,"is_reserved":false,"is_disabled":false,"rental_uris":{"android":"levelo://app?vid=195f1d1e-36bb-48d2-9a0b-ee215f42c586","ios":"levelo://app?vid=195f1d1e-36bb-48d2-9a0b-ee215f42c586"},"vehicle_type_id":"4","last_reported":1781389265,"current_range_meters":6800,"station_id":"st_d4a3vfp97mjs738cd8kg","pricing_plan_id":"cebpf4jnsgd1na2vs0mg"},{"bike_id":"a570831c-94a6-454b-8ddf-929b15618581","system_id":"levelo_inurba_marseille","lat":43.28713,"lon":5.39994,"is_reserved":false,"is_disabled":false,"rental_uris":{"android":"levelo://app?vid=a570831c-94a6-454b-8ddf-929b15618581","ios":"levelo://app?vid=a570831c-94a6-454b-8ddf-929b15618581"},"vehicle_type_id":"4","last_reported":1781389265,"current_range_meters":6800,"station_id":"ce4bho92rcd13ifvqh3g","pricing_plan_id":"cebpf4jnsgd1na2vs0mg"},{"bike_id":"ec7ff123-2191-49c9-b4f8-c9b1016b4d1d","system_id":"levelo_inurba_marseille","lat":43.33513,"lon":5.37502,"is_reserved":false,"is_disabled":false,"rental_uris":{"android":"levelo://app?vid=ec7ff123-2191-49c9-b4f8-c9b1016b4d1d","ios":"levelo://app?vid=ec7ff123-2191-49c9-b4f8-c9b1016b4d1d"},"vehicle_type_id":"4","last_reported":1781389265,"current_range_meters":6800,"station_id":"","pricing_plan_id":"cebpf4jnsgd1na2vs0mg"},{"bike_id":"3890f25d-92c5-42cd-a792-61af1545f21c","system_id":"levelo_inurba_marseille","lat":43.2722,"lon":5.39206,"is_reserved":false,"is_disabled":false,"rental_uris":{"android":"levelo://app?vid=3890f25d-92c5-42cd-a792-61af1545f21c","ios":"levelo://app?vid=3890f25d-92c5-42cd-a792-61af1545f21c"},"vehicle_type_id":"4","last_reported":1781389265,"current_range_meters":6800,"station_id":"ce4bhhp2rcd13ifvqfm0","pricing_plan_id":"cebpf4jnsgd1na2vs0mg"},{"bike_id":"02ebe84d-d12f-4370-a7b4-6962796cc7b9","system_id":"levelo_inurba_marseille","lat":43.25562,"lon":5.38187,"is_reserved":false,"is_disabled":false,"rental_uris":{"android":"levelo://app?vid=02ebe84d-d12f-4370-a7b4-6962796cc7b9","ios":"levelo://app?vid=02ebe84d-d12f-4370-a7b4-6962796cc7b9"},"vehicle_type_id":"4","last_reported":1781389265,"current_range_meters":6800,"station_id":"ce4bhih2rcd13ifvqfs0","pricing_plan_id":"cebpf4jnsgd1na2vs0mg"},{"bike_id":"cb890f1c-f7db-4de7-bea0-bc63f6807b19","system_id":"levelo_inurba_marseille","lat":43.30823,"lon":5.38141,"is_reserved":false,"is_disabled":false,"rental_uris":{"android":"levelo://app?vid=cb890f1c-f7db-4de7-bea0-bc63f6807b19","ios":"levelo://app?vid=cb890f1c-f7db-4de7-bea0-bc63f6807b19"},"vehicle_type_id":"4","last_reported":1781389265,"current_range_meters":6800,"station_id":"ce4bgt12rcd13ifvqce0","pricing_plan_id":"cebpf4jnsgd1na2vs0mg"},{"bike_id":"de1aa6e0-b781-47d6-b5b7-aeceeaa52c8d","system_id":"levelo_inurba_marseille","lat":43.29059,"lon":5.37188,"is_reserved":false,"is_disabled":true,"rental_uris":{"android":"levelo://app?vid=de1aa6e0-b781-47d6-b5b7-aeceeaa52c8d","ios":"levelo://app?vid=de1aa6e0-b781-47d6-b5b7-aeceeaa52c8d"},"vehicle_type_id":"4","last_reported":1781389265,"current_range_meters":6800,"station_id":"ce4bh5p2rcd13ifvqe4g","pricing_plan_id":"cebpf4jnsgd1na2vs0mg"},{"bike_id":"bbffc1db-a414-40cf-a59e-778686fc93d1","system_id":"levelo_inurba_marseille","lat":43.22564,"lon":5.41634,"is_reserved":false,"is_disabled":false,"rental_uris":{"android":"levelo://app?vid=bbffc1db-a414-40cf-a59e-778686fc93d1","ios":"levelo://app?vid=bbffc1db-a414-40cf-a59e-778686fc93d1"},"vehicle_type_id":"4","last_reported":1781389265,"current_range_meters":6800,"station_id":"st_d2o4gvlbi1j2169b742g","pricing_plan_id":"cebpf4jnsgd1na2vs0mg"},{"bike_id":"db8cf56c-bbb3-4f7f-904a-5d8d89da4525","system_id":"levelo_inurba_marseille","lat":43.29529,"lon":5.38545,"is_reserved":false,"is_disabled":false,"rental_uris":{"android":"levelo://app?vid=db8cf56c-bbb3-4f7f-904a-5d8d89da4525","ios":"levelo://app?vid=db8cf56c-bbb3-4f7f-904a-5d8d89da4525"},"vehicle_type_id":"4","last_reported":1781389265,"current_range_meters":6800,"station_id":"ce4bgih2rcd13ifvqba0","pricing_plan_id":"cebpf4jnsgd1na2vs0mg"},{"bike_id":"cf11dd40-b113-45d9-8d41-8d04b849c2c4","system_id":"levelo_inurba_marseille","lat":43.2911,"lon":5.42776,"is_reserved":false,"is_disabled":false,"rental_uris":{"android":"levelo://app?vid=cf11dd40-b113-45d9-8d41-8d04b849c2c4","ios":"levelo://app?vid=cf11dd40-b113-45d9-8d41-8d04b849c2c4"},"vehicle_type_id":"4","last_reported":1781389265,"current_range_meters":6800,"station_id":"","pricing_plan_id":"cebpf4jnsgd1na2vs0mg"},{"bike_id":"77722ea6-7aa0-495f-8557-728d226a9195","system_id":"levelo_inurba_marseille","lat":43.23058,"lon":5.355,"is_reserved":false,"is_disabled":false,"rental_uris":{"android":"levelo://app?vid=77722ea6-7aa0-495f-8557-728d226a9195","ios":"levelo://app?vid=77722ea6-7aa0-495f-8557-728d226a9195"},"vehicle_type_id":"4","last_reported":1781389265,"current_range_meters":6800,"station_id":"cpo3342slgdg3j2ifvpg","pricing_plan_id":"cebpf4jnsgd1na2vs0mg"},{"bike_id":"eaf7b6af-4b59-4c2d-9b24-3b2ba05e4160","system_id":"levelo_inurba_marseille","lat":43.31669,"lon":5.37655,"is_reserved":false,"is_disabled":false,"rental_uris":{"android":"levelo://app?vid=eaf7b6af-4b59-4c2d-9b24-3b2ba05e4160","ios":"levelo://app?vid=eaf7b6af-4b59-4c2d-9b24-3b2ba05e4160"},"vehicle_type_id":"4","last_reported":1781389265,"current_range_meters":6800,"station_id":"","pricing_plan_id":"cebpf4jnsgd1na2vs0mg"},{"bike_id":"615ab3cd-0cff-4845-82dc-a0fa720dde96","system_id":"levelo_inurba_marseille","lat":43.29384,"lon":5.385896,"is_reserved":false,"is_disabled":false,"rental_uris":{"android":"levelo://app?vid=615ab3cd-0cff-4845-82dc-a0fa720dde96","ios":"levelo://app?vid=615ab3cd-0cff-4845-82dc-a0fa720dde96"},"vehicle_type_id":"4","last_reported":1781389265,"current_range_meters":6800,"station_id":"ce4bh692rcd13ifvqea0","pricing_plan_id":"cebpf4jnsgd1na2vs0mg"},{"bike_id":"41d61f3a-572c-4240-9f59-8b5b646be959","system_id":"levelo_inurba_marseille","lat":43.31909,"lon":5.36824,"is_reserved":false,"is_disabled":false,"rental_uris":{"android":"levelo://app?vid=41d61f3a-572c-4240-9f59-8b5b646be959","ios":"levelo://app?vid=41d61f3a-572c-4240-9f59-8b5b646be959"},"vehicle_type_id":"4","last_reported":1781389265,"current_range_meters":6800,"station_id":"st_d6o2h0d0559c73evc1b0","pricing_plan_id":"cebpf4jnsgd1na2vs0mg"},{"bike_id":"56c77742-199f-430c-a69a-0657472af381","system_id":"levelo_inurba_marseille","lat":43.26033,"lon":5.37547,"is_reserved":false,"is_disabled":false,"rental_uris":{"android":"levelo://app?vid=56c77742-199f-430c-a69a-0657472af381","ios":"levelo://app?vid=56c77742-199f-430c-a69a-0657472af381"},"vehicle_type_id":"4","last_reported":1781389265,"current_range_meters":6800,"station_id":"ce4bhgh2rcd13ifvqfa0","pricing_plan_id":"cebpf4jnsgd1na2vs0mg"},{"bike_id":"497a195a-0960-452b-8e9d-3a068fd55859","system_id":"levelo_inurba_marseille","lat":43.31118,"lon":5.37763,"is_reserved":false,"is_disabled":false,"rental_uris":{"android":"levelo://app?vid=497a195a-0960-452b-8e9d-3a068fd55859","ios":"levelo://app?vid=497a195a-0960-452b-8e9d-3a068fd55859"},"vehicle_type_id":"4","last_reported":1781389265,"current_range_meters":6800,"station_id":"ce4bgt92rcd13ifvqcg0","pricing_plan_id":"cebpf4jnsgd1na2vs0mg"},{"bike_id":"3a8c29bd-1026-45b6-9b92-5b3528896e80","system_id":"levelo_inurba_marseille","lat":43.24464,"lon":5.42551,"is_reserved":false,"is_disabled":false,"rental_uris":{"android":"levelo://app?vid=3a8c29bd-1026-45b6-9b92-5b3528896e80","ios":"levelo://app?vid=3a8c29bd-1026-45b6-9b92-5b3528896e80"},"vehicle_type_id":"4","last_reported":1781389265,"current_range_meters":6800,"station_id":"st_d4a3vfp97mjs738cd8kg","pricing_plan_id":"cebpf4jnsgd1na2vs0mg"},{"bike_id":"948e7dcf-c12b-4293-8ebe-ef6b71975867","system_id":"levelo_inurba_marseille","lat":43.24179,"lon":5.36391,"is_reserved":false,"is_disabled":true,"rental_uris":{"android":"levelo://app?vid=948e7dcf-c12b-4293-8ebe-ef6b71975867","ios":"levelo://app?vid=948e7dcf-c12b-4293-8ebe-ef6b71975867"},"vehicle_type_id":"4","last_reported":1781389265,"current_range_meters":6800,"station_id":"cpo36qri1sfpv3e86is0","pricing_plan_id":"cebpf4jnsgd1na2vs0mg"},{"bike_id":"b00d8bd0-800e-45a7-ac0f-43138ef8f6fe","system_id":"levelo_inurba_marseille","lat":43.26753,"lon":5.39434,"is_reserved":false,"is_disabled":true,"rental_uris":{"android":"levelo://app?vid=b00d8bd0-800e-45a7-ac0f-43138ef8f6fe","ios":"levelo://app?vid=b00d8bd0-800e-45a7-ac0f-43138ef8f6fe"},"vehicle_type_id":"4","last_reported":1781389265,"current_range_meters":6800,"station_id":"ce4bhh12rcd13ifvqfg0","pricing_plan_id":"cebpf4jnsgd1na2vs0mg"},{"bike_id":"9598cea6-9116-4460-b577-f7ec49e45294","system_id":"levelo_inurba_marseille","lat":43.28716,"lon":5.37961,"is_reserved":false,"is_disabled":false,"rental_uris":{"android":"levelo://app?vid=9598cea6-9116-4460-b577-f7ec49e45294","ios":"levelo://app?vid=9598cea6-9116-4460-b577-f7ec49e45294"},"vehicle_type_id":"4","last_reported":1781389265,"current_range_meters":6800,"station_id":"ce4bh9p2rcd13ifvqec0","pricing_plan_id":"cebpf4jnsgd1na2vs0mg"},{"bike_id":"48ef7b54-8522-45da-aedd-b2da10b20641","system_id":"levelo_inurba_marseille","lat":43.26021,"lon":5.3755,"is_reserved":false,"is_disabled":false,"rental_uris":{"android":"levelo://app?vid=48ef7b54-8522-45da-aedd-b2da10b20641","ios":"levelo://app?vid=48ef7b54-8522-45da-aedd-b2da10b20641"},"vehicle_type_id":"4","last_reported":1781389265,"current_range_meters":6800,"station_id":"ce4bhgh2rcd13ifvqfa0","pricing_plan_id":"cebpf4jnsgd1na2vs0mg"},{"bike_id":"8150589d-aa57-493e-b46c-c7049ac03237","system_id":"levelo_inurba_marseille","lat":43.32509,"lon":5.39135,"is_reserved":false,"is_disabled":false,"rental_uris":{"android":"levelo://app?vid=8150589d-aa57-493e-b46c-c7049ac03237","ios":"levelo://app?vid=8150589d-aa57-493e-b46c-c7049ac03237"},"vehicle_type_id":"4","last_reported":1781389265,"current_range_meters":6800,"station_id":"","pricing_plan_id":"cebpf4jnsgd1na2vs0mg"},{"bike_id":"2bffd3b4-eb42-4b45-89ef-58756e9c932a","system_id":"levelo_inurba_marseille","lat":43.29781,"lon":5.38093,"is_reserved":false,"is_disabled":false,"rental_uris":{"android":"levelo://app?vid=2bffd3b4-eb42-4b45-89ef-58756e9c932a","ios":"levelo://app?vid=2bffd3b4-eb42-4b45-89ef-58756e9c932a"},"vehicle_type_id":"4","last_reported":1781389265,"current_range_meters":7200,"station_id":"ce4bgip2rcd13ifvqbb0","pricing_plan_id":"cebpf4jnsgd1na2vs0mg"},{"bike_id":"9fc9d771-af8c-41d6-bc4a-16f04f6e3474","system_id":"levelo_inurba_marseille","lat":43.30416,"lon":5.39752,"is_reserved":false,"is_disabled":false,"rental_uris":{"android":"levelo://app?vid=9fc9d771-af8c-41d6-bc4a-16f04f6e3474","ios":"levelo://app?vid=9fc9d771-af8c-41d6-bc4a-16f04f6e3474"},"vehicle_type_id":"4","last_reported":1781389265,"current_range_meters":7200,"station_id":"ce4bh092rcd13ifvqd20","pricing_plan_id":"cebpf4jnsgd1na2vs0mg"},{"bike_id":"8185a93a-df23-4cba-b5aa-efc041cddc09","system_id":"levelo_inurba_marseille","lat":43.29638,"lon":5.40609,"is_reserved":false,"is_disabled":true,"rental_uris":{"android":"levelo://app?vid=8185a93a-df23-4cba-b5aa-efc041cddc09","ios":"levelo://app?vid=8185a93a-df23-4cba-b5aa-efc041cddc09"},"vehicle_type_id":"4","last_reported":1781389265,"current_range_meters":7200,"station_id":"ce4bh0h2rcd13ifvqd60","pricing_plan_id":"cebpf4jnsgd1na2vs0mg"},