{"last_updated":1737735061,"ttl":60,"version":"2.2","data":{"bikes":[{"bike_id":"71025e83-daff-40eb-8f70-b8e1fc9300fb","system_id":"levelo_inurba_marseille","lat":43.22915,"lon":5.35393,"is_reserved":false,"is_disabled":false,"rental_uris":{"android":"levelo://app?vid=71025e83-daff-40eb-8f70-b8e1fc9300fb","ios":"levelo://app?vid=71025e83-daff-40eb-8f70-b8e1fc9300fb"},"vehicle_type_id":"4","last_reported":1737735061,"current_range_meters":38800,"station_id":"cpo3532slgdg3j2ikp40","pricing_plan_id":"cebpf4jnsgd1na2vs0mg"},{"bike_id":"87182c57-fd52-4a50-b998-6281119e58ea","system_id":"levelo_inurba_marseille","lat":43.29881,"lon":5.38902,"is_reserved":false,"is_disabled":false,"rental_uris":{"android":"levelo://app?vid=87182c57-fd52-4a50-b998-6281119e58ea","ios":"levelo://app?vid=87182c57-fd52-4a50-b998-6281119e58ea"},"vehicle_type_id":"4","last_reported":1737735061,"current_range_meters":9600,"station_id":"ce4bh392rcd13ifvqdl0","pricing_plan_id":"cebpf4jnsgd1na2vs0mg"},{"bike_id":"870469c7-6c2b-4a2e-8766-b24685098055","system_id":"levelo_inurba_marseille","lat":43.29314,"lon":5.37173,"is_reserved":false,"is_disabled":false,"rental_uris":{"android":"levelo://app?vid=870469c7-6c2b-4a2e-8766-b24685098055","ios":"levelo://app?vid=870469c7-6c2b-4a2e-8766-b24685098055"},"vehicle_type_id":"4","last_reported":1737735061,"current_range_meters":32800,"station_id":"ce4bgh92rcd13ifvqb40","pricing_plan_id":"cebpf4jnsgd1na2vs0mg"},{"bike_id":"b5b19be3-3768-4e47-955d-7f5ba469f024","system_id":"levelo_inurba_marseille","lat":43.28869,"lon":5.35833,"is_reserved":false,"is_disabled":false,"rental_uris":{"android":"levelo://app?vid=b5b19be3-3768-4e47-955d-7f5ba469f024","ios":"levelo://app?vid=b5b19be3-3768-4e47-955d-7f5ba469f024"},"vehicle_type_id":"4","last_reported":1737735061,"current_range_meters":5600,"station_id":"ce4bhb12rcd13ifvqem0","pricing_plan_id":"cebpf4jnsgd1na2vs0mg"},{"bike_id":"b8616eb9-d9e4-460f-807e-1357c1bfc7f2","system_id":"levelo_inurba_marseille","lat":43.23993,"lon":5.36653,"is_reserved":false,"is_disabled":false,"rental_uris":{"android":"levelo://app?vid=b8616eb9-d9e4-460f-807e-1357c1bfc7f2","ios":"levelo://app?vid=b8616eb9-d9e4-460f-807e-1357c1bfc7f2"},"vehicle_type_id":"4","last_reported":1737735061,"current_range_meters":38800,"station_id":"ce4bhhh2rcd13ifvqfk0","pricing_plan_id":"cebpf4jnsgd1na2vs0mg"},{"bike_id":"5ca1b0d9-e907-4880-8a5c-e9faab2c55a0","system_id":"levelo_inurba_marseille","lat":43.30533,"lon":5.36545,"is_reserved":false,"is_disabled":false,"rental_uris":{"android":"levelo://app?vid=5ca1b0d9-e907-4880-8a5c-e9faab2c55a0","ios":"levelo://app?vid=5ca1b0d9-e907-4880-8a5c-e9faab2c55a0"},"vehicle_type_id":"4","last_reported":1737735061,"current_range_meters":38400,"station_id":"ce4bgs12rcd13ifvqcag","pricing_plan_id":"cebpf4jnsgd1na2vs0mg"},{"bike_id":"c6101cb0-11be-4453-a374-275049348de7","system_id":"levelo_inurba_marseille","lat":43.29006,"lon":5.35606,"is_reserved":false,"is_disabled":false,"rental_uris":{"android":"levelo://app?vid=c6101cb0-11be-4453-a374-275049348de7","ios":"levelo://app?vid=c6101cb0-11be-4453-a374-275049348de7"},"vehicle_type_id":"4","last_reported":1737735061,"current_range_meters":26000,"station_id":"ce4bhb92rcd13ifvqen0","pricing_plan_id":"cebpf4jnsgd1na2vs0mg"},{"bike_id":"0793f05d-0029-4d54-a0fe-9c0436426db5","system_id":"levelo_inurba_marseille","lat":43.23192,"lon":5.35549,"is_reserved":false,"is_disabled":false,"rental_uris":{"android":"levelo://app?vid=0793f05d-0029-4d54-a0fe-9c0436426db5","ios":"levelo://app?vid=0793f05d-0029-4d54-a0fe-9c0436426db5"},"vehicle_type_id":"4","last_reported":1737735061,"current_range_meters":34000,"station_id":"ce4bhu92rcd13ifvqi70","pricing_plan_id":"cebpf4jnsgd1na2vs0mg"},{"bike_id":"6b767154-21df-4957-a6c8-120cbcec1f6f","system_id":"levelo_inurba_marseille","lat":43.25087,"lon":5.39522,"is_reserved":false,"is_disabled":false,"rental_uris":{"android":"levelo://app?vid=6b767154-21df-4957-a6c8-120cbcec1f6f","ios":"levelo://app?vid=6b767154-21df-4957-a6c8-120cbcec1f6f"},"vehicle_type_id":"4","last_reported":1737735061,"current_range_meters":6800,"station_id":"ce4bhm12rcd13ifvqgkg","pricing_plan_id":"cebpf4jnsgd1na2vs0mg"},{"bike_id":"2cd5b411-1ed3-487d-922f-7171560c2949","system_id":"levelo_inurba_marseille","lat":43.31242,"lon":5.36919,"is_reserved":false,"is_disabled":false,"rental_uris":{"android":"levelo://app?vid=2cd5b411-1ed3-487d-922f-7171560c2949","ios":"levelo://app?vid=2cd5b411-1ed3-487d-922f-7171560c2949"},"vehicle_type_id":"4","last_reported":1737735061,"current_range_meters":38000,"station_id":"","pricing_plan_id":"cebpf4jnsgd1na2vs0mg"},{"bike_id":"78f1bcbe-297f-4d89-be9d-ff7c664d65b5","system_id":"levelo_inurba_marseille","lat":43.27164,"lon":5.41014,"is_reserved":false,"is_disabled":false,"rental_uris":{"android":"levelo://app?vid=78f1bcbe-297f-4d89-be9d-ff7c664d65b5","ios":"levelo://app?vid=78f1bcbe-297f-4d89-be9d-ff7c664d65b5"},"vehicle_type_id":"4","last_reported":1737735061,"current_range_meters":12800,"station_id":"ce4bhl12rcd13ifvqgf0","pricing_plan_id":"cebpf4jnsgd1na2vs0mg"},{"bike_id":"fd994c95-484e-4112-812c-02cbde567f1f","system_id":"levelo_inurba_marseille","lat":43.2407,"lon":5.37765,"is_reserved":false,"is_disabled":false,"rental_uris":{"android":"levelo://app?vid=fd994c95-484e-4112-812c-02cbde567f1f","ios":"levelo://app?vid=fd994c95-484e-4112-812c-02cbde567f1f"},"vehicle_type_id":"4","last_reported":1737735061,"current_range_meters":20400,"station_id":"ce4bhnp2rcd13ifvqgvg","pricing_plan_id":"cebpf4jnsgd1na2vs0mg"},{"bike_id":"d72e9cd3-88b8-452d-a7e1-d9bbc32bb46e","system_id":"levelo_inurba_marseille","lat":43.29589,"lon":5.37558,"is_reserved":false,"is_disabled":false,"rental_uris":{"android":"levelo://app?vid=d72e9cd3-88b8-452d-a7e1-d9bbc32bb46e","ios":"levelo://app?vid=d72e9cd3-88b8-452d-a7e1-d9bbc32bb46e"},"vehicle_type_id":"4","last_reported":1737735061,"current_range_meters":24400,"station_id":"ce4bgh92rcd13ifvqb50","pricing_plan_id":"cebpf4jnsgd1na2vs0mg"},{"bike_id":"3809bb1b-1f2b-4c5f-ac6e-77b80fd19edc","system_id":"levelo_inurba_marseille","lat":43.28424,"lon":5.35002,"is_reserved":false,"is_disabled":false,"rental_uris":{"android":"levelo://app?vid=3809bb1b-1f2b-4c5f-ac6e-77b80fd19edc","ios":"levelo://app?vid=3809bb1b-1f2b-4c5f-ac6e-77b80fd19edc"},"vehicle_type_id":"4","last_reported":1737735061,"current_range_meters":38000,"station_id":"ce4bhbh2rcd13ifvqepg","pricing_plan_id":"cebpf4jnsgd1na2vs0mg"},{"bike_id":"6e0e02f5-b0ae-450f-ad77-51511a2e44cf","system_id":"levelo_inurba_marseille","lat":43.30931,"lon":5.40141,"is_reserved":false,"is_disabled":true,"rental_uris":{"android":"levelo://app?vid=6e0e02f5-b0ae-450f-ad77-51511a2e44cf","ios":"levelo://app?vid=6e0e02f5-b0ae-450f-ad77-51511a2e44cf"},"vehicle_type_id":"4","last_reported":1737735061,"current_range_meters":24800,"station_id":"ce4bgvp2rcd13ifvqct0","pricing_plan_id":"cebpf4jnsgd1na2vs0mg"},{"bike_id":"637cf45d-cd8a-4700-9a5f-fca22f97ab8f","system_id":"levelo_inurba_marseille","lat":43.27572,"lon":5.38415,"is_reserved":false,"is_disabled":false,"rental_uris":{"android":"levelo://app?vid=637cf45d-cd8a-4700-9a5f-fca22f97ab8f","ios":"levelo://app?vid=637cf45d-cd8a-4700-9a5f-fca22f97ab8f"},"vehicle_type_id":"4","last_reported":1737735061,"current_range_meters":38800,"station_id":"ce4bhh92rcd13ifvqfi0","pricing_plan_id":"cebpf4jnsgd1na2vs0mg"},{"bike_id":"f5ea575a-09b7-4ee3-9efd-9c1584b55857","system_id":"levelo_inurba_marseille","lat":43.29877,"lon":5.39735,"is_reserved":false,"is_disabled":false,"rental_uris":{"android":"levelo://app?vid=f5ea575a-09b7-4ee3-9efd-9c1584b55857","ios":"levelo://app?vid=f5ea575a-09b7-4ee3-9efd-9c1584b55857"},"vehicle_type_id":"4","last_reported":1737735061,"current_range_meters":38400,"station_id":"ce4bh0h2rcd13ifvqd50","pricing_plan_id":"cebpf4jnsgd1na2vs0mg"},{"bike_id":"5e04b0ee-9b89-4ba7-bcf0-c76fdbe3f48a","system_id":"levelo_inurba_marseille","lat":43.28933,"lon":5.36407,"is_reserved":false,"is_disabled":false,"rental_uris":{"android":"levelo://app?vid=5e04b0ee-9b89-4ba7-bcf0-c76fdbe3f48a","ios":"levelo://app?vid=5e04b0ee-9b89-4ba7-bcf0-c76fdbe3f48a"},"vehicle_type_id":"4","last_reported":1737735061,"current_range_meters":38800,"station_id":"ce4bhc92rcd13ifvqetg","pricing_plan_id":"cebpf4jnsgd1na2vs0mg"},{"bike_id":"1db6b592-55f9-4c79-a744-85fdc2375e92","system_id":"levelo_inurba_marseille","lat":43.27213,"lon":5.3918,"is_reserved":false,"is_disabled":false,"rental_uris":{"android":"levelo://app?vid=1db6b592-55f9-4c79-a744-85fdc2375e92","ios":"levelo://app?vid=1db6b592-55f9-4c79-a744-85fdc2375e92"},"vehicle_type_id":"4","last_reported":1737735061,"current_range_meters":38000,"station_id":"ce4bhhp2rcd13ifvqfm0","pricing_plan_id":"cebpf4jnsgd1na2vs0mg"},{"bike_id":"0f2a1312-e97a-449a-abfd-7818dd55f40f","system_id":"levelo_inurba_marseille","lat":43.32461,"lon":5.36568,"is_reserved":false,"is_disabled":false,"rental_uris":{"android":"levelo://app?vid=0f2a1312-e97a-449a-abfd-7818dd55f40f","ios":"levelo://app?vid=0f2a1312-e97a-449a-abfd-7818dd55f40f"},"vehicle_type_id":"4","last_reported":1737735061,"current_range_meters":18000,"station_id":"ce4bhs12rcd13ifvqhvg","pricing_plan_id":"cebpf4jnsgd1na2vs0mg"},{"bike_id":"a861c9d8-6ea9-48b0-8309-237a46a61328","system_id":"levelo_inurba_marseille","lat":43.31757,"lon":5.39021,"is_reserved":false,"is_disabled":false,"rental_uris":{"android":"levelo://app?vid=a861c9d8-6ea9-48b0-8309-237a46a61328","ios":"levelo://app?vid=a861c9d8-6ea9-48b0-8309-237a46a61328"},"vehicle_type_id":"4","last_reported":1737735061,"current_range_meters":6400,"station_id":"ce4bhqp2rcd13ifvqhng","pricing_plan_id":"cebpf4jnsgd1na2vs0mg"},{"bike_id":"8f7afb80-1404-4f4b-a747-f0cb5eb93282","system_id":"levelo_inurba_marseille","lat":43.28444,"lon":5.3921,"is_reserved":false,"is_disabled":false,"rental_uris":{"android":"levelo://app?vid=8f7afb80-1404-4f4b-a747-f0cb5eb93282","ios":"levelo://app?vid=8f7afb80-1404-4f4b-a747-f0cb5eb93282"},"vehicle_type_id":"4","last_reported":1737735061,"current_range_meters":8000,"station_id":"ce4bhoh2rcd13ifvqh5g","pricing_plan_id":"cebpf4jnsgd1na2vs0mg"},{"bike_id":"a797f3c2-08cc-4847-95e7-66aff0efdd76","system_id":"levelo_inurba_marseille","lat":43.29038,"lon":5.3758,"is_reserved":false,"is_disabled":false,"rental_uris":{"android":"levelo://app?vid=a797f3c2-08cc-4847-95e7-66aff0efdd76","ios":"levelo://app?vid=a797f3c2-08cc-4847-95e7-66aff0efdd76"},"vehicle_type_id":"4","last_reported":1737735061,"current_range_meters":23200,"station_id":"ce4bh692rcd13ifvqe90","pricing_plan_id":"cebpf4jnsgd1na2vs0mg"},{"bike_id":"653dd06f-776e-47f6-91c0-ccfac6b15c1a","system_id":"levelo_inurba_marseille","lat":43.29563,"lon":5.39963,"is_reserved":false,"is_disabled":false,"rental_uris":{"android":"levelo://app?vid=653dd06f-776e-47f6-91c0-ccfac6b15c1a","ios":"levelo://app?vid=653dd06f-776e-47f6-91c0-ccfac6b15c1a"},"vehicle_type_id":"4","last_reported":1737735061,"current_range_meters":24800,"station_id":"ce4bh312rcd13ifvqdj0","pricing_plan_id":"cebpf4jnsgd1na2vs0mg"},{"bike_id":"1b081f83-cf90-4dbe-9cfd-a3e1497b7b48","system_id":"levelo_inurba_marseille","lat":43.2954,"lon":5.38539,"is_reserved":false,"is_disabled":true,"rental_uris":{"android":"levelo://app?vid=1b081f83-cf90-4dbe-9cfd-a3e1497b7b48","ios":"levelo://app?vid=1b081f83-cf90-4dbe-9cfd-a3e1497b7b48"},"vehicle_type_id":"4","last_reported":1737735061,"current_range_meters":1200,"station_id":"ce4bgih2rcd13ifvqba0","pricing_plan_id":"cebpf4jnsgd1na2vs0mg"},{"bike_id":"6a0c52b0-f71a-4340-9332-80a77ea7e4fa","system_id":"levelo_inurba_marseille","lat":43.31751,"lon":5.39024,"is_reserved":false,"is_disabled":false,"rental_uris":{"android":"levelo://app?vid=6a0c52b0-f71a-4340-9332-80a77ea7e4fa","ios":"levelo://app?vid=6a0c52b0-f71a-4340-9332-80a77ea7e4fa"},"vehicle_type_id":"4","last_reported":1737735061,"current_range_meters":19200,"station_id":"ce4bhqp2rcd13ifvqhng","pricing_plan_id":"cebpf4jnsgd1na2vs0mg"},{"bike_id":"799818e8-263b-4acc-a4c0-b732b7fa92e7","system_id":"levelo_inurba_marseille","lat":43.32293,"lon":5.38272,"is_reserved":false,"is_disabled":false,"rental_uris":{"android":"levelo://app?vid=799818e8-263b-4acc-a4c0-b732b7fa92e7","ios":"levelo://app?vid=799818e8-263b-4acc-a4c0-b732b7fa92e7"},"vehicle_type_id":"4","last_reported":1737735061,"current_range_meters":38000,"station_id":"ce4bhr12rcd13ifvqhqg","pricing_plan_id":"cebpf4jnsgd1na2vs0mg"},{"bike_id":"348d67ba-2781-43f3-ad02-99affac5e7a3","system_id":"levelo_inurba_marseille","lat":43.32663,"lon":5.409855,"is_reserved":false,"is_disabled":false,"rental_uris":{"android":"levelo://app?vid=348d67ba-2781-43f3-ad02-99affac5e7a3","ios":"levelo://app?vid=348d67ba-2781-43f3-ad02-99affac5e7a3"},"vehicle_type_id":"4","last_reported":1737735061,"current_range_meters":12000,"station_id":"ce4bhpp2rcd13ifvqhgg","pricing_plan_id":"cebpf4jnsgd1na2vs0mg"},{"bike_id":"7dafa7e7-757d-4898-abdf-cf5305599df2","system_id":"levelo_inurba_marseille","lat":43.29891,"lon":5.37454,"is_reserved":false,"is_disabled":false,"rental_uris":{"android":"levelo://app?vid=7dafa7e7-757d-4898-abdf-cf5305599df2","ios":"levelo://app?vid=7dafa7e7-757d-4898-abdf-cf5305599df2"},"vehicle_type_id":"4","last_reported":1737735061,"current_range_meters":38800,"station_id":"ce4bgjh2rcd13ifvqbg0","pricing_plan_id":"cebpf4jnsgd1na2vs0mg"},{"bike_id":"ccfc1707-653c-4955-82b1-4c46c7e45129","system_id":"levelo_inurba_marseille","lat":43.29009,"lon":5.35609,"is_reserved":false,"is_disabled":false,"rental_uris":{"android":"levelo://app?vid=ccfc1707-653c-4955-82b1-4c46c7e45129","ios":"levelo://app?vid=ccfc1707-653c-4955-82b1-4c46c7e45129"},"vehicle_type_id":"4","last_reported":1737735061,"current_range_meters":38800,"station_id":"ce4bhb92rcd13ifvqen0","pricing_plan_id":"cebpf4jnsgd1na2vs0mg"},{"bike_id":"96a340d9-70b8-4539-b769-ffa2fa4a79b5","system_id":"levelo_inurba_marseille","lat":43.30802,"lon":5.43531,"is_reserved":false,"is_disabled":false,"rental_uris":{"android":"levelo://app?vid=96a340d9-70b8-4539-b769-ffa2fa4a79b5","ios":"levelo://app?vid=96a340d9-70b8-4539-b769-ffa2fa4a79b5"},"vehicle_type_id":"4","last_reported":1737735061,"current_range_meters":30400,"station_id":"ce4bhph2rcd13ifvqheg","pricing_plan_id":"cebpf4jnsgd1na2vs0mg"},{"bike_id":"58ae7c7a-2cdc-4830-993b-4b31fffa0e11","system_id":"levelo_inurba_marseille","lat":43.2842,"lon":5.34992,"is_reserved":false,"is_disabled":false,"rental_uris":{"android":"levelo://app?vid=58ae7c7a-2cdc-4830-993b-4b31fffa0e11","ios":"levelo://app?vid=58ae7c7a-2cdc-4830-993b-4b31fffa0e11"},"vehicle_type_id":"4","last_reported":1737735061,"current_range_meters":8400,"station_id":"ce4bhbh2rcd13ifvqepg","pricing_plan_id":"cebpf4jnsgd1na2vs0mg"},{"bike_id":"fdde341f-37fe-4e65-aa9d-73f622411499","system_id":"levelo_inurba_marseille","lat":43.30457,"lon":5.38899,"is_reserved":false,"is_disabled":false,"rental_uris":{"android":"levelo://app?vid=fdde341f-37fe-4e65-aa9d-73f622411499","ios":"levelo://app?vid=fdde341f-37fe-4e65-aa9d-73f622411499"},"vehicle_type_id":"4","last_reported":1737735061,"current_range_meters":38800,"station_id":"ce4bgk12rcd13ifvqbi0","pricing_plan_id":"cebpf4jnsgd1na2vs0mg"},{"bike_id":"51c15a7a-453f-4891-a25f-df53fcf85c51","system_id":"levelo_inurba_marseille","lat":43.32096,"lon":5.36789,"is_reserved":false,"is_disabled":false,"rental_uris":{"android":"levelo://app?vid=51c15a7a-453f-4891-a25f-df53fcf85c51","ios":"levelo://app?vid=51c15a7a-453f-4891-a25f-df53fcf85c51"},"vehicle_type_id":"4","last_reported":1737735061,"current_range_meters":29600,"station_id":"ce4bhrh2rcd13ifvqhug","pricing_plan_id":"cebpf4jnsgd1na2vs0mg"},{"bike_id":"0440750b-7f49-499b-a510-750365de11e4","system_id":"levelo_inurba_marseille","lat":43.31998,"lon":5.38169,"is_reserved":false,"is_disabled":false,"rental_uris":{"android":"levelo://app?vid=0440750b-7f49-499b-a510-750365de11e4","ios":"levelo://app?vid=0440750b-7f49-499b-a510-750365de11e4"},"vehicle_type_id":"4","last_reported":1737735061,"current_range_meters":23200,"station_id":"ce4bhr12rcd13ifvqhpg","pricing_plan_id":"cebpf4jnsgd1na2vs0mg"},{"bike_id":"c491b9d7-9629-4215-bdb7-4fec9c846c78","system_id":"levelo_inurba_marseille","lat":43.31758,"lon":5.39032,"is_reserved":false,"is_disabled":false,"rental_uris":{"android":"levelo://app?vid=c491b9d7-9629-4215-bdb7-4fec9c846c78","ios":"levelo://app?vid=c491b9d7-9629-4215-bdb7-4fec9c846c78"},"vehicle_type_id":"4","last_reported":1737735061,"current_range_meters":36400,"station_id":"ce4bhqp2rcd13ifvqhng","pricing_plan_id":"cebpf4jnsgd1na2vs0mg"},{"bike_id":"7e47f404-af0f-45fe-82e0-fbcc8350a698","system_id":"levelo_inurba_marseille","lat":43.23077,"lon":5.35495,"is_reserved":false,"is_disabled":false,"rental_uris":{"android":"levelo://app?vid=7e47f404-af0f-45fe-82e0-fbcc8350a698","ios":"levelo://app?vid=7e47f404-af0f-45fe-82e0-fbcc8350a698"},"vehicle_type_id":"4","last_reported":1737735061,"current_range_meters":12000,"station_id":"cpo3342slgdg3j2ifvpg","pricing_plan_id":"cebpf4jnsgd1na2vs0mg"},{"bike_id":"34da221c-c1f5-4ddc-890d-9091cd51d245","system_id":"levelo_inurba_marseille","lat":43.30547,"lon":5.38424,"is_reserved":false,"is_disabled":false,"rental_uris":{"android":"levelo://app?vid=34da221c-c1f5-4ddc-890d-9091cd51d245","ios":"levelo://app?vid=34da221c-c1f5-4ddc-890d-9091cd51d245"},"vehicle_type_id":"4","last_reported":1737735061,"current_range_meters":38800,"station_id":"ce4bgg92rcd13ifvqb30","pricing_plan_id":"cebpf4jnsgd1na2vs0mg"},{"bike_id":"e91204e9-d4fe-4e30-81a6-71464f86006e","system_id":"levelo_inurba_marseille","lat":43.29929,"lon":5.38126,"is_reserved":false,"is_disabled":true,"rental_uris":{"android":"levelo://app?vid=e91204e9-d4fe-4e30-81a6-71464f86006e","ios":"levelo://app?vid=e91204e9-d4fe-4e30-81a6-71464f86006e"},"vehicle_type_id":"4","last_reported":1737735061,"current_range_meters":38800,"station_id":"ce4bgj12rcd13ifvqbc0","pricing_plan_id":"cebpf4jnsgd1na2vs0mg"},{"bike_id":"80e0d6ee-7cca-41de-b7c0-08bf276c8980","system_id":"levelo_inurba_marseille","lat":43.29257,"lon":5.40902,"is_reserved":false,"is_disabled":false,"rental_uris":{"android":"levelo://app?vid=80e0d6ee-7cca-41de-b7c0-08bf276c8980","ios":"levelo://app?vid=80e0d6ee-7cca-41de-b7c0-08bf276c8980"},"vehicle_type_id":"4","last_reported":1737735061,"current_range_meters":38800,"station_id":"ce4bh192rcd13ifvqdc0","pricing_plan_id":"cebpf4jnsgd1na2vs0mg"},{"bike_id":"5072e312-9706-4bdd-8a80-9c87af8ca7fd","system_id":"levelo_inurba_marseille","lat":43.30658,"lon":5.40058,"is_reserved":false,"is_disabled":false,"rental_uris":{"android":"levelo://app?vid=5072e312-9706-4bdd-8a80-9c87af8ca7fd","ios":"levelo://app?vid=5072e312-9706-4bdd-8a80-9c87af8ca7fd"},"vehicle_type_id":"4","last_reported":1737735061,"current_range_meters":25600,"station_id":"ce4bh112rcd13ifvqda0","pricing_plan_id":"cebpf4jnsgd1na2vs0mg"},{"bike_id":"1ceb8c63-17a1-4dc2-90e1-9ee2c3d9f714","system_id":"levelo_inurba_marseille","lat":43.26939,"lon":5.40251,"is_reserved":false,"is_disabled":false,"rental_uris":{"android":"levelo://app?vid=1ceb8c63-17a1-4dc2-90e1-9ee2c3d9f714","ios":"levelo://app?vid=1ceb8c63-17a1-4dc2-90e1-9ee2c3d9f714"},"vehicle_type_id":"4","last_reported":1737735061,"current_range_meters":38800,"station_id":"cjm6bp8fraef2m0cb0m0","pricing_plan_id":"cebpf4jnsgd1na2vs0mg"},{"bike_id":"054e1304-5d55-469c-bf86-f7f87fd79725","system_id":"levelo_inurba_marseille","lat":43.31228,"lon":5.36857,"is_reserved":false,"is_disabled":false,"rental_uris":{"android":"levelo://app?vid=054e1304-5d55-469c-bf86-f7f87fd79725","ios":"levelo://app?vid=054e1304-5d55-469c-bf86-f7f87fd79725"},"vehicle_type_id":"4","last_reported":1737735061,"current_range_meters":8400,"station_id":"ce4bgl92rcd13ifvqbq0","pricing_plan_id":"cebpf4jnsgd1na2vs0mg"},{"bike_id":"6d1c7757-cbfa-452f-8195-daacd34f212b","system_id":"levelo_inurba_marseille","lat":43.23065,"lon":5.35484,"is_reserved":false,"is_disabled":true,"rental_uris":{"android":"levelo://app?vid=6d1c7757-cbfa-452f-8195-daacd34f212b","ios":"levelo://app?vid=6d1c7757-cbfa-452f-8195-daacd34f212b"},"vehicle_type_id":"4","last_reported":1737735061,"current_range_meters":400,"station_id":"cpo3342slgdg3j2ifvpg","pricing_plan_id":"cebpf4jnsgd1na2vs0mg"},{"bike_id":"f253fc82-7ca1-4c38-a41a-566478bb536e","system_id":"levelo_inurba_marseille","lat":43.28037,"lon":5.36948,"is_reserved":false,"is_disabled":false,"rental_uris":{"android":"levelo://app?vid=f253fc82-7ca1-4c38-a41a-566478bb536e","ios":"levelo://app?vid=f253fc82-7ca1-4c38-a41a-566478bb536e"},"vehicle_type_id":"4","last_reported":1737735061,"current_range_meters":38800,"station_id":"ce4bha12rcd13ifvqef0","pricing_plan_id":"cebpf4jnsgd1na2vs0mg"},{"bike_id":"c287a3ed-5ab1-4fe0-a917-cf5ecb40f512","system_id":"levelo_inurba_marseille","lat":43.29248,"lon":5.38439,"is_reserved":false,"is_disabled":true,"rental_uris":{"android":"levelo://app?vid=c287a3ed-5ab1-4fe0-a917-cf5ecb40f512","ios":"levelo://app?vid=c287a3ed-5ab1-4fe0-a917-cf5ecb40f512"},"vehicle_type_id":"4","last_reported":1737735061,"current_range_meters":22400,"station_id":"ce4bh692rcd13ifvqea0","pricing_plan_id":"cebpf4jnsgd1na2vs0mg"},{"bike_id":"9838cc78-2b53-49d3-ae13-82df62c4fd64","system_id":"levelo_inurba_marseille","lat":43.28424,"lon":5.40934,"is_reserved":false,"is_disabled":true,"rental_uris":{"android":"levelo://app?vid=9838cc78-2b53-49d3-ae13-82df62c4fd64","ios":"levelo://app?vid=9838cc78-2b53-49d3-ae13-82df62c4fd64"},"vehicle_type_id":"4","last_reported":1737735061,"current_range_meters":400,"station_id":"","pricing_plan_id":"cebpf4jnsgd1na2vs0mg"},{"bike_id":"f866d53d-dc31-47bb-a55e-bcf972da1712","system_id":"levelo_inurba_marseille","lat":43.30324,"lon":5.40426,"is_reserved":false,"is_disabled":false,"rental_uris":{"android":"levelo://app?vid=f866d53d-dc31-47bb-a55e-bcf972da1712","ios":"levelo://app?vid=f866d53d-dc31-47bb-a55e-bcf972da1712"},"vehicle_type_id":"4","last_reported":1737735061,"current_range_meters":32800,"station_id":"ce4bh012rcd13ifvqd10","pricing_plan_id":"cebpf4jnsgd1na2vs0mg"},{"bike_id":"a2919db8-901a-41ea-a325-e77c84145540","system_id":"levelo_inurba_marseille","lat":43.29267,"lon":5.38293,"is_reserved":false,"is_disabled":false,"rental_uris":{"android":"levelo://app?vid=a2919db8-901a-41ea-a325-e77c84145540","ios":"levelo://app?vid=a2919db8-901a-41ea-a325-e77c84145540"},"vehicle_type_id":"4","last_reported":1737735061,"current_range_meters":16000,"station_id":"ce4bh512rcd13ifvqe2g","pricing_plan_id":"cebpf4jnsgd1na2vs0mg"},{"bike_id":"d9cca91f-1227-4fe2-913c-7ffaa6156f7a","system_id":"levelo_inurba_marseille","lat":43.24804,"lon":5.37454,"is_reserved":false,"is_disabled":false,"rental_uris":{"android":"levelo://app?vid=d9cca91f-1227-4fe2-913c-7ffaa6156f7a","ios":"levelo://app?vid=d9cca91f-1227-4fe2-913c-7ffaa6156f7a"},"vehicle_type_id":"4","last_reported":1737735061,"current_range_meters":24800,"station_id":"ce4bhgh2rcd13ifvqfb0","pricing_plan_id":"cebpf4jnsgd1na2vs0mg"},{"bike_id":"bf096a89-ee72-4f37-85bd-7b3cf9f0cb41","system_id":"levelo_inurba_marseille","lat":43.31933,"lon":5.37904,"is_reserved":false,"is_disabled":false,"rental_uris":{"android":"levelo://app?vid=bf096a89-ee72-4f37-85bd-7b3cf9f0cb41","ios":"levelo://app?vid=bf096a89-ee72-4f37-85bd-7b3cf9f0cb41"},"vehicle_type_id":"4","last_reported":1737735061,"current_range_meters":34800,"station_id":"","pricing_plan_id":"cebpf4jnsgd1na2vs0mg"},{"bike_id":"ee9f86a2-c84b-4e4b-92a3-7f355652e235","system_id":"levelo_inurba_marseille","lat":43.29282,"lon":5.40112,"is_reserved":false,"is_disabled":false,"rental_uris":{"android":"levelo://app?vid=ee9f86a2-c84b-4e4b-92a3-7f355652e235","ios":"levelo://app?vid=ee9f86a2-c84b-4e4b-92a3-7f355652e235"},"vehicle_type_id":"4","last_reported":1737735061,"current_range_meters":26800,"station_id":"ce4bh312rcd13ifvqdk0","pricing_plan_id":"cebpf4jnsgd1na2vs0mg"},{"bike_id":"b1a31b37-3c6a-43de-ac18-6b6b299e2d44","system_id":"levelo_inurba_marseille","lat":43.25501,"lon":5.3766,"is_reserved":false,"is_disabled":false,"rental_uris":{"android":"levelo://app?vid=b1a31b37-3c6a-43de-ac18-6b6b299e2d44","ios":"levelo://app?vid=b1a31b37-3c6a-43de-ac18-6b6b299e2d44"},"vehicle_type_id":"4","last_reported":1737735061,"current_range_meters":8000,"station_id":"ce4bhh12rcd13ifvqff0","pricing_plan_id":"cebpf4jnsgd1na2vs0mg"},{"bike_id":"625bcfab-0711-420c-94b4-39a737496d36","system_id":"levelo_inurba_marseille","lat":43.25499,"lon":5.37648,"is_reserved":false,"is_disabled":false,"rental_uris":{"android":"levelo://app?vid=625bcfab-0711-420c-94b4-39a737496d36","ios":"levelo://app?vid=625bcfab-0711-420c-94b4-39a737496d36"},"vehicle_type_id":"4","last_reported":1737735061,"current_range_meters":6800,"station_id":"ce4bhh12rcd13ifvqff0","pricing_plan_id":"cebpf4jnsgd1na2vs0mg"},{"bike_id":"b3d6b5e1-6e99-4f8a-ad43-d9bfedb2dac9","system_id":"levelo_inurba_marseille","lat":43.31933,"lon":5.37119,"is_reserved":false,"is_disabled":false,"rental_uris":{"android":"levelo://app?vid=b3d6b5e1-6e99-4f8a-ad43-d9bfedb2dac9","ios":"levelo://app?vid=b3d6b5e1-6e99-4f8a-ad43-d9bfedb2dac9"},"vehicle_type_id":"4","last_reported":1737735061,"current_range_meters":6400,"station_id":"","pricing_plan_id":"cebpf4jnsgd1na2vs0mg"},{"bike_id":"5d57c4f5-fbb6-4390-97ca-e8e05a3ca80e","system_id":"levelo_inurba_marseille","lat":43.23181,"lon":5.39979,"is_reserved":false,"is_disabled":false,"rental_uris":{"android":"levelo://app?vid=5d57c4f5-fbb6-4390-97ca-e8e05a3ca80e","ios":"levelo://app?vid=5d57c4f5-fbb6-4390-97ca-e8e05a3ca80e"},"vehicle_type_id":"4","last_reported":1737735061,"current_range_meters":27600,"station_id":"ce4bhn12rcd13ifvqgqg","pricing_plan_id":"cebpf4jnsgd1na2vs0mg"},{"bike_id":"e2b15c9b-bfdb-4523-aaba-3c2d85254228","system_id":"levelo_inurba_marseille","lat":43.31068,"lon":5.38352,"is_reserved":false,"is_disabled":false,"rental_uris":{"android":"levelo://app?vid=e2b15c9b-bfdb-4523-aaba-3c2d85254228","ios":"levelo://app?vid=e2b15c9b-bfdb-4523-aaba-3c2d85254228"},"vehicle_type_id":"4","last_reported":1737735061,"current_range_meters":20400,"station_id":"ce4bgv92rcd13ifvqcr0","pricing_plan_id":"cebpf4jnsgd1na2vs0mg"},{"bike_id":"bb35e7e1-bf8e-4cc1-ad7f-f75f08c96482","system_id":"levelo_inurba_marseille","lat":43.28943,"lon":5.36403,"is_reserved":false,"is_disabled":false,"rental_uris":{"android":"levelo://app?vid=bb35e7e1-bf8e-4cc1-ad7f-f75f08c96482","ios":"levelo://app?vid=bb35e7e1-bf8e-4cc1-ad7f-f75f08c96482"},"vehicle_type_id":"4","last_reported":1737735061,"current_range_meters":37600,"station_id":"ce4bhc92rcd13ifvqetg","pricing_plan_id":"cebpf4jnsgd1na2vs0mg"},{"bike_id":"c964a905-9270-455d-8da3-260e623933e5","system_id":"levelo_inurba_marseille","lat":43.26687,"lon":5.38274,"is_reserved":false,"is_disabled":false,"rental_uris":{"android":"levelo://app?vid=c964a905-9270-455d-8da3-260e623933e5","ios":"levelo://app?vid=c964a905-9270-455d-8da3-260e623933e5"},"vehicle_type_id":"4","last_reported":1737735061,"current_range_meters":38800,"station_id":"ce4bhg92rcd13ifvqf90","pricing_plan_id":"cebpf4jnsgd1na2vs0mg"},{"bike_id":"9ee2151b-4fb9-48c9-a26c-21eb9aeb0b28","system_id":"levelo_inurba_marseille","lat":43.29437,"lon":5.39749,"is_reserved":false,"is_disabled":false,"rental_uris":{"android":"levelo://app?vid=9ee2151b-4fb9-48c9-a26c-21eb9aeb0b28","ios":"levelo://app?vid=9ee2151b-4fb9-48c9-a26c-21eb9aeb0b28"},"vehicle_type_id":"4","last_reported":1737735061,"current_range_meters":30400,"station_id":"ce4bh3h2rcd13ifvqdo0","pricing_plan_id":"cebpf4jnsgd1na2vs0mg"},{"bike_id":"e6fed224-e420-4150-9f76-4b1a14407d3e","system_id":"levelo_inurba_marseille","lat":43.24162,"lon":5.36397,"is_reserved":false,"is_disabled":false,"rental_uris":{"android":"levelo://app?vid=e6fed224-e420-4150-9f76-4b1a14407d3e","ios":"levelo://app?vid=e6fed224-e420-4150-9f76-4b1a14407d3e"},"vehicle_type_id":"4","last_reported":1737735061,"current_range_meters":6400,"station_id":"cpo36qri1sfpv3e86is0","pricing_plan_id":"cebpf4jnsgd1na2vs0mg"},{"bike_id":"c276da85-c857-4b0d-8792-c2826228a14c","system_id":"levelo_inurba_marseille","lat":43.239617,"lon":5.366277,"is_reserved":false,"is_disabled":false,"rental_uris":{"android":"levelo://app?vid=c276da85-c857-4b0d-8792-c2826228a14c","ios":"levelo://app?vid=c276da85-c857-4b0d-8792-c2826228a14c"},"vehicle_type_id":"4","last_reported":1737735061,"current_range_meters":28800,"station_id":"ce4bhi12rcd13ifvqfp0","pricing_plan_id":"cebpf4jnsgd1na2vs0mg"},{"bike_id":"2068ce80-1659-42b4-945e-19e0e5710b37","system_id":"levelo_inurba_marseille","lat":43.29707,"lon":5.36597,"is_reserved":false,"is_disabled":true,"rental_uris":{"android":"levelo://app?vid=2068ce80-1659-42b4-945e-19e0e5710b37","ios":"levelo://app?vid=2068ce80-1659-42b4-945e-19e0e5710b37"},"vehicle_type_id":"4","last_reported":1737735061,"current_range_meters":37600,"station_id":"ce4bgn12rcd13ifvqbt0","pricing_plan_id":"cebpf4jnsgd1na2vs0mg"},{"bike_id":"867d41e1-ec2e-4484-a31e-d471983f0ab7","system_id":"levelo_inurba_marseille","lat":43.33382,"lon":5.40056,"is_reserved":false,"is_disabled":false,"rental_uris":{"android":"levelo://app?vid=867d41e1-ec2e-4484-a31e-d471983f0ab7","ios":"levelo://app?vid=867d41e1-ec2e-4484-a31e-d471983f0ab7"},"vehicle_type_id":"4","last_reported":1737735061,"current_range_meters":18000,"station_id":"","pricing_plan_id":"cebpf4jnsgd1na2vs0mg"},{"bike_id":"5f2c0c87-0fad-479b-a16f-7e7c4f720c82","system_id":"levelo_inurba_marseille","lat":43.32671,"lon":5.4098,"is_reserved":false,"is_disabled":false,"rental_uris":{"android":"levelo://app?vid=5f2c0c87-0fad-479b-a16f-7e7c4f720c82","ios":"levelo://app?vid=5f2c0c87-0fad-479b-a16f-7e7c4f720c82"},"vehicle_type_id":"4","last_reported":1737735061,"current_range_meters":9600,"station_id":"ce4bhpp2rcd13ifvqhgg","pricing_plan_id":"cebpf4jnsgd1na2vs0mg"},{"bike_id":"b824ba83-1a23-4a5f-8164-9faf2b9f3344","system_id":"levelo_inurba_marseille","lat":43.30145,"lon":5.3807,"is_reserved":false,"is_disabled":false,"rental_uris":{"android":"levelo://app?vid=b824ba83-1a23-4a5f-8164-9faf2b9f3344","ios":"levelo://app?vid=b824ba83-1a23-4a5f-8164-9faf2b9f3344"},"vehicle_type_id":"4","last_reported":1737735061,"current_range_meters":14400,"station_id":"ce4bgjp2rcd13ifvqbh0","pricing_plan_id":"cebpf4jnsgd1na2vs0mg"},{"bike_id":"358abbba-bcda-4dcf-ac9a-0dd24d997ac8","system_id":"levelo_inurba_marseille","lat":43.29426,"lon":5.3977,"is_reserved":false,"is_disabled":false,"rental_uris":{"android":"levelo://app?vid=358abbba-bcda-4dcf-ac9a-0dd24d997ac8","ios":"levelo://app?vid=358abbba-bcda-4dcf-ac9a-0dd24d997ac8"},"vehicle_type_id":"4","last_reported":1737735061,"current_range_meters":38800,"station_id":"ce4bh3h2rcd13ifvqdo0","pricing_plan_id":"cebpf4jnsgd1na2vs0mg"},{"bike_id":"6b358356-e9c1-4220-9959-a063813f1c64","system_id":"levelo_inurba_marseille","lat":43.325,"lon":5.36559,"is_reserved":false,"is_disabled":false,"rental_uris":{"android":"levelo://app?vid=6b358356-e9c1-4220-9959-a063813f1c64","ios":"levelo://app?vid=6b358356-e9c1-4220-9959-a063813f1c64"},"vehicle_type_id":"4","last_reported":1737735061,"current_range_meters":21600,"station_id":"ce4bhs12rcd13ifvqhvg","pricing_plan_id":"cebpf4jnsgd1na2vs0mg"},{"bike_id":"fb1cf63d-fb4d-42c4-981b-f82396382584","system_id":"levelo_inurba_marseille","lat":43.298,"lon":5.38079,"is_reserved":false,"is_disabled":true,"rental_uris":{"android":"levelo://app?vid=fb1cf63d-fb4d-42c4-981b-f82396382584","ios":"levelo://app?vid=fb1cf63d-fb4d-42c4-981b-f82396382584"},"vehicle_type_id":"4","last_reported":1737735061,"current_range_meters":1200,"station_id":"ce4bgip2rcd13ifvqbb0","pricing_plan_id":"cebpf4jnsgd1na2vs0mg"},{"bike_id":"347dd29e-9a9e-4a37-8ddd-6e2050aaff03","system_id":"levelo_inurba_marseille","lat":43.33725,"lon":5.39213,"is_reserved":false,"is_disabled":false,"rental_uris":{"android":"levelo://app?vid=347dd29e-9a9e-4a37-8ddd-6e2050aaff03","ios":"levelo://app?vid=347dd29e-9a9e-4a37-8ddd-6e2050aaff03"},"vehicle_type_id":"4","last_reported":1737735061,"current_range_meters":38000,"station_id":"ce4bhr92rcd13ifvqhsg","pricing_plan_id":"cebpf4jnsgd1na2vs0mg"},{"bike_id":"d7dbec56-3cb4-42dd-970e-b1e8e7b8f352","system_id":"levelo_inurba_marseille","lat":43.26688,"lon":5.38267,"is_reserved":false,"is_disabled":false,"rental_uris":{"android":"levelo://app?vid=d7dbec56-3cb4-42dd-970e-b1e8e7b8f352","ios":"levelo://app?vid=d7dbec56-3cb4-42dd-970e-b1e8e7b8f352"},"vehicle_type_id":"4","last_reported":1737735061,"current_range_meters":38800,"station_id":"ce4bhg92rcd13ifvqf90","pricing_plan_id":"cebpf4jnsgd1na2vs0mg"},{"bike_id":"0e693814-0122-42e0-afb6-d90349ad3709","system_id":"levelo_inurba_marseille","lat":43.28268,"lon":5.35075,"is_reserved":false,"is_disabled":false,"rental_uris":{"android":"levelo://app?vid=0e693814-0122-42e0-afb6-d90349ad3709","ios":"levelo://app?vid=0e693814-0122-42e0-afb6-d90349ad3709"},"vehicle_type_id":"4","last_reported":1737735061,"current_range_meters":27600,"station_id":"ce4bhbp2rcd13ifvqerg","pricing_plan_id":"cebpf4jnsgd1na2vs0mg"},{"bike_id":"f8ea2046-cba1-432a-b3c5-e15c802e7278","system_id":"levelo_inurba_marseille","lat":43.23967,"lon":5.36631,"is_reserved":false,"is_disabled":false,"rental_uris":{"android":"levelo://app?vid=f8ea2046-cba1-432a-b3c5-e15c802e7278","ios":"levelo://app?vid=f8ea2046-cba1-432a-b3c5-e15c802e7278"},"vehicle_type_id":"4","last_reported":1737735061,"current_range_meters":34000,"station_id":"ce4bhi12rcd13ifvqfp0","pricing_plan_id":"cebpf4jnsgd1na2vs0mg"},{"bike_id":"39165181-b597-4a98-b841-df0811673e2b","system_id":"levelo_inurba_marseille","lat":43.28612,"lon":5.35102,"is_reserved":false,"is_disabled":false,"rental_uris":{"android":"levelo://app?vid=39165181-b597-4a98-b841-df0811673e2b","ios":"levelo://app?vid=39165181-b597-4a98-b841-df0811673e2b"},"vehicle_type_id":"4","last_reported":1737735061,"current_range_meters":7200,"station_id":"ce4bhch2rcd13ifvqeug","pricing_plan_id":"cebpf4jnsgd1na2vs0mg"},{"bike_id":"90b8a1b1-ad54-458d-9362-f5197bbdf048","system_id":"levelo_inurba_marseille","lat":43.22936,"lon":5.35372,"is_reserved":false,"is_disabled":false,"rental_uris":{"android":"levelo://app?vid=90b8a1b1-ad54-458d-9362-f5197bbdf048","ios":"levelo://app?vid=90b8a1b1-ad54-458d-9362-f5197bbdf048"},"vehicle_type_id":"4","last_reported":1737735061,"current_range_meters":38800,"station_id":"cpo3532slgdg3j2ikp40","pricing_plan_id":"cebpf4jnsgd1na2vs0mg"},{"bike_id":"9fa232bb-7483-4a8d-8bd8-889a79238b79","system_id":"levelo_inurba_marseille","lat":43.28833,"lon":5.36778,"is_reserved":false,"is_disabled":false,"rental_uris":{"android":"levelo://app?vid=9fa232bb-7483-4a8d-8bd8-889a79238b79","ios":"levelo://app?vid=9fa232bb-7483-4a8d-8bd8-889a79238b79"},"vehicle_type_id":"4","last_reported":1737735061,"current_range_meters":38400,"station_id":"ce4bhap2rcd13ifvqek0","pricing_plan_id":"cebpf4jnsgd1na2vs0mg"},{"bike_id":"4ec3a212-d8e7-41ed-9d8e-7c5a503a6c27","system_id":"levelo_inurba_marseille","lat":43.28609,"lon":5.37069,"is_reserved":false,"is_disabled":false,"rental_uris":{"android":"levelo://app?vid=4ec3a212-d8e7-41ed-9d8e-7c5a503a6c27","ios":"levelo://app?vid=4ec3a212-d8e7-41ed-9d8e-7c5a503a6c27"},"vehicle_type_id":"4","last_reported":1737735061,"current_range_meters":6400,"station_id":"ce4bht12rcd13ifvqi60","pricing_plan_id":"cebpf4jnsgd1na2vs0mg"},{"bike_id":"a91c6be4-7131-455a-9422-ae0bcae5fd6f","system_id":"levelo_inurba_marseille","lat":43.29059,"lon":5.3589,"is_reserved":false,"is_disabled":false,"rental_uris":{"android":"levelo://app?vid=a91c6be4-7131-455a-9422-ae0bcae5fd6f","ios":"levelo://app?vid=a91c6be4-7131-455a-9422-ae0bcae5fd6f"},"vehicle_type_id":"4","last_reported":1737735061,"current_range_meters":38800,"station_id":"ce4bha92rcd13ifvqeg0","pricing_plan_id":"cebpf4jnsgd1na2vs0mg"},{"bike_id":"18d508c1-3de5-4bae-9f24-0b3d3495be97","system_id":"levelo_inurba_marseille","lat":43.27818,"lon":5.40715,"is_reserved":false,"is_disabled":false,"rental_uris":{"android":"levelo://app?vid=18d508c1-3de5-4bae-9f24-0b3d3495be97","ios":"levelo://app?vid=18d508c1-3de5-4bae-9f24-0b3d3495be97"},"vehicle_type_id":"4","last_reported":1737735061,"current_range_meters":28800,"station_id":"ce4bhnh2rcd13ifvqgtg","pricing_plan_id":"cebpf4jnsgd1na2vs0mg"},{"bike_id":"a7957082-98d6-485f-8917-708a8f1a18ba","system_id":"levelo_inurba_marseille","lat":43.306396,"lon":5.401004,"is_reserved":false,"is_disabled":false,"rental_uris":{"android":"levelo://app?vid=a7957082-98d6-485f-8917-708a8f1a18ba","ios":"levelo://app?vid=a7957082-98d6-485f-8917-708a8f1a18ba"},"vehicle_type_id":"4","last_reported":1737735061,"current_range_meters":32000,"station_id":"ce4bh112rcd13ifvqda0","pricing_plan_id":"cebpf4jnsgd1na2vs0mg"},{"bike_id":"81cf1234-1209-48d9-997a-ebb3e952fabe","system_id":"levelo_inurba_marseille","lat":43.28841,"lon":5.35843,"is_reserved":false,"is_disabled":true,"rental_uris":{"android":"levelo://app?vid=81cf1234-1209-48d9-997a-ebb3e952fabe","ios":"levelo://app?vid=81cf1234-1209-48d9-997a-ebb3e952fabe"},"vehicle_type_id":"4","last_reported":1737735061,"current_range_meters":2000,"station_id":"ce4bhb12rcd13ifvqem0","pricing_plan_id":"cebpf4jnsgd1na2vs0mg"},{"bike_id":"b56d7ffa-3a70-4fb8-8a82-268ce473ab5e","system_id":"levelo_inurba_marseille","lat":43.2509,"lon":5.39525,"is_reserved":false,"is_disabled":false,"rental_uris":{"android":"levelo://app?vid=b56d7ffa-3a70-4fb8-8a82-268ce473ab5e","ios":"levelo://app?vid=b56d7ffa-3a70-4fb8-8a82-268ce473ab5e"},"vehicle_type_id":"4","last_reported":1737735061,"current_range_meters":14800,"station_id":"ce4bhm12rcd13ifvqgkg","pricing_plan_id":"cebpf4jnsgd1na2vs0mg"},{"bike_id":"c210faa8-2216-4d91-a628-483b723d5ef5","system_id":"levelo_inurba_marseille","lat":43.29477,"lon":5.37475,"is_reserved":false,"is_disabled":false,"rental_uris":{"android":"levelo://app?vid=c210faa8-2216-4d91-a628-483b723d5ef5","ios":"levelo://app?vid=c210faa8-2216-4d91-a628-483b723d5ef5"},"vehicle_type_id":"4","last_reported":1737735061,"current_range_meters":38800,"station_id":"ce4bhb12rcd13ifvqel0","pricing_plan_id":"cebpf4jnsgd1na2vs0mg"},{"bike_id":"f4fe54ce-87e5-472a-a60d-2e4dfbe6a708","system_id":"levelo_inurba_marseille","lat":43.2993,"lon":5.3746,"is_reserved":false,"is_disabled":false,"rental_uris":{"android":"levelo://app?vid=f4fe54ce-87e5-472a-a60d-2e4dfbe6a708","ios":"levelo://app?vid=f4fe54ce-87e5-472a-a60d-2e4dfbe6a708"},"vehicle_type_id":"4","last_reported":1737735061,"current_range_meters":25600,"station_id":"ce4bgjh2rcd13ifvqbg0","pricing_plan_id":"cebpf4jnsgd1na2vs0mg"},{"bike_id":"ce90fea6-ff2a-4d0b-bd4f-45ced0acf4c0","system_id":"levelo_inurba_marseille","lat":43.32362,"lon":5.36759,"is_reserved":false,"is_disabled":false,"rental_uris":{"android":"levelo://app?vid=ce90fea6-ff2a-4d0b-bd4f-45ced0acf4c0","ios":"levelo://app?vid=ce90fea6-ff2a-4d0b-bd4f-45ced0acf4c0"},"vehicle_type_id":"4","last_reported":1737735061,"current_range_meters":8000,"station_id":"ce4bhsh2rcd13ifvqi2g","pricing_plan_id":"cebpf4jnsgd1na2vs0mg"},{"bike_id":"323a5ac8-7846-4af5-a5a9-d009ef77ca24","system_id":"levelo_inurba_marseille","lat":43.30299,"lon":5.39216,"is_reserved":false,"is_disabled":false,"rental_uris":{"android":"levelo://app?vid=323a5ac8-7846-4af5-a5a9-d009ef77ca24","ios":"levelo://app?vid=323a5ac8-7846-4af5-a5a9-d009ef77ca24"},"vehicle_type_id":"4","last_reported":1737735061,"current_range_meters":38000,"station_id":"ce4bgkh2rcd13ifvqbk0","pricing_plan_id":"cebpf4jnsgd1na2vs0mg"},{"bike_id":"e04d6439-d3f0-49e1-ae5b-7959ba70aeaa","system_id":"levelo_inurba_marseille","lat":43.28043,"lon":5.36938,"is_reserved":false,"is_disabled":false,"rental_uris":{"android":"levelo://app?vid=e04d6439-d3f0-49e1-ae5b-7959ba70aeaa","ios":"levelo://app?vid=e04d6439-d3f0-49e1-ae5b-7959ba70aeaa"},"vehicle_type_id":"4","last_reported":1737735061,"current_range_meters":21600,"station_id":"ce4bha12rcd13ifvqef0","pricing_plan_id":"cebpf4jnsgd1na2vs0mg"},{"bike_id":"cf6285a9-f75c-4f38-bb8a-70ce67a4ee67","system_id":"levelo_inurba_marseille","lat":43.25817,"lon":5.39437,"is_reserved":false,"is_disabled":false,"rental_uris":{"android":"levelo://app?vid=cf6285a9-f75c-4f38-bb8a-70ce67a4ee67","ios":"levelo://app?vid=cf6285a9-f75c-4f38-bb8a-70ce67a4ee67"},"vehicle_type_id":"4","last_reported":1737735061,"current_range_meters":16000,"station_id":"ce4bhip2rcd13ifvqft0","pricing_plan_id":"cebpf4jnsgd1na2vs0mg"},{"bike_id":"2adfa857-69f2-473f-add8-67be9eb9122e","system_id":"levelo_inurba_marseille","lat":43.26693,"lon":5.38252,"is_reserved":false,"is_disabled":false,"rental_uris":{"android":"levelo://app?vid=2adfa857-69f2-473f-add8-67be9eb9122e","ios":"levelo://app?vid=2adfa857-69f2-473f-add8-67be9eb9122e"},"vehicle_type_id":"4","last_reported":1737735061,"current_range_meters":38800,"station_id":"ce4bhg92rcd13ifvqf90","pricing_plan_id":"cebpf4jnsgd1na2vs0mg"},{"bike_id":"78b03264-0c2d-45b5-9b0a-cf7cc454c0c6","system_id":"levelo_inurba_marseille","lat":43.32501,"lon":5.36557,"is_reserved":false,"is_disabled":false,"rental_uris":{"android":"levelo://app?vid=78b03264-0c2d-45b5-9b0a-cf7cc454c0c6","ios":"levelo://app?vid=78b03264-0c2d-45b5-9b0a-cf7cc454c0c6"},"vehicle_type_id":"4","last_reported":1737735061,"current_range_meters":36800,"station_id":"ce4bhs12rcd13ifvqhvg","pricing_plan_id":"cebpf4jnsgd1na2vs0mg"},{"bike_id":"0f1149fc-a9ba-46df-b87f-b0af2b1e5427","system_id":"levelo_inurba_marseille","lat":43.28571,"lon":5.39497,"is_reserved":false,"is_disabled":false,"rental_uris":{"android":"levelo://app?vid=0f1149fc-a9ba-46df-b87f-b0af2b1e5427","ios":"levelo://app?vid=0f1149fc-a9ba-46df-b87f-b0af2b1e5427"},"vehicle_type_id":"4","last_reported":1737735061,"current_range_meters":38800,"station_id":"ce4bh292rcd13ifvqdg0","pricing_plan_id":"cebpf4jnsgd1na2vs0mg"},{"bike_id":"610b06d9-d6b8-493e-925e-29958eda2fc5","system_id":"levelo_inurba_marseille","lat":43.27375,"lon":5.36254,"is_reserved":false,"is_disabled":false,"rental_uris":{"android":"levelo://app?vid=610b06d9-d6b8-493e-925e-29958eda2fc5","ios":"levelo://app?vid=610b06d9-d6b8-493e-925e-29958eda2fc5"},"vehicle_type_id":"4","last_reported":1737735061,"current_range_meters":39200,"station_id":"ce4bhbh2rcd13ifvqeo0","pricing_plan_id":"cebpf4jnsgd1na2vs0mg"},{"bike_id":"b058a8a4-44d8-4ea2-b62a-14877013c4b4","system_id":"levelo_inurba_marseille","lat":43.30332,"lon":5.40425,"is_reserved":false,"is_disabled":false,"rental_uris":{"android":"levelo://app?vid=b058a8a4-44d8-4ea2-b62a-14877013c4b4","ios":"levelo://app?vid=b058a8a4-44d8-4ea2-b62a-14877013c4b4"},"vehicle_type_id":"4","last_reported":1737735061,"current_range_meters":35600,"station_id":"ce4bh112rcd13ifvqda0","pricing_plan_id":"cebpf4jnsgd1na2vs0mg"},{"bike_id":"94085c08-0bd4-4422-bece-cbb2b21d2ee8","system_id":"levelo_inurba_marseille","lat":43.31362,"lon":5.38489,"is_reserved":false,"is_disabled":false,"rental_uris":{"android":"levelo://app?vid=94085c08-0bd4-4422-bece-cbb2b21d2ee8","ios":"levelo://app?vid=94085c08-0bd4-4422-bece-cbb2b21d2ee8"},"vehicle_type_id":"4","last_reported":1737735061,"current_range_meters":20400,"station_id":"ce4bgt92rcd13ifvqcf0","pricing_plan_id":"cebpf4jnsgd1na2vs0mg"},{"bike_id":"c74330e9-b90d-45dc-9d1f-aa58afbcb943","system_id":"levelo_inurba_marseille","lat":43.25117,"lon":5.40318,"is_reserved":false,"is_disabled":false,"rental_uris":{"android":"levelo://app?vid=c74330e9-b90d-45dc-9d1f-aa58afbcb943","ios":"levelo://app?vid=c74330e9-b90d-45dc-9d1f-aa58afbcb943"},"vehicle_type_id":"4","last_reported":1737735061,"current_range_meters":25200,"station_id":"ce4bhlh2rcd13ifvqgig","pricing_plan_id":"cebpf4jnsgd1na2vs0mg"},{"bike_id":"a6d0d632-ddb9-41d2-966b-1cf3325512b2","system_id":"levelo_inurba_marseille","lat":43.30934,"lon":5.40142,"is_reserved":false,"is_disabled":false,"rental_uris":{"android":"levelo://app?vid=a6d0d632-ddb9-41d2-966b-1cf3325512b2","ios":"levelo://app?vid=a6d0d632-ddb9-41d2-966b-1cf3325512b2"},"vehicle_type_id":"4","last_reported":1737735061,"current_range_meters":23200,"station_id":"ce4bgvp2rcd13ifvqct0","pricing_plan_id":"cebpf4jnsgd1na2vs0mg"},{"bike_id":"b88cebb6-0d80-403f-871e-116b9793c11e","system_id":"levelo_inurba_marseille","lat":43.31329,"lon":5.39688,"is_reserved":false,"is_disabled":false,"rental_uris":{"android":"levelo://app?vid=b88cebb6-0d80-403f-871e-116b9793c11e","ios":"levelo://app?vid=b88cebb6-0d80-403f-871e-116b9793c11e"},"vehicle_type_id":"4","last_reported":1737735061,"current_range_meters":27600,"station_id":"ce4bgvp2rcd13ifvqcu0","pricing_plan_id":"cebpf4jnsgd1na2vs0mg"},{"bike_id":"de32b312-77c0-44e3-8400-1cb8cb832814","system_id":"levelo_inurba_marseille","lat":43.25501,"lon":5.37648,"is_reserved":false,"is_disabled":false,"rental_uris":{"android":"levelo://app?vid=de32b312-77c0-44e3-8400-1cb8cb832814","ios":"levelo://app?vid=de32b312-77c0-44e3-8400-1cb8cb832814"},"vehicle_type_id":"4","last_reported":1737735061,"current_range_meters":11200,"station_id":"ce4bhh12rcd13ifvqff0","pricing_plan_id":"cebpf4jnsgd1na2vs0mg"},{"bike_id":"85c4b304-0a15-4fc1-b75d-cfc16b5afe60","system_id":"levelo_inurba_marseille","lat":43.229341,"lon":5.353853,"is_reserved":false,"is_disabled":false,"rental_uris":{"android":"levelo://app?vid=85c4b304-0a15-4fc1-b75d-cfc16b5afe60","ios":"levelo://app?vid=85c4b304-0a15-4fc1-b75d-cfc16b5afe60"},"vehicle_type_id":"4","last_reported":1737735061,"current_range_meters":38800,"station_id":"cpo3532slgdg3j2ikp40","pricing_plan_id":"cebpf4jnsgd1na2vs0mg"},{"bike_id":"0fa24faf-53b8-467f-9efb-71774822dc25","system_id":"levelo_inurba_marseille","lat":43.27564,"lon":5.38415,"is_reserved":false,"is_disabled":false,"rental_uris":{"android":"levelo://app?vid=0fa24faf-53b8-467f-9efb-71774822dc25","ios":"levelo://app?vid=0fa24faf-53b8-467f-9efb-71774822dc25"},"vehicle_type_id":"4","last_reported":1737735061,"current_range_meters":6800,"station_id":"ce4bhh92rcd13ifvqfi0","pricing_plan_id":"cebpf4jnsgd1na2vs0mg"},{"bike_id":"f83ba1a0-9959-4071-a440-37709bb11096","system_id":"levelo_inurba_marseille","lat":43.29532,"lon":5.38545,"is_reserved":false,"is_disabled":false,"rental_uris":{"android":"levelo://app?vid=f83ba1a0-9959-4071-a440-37709bb11096","ios":"levelo://app?vid=f83ba1a0-9959-4071-a440-37709bb11096"},"vehicle_type_id":"4","last_reported":1737735061,"current_range_meters":32000,"station_id":"ce4bgih2rcd13ifvqba0","pricing_plan_id":"cebpf4jnsgd1na2vs0mg"},{"bike_id":"2aeb1fe7-2455-4a37-a484-bbbf324c7cf2","system_id":"levelo_inurba_marseille","lat":43.32137,"lon":5.36778,"is_reserved":false,"is_disabled":false,"rental_uris":{"android":"levelo://app?vid=2aeb1fe7-2455-4a37-a484-bbbf324c7cf2","ios":"levelo://app?vid=2aeb1fe7-2455-4a37-a484-bbbf324c7cf2"},"vehicle_type_id":"4","last_reported":1737735061,"current_range_meters":6800,"station_id":"","pricing_plan_id":"cebpf4jnsgd1na2vs0mg"},{"bike_id":"a581e17f-caa5-47d2-b86d-360af63b739b","system_id":"levelo_inurba_marseille","lat":43.29885,"lon":5.3974,"is_reserved":false,"is_disabled":false,"rental_uris":{"android":"levelo://app?vid=a581e17f-caa5-47d2-b86d-360af63b739b","ios":"levelo://app?vid=a581e17f-caa5-47d2-b86d-360af63b739b"},"vehicle_type_id":"4","last_reported":1737735061,"current_range_meters":36800,"station_id":"ce4bh0h2rcd13ifvqd50","pricing_plan_id":"cebpf4jnsgd1na2vs0mg"},{"bike_id":"923effac-7423-4a49-90f2-9558057bcc7f","system_id":"levelo_inurba_marseille","lat":43.29006,"lon":5.3561,"is_reserved":false,"is_disabled":false,"rental_uris":{"android":"levelo://app?vid=923effac-7423-4a49-90f2-9558057bcc7f","ios":"levelo://app?vid=923effac-7423-4a49-90f2-9558057bcc7f"},"vehicle_type_id":"4","last_reported":1737735061,"current_range_meters":8000,"station_id":"ce4bhb92rcd13ifvqen0","pricing_plan_id":"cebpf4jnsgd1na2vs0mg"},{"bike_id":"7a55f28a-5a5b-4ca4-9825-dee123c17d08","system_id":"levelo_inurba_marseille","lat":43.32125,"lon":5.36744,"is_reserved":false,"is_disabled":false,"rental_uris":{"android":"levelo://app?vid=7a55f28a-5a5b-4ca4-9825-dee123c17d08","ios":"levelo://app?vid=7a55f28a-5a5b-4ca4-9825-dee123c17d08"},"vehicle_type_id":"4","last_reported":1737735061,"current_range_meters":36800,"station_id":"ce4bhrh2rcd13ifvqhug","pricing_plan_id":"cebpf4jnsgd1na2vs0mg"},{"bike_id":"fa8d78eb-e4d3-478c-924c-1bcea3e36896","system_id":"levelo_inurba_marseille","lat":43.27323,"lon":5.39119,"is_reserved":false,"is_disabled":false,"rental_uris":{"android":"levelo://app?vid=fa8d78eb-e4d3-478c-924c-1bcea3e36896","ios":"levelo://app?vid=fa8d78eb-e4d3-478c-924c-1bcea3e36896"},"vehicle_type_id":"4","last_reported":1737735061,"current_range_meters":38800,"station_id":"ce4bhgp2rcd13ifvqfe0","pricing_plan_id":"cebpf4jnsgd1na2vs0mg"},{"bike_id":"0e5092ea-2123-479f-a33b-05283f7edd32","system_id":"levelo_inurba_marseille","lat":43.29621,"lon":5.37165,"is_reserved":false,"is_disabled":false,"rental_uris":{"android":"levelo://app?vid=0e5092ea-2123-479f-a33b-05283f7edd32","ios":"levelo://app?vid=0e5092ea-2123-479f-a33b-05283f7edd32"},"vehicle_type_id":"4","last_reported":1737735061,"current_range_meters":36800,"station_id":"ce4bgnh2rcd13ifvqc0g","pricing_plan_id":"cebpf4jnsgd1na2vs0mg"},{"bike_id":"91be6530-820a-42a2-8802-0bdbe5f5b902","system_id":"levelo_inurba_marseille","lat":43.27673,"lon":5.39009,"is_reserved":false,"is_disabled":true,"rental_uris":{"android":"levelo://app?vid=91be6530-820a-42a2-8802-0bdbe5f5b902","ios":"levelo://app?vid=91be6530-820a-42a2-8802-0bdbe5f5b902"},"vehicle_type_id":"4","last_reported":1737735061,"current_range_meters":1200,"station_id":"ce4bhi12rcd13ifvqfo0","pricing_plan_id":"cebpf4jnsgd1na2vs0mg"},{"bike_id":"f68e45a9-c5c0-4f4e-8fa0-c7b4e09abdb0","system_id":"levelo_inurba_marseille","lat":43.28936,"lon":5.36411,"is_reserved":false,"is_disabled":true,"rental_uris":{"android":"levelo://app?vid=f68e45a9-c5c0-4f4e-8fa0-c7b4e09abdb0","ios":"levelo://app?vid=f68e45a9-c5c0-4f4e-8fa0-c7b4e09abdb0"},"vehicle_type_id":"4","last_reported":1737735061,"current_range_meters":0,"station_id":"ce4bhc92rcd13ifvqetg","pricing_plan_id":"cebpf4jnsgd1na2vs0mg"},{"bike_id":"08fc7595-a78c-4303-bce2-adc8fc908627","system_id":"levelo_inurba_marseille","lat":43.29681,"lon":5.37286,"is_reserved":false,"is_disabled":false,"rental_uris":{"android":"levelo://app?vid=08fc7595-a78c-4303-bce2-adc8fc908627","ios":"levelo://app?vid=08fc7595-a78c-4303-bce2-adc8fc908627"},"vehicle_type_id":"4","last_reported":1737735061,"current_range_meters":38800,"station_id":"ce4bgk12rcd13ifvqbj0","pricing_plan_id":"cebpf4jnsgd1na2vs0mg"},{"bike_id":"35614ed7-a0df-4792-bca2-a1978fcd9fab","system_id":"levelo_inurba_marseille","lat":43.30809,"lon":5.4352,"is_reserved":false,"is_disabled":false,"rental_uris":{"android":"levelo://app?vid=35614ed7-a0df-4792-bca2-a1978fcd9fab","ios":"levelo://app?vid=35614ed7-a0df-4792-bca2-a1978fcd9fab"},"vehicle_type_id":"4","last_reported":1737735061,"current_range_meters":38000,"station_id":"ce4bhph2rcd13ifvqheg","pricing_plan_id":"cebpf4jnsgd1na2vs0mg"},{"bike_id":"c2b1d898-8d95-4b49-b324-a24f4f18a4a0","system_id":"levelo_inurba_marseille","lat":43.325432,"lon":5.414378,"is_reserved":false,"is_disabled":false,"rental_uris":{"android":"levelo://app?vid=c2b1d898-8d95-4b49-b324-a24f4f18a4a0","ios":"levelo://app?vid=c2b1d898-8d95-4b49-b324-a24f4f18a4a0"},"vehicle_type_id":"4","last_reported":1737735061,"current_range_meters":35600,"station_id":"ce4bhq12rcd13ifvqhhg","pricing_plan_id":"cebpf4jnsgd1na2vs0mg"},{"bike_id":"d42bf647-1ecc-4437-8f49-3b4e75edd8a1","system_id":"levelo_inurba_marseille","lat":43.27228,"lon":5.39181,"is_reserved":false,"is_disabled":false,"rental_uris":{"android":"levelo://app?vid=d42bf647-1ecc-4437-8f49-3b4e75edd8a1","ios":"levelo://app?vid=d42bf647-1ecc-4437-8f49-3b4e75edd8a1"},"vehicle_type_id":"4","last_reported":1737735061,"current_range_meters":29600,"station_id":"ce4bhhp2rcd13ifvqfm0","pricing_plan_id":"cebpf4jnsgd1na2vs0mg"},{"bike_id":"7cea5488-2002-4229-bc99-836914b94071","system_id":"levelo_inurba_marseille","lat":43.29571,"lon":5.39949,"is_reserved":false,"is_disabled":false,"rental_uris":{"android":"levelo://app?vid=7cea5488-2002-4229-bc99-836914b94071","ios":"levelo://app?vid=7cea5488-2002-4229-bc99-836914b94071"},"vehicle_type_id":"4","last_reported":1737735061,"current_range_meters":24800,"station_id":"ce4bh312rcd13ifvqdj0","pricing_plan_id":"cebpf4jnsgd1na2vs0mg"},{"bike_id":"95cc9fd2-37dd-41f7-adfc-975194dbd74d","system_id":"levelo_inurba_marseille","lat":43.2606,"lon":5.39395,"is_reserved":false,"is_disabled":false,"rental_uris":{"android":"levelo://app?vid=95cc9fd2-37dd-41f7-adfc-975194dbd74d","ios":"levelo://app?vid=95cc9fd2-37dd-41f7-adfc-975194dbd74d"},"vehicle_type_id":"4","last_reported":1737735061,"current_range_meters":38000,"station_id":"ce4bhh92rcd13ifvqfj0","pricing_plan_id":"cebpf4jnsgd1na2vs0mg"},{"bike_id":"b51958bc-616b-4f23-9f46-0d26fe481195","system_id":"levelo_inurba_marseille","lat":43.32109,"lon":5.36772,"is_reserved":false,"is_disabled":false,"rental_uris":{"android":"levelo://app?vid=b51958bc-616b-4f23-9f46-0d26fe481195","ios":"levelo://app?vid=b51958bc-616b-4f23-9f46-0d26fe481195"},"vehicle_type_id":"4","last_reported":1737735061,"current_range_meters":28400,"station_id":"ce4bhrh2rcd13ifvqhug","pricing_plan_id":"cebpf4jnsgd1na2vs0mg"},{"bike_id":"25f3f2bb-3d58-4602-b324-04ef97598411","system_id":"levelo_inurba_marseille","lat":43.29866,"lon":5.3625,"is_reserved":false,"is_disabled":false,"rental_uris":{"android":"levelo://app?vid=25f3f2bb-3d58-4602-b324-04ef97598411","ios":"levelo://app?vid=25f3f2bb-3d58-4602-b324-04ef97598411"},"vehicle_type_id":"4","last_reported":1737735061,"current_range_meters":30400,"station_id":"ce4bgpp2rcd13ifvqc3g","pricing_plan_id":"cebpf4jnsgd1na2vs0mg"},{"bike_id":"94ee98a1-2d4c-4cdf-81de-65acebfd58a3","system_id":"levelo_inurba_marseille","lat":43.272162,"lon":5.391853,"is_reserved":false,"is_disabled":false,"rental_uris":{"android":"levelo://app?vid=94ee98a1-2d4c-4cdf-81de-65acebfd58a3","ios":"levelo://app?vid=94ee98a1-2d4c-4cdf-81de-65acebfd58a3"},"vehicle_type_id":"4","last_reported":1737735061,"current_range_meters":35600,"station_id":"ce4bhhp2rcd13ifvqfm0","pricing_plan_id":"cebpf4jnsgd1na2vs0mg"},{"bike_id":"c1798b4b-e6e6-4d21-918f-ebb18961132b","system_id":"levelo_inurba_marseille","lat":43.31532,"lon":5.38035,"is_reserved":false,"is_disabled":false,"rental_uris":{"android":"levelo://app?vid=c1798b4b-e6e6-4d21-918f-ebb18961132b","ios":"levelo://app?vid=c1798b4b-e6e6-4d21-918f-ebb18961132b"},"vehicle_type_id":"4","last_reported":1737735061,"current_range_meters":38400,"station_id":"ce4bhsp2rcd13ifvqi50","pricing_plan_id":"cebpf4jnsgd1na2vs0mg"},{"bike_id":"89e0e4a1-4c7f-46fc-97d8-76383b4053ad","system_id":"levelo_inurba_marseille","lat":43.23183,"lon":5.39992,"is_reserved":false,"is_disabled":false,"rental_uris":{"android":"levelo://app?vid=89e0e4a1-4c7f-46fc-97d8-76383b4053ad","ios":"levelo://app?vid=89e0e4a1-4c7f-46fc-97d8-76383b4053ad"},"vehicle_type_id":"4","last_reported":1737735061,"current_range_meters":16400,"station_id":"ce4bhn12rcd13ifvqgqg","pricing_plan_id":"cebpf4jnsgd1na2vs0mg"},{"bike_id":"a0a4f2a9-b527-44c7-81e1-2651427c25f3","system_id":"levelo_inurba_marseille","lat":43.26684,"lon":5.38267,"is_reserved":false,"is_disabled":false,"rental_uris":{"android":"levelo://app?vid=a0a4f2a9-b527-44c7-81e1-2651427c25f3","ios":"levelo://app?vid=a0a4f2a9-b527-44c7-81e1-2651427c25f3"},"vehicle_type_id":"4","last_reported":1737735061,"current_range_meters":30000,"station_id":"ce4bhg92rcd13ifvqf90","pricing_plan_id":"cebpf4jnsgd1na2vs0mg"},{"bike_id":"a480b523-e48f-4862-9692-57a656f0a480","system_id":"levelo_inurba_marseille","lat":43.27678,"lon":5.38933,"is_reserved":false,"is_disabled":false,"rental_uris":{"android":"levelo://app?vid=a480b523-e48f-4862-9692-57a656f0a480","ios":"levelo://app?vid=a480b523-e48f-4862-9692-57a656f0a480"},"vehicle_type_id":"4","last_reported":1737735061,"current_range_meters":21600,"station_id":"ce4bhi12rcd13ifvqfo0","pricing_plan_id":"cebpf4jnsgd1na2vs0mg"},{"bike_id":"9863b7f9-4316-4322-9f6c-3cc66b0448e2","system_id":"levelo_inurba_marseille","lat":43.279439,"lon":5.389008,"is_reserved":false,"is_disabled":true,"rental_uris":{"android":"levelo://app?vid=9863b7f9-4316-4322-9f6c-3cc66b0448e2","ios":"levelo://app?vid=9863b7f9-4316-4322-9f6c-3cc66b0448e2"},"vehicle_type_id":"4","last_reported":1737735061,"current_range_meters":19600,"station_id":"","pricing_plan_id":"cebpf4jnsgd1na2vs0mg"},{"bike_id":"16ecc48e-71e0-4db7-a5d0-458818f87528","system_id":"levelo_inurba_marseille","lat":43.31757,"lon":5.39007,"is_reserved":false,"is_disabled":false,"rental_uris":{"android":"levelo://app?vid=16ecc48e-71e0-4db7-a5d0-458818f87528","ios":"levelo://app?vid=16ecc48e-71e0-4db7-a5d0-458818f87528"},"vehicle_type_id":"4","last_reported":1737735061,"current_range_meters":27600,"station_id":"ce4bhqp2rcd13ifvqhng","pricing_plan_id":"cebpf4jnsgd1na2vs0mg"},{"bike_id":"2172a171-424d-470b-a2fa-9cdd952d0348","system_id":"levelo_inurba_marseille","lat":43.26929,"lon":5.38918,"is_reserved":false,"is_disabled":false,"rental_uris":{"android":"levelo://app?vid=2172a171-424d-470b-a2fa-9cdd952d0348","ios":"levelo://app?vid=2172a171-424d-470b-a2fa-9cdd952d0348"},"vehicle_type_id":"4","last_reported":1737735061,"current_range_meters":38800,"station_id":"ce4bhhh2rcd13ifvqfl0","pricing_plan_id":"cebpf4jnsgd1na2vs0mg"},{"bike_id":"8c058779-7889-43fb-a938-a2cf7cdcfafd","system_id":"levelo_inurba_marseille","lat":43.29621,"lon":5.37165,"is_reserved":false,"is_disabled":false,"rental_uris":{"android":"levelo://app?vid=8c058779-7889-43fb-a938-a2cf7cdcfafd","ios":"levelo://app?vid=8c058779-7889-43fb-a938-a2cf7cdcfafd"},"vehicle_type_id":"4","last_reported":1737735061,"current_range_meters":38400,"station_id":"ce4bgnh2rcd13ifvqc0g","pricing_plan_id":"cebpf4jnsgd1na2vs0mg"},{"bike_id":"581bbaf4-9275-47d2-9e08-1c457717c912","system_id":"levelo_inurba_marseille","lat":43.27901,"lon":5.38002,"is_reserved":false,"is_disabled":false,"rental_uris":{"android":"levelo://app?vid=581bbaf4-9275-47d2-9e08-1c457717c912","ios":"levelo://app?vid=581bbaf4-9275-47d2-9e08-1c457717c912"},"vehicle_type_id":"4","last_reported":1737735061,"current_range_meters":27200,"station_id":"ce4bhf92rcd13ifvqf50","pricing_plan_id":"cebpf4jnsgd1na2vs0mg"},{"bike_id":"3ea50595-1371-45da-9804-64d23752a366","system_id":"levelo_inurba_marseille","lat":43.28617,"lon":5.35103,"is_reserved":false,"is_disabled":false,"rental_uris":{"android":"levelo://app?vid=3ea50595-1371-45da-9804-64d23752a366","ios":"levelo://app?vid=3ea50595-1371-45da-9804-64d23752a366"},"vehicle_type_id":"4","last_reported":1737735061,"current_range_meters":30800,"station_id":"ce4bhch2rcd13ifvqeug","pricing_plan_id":"cebpf4jnsgd1na2vs0mg"},{"bike_id":"4fa7afbd-3757-496c-9744-ae25a40c1e53","system_id":"levelo_inurba_marseille","lat":43.28149,"lon":5.42659,"is_reserved":false,"is_disabled":false,"rental_uris":{"android":"levelo://app?vid=4fa7afbd-3757-496c-9744-ae25a40c1e53","ios":"levelo://app?vid=4fa7afbd-3757-496c-9744-ae25a40c1e53"},"vehicle_type_id":"4","last_reported":1737735061,"current_range_meters":19600,"station_id":"ce4bhnh2rcd13ifvqgug","pricing_plan_id":"cebpf4jnsgd1na2vs0mg"},{"bike_id":"a4f05d23-5453-47d8-bccb-077c729b02d8","system_id":"levelo_inurba_marseille","lat":43.28931,"lon":5.38401,"is_reserved":false,"is_disabled":true,"rental_uris":{"android":"levelo://app?vid=a4f05d23-5453-47d8-bccb-077c729b02d8","ios":"levelo://app?vid=a4f05d23-5453-47d8-bccb-077c729b02d8"},"vehicle_type_id":"4","last_reported":1737735061,"current_range_meters":1600,"station_id":"ce4bh612rcd13ifvqe6g","pricing_plan_id":"cebpf4jnsgd1na2vs0mg"},{"bike_id":"4cf9d4e6-d46a-492e-b079-96c25e995ea0","system_id":"levelo_inurba_marseille","lat":43.29876,"lon":5.39735,"is_reserved":false,"is_disabled":false,"rental_uris":{"android":"levelo://app?vid=4cf9d4e6-d46a-492e-b079-96c25e995ea0","ios":"levelo://app?vid=4cf9d4e6-d46a-492e-b079-96c25e995ea0"},"vehicle_type_id":"4","last_reported":1737735061,"current_range_meters":28000,"station_id":"ce4bh0h2rcd13ifvqd50","pricing_plan_id":"cebpf4jnsgd1na2vs0mg"},{"bike_id":"1a5b0eee-798d-475e-9bb2-0e8573f4779e","system_id":"levelo_inurba_marseille","lat":43.29266,"lon":5.38424,"is_reserved":false,"is_disabled":true,"rental_uris":{"android":"levelo://app?vid=1a5b0eee-798d-475e-9bb2-0e8573f4779e","ios":"levelo://app?vid=1a5b0eee-798d-475e-9bb2-0e8573f4779e"},"vehicle_type_id":"4","last_reported":1737735061,"current_range_meters":800,"station_id":"ce4bh692rcd13ifvqea0","pricing_plan_id":"cebpf4jnsgd1na2vs0mg"},{"bike_id":"306cbc47-ce60-47e0-9bee-081327460b49","system_id":"levelo_inurba_marseille","lat":43.27375,"lon":5.36262,"is_reserved":false,"is_disabled":false,"rental_uris":{"android":"levelo://app?vid=306cbc47-ce60-47e0-9bee-081327460b49","ios":"levelo://app?vid=306cbc47-ce60-47e0-9bee-081327460b49"},"vehicle_type_id":"4","last_reported":1737735061,"current_range_meters":38000,"station_id":"ce4bhbh2rcd13ifvqeo0","pricing_plan_id":"cebpf4jnsgd1na2vs0mg"},{"bike_id":"c400706d-11d8-4109-af7f-04e1a2259d9b","system_id":"levelo_inurba_marseille","lat":43.299,"lon":5.43674,"is_reserved":false,"is_disabled":false,"rental_uris":{"android":"levelo://app?vid=c400706d-11d8-4109-af7f-04e1a2259d9b","ios":"levelo://app?vid=c400706d-11d8-4109-af7f-04e1a2259d9b"},"vehicle_type_id":"4","last_reported":1737735061,"current_range_meters":38800,"station_id":"ce4bhpp2rcd13ifvqhfg","pricing_plan_id":"cebpf4jnsgd1na2vs0mg"},{"bike_id":"71f52d6b-b04a-44ac-bcaf-49c5bd066bef","system_id":"levelo_inurba_marseille","lat":43.26695,"lon":5.38271,"is_reserved":false,"is_disabled":false,"rental_uris":{"android":"levelo://app?vid=71f52d6b-b04a-44ac-bcaf-49c5bd066bef","ios":"levelo://app?vid=71f52d6b-b04a-44ac-bcaf-49c5bd066bef"},"vehicle_type_id":"4","last_reported":1737735061,"current_range_meters":38000,"station_id":"ce4bhg92rcd13ifvqf90","pricing_plan_id":"cebpf4jnsgd1na2vs0mg"},{"bike_id":"6f0e28ce-024f-4cd7-923a-80deb29961a7","system_id":"levelo_inurba_marseille","lat":43.33025,"lon":5.39035,"is_reserved":false,"is_disabled":false,"rental_uris":{"android":"levelo://app?vid=6f0e28ce-024f-4cd7-923a-80deb29961a7","ios":"levelo://app?vid=6f0e28ce-024f-4cd7-923a-80deb29961a7"},"vehicle_type_id":"4","last_reported":1737735061,"current_range_meters":32800,"station_id":"ce4bhr92rcd13ifvqhrg","pricing_plan_id":"cebpf4jnsgd1na2vs0mg"},{"bike_id":"78c192d2-2748-4944-b496-a710d2794351","system_id":"levelo_inurba_marseille","lat":43.2706,"lon":5.40258,"is_reserved":false,"is_disabled":false,"rental_uris":{"android":"levelo://app?vid=78c192d2-2748-4944-b496-a710d2794351","ios":"levelo://app?vid=78c192d2-2748-4944-b496-a710d2794351"},"vehicle_type_id":"4","last_reported":1737735061,"current_range_meters":36000,"station_id":"ce4bhk92rcd13ifvqgc0","pricing_plan_id":"cebpf4jnsgd1na2vs0mg"},{"bike_id":"7c78a755-c7f5-4f07-a96b-621451d47948","system_id":"levelo_inurba_marseille","lat":43.29896,"lon":5.43662,"is_reserved":false,"is_disabled":false,"rental_uris":{"android":"levelo://app?vid=7c78a755-c7f5-4f07-a96b-621451d47948","ios":"levelo://app?vid=7c78a755-c7f5-4f07-a96b-621451d47948"},"vehicle_type_id":"4","last_reported":1737735061,"current_range_meters":38800,"station_id":"ce4bhpp2rcd13ifvqhfg","pricing_plan_id":"cebpf4jnsgd1na2vs0mg"},{"bike_id":"32b6ca88-74ef-44ca-8cf1-8c56cd1b9220","system_id":"levelo_inurba_marseille","lat":43.26682,"lon":5.38265,"is_reserved":false,"is_disabled":false,"rental_uris":{"android":"levelo://app?vid=32b6ca88-74ef-44ca-8cf1-8c56cd1b9220","ios":"levelo://app?vid=32b6ca88-74ef-44ca-8cf1-8c56cd1b9220"},"vehicle_type_id":"4","last_reported":1737735061,"current_range_meters":7200,"station_id":"ce4bhg92rcd13ifvqf90","pricing_plan_id":"cebpf4jnsgd1na2vs0mg"},{"bike_id":"0d4080ce-c88b-4a34-b8fa-467da6090674","system_id":"levelo_inurba_marseille","lat":43.31361,"lon":5.38491,"is_reserved":false,"is_disabled":false,"rental_uris":{"android":"levelo://app?vid=0d4080ce-c88b-4a34-b8fa-467da6090674","ios":"levelo://app?vid=0d4080ce-c88b-4a34-b8fa-467da6090674"},"vehicle_type_id":"4","last_reported":1737735061,"current_range_meters":16000,"station_id":"ce4bgt92rcd13ifvqcf0","pricing_plan_id":"cebpf4jnsgd1na2vs0mg"},{"bike_id":"b11414a5-86e5-4af6-af22-fa55543d352b","system_id":"levelo_inurba_marseille","lat":43.2481,"lon":5.37458,"is_reserved":false,"is_disabled":false,"rental_uris":{"android":"levelo://app?vid=b11414a5-86e5-4af6-af22-fa55543d352b","ios":"levelo://app?vid=b11414a5-86e5-4af6-af22-fa55543d352b"},"vehicle_type_id":"4","last_reported":1737735061,"current_range_meters":12800,"station_id":"ce4bhgh2rcd13ifvqfb0","pricing_plan_id":"cebpf4jnsgd1na2vs0mg"},{"bike_id":"39a66d3d-b811-4c47-8a23-fbd22db1ea20","system_id":"levelo_inurba_marseille","lat":43.29456,"lon":5.39427,"is_reserved":false,"is_disabled":false,"rental_uris":{"android":"levelo://app?vid=39a66d3d-b811-4c47-8a23-fbd22db1ea20","ios":"levelo://app?vid=39a66d3d-b811-4c47-8a23-fbd22db1ea20"},"vehicle_type_id":"4","last_reported":1737735061,"current_range_meters":34000,"station_id":"ce4bh292rcd13ifvqdf0","pricing_plan_id":"cebpf4jnsgd1na2vs0mg"},{"bike_id":"4a13ea03-ec6c-4773-aab6-bf9a860cd9fc","system_id":"levelo_inurba_marseille","lat":43.27905,"lon":5.38008,"is_reserved":false,"is_disabled":false,"rental_uris":{"android":"levelo://app?vid=4a13ea03-ec6c-4773-aab6-bf9a860cd9fc","ios":"levelo://app?vid=4a13ea03-ec6c-4773-aab6-bf9a860cd9fc"},"vehicle_type_id":"4","last_reported":1737735061,"current_range_meters":39200,"station_id":"ce4bhf92rcd13ifvqf50","pricing_plan_id":"cebpf4jnsgd1na2vs0mg"},{"bike_id":"7192c12e-a888-4572-968a-3e4bb9607173","system_id":"levelo_inurba_marseille","lat":43.23192,"lon":5.39973,"is_reserved":false,"is_disabled":false,"rental_uris":{"android":"levelo://app?vid=7192c12e-a888-4572-968a-3e4bb9607173","ios":"levelo://app?vid=7192c12e-a888-4572-968a-3e4bb9607173"},"vehicle_type_id":"4","last_reported":1737735061,"current_range_meters":38800,"station_id":"ce4bhn12rcd13ifvqgqg","pricing_plan_id":"cebpf4jnsgd1na2vs0mg"},{"bike_id":"e8a753c1-7b36-49a7-8e1b-9daa88ce9a46","system_id":"levelo_inurba_marseille","lat":43.30544,"lon":5.38427,"is_reserved":false,"is_disabled":false,"rental_uris":{"android":"levelo://app?vid=e8a753c1-7b36-49a7-8e1b-9daa88ce9a46","ios":"levelo://app?vid=e8a753c1-7b36-49a7-8e1b-9daa88ce9a46"},"vehicle_type_id":"4","last_reported":1737735061,"current_range_meters":38400,"station_id":"ce4bgg92rcd13ifvqb30","pricing_plan_id":"cebpf4jnsgd1na2vs0mg"},{"bike_id":"b9bcab24-0f3c-492b-b259-4f63b2346af8","system_id":"levelo_inurba_marseille","lat":43.294255,"lon":5.374396,"is_reserved":false,"is_disabled":false,"rental_uris":{"android":"levelo://app?vid=b9bcab24-0f3c-492b-b259-4f63b2346af8","ios":"levelo://app?vid=b9bcab24-0f3c-492b-b259-4f63b2346af8"},"vehicle_type_id":"4","last_reported":1737735061,"current_range_meters":27600,"station_id":"ce4bhb92rcd13ifvqen0","pricing_plan_id":"cebpf4jnsgd1na2vs0mg"},{"bike_id":"0f6f1f28-264c-42b7-9014-efb1bc5cfecb","system_id":"levelo_inurba_marseille","lat":43.299138,"lon":5.374692,"is_reserved":false,"is_disabled":false,"rental_uris":{"android":"levelo://app?vid=0f6f1f28-264c-42b7-9014-efb1bc5cfecb","ios":"levelo://app?vid=0f6f1f28-264c-42b7-9014-efb1bc5cfecb"},"vehicle_type_id":"4","last_reported":1737735061,"current_range_meters":38800,"station_id":"ce4bgjh2rcd13ifvqbg0","pricing_plan_id":"cebpf4jnsgd1na2vs0mg"},{"bike_id":"54b04d78-7b1f-4dbd-8cce-dfddd2980ad1","system_id":"levelo_inurba_marseille","lat":43.28724,"lon":5.36085,"is_reserved":false,"is_disabled":false,"rental_uris":{"android":"levelo://app?vid=54b04d78-7b1f-4dbd-8cce-dfddd2980ad1","ios":"levelo://app?vid=54b04d78-7b1f-4dbd-8cce-dfddd2980ad1"},"vehicle_type_id":"4","last_reported":1737735061,"current_range_meters":19200,"station_id":"cki0cbj6b192h4jlfktg","pricing_plan_id":"cebpf4jnsgd1na2vs0mg"},{"bike_id":"9c7b1e6c-f6a7-4443-915b-f81466fe1ec7","system_id":"levelo_inurba_marseille","lat":43.28269,"lon":5.35082,"is_reserved":false,"is_disabled":false,"rental_uris":{"android":"levelo://app?vid=9c7b1e6c-f6a7-4443-915b-f81466fe1ec7","ios":"levelo://app?vid=9c7b1e6c-f6a7-4443-915b-f81466fe1ec7"},"vehicle_type_id":"4","last_reported":1737735061,"current_range_meters":31200,"station_id":"ce4bhbp2rcd13ifvqerg","pricing_plan_id":"cebpf4jnsgd1na2vs0mg"},{"bike_id":"2d09f6c2-0a95-42dd-b273-6c37bca47794","system_id":"levelo_inurba_marseille","lat":43.29934,"lon":5.3748,"is_reserved":false,"is_disabled":false,"rental_uris":{"android":"levelo://app?vid=2d09f6c2-0a95-42dd-b273-6c37bca47794","ios":"levelo://app?vid=2d09f6c2-0a95-42dd-b273-6c37bca47794"},"vehicle_type_id":"4","last_reported":1737735061,"current_range_meters":38800,"station_id":"ce4bgjh2rcd13ifvqbg0","pricing_plan_id":"cebpf4jnsgd1na2vs0mg"},{"bike_id":"4c6ace24-8fa1-4251-bdd2-2f7b7944df6a","system_id":"levelo_inurba_marseille","lat":43.29262,"lon":5.40897,"is_reserved":false,"is_disabled":false,"rental_uris":{"android":"levelo://app?vid=4c6ace24-8fa1-4251-bdd2-2f7b7944df6a","ios":"levelo://app?vid=4c6ace24-8fa1-4251-bdd2-2f7b7944df6a"},"vehicle_type_id":"4","last_reported":1737735061,"current_range_meters":38800,"station_id":"ce4bh192rcd13ifvqdc0","pricing_plan_id":"cebpf4jnsgd1na2vs0mg"},{"bike_id":"fe3679b4-09f6-4e41-9aae-9d00892cb93e","system_id":"levelo_inurba_marseille","lat":43.23208,"lon":5.35543,"is_reserved":false,"is_disabled":false,"rental_uris":{"android":"levelo://app?vid=fe3679b4-09f6-4e41-9aae-9d00892cb93e","ios":"levelo://app?vid=fe3679b4-09f6-4e41-9aae-9d00892cb93e"},"vehicle_type_id":"4","last_reported":1737735061,"current_range_meters":17200,"station_id":"ce4bhu92rcd13ifvqi70","pricing_plan_id":"cebpf4jnsgd1na2vs0mg"},{"bike_id":"b4ac2db2-b45d-4139-8166-fe3d7a6cfed2","system_id":"levelo_inurba_marseille","lat":43.29279,"lon":5.38443,"is_reserved":false,"is_disabled":false,"rental_uris":{"android":"levelo://app?vid=b4ac2db2-b45d-4139-8166-fe3d7a6cfed2","ios":"levelo://app?vid=b4ac2db2-b45d-4139-8166-fe3d7a6cfed2"},"vehicle_type_id":"4","last_reported":1737735061,"current_range_meters":26000,"station_id":"ce4bh692rcd13ifvqea0","pricing_plan_id":"cebpf4jnsgd1na2vs0mg"},{"bike_id":"aebe1331-4749-488d-b6db-dbad0f32b633","system_id":"levelo_inurba_marseille","lat":43.28275,"lon":5.35083,"is_reserved":false,"is_disabled":true,"rental_uris":{"android":"levelo://app?vid=aebe1331-4749-488d-b6db-dbad0f32b633","ios":"levelo://app?vid=aebe1331-4749-488d-b6db-dbad0f32b633"},"vehicle_type_id":"4","last_reported":1737735061,"current_range_meters":0,"station_id":"ce4bhbp2rcd13ifvqerg","pricing_plan_id":"cebpf4jnsgd1na2vs0mg"},{"bike_id":"7c5742b4-6005-4de6-a3cf-df4c9e88d63b","system_id":"levelo_inurba_marseille","lat":43.28267,"lon":5.350405,"is_reserved":false,"is_disabled":false,"rental_uris":{"android":"levelo://app?vid=7c5742b4-6005-4de6-a3cf-df4c9e88d63b","ios":"levelo://app?vid=7c5742b4-6005-4de6-a3cf-df4c9e88d63b"},"vehicle_type_id":"4","last_reported":1737735061,"current_range_meters":8000,"station_id":"ce4bhbp2rcd13ifvqerg","pricing_plan_id":"cebpf4jnsgd1na2vs0mg"},{"bike_id":"02c32972-2589-4dd4-8b7a-da5539e1cade","system_id":"levelo_inurba_marseille","lat":43.317566,"lon":5.390203,"is_reserved":false,"is_disabled":false,"rental_uris":{"android":"levelo://app?vid=02c32972-2589-4dd4-8b7a-da5539e1cade","ios":"levelo://app?vid=02c32972-2589-4dd4-8b7a-da5539e1cade"},"vehicle_type_id":"4","last_reported":1737735061,"current_range_meters":38000,"station_id":"ce4bhqp2rcd13ifvqhng","pricing_plan_id":"cebpf4jnsgd1na2vs0mg"},{"bike_id":"f69665a1-e3ee-4df6-9535-a7d66592f848","system_id":"levelo_inurba_marseille","lat":43.30142,"lon":5.37411,"is_reserved":false,"is_disabled":false,"rental_uris":{"android":"levelo://app?vid=f69665a1-e3ee-4df6-9535-a7d66592f848","ios":"levelo://app?vid=f69665a1-e3ee-4df6-9535-a7d66592f848"},"vehicle_type_id":"4","last_reported":1737735061,"current_range_meters":28000,"station_id":"ce4bgs92rcd13ifvqcc0","pricing_plan_id":"cebpf4jnsgd1na2vs0mg"},{"bike_id":"16cba4e1-cb10-44ef-b1a1-eca95385335f","system_id":"levelo_inurba_marseille","lat":43.28431,"lon":5.34982,"is_reserved":false,"is_disabled":true,"rental_uris":{"android":"levelo://app?vid=16cba4e1-cb10-44ef-b1a1-eca95385335f","ios":"levelo://app?vid=16cba4e1-cb10-44ef-b1a1-eca95385335f"},"vehicle_type_id":"4","last_reported":1737735061,"current_range_meters":21600,"station_id":"ce4bhbh2rcd13ifvqepg","pricing_plan_id":"cebpf4jnsgd1na2vs0mg"},{"bike_id":"832de19d-d44c-4588-a792-d45111b42f85","system_id":"levelo_inurba_marseille","lat":43.29522,"lon":5.37505,"is_reserved":false,"is_disabled":true,"rental_uris":{"android":"levelo://app?vid=832de19d-d44c-4588-a792-d45111b42f85","ios":"levelo://app?vid=832de19d-d44c-4588-a792-d45111b42f85"},"vehicle_type_id":"4","last_reported":1737735061,"current_range_meters":1200,"station_id":"ce4bgkp2rcd13ifvqbmg","pricing_plan_id":"cebpf4jnsgd1na2vs0mg"},{"bike_id":"7565b34d-6388-4ba5-9209-f7ca5d9d23f8","system_id":"levelo_inurba_marseille","lat":43.29272,"lon":5.38432,"is_reserved":false,"is_disabled":false,"rental_uris":{"android":"levelo://app?vid=7565b34d-6388-4ba5-9209-f7ca5d9d23f8","ios":"levelo://app?vid=7565b34d-6388-4ba5-9209-f7ca5d9d23f8"},"vehicle_type_id":"4","last_reported":1737735061,"current_range_meters":38800,"station_id":"ce4bh692rcd13ifvqea0","pricing_plan_id":"cebpf4jnsgd1na2vs0mg"},{"bike_id":"209a1569-01ac-4fff-97a7-34a29e8a68c2","system_id":"levelo_inurba_marseille","lat":43.32287,"lon":5.38262,"is_reserved":false,"is_disabled":false,"rental_uris":{"android":"levelo://app?vid=209a1569-01ac-4fff-97a7-34a29e8a68c2","ios":"levelo://app?vid=209a1569-01ac-4fff-97a7-34a29e8a68c2"},"vehicle_type_id":"4","last_reported":1737735061,"current_range_meters":38800,"station_id":"ce4bhr12rcd13ifvqhqg","pricing_plan_id":"cebpf4jnsgd1na2vs0mg"},{"bike_id":"af1ee220-5a7c-413d-8ab8-2be285330ae6","system_id":"levelo_inurba_marseille","lat":43.32042,"lon":5.41545,"is_reserved":false,"is_disabled":true,"rental_uris":{"android":"levelo://app?vid=af1ee220-5a7c-413d-8ab8-2be285330ae6","ios":"levelo://app?vid=af1ee220-5a7c-413d-8ab8-2be285330ae6"},"vehicle_type_id":"4","last_reported":1737735061,"current_range_meters":1600,"station_id":"ce4bhq92rcd13ifvqhkg","pricing_plan_id":"cebpf4jnsgd1na2vs0mg"},{"bike_id":"45b366a6-6abc-4401-bb9e-1aee69db2cae","system_id":"levelo_inurba_marseille","lat":43.28089,"lon":5.39671,"is_reserved":false,"is_disabled":false,"rental_uris":{"android":"levelo://app?vid=45b366a6-6abc-4401-bb9e-1aee69db2cae","ios":"levelo://app?vid=45b366a6-6abc-4401-bb9e-1aee69db2cae"},"vehicle_type_id":"4","last_reported":1737735061,"current_range_meters":31200,"station_id":"ce4bho12rcd13ifvqh2g","pricing_plan_id":"cebpf4jnsgd1na2vs0mg"},{"bike_id":"421d447e-f137-48f8-b50a-3cef6ba73d00","system_id":"levelo_inurba_marseille","lat":43.32368,"lon":5.36768,"is_reserved":false,"is_disabled":false,"rental_uris":{"android":"levelo://app?vid=421d447e-f137-48f8-b50a-3cef6ba73d00","ios":"levelo://app?vid=421d447e-f137-48f8-b50a-3cef6ba73d00"},"vehicle_type_id":"4","last_reported":1737735061,"current_range_meters":9200,"station_id":"ce4bhsh2rcd13ifvqi2g","pricing_plan_id":"cebpf4jnsgd1na2vs0mg"},{"bike_id":"99c60d21-e005-4af0-89c4-0cba147c73bd","system_id":"levelo_inurba_marseille","lat":43.28423,"lon":5.34996,"is_reserved":false,"is_disabled":false,"rental_uris":{"android":"levelo://app?vid=99c60d21-e005-4af0-89c4-0cba147c73bd","ios":"levelo://app?vid=99c60d21-e005-4af0-89c4-0cba147c73bd"},"vehicle_type_id":"4","last_reported":1737735061,"current_range_meters":22000,"station_id":"ce4bhbh2rcd13ifvqepg","pricing_plan_id":"cebpf4jnsgd1na2vs0mg"},{"bike_id":"841a1767-078e-4378-8ef2-78843610d635","system_id":"levelo_inurba_marseille","lat":43.23186,"lon":5.35562,"is_reserved":false,"is_disabled":false,"rental_uris":{"android":"levelo://app?vid=841a1767-078e-4378-8ef2-78843610d635","ios":"levelo://app?vid=841a1767-078e-4378-8ef2-78843610d635"},"vehicle_type_id":"4","last_reported":1737735061,"current_range_meters":10000,"station_id":"ce4bhu92rcd13ifvqi70","pricing_plan_id":"cebpf4jnsgd1na2vs0mg"},{"bike_id":"d27fb1e6-4454-4048-a5c3-6f22e8b71c8a","system_id":"levelo_inurba_marseille","lat":43.23961,"lon":5.36628,"is_reserved":false,"is_disabled":false,"rental_uris":{"android":"levelo://app?vid=d27fb1e6-4454-4048-a5c3-6f22e8b71c8a","ios":"levelo://app?vid=d27fb1e6-4454-4048-a5c3-6f22e8b71c8a"},"vehicle_type_id":"4","last_reported":1737735061,"current_range_meters":6800,"station_id":"ce4bhi12rcd13ifvqfp0","pricing_plan_id":"cebpf4jnsgd1na2vs0mg"},{"bike_id":"9834e6e6-3f7d-42a4-b7db-1b6a1cc90ef9","system_id":"levelo_inurba_marseille","lat":43.30796,"lon":5.43524,"is_reserved":false,"is_disabled":false,"rental_uris":{"android":"levelo://app?vid=9834e6e6-3f7d-42a4-b7db-1b6a1cc90ef9","ios":"levelo://app?vid=9834e6e6-3f7d-42a4-b7db-1b6a1cc90ef9"},"vehicle_type_id":"4","last_reported":1737735061,"current_range_meters":38000,"station_id":"ce4bhph2rcd13ifvqheg","pricing_plan_id":"cebpf4jnsgd1na2vs0mg"},{"bike_id":"e3863bf6-db6a-4415-8ab9-ef40cbdd1705","system_id":"levelo_inurba_marseille","lat":43.31266,"lon":5.40162,"is_reserved":false,"is_disabled":false,"rental_uris":{"android":"levelo://app?vid=e3863bf6-db6a-4415-8ab9-ef40cbdd1705","ios":"levelo://app?vid=e3863bf6-db6a-4415-8ab9-ef40cbdd1705"},"vehicle_type_id":"4","last_reported":1737735061,"current_range_meters":36000,"station_id":"ce4bh092rcd13ifvqd30","pricing_plan_id":"cebpf4jnsgd1na2vs0mg"},{"bike_id":"a12ae140-7d40-4453-aee3-1f900eeb57d0","system_id":"levelo_inurba_marseille","lat":43.31719,"lon":5.42395,"is_reserved":false,"is_disabled":false,"rental_uris":{"android":"levelo://app?vid=a12ae140-7d40-4453-aee3-1f900eeb57d0","ios":"levelo://app?vid=a12ae140-7d40-4453-aee3-1f900eeb57d0"},"vehicle_type_id":"4","last_reported":1737735061,"current_range_meters":38800,"station_id":"ce4bhp92rcd13ifvqhbg","pricing_plan_id":"cebpf4jnsgd1na2vs0mg"},{"bike_id":"682a846a-122a-46b1-9331-6e0f53860c63","system_id":"levelo_inurba_marseille","lat":43.30537,"lon":5.36565,"is_reserved":false,"is_disabled":false,"rental_uris":{"android":"levelo://app?vid=682a846a-122a-46b1-9331-6e0f53860c63","ios":"levelo://app?vid=682a846a-122a-46b1-9331-6e0f53860c63"},"vehicle_type_id":"4","last_reported":1737735061,"current_range_meters":33200,"station_id":"ce4bgs12rcd13ifvqcag","pricing_plan_id":"cebpf4jnsgd1na2vs0mg"},{"bike_id":"e9020a46-61de-4306-b798-df4834758be2","system_id":"levelo_inurba_marseille","lat":43.2694,"lon":5.40244,"is_reserved":false,"is_disabled":false,"rental_uris":{"android":"levelo://app?vid=e9020a46-61de-4306-b798-df4834758be2","ios":"levelo://app?vid=e9020a46-61de-4306-b798-df4834758be2"},"vehicle_type_id":"4","last_reported":1737735061,"current_range_meters":16800,"station_id":"cjm6bp8fraef2m0cb0m0","pricing_plan_id":"cebpf4jnsgd1na2vs0mg"},{"bike_id":"06c9f187-3277-47a5-bdd5-35571bc3badf","system_id":"levelo_inurba_marseille","lat":43.29923,"lon":5.374774,"is_reserved":false,"is_disabled":false,"rental_uris":{"android":"levelo://app?vid=06c9f187-3277-47a5-bdd5-35571bc3badf","ios":"levelo://app?vid=06c9f187-3277-47a5-bdd5-35571bc3badf"},"vehicle_type_id":"4","last_reported":1737735061,"current_range_meters":11600,"station_id":"ce4bgjh2rcd13ifvqbg0","pricing_plan_id":"cebpf4jnsgd1na2vs0mg"},{"bike_id":"0683b8fa-bf66-4a85-b23f-305b1ef8e2c5","system_id":"levelo_inurba_marseille","lat":43.299,"lon":5.43677,"is_reserved":false,"is_disabled":true,"rental_uris":{"android":"levelo://app?vid=0683b8fa-bf66-4a85-b23f-305b1ef8e2c5","ios":"levelo://app?vid=0683b8fa-bf66-4a85-b23f-305b1ef8e2c5"},"vehicle_type_id":"4","last_reported":1737735061,"current_range_meters":0,"station_id":"ce4bhpp2rcd13ifvqhfg","pricing_plan_id":"cebpf4jnsgd1na2vs0mg"},{"bike_id":"1ec7ffaf-7c58-40dc-9818-4f5776979e15","system_id":"levelo_inurba_marseille","lat":43.27371,"lon":5.36262,"is_reserved":false,"is_disabled":false,"rental_uris":{"android":"levelo://app?vid=1ec7ffaf-7c58-40dc-9818-4f5776979e15","ios":"levelo://app?vid=1ec7ffaf-7c58-40dc-9818-4f5776979e15"},"vehicle_type_id":"4","last_reported":1737735061,"current_range_meters":28400,"station_id":"ce4bhbh2rcd13ifvqeo0","pricing_plan_id":"cebpf4jnsgd1na2vs0mg"},{"bike_id":"b6663470-0bb2-4d25-96c5-fa533bc2c675","system_id":"levelo_inurba_marseille","lat":43.33732,"lon":5.3918,"is_reserved":false,"is_disabled":false,"rental_uris":{"android":"levelo://app?vid=b6663470-0bb2-4d25-96c5-fa533bc2c675","ios":"levelo://app?vid=b6663470-0bb2-4d25-96c5-fa533bc2c675"},"vehicle_type_id":"4","last_reported":1737735061,"current_range_meters":38800,"station_id":"ce4bhr92rcd13ifvqhsg","pricing_plan_id":"cebpf4jnsgd1na2vs0mg"},{"bike_id":"4f272108-94ff-460b-af0d-645dff65830c","system_id":"levelo_inurba_marseille","lat":43.28433,"lon":5.35029,"is_reserved":false,"is_disabled":false,"rental_uris":{"android":"levelo://app?vid=4f272108-94ff-460b-af0d-645dff65830c","ios":"levelo://app?vid=4f272108-94ff-460b-af0d-645dff65830c"},"vehicle_type_id":"4","last_reported":1737735061,"current_range_meters":18800,"station_id":"ce4bhbh2rcd13ifvqepg","pricing_plan_id":"cebpf4jnsgd1na2vs0mg"},{"bike_id":"209afb04-5abe-47d5-87f2-ca8ee0a5c76b","system_id":"levelo_inurba_marseille","lat":43.27843,"lon":5.392,"is_reserved":false,"is_disabled":false,"rental_uris":{"android":"levelo://app?vid=209afb04-5abe-47d5-87f2-ca8ee0a5c76b","ios":"levelo://app?vid=209afb04-5abe-47d5-87f2-ca8ee0a5c76b"},"vehicle_type_id":"4","last_reported":1737735061,"current_range_meters":9600,"station_id":"ce4bhjp2rcd13ifvqga0","pricing_plan_id":"cebpf4jnsgd1na2vs0mg"},{"bike_id":"51f7f456-5a16-4400-8685-5cf9ace42d0d","system_id":"levelo_inurba_marseille","lat":43.27377,"lon":5.36254,"is_reserved":false,"is_disabled":false,"rental_uris":{"android":"levelo://app?vid=51f7f456-5a16-4400-8685-5cf9ace42d0d","ios":"levelo://app?vid=51f7f456-5a16-4400-8685-5cf9ace42d0d"},"vehicle_type_id":"4","last_reported":1737735061,"current_range_meters":14000,"station_id":"","pricing_plan_id":"cebpf4jnsgd1na2vs0mg"},{"bike_id":"78d4f20e-d7f1-4914-b87b-99aa5b196d3a","system_id":"levelo_inurba_marseille","lat":43.29905,"lon":5.3973,"is_reserved":false,"is_disabled":false,"rental_uris":{"android":"levelo://app?vid=78d4f20e-d7f1-4914-b87b-99aa5b196d3a","ios":"levelo://app?vid=78d4f20e-d7f1-4914-b87b-99aa5b196d3a"},"vehicle_type_id":"4","last_reported":1737735061,"current_range_meters":38800,"station_id":"ce4bh0h2rcd13ifvqd50","pricing_plan_id":"cebpf4jnsgd1na2vs0mg"},{"bike_id":"e4e54b6f-9b1a-4928-bf70-aea12798c57a","system_id":"levelo_inurba_marseille","lat":43.29532,"lon":5.3854,"is_reserved":false,"is_disabled":false,"rental_uris":{"android":"levelo://app?vid=e4e54b6f-9b1a-4928-bf70-aea12798c57a","ios":"levelo://app?vid=e4e54b6f-9b1a-4928-bf70-aea12798c57a"},"vehicle_type_id":"4","last_reported":1737735061,"current_range_meters":14000,"station_id":"ce4bgih2rcd13ifvqba0","pricing_plan_id":"cebpf4jnsgd1na2vs0mg"},{"bike_id":"b2031e03-bd63-4824-9ffb-d12ba424ef13","system_id":"levelo_inurba_marseille","lat":43.28075,"lon":5.39662,"is_reserved":false,"is_disabled":false,"rental_uris":{"android":"levelo://app?vid=b2031e03-bd63-4824-9ffb-d12ba424ef13","ios":"levelo://app?vid=b2031e03-bd63-4824-9ffb-d12ba424ef13"},"vehicle_type_id":"4","last_reported":1737735061,"current_range_meters":9600,"station_id":"ce4bho12rcd13ifvqh2g","pricing_plan_id":"cebpf4jnsgd1na2vs0mg"},{"bike_id":"cef1fddc-3f08-4432-bb99-d2681fce2ccb","system_id":"levelo_inurba_marseille","lat":43.31763,"lon":5.39011,"is_reserved":false,"is_disabled":false,"rental_uris":{"android":"levelo://app?vid=cef1fddc-3f08-4432-bb99-d2681fce2ccb","ios":"levelo://app?vid=cef1fddc-3f08-4432-bb99-d2681fce2ccb"},"vehicle_type_id":"4","last_reported":1737735061,"current_range_meters":37600,"station_id":"ce4bhqp2rcd13ifvqhng","pricing_plan_id":"cebpf4jnsgd1na2vs0mg"},{"bike_id":"db26516d-4ecb-415a-9085-700f58bc376b","system_id":"levelo_inurba_marseille","lat":43.2885,"lon":5.35833,"is_reserved":false,"is_disabled":false,"rental_uris":{"android":"levelo://app?vid=db26516d-4ecb-415a-9085-700f58bc376b","ios":"levelo://app?vid=db26516d-4ecb-415a-9085-700f58bc376b"},"vehicle_type_id":"4","last_reported":1737735061,"current_range_meters":10000,"station_id":"ce4bhb12rcd13ifvqem0","pricing_plan_id":"cebpf4jnsgd1na2vs0mg"},{"bike_id":"a6c60ad2-e593-4b0c-8875-c82d98876de9","system_id":"levelo_inurba_marseille","lat":43.27171,"lon":5.40992,"is_reserved":false,"is_disabled":false,"rental_uris":{"android":"levelo://app?vid=a6c60ad2-e593-4b0c-8875-c82d98876de9","ios":"levelo://app?vid=a6c60ad2-e593-4b0c-8875-c82d98876de9"},"vehicle_type_id":"4","last_reported":1737735061,"current_range_meters":24000,"station_id":"ce4bhl12rcd13ifvqgf0","pricing_plan_id":"cebpf4jnsgd1na2vs0mg"},{"bike_id":"4e93830c-589f-413d-9c1d-ba2ee232cc2b","system_id":"levelo_inurba_marseille","lat":43.28412,"lon":5.37512,"is_reserved":false,"is_disabled":true,"rental_uris":{"android":"levelo://app?vid=4e93830c-589f-413d-9c1d-ba2ee232cc2b","ios":"levelo://app?vid=4e93830c-589f-413d-9c1d-ba2ee232cc2b"},"vehicle_type_id":"4","last_reported":1737735061,"current_range_meters":16400,"station_id":"ce4bh412rcd13ifvqds0","pricing_plan_id":"cebpf4jnsgd1na2vs0mg"},{"bike_id":"26afcd1f-3cfe-4bb9-b45e-548ffad6e2de","system_id":"levelo_inurba_marseille","lat":43.33037,"lon":5.39059,"is_reserved":false,"is_disabled":false,"rental_uris":{"android":"levelo://app?vid=26afcd1f-3cfe-4bb9-b45e-548ffad6e2de","ios":"levelo://app?vid=26afcd1f-3cfe-4bb9-b45e-548ffad6e2de"},"vehicle_type_id":"4","last_reported":1737735061,"current_range_meters":12400,"station_id":"ce4bhr92rcd13ifvqhrg","pricing_plan_id":"cebpf4jnsgd1na2vs0mg"},{"bike_id":"033e3539-4f4c-4fa3-ad37-9f1909d3f28c","system_id":"levelo_inurba_marseille","lat":43.29811,"lon":5.40389,"is_reserved":false,"is_disabled":false,"rental_uris":{"android":"levelo://app?vid=033e3539-4f4c-4fa3-ad37-9f1909d3f28c","ios":"levelo://app?vid=033e3539-4f4c-4fa3-ad37-9f1909d3f28c"},"vehicle_type_id":"4","last_reported":1737735061,"current_range_meters":38800,"station_id":"ce4bh112rcd13ifvqd90","pricing_plan_id":"cebpf4jnsgd1na2vs0mg"},{"bike_id":"4c4f250f-bd2f-4d27-9cb0-9af1e3584693","system_id":"levelo_inurba_marseille","lat":43.266855,"lon":5.382765,"is_reserved":false,"is_disabled":false,"rental_uris":{"android":"levelo://app?vid=4c4f250f-bd2f-4d27-9cb0-9af1e3584693","ios":"levelo://app?vid=4c4f250f-bd2f-4d27-9cb0-9af1e3584693"},"vehicle_type_id":"4","last_reported":1737735061,"current_range_meters":38400,"station_id":"ce4bhg92rcd13ifvqf90","pricing_plan_id":"cebpf4jnsgd1na2vs0mg"},{"bike_id":"dc5edd18-4420-49a9-8853-3f69b628ff81","system_id":"levelo_inurba_marseille","lat":43.27926,"lon":5.38293,"is_reserved":false,"is_disabled":false,"rental_uris":{"android":"levelo://app?vid=dc5edd18-4420-49a9-8853-3f69b628ff81","ios":"levelo://app?vid=dc5edd18-4420-49a9-8853-3f69b628ff81"},"vehicle_type_id":"4","last_reported":1737735061,"current_range_meters":33200,"station_id":"ce4bhh92rcd13ifvqfi0","pricing_plan_id":"cebpf4jnsgd1na2vs0mg"},{"bike_id":"6f900f6c-050e-45e9-b86b-bb10b361008a","system_id":"levelo_inurba_marseille","lat":43.30093,"lon":5.39094,"is_reserved":false,"is_disabled":false,"rental_uris":{"android":"levelo://app?vid=6f900f6c-050e-45e9-b86b-bb10b361008a","ios":"levelo://app?vid=6f900f6c-050e-45e9-b86b-bb10b361008a"},"vehicle_type_id":"4","last_reported":1737735061,"current_range_meters":38000,"station_id":"ce4bh192rcd13ifvqdb0","pricing_plan_id":"cebpf4jnsgd1na2vs0mg"},{"bike_id":"576b8657-d5e2-4d23-9b1e-461b2180cd28","system_id":"levelo_inurba_marseille","lat":43.22933,"lon":5.35382,"is_reserved":false,"is_disabled":false,"rental_uris":{"android":"levelo://app?vid=576b8657-d5e2-4d23-9b1e-461b2180cd28","ios":"levelo://app?vid=576b8657-d5e2-4d23-9b1e-461b2180cd28"},"vehicle_type_id":"4","last_reported":1737735061,"current_range_meters":38800,"station_id":"cpo3532slgdg3j2ikp40","pricing_plan_id":"cebpf4jnsgd1na2vs0mg"},{"bike_id":"67b7352b-23dd-45c2-a4a5-78d91ddcc356","system_id":"levelo_inurba_marseille","lat":43.29371,"lon":5.37875,"is_reserved":false,"is_disabled":false,"rental_uris":{"android":"levelo://app?vid=67b7352b-23dd-45c2-a4a5-78d91ddcc356","ios":"levelo://app?vid=67b7352b-23dd-45c2-a4a5-78d91ddcc356"},"vehicle_type_id":"4","last_reported":1737735061,"current_range_meters":9200,"station_id":"ce4bgjh2rcd13ifvqbf0","pricing_plan_id":"cebpf4jnsgd1na2vs0mg"},{"bike_id":"1041b9e6-0cf7-4f25-81c3-be28c0444178","system_id":"levelo_inurba_marseille","lat":43.26688,"lon":5.3828,"is_reserved":false,"is_disabled":false,"rental_uris":{"android":"levelo://app?vid=1041b9e6-0cf7-4f25-81c3-be28c0444178","ios":"levelo://app?vid=1041b9e6-0cf7-4f25-81c3-be28c0444178"},"vehicle_type_id":"4","last_reported":1737735061,"current_range_meters":37600,"station_id":"ce4bhg92rcd13ifvqf90","pricing_plan_id":"cebpf4jnsgd1na2vs0mg"},{"bike_id":"8681b4f0-f70d-4ae9-bc77-525a728117e8","system_id":"levelo_inurba_marseille","lat":43.27373,"lon":5.36249,"is_reserved":false,"is_disabled":true,"rental_uris":{"android":"levelo://app?vid=8681b4f0-f70d-4ae9-bc77-525a728117e8","ios":"levelo://app?vid=8681b4f0-f70d-4ae9-bc77-525a728117e8"},"vehicle_type_id":"4","last_reported":1737735061,"current_range_meters":400,"station_id":"ce4bhbh2rcd13ifvqeo0","pricing_plan_id":"cebpf4jnsgd1na2vs0mg"},{"bike_id":"65bf9402-f876-4b88-adaf-b40cf3b01798","system_id":"levelo_inurba_marseille","lat":43.27323,"lon":5.39149,"is_reserved":false,"is_disabled":true,"rental_uris":{"android":"levelo://app?vid=65bf9402-f876-4b88-adaf-b40cf3b01798","ios":"levelo://app?vid=65bf9402-f876-4b88-adaf-b40cf3b01798"},"vehicle_type_id":"4","last_reported":1737735061,"current_range_meters":1600,"station_id":"ce4bhgp2rcd13ifvqfe0","pricing_plan_id":"cebpf4jnsgd1na2vs0mg"},{"bike_id":"aba9635a-2b11-43ff-81b3-7bb114eba0c8","system_id":"levelo_inurba_marseille","lat":43.30315,"lon":5.4045,"is_reserved":false,"is_disabled":true,"rental_uris":{"android":"levelo://app?vid=aba9635a-2b11-43ff-81b3-7bb114eba0c8","ios":"levelo://app?vid=aba9635a-2b11-43ff-81b3-7bb114eba0c8"},"vehicle_type_id":"4","last_reported":1737735061,"current_range_meters":0,"station_id":"ce4bh012rcd13ifvqd10","pricing_plan_id":"cebpf4jnsgd1na2vs0mg"},{"bike_id":"52bb69b8-1e35-47a3-94ef-b1f6761df696","system_id":"levelo_inurba_marseille","lat":43.301,"lon":5.39099,"is_reserved":false,"is_disabled":false,"rental_uris":{"android":"levelo://app?vid=52bb69b8-1e35-47a3-94ef-b1f6761df696","ios":"levelo://app?vid=52bb69b8-1e35-47a3-94ef-b1f6761df696"},"vehicle_type_id":"4","last_reported":1737735061,"current_range_meters":25200,"station_id":"ce4bh192rcd13ifvqdb0","pricing_plan_id":"cebpf4jnsgd1na2vs0mg"},{"bike_id":"3a8078f3-240e-4395-b23f-3da23819c9a0","system_id":"levelo_inurba_marseille","lat":43.27819,"lon":5.40715,"is_reserved":false,"is_disabled":false,"rental_uris":{"android":"levelo://app?vid=3a8078f3-240e-4395-b23f-3da23819c9a0","ios":"levelo://app?vid=3a8078f3-240e-4395-b23f-3da23819c9a0"},"vehicle_type_id":"4","last_reported":1737735061,"current_range_meters":9600,"station_id":"ce4bhnh2rcd13ifvqgtg","pricing_plan_id":"cebpf4jnsgd1na2vs0mg"},{"bike_id":"0c184a37-ed1e-49f8-9878-651470ae5991","system_id":"levelo_inurba_marseille","lat":43.2963,"lon":5.3715,"is_reserved":false,"is_disabled":false,"rental_uris":{"android":"levelo://app?vid=0c184a37-ed1e-49f8-9878-651470ae5991","ios":"levelo://app?vid=0c184a37-ed1e-49f8-9878-651470ae5991"},"vehicle_type_id":"4","last_reported":1737735061,"current_range_meters":16000,"station_id":"ce4bgnh2rcd13ifvqc0g","pricing_plan_id":"cebpf4jnsgd1na2vs0mg"},{"bike_id":"a6ed32e1-5f77-48e1-a52f-af930b732239","system_id":"levelo_inurba_marseille","lat":43.31727,"lon":5.4239,"is_reserved":false,"is_disabled":false,"rental_uris":{"android":"levelo://app?vid=a6ed32e1-5f77-48e1-a52f-af930b732239","ios":"levelo://app?vid=a6ed32e1-5f77-48e1-a52f-af930b732239"},"vehicle_type_id":"4","last_reported":1737735061,"current_range_meters":38800,"station_id":"ce4bhp92rcd13ifvqhbg","pricing_plan_id":"cebpf4jnsgd1na2vs0mg"},{"bike_id":"b1f83aae-ce91-43c1-908a-3715b1c271cd","system_id":"levelo_inurba_marseille","lat":43.32362,"lon":5.38881,"is_reserved":false,"is_disabled":true,"rental_uris":{"android":"levelo://app?vid=b1f83aae-ce91-43c1-908a-3715b1c271cd","ios":"levelo://app?vid=b1f83aae-ce91-43c1-908a-3715b1c271cd"},"vehicle_type_id":"4","last_reported":1737735061,"current_range_meters":0,"station_id":"ce4bhqp2rcd13ifvqhog","pricing_plan_id":"cebpf4jnsgd1na2vs0mg"},{"bike_id":"b984fd83-0fc4-47a8-919e-2aae5d60d366","system_id":"levelo_inurba_marseille","lat":43.27055,"lon":5.40273,"is_reserved":false,"is_disabled":false,"rental_uris":{"android":"levelo://app?vid=b984fd83-0fc4-47a8-919e-2aae5d60d366","ios":"levelo://app?vid=b984fd83-0fc4-47a8-919e-2aae5d60d366"},"vehicle_type_id":"4","last_reported":1737735061,"current_range_meters":10800,"station_id":"ce4bhk92rcd13ifvqgc0","pricing_plan_id":"cebpf4jnsgd1na2vs0mg"},{"bike_id":"8e684fe1-e823-4367-81c0-b3c2dedc805b","system_id":"levelo_inurba_marseille","lat":43.296299,"lon":5.371704,"is_reserved":false,"is_disabled":false,"rental_uris":{"android":"levelo://app?vid=8e684fe1-e823-4367-81c0-b3c2dedc805b","ios":"levelo://app?vid=8e684fe1-e823-4367-81c0-b3c2dedc805b"},"vehicle_type_id":"4","last_reported":1737735061,"current_range_meters":38800,"station_id":"ce4bgnh2rcd13ifvqc0g","pricing_plan_id":"cebpf4jnsgd1na2vs0mg"},{"bike_id":"46950979-8bd6-4f20-80e2-0c80f9b5d2e3","system_id":"levelo_inurba_marseille","lat":43.25496,"lon":5.37647,"is_reserved":false,"is_disabled":false,"rental_uris":{"android":"levelo://app?vid=46950979-8bd6-4f20-80e2-0c80f9b5d2e3","ios":"levelo://app?vid=46950979-8bd6-4f20-80e2-0c80f9b5d2e3"},"vehicle_type_id":"4","last_reported":1737735061,"current_range_meters":18000,"station_id":"ce4bhh12rcd13ifvqff0","pricing_plan_id":"cebpf4jnsgd1na2vs0mg"},{"bike_id":"7a62623b-3351-4c09-8ada-d1ad6f796b1d","system_id":"levelo_inurba_marseille","lat":43.27967,"lon":5.41021,"is_reserved":false,"is_disabled":false,"rental_uris":{"android":"levelo://app?vid=7a62623b-3351-4c09-8ada-d1ad6f796b1d","ios":"levelo://app?vid=7a62623b-3351-4c09-8ada-d1ad6f796b1d"},"vehicle_type_id":"4","last_reported":1737735061,"current_range_meters":19200,"station_id":"ce4bhnp2rcd13ifvqh0g","pricing_plan_id":"cebpf4jnsgd1na2vs0mg"},{"bike_id":"a496b33c-2d9a-4a8d-9f35-27b8cde27e72","system_id":"levelo_inurba_marseille","lat":43.2953,"lon":5.3855,"is_reserved":false,"is_disabled":false,"rental_uris":{"android":"levelo://app?vid=a496b33c-2d9a-4a8d-9f35-27b8cde27e72","ios":"levelo://app?vid=a496b33c-2d9a-4a8d-9f35-27b8cde27e72"},"vehicle_type_id":"4","last_reported":1737735061,"current_range_meters":36400,"station_id":"ce4bgih2rcd13ifvqba0","pricing_plan_id":"cebpf4jnsgd1na2vs0mg"},{"bike_id":"e16734f2-1042-4d13-86c7-f08b92246302","system_id":"levelo_inurba_marseille","lat":43.25118,"lon":5.40315,"is_reserved":false,"is_disabled":false,"rental_uris":{"android":"levelo://app?vid=e16734f2-1042-4d13-86c7-f08b92246302","ios":"levelo://app?vid=e16734f2-1042-4d13-86c7-f08b92246302"},"vehicle_type_id":"4","last_reported":1737735061,"current_range_meters":4800,"station_id":"ce4bhlh2rcd13ifvqgig","pricing_plan_id":"cebpf4jnsgd1na2vs0mg"},{"bike_id":"447b8a66-f5d2-457d-bf9b-ac995915c91a","system_id":"levelo_inurba_marseille","lat":43.2983,"lon":5.42026,"is_reserved":false,"is_disabled":false,"rental_uris":{"android":"levelo://app?vid=447b8a66-f5d2-457d-bf9b-ac995915c91a","ios":"levelo://app?vid=447b8a66-f5d2-457d-bf9b-ac995915c91a"},"vehicle_type_id":"4","last_reported":1737735061,"current_range_meters":8800,"station_id":"","pricing_plan_id":"cebpf4jnsgd1na2vs0mg"},{"bike_id":"91efe6ba-6a0e-4e8b-9fca-14b75128f5d5","system_id":"levelo_inurba_marseille","lat":43.30356,"lon":5.40544,"is_reserved":false,"is_disabled":true,"rental_uris":{"android":"levelo://app?vid=91efe6ba-6a0e-4e8b-9fca-14b75128f5d5","ios":"levelo://app?vid=91efe6ba-6a0e-4e8b-9fca-14b75128f5d5"},"vehicle_type_id":"4","last_reported":1737735061,"current_range_meters":0,"station_id":"","pricing_plan_id":"cebpf4jnsgd1na2vs0mg"},{"bike_id":"385b05f4-cd67-4fc0-bab8-48a839de2db4","system_id":"levelo_inurba_marseille","lat":43.30859,"lon":5.37032,"is_reserved":false,"is_disabled":true,"rental_uris":{"android":"levelo://app?vid=385b05f4-cd67-4fc0-bab8-48a839de2db4","ios":"levelo://app?vid=385b05f4-cd67-4fc0-bab8-48a839de2db4"},"vehicle_type_id":"4","last_reported":1737735061,"current_range_meters":1200,"station_id":"","pricing_plan_id":"cebpf4jnsgd1na2vs0mg"},{"bike_id":"6fd73f4f-1954-4782-9e90-de7f65b3c67c","system_id":"levelo_inurba_marseille","lat":43.31766,"lon":5.39007,"is_reserved":false,"is_disabled":false,"rental_uris":{"android":"levelo://app?vid=6fd73f4f-1954-4782-9e90-de7f65b3c67c","ios":"levelo://app?vid=6fd73f4f-1954-4782-9e90-de7f65b3c67c"},"vehicle_type_id":"4","last_reported":1737735061,"current_range_meters":38800,"station_id":"ce4bhqp2rcd13ifvqhng","pricing_plan_id":"cebpf4jnsgd1na2vs0mg"},{"bike_id":"7db52b9f-ce79-4063-a90d-1d006402972c","system_id":"levelo_inurba_marseille","lat":43.32371,"lon":5.36696,"is_reserved":false,"is_disabled":false,"rental_uris":{"android":"levelo://app?vid=7db52b9f-ce79-4063-a90d-1d006402972c","ios":"levelo://app?vid=7db52b9f-ce79-4063-a90d-1d006402972c"},"vehicle_type_id":"4","last_reported":1737735061,"current_range_meters":22400,"station_id":"ce4bhsh2rcd13ifvqi2g","pricing_plan_id":"cebpf4jnsgd1na2vs0mg"},{"bike_id":"0052a5eb-691e-4f77-bb5a-de7425c3689f","system_id":"levelo_inurba_marseille","lat":43.29567,"lon":5.37513,"is_reserved":false,"is_disabled":false,"rental_uris":{"android":"levelo://app?vid=0052a5eb-691e-4f77-bb5a-de7425c3689f","ios":"levelo://app?vid=0052a5eb-691e-4f77-bb5a-de7425c3689f"},"vehicle_type_id":"4","last_reported":1737735061,"current_range_meters":5600,"station_id":"ce4bgh92rcd13ifvqb50","pricing_plan_id":"cebpf4jnsgd1na2vs0mg"},{"bike_id":"57309b83-05b2-41b4-8354-d8a9957344ad","system_id":"levelo_inurba_marseille","lat":43.26525,"lon":5.39536,"is_reserved":false,"is_disabled":false,"rental_uris":{"android":"levelo://app?vid=57309b83-05b2-41b4-8354-d8a9957344ad","ios":"levelo://app?vid=57309b83-05b2-41b4-8354-d8a9957344ad"},"vehicle_type_id":"4","last_reported":1737735061,"current_range_meters":27600,"station_id":"ce4bhi12rcd13ifvqfq0","pricing_plan_id":"cebpf4jnsgd1na2vs0mg"},{"bike_id":"7f29fcf4-afe8-47ae-a3bc-9c2c9a11a0e5","system_id":"levelo_inurba_marseille","lat":43.32477,"lon":5.36577,"is_reserved":false,"is_disabled":false,"rental_uris":{"android":"levelo://app?vid=7f29fcf4-afe8-47ae-a3bc-9c2c9a11a0e5","ios":"levelo://app?vid=7f29fcf4-afe8-47ae-a3bc-9c2c9a11a0e5"},"vehicle_type_id":"4","last_reported":1737735061,"current_range_meters":27200,"station_id":"ce4bhs12rcd13ifvqhvg","pricing_plan_id":"cebpf4jnsgd1na2vs0mg"},{"bike_id":"6f91d618-21e7-4346-9444-3a1bb0416f40","system_id":"levelo_inurba_marseille","lat":43.299,"lon":5.43679,"is_reserved":false,"is_disabled":false,"rental_uris":{"android":"levelo://app?vid=6f91d618-21e7-4346-9444-3a1bb0416f40","ios":"levelo://app?vid=6f91d618-21e7-4346-9444-3a1bb0416f40"},"vehicle_type_id":"4","last_reported":1737735061,"current_range_meters":18800,"station_id":"ce4bhpp2rcd13ifvqhfg","pricing_plan_id":"cebpf4jnsgd1na2vs0mg"},{"bike_id":"44d5f845-582d-47f7-a75b-d08ad1f80c50","system_id":"levelo_inurba_marseille","lat":43.29528,"lon":5.3855,"is_reserved":false,"is_disabled":false,"rental_uris":{"android":"levelo://app?vid=44d5f845-582d-47f7-a75b-d08ad1f80c50","ios":"levelo://app?vid=44d5f845-582d-47f7-a75b-d08ad1f80c50"},"vehicle_type_id":"4","last_reported":1737735061,"current_range_meters":23200,"station_id":"ce4bgih2rcd13ifvqba0","pricing_plan_id":"cebpf4jnsgd1na2vs0mg"},{"bike_id":"3bf12a8d-b3df-4d30-8d55-1fb43e949618","system_id":"levelo_inurba_marseille","lat":43.29032,"lon":5.38127,"is_reserved":false,"is_disabled":false,"rental_uris":{"android":"levelo://app?vid=3bf12a8d-b3df-4d30-8d55-1fb43e949618","ios":"levelo://app?vid=3bf12a8d-b3df-4d30-8d55-1fb43e949618"},"vehicle_type_id":"4","last_reported":1737735061,"current_range_meters":6800,"station_id":"ce4bh4p2rcd13ifvqe1g","pricing_plan_id":"cebpf4jnsgd1na2vs0mg"},