{"last_updated":1686924363,"ttl":30,"version":"2.2","data":{"bikes":[{"bike_id":"83d1524a-d1b7-463e-9000-1b60a9499af0","system_id":"levelo_inurba_marseille","lat":43.31341,"lon":5.367098,"is_reserved":false,"is_disabled":false,"rental_uris":{"android":"levelo://app?vid=83d1524a-d1b7-463e-9000-1b60a9499af0","ios":"levelo://app?vid=83d1524a-d1b7-463e-9000-1b60a9499af0"},"vehicle_type_id":"4","last_reported":1686924364,"current_range_meters":31600,"station_id":"ce4bgr92rcd13ifvqc6g","pricing_plan_id":"free"},{"bike_id":"13b89c25-a512-4907-9411-dbea2fd1751f","system_id":"levelo_inurba_marseille","lat":43.31341,"lon":5.367098,"is_reserved":false,"is_disabled":false,"rental_uris":{"android":"levelo://app?vid=13b89c25-a512-4907-9411-dbea2fd1751f","ios":"levelo://app?vid=13b89c25-a512-4907-9411-dbea2fd1751f"},"vehicle_type_id":"4","last_reported":1686924364,"current_range_meters":29200,"station_id":"ce4bgr92rcd13ifvqc6g","pricing_plan_id":"free"},{"bike_id":"23cd70a6-719f-415c-96cb-39c6d0d19f85","system_id":"levelo_inurba_marseille","lat":43.313391,"lon":5.36706,"is_reserved":false,"is_disabled":false,"rental_uris":{"android":"levelo://app?vid=23cd70a6-719f-415c-96cb-39c6d0d19f85","ios":"levelo://app?vid=23cd70a6-719f-415c-96cb-39c6d0d19f85"},"vehicle_type_id":"4","last_reported":1686924364,"current_range_meters":26800,"station_id":"ce4bgr92rcd13ifvqc6g","pricing_plan_id":"free"},{"bike_id":"6e23f689-ae1f-42a6-89cd-72a48943868a","system_id":"levelo_inurba_marseille","lat":43.313391,"lon":5.36706,"is_reserved":false,"is_disabled":false,"rental_uris":{"android":"levelo://app?vid=6e23f689-ae1f-42a6-89cd-72a48943868a","ios":"levelo://app?vid=6e23f689-ae1f-42a6-89cd-72a48943868a"},"vehicle_type_id":"4","last_reported":1686924364,"current_range_meters":30400,"station_id":"ce4bgr92rcd13ifvqc6g","pricing_plan_id":"free"},{"bike_id":"4985f093-c9b5-48d9-a55e-75f3930273ec","system_id":"levelo_inurba_marseille","lat":43.313391,"lon":5.36706,"is_reserved":false,"is_disabled":false,"rental_uris":{"android":"levelo://app?vid=4985f093-c9b5-48d9-a55e-75f3930273ec","ios":"levelo://app?vid=4985f093-c9b5-48d9-a55e-75f3930273ec"},"vehicle_type_id":"4","last_reported":1686924364,"current_range_meters":30400,"station_id":"ce4bgr92rcd13ifvqc6g","pricing_plan_id":"free"},{"bike_id":"fbcf0a04-e88a-4e02-8c57-7b700d1b88db","system_id":"levelo_inurba_marseille","lat":43.31225,"lon":5.36838,"is_reserved":false,"is_disabled":false,"rental_uris":{"android":"levelo://app?vid=fbcf0a04-e88a-4e02-8c57-7b700d1b88db","ios":"levelo://app?vid=fbcf0a04-e88a-4e02-8c57-7b700d1b88db"},"vehicle_type_id":"4","last_reported":1686924364,"current_range_meters":7600,"station_id":"ce4bgl92rcd13ifvqbq0","pricing_plan_id":"free"},{"bike_id":"7d98e3a1-16bd-4122-95f4-f5138a6d0b24","system_id":"levelo_inurba_marseille","lat":43.31226,"lon":5.36851,"is_reserved":false,"is_disabled":false,"rental_uris":{"android":"levelo://app?vid=7d98e3a1-16bd-4122-95f4-f5138a6d0b24","ios":"levelo://app?vid=7d98e3a1-16bd-4122-95f4-f5138a6d0b24"},"vehicle_type_id":"4","last_reported":1686924364,"current_range_meters":8800,"station_id":"ce4bgl92rcd13ifvqbq0","pricing_plan_id":"free"},{"bike_id":"86996903-f966-46f2-9697-574a952a3594","system_id":"levelo_inurba_marseille","lat":43.3122,"lon":5.3685,"is_reserved":false,"is_disabled":false,"rental_uris":{"android":"levelo://app?vid=86996903-f966-46f2-9697-574a952a3594","ios":"levelo://app?vid=86996903-f966-46f2-9697-574a952a3594"},"vehicle_type_id":"4","last_reported":1686924364,"current_range_meters":400,"station_id":"ce4bgl92rcd13ifvqbq0","pricing_plan_id":"free"},{"bike_id":"4023dcab-eff1-4e63-93a9-9911a84196d1","system_id":"levelo_inurba_marseille","lat":43.31224,"lon":5.36854,"is_reserved":false,"is_disabled":false,"rental_uris":{"android":"levelo://app?vid=4023dcab-eff1-4e63-93a9-9911a84196d1","ios":"levelo://app?vid=4023dcab-eff1-4e63-93a9-9911a84196d1"},"vehicle_type_id":"4","last_reported":1686924364,"current_range_meters":22400,"station_id":"ce4bgl92rcd13ifvqbq0","pricing_plan_id":"free"},{"bike_id":"62451ac7-78ca-4ee6-83ca-ca8e6092cc8f","system_id":"levelo_inurba_marseille","lat":43.31217,"lon":5.36852,"is_reserved":false,"is_disabled":false,"rental_uris":{"android":"levelo://app?vid=62451ac7-78ca-4ee6-83ca-ca8e6092cc8f","ios":"levelo://app?vid=62451ac7-78ca-4ee6-83ca-ca8e6092cc8f"},"vehicle_type_id":"4","last_reported":1686924364,"current_range_meters":27600,"station_id":"ce4bgl92rcd13ifvqbq0","pricing_plan_id":"free"},{"bike_id":"f6ed5f6b-a81c-4284-aae3-52377d741057","system_id":"levelo_inurba_marseille","lat":43.30914,"lon":5.36854,"is_reserved":false,"is_disabled":false,"rental_uris":{"android":"levelo://app?vid=f6ed5f6b-a81c-4284-aae3-52377d741057","ios":"levelo://app?vid=f6ed5f6b-a81c-4284-aae3-52377d741057"},"vehicle_type_id":"4","last_reported":1686924364,"current_range_meters":26000,"station_id":"ce4bgn92rcd13ifvqbvg","pricing_plan_id":"free"},{"bike_id":"b6d7ef67-8fa1-45b9-854c-640a6c441d0b","system_id":"levelo_inurba_marseille","lat":43.3091,"lon":5.36854,"is_reserved":false,"is_disabled":false,"rental_uris":{"android":"levelo://app?vid=b6d7ef67-8fa1-45b9-854c-640a6c441d0b","ios":"levelo://app?vid=b6d7ef67-8fa1-45b9-854c-640a6c441d0b"},"vehicle_type_id":"4","last_reported":1686924364,"current_range_meters":26400,"station_id":"ce4bgn92rcd13ifvqbvg","pricing_plan_id":"free"},{"bike_id":"f3497848-7672-404e-8a5b-a9068a680d61","system_id":"levelo_inurba_marseille","lat":43.314811,"lon":5.373103,"is_reserved":false,"is_disabled":false,"rental_uris":{"android":"levelo://app?vid=f3497848-7672-404e-8a5b-a9068a680d61","ios":"levelo://app?vid=f3497848-7672-404e-8a5b-a9068a680d61"},"vehicle_type_id":"4","last_reported":1686924364,"current_range_meters":23600,"station_id":"ce4bgt12rcd13ifvqcd0","pricing_plan_id":"free"},{"bike_id":"3a101825-70fd-4b6e-898d-c16956a4d752","system_id":"levelo_inurba_marseille","lat":43.308606,"lon":5.372099,"is_reserved":false,"is_disabled":false,"rental_uris":{"android":"levelo://app?vid=3a101825-70fd-4b6e-898d-c16956a4d752","ios":"levelo://app?vid=3a101825-70fd-4b6e-898d-c16956a4d752"},"vehicle_type_id":"4","last_reported":1686924364,"current_range_meters":26000,"station_id":"ce4bguh2rcd13ifvqckg","pricing_plan_id":"free"},{"bike_id":"56f99878-8e27-41d2-b233-605b75b53125","system_id":"levelo_inurba_marseille","lat":43.308606,"lon":5.372099,"is_reserved":false,"is_disabled":false,"rental_uris":{"android":"levelo://app?vid=56f99878-8e27-41d2-b233-605b75b53125","ios":"levelo://app?vid=56f99878-8e27-41d2-b233-605b75b53125"},"vehicle_type_id":"4","last_reported":1686924364,"current_range_meters":12800,"station_id":"ce4bguh2rcd13ifvqckg","pricing_plan_id":"free"},{"bike_id":"ecdac1d2-c5da-4b48-8b4d-122a04abd915","system_id":"levelo_inurba_marseille","lat":43.305368,"lon":5.367343,"is_reserved":false,"is_disabled":false,"rental_uris":{"android":"levelo://app?vid=ecdac1d2-c5da-4b48-8b4d-122a04abd915","ios":"levelo://app?vid=ecdac1d2-c5da-4b48-8b4d-122a04abd915"},"vehicle_type_id":"4","last_reported":1686924364,"current_range_meters":18400,"station_id":"ce4bgrp2rcd13ifvqc9g","pricing_plan_id":"free"},{"bike_id":"0361b85f-9dad-4090-991c-5f4294324c05","system_id":"levelo_inurba_marseille","lat":43.311125,"lon":5.377624,"is_reserved":false,"is_disabled":false,"rental_uris":{"android":"levelo://app?vid=0361b85f-9dad-4090-991c-5f4294324c05","ios":"levelo://app?vid=0361b85f-9dad-4090-991c-5f4294324c05"},"vehicle_type_id":"4","last_reported":1686924364,"current_range_meters":18400,"station_id":"ce4bgt92rcd13ifvqcg0","pricing_plan_id":"free"},{"bike_id":"b37b48a2-461a-48c5-9170-e5eae3329e23","system_id":"levelo_inurba_marseille","lat":43.311125,"lon":5.377624,"is_reserved":false,"is_disabled":false,"rental_uris":{"android":"levelo://app?vid=b37b48a2-461a-48c5-9170-e5eae3329e23","ios":"levelo://app?vid=b37b48a2-461a-48c5-9170-e5eae3329e23"},"vehicle_type_id":"4","last_reported":1686924364,"current_range_meters":18000,"station_id":"ce4bgt92rcd13ifvqcg0","pricing_plan_id":"free"},{"bike_id":"bf5e29c2-0ca3-4bf7-a44f-9f518b68c89f","system_id":"levelo_inurba_marseille","lat":43.317075,"lon":5.377367,"is_reserved":false,"is_disabled":false,"rental_uris":{"android":"levelo://app?vid=bf5e29c2-0ca3-4bf7-a44f-9f518b68c89f","ios":"levelo://app?vid=bf5e29c2-0ca3-4bf7-a44f-9f518b68c89f"},"vehicle_type_id":"4","last_reported":1686924364,"current_range_meters":29600,"station_id":"ce4bgth2rcd13ifvqch0","pricing_plan_id":"free"},{"bike_id":"3d5f511e-1fc9-4b72-ae77-6251a9edff4e","system_id":"levelo_inurba_marseille","lat":43.317075,"lon":5.377367,"is_reserved":false,"is_disabled":false,"rental_uris":{"android":"levelo://app?vid=3d5f511e-1fc9-4b72-ae77-6251a9edff4e","ios":"levelo://app?vid=3d5f511e-1fc9-4b72-ae77-6251a9edff4e"},"vehicle_type_id":"4","last_reported":1686924364,"current_range_meters":31600,"station_id":"ce4bgth2rcd13ifvqch0","pricing_plan_id":"free"},{"bike_id":"2424216c-0462-4ad0-b127-d0366c91b61c","system_id":"levelo_inurba_marseille","lat":43.31713,"lon":5.37757,"is_reserved":false,"is_disabled":false,"rental_uris":{"android":"levelo://app?vid=2424216c-0462-4ad0-b127-d0366c91b61c","ios":"levelo://app?vid=2424216c-0462-4ad0-b127-d0366c91b61c"},"vehicle_type_id":"4","last_reported":1686924364,"current_range_meters":30400,"station_id":"ce4bgth2rcd13ifvqch0","pricing_plan_id":"free"},{"bike_id":"6ac3acf7-2c68-4cb9-8e48-4869ad2ef0e6","system_id":"levelo_inurba_marseille","lat":43.31531,"lon":5.3804,"is_reserved":false,"is_disabled":false,"rental_uris":{"android":"levelo://app?vid=6ac3acf7-2c68-4cb9-8e48-4869ad2ef0e6","ios":"levelo://app?vid=6ac3acf7-2c68-4cb9-8e48-4869ad2ef0e6"},"vehicle_type_id":"4","last_reported":1686924364,"current_range_meters":12400,"station_id":"ce4bhsp2rcd13ifvqi50","pricing_plan_id":"free"},{"bike_id":"d8a5e6fb-1abf-4c84-b6ec-18516ca62dfa","system_id":"levelo_inurba_marseille","lat":43.31534,"lon":5.3804,"is_reserved":false,"is_disabled":false,"rental_uris":{"android":"levelo://app?vid=d8a5e6fb-1abf-4c84-b6ec-18516ca62dfa","ios":"levelo://app?vid=d8a5e6fb-1abf-4c84-b6ec-18516ca62dfa"},"vehicle_type_id":"4","last_reported":1686924364,"current_range_meters":26000,"station_id":"ce4bhsp2rcd13ifvqi50","pricing_plan_id":"free"},{"bike_id":"ae33307b-fcd5-479b-9ae1-9002ed226c6e","system_id":"levelo_inurba_marseille","lat":43.308012,"lon":5.381511,"is_reserved":false,"is_disabled":false,"rental_uris":{"android":"levelo://app?vid=ae33307b-fcd5-479b-9ae1-9002ed226c6e","ios":"levelo://app?vid=ae33307b-fcd5-479b-9ae1-9002ed226c6e"},"vehicle_type_id":"4","last_reported":1686924364,"current_range_meters":14800,"station_id":"ce4bgt12rcd13ifvqce0","pricing_plan_id":"free"},{"bike_id":"32827146-2d6b-4fb1-b00e-6b2f535ca544","system_id":"levelo_inurba_marseille","lat":43.30493,"lon":5.37942,"is_reserved":false,"is_disabled":false,"rental_uris":{"android":"levelo://app?vid=32827146-2d6b-4fb1-b00e-6b2f535ca544","ios":"levelo://app?vid=32827146-2d6b-4fb1-b00e-6b2f535ca544"},"vehicle_type_id":"4","last_reported":1686924364,"current_range_meters":31200,"station_id":"","pricing_plan_id":"free"},{"bike_id":"fc4a69da-5dee-4c68-8631-20ee11bc487b","system_id":"levelo_inurba_marseille","lat":43.304606,"lon":5.379026,"is_reserved":false,"is_disabled":false,"rental_uris":{"android":"levelo://app?vid=fc4a69da-5dee-4c68-8631-20ee11bc487b","ios":"levelo://app?vid=fc4a69da-5dee-4c68-8631-20ee11bc487b"},"vehicle_type_id":"4","last_reported":1686924364,"current_range_meters":28400,"station_id":"ce4bgup2rcd13ifvqcn0","pricing_plan_id":"free"},{"bike_id":"eea441af-46ff-4763-9e36-6f2455a12efe","system_id":"levelo_inurba_marseille","lat":43.304841,"lon":5.379503,"is_reserved":false,"is_disabled":false,"rental_uris":{"android":"levelo://app?vid=eea441af-46ff-4763-9e36-6f2455a12efe","ios":"levelo://app?vid=eea441af-46ff-4763-9e36-6f2455a12efe"},"vehicle_type_id":"4","last_reported":1686924364,"current_range_meters":22000,"station_id":"","pricing_plan_id":"free"},{"bike_id":"23a36f57-736e-464b-b62c-4c6dcfa99acb","system_id":"levelo_inurba_marseille","lat":43.31999,"lon":5.38149,"is_reserved":false,"is_disabled":false,"rental_uris":{"android":"levelo://app?vid=23a36f57-736e-464b-b62c-4c6dcfa99acb","ios":"levelo://app?vid=23a36f57-736e-464b-b62c-4c6dcfa99acb"},"vehicle_type_id":"4","last_reported":1686924364,"current_range_meters":31600,"station_id":"ce4bhr12rcd13ifvqhpg","pricing_plan_id":"free"},{"bike_id":"938c2523-e163-430c-9aa5-25a14ff7427d","system_id":"levelo_inurba_marseille","lat":43.2999,"lon":5.36783,"is_reserved":false,"is_disabled":false,"rental_uris":{"android":"levelo://app?vid=938c2523-e163-430c-9aa5-25a14ff7427d","ios":"levelo://app?vid=938c2523-e163-430c-9aa5-25a14ff7427d"},"vehicle_type_id":"4","last_reported":1686924364,"current_range_meters":17600,"station_id":"","pricing_plan_id":"free"},{"bike_id":"80b8aadd-cfc3-477d-b092-db9e7f864b00","system_id":"levelo_inurba_marseille","lat":43.319987,"lon":5.381644,"is_reserved":false,"is_disabled":false,"rental_uris":{"android":"levelo://app?vid=80b8aadd-cfc3-477d-b092-db9e7f864b00","ios":"levelo://app?vid=80b8aadd-cfc3-477d-b092-db9e7f864b00"},"vehicle_type_id":"4","last_reported":1686924364,"current_range_meters":16800,"station_id":"ce4bhr12rcd13ifvqhpg","pricing_plan_id":"free"},{"bike_id":"89c7b2bd-014d-4f62-a7f5-d234f92ece2f","system_id":"levelo_inurba_marseille","lat":43.313571,"lon":5.384829,"is_reserved":false,"is_disabled":false,"rental_uris":{"android":"levelo://app?vid=89c7b2bd-014d-4f62-a7f5-d234f92ece2f","ios":"levelo://app?vid=89c7b2bd-014d-4f62-a7f5-d234f92ece2f"},"vehicle_type_id":"4","last_reported":1686924364,"current_range_meters":24800,"station_id":"ce4bgt92rcd13ifvqcf0","pricing_plan_id":"free"},{"bike_id":"1ebaf0be-89e7-4906-b639-8e6638cbe310","system_id":"levelo_inurba_marseille","lat":43.313571,"lon":5.384829,"is_reserved":false,"is_disabled":false,"rental_uris":{"android":"levelo://app?vid=1ebaf0be-89e7-4906-b639-8e6638cbe310","ios":"levelo://app?vid=1ebaf0be-89e7-4906-b639-8e6638cbe310"},"vehicle_type_id":"4","last_reported":1686924364,"current_range_meters":3600,"station_id":"ce4bgt92rcd13ifvqcf0","pricing_plan_id":"free"},{"bike_id":"330412da-b9eb-49fa-9ba0-9288ee9ddd31","system_id":"levelo_inurba_marseille","lat":43.30083,"lon":5.37485,"is_reserved":false,"is_disabled":false,"rental_uris":{"android":"levelo://app?vid=330412da-b9eb-49fa-9ba0-9288ee9ddd31","ios":"levelo://app?vid=330412da-b9eb-49fa-9ba0-9288ee9ddd31"},"vehicle_type_id":"4","last_reported":1686924364,"current_range_meters":23200,"station_id":"","pricing_plan_id":"free"},{"bike_id":"56606d34-50a5-464f-a8e5-e50267034007","system_id":"levelo_inurba_marseille","lat":43.29946,"lon":5.3654,"is_reserved":false,"is_disabled":false,"rental_uris":{"android":"levelo://app?vid=56606d34-50a5-464f-a8e5-e50267034007","ios":"levelo://app?vid=56606d34-50a5-464f-a8e5-e50267034007"},"vehicle_type_id":"4","last_reported":1686924364,"current_range_meters":8400,"station_id":"","pricing_plan_id":"free"},{"bike_id":"75a0bc64-1048-4af4-bbcb-a8070ef80446","system_id":"levelo_inurba_marseille","lat":43.29934,"lon":5.36543,"is_reserved":false,"is_disabled":false,"rental_uris":{"android":"levelo://app?vid=75a0bc64-1048-4af4-bbcb-a8070ef80446","ios":"levelo://app?vid=75a0bc64-1048-4af4-bbcb-a8070ef80446"},"vehicle_type_id":"4","last_reported":1686924364,"current_range_meters":11200,"station_id":"ce4bgm92rcd13ifvqbr0","pricing_plan_id":"free"},{"bike_id":"6897234c-a5a9-4cc7-b7c3-ee6b0e82e574","system_id":"levelo_inurba_marseille","lat":43.29855,"lon":5.36284,"is_reserved":false,"is_disabled":false,"rental_uris":{"android":"levelo://app?vid=6897234c-a5a9-4cc7-b7c3-ee6b0e82e574","ios":"levelo://app?vid=6897234c-a5a9-4cc7-b7c3-ee6b0e82e574"},"vehicle_type_id":"4","last_reported":1686924364,"current_range_meters":19600,"station_id":"ce4bgpp2rcd13ifvqc3g","pricing_plan_id":"free"},{"bike_id":"475358c3-8ebd-4dbf-a448-a96c2b08f378","system_id":"levelo_inurba_marseille","lat":43.29852,"lon":5.36284,"is_reserved":false,"is_disabled":false,"rental_uris":{"android":"levelo://app?vid=475358c3-8ebd-4dbf-a448-a96c2b08f378","ios":"levelo://app?vid=475358c3-8ebd-4dbf-a448-a96c2b08f378"},"vehicle_type_id":"4","last_reported":1686924364,"current_range_meters":19600,"station_id":"ce4bgpp2rcd13ifvqc3g","pricing_plan_id":"free"},{"bike_id":"407d3c40-1004-4f24-87d1-1582126a7891","system_id":"levelo_inurba_marseille","lat":43.298433,"lon":5.362774,"is_reserved":false,"is_disabled":false,"rental_uris":{"android":"levelo://app?vid=407d3c40-1004-4f24-87d1-1582126a7891","ios":"levelo://app?vid=407d3c40-1004-4f24-87d1-1582126a7891"},"vehicle_type_id":"4","last_reported":1686924364,"current_range_meters":31600,"station_id":"ce4bgpp2rcd13ifvqc3g","pricing_plan_id":"free"},{"bike_id":"18db56ba-c467-41af-b430-4bf1152550ac","system_id":"levelo_inurba_marseille","lat":43.29848,"lon":5.36287,"is_reserved":false,"is_disabled":false,"rental_uris":{"android":"levelo://app?vid=18db56ba-c467-41af-b430-4bf1152550ac","ios":"levelo://app?vid=18db56ba-c467-41af-b430-4bf1152550ac"},"vehicle_type_id":"4","last_reported":1686924364,"current_range_meters":25200,"station_id":"ce4bgpp2rcd13ifvqc3g","pricing_plan_id":"free"},{"bike_id":"e3f10ae3-a4de-49b2-ad11-36803c791557","system_id":"levelo_inurba_marseille","lat":43.29849,"lon":5.3628,"is_reserved":false,"is_disabled":false,"rental_uris":{"android":"levelo://app?vid=e3f10ae3-a4de-49b2-ad11-36803c791557","ios":"levelo://app?vid=e3f10ae3-a4de-49b2-ad11-36803c791557"},"vehicle_type_id":"4","last_reported":1686924364,"current_range_meters":20400,"station_id":"ce4bgpp2rcd13ifvqc3g","pricing_plan_id":"free"},{"bike_id":"76e6fb7a-5d91-4a1b-81d4-16a75983c290","system_id":"levelo_inurba_marseille","lat":43.29848,"lon":5.36283,"is_reserved":false,"is_disabled":false,"rental_uris":{"android":"levelo://app?vid=76e6fb7a-5d91-4a1b-81d4-16a75983c290","ios":"levelo://app?vid=76e6fb7a-5d91-4a1b-81d4-16a75983c290"},"vehicle_type_id":"4","last_reported":1686924364,"current_range_meters":23600,"station_id":"ce4bgpp2rcd13ifvqc3g","pricing_plan_id":"free"},{"bike_id":"c3b8ce03-c733-4ceb-bd1f-743e6ce6d59a","system_id":"levelo_inurba_marseille","lat":43.298433,"lon":5.362774,"is_reserved":false,"is_disabled":false,"rental_uris":{"android":"levelo://app?vid=c3b8ce03-c733-4ceb-bd1f-743e6ce6d59a","ios":"levelo://app?vid=c3b8ce03-c733-4ceb-bd1f-743e6ce6d59a"},"vehicle_type_id":"4","last_reported":1686924364,"current_range_meters":27200,"station_id":"ce4bgpp2rcd13ifvqc3g","pricing_plan_id":"free"},{"bike_id":"6b73607f-f102-4702-a6fe-9ef4fe608e33","system_id":"levelo_inurba_marseille","lat":43.29848,"lon":5.36282,"is_reserved":false,"is_disabled":false,"rental_uris":{"android":"levelo://app?vid=6b73607f-f102-4702-a6fe-9ef4fe608e33","ios":"levelo://app?vid=6b73607f-f102-4702-a6fe-9ef4fe608e33"},"vehicle_type_id":"4","last_reported":1686924364,"current_range_meters":28800,"station_id":"ce4bgpp2rcd13ifvqc3g","pricing_plan_id":"free"},{"bike_id":"7561d3c7-5cba-44ec-a4ce-4204bc3a41c4","system_id":"levelo_inurba_marseille","lat":43.299243,"lon":5.37481,"is_reserved":false,"is_disabled":false,"rental_uris":{"android":"levelo://app?vid=7561d3c7-5cba-44ec-a4ce-4204bc3a41c4","ios":"levelo://app?vid=7561d3c7-5cba-44ec-a4ce-4204bc3a41c4"},"vehicle_type_id":"4","last_reported":1686924364,"current_range_meters":4000,"station_id":"ce4bgjh2rcd13ifvqbg0","pricing_plan_id":"free"},{"bike_id":"66da58c7-7392-4f3e-995a-8cf503491e96","system_id":"levelo_inurba_marseille","lat":43.305364,"lon":5.384119,"is_reserved":false,"is_disabled":false,"rental_uris":{"android":"levelo://app?vid=66da58c7-7392-4f3e-995a-8cf503491e96","ios":"levelo://app?vid=66da58c7-7392-4f3e-995a-8cf503491e96"},"vehicle_type_id":"4","last_reported":1686924364,"current_range_meters":12000,"station_id":"ce4bgg92rcd13ifvqb30","pricing_plan_id":"free"},{"bike_id":"a61355d7-3594-458d-8250-9283c321ed01","system_id":"levelo_inurba_marseille","lat":43.298433,"lon":5.362774,"is_reserved":false,"is_disabled":false,"rental_uris":{"android":"levelo://app?vid=a61355d7-3594-458d-8250-9283c321ed01","ios":"levelo://app?vid=a61355d7-3594-458d-8250-9283c321ed01"},"vehicle_type_id":"4","last_reported":1686924364,"current_range_meters":30800,"station_id":"ce4bgpp2rcd13ifvqc3g","pricing_plan_id":"free"},{"bike_id":"99c8dfe4-171c-40a3-bcbd-6b7b774e31a3","system_id":"levelo_inurba_marseille","lat":43.298433,"lon":5.362774,"is_reserved":false,"is_disabled":false,"rental_uris":{"android":"levelo://app?vid=99c8dfe4-171c-40a3-bcbd-6b7b774e31a3","ios":"levelo://app?vid=99c8dfe4-171c-40a3-bcbd-6b7b774e31a3"},"vehicle_type_id":"4","last_reported":1686924364,"current_range_meters":23200,"station_id":"ce4bgpp2rcd13ifvqc3g","pricing_plan_id":"free"},{"bike_id":"d7334887-ee35-4e9e-aee3-4d2d8e0b7f32","system_id":"levelo_inurba_marseille","lat":43.298433,"lon":5.362774,"is_reserved":false,"is_disabled":false,"rental_uris":{"android":"levelo://app?vid=d7334887-ee35-4e9e-aee3-4d2d8e0b7f32","ios":"levelo://app?vid=d7334887-ee35-4e9e-aee3-4d2d8e0b7f32"},"vehicle_type_id":"4","last_reported":1686924364,"current_range_meters":31600,"station_id":"ce4bgpp2rcd13ifvqc3g","pricing_plan_id":"free"},{"bike_id":"b4319196-1a7b-4b61-89e4-4aa01abde76c","system_id":"levelo_inurba_marseille","lat":43.273613,"lon":5.362705,"is_reserved":false,"is_disabled":false,"rental_uris":{"android":"levelo://app?vid=b4319196-1a7b-4b61-89e4-4aa01abde76c","ios":"levelo://app?vid=b4319196-1a7b-4b61-89e4-4aa01abde76c"},"vehicle_type_id":"4","last_reported":1686924364,"current_range_meters":26000,"station_id":"ce4bhbh2rcd13ifvqeo0","pricing_plan_id":"free"},{"bike_id":"5075b6ce-7e8a-427b-9999-e64500c7dae2","system_id":"levelo_inurba_marseille","lat":43.297774,"lon":5.370875,"is_reserved":false,"is_disabled":false,"rental_uris":{"android":"levelo://app?vid=5075b6ce-7e8a-427b-9999-e64500c7dae2","ios":"levelo://app?vid=5075b6ce-7e8a-427b-9999-e64500c7dae2"},"vehicle_type_id":"4","last_reported":1686924364,"current_range_meters":21600,"station_id":"ce4bgop2rcd13ifvqc1g","pricing_plan_id":"free"},{"bike_id":"43db8140-599f-47e7-90f4-149cf5b64630","system_id":"levelo_inurba_marseille","lat":43.297774,"lon":5.370875,"is_reserved":false,"is_disabled":false,"rental_uris":{"android":"levelo://app?vid=43db8140-599f-47e7-90f4-149cf5b64630","ios":"levelo://app?vid=43db8140-599f-47e7-90f4-149cf5b64630"},"vehicle_type_id":"4","last_reported":1686924364,"current_range_meters":3600,"station_id":"ce4bgop2rcd13ifvqc1g","pricing_plan_id":"free"},{"bike_id":"3db18bb7-710e-44ba-a806-1b33e954aa7e","system_id":"levelo_inurba_marseille","lat":43.297794,"lon":5.370888,"is_reserved":false,"is_disabled":false,"rental_uris":{"android":"levelo://app?vid=3db18bb7-710e-44ba-a806-1b33e954aa7e","ios":"levelo://app?vid=3db18bb7-710e-44ba-a806-1b33e954aa7e"},"vehicle_type_id":"4","last_reported":1686924364,"current_range_meters":22800,"station_id":"ce4bgop2rcd13ifvqc1g","pricing_plan_id":"free"},{"bike_id":"ceb9bc43-2d34-48a7-a09e-4c8549938c23","system_id":"levelo_inurba_marseille","lat":43.297794,"lon":5.370888,"is_reserved":false,"is_disabled":false,"rental_uris":{"android":"levelo://app?vid=ceb9bc43-2d34-48a7-a09e-4c8549938c23","ios":"levelo://app?vid=ceb9bc43-2d34-48a7-a09e-4c8549938c23"},"vehicle_type_id":"4","last_reported":1686924364,"current_range_meters":10000,"station_id":"ce4bgop2rcd13ifvqc1g","pricing_plan_id":"free"},{"bike_id":"099d5bc2-fb7d-4f93-b471-20300fd63a04","system_id":"levelo_inurba_marseille","lat":43.328371,"lon":5.366909,"is_reserved":false,"is_disabled":false,"rental_uris":{"android":"levelo://app?vid=099d5bc2-fb7d-4f93-b471-20300fd63a04","ios":"levelo://app?vid=099d5bc2-fb7d-4f93-b471-20300fd63a04"},"vehicle_type_id":"4","last_reported":1686924364,"current_range_meters":20000,"station_id":"ce4bhs92rcd13ifvqi0g","pricing_plan_id":"free"},{"bike_id":"b03d88f8-bf3f-46ac-9bbf-b15e89df07c3","system_id":"levelo_inurba_marseille","lat":43.328371,"lon":5.366909,"is_reserved":false,"is_disabled":false,"rental_uris":{"android":"levelo://app?vid=b03d88f8-bf3f-46ac-9bbf-b15e89df07c3","ios":"levelo://app?vid=b03d88f8-bf3f-46ac-9bbf-b15e89df07c3"},"vehicle_type_id":"4","last_reported":1686924364,"current_range_meters":9600,"station_id":"ce4bhs92rcd13ifvqi0g","pricing_plan_id":"free"},{"bike_id":"d5904ea4-b5cd-4515-b6c3-61ba5c57dec9","system_id":"levelo_inurba_marseille","lat":43.32827,"lon":5.36687,"is_reserved":false,"is_disabled":false,"rental_uris":{"android":"levelo://app?vid=d5904ea4-b5cd-4515-b6c3-61ba5c57dec9","ios":"levelo://app?vid=d5904ea4-b5cd-4515-b6c3-61ba5c57dec9"},"vehicle_type_id":"4","last_reported":1686924364,"current_range_meters":6800,"station_id":"ce4bhs92rcd13ifvqi0g","pricing_plan_id":"free"},{"bike_id":"5aea4ff9-b794-49fa-b864-ba4cf0a9088f","system_id":"levelo_inurba_marseille","lat":43.328371,"lon":5.366912,"is_reserved":false,"is_disabled":false,"rental_uris":{"android":"levelo://app?vid=5aea4ff9-b794-49fa-b864-ba4cf0a9088f","ios":"levelo://app?vid=5aea4ff9-b794-49fa-b864-ba4cf0a9088f"},"vehicle_type_id":"4","last_reported":1686924364,"current_range_meters":3600,"station_id":"ce4bhs92rcd13ifvqi0g","pricing_plan_id":"free"},{"bike_id":"c6a275dd-23ca-4fc8-b334-b9ed20ef6ddc","system_id":"levelo_inurba_marseille","lat":43.29712,"lon":5.3661,"is_reserved":false,"is_disabled":false,"rental_uris":{"android":"levelo://app?vid=c6a275dd-23ca-4fc8-b334-b9ed20ef6ddc","ios":"levelo://app?vid=c6a275dd-23ca-4fc8-b334-b9ed20ef6ddc"},"vehicle_type_id":"4","last_reported":1686924364,"current_range_meters":6400,"station_id":"ce4bgn12rcd13ifvqbt0","pricing_plan_id":"free"},{"bike_id":"51121d58-1d44-48db-a97a-278b98c02e82","system_id":"levelo_inurba_marseille","lat":43.29704,"lon":5.36588,"is_reserved":false,"is_disabled":false,"rental_uris":{"android":"levelo://app?vid=51121d58-1d44-48db-a97a-278b98c02e82","ios":"levelo://app?vid=51121d58-1d44-48db-a97a-278b98c02e82"},"vehicle_type_id":"4","last_reported":1686924364,"current_range_meters":25600,"station_id":"ce4bgn12rcd13ifvqbt0","pricing_plan_id":"free"},{"bike_id":"88d0330c-5bb0-4a19-9b65-d4683b42e015","system_id":"levelo_inurba_marseille","lat":43.29683,"lon":5.36046,"is_reserved":false,"is_disabled":false,"rental_uris":{"android":"levelo://app?vid=88d0330c-5bb0-4a19-9b65-d4683b42e015","ios":"levelo://app?vid=88d0330c-5bb0-4a19-9b65-d4683b42e015"},"vehicle_type_id":"4","last_reported":1686924364,"current_range_meters":10000,"station_id":"ce4bgpp2rcd13ifvqc3g","pricing_plan_id":"free"},{"bike_id":"07718fae-6b4d-4361-8942-615cbcfe2959","system_id":"levelo_inurba_marseille","lat":43.29573,"lon":5.367355,"is_reserved":false,"is_disabled":false,"rental_uris":{"android":"levelo://app?vid=07718fae-6b4d-4361-8942-615cbcfe2959","ios":"levelo://app?vid=07718fae-6b4d-4361-8942-615cbcfe2959"},"vehicle_type_id":"4","last_reported":1686924364,"current_range_meters":2800,"station_id":"ce4bgph2rcd13ifvqc2g","pricing_plan_id":"free"},{"bike_id":"bb8bcd34-9afc-4234-ac26-2f12b354da3f","system_id":"levelo_inurba_marseille","lat":43.299028,"lon":5.381509,"is_reserved":false,"is_disabled":false,"rental_uris":{"android":"levelo://app?vid=bb8bcd34-9afc-4234-ac26-2f12b354da3f","ios":"levelo://app?vid=bb8bcd34-9afc-4234-ac26-2f12b354da3f"},"vehicle_type_id":"4","last_reported":1686924364,"current_range_meters":29600,"station_id":"ce4bgj12rcd13ifvqbc0","pricing_plan_id":"free"},{"bike_id":"44c5b068-6104-4e3e-ba88-1b656d694996","system_id":"levelo_inurba_marseille","lat":43.296921,"lon":5.376579,"is_reserved":false,"is_disabled":false,"rental_uris":{"android":"levelo://app?vid=44c5b068-6104-4e3e-ba88-1b656d694996","ios":"levelo://app?vid=44c5b068-6104-4e3e-ba88-1b656d694996"},"vehicle_type_id":"4","last_reported":1686924364,"current_range_meters":13600,"station_id":"ce4bgkh2rcd13ifvqbl0","pricing_plan_id":"free"},{"bike_id":"64a37253-795c-494a-af49-73e322bb8d48","system_id":"levelo_inurba_marseille","lat":43.299045,"lon":5.381522,"is_reserved":false,"is_disabled":false,"rental_uris":{"android":"levelo://app?vid=64a37253-795c-494a-af49-73e322bb8d48","ios":"levelo://app?vid=64a37253-795c-494a-af49-73e322bb8d48"},"vehicle_type_id":"4","last_reported":1686924364,"current_range_meters":24800,"station_id":"","pricing_plan_id":"free"},{"bike_id":"2f1b46f0-d6a1-4e87-a582-09c00245821a","system_id":"levelo_inurba_marseille","lat":43.298037,"lon":5.381066,"is_reserved":false,"is_disabled":false,"rental_uris":{"android":"levelo://app?vid=2f1b46f0-d6a1-4e87-a582-09c00245821a","ios":"levelo://app?vid=2f1b46f0-d6a1-4e87-a582-09c00245821a"},"vehicle_type_id":"4","last_reported":1686924364,"current_range_meters":0,"station_id":"ce4bgip2rcd13ifvqbb0","pricing_plan_id":"free"},{"bike_id":"685c32f2-d178-4f5d-98e1-23c59067b8d1","system_id":"levelo_inurba_marseille","lat":43.298037,"lon":5.381066,"is_reserved":false,"is_disabled":false,"rental_uris":{"android":"levelo://app?vid=685c32f2-d178-4f5d-98e1-23c59067b8d1","ios":"levelo://app?vid=685c32f2-d178-4f5d-98e1-23c59067b8d1"},"vehicle_type_id":"4","last_reported":1686924364,"current_range_meters":28800,"station_id":"ce4bgip2rcd13ifvqbb0","pricing_plan_id":"free"},{"bike_id":"6f9e443a-fad7-4b76-b753-a61b79d6ab99","system_id":"levelo_inurba_marseille","lat":43.298037,"lon":5.381066,"is_reserved":false,"is_disabled":false,"rental_uris":{"android":"levelo://app?vid=6f9e443a-fad7-4b76-b753-a61b79d6ab99","ios":"levelo://app?vid=6f9e443a-fad7-4b76-b753-a61b79d6ab99"},"vehicle_type_id":"4","last_reported":1686924364,"current_range_meters":0,"station_id":"ce4bgip2rcd13ifvqbb0","pricing_plan_id":"free"},{"bike_id":"9b799835-1d85-4fa2-bc4a-be7c19771ffc","system_id":"levelo_inurba_marseille","lat":43.295748,"lon":5.37522,"is_reserved":false,"is_disabled":false,"rental_uris":{"android":"levelo://app?vid=9b799835-1d85-4fa2-bc4a-be7c19771ffc","ios":"levelo://app?vid=9b799835-1d85-4fa2-bc4a-be7c19771ffc"},"vehicle_type_id":"4","last_reported":1686924364,"current_range_meters":4800,"station_id":"ce4bgh92rcd13ifvqb50","pricing_plan_id":"free"},{"bike_id":"250c8a96-8498-4211-b8f3-1b00a8d1fbaf","system_id":"levelo_inurba_marseille","lat":43.296477,"lon":5.37768,"is_reserved":false,"is_disabled":false,"rental_uris":{"android":"levelo://app?vid=250c8a96-8498-4211-b8f3-1b00a8d1fbaf","ios":"levelo://app?vid=250c8a96-8498-4211-b8f3-1b00a8d1fbaf"},"vehicle_type_id":"4","last_reported":1686924364,"current_range_meters":20400,"station_id":"","pricing_plan_id":"free"},{"bike_id":"32b8c13e-84cf-4b27-a4d2-34e578d7787c","system_id":"levelo_inurba_marseille","lat":43.296935,"lon":5.376544,"is_reserved":false,"is_disabled":false,"rental_uris":{"android":"levelo://app?vid=32b8c13e-84cf-4b27-a4d2-34e578d7787c","ios":"levelo://app?vid=32b8c13e-84cf-4b27-a4d2-34e578d7787c"},"vehicle_type_id":"4","last_reported":1686924364,"current_range_meters":26800,"station_id":"ce4bgkh2rcd13ifvqbl0","pricing_plan_id":"free"},{"bike_id":"7362bb38-12c8-406f-889e-a9f61c1c3993","system_id":"levelo_inurba_marseille","lat":43.29982,"lon":5.38476,"is_reserved":false,"is_disabled":false,"rental_uris":{"android":"levelo://app?vid=7362bb38-12c8-406f-889e-a9f61c1c3993","ios":"levelo://app?vid=7362bb38-12c8-406f-889e-a9f61c1c3993"},"vehicle_type_id":"4","last_reported":1686924364,"current_range_meters":11200,"station_id":"ce4bgj92rcd13ifvqbd0","pricing_plan_id":"free"},{"bike_id":"c8f2a366-5a47-4a9c-aca9-eedcc5c37f5b","system_id":"levelo_inurba_marseille","lat":43.299717,"lon":5.384845,"is_reserved":false,"is_disabled":false,"rental_uris":{"android":"levelo://app?vid=c8f2a366-5a47-4a9c-aca9-eedcc5c37f5b","ios":"levelo://app?vid=c8f2a366-5a47-4a9c-aca9-eedcc5c37f5b"},"vehicle_type_id":"4","last_reported":1686924364,"current_range_meters":17600,"station_id":"ce4bgj92rcd13ifvqbd0","pricing_plan_id":"free"},{"bike_id":"deb012da-ef44-4d1e-a5cf-aa7c5f47ec60","system_id":"levelo_inurba_marseille","lat":43.30336,"lon":5.38943,"is_reserved":false,"is_disabled":false,"rental_uris":{"android":"levelo://app?vid=deb012da-ef44-4d1e-a5cf-aa7c5f47ec60","ios":"levelo://app?vid=deb012da-ef44-4d1e-a5cf-aa7c5f47ec60"},"vehicle_type_id":"4","last_reported":1686924364,"current_range_meters":3200,"station_id":"","pricing_plan_id":"free"},{"bike_id":"2c9ad911-25e0-4222-8751-d809dfadd582","system_id":"levelo_inurba_marseille","lat":43.32365,"lon":5.38869,"is_reserved":false,"is_disabled":false,"rental_uris":{"android":"levelo://app?vid=2c9ad911-25e0-4222-8751-d809dfadd582","ios":"levelo://app?vid=2c9ad911-25e0-4222-8751-d809dfadd582"},"vehicle_type_id":"4","last_reported":1686924364,"current_range_meters":30400,"station_id":"ce4bhqp2rcd13ifvqhog","pricing_plan_id":"free"},{"bike_id":"78215555-c896-40a2-aa66-c1d318a07622","system_id":"levelo_inurba_marseille","lat":43.323579,"lon":5.388775,"is_reserved":false,"is_disabled":false,"rental_uris":{"android":"levelo://app?vid=78215555-c896-40a2-aa66-c1d318a07622","ios":"levelo://app?vid=78215555-c896-40a2-aa66-c1d318a07622"},"vehicle_type_id":"4","last_reported":1686924364,"current_range_meters":10400,"station_id":"ce4bhqp2rcd13ifvqhog","pricing_plan_id":"free"},{"bike_id":"242f12a2-fa6d-4b5f-9c1c-53e395dd5e66","system_id":"levelo_inurba_marseille","lat":43.32364,"lon":5.38874,"is_reserved":false,"is_disabled":false,"rental_uris":{"android":"levelo://app?vid=242f12a2-fa6d-4b5f-9c1c-53e395dd5e66","ios":"levelo://app?vid=242f12a2-fa6d-4b5f-9c1c-53e395dd5e66"},"vehicle_type_id":"4","last_reported":1686924364,"current_range_meters":19600,"station_id":"ce4bhqp2rcd13ifvqhog","pricing_plan_id":"free"},{"bike_id":"43ea938f-e6c8-4f05-8660-76cb2d495888","system_id":"levelo_inurba_marseille","lat":43.32358,"lon":5.3888,"is_reserved":false,"is_disabled":false,"rental_uris":{"android":"levelo://app?vid=43ea938f-e6c8-4f05-8660-76cb2d495888","ios":"levelo://app?vid=43ea938f-e6c8-4f05-8660-76cb2d495888"},"vehicle_type_id":"4","last_reported":1686924364,"current_range_meters":11600,"station_id":"ce4bhqp2rcd13ifvqhog","pricing_plan_id":"free"},{"bike_id":"43934ad2-e47e-4d29-af6d-28e7658e8342","system_id":"levelo_inurba_marseille","lat":43.32367,"lon":5.388836,"is_reserved":false,"is_disabled":false,"rental_uris":{"android":"levelo://app?vid=43934ad2-e47e-4d29-af6d-28e7658e8342","ios":"levelo://app?vid=43934ad2-e47e-4d29-af6d-28e7658e8342"},"vehicle_type_id":"4","last_reported":1686924364,"current_range_meters":5200,"station_id":"ce4bhqp2rcd13ifvqhog","pricing_plan_id":"free"},{"bike_id":"8ff43016-effc-4157-b871-584c11706f73","system_id":"levelo_inurba_marseille","lat":43.32369,"lon":5.38874,"is_reserved":false,"is_disabled":false,"rental_uris":{"android":"levelo://app?vid=8ff43016-effc-4157-b871-584c11706f73","ios":"levelo://app?vid=8ff43016-effc-4157-b871-584c11706f73"},"vehicle_type_id":"4","last_reported":1686924364,"current_range_meters":28000,"station_id":"ce4bhqp2rcd13ifvqhog","pricing_plan_id":"free"},{"bike_id":"71deb49d-5864-4461-882a-e14e759319e0","system_id":"levelo_inurba_marseille","lat":43.32363,"lon":5.38884,"is_reserved":false,"is_disabled":false,"rental_uris":{"android":"levelo://app?vid=71deb49d-5864-4461-882a-e14e759319e0","ios":"levelo://app?vid=71deb49d-5864-4461-882a-e14e759319e0"},"vehicle_type_id":"4","last_reported":1686924364,"current_range_meters":28800,"station_id":"ce4bhqp2rcd13ifvqhog","pricing_plan_id":"free"},{"bike_id":"11f9ee07-7ce1-4e8e-9c06-00e5e07ef9fb","system_id":"levelo_inurba_marseille","lat":43.32369,"lon":5.38884,"is_reserved":false,"is_disabled":false,"rental_uris":{"android":"levelo://app?vid=11f9ee07-7ce1-4e8e-9c06-00e5e07ef9fb","ios":"levelo://app?vid=11f9ee07-7ce1-4e8e-9c06-00e5e07ef9fb"},"vehicle_type_id":"4","last_reported":1686924364,"current_range_meters":12000,"station_id":"ce4bhqp2rcd13ifvqhog","pricing_plan_id":"free"},{"bike_id":"20a5b24d-b520-42df-8ac4-5a606a1b7de6","system_id":"levelo_inurba_marseille","lat":43.32366,"lon":5.38887,"is_reserved":false,"is_disabled":false,"rental_uris":{"android":"levelo://app?vid=20a5b24d-b520-42df-8ac4-5a606a1b7de6","ios":"levelo://app?vid=20a5b24d-b520-42df-8ac4-5a606a1b7de6"},"vehicle_type_id":"4","last_reported":1686924364,"current_range_meters":31200,"station_id":"ce4bhqp2rcd13ifvqhog","pricing_plan_id":"free"},{"bike_id":"8b008e9c-20e6-4e43-bfbb-aa5c0f7bfc4b","system_id":"levelo_inurba_marseille","lat":43.29272,"lon":5.35988,"is_reserved":false,"is_disabled":false,"rental_uris":{"android":"levelo://app?vid=8b008e9c-20e6-4e43-bfbb-aa5c0f7bfc4b","ios":"levelo://app?vid=8b008e9c-20e6-4e43-bfbb-aa5c0f7bfc4b"},"vehicle_type_id":"4","last_reported":1686924364,"current_range_meters":13600,"station_id":"","pricing_plan_id":"free"},{"bike_id":"5cebc5a8-c8d7-4886-8d99-96ac9ea0c679","system_id":"levelo_inurba_marseille","lat":43.2936,"lon":5.37835,"is_reserved":false,"is_disabled":false,"rental_uris":{"android":"levelo://app?vid=5cebc5a8-c8d7-4886-8d99-96ac9ea0c679","ios":"levelo://app?vid=5cebc5a8-c8d7-4886-8d99-96ac9ea0c679"},"vehicle_type_id":"4","last_reported":1686924364,"current_range_meters":10800,"station_id":"ce4bgjh2rcd13ifvqbf0","pricing_plan_id":"free"},{"bike_id":"fa03377b-d64d-429e-9af6-eb0e037ea9bb","system_id":"levelo_inurba_marseille","lat":43.2936,"lon":5.37835,"is_reserved":false,"is_disabled":false,"rental_uris":{"android":"levelo://app?vid=fa03377b-d64d-429e-9af6-eb0e037ea9bb","ios":"levelo://app?vid=fa03377b-d64d-429e-9af6-eb0e037ea9bb"},"vehicle_type_id":"4","last_reported":1686924364,"current_range_meters":21200,"station_id":"ce4bgjh2rcd13ifvqbf0","pricing_plan_id":"free"},{"bike_id":"e5572017-d0f6-4bcb-a0a8-a45508297431","system_id":"levelo_inurba_marseille","lat":43.29263,"lon":5.37625,"is_reserved":false,"is_disabled":false,"rental_uris":{"android":"levelo://app?vid=e5572017-d0f6-4bcb-a0a8-a45508297431","ios":"levelo://app?vid=e5572017-d0f6-4bcb-a0a8-a45508297431"},"vehicle_type_id":"4","last_reported":1686924364,"current_range_meters":31200,"station_id":"ce4bgi12rcd13ifvqb80","pricing_plan_id":"free"},{"bike_id":"a98f32e6-143f-481c-ac6c-f91c21e35488","system_id":"levelo_inurba_marseille","lat":43.298764,"lon":5.388973,"is_reserved":false,"is_disabled":false,"rental_uris":{"android":"levelo://app?vid=a98f32e6-143f-481c-ac6c-f91c21e35488","ios":"levelo://app?vid=a98f32e6-143f-481c-ac6c-f91c21e35488"},"vehicle_type_id":"4","last_reported":1686924364,"current_range_meters":15200,"station_id":"ce4bh392rcd13ifvqdl0","pricing_plan_id":"free"},{"bike_id":"4e9be617-aedf-48a6-9980-89c3a0d0b166","system_id":"levelo_inurba_marseille","lat":43.298764,"lon":5.388973,"is_reserved":false,"is_disabled":false,"rental_uris":{"android":"levelo://app?vid=4e9be617-aedf-48a6-9980-89c3a0d0b166","ios":"levelo://app?vid=4e9be617-aedf-48a6-9980-89c3a0d0b166"},"vehicle_type_id":"4","last_reported":1686924364,"current_range_meters":0,"station_id":"ce4bh392rcd13ifvqdl0","pricing_plan_id":"free"},{"bike_id":"ecafb856-e5a8-44c2-b573-d2fb3772dc9a","system_id":"levelo_inurba_marseille","lat":43.29154,"lon":5.37159,"is_reserved":false,"is_disabled":false,"rental_uris":{"android":"levelo://app?vid=ecafb856-e5a8-44c2-b573-d2fb3772dc9a","ios":"levelo://app?vid=ecafb856-e5a8-44c2-b573-d2fb3772dc9a"},"vehicle_type_id":"4","last_reported":1686924364,"current_range_meters":31200,"station_id":"ce4bha92rcd13ifvqeh0","pricing_plan_id":"free"},{"bike_id":"75c8cddc-6c9d-4234-bdba-a13a798db173","system_id":"levelo_inurba_marseille","lat":43.313291,"lon":5.396838,"is_reserved":false,"is_disabled":false,"rental_uris":{"android":"levelo://app?vid=75c8cddc-6c9d-4234-bdba-a13a798db173","ios":"levelo://app?vid=75c8cddc-6c9d-4234-bdba-a13a798db173"},"vehicle_type_id":"4","last_reported":1686924364,"current_range_meters":4000,"station_id":"ce4bgvp2rcd13ifvqcu0","pricing_plan_id":"free"},{"bike_id":"d7b4db18-993f-4f70-b11e-00a3abae28e7","system_id":"levelo_inurba_marseille","lat":43.29529,"lon":5.385581,"is_reserved":false,"is_disabled":false,"rental_uris":{"android":"levelo://app?vid=d7b4db18-993f-4f70-b11e-00a3abae28e7","ios":"levelo://app?vid=d7b4db18-993f-4f70-b11e-00a3abae28e7"},"vehicle_type_id":"4","last_reported":1686924364,"current_range_meters":2000,"station_id":"ce4bgih2rcd13ifvqba0","pricing_plan_id":"free"},{"bike_id":"38eb09af-7166-42b9-865e-84246929498f","system_id":"levelo_inurba_marseille","lat":43.294153,"lon":5.386305,"is_reserved":false,"is_disabled":false,"rental_uris":{"android":"levelo://app?vid=38eb09af-7166-42b9-865e-84246929498f","ios":"levelo://app?vid=38eb09af-7166-42b9-865e-84246929498f"},"vehicle_type_id":"4","last_reported":1686924364,"current_range_meters":31600,"station_id":"ce4bh2h2rcd13ifvqdh0","pricing_plan_id":"free"},{"bike_id":"6f2cef73-7f31-439b-a901-b0e0147c0f9c","system_id":"levelo_inurba_marseille","lat":43.294153,"lon":5.386305,"is_reserved":false,"is_disabled":false,"rental_uris":{"android":"levelo://app?vid=6f2cef73-7f31-439b-a901-b0e0147c0f9c","ios":"levelo://app?vid=6f2cef73-7f31-439b-a901-b0e0147c0f9c"},"vehicle_type_id":"4","last_reported":1686924364,"current_range_meters":10000,"station_id":"ce4bh2h2rcd13ifvqdh0","pricing_plan_id":"free"},{"bike_id":"e340623d-880f-46ce-aa84-e659ef941fb7","system_id":"levelo_inurba_marseille","lat":43.28942,"lon":5.36642,"is_reserved":false,"is_disabled":false,"rental_uris":{"android":"levelo://app?vid=e340623d-880f-46ce-aa84-e659ef941fb7","ios":"levelo://app?vid=e340623d-880f-46ce-aa84-e659ef941fb7"},"vehicle_type_id":"4","last_reported":1686924364,"current_range_meters":16400,"station_id":"ce4bhap2rcd13ifvqek0","pricing_plan_id":"free"},{"bike_id":"25bfc8c2-17ef-4c4d-a1bb-2854c8d8bf1b","system_id":"levelo_inurba_marseille","lat":43.330409,"lon":5.389095,"is_reserved":false,"is_disabled":false,"rental_uris":{"android":"levelo://app?vid=25bfc8c2-17ef-4c4d-a1bb-2854c8d8bf1b","ios":"levelo://app?vid=25bfc8c2-17ef-4c4d-a1bb-2854c8d8bf1b"},"vehicle_type_id":"4","last_reported":1686924364,"current_range_meters":31200,"station_id":"","pricing_plan_id":"free"},{"bike_id":"85d5d023-d051-425f-8c39-d0b8c64f8fbd","system_id":"levelo_inurba_marseille","lat":43.3304,"lon":5.38914,"is_reserved":false,"is_disabled":false,"rental_uris":{"android":"levelo://app?vid=85d5d023-d051-425f-8c39-d0b8c64f8fbd","ios":"levelo://app?vid=85d5d023-d051-425f-8c39-d0b8c64f8fbd"},"vehicle_type_id":"4","last_reported":1686924364,"current_range_meters":29600,"station_id":"ce4bhr92rcd13ifvqhrg","pricing_plan_id":"free"},{"bike_id":"c5f027c7-8cb7-4525-93bc-b8fe989a811d","system_id":"levelo_inurba_marseille","lat":43.290104,"lon":5.356111,"is_reserved":false,"is_disabled":false,"rental_uris":{"android":"levelo://app?vid=c5f027c7-8cb7-4525-93bc-b8fe989a811d","ios":"levelo://app?vid=c5f027c7-8cb7-4525-93bc-b8fe989a811d"},"vehicle_type_id":"4","last_reported":1686924364,"current_range_meters":28400,"station_id":"ce4bhb92rcd13ifvqen0","pricing_plan_id":"free"},{"bike_id":"a4d2814a-ff66-466e-b091-93a97eadc809","system_id":"levelo_inurba_marseille","lat":43.33042,"lon":5.38918,"is_reserved":false,"is_disabled":false,"rental_uris":{"android":"levelo://app?vid=a4d2814a-ff66-466e-b091-93a97eadc809","ios":"levelo://app?vid=a4d2814a-ff66-466e-b091-93a97eadc809"},"vehicle_type_id":"4","last_reported":1686924364,"current_range_meters":28800,"station_id":"ce4bhr92rcd13ifvqhrg","pricing_plan_id":"free"},{"bike_id":"ba08b962-46bb-4056-b9b1-60e30c9ee66c","system_id":"levelo_inurba_marseille","lat":43.290104,"lon":5.356111,"is_reserved":false,"is_disabled":false,"rental_uris":{"android":"levelo://app?vid=ba08b962-46bb-4056-b9b1-60e30c9ee66c","ios":"levelo://app?vid=ba08b962-46bb-4056-b9b1-60e30c9ee66c"},"vehicle_type_id":"4","last_reported":1686924364,"current_range_meters":4400,"station_id":"ce4bhb92rcd13ifvqen0","pricing_plan_id":"free"},{"bike_id":"500578f1-c09a-4850-8cf8-d3a2ba4d269e","system_id":"levelo_inurba_marseille","lat":43.290104,"lon":5.356111,"is_reserved":false,"is_disabled":false,"rental_uris":{"android":"levelo://app?vid=500578f1-c09a-4850-8cf8-d3a2ba4d269e","ios":"levelo://app?vid=500578f1-c09a-4850-8cf8-d3a2ba4d269e"},"vehicle_type_id":"4","last_reported":1686924364,"current_range_meters":6000,"station_id":"ce4bhb92rcd13ifvqen0","pricing_plan_id":"free"},{"bike_id":"082ed5c4-6a55-4b9a-96f9-8152db24731f","system_id":"levelo_inurba_marseille","lat":43.290103,"lon":5.356114,"is_reserved":false,"is_disabled":false,"rental_uris":{"android":"levelo://app?vid=082ed5c4-6a55-4b9a-96f9-8152db24731f","ios":"levelo://app?vid=082ed5c4-6a55-4b9a-96f9-8152db24731f"},"vehicle_type_id":"4","last_reported":1686924364,"current_range_meters":3600,"station_id":"ce4bhb92rcd13ifvqen0","pricing_plan_id":"free"},{"bike_id":"1a2eb403-466f-40a5-9f1f-b10bffacb85a","system_id":"levelo_inurba_marseille","lat":43.290103,"lon":5.356114,"is_reserved":false,"is_disabled":false,"rental_uris":{"android":"levelo://app?vid=1a2eb403-466f-40a5-9f1f-b10bffacb85a","ios":"levelo://app?vid=1a2eb403-466f-40a5-9f1f-b10bffacb85a"},"vehicle_type_id":"4","last_reported":1686924364,"current_range_meters":0,"station_id":"ce4bhb92rcd13ifvqen0","pricing_plan_id":"free"},{"bike_id":"0dcf23a4-77a7-4539-96c6-13c8174774fa","system_id":"levelo_inurba_marseille","lat":43.290995,"lon":5.381361,"is_reserved":false,"is_disabled":false,"rental_uris":{"android":"levelo://app?vid=0dcf23a4-77a7-4539-96c6-13c8174774fa","ios":"levelo://app?vid=0dcf23a4-77a7-4539-96c6-13c8174774fa"},"vehicle_type_id":"4","last_reported":1686924364,"current_range_meters":14800,"station_id":"ce4bh512rcd13ifvqe2g","pricing_plan_id":"free"},{"bike_id":"9e582ecd-07f6-4efd-813c-db1d77b38ad1","system_id":"levelo_inurba_marseille","lat":43.297815,"lon":5.393548,"is_reserved":false,"is_disabled":false,"rental_uris":{"android":"levelo://app?vid=9e582ecd-07f6-4efd-813c-db1d77b38ad1","ios":"levelo://app?vid=9e582ecd-07f6-4efd-813c-db1d77b38ad1"},"vehicle_type_id":"4","last_reported":1686924364,"current_range_meters":1200,"station_id":"chh1huq6cuj3fo74tm60","pricing_plan_id":"free"},{"bike_id":"064ed1eb-5eed-4de3-bcbb-1ca263d46103","system_id":"levelo_inurba_marseille","lat":43.2901,"lon":5.381269,"is_reserved":false,"is_disabled":false,"rental_uris":{"android":"levelo://app?vid=064ed1eb-5eed-4de3-bcbb-1ca263d46103","ios":"levelo://app?vid=064ed1eb-5eed-4de3-bcbb-1ca263d46103"},"vehicle_type_id":"4","last_reported":1686924364,"current_range_meters":7600,"station_id":"ce4bh4p2rcd13ifvqe1g","pricing_plan_id":"free"},{"bike_id":"c0fb8083-e02d-4dec-b1b9-fa095e6c5b75","system_id":"levelo_inurba_marseille","lat":43.337396,"lon":5.374526,"is_reserved":false,"is_disabled":false,"rental_uris":{"android":"levelo://app?vid=c0fb8083-e02d-4dec-b1b9-fa095e6c5b75","ios":"levelo://app?vid=c0fb8083-e02d-4dec-b1b9-fa095e6c5b75"},"vehicle_type_id":"4","last_reported":1686924364,"current_range_meters":1200,"station_id":"ce4bhp92rcd13ifvqhag","pricing_plan_id":"free"},{"bike_id":"9bf52ff5-d8c0-423d-a7b6-a24106520f13","system_id":"levelo_inurba_marseille","lat":43.30654,"lon":5.40102,"is_reserved":false,"is_disabled":false,"rental_uris":{"android":"levelo://app?vid=9bf52ff5-d8c0-423d-a7b6-a24106520f13","ios":"levelo://app?vid=9bf52ff5-d8c0-423d-a7b6-a24106520f13"},"vehicle_type_id":"4","last_reported":1686924364,"current_range_meters":14800,"station_id":"ce4bh112rcd13ifvqda0","pricing_plan_id":"free"},{"bike_id":"37dcb55e-bec6-4eb8-858a-d48304997cdf","system_id":"levelo_inurba_marseille","lat":43.29092,"lon":5.38572,"is_reserved":false,"is_disabled":false,"rental_uris":{"android":"levelo://app?vid=37dcb55e-bec6-4eb8-858a-d48304997cdf","ios":"levelo://app?vid=37dcb55e-bec6-4eb8-858a-d48304997cdf"},"vehicle_type_id":"4","last_reported":1686924364,"current_range_meters":2800,"station_id":"","pricing_plan_id":"free"},{"bike_id":"39901ce2-c8a2-41a7-89fe-3416d8dfb578","system_id":"levelo_inurba_marseille","lat":43.301117,"lon":5.398795,"is_reserved":false,"is_disabled":false,"rental_uris":{"android":"levelo://app?vid=39901ce2-c8a2-41a7-89fe-3416d8dfb578","ios":"levelo://app?vid=39901ce2-c8a2-41a7-89fe-3416d8dfb578"},"vehicle_type_id":"4","last_reported":1686924364,"current_range_meters":0,"station_id":"ce4bh0h2rcd13ifvqd40","pricing_plan_id":"free"},{"bike_id":"f91a9d40-fcb8-46ee-9096-14c3ae825b23","system_id":"levelo_inurba_marseille","lat":43.28671,"lon":5.36357,"is_reserved":false,"is_disabled":false,"rental_uris":{"android":"levelo://app?vid=f91a9d40-fcb8-46ee-9096-14c3ae825b23","ios":"levelo://app?vid=f91a9d40-fcb8-46ee-9096-14c3ae825b23"},"vehicle_type_id":"4","last_reported":1686924364,"current_range_meters":6000,"station_id":"ce4bhah2rcd13ifvqej0","pricing_plan_id":"free"},{"bike_id":"4ae199a8-c2f9-4d20-ac86-f438751a53de","system_id":"levelo_inurba_marseille","lat":43.286961,"lon":5.373785,"is_reserved":false,"is_disabled":false,"rental_uris":{"android":"levelo://app?vid=4ae199a8-c2f9-4d20-ac86-f438751a53de","ios":"levelo://app?vid=4ae199a8-c2f9-4d20-ac86-f438751a53de"},"vehicle_type_id":"4","last_reported":1686924364,"current_range_meters":6000,"station_id":"ce4bh3p2rcd13ifvqdq0","pricing_plan_id":"free"},{"bike_id":"a4f51aba-cb7b-4ce6-ba80-9bbe5a721c05","system_id":"levelo_inurba_marseille","lat":43.286961,"lon":5.373785,"is_reserved":false,"is_disabled":false,"rental_uris":{"android":"levelo://app?vid=a4f51aba-cb7b-4ce6-ba80-9bbe5a721c05","ios":"levelo://app?vid=a4f51aba-cb7b-4ce6-ba80-9bbe5a721c05"},"vehicle_type_id":"4","last_reported":1686924364,"current_range_meters":4000,"station_id":"ce4bh3p2rcd13ifvqdq0","pricing_plan_id":"free"},{"bike_id":"62352457-5d54-4c67-8573-956c538a74e4","system_id":"levelo_inurba_marseille","lat":43.286961,"lon":5.373785,"is_reserved":false,"is_disabled":false,"rental_uris":{"android":"levelo://app?vid=62352457-5d54-4c67-8573-956c538a74e4","ios":"levelo://app?vid=62352457-5d54-4c67-8573-956c538a74e4"},"vehicle_type_id":"4","last_reported":1686924364,"current_range_meters":400,"station_id":"ce4bh3p2rcd13ifvqdq0","pricing_plan_id":"free"},{"bike_id":"b07a4f82-2ebe-4c3f-99bb-f513dd3e8b31","system_id":"levelo_inurba_marseille","lat":43.286961,"lon":5.373785,"is_reserved":false,"is_disabled":false,"rental_uris":{"android":"levelo://app?vid=b07a4f82-2ebe-4c3f-99bb-f513dd3e8b31","ios":"levelo://app?vid=b07a4f82-2ebe-4c3f-99bb-f513dd3e8b31"},"vehicle_type_id":"4","last_reported":1686924364,"current_range_meters":3600,"station_id":"ce4bh3p2rcd13ifvqdq0","pricing_plan_id":"free"},{"bike_id":"97dd81b8-60f6-4b2b-b34e-2e27c42969ec","system_id":"levelo_inurba_marseille","lat":43.2904,"lon":5.38656,"is_reserved":false,"is_disabled":false,"rental_uris":{"android":"levelo://app?vid=97dd81b8-60f6-4b2b-b34e-2e27c42969ec","ios":"levelo://app?vid=97dd81b8-60f6-4b2b-b34e-2e27c42969ec"},"vehicle_type_id":"4","last_reported":1686924364,"current_range_meters":28400,"station_id":"ce4bh4p2rcd13ifvqe0g","pricing_plan_id":"free"},{"bike_id":"d9864e96-7f15-46c8-8530-a56cbc526f20","system_id":"levelo_inurba_marseille","lat":43.29032,"lon":5.38651,"is_reserved":false,"is_disabled":false,"rental_uris":{"android":"levelo://app?vid=d9864e96-7f15-46c8-8530-a56cbc526f20","ios":"levelo://app?vid=d9864e96-7f15-46c8-8530-a56cbc526f20"},"vehicle_type_id":"4","last_reported":1686924364,"current_range_meters":11200,"station_id":"ce4bh4p2rcd13ifvqe0g","pricing_plan_id":"free"},{"bike_id":"addac822-2a7d-40a7-84cf-407643b9990f","system_id":"levelo_inurba_marseille","lat":43.29033,"lon":5.38663,"is_reserved":false,"is_disabled":false,"rental_uris":{"android":"levelo://app?vid=addac822-2a7d-40a7-84cf-407643b9990f","ios":"levelo://app?vid=addac822-2a7d-40a7-84cf-407643b9990f"},"vehicle_type_id":"4","last_reported":1686924364,"current_range_meters":25600,"station_id":"ce4bh4p2rcd13ifvqe0g","pricing_plan_id":"free"},{"bike_id":"c8ee610c-1142-45d0-bf75-92351a101648","system_id":"levelo_inurba_marseille","lat":43.287185,"lon":5.379373,"is_reserved":false,"is_disabled":false,"rental_uris":{"android":"levelo://app?vid=c8ee610c-1142-45d0-bf75-92351a101648","ios":"levelo://app?vid=c8ee610c-1142-45d0-bf75-92351a101648"},"vehicle_type_id":"4","last_reported":1686924364,"current_range_meters":14000,"station_id":"ce4bh9p2rcd13ifvqec0","pricing_plan_id":"free"},{"bike_id":"bdb94eef-b4db-437d-a48c-72058d81deef","system_id":"levelo_inurba_marseille","lat":43.316517,"lon":5.404375,"is_reserved":false,"is_disabled":false,"rental_uris":{"android":"levelo://app?vid=bdb94eef-b4db-437d-a48c-72058d81deef","ios":"levelo://app?vid=bdb94eef-b4db-437d-a48c-72058d81deef"},"vehicle_type_id":"4","last_reported":1686924364,"current_range_meters":12400,"station_id":"ce4bh012rcd13ifvqd00","pricing_plan_id":"free"},{"bike_id":"a08d6ae0-3e9d-4458-9953-904b1bb2b8cc","system_id":"levelo_inurba_marseille","lat":43.316517,"lon":5.404375,"is_reserved":false,"is_disabled":false,"rental_uris":{"android":"levelo://app?vid=a08d6ae0-3e9d-4458-9953-904b1bb2b8cc","ios":"levelo://app?vid=a08d6ae0-3e9d-4458-9953-904b1bb2b8cc"},"vehicle_type_id":"4","last_reported":1686924364,"current_range_meters":24000,"station_id":"ce4bh012rcd13ifvqd00","pricing_plan_id":"free"},{"bike_id":"9a4a62da-c1fa-4a82-bad5-2eb03c8855af","system_id":"levelo_inurba_marseille","lat":43.316517,"lon":5.404375,"is_reserved":false,"is_disabled":false,"rental_uris":{"android":"levelo://app?vid=9a4a62da-c1fa-4a82-bad5-2eb03c8855af","ios":"levelo://app?vid=9a4a62da-c1fa-4a82-bad5-2eb03c8855af"},"vehicle_type_id":"4","last_reported":1686924364,"current_range_meters":31200,"station_id":"ce4bh012rcd13ifvqd00","pricing_plan_id":"free"},{"bike_id":"9c8a5e63-d952-4a2b-911d-aaf60a214b39","system_id":"levelo_inurba_marseille","lat":43.316517,"lon":5.404375,"is_reserved":false,"is_disabled":false,"rental_uris":{"android":"levelo://app?vid=9c8a5e63-d952-4a2b-911d-aaf60a214b39","ios":"levelo://app?vid=9c8a5e63-d952-4a2b-911d-aaf60a214b39"},"vehicle_type_id":"4","last_reported":1686924364,"current_range_meters":22800,"station_id":"ce4bh012rcd13ifvqd00","pricing_plan_id":"free"},{"bike_id":"4c81155d-83ce-4bf1-b346-76d832d1a0eb","system_id":"levelo_inurba_marseille","lat":43.284534,"lon":5.358662,"is_reserved":false,"is_disabled":false,"rental_uris":{"android":"levelo://app?vid=4c81155d-83ce-4bf1-b346-76d832d1a0eb","ios":"levelo://app?vid=4c81155d-83ce-4bf1-b346-76d832d1a0eb"},"vehicle_type_id":"4","last_reported":1686924364,"current_range_meters":20800,"station_id":"ce4bhah2rcd13ifvqei0","pricing_plan_id":"free"},{"bike_id":"2b8d3d17-630b-4da9-9c12-dc4dbc6b1cbb","system_id":"levelo_inurba_marseille","lat":43.284534,"lon":5.358662,"is_reserved":false,"is_disabled":false,"rental_uris":{"android":"levelo://app?vid=2b8d3d17-630b-4da9-9c12-dc4dbc6b1cbb","ios":"levelo://app?vid=2b8d3d17-630b-4da9-9c12-dc4dbc6b1cbb"},"vehicle_type_id":"4","last_reported":1686924364,"current_range_meters":28000,"station_id":"ce4bhah2rcd13ifvqei0","pricing_plan_id":"free"},{"bike_id":"03792ccb-d6a0-4098-9557-0c4484d89999","system_id":"levelo_inurba_marseille","lat":43.284534,"lon":5.358662,"is_reserved":false,"is_disabled":false,"rental_uris":{"android":"levelo://app?vid=03792ccb-d6a0-4098-9557-0c4484d89999","ios":"levelo://app?vid=03792ccb-d6a0-4098-9557-0c4484d89999"},"vehicle_type_id":"4","last_reported":1686924364,"current_range_meters":10000,"station_id":"ce4bhah2rcd13ifvqei0","pricing_plan_id":"free"},{"bike_id":"bd5fe969-2e5f-4898-ac65-21a43316b231","system_id":"levelo_inurba_marseille","lat":43.284534,"lon":5.358662,"is_reserved":false,"is_disabled":false,"rental_uris":{"android":"levelo://app?vid=bd5fe969-2e5f-4898-ac65-21a43316b231","ios":"levelo://app?vid=bd5fe969-2e5f-4898-ac65-21a43316b231"},"vehicle_type_id":"4","last_reported":1686924364,"current_range_meters":21200,"station_id":"ce4bhah2rcd13ifvqei0","pricing_plan_id":"free"},{"bike_id":"2749f6a3-68d1-4860-ae8b-0f16cc28beb0","system_id":"levelo_inurba_marseille","lat":43.284534,"lon":5.358662,"is_reserved":false,"is_disabled":false,"rental_uris":{"android":"levelo://app?vid=2749f6a3-68d1-4860-ae8b-0f16cc28beb0","ios":"levelo://app?vid=2749f6a3-68d1-4860-ae8b-0f16cc28beb0"},"vehicle_type_id":"4","last_reported":1686924364,"current_range_meters":4400,"station_id":"ce4bhah2rcd13ifvqei0","pricing_plan_id":"free"},{"bike_id":"2ff73f4c-e7a4-4495-a756-832a25fae537","system_id":"levelo_inurba_marseille","lat":43.284534,"lon":5.358662,"is_reserved":false,"is_disabled":false,"rental_uris":{"android":"levelo://app?vid=2ff73f4c-e7a4-4495-a756-832a25fae537","ios":"levelo://app?vid=2ff73f4c-e7a4-4495-a756-832a25fae537"},"vehicle_type_id":"4","last_reported":1686924364,"current_range_meters":24000,"station_id":"ce4bhah2rcd13ifvqei0","pricing_plan_id":"free"},{"bike_id":"3b0f8552-6b51-4710-a76c-c592a2f439f0","system_id":"levelo_inurba_marseille","lat":43.284534,"lon":5.358662,"is_reserved":false,"is_disabled":false,"rental_uris":{"android":"levelo://app?vid=3b0f8552-6b51-4710-a76c-c592a2f439f0","ios":"levelo://app?vid=3b0f8552-6b51-4710-a76c-c592a2f439f0"},"vehicle_type_id":"4","last_reported":1686924364,"current_range_meters":8000,"station_id":"ce4bhah2rcd13ifvqei0","pricing_plan_id":"free"},{"bike_id":"f0e8d149-0c53-4a45-bc6b-91645e5b6793","system_id":"levelo_inurba_marseille","lat":43.28621,"lon":5.35102,"is_reserved":false,"is_disabled":false,"rental_uris":{"android":"levelo://app?vid=f0e8d149-0c53-4a45-bc6b-91645e5b6793","ios":"levelo://app?vid=f0e8d149-0c53-4a45-bc6b-91645e5b6793"},"vehicle_type_id":"4","last_reported":1686924364,"current_range_meters":31200,"station_id":"ce4bhch2rcd13ifvqeug","pricing_plan_id":"free"},{"bike_id":"b607bb74-ef5b-4512-9666-983d38ab09b1","system_id":"levelo_inurba_marseille","lat":43.28617,"lon":5.35108,"is_reserved":false,"is_disabled":false,"rental_uris":{"android":"levelo://app?vid=b607bb74-ef5b-4512-9666-983d38ab09b1","ios":"levelo://app?vid=b607bb74-ef5b-4512-9666-983d38ab09b1"},"vehicle_type_id":"4","last_reported":1686924364,"current_range_meters":26000,"station_id":"ce4bhch2rcd13ifvqeug","pricing_plan_id":"free"},{"bike_id":"b9fa3673-d218-490a-940d-766c28467a4f","system_id":"levelo_inurba_marseille","lat":43.28619,"lon":5.35101,"is_reserved":false,"is_disabled":false,"rental_uris":{"android":"levelo://app?vid=b9fa3673-d218-490a-940d-766c28467a4f","ios":"levelo://app?vid=b9fa3673-d218-490a-940d-766c28467a4f"},"vehicle_type_id":"4","last_reported":1686924364,"current_range_meters":6400,"station_id":"ce4bhch2rcd13ifvqeug","pricing_plan_id":"free"},{"bike_id":"e5ebd25f-fc70-4e0b-9dfb-6049325e83b1","system_id":"levelo_inurba_marseille","lat":43.285856,"lon":5.350771,"is_reserved":false,"is_disabled":false,"rental_uris":{"android":"levelo://app?vid=e5ebd25f-fc70-4e0b-9dfb-6049325e83b1","ios":"levelo://app?vid=e5ebd25f-fc70-4e0b-9dfb-6049325e83b1"},"vehicle_type_id":"4","last_reported":1686924364,"current_range_meters":5200,"station_id":"ce4bhch2rcd13ifvqeug","pricing_plan_id":"free"},{"bike_id":"327dfe78-d29b-49f1-8dbc-429a07d8e91b","system_id":"levelo_inurba_marseille","lat":43.28615,"lon":5.35103,"is_reserved":false,"is_disabled":false,"rental_uris":{"android":"levelo://app?vid=327dfe78-d29b-49f1-8dbc-429a07d8e91b","ios":"levelo://app?vid=327dfe78-d29b-49f1-8dbc-429a07d8e91b"},"vehicle_type_id":"4","last_reported":1686924364,"current_range_meters":12400,"station_id":"ce4bhch2rcd13ifvqeug","pricing_plan_id":"free"},{"bike_id":"7fd4d875-9769-4ba4-936b-93672830abf7","system_id":"levelo_inurba_marseille","lat":43.28613,"lon":5.35106,"is_reserved":false,"is_disabled":false,"rental_uris":{"android":"levelo://app?vid=7fd4d875-9769-4ba4-936b-93672830abf7","ios":"levelo://app?vid=7fd4d875-9769-4ba4-936b-93672830abf7"},"vehicle_type_id":"4","last_reported":1686924364,"current_range_meters":31200,"station_id":"ce4bhch2rcd13ifvqeug","pricing_plan_id":"free"},{"bike_id":"16e5fedd-6e86-436a-a0a2-72c7cd60a6ea","system_id":"levelo_inurba_marseille","lat":43.32334,"lon":5.4062,"is_reserved":false,"is_disabled":false,"rental_uris":{"android":"levelo://app?vid=16e5fedd-6e86-436a-a0a2-72c7cd60a6ea","ios":"levelo://app?vid=16e5fedd-6e86-436a-a0a2-72c7cd60a6ea"},"vehicle_type_id":"4","last_reported":1686924364,"current_range_meters":31200,"station_id":"ce4bhq92rcd13ifvqhjg","pricing_plan_id":"free"},{"bike_id":"0d9b1aa8-f840-4c9c-a108-c55351b3e46e","system_id":"levelo_inurba_marseille","lat":43.32337,"lon":5.4062,"is_reserved":false,"is_disabled":false,"rental_uris":{"android":"levelo://app?vid=0d9b1aa8-f840-4c9c-a108-c55351b3e46e","ios":"levelo://app?vid=0d9b1aa8-f840-4c9c-a108-c55351b3e46e"},"vehicle_type_id":"4","last_reported":1686924364,"current_range_meters":29600,"station_id":"ce4bhq92rcd13ifvqhjg","pricing_plan_id":"free"},{"bike_id":"56d43936-8fb2-4918-9ddc-41b09b46585a","system_id":"levelo_inurba_marseille","lat":43.32338,"lon":5.40623,"is_reserved":false,"is_disabled":false,"rental_uris":{"android":"levelo://app?vid=56d43936-8fb2-4918-9ddc-41b09b46585a","ios":"levelo://app?vid=56d43936-8fb2-4918-9ddc-41b09b46585a"},"vehicle_type_id":"4","last_reported":1686924364,"current_range_meters":24000,"station_id":"ce4bhq92rcd13ifvqhjg","pricing_plan_id":"free"},{"bike_id":"00b4d942-d645-4a17-a320-9c02b5ecca68","system_id":"levelo_inurba_marseille","lat":43.288497,"lon":5.393089,"is_reserved":false,"is_disabled":false,"rental_uris":{"android":"levelo://app?vid=00b4d942-d645-4a17-a320-9c02b5ecca68","ios":"levelo://app?vid=00b4d942-d645-4a17-a320-9c02b5ecca68"},"vehicle_type_id":"4","last_reported":1686924364,"current_range_meters":29600,"station_id":"ce4bh2p2rcd13ifvqdi0","pricing_plan_id":"free"},{"bike_id":"851b0249-5397-4f24-a555-3fb0b575c023","system_id":"levelo_inurba_marseille","lat":43.2607,"lon":5.393983,"is_reserved":false,"is_disabled":false,"rental_uris":{"android":"levelo://app?vid=851b0249-5397-4f24-a555-3fb0b575c023","ios":"levelo://app?vid=851b0249-5397-4f24-a555-3fb0b575c023"},"vehicle_type_id":"4","last_reported":1686924364,"current_range_meters":6800,"station_id":"ce4bhh92rcd13ifvqfj0","pricing_plan_id":"free"},{"bike_id":"a6790631-ef52-41c6-be7b-f2681abbe85a","system_id":"levelo_inurba_marseille","lat":43.28422,"lon":5.34991,"is_reserved":false,"is_disabled":false,"rental_uris":{"android":"levelo://app?vid=a6790631-ef52-41c6-be7b-f2681abbe85a","ios":"levelo://app?vid=a6790631-ef52-41c6-be7b-f2681abbe85a"},"vehicle_type_id":"4","last_reported":1686924364,"current_range_meters":14800,"station_id":"ce4bhbh2rcd13ifvqepg","pricing_plan_id":"free"},{"bike_id":"76da73a8-32fe-452a-895d-e1e60d3641ca","system_id":"levelo_inurba_marseille","lat":43.28421,"lon":5.34988,"is_reserved":false,"is_disabled":false,"rental_uris":{"android":"levelo://app?vid=76da73a8-32fe-452a-895d-e1e60d3641ca","ios":"levelo://app?vid=76da73a8-32fe-452a-895d-e1e60d3641ca"},"vehicle_type_id":"4","last_reported":1686924364,"current_range_meters":26000,"station_id":"ce4bhbh2rcd13ifvqepg","pricing_plan_id":"free"},{"bike_id":"519cb9cd-ea6a-4f0b-a1a9-16d98aa9f147","system_id":"levelo_inurba_marseille","lat":43.284219,"lon":5.3497,"is_reserved":false,"is_disabled":false,"rental_uris":{"android":"levelo://app?vid=519cb9cd-ea6a-4f0b-a1a9-16d98aa9f147","ios":"levelo://app?vid=519cb9cd-ea6a-4f0b-a1a9-16d98aa9f147"},"vehicle_type_id":"4","last_reported":1686924364,"current_range_meters":26800,"station_id":"ce4bhbh2rcd13ifvqepg","pricing_plan_id":"free"},{"bike_id":"0b5fd547-be12-4c95-a7e0-df5a1035e14e","system_id":"levelo_inurba_marseille","lat":43.28417,"lon":5.34994,"is_reserved":false,"is_disabled":false,"rental_uris":{"android":"levelo://app?vid=0b5fd547-be12-4c95-a7e0-df5a1035e14e","ios":"levelo://app?vid=0b5fd547-be12-4c95-a7e0-df5a1035e14e"},"vehicle_type_id":"4","last_reported":1686924364,"current_range_meters":14000,"station_id":"ce4bhbh2rcd13ifvqepg","pricing_plan_id":"free"},{"bike_id":"36ca348c-5b9e-4dad-be0c-72c80ab3500a","system_id":"levelo_inurba_marseille","lat":43.284219,"lon":5.3497,"is_reserved":false,"is_disabled":false,"rental_uris":{"android":"levelo://app?vid=36ca348c-5b9e-4dad-be0c-72c80ab3500a","ios":"levelo://app?vid=36ca348c-5b9e-4dad-be0c-72c80ab3500a"},"vehicle_type_id":"4","last_reported":1686924364,"current_range_meters":26400,"station_id":"ce4bhbh2rcd13ifvqepg","pricing_plan_id":"free"},{"bike_id":"61b8ccfb-c5a8-4198-bb27-7725c2660c6a","system_id":"levelo_inurba_marseille","lat":43.28419,"lon":5.34987,"is_reserved":false,"is_disabled":false,"rental_uris":{"android":"levelo://app?vid=61b8ccfb-c5a8-4198-bb27-7725c2660c6a","ios":"levelo://app?vid=61b8ccfb-c5a8-4198-bb27-7725c2660c6a"},"vehicle_type_id":"4","last_reported":1686924364,"current_range_meters":6400,"station_id":"ce4bhbh2rcd13ifvqepg","pricing_plan_id":"free"},{"bike_id":"5d2a7738-d621-45ad-a9f6-5f6d4791b51a","system_id":"levelo_inurba_marseille","lat":43.28418,"lon":5.3499,"is_reserved":false,"is_disabled":false,"rental_uris":{"android":"levelo://app?vid=5d2a7738-d621-45ad-a9f6-5f6d4791b51a","ios":"levelo://app?vid=5d2a7738-d621-45ad-a9f6-5f6d4791b51a"},"vehicle_type_id":"4","last_reported":1686924364,"current_range_meters":31200,"station_id":"ce4bhbh2rcd13ifvqepg","pricing_plan_id":"free"},{"bike_id":"1ce6b854-a76d-442b-9409-df923048799b","system_id":"levelo_inurba_marseille","lat":43.28417,"lon":5.34989,"is_reserved":false,"is_disabled":false,"rental_uris":{"android":"levelo://app?vid=1ce6b854-a76d-442b-9409-df923048799b","ios":"levelo://app?vid=1ce6b854-a76d-442b-9409-df923048799b"},"vehicle_type_id":"4","last_reported":1686924364,"current_range_meters":25200,"station_id":"ce4bhbh2rcd13ifvqepg","pricing_plan_id":"free"},{"bike_id":"25c5385c-b865-47df-b209-13eb543b1903","system_id":"levelo_inurba_marseille","lat":43.284219,"lon":5.3497,"is_reserved":false,"is_disabled":false,"rental_uris":{"android":"levelo://app?vid=25c5385c-b865-47df-b209-13eb543b1903","ios":"levelo://app?vid=25c5385c-b865-47df-b209-13eb543b1903"},"vehicle_type_id":"4","last_reported":1686924364,"current_range_meters":12800,"station_id":"ce4bhbh2rcd13ifvqepg","pricing_plan_id":"free"},{"bike_id":"5fee6b19-1a91-42d7-a4bd-78f4e838ba50","system_id":"levelo_inurba_marseille","lat":43.28417,"lon":5.34974,"is_reserved":false,"is_disabled":false,"rental_uris":{"android":"levelo://app?vid=5fee6b19-1a91-42d7-a4bd-78f4e838ba50","ios":"levelo://app?vid=5fee6b19-1a91-42d7-a4bd-78f4e838ba50"},"vehicle_type_id":"4","last_reported":1686924364,"current_range_meters":14800,"station_id":"ce4bhbh2rcd13ifvqepg","pricing_plan_id":"free"},{"bike_id":"84009cd9-d118-4860-bf41-7c4d0e0e6199","system_id":"levelo_inurba_marseille","lat":43.284219,"lon":5.3497,"is_reserved":false,"is_disabled":false,"rental_uris":{"android":"levelo://app?vid=84009cd9-d118-4860-bf41-7c4d0e0e6199","ios":"levelo://app?vid=84009cd9-d118-4860-bf41-7c4d0e0e6199"},"vehicle_type_id":"4","last_reported":1686924364,"current_range_meters":22000,"station_id":"ce4bhbh2rcd13ifvqepg","pricing_plan_id":"free"},{"bike_id":"1faede54-0d1f-401b-8a33-05a9077fd9f5","system_id":"levelo_inurba_marseille","lat":43.28413,"lon":5.34983,"is_reserved":false,"is_disabled":false,"rental_uris":{"android":"levelo://app?vid=1faede54-0d1f-401b-8a33-05a9077fd9f5","ios":"levelo://app?vid=1faede54-0d1f-401b-8a33-05a9077fd9f5"},"vehicle_type_id":"4","last_reported":1686924364,"current_range_meters":31200,"station_id":"ce4bhbh2rcd13ifvqepg","pricing_plan_id":"free"},{"bike_id":"ed4a17a6-753e-469e-b2e9-e1f377a6a479","system_id":"levelo_inurba_marseille","lat":43.28413,"lon":5.3498,"is_reserved":false,"is_disabled":false,"rental_uris":{"android":"levelo://app?vid=ed4a17a6-753e-469e-b2e9-e1f377a6a479","ios":"levelo://app?vid=ed4a17a6-753e-469e-b2e9-e1f377a6a479"},"vehicle_type_id":"4","last_reported":1686924364,"current_range_meters":22000,"station_id":"ce4bhbh2rcd13ifvqepg","pricing_plan_id":"free"},{"bike_id":"9f915451-07c1-4cef-9243-ac50e6b26cd0","system_id":"levelo_inurba_marseille","lat":43.28414,"lon":5.34976,"is_reserved":false,"is_disabled":false,"rental_uris":{"android":"levelo://app?vid=9f915451-07c1-4cef-9243-ac50e6b26cd0","ios":"levelo://app?vid=9f915451-07c1-4cef-9243-ac50e6b26cd0"},"vehicle_type_id":"4","last_reported":1686924364,"current_range_meters":2400,"station_id":"ce4bhbh2rcd13ifvqepg","pricing_plan_id":"free"},{"bike_id":"5093d537-e080-4624-a3ff-7bb35f59447c","system_id":"levelo_inurba_marseille","lat":43.284219,"lon":5.3497,"is_reserved":false,"is_disabled":false,"rental_uris":{"android":"levelo://app?vid=5093d537-e080-4624-a3ff-7bb35f59447c","ios":"levelo://app?vid=5093d537-e080-4624-a3ff-7bb35f59447c"},"vehicle_type_id":"4","last_reported":1686924364,"current_range_meters":31600,"station_id":"ce4bhbh2rcd13ifvqepg","pricing_plan_id":"free"},{"bike_id":"a86be2f6-7f45-4656-a047-2864772738b8","system_id":"levelo_inurba_marseille","lat":43.28412,"lon":5.34976,"is_reserved":false,"is_disabled":false,"rental_uris":{"android":"levelo://app?vid=a86be2f6-7f45-4656-a047-2864772738b8","ios":"levelo://app?vid=a86be2f6-7f45-4656-a047-2864772738b8"},"vehicle_type_id":"4","last_reported":1686924364,"current_range_meters":22000,"station_id":"ce4bhbh2rcd13ifvqepg","pricing_plan_id":"free"},{"bike_id":"5389fee3-6913-4c90-99b7-469f70f31baa","system_id":"levelo_inurba_marseille","lat":43.28408,"lon":5.34983,"is_reserved":false,"is_disabled":false,"rental_uris":{"android":"levelo://app?vid=5389fee3-6913-4c90-99b7-469f70f31baa","ios":"levelo://app?vid=5389fee3-6913-4c90-99b7-469f70f31baa"},"vehicle_type_id":"4","last_reported":1686924364,"current_range_meters":25600,"station_id":"ce4bhbh2rcd13ifvqepg","pricing_plan_id":"free"},{"bike_id":"2ad24568-4c23-422d-a0ef-ba98dcdab08b","system_id":"levelo_inurba_marseille","lat":43.28273,"lon":5.37906,"is_reserved":false,"is_disabled":false,"rental_uris":{"android":"levelo://app?vid=2ad24568-4c23-422d-a0ef-ba98dcdab08b","ios":"levelo://app?vid=2ad24568-4c23-422d-a0ef-ba98dcdab08b"},"vehicle_type_id":"4","last_reported":1686924364,"current_range_meters":9200,"station_id":"","pricing_plan_id":"free"},{"bike_id":"d755afe6-61f5-49b9-978a-3058ee409e2d","system_id":"levelo_inurba_marseille","lat":43.28402,"lon":5.349847,"is_reserved":false,"is_disabled":false,"rental_uris":{"android":"levelo://app?vid=d755afe6-61f5-49b9-978a-3058ee409e2d","ios":"levelo://app?vid=d755afe6-61f5-49b9-978a-3058ee409e2d"},"vehicle_type_id":"4","last_reported":1686924364,"current_range_meters":12800,"station_id":"ce4bhbh2rcd13ifvqepg","pricing_plan_id":"free"},{"bike_id":"090c7173-cc3b-46ab-ac2b-afd8e308751b","system_id":"levelo_inurba_marseille","lat":43.289363,"lon":5.396322,"is_reserved":false,"is_disabled":false,"rental_uris":{"android":"levelo://app?vid=090c7173-cc3b-46ab-ac2b-afd8e308751b","ios":"levelo://app?vid=090c7173-cc3b-46ab-ac2b-afd8e308751b"},"vehicle_type_id":"4","last_reported":1686924364,"current_range_meters":6800,"station_id":"ce4bh3h2rcd13ifvqdn0","pricing_plan_id":"free"},{"bike_id":"463b0cb9-8b20-4d2f-b6be-94dd03d17e85","system_id":"levelo_inurba_marseille","lat":43.28274,"lon":5.35075,"is_reserved":false,"is_disabled":false,"rental_uris":{"android":"levelo://app?vid=463b0cb9-8b20-4d2f-b6be-94dd03d17e85","ios":"levelo://app?vid=463b0cb9-8b20-4d2f-b6be-94dd03d17e85"},"vehicle_type_id":"4","last_reported":1686924364,"current_range_meters":3200,"station_id":"ce4bhbp2rcd13ifvqerg","pricing_plan_id":"free"},{"bike_id":"e2c3a0aa-7f22-492a-a04d-15e355466059","system_id":"levelo_inurba_marseille","lat":43.32879,"lon":5.40534,"is_reserved":false,"is_disabled":false,"rental_uris":{"android":"levelo://app?vid=e2c3a0aa-7f22-492a-a04d-15e355466059","ios":"levelo://app?vid=e2c3a0aa-7f22-492a-a04d-15e355466059"},"vehicle_type_id":"4","last_reported":1686924364,"current_range_meters":12800,"station_id":"","pricing_plan_id":"free"},{"bike_id":"69453445-2e0a-425c-ae6b-99771d55d2f6","system_id":"levelo_inurba_marseille","lat":43.28274,"lon":5.35066,"is_reserved":false,"is_disabled":false,"rental_uris":{"android":"levelo://app?vid=69453445-2e0a-425c-ae6b-99771d55d2f6","ios":"levelo://app?vid=69453445-2e0a-425c-ae6b-99771d55d2f6"},"vehicle_type_id":"4","last_reported":1686924364,"current_range_meters":28400,"station_id":"ce4bhbp2rcd13ifvqerg","pricing_plan_id":"free"},{"bike_id":"737d2827-f3de-41ef-afa4-df9077791435","system_id":"levelo_inurba_marseille","lat":43.2827,"lon":5.35073,"is_reserved":false,"is_disabled":false,"rental_uris":{"android":"levelo://app?vid=737d2827-f3de-41ef-afa4-df9077791435","ios":"levelo://app?vid=737d2827-f3de-41ef-afa4-df9077791435"},"vehicle_type_id":"4","last_reported":1686924364,"current_range_meters":24800,"station_id":"ce4bhbp2rcd13ifvqerg","pricing_plan_id":"free"},{"bike_id":"23c08ff5-0bd7-47da-b15d-19b45afa82a2","system_id":"levelo_inurba_marseille","lat":43.28271,"lon":5.35065,"is_reserved":false,"is_disabled":false,"rental_uris":{"android":"levelo://app?vid=23c08ff5-0bd7-47da-b15d-19b45afa82a2","ios":"levelo://app?vid=23c08ff5-0bd7-47da-b15d-19b45afa82a2"},"vehicle_type_id":"4","last_reported":1686924364,"current_range_meters":18000,"station_id":"ce4bhbp2rcd13ifvqerg","pricing_plan_id":"free"},{"bike_id":"193bf678-ee6b-40bc-9e05-fa3308f0fd6a","system_id":"levelo_inurba_marseille","lat":43.28268,"lon":5.35074,"is_reserved":false,"is_disabled":false,"rental_uris":{"android":"levelo://app?vid=193bf678-ee6b-40bc-9e05-fa3308f0fd6a","ios":"levelo://app?vid=193bf678-ee6b-40bc-9e05-fa3308f0fd6a"},"vehicle_type_id":"4","last_reported":1686924364,"current_range_meters":0,"station_id":"ce4bhbp2rcd13ifvqerg","pricing_plan_id":"free"},{"bike_id":"c2f15555-06a3-4b90-8cf6-3b78578f5a5c","system_id":"levelo_inurba_marseille","lat":43.2827,"lon":5.35067,"is_reserved":false,"is_disabled":false,"rental_uris":{"android":"levelo://app?vid=c2f15555-06a3-4b90-8cf6-3b78578f5a5c","ios":"levelo://app?vid=c2f15555-06a3-4b90-8cf6-3b78578f5a5c"},"vehicle_type_id":"4","last_reported":1686924364,"current_range_meters":3200,"station_id":"ce4bhbp2rcd13ifvqerg","pricing_plan_id":"free"},{"bike_id":"5034beab-6e23-4494-9fa0-e11fc4b2ab79","system_id":"levelo_inurba_marseille","lat":43.28272,"lon":5.35058,"is_reserved":false,"is_disabled":false,"rental_uris":{"android":"levelo://app?vid=5034beab-6e23-4494-9fa0-e11fc4b2ab79","ios":"levelo://app?vid=5034beab-6e23-4494-9fa0-e11fc4b2ab79"},"vehicle_type_id":"4","last_reported":1686924364,"current_range_meters":27600,"station_id":"ce4bhbp2rcd13ifvqerg","pricing_plan_id":"free"},{"bike_id":"afc36fd8-5a1f-472c-aed7-01c18c167026","system_id":"levelo_inurba_marseille","lat":43.282754,"lon":5.350519,"is_reserved":false,"is_disabled":false,"rental_uris":{"android":"levelo://app?vid=afc36fd8-5a1f-472c-aed7-01c18c167026","ios":"levelo://app?vid=afc36fd8-5a1f-472c-aed7-01c18c167026"},"vehicle_type_id":"4","last_reported":1686924364,"current_range_meters":5200,"station_id":"ce4bhbp2rcd13ifvqerg","pricing_plan_id":"free"},{"bike_id":"2c935e45-fc97-4368-9ba6-437e854706d5","system_id":"levelo_inurba_marseille","lat":43.28268,"lon":5.35068,"is_reserved":false,"is_disabled":false,"rental_uris":{"android":"levelo://app?vid=2c935e45-fc97-4368-9ba6-437e854706d5","ios":"levelo://app?vid=2c935e45-fc97-4368-9ba6-437e854706d5"},"vehicle_type_id":"4","last_reported":1686924364,"current_range_meters":22400,"station_id":"ce4bhbp2rcd13ifvqerg","pricing_plan_id":"free"},{"bike_id":"8aa62da5-ec73-4053-a979-6474afb7b5ac","system_id":"levelo_inurba_marseille","lat":43.2827,"lon":5.35061,"is_reserved":false,"is_disabled":false,"rental_uris":{"android":"levelo://app?vid=8aa62da5-ec73-4053-a979-6474afb7b5ac","ios":"levelo://app?vid=8aa62da5-ec73-4053-a979-6474afb7b5ac"},"vehicle_type_id":"4","last_reported":1686924364,"current_range_meters":8000,"station_id":"ce4bhbp2rcd13ifvqerg","pricing_plan_id":"free"},{"bike_id":"615038be-74dd-40b4-b20b-1239a82cd5fd","system_id":"levelo_inurba_marseille","lat":43.282754,"lon":5.350519,"is_reserved":false,"is_disabled":false,"rental_uris":{"android":"levelo://app?vid=615038be-74dd-40b4-b20b-1239a82cd5fd","ios":"levelo://app?vid=615038be-74dd-40b4-b20b-1239a82cd5fd"},"vehicle_type_id":"4","last_reported":1686924364,"current_range_meters":31600,"station_id":"ce4bhbp2rcd13ifvqerg","pricing_plan_id":"free"},{"bike_id":"9281a634-8183-4dd6-823a-1c70612f9442","system_id":"levelo_inurba_marseille","lat":43.28265,"lon":5.35074,"is_reserved":false,"is_disabled":false,"rental_uris":{"android":"levelo://app?vid=9281a634-8183-4dd6-823a-1c70612f9442","ios":"levelo://app?vid=9281a634-8183-4dd6-823a-1c70612f9442"},"vehicle_type_id":"4","last_reported":1686924364,"current_range_meters":10000,"station_id":"ce4bhbp2rcd13ifvqerg","pricing_plan_id":"free"},{"bike_id":"b4378d99-3156-4e54-aee2-57045855b8f8","system_id":"levelo_inurba_marseille","lat":43.28264,"lon":5.35077,"is_reserved":false,"is_disabled":false,"rental_uris":{"android":"levelo://app?vid=b4378d99-3156-4e54-aee2-57045855b8f8","ios":"levelo://app?vid=b4378d99-3156-4e54-aee2-57045855b8f8"},"vehicle_type_id":"4","last_reported":1686924364,"current_range_meters":24000,"station_id":"ce4bhbp2rcd13ifvqerg","pricing_plan_id":"free"},{"bike_id":"9107940b-d9a2-4639-9861-99e6b4ad2533","system_id":"levelo_inurba_marseille","lat":43.28266,"lon":5.35069,"is_reserved":false,"is_disabled":false,"rental_uris":{"android":"levelo://app?vid=9107940b-d9a2-4639-9861-99e6b4ad2533","ios":"levelo://app?vid=9107940b-d9a2-4639-9861-99e6b4ad2533"},"vehicle_type_id":"4","last_reported":1686924364,"current_range_meters":22400,"station_id":"ce4bhbp2rcd13ifvqerg","pricing_plan_id":"free"},{"bike_id":"a5121524-14db-4bd0-8aaf-5c6fff91efc3","system_id":"levelo_inurba_marseille","lat":43.28039,"lon":5.369297,"is_reserved":false,"is_disabled":false,"rental_uris":{"android":"levelo://app?vid=a5121524-14db-4bd0-8aaf-5c6fff91efc3","ios":"levelo://app?vid=a5121524-14db-4bd0-8aaf-5c6fff91efc3"},"vehicle_type_id":"4","last_reported":1686924364,"current_range_meters":1600,"station_id":"ce4bha12rcd13ifvqef0","pricing_plan_id":"free"},{"bike_id":"94f78d63-a8d0-4fab-8c6f-f1b8e3cc27a4","system_id":"levelo_inurba_marseille","lat":43.28264,"lon":5.35074,"is_reserved":false,"is_disabled":false,"rental_uris":{"android":"levelo://app?vid=94f78d63-a8d0-4fab-8c6f-f1b8e3cc27a4","ios":"levelo://app?vid=94f78d63-a8d0-4fab-8c6f-f1b8e3cc27a4"},"vehicle_type_id":"4","last_reported":1686924364,"current_range_meters":26800,"station_id":"ce4bhbp2rcd13ifvqerg","pricing_plan_id":"free"},{"bike_id":"117efb08-9322-455f-be4b-c0ceaf99e165","system_id":"levelo_inurba_marseille","lat":43.28265,"lon":5.35068,"is_reserved":false,"is_disabled":false,"rental_uris":{"android":"levelo://app?vid=117efb08-9322-455f-be4b-c0ceaf99e165","ios":"levelo://app?vid=117efb08-9322-455f-be4b-c0ceaf99e165"},"vehicle_type_id":"4","last_reported":1686924364,"current_range_meters":11600,"station_id":"ce4bhbp2rcd13ifvqerg","pricing_plan_id":"free"},{"bike_id":"1b9f7789-7699-4ae1-86aa-442e8e91ea9c","system_id":"levelo_inurba_marseille","lat":43.28263,"lon":5.35075,"is_reserved":false,"is_disabled":false,"rental_uris":{"android":"levelo://app?vid=1b9f7789-7699-4ae1-86aa-442e8e91ea9c","ios":"levelo://app?vid=1b9f7789-7699-4ae1-86aa-442e8e91ea9c"},"vehicle_type_id":"4","last_reported":1686924364,"current_range_meters":16000,"station_id":"ce4bhbp2rcd13ifvqerg","pricing_plan_id":"free"},{"bike_id":"1336932f-e996-4017-acdf-f1bba96e6d8a","system_id":"levelo_inurba_marseille","lat":43.28263,"lon":5.35073,"is_reserved":false,"is_disabled":false,"rental_uris":{"android":"levelo://app?vid=1336932f-e996-4017-acdf-f1bba96e6d8a","ios":"levelo://app?vid=1336932f-e996-4017-acdf-f1bba96e6d8a"},"vehicle_type_id":"4","last_reported":1686924364,"current_range_meters":23200,"station_id":"ce4bhbp2rcd13ifvqerg","pricing_plan_id":"free"},{"bike_id":"f5f5f467-5281-4422-a6dc-09424a54fa47","system_id":"levelo_inurba_marseille","lat":43.28266,"lon":5.35062,"is_reserved":false,"is_disabled":false,"rental_uris":{"android":"levelo://app?vid=f5f5f467-5281-4422-a6dc-09424a54fa47","ios":"levelo://app?vid=f5f5f467-5281-4422-a6dc-09424a54fa47"},"vehicle_type_id":"4","last_reported":1686924364,"current_range_meters":15600,"station_id":"ce4bhbp2rcd13ifvqerg","pricing_plan_id":"free"},{"bike_id":"f2a165ef-a008-4dbf-8277-1551bfae27d0","system_id":"levelo_inurba_marseille","lat":43.28262,"lon":5.35074,"is_reserved":false,"is_disabled":false,"rental_uris":{"android":"levelo://app?vid=f2a165ef-a008-4dbf-8277-1551bfae27d0","ios":"levelo://app?vid=f2a165ef-a008-4dbf-8277-1551bfae27d0"},"vehicle_type_id":"4","last_reported":1686924364,"current_range_meters":2000,"station_id":"ce4bhbp2rcd13ifvqerg","pricing_plan_id":"free"},{"bike_id":"d922c2dc-80b2-4a80-9556-00bc108f5a3b","system_id":"levelo_inurba_marseille","lat":43.28261,"lon":5.35074,"is_reserved":false,"is_disabled":false,"rental_uris":{"android":"levelo://app?vid=d922c2dc-80b2-4a80-9556-00bc108f5a3b","ios":"levelo://app?vid=d922c2dc-80b2-4a80-9556-00bc108f5a3b"},"vehicle_type_id":"4","last_reported":1686924364,"current_range_meters":8800,"station_id":"ce4bhbp2rcd13ifvqerg","pricing_plan_id":"free"},{"bike_id":"2caf645f-7341-409d-81ca-ccdb8a5aedb2","system_id":"levelo_inurba_marseille","lat":43.28263,"lon":5.35066,"is_reserved":false,"is_disabled":false,"rental_uris":{"android":"levelo://app?vid=2caf645f-7341-409d-81ca-ccdb8a5aedb2","ios":"levelo://app?vid=2caf645f-7341-409d-81ca-ccdb8a5aedb2"},"vehicle_type_id":"4","last_reported":1686924364,"current_range_meters":16800,"station_id":"ce4bhbp2rcd13ifvqerg","pricing_plan_id":"free"},{"bike_id":"9275b4dc-8844-4c92-bcee-06651abe4246","system_id":"levelo_inurba_marseille","lat":43.2826,"lon":5.35076,"is_reserved":false,"is_disabled":false,"rental_uris":{"android":"levelo://app?vid=9275b4dc-8844-4c92-bcee-06651abe4246","ios":"levelo://app?vid=9275b4dc-8844-4c92-bcee-06651abe4246"},"vehicle_type_id":"4","last_reported":1686924364,"current_range_meters":4400,"station_id":"ce4bhbp2rcd13ifvqerg","pricing_plan_id":"free"},{"bike_id":"3f4336b0-a148-4dfc-98d6-09f645780e49","system_id":"levelo_inurba_marseille","lat":43.28263,"lon":5.35064,"is_reserved":false,"is_disabled":false,"rental_uris":{"android":"levelo://app?vid=3f4336b0-a148-4dfc-98d6-09f645780e49","ios":"levelo://app?vid=3f4336b0-a148-4dfc-98d6-09f645780e49"},"vehicle_type_id":"4","last_reported":1686924364,"current_range_meters":8400,"station_id":"ce4bhbp2rcd13ifvqerg","pricing_plan_id":"free"},{"bike_id":"ac996a3b-3f61-4baa-b933-20ea9a43b5ba","system_id":"levelo_inurba_marseille","lat":43.28261,"lon":5.35069,"is_reserved":false,"is_disabled":false,"rental_uris":{"android":"levelo://app?vid=ac996a3b-3f61-4baa-b933-20ea9a43b5ba","ios":"levelo://app?vid=ac996a3b-3f61-4baa-b933-20ea9a43b5ba"},"vehicle_type_id":"4","last_reported":1686924364,"current_range_meters":12800,"station_id":"ce4bhbp2rcd13ifvqerg","pricing_plan_id":"free"},{"bike_id":"48bafaa6-f0ab-4689-acca-3c390e0e180f","system_id":"levelo_inurba_marseille","lat":43.282754,"lon":5.350519,"is_reserved":false,"is_disabled":false,"rental_uris":{"android":"levelo://app?vid=48bafaa6-f0ab-4689-acca-3c390e0e180f","ios":"levelo://app?vid=48bafaa6-f0ab-4689-acca-3c390e0e180f"},"vehicle_type_id":"4","last_reported":1686924364,"current_range_meters":28000,"station_id":"ce4bhbp2rcd13ifvqerg","pricing_plan_id":"free"},{"bike_id":"0b9d0efe-a3b0-4452-b6a7-2c3cb920908c","system_id":"levelo_inurba_marseille","lat":43.28258,"lon":5.35074,"is_reserved":false,"is_disabled":false,"rental_uris":{"android":"levelo://app?vid=0b9d0efe-a3b0-4452-b6a7-2c3cb920908c","ios":"levelo://app?vid=0b9d0efe-a3b0-4452-b6a7-2c3cb920908c"},"vehicle_type_id":"4","last_reported":1686924364,"current_range_meters":2000,"station_id":"ce4bhbp2rcd13ifvqerg","pricing_plan_id":"free"},{"bike_id":"f17c9c6e-ed54-44ac-ad94-5ba231f508b8","system_id":"levelo_inurba_marseille","lat":43.28262,"lon":5.35058,"is_reserved":false,"is_disabled":false,"rental_uris":{"android":"levelo://app?vid=f17c9c6e-ed54-44ac-ad94-5ba231f508b8","ios":"levelo://app?vid=f17c9c6e-ed54-44ac-ad94-5ba231f508b8"},"vehicle_type_id":"4","last_reported":1686924364,"current_range_meters":6800,"station_id":"ce4bhbp2rcd13ifvqerg","pricing_plan_id":"free"},{"bike_id":"052b479c-6684-4dc9-b79a-e4b11121edfa","system_id":"levelo_inurba_marseille","lat":43.28259,"lon":5.35068,"is_reserved":false,"is_disabled":false,"rental_uris":{"android":"levelo://app?vid=052b479c-6684-4dc9-b79a-e4b11121edfa","ios":"levelo://app?vid=052b479c-6684-4dc9-b79a-e4b11121edfa"},"vehicle_type_id":"4","last_reported":1686924364,"current_range_meters":11200,"station_id":"ce4bhbp2rcd13ifvqerg","pricing_plan_id":"free"},{"bike_id":"bb21344b-60f7-4604-854a-27a0024d9c7f","system_id":"levelo_inurba_marseille","lat":43.28258,"lon":5.35071,"is_reserved":false,"is_disabled":false,"rental_uris":{"android":"levelo://app?vid=bb21344b-60f7-4604-854a-27a0024d9c7f","ios":"levelo://app?vid=bb21344b-60f7-4604-854a-27a0024d9c7f"},"vehicle_type_id":"4","last_reported":1686924364,"current_range_meters":31200,"station_id":"ce4bhbp2rcd13ifvqerg","pricing_plan_id":"free"},{"bike_id":"f9381752-702d-4289-bacd-8c83745cd888","system_id":"levelo_inurba_marseille","lat":43.2826,"lon":5.35063,"is_reserved":false,"is_disabled":false,"rental_uris":{"android":"levelo://app?vid=f9381752-702d-4289-bacd-8c83745cd888","ios":"levelo://app?vid=f9381752-702d-4289-bacd-8c83745cd888"},"vehicle_type_id":"4","last_reported":1686924364,"current_range_meters":16400,"station_id":"ce4bhbp2rcd13ifvqerg","pricing_plan_id":"free"},{"bike_id":"03c01365-7376-43be-8846-53536134319c","system_id":"levelo_inurba_marseille","lat":43.28258,"lon":5.3507,"is_reserved":false,"is_disabled":false,"rental_uris":{"android":"levelo://app?vid=03c01365-7376-43be-8846-53536134319c","ios":"levelo://app?vid=03c01365-7376-43be-8846-53536134319c"},"vehicle_type_id":"4","last_reported":1686924364,"current_range_meters":28800,"station_id":"ce4bhbp2rcd13ifvqerg","pricing_plan_id":"free"},{"bike_id":"cc70cd77-a392-4c83-a459-cd6444847367","system_id":"levelo_inurba_marseille","lat":43.28257,"lon":5.35063,"is_reserved":false,"is_disabled":false,"rental_uris":{"android":"levelo://app?vid=cc70cd77-a392-4c83-a459-cd6444847367","ios":"levelo://app?vid=cc70cd77-a392-4c83-a459-cd6444847367"},"vehicle_type_id":"4","last_reported":1686924364,"current_range_meters":15200,"station_id":"ce4bhbp2rcd13ifvqerg","pricing_plan_id":"free"},{"bike_id":"ad25fedf-badc-4aa9-8e08-266da66d727c","system_id":"levelo_inurba_marseille","lat":43.28255,"lon":5.35067,"is_reserved":false,"is_disabled":false,"rental_uris":{"android":"levelo://app?vid=ad25fedf-badc-4aa9-8e08-266da66d727c","ios":"levelo://app?vid=ad25fedf-badc-4aa9-8e08-266da66d727c"},"vehicle_type_id":"4","last_reported":1686924364,"current_range_meters":2400,"station_id":"ce4bhbp2rcd13ifvqerg","pricing_plan_id":"free"},{"bike_id":"638c4174-48c4-402f-99c7-aa7e2bbd26a9","system_id":"levelo_inurba_marseille","lat":43.28112,"lon":5.3784,"is_reserved":false,"is_disabled":false,"rental_uris":{"android":"levelo://app?vid=638c4174-48c4-402f-99c7-aa7e2bbd26a9","ios":"levelo://app?vid=638c4174-48c4-402f-99c7-aa7e2bbd26a9"},"vehicle_type_id":"4","last_reported":1686924364,"current_range_meters":18800,"station_id":"ce4bha12rcd13ifvqee0","pricing_plan_id":"free"},{"bike_id":"0e0e2551-c5c0-40fa-8241-4604e88654ab","system_id":"levelo_inurba_marseille","lat":43.296263,"lon":5.40601,"is_reserved":false,"is_disabled":false,"rental_uris":{"android":"levelo://app?vid=0e0e2551-c5c0-40fa-8241-4604e88654ab","ios":"levelo://app?vid=0e0e2551-c5c0-40fa-8241-4604e88654ab"},"vehicle_type_id":"4","last_reported":1686924364,"current_range_meters":14800,"station_id":"ce4bh0h2rcd13ifvqd60","pricing_plan_id":"free"},{"bike_id":"74a59d6c-d6c7-460f-bba7-ce13812ac794","system_id":"levelo_inurba_marseille","lat":43.32664,"lon":5.40991,"is_reserved":false,"is_disabled":false,"rental_uris":{"android":"levelo://app?vid=74a59d6c-d6c7-460f-bba7-ce13812ac794","ios":"levelo://app?vid=74a59d6c-d6c7-460f-bba7-ce13812ac794"},"vehicle_type_id":"4","last_reported":1686924364,"current_range_meters":20800,"station_id":"ce4bhpp2rcd13ifvqhgg","pricing_plan_id":"free"},{"bike_id":"319acd4f-9666-4ac2-ae0b-2a10aac97fcd","system_id":"levelo_inurba_marseille","lat":43.326605,"lon":5.409903,"is_reserved":false,"is_disabled":false,"rental_uris":{"android":"levelo://app?vid=319acd4f-9666-4ac2-ae0b-2a10aac97fcd","ios":"levelo://app?vid=319acd4f-9666-4ac2-ae0b-2a10aac97fcd"},"vehicle_type_id":"4","last_reported":1686924364,"current_range_meters":22000,"station_id":"ce4bhpp2rcd13ifvqhgg","pricing_plan_id":"free"},{"bike_id":"a23bcb30-ebff-4895-8072-b4cc1cd87a80","system_id":"levelo_inurba_marseille","lat":43.32061,"lon":5.41532,"is_reserved":false,"is_disabled":false,"rental_uris":{"android":"levelo://app?vid=a23bcb30-ebff-4895-8072-b4cc1cd87a80","ios":"levelo://app?vid=a23bcb30-ebff-4895-8072-b4cc1cd87a80"},"vehicle_type_id":"4","last_reported":1686924364,"current_range_meters":22000,"station_id":"ce4bhq92rcd13ifvqhkg","pricing_plan_id":"free"},{"bike_id":"8288e8ed-1d01-461e-8fda-17a2d99d0a04","system_id":"levelo_inurba_marseille","lat":43.32056,"lon":5.41534,"is_reserved":false,"is_disabled":false,"rental_uris":{"android":"levelo://app?vid=8288e8ed-1d01-461e-8fda-17a2d99d0a04","ios":"levelo://app?vid=8288e8ed-1d01-461e-8fda-17a2d99d0a04"},"vehicle_type_id":"4","last_reported":1686924364,"current_range_meters":31200,"station_id":"ce4bhq92rcd13ifvqhkg","pricing_plan_id":"free"},{"bike_id":"7be9f628-a1dd-4275-9865-30860a3d0b49","system_id":"levelo_inurba_marseille","lat":43.32053,"lon":5.41544,"is_reserved":false,"is_disabled":false,"rental_uris":{"android":"levelo://app?vid=7be9f628-a1dd-4275-9865-30860a3d0b49","ios":"levelo://app?vid=7be9f628-a1dd-4275-9865-30860a3d0b49"},"vehicle_type_id":"4","last_reported":1686924364,"current_range_meters":23600,"station_id":"ce4bhq92rcd13ifvqhkg","pricing_plan_id":"free"},{"bike_id":"e932044b-cdff-4516-b483-238f7ab2ff9c","system_id":"levelo_inurba_marseille","lat":43.320045,"lon":5.415048,"is_reserved":false,"is_disabled":false,"rental_uris":{"android":"levelo://app?vid=e932044b-cdff-4516-b483-238f7ab2ff9c","ios":"levelo://app?vid=e932044b-cdff-4516-b483-238f7ab2ff9c"},"vehicle_type_id":"4","last_reported":1686924364,"current_range_meters":22800,"station_id":"ce4bhq92rcd13ifvqhkg","pricing_plan_id":"free"},{"bike_id":"62dddf75-3d98-479a-923a-bd343e67449d","system_id":"levelo_inurba_marseille","lat":43.320045,"lon":5.415048,"is_reserved":false,"is_disabled":false,"rental_uris":{"android":"levelo://app?vid=62dddf75-3d98-479a-923a-bd343e67449d","ios":"levelo://app?vid=62dddf75-3d98-479a-923a-bd343e67449d"},"vehicle_type_id":"4","last_reported":1686924364,"current_range_meters":0,"station_id":"ce4bhq92rcd13ifvqhkg","pricing_plan_id":"free"},{"bike_id":"e5cdfdcc-98fe-49bc-88de-2678d49d0a58","system_id":"levelo_inurba_marseille","lat":43.320045,"lon":5.415048,"is_reserved":false,"is_disabled":false,"rental_uris":{"android":"levelo://app?vid=e5cdfdcc-98fe-49bc-88de-2678d49d0a58","ios":"levelo://app?vid=e5cdfdcc-98fe-49bc-88de-2678d49d0a58"},"vehicle_type_id":"4","last_reported":1686924364,"current_range_meters":27200,"station_id":"ce4bhq92rcd13ifvqhkg","pricing_plan_id":"free"},{"bike_id":"8e8c8a53-4519-4e75-9751-f40e9e63fca3","system_id":"levelo_inurba_marseille","lat":43.320045,"lon":5.415046,"is_reserved":false,"is_disabled":false,"rental_uris":{"android":"levelo://app?vid=8e8c8a53-4519-4e75-9751-f40e9e63fca3","ios":"levelo://app?vid=8e8c8a53-4519-4e75-9751-f40e9e63fca3"},"vehicle_type_id":"4","last_reported":1686924364,"current_range_meters":24400,"station_id":"ce4bhq92rcd13ifvqhkg","pricing_plan_id":"free"},{"bike_id":"13a3a0a9-f34a-49bd-ab6a-dd4824d9764b","system_id":"levelo_inurba_marseille","lat":43.320045,"lon":5.415046,"is_reserved":false,"is_disabled":false,"rental_uris":{"android":"levelo://app?vid=13a3a0a9-f34a-49bd-ab6a-dd4824d9764b","ios":"levelo://app?vid=13a3a0a9-f34a-49bd-ab6a-dd4824d9764b"},"vehicle_type_id":"4","last_reported":1686924364,"current_range_meters":31600,"station_id":"ce4bhq92rcd13ifvqhkg","pricing_plan_id":"free"},{"bike_id":"8cf5c208-55d0-4c99-8630-32f177b195af","system_id":"levelo_inurba_marseille","lat":43.320045,"lon":5.415048,"is_reserved":false,"is_disabled":false,"rental_uris":{"android":"levelo://app?vid=8cf5c208-55d0-4c99-8630-32f177b195af","ios":"levelo://app?vid=8cf5c208-55d0-4c99-8630-32f177b195af"},"vehicle_type_id":"4","last_reported":1686924364,"current_range_meters":14400,"station_id":"ce4bhq92rcd13ifvqhkg","pricing_plan_id":"free"},{"bike_id":"a717f941-fedc-4fa8-9348-80df5661f4f1","system_id":"levelo_inurba_marseille","lat":43.320045,"lon":5.415046,"is_reserved":false,"is_disabled":false,"rental_uris":{"android":"levelo://app?vid=a717f941-fedc-4fa8-9348-80df5661f4f1","ios":"levelo://app?vid=a717f941-fedc-4fa8-9348-80df5661f4f1"},"vehicle_type_id":"4","last_reported":1686924364,"current_range_meters":27200,"station_id":"ce4bhq92rcd13ifvqhkg","pricing_plan_id":"free"},{"bike_id":"650c4eaa-ce3b-438f-ac86-9285008d9ad0","system_id":"levelo_inurba_marseille","lat":43.32522,"lon":5.41407,"is_reserved":false,"is_disabled":false,"rental_uris":{"android":"levelo://app?vid=650c4eaa-ce3b-438f-ac86-9285008d9ad0","ios":"levelo://app?vid=650c4eaa-ce3b-438f-ac86-9285008d9ad0"},"vehicle_type_id":"4","last_reported":1686924364,"current_range_meters":22000,"station_id":"ce4bhq12rcd13ifvqhhg","pricing_plan_id":"free"},{"bike_id":"39301ec5-50ae-4db9-8fd2-5950ea208d0f","system_id":"levelo_inurba_marseille","lat":43.292571,"lon":5.409107,"is_reserved":false,"is_disabled":false,"rental_uris":{"android":"levelo://app?vid=39301ec5-50ae-4db9-8fd2-5950ea208d0f","ios":"levelo://app?vid=39301ec5-50ae-4db9-8fd2-5950ea208d0f"},"vehicle_type_id":"4","last_reported":1686924364,"current_range_meters":10800,"station_id":"ce4bh192rcd13ifvqdc0","pricing_plan_id":"free"},{"bike_id":"2a92d45c-8727-40b2-bd4f-a05b85cd98c0","system_id":"levelo_inurba_marseille","lat":43.325233,"lon":5.414318,"is_reserved":false,"is_disabled":false,"rental_uris":{"android":"levelo://app?vid=2a92d45c-8727-40b2-bd4f-a05b85cd98c0","ios":"levelo://app?vid=2a92d45c-8727-40b2-bd4f-a05b85cd98c0"},"vehicle_type_id":"4","last_reported":1686924364,"current_range_meters":15600,"station_id":"ce4bhq12rcd13ifvqhhg","pricing_plan_id":"free"},{"bike_id":"1947520d-1a5c-40dc-acbf-6e1da25ba82c","system_id":"levelo_inurba_marseille","lat":43.292571,"lon":5.409107,"is_reserved":false,"is_disabled":false,"rental_uris":{"android":"levelo://app?vid=1947520d-1a5c-40dc-acbf-6e1da25ba82c","ios":"levelo://app?vid=1947520d-1a5c-40dc-acbf-6e1da25ba82c"},"vehicle_type_id":"4","last_reported":1686924364,"current_range_meters":0,"station_id":"ce4bh192rcd13ifvqdc0","pricing_plan_id":"free"},{"bike_id":"05a09b2b-5643-401a-85d2-bdabf519f5e9","system_id":"levelo_inurba_marseille","lat":43.292571,"lon":5.409107,"is_reserved":false,"is_disabled":false,"rental_uris":{"android":"levelo://app?vid=05a09b2b-5643-401a-85d2-bdabf519f5e9","ios":"levelo://app?vid=05a09b2b-5643-401a-85d2-bdabf519f5e9"},"vehicle_type_id":"4","last_reported":1686924364,"current_range_meters":18800,"station_id":"ce4bh192rcd13ifvqdc0","pricing_plan_id":"free"},{"bike_id":"ad0f8923-aa7d-498b-be1e-cf84e483f980","system_id":"levelo_inurba_marseille","lat":43.325233,"lon":5.414318,"is_reserved":false,"is_disabled":false,"rental_uris":{"android":"levelo://app?vid=ad0f8923-aa7d-498b-be1e-cf84e483f980","ios":"levelo://app?vid=ad0f8923-aa7d-498b-be1e-cf84e483f980"},"vehicle_type_id":"4","last_reported":1686924364,"current_range_meters":31200,"station_id":"ce4bhq12rcd13ifvqhhg","pricing_plan_id":"free"},{"bike_id":"6efdd409-87d3-47bc-bb39-3948ccbe7d05","system_id":"levelo_inurba_marseille","lat":43.32545,"lon":5.4143,"is_reserved":false,"is_disabled":false,"rental_uris":{"android":"levelo://app?vid=6efdd409-87d3-47bc-bb39-3948ccbe7d05","ios":"levelo://app?vid=6efdd409-87d3-47bc-bb39-3948ccbe7d05"},"vehicle_type_id":"4","last_reported":1686924364,"current_range_meters":31200,"station_id":"ce4bhq12rcd13ifvqhhg","pricing_plan_id":"free"},{"bike_id":"14879316-f806-4126-a1c8-392baf369196","system_id":"levelo_inurba_marseille","lat":43.32539,"lon":5.41436,"is_reserved":false,"is_disabled":false,"rental_uris":{"android":"levelo://app?vid=14879316-f806-4126-a1c8-392baf369196","ios":"levelo://app?vid=14879316-f806-4126-a1c8-392baf369196"},"vehicle_type_id":"4","last_reported":1686924364,"current_range_meters":31200,"station_id":"","pricing_plan_id":"free"},{"bike_id":"6a5c0dc4-3be3-4ccb-8338-4ae2e78bfe61","system_id":"levelo_inurba_marseille","lat":43.32538,"lon":5.41441,"is_reserved":false,"is_disabled":false,"rental_uris":{"android":"levelo://app?vid=6a5c0dc4-3be3-4ccb-8338-4ae2e78bfe61","ios":"levelo://app?vid=6a5c0dc4-3be3-4ccb-8338-4ae2e78bfe61"},"vehicle_type_id":"4","last_reported":1686924364,"current_range_meters":23200,"station_id":"","pricing_plan_id":"free"},{"bike_id":"5022f31c-3431-48c0-899d-4f3fa33c4729","system_id":"levelo_inurba_marseille","lat":43.325233,"lon":5.414318,"is_reserved":false,"is_disabled":false,"rental_uris":{"android":"levelo://app?vid=5022f31c-3431-48c0-899d-4f3fa33c4729","ios":"levelo://app?vid=5022f31c-3431-48c0-899d-4f3fa33c4729"},"vehicle_type_id":"4","last_reported":1686924364,"current_range_meters":31200,"station_id":"ce4bhq12rcd13ifvqhhg","pricing_plan_id":"free"},{"bike_id":"8536a898-7e69-4037-9f53-21da4bd360ab","system_id":"levelo_inurba_marseille","lat":43.32534,"lon":5.41444,"is_reserved":false,"is_disabled":false,"rental_uris":{"android":"levelo://app?vid=8536a898-7e69-4037-9f53-21da4bd360ab","ios":"levelo://app?vid=8536a898-7e69-4037-9f53-21da4bd360ab"},"vehicle_type_id":"4","last_reported":1686924364,"current_range_meters":23200,"station_id":"ce4bhq12rcd13ifvqhhg","pricing_plan_id":"free"},{"bike_id":"27e3d8de-2128-4872-abc7-3f2b117c8823","system_id":"levelo_inurba_marseille","lat":43.325233,"lon":5.414318,"is_reserved":false,"is_disabled":false,"rental_uris":{"android":"levelo://app?vid=27e3d8de-2128-4872-abc7-3f2b117c8823","ios":"levelo://app?vid=27e3d8de-2128-4872-abc7-3f2b117c8823"},"vehicle_type_id":"4","last_reported":1686924364,"current_range_meters":24000,"station_id":"ce4bhq12rcd13ifvqhhg","pricing_plan_id":"free"},{"bike_id":"dcc9ca36-85ea-4441-8402-1828d7cfe66a","system_id":"levelo_inurba_marseille","lat":43.325233,"lon":5.414318,"is_reserved":false,"is_disabled":false,"rental_uris":{"android":"levelo://app?vid=dcc9ca36-85ea-4441-8402-1828d7cfe66a","ios":"levelo://app?vid=dcc9ca36-85ea-4441-8402-1828d7cfe66a"},"vehicle_type_id":"4","last_reported":1686924364,"current_range_meters":29200,"station_id":"ce4bhq12rcd13ifvqhhg","pricing_plan_id":"free"},{"bike_id":"551bc9ce-d049-4ff0-8d93-2240ea25d870","system_id":"levelo_inurba_marseille","lat":43.27618,"lon":5.36109,"is_reserved":false,"is_disabled":false,"rental_uris":{"android":"levelo://app?vid=551bc9ce-d049-4ff0-8d93-2240ea25d870","ios":"levelo://app?vid=551bc9ce-d049-4ff0-8d93-2240ea25d870"},"vehicle_type_id":"4","last_reported":1686924364,"current_range_meters":8800,"station_id":"ce4bgj92rcd13ifvqbe0","pricing_plan_id":"free"},{"bike_id":"12d0afe1-d847-4aca-b8a0-ff4074abc897","system_id":"levelo_inurba_marseille","lat":43.325233,"lon":5.414318,"is_reserved":false,"is_disabled":false,"rental_uris":{"android":"levelo://app?vid=12d0afe1-d847-4aca-b8a0-ff4074abc897","ios":"levelo://app?vid=12d0afe1-d847-4aca-b8a0-ff4074abc897"},"vehicle_type_id":"4","last_reported":1686924364,"current_range_meters":18800,"station_id":"ce4bhq12rcd13ifvqhhg","pricing_plan_id":"free"},{"bike_id":"db1f9fd2-7be9-42ca-b3f9-a3b9d5bc68fd","system_id":"levelo_inurba_marseille","lat":43.27618,"lon":5.361009,"is_reserved":false,"is_disabled":false,"rental_uris":{"android":"levelo://app?vid=db1f9fd2-7be9-42ca-b3f9-a3b9d5bc68fd","ios":"levelo://app?vid=db1f9fd2-7be9-42ca-b3f9-a3b9d5bc68fd"},"vehicle_type_id":"4","last_reported":1686924364,"current_range_meters":18400,"station_id":"ce4bgj92rcd13ifvqbe0","pricing_plan_id":"free"},{"bike_id":"8f714ab9-6f41-47b2-9284-97205b88934f","system_id":"levelo_inurba_marseille","lat":43.325233,"lon":5.414318,"is_reserved":false,"is_disabled":false,"rental_uris":{"android":"levelo://app?vid=8f714ab9-6f41-47b2-9284-97205b88934f","ios":"levelo://app?vid=8f714ab9-6f41-47b2-9284-97205b88934f"},"vehicle_type_id":"4","last_reported":1686924364,"current_range_meters":30000,"station_id":"ce4bhq12rcd13ifvqhhg","pricing_plan_id":"free"},