{"last_updated":1678907145,"ttl":30,"version":"2.2","data":{"bikes":[{"bike_id":"8afbb4bb-286b-48a7-bef6-b3887ce0e3eb","system_id":"levelo_inurba_marseille","lat":43.312239,"lon":5.368562,"is_reserved":false,"is_disabled":false,"rental_uris":{"android":"levelo://app?vid=8afbb4bb-286b-48a7-bef6-b3887ce0e3eb","ios":"levelo://app?vid=8afbb4bb-286b-48a7-bef6-b3887ce0e3eb"},"vehicle_type_id":"4","last_reported":1678907145,"current_range_meters":17600,"station_id":"ce4bgl92rcd13ifvqbq0","pricing_plan_id":"free"},{"bike_id":"8c8ad904-ce94-48c1-9a40-307393891456","system_id":"levelo_inurba_marseille","lat":43.312239,"lon":5.368562,"is_reserved":false,"is_disabled":false,"rental_uris":{"android":"levelo://app?vid=8c8ad904-ce94-48c1-9a40-307393891456","ios":"levelo://app?vid=8c8ad904-ce94-48c1-9a40-307393891456"},"vehicle_type_id":"4","last_reported":1678907145,"current_range_meters":4800,"station_id":"ce4bgl92rcd13ifvqbq0","pricing_plan_id":"free"},{"bike_id":"385cfe83-498e-4c39-a9ff-c412f3d6d79b","system_id":"levelo_inurba_marseille","lat":43.309031,"lon":5.368413,"is_reserved":false,"is_disabled":false,"rental_uris":{"android":"levelo://app?vid=385cfe83-498e-4c39-a9ff-c412f3d6d79b","ios":"levelo://app?vid=385cfe83-498e-4c39-a9ff-c412f3d6d79b"},"vehicle_type_id":"4","last_reported":1678907145,"current_range_meters":9600,"station_id":"ce4bgn92rcd13ifvqbvg","pricing_plan_id":"free"},{"bike_id":"e20c357f-9296-4d6c-9428-3b004f697281","system_id":"levelo_inurba_marseille","lat":43.308917,"lon":5.371917,"is_reserved":false,"is_disabled":false,"rental_uris":{"android":"levelo://app?vid=e20c357f-9296-4d6c-9428-3b004f697281","ios":"levelo://app?vid=e20c357f-9296-4d6c-9428-3b004f697281"},"vehicle_type_id":"4","last_reported":1678907145,"current_range_meters":31600,"station_id":"","pricing_plan_id":"free"},{"bike_id":"9ccc45da-b25d-45f0-b1fd-b754aaa9c04b","system_id":"levelo_inurba_marseille","lat":43.308614,"lon":5.372098,"is_reserved":false,"is_disabled":false,"rental_uris":{"android":"levelo://app?vid=9ccc45da-b25d-45f0-b1fd-b754aaa9c04b","ios":"levelo://app?vid=9ccc45da-b25d-45f0-b1fd-b754aaa9c04b"},"vehicle_type_id":"4","last_reported":1678907145,"current_range_meters":8800,"station_id":"ce4bguh2rcd13ifvqckg","pricing_plan_id":"free"},{"bike_id":"7139dde6-f20f-449c-bc3c-cd6afe1f9575","system_id":"levelo_inurba_marseille","lat":43.305989,"lon":5.37225,"is_reserved":false,"is_disabled":false,"rental_uris":{"android":"levelo://app?vid=7139dde6-f20f-449c-bc3c-cd6afe1f9575","ios":"levelo://app?vid=7139dde6-f20f-449c-bc3c-cd6afe1f9575"},"vehicle_type_id":"4","last_reported":1678907145,"current_range_meters":7200,"station_id":"ce4bgqh2rcd13ifvqc4g","pricing_plan_id":"free"},{"bike_id":"bf6de165-ad6f-411c-b850-57eec0bad738","system_id":"levelo_inurba_marseille","lat":43.317075,"lon":5.377367,"is_reserved":false,"is_disabled":false,"rental_uris":{"android":"levelo://app?vid=bf6de165-ad6f-411c-b850-57eec0bad738","ios":"levelo://app?vid=bf6de165-ad6f-411c-b850-57eec0bad738"},"vehicle_type_id":"4","last_reported":1678907145,"current_range_meters":30400,"station_id":"ce4bgth2rcd13ifvqch0","pricing_plan_id":"free"},{"bike_id":"efcad3b1-0d9e-4cc0-abeb-3c0e570140fb","system_id":"levelo_inurba_marseille","lat":43.301939,"lon":5.366286,"is_reserved":false,"is_disabled":false,"rental_uris":{"android":"levelo://app?vid=efcad3b1-0d9e-4cc0-abeb-3c0e570140fb","ios":"levelo://app?vid=efcad3b1-0d9e-4cc0-abeb-3c0e570140fb"},"vehicle_type_id":"4","last_reported":1678907145,"current_range_meters":27600,"station_id":"ce4bgrh2rcd13ifvqc8g","pricing_plan_id":"free"},{"bike_id":"913d389d-af0a-49c5-a280-f02d81562316","system_id":"levelo_inurba_marseille","lat":43.308,"lon":5.38144,"is_reserved":false,"is_disabled":false,"rental_uris":{"android":"levelo://app?vid=913d389d-af0a-49c5-a280-f02d81562316","ios":"levelo://app?vid=913d389d-af0a-49c5-a280-f02d81562316"},"vehicle_type_id":"4","last_reported":1678907145,"current_range_meters":6400,"station_id":"","pricing_plan_id":"free"},{"bike_id":"964af5bd-6f72-41b9-b186-d9b280fbb5b9","system_id":"levelo_inurba_marseille","lat":43.308,"lon":5.38152,"is_reserved":false,"is_disabled":false,"rental_uris":{"android":"levelo://app?vid=964af5bd-6f72-41b9-b186-d9b280fbb5b9","ios":"levelo://app?vid=964af5bd-6f72-41b9-b186-d9b280fbb5b9"},"vehicle_type_id":"4","last_reported":1678907145,"current_range_meters":4800,"station_id":"","pricing_plan_id":"free"},{"bike_id":"d3b2aef0-7d2a-4c95-b4d5-3df07d063a5a","system_id":"levelo_inurba_marseille","lat":43.30798,"lon":5.38157,"is_reserved":false,"is_disabled":false,"rental_uris":{"android":"levelo://app?vid=d3b2aef0-7d2a-4c95-b4d5-3df07d063a5a","ios":"levelo://app?vid=d3b2aef0-7d2a-4c95-b4d5-3df07d063a5a"},"vehicle_type_id":"4","last_reported":1678907145,"current_range_meters":15200,"station_id":"","pricing_plan_id":"free"},{"bike_id":"663e21c9-1025-4a5e-a596-27525bd1831a","system_id":"levelo_inurba_marseille","lat":43.29941,"lon":5.3655,"is_reserved":false,"is_disabled":false,"rental_uris":{"android":"levelo://app?vid=663e21c9-1025-4a5e-a596-27525bd1831a","ios":"levelo://app?vid=663e21c9-1025-4a5e-a596-27525bd1831a"},"vehicle_type_id":"4","last_reported":1678907145,"current_range_meters":2000,"station_id":"","pricing_plan_id":"free"},{"bike_id":"c16cdcff-d39f-4906-97b8-73a858492a02","system_id":"levelo_inurba_marseille","lat":43.29938,"lon":5.36556,"is_reserved":false,"is_disabled":false,"rental_uris":{"android":"levelo://app?vid=c16cdcff-d39f-4906-97b8-73a858492a02","ios":"levelo://app?vid=c16cdcff-d39f-4906-97b8-73a858492a02"},"vehicle_type_id":"4","last_reported":1678907145,"current_range_meters":27200,"station_id":"ce4bgm92rcd13ifvqbr0","pricing_plan_id":"free"},{"bike_id":"e4bd3c23-7a4b-4934-b782-53a9e8fd89a7","system_id":"levelo_inurba_marseille","lat":43.31074,"lon":5.38514,"is_reserved":false,"is_disabled":false,"rental_uris":{"android":"levelo://app?vid=e4bd3c23-7a4b-4934-b782-53a9e8fd89a7","ios":"levelo://app?vid=e4bd3c23-7a4b-4934-b782-53a9e8fd89a7"},"vehicle_type_id":"4","last_reported":1678907145,"current_range_meters":0,"station_id":"","pricing_plan_id":"free"},{"bike_id":"de8bcea7-f2d6-4825-8393-71e97df12c2b","system_id":"levelo_inurba_marseille","lat":43.306666,"lon":5.383909,"is_reserved":false,"is_disabled":false,"rental_uris":{"android":"levelo://app?vid=de8bcea7-f2d6-4825-8393-71e97df12c2b","ios":"levelo://app?vid=de8bcea7-f2d6-4825-8393-71e97df12c2b"},"vehicle_type_id":"4","last_reported":1678907145,"current_range_meters":0,"station_id":"","pricing_plan_id":"free"},{"bike_id":"2c3c63d6-8bee-478b-98a2-7a0f2c1988d9","system_id":"levelo_inurba_marseille","lat":43.298433,"lon":5.362774,"is_reserved":false,"is_disabled":false,"rental_uris":{"android":"levelo://app?vid=2c3c63d6-8bee-478b-98a2-7a0f2c1988d9","ios":"levelo://app?vid=2c3c63d6-8bee-478b-98a2-7a0f2c1988d9"},"vehicle_type_id":"4","last_reported":1678907145,"current_range_meters":24000,"station_id":"ce4bgpp2rcd13ifvqc3g","pricing_plan_id":"free"},{"bike_id":"1b554cdc-e9c0-43c8-bf78-13b405c65a0e","system_id":"levelo_inurba_marseille","lat":43.297794,"lon":5.370888,"is_reserved":false,"is_disabled":false,"rental_uris":{"android":"levelo://app?vid=1b554cdc-e9c0-43c8-bf78-13b405c65a0e","ios":"levelo://app?vid=1b554cdc-e9c0-43c8-bf78-13b405c65a0e"},"vehicle_type_id":"4","last_reported":1678907145,"current_range_meters":18800,"station_id":"ce4bgop2rcd13ifvqc1g","pricing_plan_id":"free"},{"bike_id":"31b50ec1-1c20-4b95-9946-353c3c9367e0","system_id":"levelo_inurba_marseille","lat":43.328371,"lon":5.366912,"is_reserved":false,"is_disabled":false,"rental_uris":{"android":"levelo://app?vid=31b50ec1-1c20-4b95-9946-353c3c9367e0","ios":"levelo://app?vid=31b50ec1-1c20-4b95-9946-353c3c9367e0"},"vehicle_type_id":"4","last_reported":1678907145,"current_range_meters":16400,"station_id":"ce4bhs92rcd13ifvqi0g","pricing_plan_id":"free"},{"bike_id":"c5e4c59b-8094-4cf2-a197-6c5568059a2b","system_id":"levelo_inurba_marseille","lat":43.328371,"lon":5.366912,"is_reserved":false,"is_disabled":false,"rental_uris":{"android":"levelo://app?vid=c5e4c59b-8094-4cf2-a197-6c5568059a2b","ios":"levelo://app?vid=c5e4c59b-8094-4cf2-a197-6c5568059a2b"},"vehicle_type_id":"4","last_reported":1678907145,"current_range_meters":15600,"station_id":"ce4bhs92rcd13ifvqi0g","pricing_plan_id":"free"},{"bike_id":"f89f7ccd-5b15-4549-9c84-15ab44b7f263","system_id":"levelo_inurba_marseille","lat":43.328371,"lon":5.366912,"is_reserved":false,"is_disabled":false,"rental_uris":{"android":"levelo://app?vid=f89f7ccd-5b15-4549-9c84-15ab44b7f263","ios":"levelo://app?vid=f89f7ccd-5b15-4549-9c84-15ab44b7f263"},"vehicle_type_id":"4","last_reported":1678907145,"current_range_meters":23600,"station_id":"ce4bhs92rcd13ifvqi0g","pricing_plan_id":"free"},{"bike_id":"d894811d-ad94-44b8-89ff-52a7d770de8e","system_id":"levelo_inurba_marseille","lat":43.32827,"lon":5.3669,"is_reserved":false,"is_disabled":false,"rental_uris":{"android":"levelo://app?vid=d894811d-ad94-44b8-89ff-52a7d770de8e","ios":"levelo://app?vid=d894811d-ad94-44b8-89ff-52a7d770de8e"},"vehicle_type_id":"4","last_reported":1678907145,"current_range_meters":2000,"station_id":"","pricing_plan_id":"free"},{"bike_id":"9c07b28c-ec19-4987-8217-b808462d546f","system_id":"levelo_inurba_marseille","lat":43.328371,"lon":5.366912,"is_reserved":false,"is_disabled":false,"rental_uris":{"android":"levelo://app?vid=9c07b28c-ec19-4987-8217-b808462d546f","ios":"levelo://app?vid=9c07b28c-ec19-4987-8217-b808462d546f"},"vehicle_type_id":"4","last_reported":1678907145,"current_range_meters":800,"station_id":"ce4bhs92rcd13ifvqi0g","pricing_plan_id":"free"},{"bike_id":"3f1ecbd0-cf15-4224-9648-75f1ceebf9d1","system_id":"levelo_inurba_marseille","lat":43.328371,"lon":5.366912,"is_reserved":false,"is_disabled":false,"rental_uris":{"android":"levelo://app?vid=3f1ecbd0-cf15-4224-9648-75f1ceebf9d1","ios":"levelo://app?vid=3f1ecbd0-cf15-4224-9648-75f1ceebf9d1"},"vehicle_type_id":"4","last_reported":1678907145,"current_range_meters":1200,"station_id":"ce4bhs92rcd13ifvqi0g","pricing_plan_id":"free"},{"bike_id":"61e87ae3-1630-4850-b4a1-3247adcaaef1","system_id":"levelo_inurba_marseille","lat":43.32831,"lon":5.36692,"is_reserved":false,"is_disabled":false,"rental_uris":{"android":"levelo://app?vid=61e87ae3-1630-4850-b4a1-3247adcaaef1","ios":"levelo://app?vid=61e87ae3-1630-4850-b4a1-3247adcaaef1"},"vehicle_type_id":"4","last_reported":1678907145,"current_range_meters":6400,"station_id":"","pricing_plan_id":"free"},{"bike_id":"61276a3b-a248-47d7-a858-9e09345028d8","system_id":"levelo_inurba_marseille","lat":43.32833,"lon":5.36694,"is_reserved":false,"is_disabled":false,"rental_uris":{"android":"levelo://app?vid=61276a3b-a248-47d7-a858-9e09345028d8","ios":"levelo://app?vid=61276a3b-a248-47d7-a858-9e09345028d8"},"vehicle_type_id":"4","last_reported":1678907145,"current_range_meters":5200,"station_id":"","pricing_plan_id":"free"},{"bike_id":"a9c32f2c-2618-4f56-9637-ec3bb705a7d5","system_id":"levelo_inurba_marseille","lat":43.299028,"lon":5.381509,"is_reserved":false,"is_disabled":false,"rental_uris":{"android":"levelo://app?vid=a9c32f2c-2618-4f56-9637-ec3bb705a7d5","ios":"levelo://app?vid=a9c32f2c-2618-4f56-9637-ec3bb705a7d5"},"vehicle_type_id":"4","last_reported":1678907145,"current_range_meters":14400,"station_id":"ce4bgj12rcd13ifvqbc0","pricing_plan_id":"free"},{"bike_id":"d2082878-9b59-4360-9956-a4a0cb339dae","system_id":"levelo_inurba_marseille","lat":43.29904,"lon":5.38149,"is_reserved":false,"is_disabled":false,"rental_uris":{"android":"levelo://app?vid=d2082878-9b59-4360-9956-a4a0cb339dae","ios":"levelo://app?vid=d2082878-9b59-4360-9956-a4a0cb339dae"},"vehicle_type_id":"4","last_reported":1678907145,"current_range_meters":27600,"station_id":"","pricing_plan_id":"free"},{"bike_id":"a70a5d8b-69d4-4706-991d-9f490484201e","system_id":"levelo_inurba_marseille","lat":43.317557,"lon":5.390173,"is_reserved":false,"is_disabled":false,"rental_uris":{"android":"levelo://app?vid=a70a5d8b-69d4-4706-991d-9f490484201e","ios":"levelo://app?vid=a70a5d8b-69d4-4706-991d-9f490484201e"},"vehicle_type_id":"4","last_reported":1678907145,"current_range_meters":28000,"station_id":"ce4bhqp2rcd13ifvqhng","pricing_plan_id":"free"},{"bike_id":"6970df2c-958b-4d24-8685-7ac29b8a9dbd","system_id":"levelo_inurba_marseille","lat":43.317557,"lon":5.390173,"is_reserved":false,"is_disabled":false,"rental_uris":{"android":"levelo://app?vid=6970df2c-958b-4d24-8685-7ac29b8a9dbd","ios":"levelo://app?vid=6970df2c-958b-4d24-8685-7ac29b8a9dbd"},"vehicle_type_id":"4","last_reported":1678907145,"current_range_meters":0,"station_id":"ce4bhqp2rcd13ifvqhng","pricing_plan_id":"free"},{"bike_id":"7e9bc9ef-8b41-42b4-b1c1-c5eb5896f2cc","system_id":"levelo_inurba_marseille","lat":43.317557,"lon":5.390173,"is_reserved":false,"is_disabled":false,"rental_uris":{"android":"levelo://app?vid=7e9bc9ef-8b41-42b4-b1c1-c5eb5896f2cc","ios":"levelo://app?vid=7e9bc9ef-8b41-42b4-b1c1-c5eb5896f2cc"},"vehicle_type_id":"4","last_reported":1678907145,"current_range_meters":22800,"station_id":"ce4bhqp2rcd13ifvqhng","pricing_plan_id":"free"},{"bike_id":"6cc19b0a-0749-4758-b72e-da5c7e55a5e4","system_id":"levelo_inurba_marseille","lat":43.295689,"lon":5.375256,"is_reserved":false,"is_disabled":false,"rental_uris":{"android":"levelo://app?vid=6cc19b0a-0749-4758-b72e-da5c7e55a5e4","ios":"levelo://app?vid=6cc19b0a-0749-4758-b72e-da5c7e55a5e4"},"vehicle_type_id":"4","last_reported":1678907145,"current_range_meters":8800,"station_id":"","pricing_plan_id":"free"},{"bike_id":"22e25762-4190-44c7-9100-113008c668f8","system_id":"levelo_inurba_marseille","lat":43.29625,"lon":5.37751,"is_reserved":false,"is_disabled":false,"rental_uris":{"android":"levelo://app?vid=22e25762-4190-44c7-9100-113008c668f8","ios":"levelo://app?vid=22e25762-4190-44c7-9100-113008c668f8"},"vehicle_type_id":"4","last_reported":1678907145,"current_range_meters":6400,"station_id":"","pricing_plan_id":"free"},{"bike_id":"c5f97a90-53fb-42bf-8a05-8029c85e43e4","system_id":"levelo_inurba_marseille","lat":43.296263,"lon":5.377094,"is_reserved":false,"is_disabled":false,"rental_uris":{"android":"levelo://app?vid=c5f97a90-53fb-42bf-8a05-8029c85e43e4","ios":"levelo://app?vid=c5f97a90-53fb-42bf-8a05-8029c85e43e4"},"vehicle_type_id":"4","last_reported":1678907145,"current_range_meters":20800,"station_id":"ce4bgi92rcd13ifvqb90","pricing_plan_id":"free"},{"bike_id":"7476c5ba-62fa-4938-804e-c90ab4a8d7f3","system_id":"levelo_inurba_marseille","lat":43.29972,"lon":5.38492,"is_reserved":false,"is_disabled":false,"rental_uris":{"android":"levelo://app?vid=7476c5ba-62fa-4938-804e-c90ab4a8d7f3","ios":"levelo://app?vid=7476c5ba-62fa-4938-804e-c90ab4a8d7f3"},"vehicle_type_id":"4","last_reported":1678907145,"current_range_meters":22400,"station_id":"","pricing_plan_id":"free"},{"bike_id":"91404cf4-4a97-4d32-81b8-01c565aa3aa5","system_id":"levelo_inurba_marseille","lat":43.29969,"lon":5.38496,"is_reserved":false,"is_disabled":false,"rental_uris":{"android":"levelo://app?vid=91404cf4-4a97-4d32-81b8-01c565aa3aa5","ios":"levelo://app?vid=91404cf4-4a97-4d32-81b8-01c565aa3aa5"},"vehicle_type_id":"4","last_reported":1678907145,"current_range_meters":21200,"station_id":"","pricing_plan_id":"free"},{"bike_id":"f642db45-e28f-41e3-8daa-19bf460509d7","system_id":"levelo_inurba_marseille","lat":43.29961,"lon":5.38506,"is_reserved":false,"is_disabled":false,"rental_uris":{"android":"levelo://app?vid=f642db45-e28f-41e3-8daa-19bf460509d7","ios":"levelo://app?vid=f642db45-e28f-41e3-8daa-19bf460509d7"},"vehicle_type_id":"4","last_reported":1678907145,"current_range_meters":17200,"station_id":"ce4bgj92rcd13ifvqbd0","pricing_plan_id":"free"},{"bike_id":"0d84d935-110d-4e82-9a95-fe52649b6d0c","system_id":"levelo_inurba_marseille","lat":43.2943,"lon":5.37408,"is_reserved":false,"is_disabled":false,"rental_uris":{"android":"levelo://app?vid=0d84d935-110d-4e82-9a95-fe52649b6d0c","ios":"levelo://app?vid=0d84d935-110d-4e82-9a95-fe52649b6d0c"},"vehicle_type_id":"4","last_reported":1678907145,"current_range_meters":2000,"station_id":"","pricing_plan_id":"free"},{"bike_id":"9af48ff2-718a-4646-a1b5-1d5cbd478733","system_id":"levelo_inurba_marseille","lat":43.32361,"lon":5.38882,"is_reserved":false,"is_disabled":false,"rental_uris":{"android":"levelo://app?vid=9af48ff2-718a-4646-a1b5-1d5cbd478733","ios":"levelo://app?vid=9af48ff2-718a-4646-a1b5-1d5cbd478733"},"vehicle_type_id":"4","last_reported":1678907145,"current_range_meters":2400,"station_id":"ce4bhqp2rcd13ifvqhog","pricing_plan_id":"free"},{"bike_id":"c29ccd94-7e2e-4048-bf94-01a5560038b5","system_id":"levelo_inurba_marseille","lat":43.32365,"lon":5.3888,"is_reserved":false,"is_disabled":false,"rental_uris":{"android":"levelo://app?vid=c29ccd94-7e2e-4048-bf94-01a5560038b5","ios":"levelo://app?vid=c29ccd94-7e2e-4048-bf94-01a5560038b5"},"vehicle_type_id":"4","last_reported":1678907145,"current_range_meters":8000,"station_id":"ce4bhqp2rcd13ifvqhog","pricing_plan_id":"free"},{"bike_id":"49e9f1f7-126d-4f0d-b056-ceb25964a9a1","system_id":"levelo_inurba_marseille","lat":43.32365,"lon":5.38885,"is_reserved":false,"is_disabled":false,"rental_uris":{"android":"levelo://app?vid=49e9f1f7-126d-4f0d-b056-ceb25964a9a1","ios":"levelo://app?vid=49e9f1f7-126d-4f0d-b056-ceb25964a9a1"},"vehicle_type_id":"4","last_reported":1678907145,"current_range_meters":31600,"station_id":"","pricing_plan_id":"free"},{"bike_id":"90632206-5336-4ad2-a433-4dd8461fbf18","system_id":"levelo_inurba_marseille","lat":43.32367,"lon":5.388836,"is_reserved":false,"is_disabled":false,"rental_uris":{"android":"levelo://app?vid=90632206-5336-4ad2-a433-4dd8461fbf18","ios":"levelo://app?vid=90632206-5336-4ad2-a433-4dd8461fbf18"},"vehicle_type_id":"4","last_reported":1678907145,"current_range_meters":26800,"station_id":"ce4bhqp2rcd13ifvqhog","pricing_plan_id":"free"},{"bike_id":"9971499e-f6dc-4f03-9a75-9e9b57487b0c","system_id":"levelo_inurba_marseille","lat":43.32369,"lon":5.38882,"is_reserved":false,"is_disabled":false,"rental_uris":{"android":"levelo://app?vid=9971499e-f6dc-4f03-9a75-9e9b57487b0c","ios":"levelo://app?vid=9971499e-f6dc-4f03-9a75-9e9b57487b0c"},"vehicle_type_id":"4","last_reported":1678907145,"current_range_meters":29200,"station_id":"","pricing_plan_id":"free"},{"bike_id":"e38ef56d-2c54-4da4-9cdb-a655aa337559","system_id":"levelo_inurba_marseille","lat":43.32367,"lon":5.388836,"is_reserved":false,"is_disabled":false,"rental_uris":{"android":"levelo://app?vid=e38ef56d-2c54-4da4-9cdb-a655aa337559","ios":"levelo://app?vid=e38ef56d-2c54-4da4-9cdb-a655aa337559"},"vehicle_type_id":"4","last_reported":1678907145,"current_range_meters":6000,"station_id":"ce4bhqp2rcd13ifvqhog","pricing_plan_id":"free"},{"bike_id":"ddb58a1f-109b-4c51-ac1a-f6ce81819e83","system_id":"levelo_inurba_marseille","lat":43.32365,"lon":5.38886,"is_reserved":false,"is_disabled":false,"rental_uris":{"android":"levelo://app?vid=ddb58a1f-109b-4c51-ac1a-f6ce81819e83","ios":"levelo://app?vid=ddb58a1f-109b-4c51-ac1a-f6ce81819e83"},"vehicle_type_id":"4","last_reported":1678907145,"current_range_meters":14400,"station_id":"","pricing_plan_id":"free"},{"bike_id":"a808b8d9-6228-4724-84f4-46578b1508c9","system_id":"levelo_inurba_marseille","lat":43.32367,"lon":5.388836,"is_reserved":false,"is_disabled":false,"rental_uris":{"android":"levelo://app?vid=a808b8d9-6228-4724-84f4-46578b1508c9","ios":"levelo://app?vid=a808b8d9-6228-4724-84f4-46578b1508c9"},"vehicle_type_id":"4","last_reported":1678907145,"current_range_meters":800,"station_id":"ce4bhqp2rcd13ifvqhog","pricing_plan_id":"free"},{"bike_id":"675579d7-318f-4b6a-92d0-b675b1aa3245","system_id":"levelo_inurba_marseille","lat":43.323643,"lon":5.388893,"is_reserved":false,"is_disabled":false,"rental_uris":{"android":"levelo://app?vid=675579d7-318f-4b6a-92d0-b675b1aa3245","ios":"levelo://app?vid=675579d7-318f-4b6a-92d0-b675b1aa3245"},"vehicle_type_id":"4","last_reported":1678907145,"current_range_meters":23200,"station_id":"","pricing_plan_id":"free"},{"bike_id":"4d5a6395-13f3-42b3-81e7-3bf6168445b4","system_id":"levelo_inurba_marseille","lat":43.32367,"lon":5.388836,"is_reserved":false,"is_disabled":false,"rental_uris":{"android":"levelo://app?vid=4d5a6395-13f3-42b3-81e7-3bf6168445b4","ios":"levelo://app?vid=4d5a6395-13f3-42b3-81e7-3bf6168445b4"},"vehicle_type_id":"4","last_reported":1678907145,"current_range_meters":400,"station_id":"ce4bhqp2rcd13ifvqhog","pricing_plan_id":"free"},{"bike_id":"b390b54b-bd09-4ac9-acb7-e1f37473b1e8","system_id":"levelo_inurba_marseille","lat":43.32367,"lon":5.388836,"is_reserved":false,"is_disabled":false,"rental_uris":{"android":"levelo://app?vid=b390b54b-bd09-4ac9-acb7-e1f37473b1e8","ios":"levelo://app?vid=b390b54b-bd09-4ac9-acb7-e1f37473b1e8"},"vehicle_type_id":"4","last_reported":1678907145,"current_range_meters":9200,"station_id":"ce4bhqp2rcd13ifvqhog","pricing_plan_id":"free"},{"bike_id":"725ea325-1ad1-4d84-acf4-72007e88a0d4","system_id":"levelo_inurba_marseille","lat":43.32367,"lon":5.38888,"is_reserved":false,"is_disabled":false,"rental_uris":{"android":"levelo://app?vid=725ea325-1ad1-4d84-acf4-72007e88a0d4","ios":"levelo://app?vid=725ea325-1ad1-4d84-acf4-72007e88a0d4"},"vehicle_type_id":"4","last_reported":1678907145,"current_range_meters":25200,"station_id":"","pricing_plan_id":"free"},{"bike_id":"8e75da85-77d7-408c-9b76-40912f56d40a","system_id":"levelo_inurba_marseille","lat":43.293249,"lon":5.371578,"is_reserved":false,"is_disabled":false,"rental_uris":{"android":"levelo://app?vid=8e75da85-77d7-408c-9b76-40912f56d40a","ios":"levelo://app?vid=8e75da85-77d7-408c-9b76-40912f56d40a"},"vehicle_type_id":"4","last_reported":1678907145,"current_range_meters":0,"station_id":"ce4bgh92rcd13ifvqb40","pricing_plan_id":"free"},{"bike_id":"7acb547f-f9a4-47a2-afd8-c72233d9e576","system_id":"levelo_inurba_marseille","lat":43.293009,"lon":5.374584,"is_reserved":false,"is_disabled":false,"rental_uris":{"android":"levelo://app?vid=7acb547f-f9a4-47a2-afd8-c72233d9e576","ios":"levelo://app?vid=7acb547f-f9a4-47a2-afd8-c72233d9e576"},"vehicle_type_id":"4","last_reported":1678907145,"current_range_meters":1200,"station_id":"ce4bgi12rcd13ifvqb70","pricing_plan_id":"free"},{"bike_id":"1d256b41-c99d-4c17-a0c0-2fae51dea63b","system_id":"levelo_inurba_marseille","lat":43.305994,"lon":5.393687,"is_reserved":false,"is_disabled":false,"rental_uris":{"android":"levelo://app?vid=1d256b41-c99d-4c17-a0c0-2fae51dea63b","ios":"levelo://app?vid=1d256b41-c99d-4c17-a0c0-2fae51dea63b"},"vehicle_type_id":"4","last_reported":1678907145,"current_range_meters":22800,"station_id":"ce4bh0p2rcd13ifvqd80","pricing_plan_id":"free"},{"bike_id":"114ba561-8103-4438-abaa-41242be279e9","system_id":"levelo_inurba_marseille","lat":43.305994,"lon":5.393687,"is_reserved":false,"is_disabled":false,"rental_uris":{"android":"levelo://app?vid=114ba561-8103-4438-abaa-41242be279e9","ios":"levelo://app?vid=114ba561-8103-4438-abaa-41242be279e9"},"vehicle_type_id":"4","last_reported":1678907145,"current_range_meters":400,"station_id":"ce4bh0p2rcd13ifvqd80","pricing_plan_id":"free"},{"bike_id":"8f805ca1-2879-41e7-9eac-5bc9b9a72c89","system_id":"levelo_inurba_marseille","lat":43.292651,"lon":5.359699,"is_reserved":false,"is_disabled":false,"rental_uris":{"android":"levelo://app?vid=8f805ca1-2879-41e7-9eac-5bc9b9a72c89","ios":"levelo://app?vid=8f805ca1-2879-41e7-9eac-5bc9b9a72c89"},"vehicle_type_id":"4","last_reported":1678907145,"current_range_meters":6000,"station_id":"","pricing_plan_id":"free"},{"bike_id":"d9591033-b429-48c8-920f-57d7dbf11d94","system_id":"levelo_inurba_marseille","lat":43.298841,"lon":5.38907,"is_reserved":false,"is_disabled":false,"rental_uris":{"android":"levelo://app?vid=d9591033-b429-48c8-920f-57d7dbf11d94","ios":"levelo://app?vid=d9591033-b429-48c8-920f-57d7dbf11d94"},"vehicle_type_id":"4","last_reported":1678907145,"current_range_meters":0,"station_id":"ce4bh392rcd13ifvqdl0","pricing_plan_id":"free"},{"bike_id":"caebd1f5-e2f1-4b56-a4b3-5a8ef4d87d6c","system_id":"levelo_inurba_marseille","lat":43.313291,"lon":5.396838,"is_reserved":false,"is_disabled":false,"rental_uris":{"android":"levelo://app?vid=caebd1f5-e2f1-4b56-a4b3-5a8ef4d87d6c","ios":"levelo://app?vid=caebd1f5-e2f1-4b56-a4b3-5a8ef4d87d6c"},"vehicle_type_id":"4","last_reported":1678907145,"current_range_meters":22000,"station_id":"ce4bgvp2rcd13ifvqcu0","pricing_plan_id":"free"},{"bike_id":"52f4fea3-1a73-4251-b90d-8d291db4a608","system_id":"levelo_inurba_marseille","lat":43.313291,"lon":5.396838,"is_reserved":false,"is_disabled":false,"rental_uris":{"android":"levelo://app?vid=52f4fea3-1a73-4251-b90d-8d291db4a608","ios":"levelo://app?vid=52f4fea3-1a73-4251-b90d-8d291db4a608"},"vehicle_type_id":"4","last_reported":1678907145,"current_range_meters":31200,"station_id":"ce4bgvp2rcd13ifvqcu0","pricing_plan_id":"free"},{"bike_id":"ec3144fc-1874-4f8c-a438-a7ca92572ed5","system_id":"levelo_inurba_marseille","lat":43.313291,"lon":5.396838,"is_reserved":false,"is_disabled":false,"rental_uris":{"android":"levelo://app?vid=ec3144fc-1874-4f8c-a438-a7ca92572ed5","ios":"levelo://app?vid=ec3144fc-1874-4f8c-a438-a7ca92572ed5"},"vehicle_type_id":"4","last_reported":1678907145,"current_range_meters":26400,"station_id":"ce4bgvp2rcd13ifvqcu0","pricing_plan_id":"free"},{"bike_id":"a4b901d0-d17e-455c-81db-7b4bb8c9b1b5","system_id":"levelo_inurba_marseille","lat":43.313291,"lon":5.396838,"is_reserved":false,"is_disabled":false,"rental_uris":{"android":"levelo://app?vid=a4b901d0-d17e-455c-81db-7b4bb8c9b1b5","ios":"levelo://app?vid=a4b901d0-d17e-455c-81db-7b4bb8c9b1b5"},"vehicle_type_id":"4","last_reported":1678907145,"current_range_meters":27200,"station_id":"ce4bgvp2rcd13ifvqcu0","pricing_plan_id":"free"},{"bike_id":"3c00b7d5-223d-41d5-8044-d600f6f8fd45","system_id":"levelo_inurba_marseille","lat":43.313291,"lon":5.396838,"is_reserved":false,"is_disabled":false,"rental_uris":{"android":"levelo://app?vid=3c00b7d5-223d-41d5-8044-d600f6f8fd45","ios":"levelo://app?vid=3c00b7d5-223d-41d5-8044-d600f6f8fd45"},"vehicle_type_id":"4","last_reported":1678907145,"current_range_meters":31200,"station_id":"ce4bgvp2rcd13ifvqcu0","pricing_plan_id":"free"},{"bike_id":"62f65aae-b1b1-4b41-a420-3ed4002ba227","system_id":"levelo_inurba_marseille","lat":43.313291,"lon":5.396838,"is_reserved":false,"is_disabled":false,"rental_uris":{"android":"levelo://app?vid=62f65aae-b1b1-4b41-a420-3ed4002ba227","ios":"levelo://app?vid=62f65aae-b1b1-4b41-a420-3ed4002ba227"},"vehicle_type_id":"4","last_reported":1678907145,"current_range_meters":0,"station_id":"ce4bgvp2rcd13ifvqcu0","pricing_plan_id":"free"},{"bike_id":"a7be2f12-f977-4a6f-8a8f-066b06623837","system_id":"levelo_inurba_marseille","lat":43.29527,"lon":5.38539,"is_reserved":false,"is_disabled":false,"rental_uris":{"android":"levelo://app?vid=a7be2f12-f977-4a6f-8a8f-066b06623837","ios":"levelo://app?vid=a7be2f12-f977-4a6f-8a8f-066b06623837"},"vehicle_type_id":"4","last_reported":1678907145,"current_range_meters":29600,"station_id":"ce4bgih2rcd13ifvqba0","pricing_plan_id":"free"},{"bike_id":"5c03058c-5767-4ff9-a9ea-8443b6912f35","system_id":"levelo_inurba_marseille","lat":43.290779,"lon":5.371482,"is_reserved":false,"is_disabled":false,"rental_uris":{"android":"levelo://app?vid=5c03058c-5767-4ff9-a9ea-8443b6912f35","ios":"levelo://app?vid=5c03058c-5767-4ff9-a9ea-8443b6912f35"},"vehicle_type_id":"4","last_reported":1678907145,"current_range_meters":12000,"station_id":"ce4bh5p2rcd13ifvqe4g","pricing_plan_id":"free"},{"bike_id":"953af114-f0c3-4a05-a665-efdc749a0abb","system_id":"levelo_inurba_marseille","lat":43.302008,"lon":5.394694,"is_reserved":false,"is_disabled":false,"rental_uris":{"android":"levelo://app?vid=953af114-f0c3-4a05-a665-efdc749a0abb","ios":"levelo://app?vid=953af114-f0c3-4a05-a665-efdc749a0abb"},"vehicle_type_id":"4","last_reported":1678907145,"current_range_meters":6000,"station_id":"ce4bh0p2rcd13ifvqd70","pricing_plan_id":"free"},{"bike_id":"3194c22a-f608-4e20-a51b-d3f0132a6b79","system_id":"levelo_inurba_marseille","lat":43.302008,"lon":5.394694,"is_reserved":false,"is_disabled":false,"rental_uris":{"android":"levelo://app?vid=3194c22a-f608-4e20-a51b-d3f0132a6b79","ios":"levelo://app?vid=3194c22a-f608-4e20-a51b-d3f0132a6b79"},"vehicle_type_id":"4","last_reported":1678907145,"current_range_meters":0,"station_id":"ce4bh0p2rcd13ifvqd70","pricing_plan_id":"free"},{"bike_id":"2b13d9d7-8b31-46d7-b764-1db8b8b239d7","system_id":"levelo_inurba_marseille","lat":43.294162,"lon":5.386292,"is_reserved":false,"is_disabled":false,"rental_uris":{"android":"levelo://app?vid=2b13d9d7-8b31-46d7-b764-1db8b8b239d7","ios":"levelo://app?vid=2b13d9d7-8b31-46d7-b764-1db8b8b239d7"},"vehicle_type_id":"4","last_reported":1678907145,"current_range_meters":0,"station_id":"ce4bh2h2rcd13ifvqdh0","pricing_plan_id":"free"},{"bike_id":"9b477fff-3023-4590-b348-86745a99141f","system_id":"levelo_inurba_marseille","lat":43.29026,"lon":5.37562,"is_reserved":false,"is_disabled":false,"rental_uris":{"android":"levelo://app?vid=9b477fff-3023-4590-b348-86745a99141f","ios":"levelo://app?vid=9b477fff-3023-4590-b348-86745a99141f"},"vehicle_type_id":"4","last_reported":1678907145,"current_range_meters":24400,"station_id":"ce4bh692rcd13ifvqe90","pricing_plan_id":"free"},{"bike_id":"5ab3c529-77e1-4538-952a-1e27365e26ae","system_id":"levelo_inurba_marseille","lat":43.28939,"lon":5.366337,"is_reserved":false,"is_disabled":false,"rental_uris":{"android":"levelo://app?vid=5ab3c529-77e1-4538-952a-1e27365e26ae","ios":"levelo://app?vid=5ab3c529-77e1-4538-952a-1e27365e26ae"},"vehicle_type_id":"4","last_reported":1678907145,"current_range_meters":17600,"station_id":"ce4bhap2rcd13ifvqek0","pricing_plan_id":"free"},{"bike_id":"13f3f799-20c9-4ca4-a0a8-506ddb756131","system_id":"levelo_inurba_marseille","lat":43.289468,"lon":5.363719,"is_reserved":false,"is_disabled":false,"rental_uris":{"android":"levelo://app?vid=13f3f799-20c9-4ca4-a0a8-506ddb756131","ios":"levelo://app?vid=13f3f799-20c9-4ca4-a0a8-506ddb756131"},"vehicle_type_id":"4","last_reported":1678907145,"current_range_meters":28000,"station_id":"ce4bhc92rcd13ifvqetg","pricing_plan_id":"free"},{"bike_id":"03fe1518-c18e-45c2-bf4e-d0b196aa5fd6","system_id":"levelo_inurba_marseille","lat":43.292644,"lon":5.384257,"is_reserved":false,"is_disabled":false,"rental_uris":{"android":"levelo://app?vid=03fe1518-c18e-45c2-bf4e-d0b196aa5fd6","ios":"levelo://app?vid=03fe1518-c18e-45c2-bf4e-d0b196aa5fd6"},"vehicle_type_id":"4","last_reported":1678907145,"current_range_meters":7600,"station_id":"ce4bh692rcd13ifvqea0","pricing_plan_id":"free"},{"bike_id":"39cdeb8b-8daa-4cd1-a543-91d30aaa6359","system_id":"levelo_inurba_marseille","lat":43.304248,"lon":5.397453,"is_reserved":false,"is_disabled":false,"rental_uris":{"android":"levelo://app?vid=39cdeb8b-8daa-4cd1-a543-91d30aaa6359","ios":"levelo://app?vid=39cdeb8b-8daa-4cd1-a543-91d30aaa6359"},"vehicle_type_id":"4","last_reported":1678907145,"current_range_meters":13600,"station_id":"","pricing_plan_id":"free"},{"bike_id":"b55d864a-5133-4322-842b-c260f2278a17","system_id":"levelo_inurba_marseille","lat":43.292644,"lon":5.384257,"is_reserved":false,"is_disabled":false,"rental_uris":{"android":"levelo://app?vid=b55d864a-5133-4322-842b-c260f2278a17","ios":"levelo://app?vid=b55d864a-5133-4322-842b-c260f2278a17"},"vehicle_type_id":"4","last_reported":1678907145,"current_range_meters":0,"station_id":"ce4bh692rcd13ifvqea0","pricing_plan_id":"free"},{"bike_id":"167a2a92-298a-4fe7-b811-01157daff52b","system_id":"levelo_inurba_marseille","lat":43.29264,"lon":5.384468,"is_reserved":false,"is_disabled":false,"rental_uris":{"android":"levelo://app?vid=167a2a92-298a-4fe7-b811-01157daff52b","ios":"levelo://app?vid=167a2a92-298a-4fe7-b811-01157daff52b"},"vehicle_type_id":"4","last_reported":1678907145,"current_range_meters":31200,"station_id":"ce4bh692rcd13ifvqea0","pricing_plan_id":"free"},{"bike_id":"d9a02d53-4f75-45ac-86c3-d882abbeb116","system_id":"levelo_inurba_marseille","lat":43.292645,"lon":5.384484,"is_reserved":false,"is_disabled":false,"rental_uris":{"android":"levelo://app?vid=d9a02d53-4f75-45ac-86c3-d882abbeb116","ios":"levelo://app?vid=d9a02d53-4f75-45ac-86c3-d882abbeb116"},"vehicle_type_id":"4","last_reported":1678907145,"current_range_meters":30800,"station_id":"ce4bh692rcd13ifvqea0","pricing_plan_id":"free"},{"bike_id":"fe8f44c7-cb72-4d5a-b8f4-3c7117932f26","system_id":"levelo_inurba_marseille","lat":43.292647,"lon":5.384488,"is_reserved":false,"is_disabled":false,"rental_uris":{"android":"levelo://app?vid=fe8f44c7-cb72-4d5a-b8f4-3c7117932f26","ios":"levelo://app?vid=fe8f44c7-cb72-4d5a-b8f4-3c7117932f26"},"vehicle_type_id":"4","last_reported":1678907145,"current_range_meters":31600,"station_id":"ce4bh692rcd13ifvqea0","pricing_plan_id":"free"},{"bike_id":"5d7ba2b7-1803-43cb-bc3c-626a47154b25","system_id":"levelo_inurba_marseille","lat":43.292597,"lon":5.38445,"is_reserved":false,"is_disabled":false,"rental_uris":{"android":"levelo://app?vid=5d7ba2b7-1803-43cb-bc3c-626a47154b25","ios":"levelo://app?vid=5d7ba2b7-1803-43cb-bc3c-626a47154b25"},"vehicle_type_id":"4","last_reported":1678907145,"current_range_meters":31600,"station_id":"ce4bh692rcd13ifvqea0","pricing_plan_id":"free"},{"bike_id":"0a46db62-acb5-4d24-86a0-454cfde9f6aa","system_id":"levelo_inurba_marseille","lat":43.29247,"lon":5.38445,"is_reserved":false,"is_disabled":false,"rental_uris":{"android":"levelo://app?vid=0a46db62-acb5-4d24-86a0-454cfde9f6aa","ios":"levelo://app?vid=0a46db62-acb5-4d24-86a0-454cfde9f6aa"},"vehicle_type_id":"4","last_reported":1678907145,"current_range_meters":6800,"station_id":"ce4bh692rcd13ifvqea0","pricing_plan_id":"free"},{"bike_id":"fbe10fdc-9007-4034-a68c-3345e520d40b","system_id":"levelo_inurba_marseille","lat":43.33037,"lon":5.38926,"is_reserved":false,"is_disabled":false,"rental_uris":{"android":"levelo://app?vid=fbe10fdc-9007-4034-a68c-3345e520d40b","ios":"levelo://app?vid=fbe10fdc-9007-4034-a68c-3345e520d40b"},"vehicle_type_id":"4","last_reported":1678907145,"current_range_meters":11600,"station_id":"ce4bhr92rcd13ifvqhrg","pricing_plan_id":"free"},{"bike_id":"bd6d395f-778b-4d3c-b71e-9112de017fe0","system_id":"levelo_inurba_marseille","lat":43.330411,"lon":5.389241,"is_reserved":false,"is_disabled":false,"rental_uris":{"android":"levelo://app?vid=bd6d395f-778b-4d3c-b71e-9112de017fe0","ios":"levelo://app?vid=bd6d395f-778b-4d3c-b71e-9112de017fe0"},"vehicle_type_id":"4","last_reported":1678907145,"current_range_meters":11200,"station_id":"ce4bhr92rcd13ifvqhrg","pricing_plan_id":"free"},{"bike_id":"d5a1e314-9b9c-458f-827c-7747913fa578","system_id":"levelo_inurba_marseille","lat":43.290104,"lon":5.356111,"is_reserved":false,"is_disabled":false,"rental_uris":{"android":"levelo://app?vid=d5a1e314-9b9c-458f-827c-7747913fa578","ios":"levelo://app?vid=d5a1e314-9b9c-458f-827c-7747913fa578"},"vehicle_type_id":"4","last_reported":1678907145,"current_range_meters":400,"station_id":"ce4bhb92rcd13ifvqen0","pricing_plan_id":"free"},{"bike_id":"adeba0cb-56cd-4d1d-b3f2-b0d33fc6d26b","system_id":"levelo_inurba_marseille","lat":43.33043,"lon":5.38924,"is_reserved":false,"is_disabled":false,"rental_uris":{"android":"levelo://app?vid=adeba0cb-56cd-4d1d-b3f2-b0d33fc6d26b","ios":"levelo://app?vid=adeba0cb-56cd-4d1d-b3f2-b0d33fc6d26b"},"vehicle_type_id":"4","last_reported":1678907145,"current_range_meters":0,"station_id":"","pricing_plan_id":"free"},{"bike_id":"f891309c-15ab-4984-bd06-6c5fe410a183","system_id":"levelo_inurba_marseille","lat":43.290977,"lon":5.381537,"is_reserved":false,"is_disabled":false,"rental_uris":{"android":"levelo://app?vid=f891309c-15ab-4984-bd06-6c5fe410a183","ios":"levelo://app?vid=f891309c-15ab-4984-bd06-6c5fe410a183"},"vehicle_type_id":"4","last_reported":1678907145,"current_range_meters":0,"station_id":"","pricing_plan_id":"free"},{"bike_id":"7bc2bfc5-da44-496e-ad96-b5c1a46fb23b","system_id":"levelo_inurba_marseille","lat":43.29514,"lon":5.3904,"is_reserved":false,"is_disabled":false,"rental_uris":{"android":"levelo://app?vid=7bc2bfc5-da44-496e-ad96-b5c1a46fb23b","ios":"levelo://app?vid=7bc2bfc5-da44-496e-ad96-b5c1a46fb23b"},"vehicle_type_id":"4","last_reported":1678907145,"current_range_meters":22000,"station_id":"ce4bh3p2rcd13ifvqdp0","pricing_plan_id":"free"},{"bike_id":"69bfb5b5-3563-4d0e-bb86-eb86f30d6cda","system_id":"levelo_inurba_marseille","lat":43.29519,"lon":5.39053,"is_reserved":false,"is_disabled":false,"rental_uris":{"android":"levelo://app?vid=69bfb5b5-3563-4d0e-bb86-eb86f30d6cda","ios":"levelo://app?vid=69bfb5b5-3563-4d0e-bb86-eb86f30d6cda"},"vehicle_type_id":"4","last_reported":1678907145,"current_range_meters":14000,"station_id":"ce4bh3p2rcd13ifvqdp0","pricing_plan_id":"free"},{"bike_id":"aeaa1b39-d55f-44b6-b044-f401acf8f968","system_id":"levelo_inurba_marseille","lat":43.28856,"lon":5.358371,"is_reserved":false,"is_disabled":false,"rental_uris":{"android":"levelo://app?vid=aeaa1b39-d55f-44b6-b044-f401acf8f968","ios":"levelo://app?vid=aeaa1b39-d55f-44b6-b044-f401acf8f968"},"vehicle_type_id":"4","last_reported":1678907145,"current_range_meters":0,"station_id":"ce4bhb12rcd13ifvqem0","pricing_plan_id":"free"},{"bike_id":"75363ca0-2c3d-411d-95bb-b73f1843caea","system_id":"levelo_inurba_marseille","lat":43.28856,"lon":5.358371,"is_reserved":false,"is_disabled":false,"rental_uris":{"android":"levelo://app?vid=75363ca0-2c3d-411d-95bb-b73f1843caea","ios":"levelo://app?vid=75363ca0-2c3d-411d-95bb-b73f1843caea"},"vehicle_type_id":"4","last_reported":1678907145,"current_range_meters":0,"station_id":"ce4bhb12rcd13ifvqem0","pricing_plan_id":"free"},{"bike_id":"1e52995d-f5ec-462c-bbd9-f5007142ab36","system_id":"levelo_inurba_marseille","lat":43.28856,"lon":5.358371,"is_reserved":false,"is_disabled":false,"rental_uris":{"android":"levelo://app?vid=1e52995d-f5ec-462c-bbd9-f5007142ab36","ios":"levelo://app?vid=1e52995d-f5ec-462c-bbd9-f5007142ab36"},"vehicle_type_id":"4","last_reported":1678907145,"current_range_meters":0,"station_id":"ce4bhb12rcd13ifvqem0","pricing_plan_id":"free"},{"bike_id":"73caaaad-e424-47db-b5ba-51e2d3d8079f","system_id":"levelo_inurba_marseille","lat":43.337513,"lon":5.374415,"is_reserved":false,"is_disabled":false,"rental_uris":{"android":"levelo://app?vid=73caaaad-e424-47db-b5ba-51e2d3d8079f","ios":"levelo://app?vid=73caaaad-e424-47db-b5ba-51e2d3d8079f"},"vehicle_type_id":"4","last_reported":1678907145,"current_range_meters":28000,"station_id":"","pricing_plan_id":"free"},{"bike_id":"56fc08a9-d2f6-4be6-9854-a5d9e76231c8","system_id":"levelo_inurba_marseille","lat":43.30642,"lon":5.401031,"is_reserved":false,"is_disabled":false,"rental_uris":{"android":"levelo://app?vid=56fc08a9-d2f6-4be6-9854-a5d9e76231c8","ios":"levelo://app?vid=56fc08a9-d2f6-4be6-9854-a5d9e76231c8"},"vehicle_type_id":"4","last_reported":1678907145,"current_range_meters":13200,"station_id":"ce4bh112rcd13ifvqda0","pricing_plan_id":"free"},{"bike_id":"ce6572b8-8375-4142-921b-56877c6fcd14","system_id":"levelo_inurba_marseille","lat":43.306679,"lon":5.401656,"is_reserved":false,"is_disabled":false,"rental_uris":{"android":"levelo://app?vid=ce6572b8-8375-4142-921b-56877c6fcd14","ios":"levelo://app?vid=ce6572b8-8375-4142-921b-56877c6fcd14"},"vehicle_type_id":"4","last_reported":1678907145,"current_range_meters":4000,"station_id":"","pricing_plan_id":"free"},{"bike_id":"565e7d27-3ee9-4d0a-baf2-77a06a046d06","system_id":"levelo_inurba_marseille","lat":43.295319,"lon":5.393945,"is_reserved":false,"is_disabled":false,"rental_uris":{"android":"levelo://app?vid=565e7d27-3ee9-4d0a-baf2-77a06a046d06","ios":"levelo://app?vid=565e7d27-3ee9-4d0a-baf2-77a06a046d06"},"vehicle_type_id":"4","last_reported":1678907145,"current_range_meters":21200,"station_id":"ce4bh292rcd13ifvqdf0","pricing_plan_id":"free"},{"bike_id":"acc8c970-7e09-4a31-85f1-8f2e2571cd36","system_id":"levelo_inurba_marseille","lat":43.29538,"lon":5.39404,"is_reserved":false,"is_disabled":false,"rental_uris":{"android":"levelo://app?vid=acc8c970-7e09-4a31-85f1-8f2e2571cd36","ios":"levelo://app?vid=acc8c970-7e09-4a31-85f1-8f2e2571cd36"},"vehicle_type_id":"4","last_reported":1678907145,"current_range_meters":11600,"station_id":"ce4bh212rcd13ifvqde0","pricing_plan_id":"free"},{"bike_id":"25baed7f-8e12-4886-bbee-9bcfaa862745","system_id":"levelo_inurba_marseille","lat":43.29528,"lon":5.39395,"is_reserved":false,"is_disabled":false,"rental_uris":{"android":"levelo://app?vid=25baed7f-8e12-4886-bbee-9bcfaa862745","ios":"levelo://app?vid=25baed7f-8e12-4886-bbee-9bcfaa862745"},"vehicle_type_id":"4","last_reported":1678907145,"current_range_meters":2800,"station_id":"ce4bh212rcd13ifvqde0","pricing_plan_id":"free"},{"bike_id":"62d36493-7128-4154-9607-9621a6fc8187","system_id":"levelo_inurba_marseille","lat":43.29531,"lon":5.39409,"is_reserved":false,"is_disabled":false,"rental_uris":{"android":"levelo://app?vid=62d36493-7128-4154-9607-9621a6fc8187","ios":"levelo://app?vid=62d36493-7128-4154-9607-9621a6fc8187"},"vehicle_type_id":"4","last_reported":1678907145,"current_range_meters":0,"station_id":"ce4bh212rcd13ifvqde0","pricing_plan_id":"free"},{"bike_id":"529b15c4-12b2-478a-82a5-c26afdb223f7","system_id":"levelo_inurba_marseille","lat":43.295253,"lon":5.394037,"is_reserved":false,"is_disabled":false,"rental_uris":{"android":"levelo://app?vid=529b15c4-12b2-478a-82a5-c26afdb223f7","ios":"levelo://app?vid=529b15c4-12b2-478a-82a5-c26afdb223f7"},"vehicle_type_id":"4","last_reported":1678907145,"current_range_meters":9200,"station_id":"ce4bh212rcd13ifvqde0","pricing_plan_id":"free"},{"bike_id":"369ea765-e720-4e78-894a-f4383e4b2f30","system_id":"levelo_inurba_marseille","lat":43.29519,"lon":5.39402,"is_reserved":false,"is_disabled":false,"rental_uris":{"android":"levelo://app?vid=369ea765-e720-4e78-894a-f4383e4b2f30","ios":"levelo://app?vid=369ea765-e720-4e78-894a-f4383e4b2f30"},"vehicle_type_id":"4","last_reported":1678907145,"current_range_meters":0,"station_id":"ce4bh292rcd13ifvqdf0","pricing_plan_id":"free"},{"bike_id":"9991a574-7eff-460d-af65-223f414b1a0a","system_id":"levelo_inurba_marseille","lat":43.2952,"lon":5.3941,"is_reserved":false,"is_disabled":false,"rental_uris":{"android":"levelo://app?vid=9991a574-7eff-460d-af65-223f414b1a0a","ios":"levelo://app?vid=9991a574-7eff-460d-af65-223f414b1a0a"},"vehicle_type_id":"4","last_reported":1678907145,"current_range_meters":11600,"station_id":"ce4bh212rcd13ifvqde0","pricing_plan_id":"free"},{"bike_id":"fe504fdf-ab05-481a-9798-da13079459ea","system_id":"levelo_inurba_marseille","lat":43.295198,"lon":5.394114,"is_reserved":false,"is_disabled":false,"rental_uris":{"android":"levelo://app?vid=fe504fdf-ab05-481a-9798-da13079459ea","ios":"levelo://app?vid=fe504fdf-ab05-481a-9798-da13079459ea"},"vehicle_type_id":"4","last_reported":1678907145,"current_range_meters":30400,"station_id":"ce4bh212rcd13ifvqde0","pricing_plan_id":"free"},{"bike_id":"015715a7-30fb-44fe-ab0a-e15c8f9e0e20","system_id":"levelo_inurba_marseille","lat":43.29519,"lon":5.39411,"is_reserved":false,"is_disabled":false,"rental_uris":{"android":"levelo://app?vid=015715a7-30fb-44fe-ab0a-e15c8f9e0e20","ios":"levelo://app?vid=015715a7-30fb-44fe-ab0a-e15c8f9e0e20"},"vehicle_type_id":"4","last_reported":1678907145,"current_range_meters":31600,"station_id":"ce4bh212rcd13ifvqde0","pricing_plan_id":"free"},{"bike_id":"643a4193-2d73-44c3-a9d6-6ab6a330e3be","system_id":"levelo_inurba_marseille","lat":43.302759,"lon":5.400793,"is_reserved":false,"is_disabled":false,"rental_uris":{"android":"levelo://app?vid=643a4193-2d73-44c3-a9d6-6ab6a330e3be","ios":"levelo://app?vid=643a4193-2d73-44c3-a9d6-6ab6a330e3be"},"vehicle_type_id":"4","last_reported":1678907145,"current_range_meters":21200,"station_id":"ce4bgvh2rcd13ifvqcs0","pricing_plan_id":"free"},{"bike_id":"8e868719-bd9d-47cd-83a3-7745510c11ac","system_id":"levelo_inurba_marseille","lat":43.316517,"lon":5.404375,"is_reserved":false,"is_disabled":false,"rental_uris":{"android":"levelo://app?vid=8e868719-bd9d-47cd-83a3-7745510c11ac","ios":"levelo://app?vid=8e868719-bd9d-47cd-83a3-7745510c11ac"},"vehicle_type_id":"4","last_reported":1678907145,"current_range_meters":20400,"station_id":"ce4bh012rcd13ifvqd00","pricing_plan_id":"free"},{"bike_id":"38515a76-1577-4cbc-8a24-68d386a8a4c2","system_id":"levelo_inurba_marseille","lat":43.284638,"lon":5.35898,"is_reserved":false,"is_disabled":false,"rental_uris":{"android":"levelo://app?vid=38515a76-1577-4cbc-8a24-68d386a8a4c2","ios":"levelo://app?vid=38515a76-1577-4cbc-8a24-68d386a8a4c2"},"vehicle_type_id":"4","last_reported":1678907145,"current_range_meters":0,"station_id":"ce4bhah2rcd13ifvqei0","pricing_plan_id":"free"},{"bike_id":"facf2475-b1e8-4a1b-b9c4-23daf07dbc4b","system_id":"levelo_inurba_marseille","lat":43.284534,"lon":5.358662,"is_reserved":false,"is_disabled":false,"rental_uris":{"android":"levelo://app?vid=facf2475-b1e8-4a1b-b9c4-23daf07dbc4b","ios":"levelo://app?vid=facf2475-b1e8-4a1b-b9c4-23daf07dbc4b"},"vehicle_type_id":"4","last_reported":1678907145,"current_range_meters":19200,"station_id":"ce4bhah2rcd13ifvqei0","pricing_plan_id":"free"},{"bike_id":"224876f0-9df7-4c6a-bd10-69975f3ced92","system_id":"levelo_inurba_marseille","lat":43.284534,"lon":5.358662,"is_reserved":false,"is_disabled":false,"rental_uris":{"android":"levelo://app?vid=224876f0-9df7-4c6a-bd10-69975f3ced92","ios":"levelo://app?vid=224876f0-9df7-4c6a-bd10-69975f3ced92"},"vehicle_type_id":"4","last_reported":1678907145,"current_range_meters":27600,"station_id":"ce4bhah2rcd13ifvqei0","pricing_plan_id":"free"},{"bike_id":"6c86db45-cb62-42ba-ab47-63485ca1a647","system_id":"levelo_inurba_marseille","lat":43.284534,"lon":5.358662,"is_reserved":false,"is_disabled":false,"rental_uris":{"android":"levelo://app?vid=6c86db45-cb62-42ba-ab47-63485ca1a647","ios":"levelo://app?vid=6c86db45-cb62-42ba-ab47-63485ca1a647"},"vehicle_type_id":"4","last_reported":1678907145,"current_range_meters":19200,"station_id":"ce4bhah2rcd13ifvqei0","pricing_plan_id":"free"},{"bike_id":"14f32d39-0b82-4a5d-be82-31fe73daa548","system_id":"levelo_inurba_marseille","lat":43.284534,"lon":5.358662,"is_reserved":false,"is_disabled":false,"rental_uris":{"android":"levelo://app?vid=14f32d39-0b82-4a5d-be82-31fe73daa548","ios":"levelo://app?vid=14f32d39-0b82-4a5d-be82-31fe73daa548"},"vehicle_type_id":"4","last_reported":1678907145,"current_range_meters":8800,"station_id":"ce4bhah2rcd13ifvqei0","pricing_plan_id":"free"},{"bike_id":"6ad02cbb-083c-401d-9fe2-62b99ca5356c","system_id":"levelo_inurba_marseille","lat":43.284575,"lon":5.358988,"is_reserved":false,"is_disabled":false,"rental_uris":{"android":"levelo://app?vid=6ad02cbb-083c-401d-9fe2-62b99ca5356c","ios":"levelo://app?vid=6ad02cbb-083c-401d-9fe2-62b99ca5356c"},"vehicle_type_id":"4","last_reported":1678907145,"current_range_meters":20800,"station_id":"ce4bhah2rcd13ifvqei0","pricing_plan_id":"free"},{"bike_id":"5829f9ca-6c06-4c3f-b2a3-680568a3192e","system_id":"levelo_inurba_marseille","lat":43.284534,"lon":5.358662,"is_reserved":false,"is_disabled":false,"rental_uris":{"android":"levelo://app?vid=5829f9ca-6c06-4c3f-b2a3-680568a3192e","ios":"levelo://app?vid=5829f9ca-6c06-4c3f-b2a3-680568a3192e"},"vehicle_type_id":"4","last_reported":1678907145,"current_range_meters":18400,"station_id":"ce4bhah2rcd13ifvqei0","pricing_plan_id":"free"},{"bike_id":"ce0d4665-c41f-481f-8ad4-f8d6796bae07","system_id":"levelo_inurba_marseille","lat":43.284534,"lon":5.358662,"is_reserved":false,"is_disabled":false,"rental_uris":{"android":"levelo://app?vid=ce0d4665-c41f-481f-8ad4-f8d6796bae07","ios":"levelo://app?vid=ce0d4665-c41f-481f-8ad4-f8d6796bae07"},"vehicle_type_id":"4","last_reported":1678907145,"current_range_meters":15200,"station_id":"ce4bhah2rcd13ifvqei0","pricing_plan_id":"free"},{"bike_id":"540155df-12d4-4b0b-93e8-6386c91c6cb2","system_id":"levelo_inurba_marseille","lat":43.284534,"lon":5.358662,"is_reserved":false,"is_disabled":false,"rental_uris":{"android":"levelo://app?vid=540155df-12d4-4b0b-93e8-6386c91c6cb2","ios":"levelo://app?vid=540155df-12d4-4b0b-93e8-6386c91c6cb2"},"vehicle_type_id":"4","last_reported":1678907145,"current_range_meters":13600,"station_id":"ce4bhah2rcd13ifvqei0","pricing_plan_id":"free"},{"bike_id":"7bdcf89e-def5-452b-8e0a-e3cc10b1f7ea","system_id":"levelo_inurba_marseille","lat":43.284534,"lon":5.358662,"is_reserved":false,"is_disabled":false,"rental_uris":{"android":"levelo://app?vid=7bdcf89e-def5-452b-8e0a-e3cc10b1f7ea","ios":"levelo://app?vid=7bdcf89e-def5-452b-8e0a-e3cc10b1f7ea"},"vehicle_type_id":"4","last_reported":1678907145,"current_range_meters":12000,"station_id":"ce4bhah2rcd13ifvqei0","pricing_plan_id":"free"},{"bike_id":"f602a9b4-8dfb-4aa8-a4db-6856e75b7a83","system_id":"levelo_inurba_marseille","lat":43.284534,"lon":5.358662,"is_reserved":false,"is_disabled":false,"rental_uris":{"android":"levelo://app?vid=f602a9b4-8dfb-4aa8-a4db-6856e75b7a83","ios":"levelo://app?vid=f602a9b4-8dfb-4aa8-a4db-6856e75b7a83"},"vehicle_type_id":"4","last_reported":1678907145,"current_range_meters":1200,"station_id":"ce4bhah2rcd13ifvqei0","pricing_plan_id":"free"},{"bike_id":"1d1a8a33-770d-4336-8667-09a531995bd8","system_id":"levelo_inurba_marseille","lat":43.28685,"lon":5.38668,"is_reserved":false,"is_disabled":false,"rental_uris":{"android":"levelo://app?vid=1d1a8a33-770d-4336-8667-09a531995bd8","ios":"levelo://app?vid=1d1a8a33-770d-4336-8667-09a531995bd8"},"vehicle_type_id":"4","last_reported":1678907145,"current_range_meters":0,"station_id":"ce4bh492rcd13ifvqdug","pricing_plan_id":"free"},{"bike_id":"71e61a94-c3f8-4c32-961e-12d09f2b3906","system_id":"levelo_inurba_marseille","lat":43.28671,"lon":5.38651,"is_reserved":false,"is_disabled":false,"rental_uris":{"android":"levelo://app?vid=71e61a94-c3f8-4c32-961e-12d09f2b3906","ios":"levelo://app?vid=71e61a94-c3f8-4c32-961e-12d09f2b3906"},"vehicle_type_id":"4","last_reported":1678907145,"current_range_meters":0,"station_id":"ce4bh492rcd13ifvqdug","pricing_plan_id":"free"},{"bike_id":"2a84caea-323a-4260-b9d6-3cf88ef66b0a","system_id":"levelo_inurba_marseille","lat":43.286595,"lon":5.386795,"is_reserved":false,"is_disabled":false,"rental_uris":{"android":"levelo://app?vid=2a84caea-323a-4260-b9d6-3cf88ef66b0a","ios":"levelo://app?vid=2a84caea-323a-4260-b9d6-3cf88ef66b0a"},"vehicle_type_id":"4","last_reported":1678907145,"current_range_meters":6800,"station_id":"ce4bh492rcd13ifvqdug","pricing_plan_id":"free"},{"bike_id":"9539e4ee-6f2a-43db-aacc-4be5447ea4e2","system_id":"levelo_inurba_marseille","lat":43.33717,"lon":5.391857,"is_reserved":false,"is_disabled":false,"rental_uris":{"android":"levelo://app?vid=9539e4ee-6f2a-43db-aacc-4be5447ea4e2","ios":"levelo://app?vid=9539e4ee-6f2a-43db-aacc-4be5447ea4e2"},"vehicle_type_id":"4","last_reported":1678907145,"current_range_meters":27600,"station_id":"ce4bhr92rcd13ifvqhsg","pricing_plan_id":"free"},{"bike_id":"34b7b8d0-079e-43aa-9abd-0106fac3b082","system_id":"levelo_inurba_marseille","lat":43.33717,"lon":5.391857,"is_reserved":false,"is_disabled":false,"rental_uris":{"android":"levelo://app?vid=34b7b8d0-079e-43aa-9abd-0106fac3b082","ios":"levelo://app?vid=34b7b8d0-079e-43aa-9abd-0106fac3b082"},"vehicle_type_id":"4","last_reported":1678907145,"current_range_meters":31600,"station_id":"ce4bhr92rcd13ifvqhsg","pricing_plan_id":"free"},{"bike_id":"7602820e-a98d-42a0-90f2-9a2b257ac9e9","system_id":"levelo_inurba_marseille","lat":43.33717,"lon":5.391857,"is_reserved":false,"is_disabled":false,"rental_uris":{"android":"levelo://app?vid=7602820e-a98d-42a0-90f2-9a2b257ac9e9","ios":"levelo://app?vid=7602820e-a98d-42a0-90f2-9a2b257ac9e9"},"vehicle_type_id":"4","last_reported":1678907145,"current_range_meters":12400,"station_id":"ce4bhr92rcd13ifvqhsg","pricing_plan_id":"free"},{"bike_id":"42896b38-34ac-492d-ad87-9574b998f595","system_id":"levelo_inurba_marseille","lat":43.32335,"lon":5.4062,"is_reserved":false,"is_disabled":false,"rental_uris":{"android":"levelo://app?vid=42896b38-34ac-492d-ad87-9574b998f595","ios":"levelo://app?vid=42896b38-34ac-492d-ad87-9574b998f595"},"vehicle_type_id":"4","last_reported":1678907145,"current_range_meters":31200,"station_id":"","pricing_plan_id":"free"},{"bike_id":"8d10808b-f3f8-4635-84d4-ed1c0cc0ba7e","system_id":"levelo_inurba_marseille","lat":43.33717,"lon":5.391857,"is_reserved":false,"is_disabled":false,"rental_uris":{"android":"levelo://app?vid=8d10808b-f3f8-4635-84d4-ed1c0cc0ba7e","ios":"levelo://app?vid=8d10808b-f3f8-4635-84d4-ed1c0cc0ba7e"},"vehicle_type_id":"4","last_reported":1678907145,"current_range_meters":26400,"station_id":"ce4bhr92rcd13ifvqhsg","pricing_plan_id":"free"},{"bike_id":"d0aa1e4c-312a-41c0-b187-587e4460478d","system_id":"levelo_inurba_marseille","lat":43.3234,"lon":5.40619,"is_reserved":false,"is_disabled":false,"rental_uris":{"android":"levelo://app?vid=d0aa1e4c-312a-41c0-b187-587e4460478d","ios":"levelo://app?vid=d0aa1e4c-312a-41c0-b187-587e4460478d"},"vehicle_type_id":"4","last_reported":1678907145,"current_range_meters":10000,"station_id":"ce4bhq92rcd13ifvqhjg","pricing_plan_id":"free"},{"bike_id":"339853a6-89f4-4b3b-9100-a20aa9d5d2ac","system_id":"levelo_inurba_marseille","lat":43.32338,"lon":5.40621,"is_reserved":false,"is_disabled":false,"rental_uris":{"android":"levelo://app?vid=339853a6-89f4-4b3b-9100-a20aa9d5d2ac","ios":"levelo://app?vid=339853a6-89f4-4b3b-9100-a20aa9d5d2ac"},"vehicle_type_id":"4","last_reported":1678907145,"current_range_meters":27200,"station_id":"","pricing_plan_id":"free"},{"bike_id":"dc36b888-c12e-496f-b05c-f1f98a68fb93","system_id":"levelo_inurba_marseille","lat":43.32337,"lon":5.40622,"is_reserved":false,"is_disabled":false,"rental_uris":{"android":"levelo://app?vid=dc36b888-c12e-496f-b05c-f1f98a68fb93","ios":"levelo://app?vid=dc36b888-c12e-496f-b05c-f1f98a68fb93"},"vehicle_type_id":"4","last_reported":1678907145,"current_range_meters":31600,"station_id":"","pricing_plan_id":"free"},{"bike_id":"0ca02bf8-9760-47db-8ebd-6c6e6e5c741c","system_id":"levelo_inurba_marseille","lat":43.32338,"lon":5.40622,"is_reserved":false,"is_disabled":false,"rental_uris":{"android":"levelo://app?vid=0ca02bf8-9760-47db-8ebd-6c6e6e5c741c","ios":"levelo://app?vid=0ca02bf8-9760-47db-8ebd-6c6e6e5c741c"},"vehicle_type_id":"4","last_reported":1678907145,"current_range_meters":10000,"station_id":"ce4bhq92rcd13ifvqhjg","pricing_plan_id":"free"},{"bike_id":"4bd797f9-7454-4f80-aa0c-bf48d3a8d990","system_id":"levelo_inurba_marseille","lat":43.337256,"lon":5.391896,"is_reserved":false,"is_disabled":false,"rental_uris":{"android":"levelo://app?vid=4bd797f9-7454-4f80-aa0c-bf48d3a8d990","ios":"levelo://app?vid=4bd797f9-7454-4f80-aa0c-bf48d3a8d990"},"vehicle_type_id":"4","last_reported":1678907145,"current_range_meters":22400,"station_id":"ce4bhr92rcd13ifvqhsg","pricing_plan_id":"free"},{"bike_id":"fb475c56-a592-455f-972f-ec9c5f4dc6af","system_id":"levelo_inurba_marseille","lat":43.33728,"lon":5.39186,"is_reserved":false,"is_disabled":false,"rental_uris":{"android":"levelo://app?vid=fb475c56-a592-455f-972f-ec9c5f4dc6af","ios":"levelo://app?vid=fb475c56-a592-455f-972f-ec9c5f4dc6af"},"vehicle_type_id":"4","last_reported":1678907145,"current_range_meters":26800,"station_id":"ce4bhr92rcd13ifvqhsg","pricing_plan_id":"free"},{"bike_id":"f027e0cb-0791-4eec-ba0f-fc3326906d61","system_id":"levelo_inurba_marseille","lat":43.32338,"lon":5.40628,"is_reserved":false,"is_disabled":false,"rental_uris":{"android":"levelo://app?vid=f027e0cb-0791-4eec-ba0f-fc3326906d61","ios":"levelo://app?vid=f027e0cb-0791-4eec-ba0f-fc3326906d61"},"vehicle_type_id":"4","last_reported":1678907145,"current_range_meters":31200,"station_id":"","pricing_plan_id":"free"},{"bike_id":"c32ce35c-a207-458a-a59c-e17e51f695a3","system_id":"levelo_inurba_marseille","lat":43.33726,"lon":5.39199,"is_reserved":false,"is_disabled":false,"rental_uris":{"android":"levelo://app?vid=c32ce35c-a207-458a-a59c-e17e51f695a3","ios":"levelo://app?vid=c32ce35c-a207-458a-a59c-e17e51f695a3"},"vehicle_type_id":"4","last_reported":1678907145,"current_range_meters":20800,"station_id":"ce4bhr92rcd13ifvqhsg","pricing_plan_id":"free"},{"bike_id":"7e527013-48c8-43b3-92b5-c0280bdc931c","system_id":"levelo_inurba_marseille","lat":43.33733,"lon":5.39187,"is_reserved":false,"is_disabled":false,"rental_uris":{"android":"levelo://app?vid=7e527013-48c8-43b3-92b5-c0280bdc931c","ios":"levelo://app?vid=7e527013-48c8-43b3-92b5-c0280bdc931c"},"vehicle_type_id":"4","last_reported":1678907145,"current_range_meters":20000,"station_id":"ce4bhr92rcd13ifvqhsg","pricing_plan_id":"free"},{"bike_id":"d0c7feb2-bfdc-4875-a862-7fe128d8ff4d","system_id":"levelo_inurba_marseille","lat":43.3234,"lon":5.40631,"is_reserved":false,"is_disabled":false,"rental_uris":{"android":"levelo://app?vid=d0c7feb2-bfdc-4875-a862-7fe128d8ff4d","ios":"levelo://app?vid=d0c7feb2-bfdc-4875-a862-7fe128d8ff4d"},"vehicle_type_id":"4","last_reported":1678907145,"current_range_meters":14800,"station_id":"","pricing_plan_id":"free"},{"bike_id":"8ee29a0c-dcc8-4de6-8cf8-af7017b55cc8","system_id":"levelo_inurba_marseille","lat":43.284787,"lon":5.384116,"is_reserved":false,"is_disabled":false,"rental_uris":{"android":"levelo://app?vid=8ee29a0c-dcc8-4de6-8cf8-af7017b55cc8","ios":"levelo://app?vid=8ee29a0c-dcc8-4de6-8cf8-af7017b55cc8"},"vehicle_type_id":"4","last_reported":1678907145,"current_range_meters":22400,"station_id":"ce4bh512rcd13ifvqe3g","pricing_plan_id":"free"},{"bike_id":"0cf2e149-ed1f-45df-a5f9-888ae145ef7c","system_id":"levelo_inurba_marseille","lat":43.288501,"lon":5.393087,"is_reserved":false,"is_disabled":false,"rental_uris":{"android":"levelo://app?vid=0cf2e149-ed1f-45df-a5f9-888ae145ef7c","ios":"levelo://app?vid=0cf2e149-ed1f-45df-a5f9-888ae145ef7c"},"vehicle_type_id":"4","last_reported":1678907145,"current_range_meters":30000,"station_id":"ce4bh2p2rcd13ifvqdi0","pricing_plan_id":"free"},{"bike_id":"ac8d6e70-3c52-43ff-9772-29e27d0e14c3","system_id":"levelo_inurba_marseille","lat":43.288501,"lon":5.393087,"is_reserved":false,"is_disabled":false,"rental_uris":{"android":"levelo://app?vid=ac8d6e70-3c52-43ff-9772-29e27d0e14c3","ios":"levelo://app?vid=ac8d6e70-3c52-43ff-9772-29e27d0e14c3"},"vehicle_type_id":"4","last_reported":1678907145,"current_range_meters":29600,"station_id":"ce4bh2p2rcd13ifvqdi0","pricing_plan_id":"free"},{"bike_id":"44df1229-7023-4378-904d-29223a14f352","system_id":"levelo_inurba_marseille","lat":43.288497,"lon":5.393089,"is_reserved":false,"is_disabled":false,"rental_uris":{"android":"levelo://app?vid=44df1229-7023-4378-904d-29223a14f352","ios":"levelo://app?vid=44df1229-7023-4378-904d-29223a14f352"},"vehicle_type_id":"4","last_reported":1678907145,"current_range_meters":18400,"station_id":"ce4bh2p2rcd13ifvqdi0","pricing_plan_id":"free"},{"bike_id":"8401fb18-1c16-4ec8-9470-ad62ba406ddb","system_id":"levelo_inurba_marseille","lat":43.284219,"lon":5.3497,"is_reserved":false,"is_disabled":false,"rental_uris":{"android":"levelo://app?vid=8401fb18-1c16-4ec8-9470-ad62ba406ddb","ios":"levelo://app?vid=8401fb18-1c16-4ec8-9470-ad62ba406ddb"},"vehicle_type_id":"4","last_reported":1678907145,"current_range_meters":20000,"station_id":"ce4bhbh2rcd13ifvqepg","pricing_plan_id":"free"},{"bike_id":"ea3e7dca-da16-441c-89ce-ed63e0bec06f","system_id":"levelo_inurba_marseille","lat":43.284219,"lon":5.3497,"is_reserved":false,"is_disabled":false,"rental_uris":{"android":"levelo://app?vid=ea3e7dca-da16-441c-89ce-ed63e0bec06f","ios":"levelo://app?vid=ea3e7dca-da16-441c-89ce-ed63e0bec06f"},"vehicle_type_id":"4","last_reported":1678907145,"current_range_meters":3600,"station_id":"ce4bhbh2rcd13ifvqepg","pricing_plan_id":"free"},{"bike_id":"17a11a64-66d2-4b19-9e7a-5d9ca54e4669","system_id":"levelo_inurba_marseille","lat":43.284219,"lon":5.3497,"is_reserved":false,"is_disabled":false,"rental_uris":{"android":"levelo://app?vid=17a11a64-66d2-4b19-9e7a-5d9ca54e4669","ios":"levelo://app?vid=17a11a64-66d2-4b19-9e7a-5d9ca54e4669"},"vehicle_type_id":"4","last_reported":1678907145,"current_range_meters":2400,"station_id":"ce4bhbh2rcd13ifvqepg","pricing_plan_id":"free"},{"bike_id":"81bb5617-7632-46f4-9c7c-24fd6bd251ae","system_id":"levelo_inurba_marseille","lat":43.292724,"lon":5.401131,"is_reserved":false,"is_disabled":false,"rental_uris":{"android":"levelo://app?vid=81bb5617-7632-46f4-9c7c-24fd6bd251ae","ios":"levelo://app?vid=81bb5617-7632-46f4-9c7c-24fd6bd251ae"},"vehicle_type_id":"4","last_reported":1678907145,"current_range_meters":23600,"station_id":"ce4bh312rcd13ifvqdk0","pricing_plan_id":"free"},{"bike_id":"992e5fbe-51d1-464d-b67f-4d2ddd9f8423","system_id":"levelo_inurba_marseille","lat":43.292724,"lon":5.401131,"is_reserved":false,"is_disabled":false,"rental_uris":{"android":"levelo://app?vid=992e5fbe-51d1-464d-b67f-4d2ddd9f8423","ios":"levelo://app?vid=992e5fbe-51d1-464d-b67f-4d2ddd9f8423"},"vehicle_type_id":"4","last_reported":1678907145,"current_range_meters":13600,"station_id":"ce4bh312rcd13ifvqdk0","pricing_plan_id":"free"},{"bike_id":"218f91f2-33dc-4041-a128-1fba6db69674","system_id":"levelo_inurba_marseille","lat":43.282744,"lon":5.350533,"is_reserved":false,"is_disabled":false,"rental_uris":{"android":"levelo://app?vid=218f91f2-33dc-4041-a128-1fba6db69674","ios":"levelo://app?vid=218f91f2-33dc-4041-a128-1fba6db69674"},"vehicle_type_id":"4","last_reported":1678907145,"current_range_meters":15200,"station_id":"ce4bhbp2rcd13ifvqerg","pricing_plan_id":"free"},{"bike_id":"eb0dbb49-4c41-4a51-827f-192497ae8b25","system_id":"levelo_inurba_marseille","lat":43.282754,"lon":5.350519,"is_reserved":false,"is_disabled":false,"rental_uris":{"android":"levelo://app?vid=eb0dbb49-4c41-4a51-827f-192497ae8b25","ios":"levelo://app?vid=eb0dbb49-4c41-4a51-827f-192497ae8b25"},"vehicle_type_id":"4","last_reported":1678907145,"current_range_meters":3600,"station_id":"ce4bhbp2rcd13ifvqerg","pricing_plan_id":"free"},{"bike_id":"d6b14e8a-3324-43ad-a5f9-7faf43b24fa5","system_id":"levelo_inurba_marseille","lat":43.282754,"lon":5.350519,"is_reserved":false,"is_disabled":false,"rental_uris":{"android":"levelo://app?vid=d6b14e8a-3324-43ad-a5f9-7faf43b24fa5","ios":"levelo://app?vid=d6b14e8a-3324-43ad-a5f9-7faf43b24fa5"},"vehicle_type_id":"4","last_reported":1678907145,"current_range_meters":29200,"station_id":"ce4bhbp2rcd13ifvqerg","pricing_plan_id":"free"},{"bike_id":"f6c0b112-6fad-4145-b81f-aeb1e0b6cbfc","system_id":"levelo_inurba_marseille","lat":43.283502,"lon":5.386471,"is_reserved":false,"is_disabled":false,"rental_uris":{"android":"levelo://app?vid=f6c0b112-6fad-4145-b81f-aeb1e0b6cbfc","ios":"levelo://app?vid=f6c0b112-6fad-4145-b81f-aeb1e0b6cbfc"},"vehicle_type_id":"4","last_reported":1678907145,"current_range_meters":8000,"station_id":"ce4bh492rcd13ifvqdvg","pricing_plan_id":"free"},{"bike_id":"fbd81724-0b1b-4143-95dc-ca9086439d49","system_id":"levelo_inurba_marseille","lat":43.28173,"lon":5.35278,"is_reserved":false,"is_disabled":false,"rental_uris":{"android":"levelo://app?vid=fbd81724-0b1b-4143-95dc-ca9086439d49","ios":"levelo://app?vid=fbd81724-0b1b-4143-95dc-ca9086439d49"},"vehicle_type_id":"4","last_reported":1678907145,"current_range_meters":6000,"station_id":"","pricing_plan_id":"free"},{"bike_id":"41824ba0-6d84-4f3f-80dd-090f4d7dae2e","system_id":"levelo_inurba_marseille","lat":43.281044,"lon":5.378308,"is_reserved":false,"is_disabled":false,"rental_uris":{"android":"levelo://app?vid=41824ba0-6d84-4f3f-80dd-090f4d7dae2e","ios":"levelo://app?vid=41824ba0-6d84-4f3f-80dd-090f4d7dae2e"},"vehicle_type_id":"4","last_reported":1678907145,"current_range_meters":14400,"station_id":"ce4bha12rcd13ifvqee0","pricing_plan_id":"free"},{"bike_id":"62d175db-338a-4d4a-bead-91159698825e","system_id":"levelo_inurba_marseille","lat":43.281044,"lon":5.378308,"is_reserved":false,"is_disabled":false,"rental_uris":{"android":"levelo://app?vid=62d175db-338a-4d4a-bead-91159698825e","ios":"levelo://app?vid=62d175db-338a-4d4a-bead-91159698825e"},"vehicle_type_id":"4","last_reported":1678907145,"current_range_meters":0,"station_id":"ce4bha12rcd13ifvqee0","pricing_plan_id":"free"},{"bike_id":"0be069c4-7141-469e-a29a-cdf76dc00f2a","system_id":"levelo_inurba_marseille","lat":43.280995,"lon":5.378484,"is_reserved":false,"is_disabled":false,"rental_uris":{"android":"levelo://app?vid=0be069c4-7141-469e-a29a-cdf76dc00f2a","ios":"levelo://app?vid=0be069c4-7141-469e-a29a-cdf76dc00f2a"},"vehicle_type_id":"4","last_reported":1678907145,"current_range_meters":31600,"station_id":"ce4bha12rcd13ifvqee0","pricing_plan_id":"free"},{"bike_id":"dc17e989-7622-4452-a0eb-045118db52c5","system_id":"levelo_inurba_marseille","lat":43.296263,"lon":5.40601,"is_reserved":false,"is_disabled":false,"rental_uris":{"android":"levelo://app?vid=dc17e989-7622-4452-a0eb-045118db52c5","ios":"levelo://app?vid=dc17e989-7622-4452-a0eb-045118db52c5"},"vehicle_type_id":"4","last_reported":1678907145,"current_range_meters":29200,"station_id":"ce4bh0h2rcd13ifvqd60","pricing_plan_id":"free"},{"bike_id":"401b0434-4789-479a-a036-80f0375b27b1","system_id":"levelo_inurba_marseille","lat":43.287154,"lon":5.399979,"is_reserved":false,"is_disabled":false,"rental_uris":{"android":"levelo://app?vid=401b0434-4789-479a-a036-80f0375b27b1","ios":"levelo://app?vid=401b0434-4789-479a-a036-80f0375b27b1"},"vehicle_type_id":"4","last_reported":1678907145,"current_range_meters":29600,"station_id":"ce4bho92rcd13ifvqh3g","pricing_plan_id":"free"},{"bike_id":"5396ef79-8ff9-4708-8b1e-6eb99d54625c","system_id":"levelo_inurba_marseille","lat":43.287154,"lon":5.399979,"is_reserved":false,"is_disabled":false,"rental_uris":{"android":"levelo://app?vid=5396ef79-8ff9-4708-8b1e-6eb99d54625c","ios":"levelo://app?vid=5396ef79-8ff9-4708-8b1e-6eb99d54625c"},"vehicle_type_id":"4","last_reported":1678907145,"current_range_meters":14800,"station_id":"ce4bho92rcd13ifvqh3g","pricing_plan_id":"free"},{"bike_id":"e265f0fa-a4d6-40f3-b7b6-b454aa3267e8","system_id":"levelo_inurba_marseille","lat":43.287154,"lon":5.399979,"is_reserved":false,"is_disabled":false,"rental_uris":{"android":"levelo://app?vid=e265f0fa-a4d6-40f3-b7b6-b454aa3267e8","ios":"levelo://app?vid=e265f0fa-a4d6-40f3-b7b6-b454aa3267e8"},"vehicle_type_id":"4","last_reported":1678907145,"current_range_meters":28800,"station_id":"ce4bho92rcd13ifvqh3g","pricing_plan_id":"free"},{"bike_id":"3288a478-60f7-4a99-a49e-a06f6a9795b0","system_id":"levelo_inurba_marseille","lat":43.287154,"lon":5.399979,"is_reserved":false,"is_disabled":false,"rental_uris":{"android":"levelo://app?vid=3288a478-60f7-4a99-a49e-a06f6a9795b0","ios":"levelo://app?vid=3288a478-60f7-4a99-a49e-a06f6a9795b0"},"vehicle_type_id":"4","last_reported":1678907145,"current_range_meters":13600,"station_id":"ce4bho92rcd13ifvqh3g","pricing_plan_id":"free"},{"bike_id":"0c466282-80b8-4aec-9c99-78a2645255a1","system_id":"levelo_inurba_marseille","lat":43.287154,"lon":5.399979,"is_reserved":false,"is_disabled":false,"rental_uris":{"android":"levelo://app?vid=0c466282-80b8-4aec-9c99-78a2645255a1","ios":"levelo://app?vid=0c466282-80b8-4aec-9c99-78a2645255a1"},"vehicle_type_id":"4","last_reported":1678907145,"current_range_meters":13600,"station_id":"ce4bho92rcd13ifvqh3g","pricing_plan_id":"free"},{"bike_id":"b6c31273-1fe9-408e-ab22-d9ceb7006c43","system_id":"levelo_inurba_marseille","lat":43.287154,"lon":5.399979,"is_reserved":false,"is_disabled":false,"rental_uris":{"android":"levelo://app?vid=b6c31273-1fe9-408e-ab22-d9ceb7006c43","ios":"levelo://app?vid=b6c31273-1fe9-408e-ab22-d9ceb7006c43"},"vehicle_type_id":"4","last_reported":1678907145,"current_range_meters":26400,"station_id":"ce4bho92rcd13ifvqh3g","pricing_plan_id":"free"},{"bike_id":"ab399fb9-121b-4a46-a484-059b72526b15","system_id":"levelo_inurba_marseille","lat":43.320045,"lon":5.415048,"is_reserved":false,"is_disabled":false,"rental_uris":{"android":"levelo://app?vid=ab399fb9-121b-4a46-a484-059b72526b15","ios":"levelo://app?vid=ab399fb9-121b-4a46-a484-059b72526b15"},"vehicle_type_id":"4","last_reported":1678907145,"current_range_meters":30400,"station_id":"ce4bhq92rcd13ifvqhkg","pricing_plan_id":"free"},{"bike_id":"aea02ae5-2f40-4e3c-827b-6fa97ac1401e","system_id":"levelo_inurba_marseille","lat":43.320045,"lon":5.415048,"is_reserved":false,"is_disabled":false,"rental_uris":{"android":"levelo://app?vid=aea02ae5-2f40-4e3c-827b-6fa97ac1401e","ios":"levelo://app?vid=aea02ae5-2f40-4e3c-827b-6fa97ac1401e"},"vehicle_type_id":"4","last_reported":1678907145,"current_range_meters":2000,"station_id":"ce4bhq92rcd13ifvqhkg","pricing_plan_id":"free"},{"bike_id":"2753a953-83aa-47ed-ac17-77f7b58df6b5","system_id":"levelo_inurba_marseille","lat":43.32045,"lon":5.41536,"is_reserved":false,"is_disabled":false,"rental_uris":{"android":"levelo://app?vid=2753a953-83aa-47ed-ac17-77f7b58df6b5","ios":"levelo://app?vid=2753a953-83aa-47ed-ac17-77f7b58df6b5"},"vehicle_type_id":"4","last_reported":1678907145,"current_range_meters":9600,"station_id":"","pricing_plan_id":"free"},{"bike_id":"be15fc15-611f-44bb-9e7e-a898afe4c469","system_id":"levelo_inurba_marseille","lat":43.32032,"lon":5.415401,"is_reserved":false,"is_disabled":false,"rental_uris":{"android":"levelo://app?vid=be15fc15-611f-44bb-9e7e-a898afe4c469","ios":"levelo://app?vid=be15fc15-611f-44bb-9e7e-a898afe4c469"},"vehicle_type_id":"4","last_reported":1678907145,"current_range_meters":11600,"station_id":"ce4bh012rcd13ifvqd00","pricing_plan_id":"free"},{"bike_id":"c0d335a1-785a-481d-9fe4-f0fa61f108cf","system_id":"levelo_inurba_marseille","lat":43.320045,"lon":5.415048,"is_reserved":false,"is_disabled":false,"rental_uris":{"android":"levelo://app?vid=c0d335a1-785a-481d-9fe4-f0fa61f108cf","ios":"levelo://app?vid=c0d335a1-785a-481d-9fe4-f0fa61f108cf"},"vehicle_type_id":"4","last_reported":1678907145,"current_range_meters":1600,"station_id":"ce4bhq92rcd13ifvqhkg","pricing_plan_id":"free"},{"bike_id":"3f6e911d-7e09-46dc-a02c-678a0be329b6","system_id":"levelo_inurba_marseille","lat":43.320045,"lon":5.415048,"is_reserved":false,"is_disabled":false,"rental_uris":{"android":"levelo://app?vid=3f6e911d-7e09-46dc-a02c-678a0be329b6","ios":"levelo://app?vid=3f6e911d-7e09-46dc-a02c-678a0be329b6"},"vehicle_type_id":"4","last_reported":1678907145,"current_range_meters":26800,"station_id":"ce4bhq92rcd13ifvqhkg","pricing_plan_id":"free"},{"bike_id":"2815ace8-aab8-470f-b563-d8784563dcc7","system_id":"levelo_inurba_marseille","lat":43.320045,"lon":5.415048,"is_reserved":false,"is_disabled":false,"rental_uris":{"android":"levelo://app?vid=2815ace8-aab8-470f-b563-d8784563dcc7","ios":"levelo://app?vid=2815ace8-aab8-470f-b563-d8784563dcc7"},"vehicle_type_id":"4","last_reported":1678907145,"current_range_meters":29200,"station_id":"ce4bhq92rcd13ifvqhkg","pricing_plan_id":"free"},{"bike_id":"3a33998f-4ac3-4348-8ef9-01a3fa4304cf","system_id":"levelo_inurba_marseille","lat":43.320045,"lon":5.415048,"is_reserved":false,"is_disabled":false,"rental_uris":{"android":"levelo://app?vid=3a33998f-4ac3-4348-8ef9-01a3fa4304cf","ios":"levelo://app?vid=3a33998f-4ac3-4348-8ef9-01a3fa4304cf"},"vehicle_type_id":"4","last_reported":1678907145,"current_range_meters":6800,"station_id":"ce4bhq92rcd13ifvqhkg","pricing_plan_id":"free"},{"bike_id":"f40dfacc-81a7-41e9-bc39-3454a7dfbc19","system_id":"levelo_inurba_marseille","lat":43.320045,"lon":5.415048,"is_reserved":false,"is_disabled":false,"rental_uris":{"android":"levelo://app?vid=f40dfacc-81a7-41e9-bc39-3454a7dfbc19","ios":"levelo://app?vid=f40dfacc-81a7-41e9-bc39-3454a7dfbc19"},"vehicle_type_id":"4","last_reported":1678907145,"current_range_meters":13600,"station_id":"ce4bhq92rcd13ifvqhkg","pricing_plan_id":"free"},{"bike_id":"495ba0cc-3a6e-4ee9-9849-631c22125a5a","system_id":"levelo_inurba_marseille","lat":43.320045,"lon":5.415048,"is_reserved":false,"is_disabled":false,"rental_uris":{"android":"levelo://app?vid=495ba0cc-3a6e-4ee9-9849-631c22125a5a","ios":"levelo://app?vid=495ba0cc-3a6e-4ee9-9849-631c22125a5a"},"vehicle_type_id":"4","last_reported":1678907145,"current_range_meters":0,"station_id":"ce4bhq92rcd13ifvqhkg","pricing_plan_id":"free"},{"bike_id":"935339e1-78c7-4ff3-97b4-d7f8e2fa9588","system_id":"levelo_inurba_marseille","lat":43.320343,"lon":5.415589,"is_reserved":false,"is_disabled":false,"rental_uris":{"android":"levelo://app?vid=935339e1-78c7-4ff3-97b4-d7f8e2fa9588","ios":"levelo://app?vid=935339e1-78c7-4ff3-97b4-d7f8e2fa9588"},"vehicle_type_id":"4","last_reported":1678907145,"current_range_meters":31200,"station_id":"","pricing_plan_id":"free"},{"bike_id":"59cc9084-8922-4e3c-b86b-55807d5ad4b6","system_id":"levelo_inurba_marseille","lat":43.32037,"lon":5.4157,"is_reserved":false,"is_disabled":false,"rental_uris":{"android":"levelo://app?vid=59cc9084-8922-4e3c-b86b-55807d5ad4b6","ios":"levelo://app?vid=59cc9084-8922-4e3c-b86b-55807d5ad4b6"},"vehicle_type_id":"4","last_reported":1678907145,"current_range_meters":20400,"station_id":"","pricing_plan_id":"free"},{"bike_id":"18748e66-c446-4b52-820e-c6c0a5239b64","system_id":"levelo_inurba_marseille","lat":43.29986,"lon":5.41361,"is_reserved":false,"is_disabled":false,"rental_uris":{"android":"levelo://app?vid=18748e66-c446-4b52-820e-c6c0a5239b64","ios":"levelo://app?vid=18748e66-c446-4b52-820e-c6c0a5239b64"},"vehicle_type_id":"4","last_reported":1678907145,"current_range_meters":23600,"station_id":"","pricing_plan_id":"free"},{"bike_id":"e0826c8e-1323-48a8-b150-4c753eb4e7b3","system_id":"levelo_inurba_marseille","lat":43.292569,"lon":5.409107,"is_reserved":false,"is_disabled":false,"rental_uris":{"android":"levelo://app?vid=e0826c8e-1323-48a8-b150-4c753eb4e7b3","ios":"levelo://app?vid=e0826c8e-1323-48a8-b150-4c753eb4e7b3"},"vehicle_type_id":"4","last_reported":1678907145,"current_range_meters":0,"station_id":"ce4bh192rcd13ifvqdc0","pricing_plan_id":"free"},{"bike_id":"3685f146-ffc8-47d4-8eb9-76a63bfab2ef","system_id":"levelo_inurba_marseille","lat":43.292571,"lon":5.409107,"is_reserved":false,"is_disabled":false,"rental_uris":{"android":"levelo://app?vid=3685f146-ffc8-47d4-8eb9-76a63bfab2ef","ios":"levelo://app?vid=3685f146-ffc8-47d4-8eb9-76a63bfab2ef"},"vehicle_type_id":"4","last_reported":1678907145,"current_range_meters":1200,"station_id":"ce4bh192rcd13ifvqdc0","pricing_plan_id":"free"},{"bike_id":"d44b94fc-b395-4f8d-aa16-b17ae92ed45e","system_id":"levelo_inurba_marseille","lat":43.33612,"lon":5.410321,"is_reserved":false,"is_disabled":false,"rental_uris":{"android":"levelo://app?vid=d44b94fc-b395-4f8d-aa16-b17ae92ed45e","ios":"levelo://app?vid=d44b94fc-b395-4f8d-aa16-b17ae92ed45e"},"vehicle_type_id":"4","last_reported":1678907145,"current_range_meters":29200,"station_id":"ce4bhqh2rcd13ifvqhmg","pricing_plan_id":"free"},{"bike_id":"1aa1ba83-fdc2-4f21-b279-c18fe7ceeaed","system_id":"levelo_inurba_marseille","lat":43.280784,"lon":5.396622,"is_reserved":false,"is_disabled":false,"rental_uris":{"android":"levelo://app?vid=1aa1ba83-fdc2-4f21-b279-c18fe7ceeaed","ios":"levelo://app?vid=1aa1ba83-fdc2-4f21-b279-c18fe7ceeaed"},"vehicle_type_id":"4","last_reported":1678907145,"current_range_meters":2400,"station_id":"ce4bho12rcd13ifvqh2g","pricing_plan_id":"free"},{"bike_id":"fed67d13-cd19-41a8-b7c9-28172b0c2266","system_id":"levelo_inurba_marseille","lat":43.273613,"lon":5.362705,"is_reserved":false,"is_disabled":false,"rental_uris":{"android":"levelo://app?vid=fed67d13-cd19-41a8-b7c9-28172b0c2266","ios":"levelo://app?vid=fed67d13-cd19-41a8-b7c9-28172b0c2266"},"vehicle_type_id":"4","last_reported":1678907145,"current_range_meters":10400,"station_id":"ce4bhbh2rcd13ifvqeo0","pricing_plan_id":"free"},{"bike_id":"536e0f45-325d-443f-bea7-4114006c3f94","system_id":"levelo_inurba_marseille","lat":43.273613,"lon":5.362705,"is_reserved":false,"is_disabled":false,"rental_uris":{"android":"levelo://app?vid=536e0f45-325d-443f-bea7-4114006c3f94","ios":"levelo://app?vid=536e0f45-325d-443f-bea7-4114006c3f94"},"vehicle_type_id":"4","last_reported":1678907145,"current_range_meters":30800,"station_id":"ce4bhbh2rcd13ifvqeo0","pricing_plan_id":"free"},{"bike_id":"6ec05a53-8a13-4418-932e-ca3661ae3af4","system_id":"levelo_inurba_marseille","lat":43.273613,"lon":5.362705,"is_reserved":false,"is_disabled":false,"rental_uris":{"android":"levelo://app?vid=6ec05a53-8a13-4418-932e-ca3661ae3af4","ios":"levelo://app?vid=6ec05a53-8a13-4418-932e-ca3661ae3af4"},"vehicle_type_id":"4","last_reported":1678907145,"current_range_meters":29600,"station_id":"ce4bhbh2rcd13ifvqeo0","pricing_plan_id":"free"},{"bike_id":"923d8507-12c3-40fd-b22f-c57feba2b4fe","system_id":"levelo_inurba_marseille","lat":43.273613,"lon":5.362705,"is_reserved":false,"is_disabled":false,"rental_uris":{"android":"levelo://app?vid=923d8507-12c3-40fd-b22f-c57feba2b4fe","ios":"levelo://app?vid=923d8507-12c3-40fd-b22f-c57feba2b4fe"},"vehicle_type_id":"4","last_reported":1678907145,"current_range_meters":28800,"station_id":"ce4bhbh2rcd13ifvqeo0","pricing_plan_id":"free"},{"bike_id":"312e7706-6197-4733-9f0f-7f12ae489676","system_id":"levelo_inurba_marseille","lat":43.273613,"lon":5.362705,"is_reserved":false,"is_disabled":false,"rental_uris":{"android":"levelo://app?vid=312e7706-6197-4733-9f0f-7f12ae489676","ios":"levelo://app?vid=312e7706-6197-4733-9f0f-7f12ae489676"},"vehicle_type_id":"4","last_reported":1678907145,"current_range_meters":23200,"station_id":"ce4bhbh2rcd13ifvqeo0","pricing_plan_id":"free"},{"bike_id":"0d65cf68-9e3c-4f75-aa57-dd331cfc64fb","system_id":"levelo_inurba_marseille","lat":43.273613,"lon":5.362705,"is_reserved":false,"is_disabled":false,"rental_uris":{"android":"levelo://app?vid=0d65cf68-9e3c-4f75-aa57-dd331cfc64fb","ios":"levelo://app?vid=0d65cf68-9e3c-4f75-aa57-dd331cfc64fb"},"vehicle_type_id":"4","last_reported":1678907145,"current_range_meters":10800,"station_id":"ce4bhbh2rcd13ifvqeo0","pricing_plan_id":"free"},{"bike_id":"cc5fd69f-584a-47b4-a535-ce57865fa0d6","system_id":"levelo_inurba_marseille","lat":43.273613,"lon":5.362705,"is_reserved":false,"is_disabled":false,"rental_uris":{"android":"levelo://app?vid=cc5fd69f-584a-47b4-a535-ce57865fa0d6","ios":"levelo://app?vid=cc5fd69f-584a-47b4-a535-ce57865fa0d6"},"vehicle_type_id":"4","last_reported":1678907145,"current_range_meters":24800,"station_id":"ce4bhbh2rcd13ifvqeo0","pricing_plan_id":"free"},{"bike_id":"3cb0cf11-7213-47b0-b35e-15bb3d7e4a83","system_id":"levelo_inurba_marseille","lat":43.273613,"lon":5.362705,"is_reserved":false,"is_disabled":false,"rental_uris":{"android":"levelo://app?vid=3cb0cf11-7213-47b0-b35e-15bb3d7e4a83","ios":"levelo://app?vid=3cb0cf11-7213-47b0-b35e-15bb3d7e4a83"},"vehicle_type_id":"4","last_reported":1678907145,"current_range_meters":26400,"station_id":"ce4bhbh2rcd13ifvqeo0","pricing_plan_id":"free"},{"bike_id":"07585d5b-f490-4106-95ae-63d3ce04dd54","system_id":"levelo_inurba_marseille","lat":43.27372,"lon":5.36257,"is_reserved":false,"is_disabled":false,"rental_uris":{"android":"levelo://app?vid=07585d5b-f490-4106-95ae-63d3ce04dd54","ios":"levelo://app?vid=07585d5b-f490-4106-95ae-63d3ce04dd54"},"vehicle_type_id":"4","last_reported":1678907145,"current_range_meters":6800,"station_id":"","pricing_plan_id":"free"},{"bike_id":"8d9be07a-6be3-4aff-be6e-cb563df5f0e8","system_id":"levelo_inurba_marseille","lat":43.273613,"lon":5.362705,"is_reserved":false,"is_disabled":false,"rental_uris":{"android":"levelo://app?vid=8d9be07a-6be3-4aff-be6e-cb563df5f0e8","ios":"levelo://app?vid=8d9be07a-6be3-4aff-be6e-cb563df5f0e8"},"vehicle_type_id":"4","last_reported":1678907145,"current_range_meters":24000,"station_id":"ce4bhbh2rcd13ifvqeo0","pricing_plan_id":"free"},{"bike_id":"1420ca7e-5593-425d-bda6-ee1e783fe285","system_id":"levelo_inurba_marseille","lat":43.33612,"lon":5.410321,"is_reserved":false,"is_disabled":false,"rental_uris":{"android":"levelo://app?vid=1420ca7e-5593-425d-bda6-ee1e783fe285","ios":"levelo://app?vid=1420ca7e-5593-425d-bda6-ee1e783fe285"},"vehicle_type_id":"4","last_reported":1678907145,"current_range_meters":25600,"station_id":"ce4bhqh2rcd13ifvqhmg","pricing_plan_id":"free"},{"bike_id":"aa71d67c-ca7d-4694-87d9-e92142b197ae","system_id":"levelo_inurba_marseille","lat":43.276703,"lon":5.388957,"is_reserved":false,"is_disabled":false,"rental_uris":{"android":"levelo://app?vid=aa71d67c-ca7d-4694-87d9-e92142b197ae","ios":"levelo://app?vid=aa71d67c-ca7d-4694-87d9-e92142b197ae"},"vehicle_type_id":"4","last_reported":1678907145,"current_range_meters":0,"station_id":"","pricing_plan_id":"free"},{"bike_id":"4de02cdf-c69d-4ca6-a020-8ecb8e0dcffd","system_id":"levelo_inurba_marseille","lat":43.317121,"lon":5.423936,"is_reserved":false,"is_disabled":false,"rental_uris":{"android":"levelo://app?vid=4de02cdf-c69d-4ca6-a020-8ecb8e0dcffd","ios":"levelo://app?vid=4de02cdf-c69d-4ca6-a020-8ecb8e0dcffd"},"vehicle_type_id":"4","last_reported":1678907145,"current_range_meters":27600,"station_id":"ce4bhp92rcd13ifvqhbg","pricing_plan_id":"free"},{"bike_id":"63dee804-3724-4c91-8499-c6b93aaeb9df","system_id":"levelo_inurba_marseille","lat":43.310785,"lon":5.424305,"is_reserved":false,"is_disabled":false,"rental_uris":{"android":"levelo://app?vid=63dee804-3724-4c91-8499-c6b93aaeb9df","ios":"levelo://app?vid=63dee804-3724-4c91-8499-c6b93aaeb9df"},"vehicle_type_id":"4","last_reported":1678907145,"current_range_meters":4400,"station_id":"ce4bhp92rcd13ifvqhag","pricing_plan_id":"free"},{"bike_id":"90248d0d-0d46-4246-a4d8-c3478e1a0b98","system_id":"levelo_inurba_marseille","lat":43.274103,"lon":5.394016,"is_reserved":false,"is_disabled":false,"rental_uris":{"android":"levelo://app?vid=90248d0d-0d46-4246-a4d8-c3478e1a0b98","ios":"levelo://app?vid=90248d0d-0d46-4246-a4d8-c3478e1a0b98"},"vehicle_type_id":"4","last_reported":1678907145,"current_range_meters":18400,"station_id":"ce4bhdp2rcd13ifvqf20","pricing_plan_id":"free"},{"bike_id":"2f549614-523f-48aa-a274-ab72fb661e03","system_id":"levelo_inurba_marseille","lat":43.304096,"lon":5.425385,"is_reserved":false,"is_disabled":false,"rental_uris":{"android":"levelo://app?vid=2f549614-523f-48aa-a274-ab72fb661e03","ios":"levelo://app?vid=2f549614-523f-48aa-a274-ab72fb661e03"},"vehicle_type_id":"4","last_reported":1678907145,"current_range_meters":0,"station_id":"ce4bhoh2rcd13ifvqh6g","pricing_plan_id":"free"},{"bike_id":"64896969-7398-48e4-9267-ae27e722b0ab","system_id":"levelo_inurba_marseille","lat":43.295523,"lon":5.422926,"is_reserved":false,"is_disabled":false,"rental_uris":{"android":"levelo://app?vid=64896969-7398-48e4-9267-ae27e722b0ab","ios":"levelo://app?vid=64896969-7398-48e4-9267-ae27e722b0ab"},"vehicle_type_id":"4","last_reported":1678907145,"current_range_meters":0,"station_id":"ce4bhph2rcd13ifvqhdg","pricing_plan_id":"free"},{"bike_id":"b5f6d975-4102-41b3-b5cd-2137a3521ed9","system_id":"levelo_inurba_marseille","lat":43.295497,"lon":5.42288,"is_reserved":false,"is_disabled":false,"rental_uris":{"android":"levelo://app?vid=b5f6d975-4102-41b3-b5cd-2137a3521ed9","ios":"levelo://app?vid=b5f6d975-4102-41b3-b5cd-2137a3521ed9"},"vehicle_type_id":"4","last_reported":1678907145,"current_range_meters":12400,"station_id":"","pricing_plan_id":"free"},{"bike_id":"d5d264fa-7a75-47af-8e5d-cdec1091e656","system_id":"levelo_inurba_marseille","lat":43.295523,"lon":5.422926,"is_reserved":false,"is_disabled":false,"rental_uris":{"android":"levelo://app?vid=d5d264fa-7a75-47af-8e5d-cdec1091e656","ios":"levelo://app?vid=d5d264fa-7a75-47af-8e5d-cdec1091e656"},"vehicle_type_id":"4","last_reported":1678907145,"current_range_meters":6800,"station_id":"ce4bhph2rcd13ifvqhdg","pricing_plan_id":"free"},{"bike_id":"c4a62fc8-9788-4222-b455-c3b946fb86a9","system_id":"levelo_inurba_marseille","lat":43.295523,"lon":5.422926,"is_reserved":false,"is_disabled":false,"rental_uris":{"android":"levelo://app?vid=c4a62fc8-9788-4222-b455-c3b946fb86a9","ios":"levelo://app?vid=c4a62fc8-9788-4222-b455-c3b946fb86a9"},"vehicle_type_id":"4","last_reported":1678907145,"current_range_meters":11600,"station_id":"ce4bhph2rcd13ifvqhdg","pricing_plan_id":"free"},{"bike_id":"26fd319d-7ca4-4cd4-b394-0944d0ece7c3","system_id":"levelo_inurba_marseille","lat":43.272124,"lon":5.391768,"is_reserved":false,"is_disabled":false,"rental_uris":{"android":"levelo://app?vid=26fd319d-7ca4-4cd4-b394-0944d0ece7c3","ios":"levelo://app?vid=26fd319d-7ca4-4cd4-b394-0944d0ece7c3"},"vehicle_type_id":"4","last_reported":1678907145,"current_range_meters":0,"station_id":"ce4bhhp2rcd13ifvqfm0","pricing_plan_id":"free"},{"bike_id":"5afefb2c-1776-4fb5-9927-c7719642ec5a","system_id":"levelo_inurba_marseille","lat":43.278128,"lon":5.407195,"is_reserved":false,"is_disabled":false,"rental_uris":{"android":"levelo://app?vid=5afefb2c-1776-4fb5-9927-c7719642ec5a","ios":"levelo://app?vid=5afefb2c-1776-4fb5-9927-c7719642ec5a"},"vehicle_type_id":"4","last_reported":1678907145,"current_range_meters":20800,"station_id":"ce4bhnh2rcd13ifvqgtg","pricing_plan_id":"free"},{"bike_id":"c6a24d1e-564c-46a4-b8ef-7080be6756a1","system_id":"levelo_inurba_marseille","lat":43.278128,"lon":5.407195,"is_reserved":false,"is_disabled":false,"rental_uris":{"android":"levelo://app?vid=c6a24d1e-564c-46a4-b8ef-7080be6756a1","ios":"levelo://app?vid=c6a24d1e-564c-46a4-b8ef-7080be6756a1"},"vehicle_type_id":"4","last_reported":1678907145,"current_range_meters":28000,"station_id":"ce4bhnh2rcd13ifvqgtg","pricing_plan_id":"free"},{"bike_id":"a7fdd23b-5d53-4286-99bc-c45cf2848843","system_id":"levelo_inurba_marseille","lat":43.278128,"lon":5.407195,"is_reserved":false,"is_disabled":false,"rental_uris":{"android":"levelo://app?vid=a7fdd23b-5d53-4286-99bc-c45cf2848843","ios":"levelo://app?vid=a7fdd23b-5d53-4286-99bc-c45cf2848843"},"vehicle_type_id":"4","last_reported":1678907145,"current_range_meters":1600,"station_id":"ce4bhnh2rcd13ifvqgtg","pricing_plan_id":"free"},{"bike_id":"c2985580-8a6b-4e2d-a979-d73ff5befc24","system_id":"levelo_inurba_marseille","lat":43.26681,"lon":5.382694,"is_reserved":false,"is_disabled":false,"rental_uris":{"android":"levelo://app?vid=c2985580-8a6b-4e2d-a979-d73ff5befc24","ios":"levelo://app?vid=c2985580-8a6b-4e2d-a979-d73ff5befc24"},"vehicle_type_id":"4","last_reported":1678907145,"current_range_meters":24800,"station_id":"ce4bhg92rcd13ifvqf90","pricing_plan_id":"free"},{"bike_id":"47af7ce1-416a-4845-bd8e-4c7770bdb070","system_id":"levelo_inurba_marseille","lat":43.26561,"lon":5.37276,"is_reserved":false,"is_disabled":false,"rental_uris":{"android":"levelo://app?vid=47af7ce1-416a-4845-bd8e-4c7770bdb070","ios":"levelo://app?vid=47af7ce1-416a-4845-bd8e-4c7770bdb070"},"vehicle_type_id":"4","last_reported":1678907145,"current_range_meters":16800,"station_id":"","pricing_plan_id":"free"},{"bike_id":"f75eb9e2-afd2-48d8-b751-3d2af42a2cef","system_id":"levelo_inurba_marseille","lat":43.265714,"lon":5.372891,"is_reserved":false,"is_disabled":false,"rental_uris":{"android":"levelo://app?vid=f75eb9e2-afd2-48d8-b751-3d2af42a2cef","ios":"levelo://app?vid=f75eb9e2-afd2-48d8-b751-3d2af42a2cef"},"vehicle_type_id":"4","last_reported":1678907145,"current_range_meters":2800,"station_id":"ce4bhg12rcd13ifvqf70","pricing_plan_id":"free"},{"bike_id":"838dd8fe-ec7c-415e-8f4c-b6b039251b6e","system_id":"levelo_inurba_marseille","lat":43.26681,"lon":5.382694,"is_reserved":false,"is_disabled":false,"rental_uris":{"android":"levelo://app?vid=838dd8fe-ec7c-415e-8f4c-b6b039251b6e","ios":"levelo://app?vid=838dd8fe-ec7c-415e-8f4c-b6b039251b6e"},"vehicle_type_id":"4","last_reported":1678907145,"current_range_meters":13600,"station_id":"ce4bhg92rcd13ifvqf90","pricing_plan_id":"free"},{"bike_id":"2790a368-c8ea-406c-8540-62e230edeb72","system_id":"levelo_inurba_marseille","lat":43.265542,"lon":5.372855,"is_reserved":false,"is_disabled":false,"rental_uris":{"android":"levelo://app?vid=2790a368-c8ea-406c-8540-62e230edeb72","ios":"levelo://app?vid=2790a368-c8ea-406c-8540-62e230edeb72"},"vehicle_type_id":"4","last_reported":1678907145,"current_range_meters":4400,"station_id":"ce4bhg12rcd13ifvqf70","pricing_plan_id":"free"},{"bike_id":"6cd484e7-ae09-48c8-88fa-1e5c74a153fa","system_id":"levelo_inurba_marseille","lat":43.27996,"lon":5.416624,"is_reserved":false,"is_disabled":false,"rental_uris":{"android":"levelo://app?vid=6cd484e7-ae09-48c8-88fa-1e5c74a153fa","ios":"levelo://app?vid=6cd484e7-ae09-48c8-88fa-1e5c74a153fa"},"vehicle_type_id":"4","last_reported":1678907145,"current_range_meters":14400,"station_id":"ce4bho12rcd13ifvqh1g","pricing_plan_id":"free"},{"bike_id":"36aa6365-2456-41b8-9cdf-4483e857dfb7","system_id":"levelo_inurba_marseille","lat":43.27996,"lon":5.416624,"is_reserved":false,"is_disabled":false,"rental_uris":{"android":"levelo://app?vid=36aa6365-2456-41b8-9cdf-4483e857dfb7","ios":"levelo://app?vid=36aa6365-2456-41b8-9cdf-4483e857dfb7"},"vehicle_type_id":"4","last_reported":1678907145,"current_range_meters":0,"station_id":"ce4bho12rcd13ifvqh1g","pricing_plan_id":"free"},{"bike_id":"ce966a5e-784c-49f3-a959-f34b3e73f4c8","system_id":"levelo_inurba_marseille","lat":43.279977,"lon":5.416603,"is_reserved":false,"is_disabled":false,"rental_uris":{"android":"levelo://app?vid=ce966a5e-784c-49f3-a959-f34b3e73f4c8","ios":"levelo://app?vid=ce966a5e-784c-49f3-a959-f34b3e73f4c8"},"vehicle_type_id":"4","last_reported":1678907145,"current_range_meters":8400,"station_id":"","pricing_plan_id":"free"},{"bike_id":"35fcbc71-4d6e-4e31-ac69-34107d646b75","system_id":"levelo_inurba_marseille","lat":43.27995,"lon":5.41659,"is_reserved":false,"is_disabled":false,"rental_uris":{"android":"levelo://app?vid=35fcbc71-4d6e-4e31-ac69-34107d646b75","ios":"levelo://app?vid=35fcbc71-4d6e-4e31-ac69-34107d646b75"},"vehicle_type_id":"4","last_reported":1678907145,"current_range_meters":29600,"station_id":"ce4bho12rcd13ifvqh1g","pricing_plan_id":"free"},{"bike_id":"73372c94-16b6-407e-b966-7ec1219ea4db","system_id":"levelo_inurba_marseille","lat":43.27996,"lon":5.416624,"is_reserved":false,"is_disabled":false,"rental_uris":{"android":"levelo://app?vid=73372c94-16b6-407e-b966-7ec1219ea4db","ios":"levelo://app?vid=73372c94-16b6-407e-b966-7ec1219ea4db"},"vehicle_type_id":"4","last_reported":1678907145,"current_range_meters":17600,"station_id":"ce4bho12rcd13ifvqh1g","pricing_plan_id":"free"},{"bike_id":"a2b1aaa2-122b-4268-93ad-4ee88667a20a","system_id":"levelo_inurba_marseille","lat":43.279943,"lon":5.4166,"is_reserved":false,"is_disabled":false,"rental_uris":{"android":"levelo://app?vid=a2b1aaa2-122b-4268-93ad-4ee88667a20a","ios":"levelo://app?vid=a2b1aaa2-122b-4268-93ad-4ee88667a20a"},"vehicle_type_id":"4","last_reported":1678907145,"current_range_meters":400,"station_id":"","pricing_plan_id":"free"},{"bike_id":"7ee3b5e8-36dd-4fee-bf2a-baa08be7adb6","system_id":"levelo_inurba_marseille","lat":43.27996,"lon":5.416624,"is_reserved":false,"is_disabled":false,"rental_uris":{"android":"levelo://app?vid=7ee3b5e8-36dd-4fee-bf2a-baa08be7adb6","ios":"levelo://app?vid=7ee3b5e8-36dd-4fee-bf2a-baa08be7adb6"},"vehicle_type_id":"4","last_reported":1678907145,"current_range_meters":5200,"station_id":"ce4bho12rcd13ifvqh1g","pricing_plan_id":"free"},{"bike_id":"9e1c887f-89ab-4236-bb5a-c8a19d584a64","system_id":"levelo_inurba_marseille","lat":43.267966,"lon":5.393976,"is_reserved":false,"is_disabled":false,"rental_uris":{"android":"levelo://app?vid=9e1c887f-89ab-4236-bb5a-c8a19d584a64","ios":"levelo://app?vid=9e1c887f-89ab-4236-bb5a-c8a19d584a64"},"vehicle_type_id":"4","last_reported":1678907145,"current_range_meters":0,"station_id":"ce4bhh12rcd13ifvqfg0","pricing_plan_id":"free"},{"bike_id":"29ee4140-f05a-483a-ba14-a574596f748d","system_id":"levelo_inurba_marseille","lat":43.308051,"lon":5.43527,"is_reserved":false,"is_disabled":false,"rental_uris":{"android":"levelo://app?vid=29ee4140-f05a-483a-ba14-a574596f748d","ios":"levelo://app?vid=29ee4140-f05a-483a-ba14-a574596f748d"},"vehicle_type_id":"4","last_reported":1678907145,"current_range_meters":20800,"station_id":"ce4bhph2rcd13ifvqheg","pricing_plan_id":"free"},{"bike_id":"92c2b318-fad5-42d5-826b-191b3d6c8841","system_id":"levelo_inurba_marseille","lat":43.265569,"lon":5.390047,"is_reserved":false,"is_disabled":false,"rental_uris":{"android":"levelo://app?vid=92c2b318-fad5-42d5-826b-191b3d6c8841","ios":"levelo://app?vid=92c2b318-fad5-42d5-826b-191b3d6c8841"},"vehicle_type_id":"4","last_reported":1678907145,"current_range_meters":18800,"station_id":"ce4bhe12rcd13ifvqf30","pricing_plan_id":"free"},{"bike_id":"8aa0abae-9b2f-41ca-ba11-ffd329da0f63","system_id":"levelo_inurba_marseille","lat":43.265569,"lon":5.390047,"is_reserved":false,"is_disabled":false,"rental_uris":{"android":"levelo://app?vid=8aa0abae-9b2f-41ca-ba11-ffd329da0f63","ios":"levelo://app?vid=8aa0abae-9b2f-41ca-ba11-ffd329da0f63"},"vehicle_type_id":"4","last_reported":1678907145,"current_range_meters":19200,"station_id":"ce4bhe12rcd13ifvqf30","pricing_plan_id":"free"},{"bike_id":"3a2710ca-cd01-4131-83f3-ac91d4e0887c","system_id":"levelo_inurba_marseille","lat":43.307976,"lon":5.435313,"is_reserved":false,"is_disabled":false,"rental_uris":{"android":"levelo://app?vid=3a2710ca-cd01-4131-83f3-ac91d4e0887c","ios":"levelo://app?vid=3a2710ca-cd01-4131-83f3-ac91d4e0887c"},"vehicle_type_id":"4","last_reported":1678907145,"current_range_meters":20400,"station_id":"","pricing_plan_id":"free"},{"bike_id":"0047e37d-474a-437c-b399-0af84291b1dd","system_id":"levelo_inurba_marseille","lat":43.265569,"lon":5.390047,"is_reserved":false,"is_disabled":false,"rental_uris":{"android":"levelo://app?vid=0047e37d-474a-437c-b399-0af84291b1dd","ios":"levelo://app?vid=0047e37d-474a-437c-b399-0af84291b1dd"},"vehicle_type_id":"4","last_reported":1678907145,"current_range_meters":23200,"station_id":"ce4bhe12rcd13ifvqf30","pricing_plan_id":"free"},{"bike_id":"9d878540-089b-4ea8-b42d-fe003e60de0d","system_id":"levelo_inurba_marseille","lat":43.317104,"lon":5.436818,"is_reserved":false,"is_disabled":false,"rental_uris":{"android":"levelo://app?vid=9d878540-089b-4ea8-b42d-fe003e60de0d","ios":"levelo://app?vid=9d878540-089b-4ea8-b42d-fe003e60de0d"},"vehicle_type_id":"4","last_reported":1678907145,"current_range_meters":4800,"station_id":"ce4bhp92rcd13ifvqhcg","pricing_plan_id":"free"},{"bike_id":"df0cd450-6eef-4f2a-b2db-89f90aeb8945","system_id":"levelo_inurba_marseille","lat":43.280329,"lon":5.426002,"is_reserved":false,"is_disabled":false,"rental_uris":{"android":"levelo://app?vid=df0cd450-6eef-4f2a-b2db-89f90aeb8945","ios":"levelo://app?vid=df0cd450-6eef-4f2a-b2db-89f90aeb8945"},"vehicle_type_id":"4","last_reported":1678907145,"current_range_meters":0,"station_id":"","pricing_plan_id":"free"},{"bike_id":"092986a8-72c4-45d2-8ba0-4549dc089177","system_id":"levelo_inurba_marseille","lat":43.26062,"lon":5.39397,"is_reserved":false,"is_disabled":false,"rental_uris":{"android":"levelo://app?vid=092986a8-72c4-45d2-8ba0-4549dc089177","ios":"levelo://app?vid=092986a8-72c4-45d2-8ba0-4549dc089177"},"vehicle_type_id":"4","last_reported":1678907145,"current_range_meters":19600,"station_id":"ce4bhh92rcd13ifvqfj0","pricing_plan_id":"free"},{"bike_id":"2028fdf3-4d8c-4937-8dc9-bc4603a281e0","system_id":"levelo_inurba_marseille","lat":43.2606,"lon":5.39396,"is_reserved":false,"is_disabled":false,"rental_uris":{"android":"levelo://app?vid=2028fdf3-4d8c-4937-8dc9-bc4603a281e0","ios":"levelo://app?vid=2028fdf3-4d8c-4937-8dc9-bc4603a281e0"},"vehicle_type_id":"4","last_reported":1678907145,"current_range_meters":3600,"station_id":"","pricing_plan_id":"free"},{"bike_id":"30a70633-258a-48ec-bd66-b70099e30c85","system_id":"levelo_inurba_marseille","lat":43.260909,"lon":5.397591,"is_reserved":false,"is_disabled":false,"rental_uris":{"android":"levelo://app?vid=30a70633-258a-48ec-bd66-b70099e30c85","ios":"levelo://app?vid=30a70633-258a-48ec-bd66-b70099e30c85"},"vehicle_type_id":"4","last_reported":1678907145,"current_range_meters":6000,"station_id":"ce4bhi12rcd13ifvqfq0","pricing_plan_id":"free"},{"bike_id":"be585c4d-17fd-469f-b36e-e96d78c18a86","system_id":"levelo_inurba_marseille","lat":43.260764,"lon":5.39764,"is_reserved":false,"is_disabled":false,"rental_uris":{"android":"levelo://app?vid=be585c4d-17fd-469f-b36e-e96d78c18a86","ios":"levelo://app?vid=be585c4d-17fd-469f-b36e-e96d78c18a86"},"vehicle_type_id":"4","last_reported":1678907145,"current_range_meters":0,"station_id":"ce4bhi12rcd13ifvqfq0","pricing_plan_id":"free"},{"bike_id":"e160fb70-d10b-450d-8422-3e176bc486be","system_id":"levelo_inurba_marseille","lat":43.255756,"lon":5.382303,"is_reserved":false,"is_disabled":false,"rental_uris":{"android":"levelo://app?vid=e160fb70-d10b-450d-8422-3e176bc486be","ios":"levelo://app?vid=e160fb70-d10b-450d-8422-3e176bc486be"},"vehicle_type_id":"4","last_reported":1678907145,"current_range_meters":12800,"station_id":"ce4bhih2rcd13ifvqfs0","pricing_plan_id":"free"},{"bike_id":"88818a71-0164-4801-ae04-b0b035ec00b6","system_id":"levelo_inurba_marseille","lat":43.255756,"lon":5.382303,"is_reserved":false,"is_disabled":false,"rental_uris":{"android":"levelo://app?vid=88818a71-0164-4801-ae04-b0b035ec00b6","ios":"levelo://app?vid=88818a71-0164-4801-ae04-b0b035ec00b6"},"vehicle_type_id":"4","last_reported":1678907145,"current_range_meters":23200,"station_id":"ce4bhih2rcd13ifvqfs0","pricing_plan_id":"free"},{"bike_id":"a7a49ade-e583-41ac-9859-ef44334acbc6","system_id":"levelo_inurba_marseille","lat":43.255756,"lon":5.382303,"is_reserved":false,"is_disabled":false,"rental_uris":{"android":"levelo://app?vid=a7a49ade-e583-41ac-9859-ef44334acbc6","ios":"levelo://app?vid=a7a49ade-e583-41ac-9859-ef44334acbc6"},"vehicle_type_id":"4","last_reported":1678907145,"current_range_meters":13600,"station_id":"ce4bhih2rcd13ifvqfs0","pricing_plan_id":"free"},{"bike_id":"3615188f-a55e-4282-b42a-b49a89c3d057","system_id":"levelo_inurba_marseille","lat":43.255756,"lon":5.382303,"is_reserved":false,"is_disabled":false,"rental_uris":{"android":"levelo://app?vid=3615188f-a55e-4282-b42a-b49a89c3d057","ios":"levelo://app?vid=3615188f-a55e-4282-b42a-b49a89c3d057"},"vehicle_type_id":"4","last_reported":1678907145,"current_range_meters":26000,"station_id":"ce4bhih2rcd13ifvqfs0","pricing_plan_id":"free"},{"bike_id":"98277287-8f07-4517-959f-ed2776251ecf","system_id":"levelo_inurba_marseille","lat":43.255756,"lon":5.382303,"is_reserved":false,"is_disabled":false,"rental_uris":{"android":"levelo://app?vid=98277287-8f07-4517-959f-ed2776251ecf","ios":"levelo://app?vid=98277287-8f07-4517-959f-ed2776251ecf"},"vehicle_type_id":"4","last_reported":1678907145,"current_range_meters":23200,"station_id":"ce4bhih2rcd13ifvqfs0","pricing_plan_id":"free"},{"bike_id":"ebcbadf8-2f19-49a9-bc0a-b9706bb868f7","system_id":"levelo_inurba_marseille","lat":43.254947,"lon":5.376454,"is_reserved":false,"is_disabled":false,"rental_uris":{"android":"levelo://app?vid=ebcbadf8-2f19-49a9-bc0a-b9706bb868f7","ios":"levelo://app?vid=ebcbadf8-2f19-49a9-bc0a-b9706bb868f7"},"vehicle_type_id":"4","last_reported":1678907145,"current_range_meters":31600,"station_id":"ce4bhh12rcd13ifvqff0","pricing_plan_id":"free"},{"bike_id":"40e42c39-ff58-4a7a-a511-14bb1a14c979","system_id":"levelo_inurba_marseille","lat":43.254947,"lon":5.376454,"is_reserved":false,"is_disabled":false,"rental_uris":{"android":"levelo://app?vid=40e42c39-ff58-4a7a-a511-14bb1a14c979","ios":"levelo://app?vid=40e42c39-ff58-4a7a-a511-14bb1a14c979"},"vehicle_type_id":"4","last_reported":1678907145,"current_range_meters":30000,"station_id":"ce4bhh12rcd13ifvqff0","pricing_plan_id":"free"},{"bike_id":"4df6198a-4cb0-46de-ae45-62c1209fa121","system_id":"levelo_inurba_marseille","lat":43.254947,"lon":5.376454,"is_reserved":false,"is_disabled":false,"rental_uris":{"android":"levelo://app?vid=4df6198a-4cb0-46de-ae45-62c1209fa121","ios":"levelo://app?vid=4df6198a-4cb0-46de-ae45-62c1209fa121"},"vehicle_type_id":"4","last_reported":1678907145,"current_range_meters":26400,"station_id":"ce4bhh12rcd13ifvqff0","pricing_plan_id":"free"},{"bike_id":"c1337ea8-f769-4131-b218-ceeff456cc66","system_id":"levelo_inurba_marseille","lat":43.254947,"lon":5.376454,"is_reserved":false,"is_disabled":false,"rental_uris":{"android":"levelo://app?vid=c1337ea8-f769-4131-b218-ceeff456cc66","ios":"levelo://app?vid=c1337ea8-f769-4131-b218-ceeff456cc66"},"vehicle_type_id":"4","last_reported":1678907145,"current_range_meters":2400,"station_id":"ce4bhh12rcd13ifvqff0","pricing_plan_id":"free"},