{"last_updated":1746838285,"ttl":60,"version":"2.2","data":{"bikes":[{"bike_id":"c8142ff4-c608-4b73-ac6a-4859689a35ab","system_id":"levelo_inurba_marseille","lat":43.283975,"lon":5.431288,"is_reserved":false,"is_disabled":true,"rental_uris":{"android":"levelo://app?vid=c8142ff4-c608-4b73-ac6a-4859689a35ab","ios":"levelo://app?vid=c8142ff4-c608-4b73-ac6a-4859689a35ab"},"vehicle_type_id":"4","last_reported":1746838286,"current_range_meters":0,"station_id":"","pricing_plan_id":"cebpf4jnsgd1na2vs0mg"},{"bike_id":"c8dca4bb-e856-4aef-9de5-3814d0eb9ded","system_id":"levelo_inurba_marseille","lat":43.28158,"lon":5.40499,"is_reserved":false,"is_disabled":true,"rental_uris":{"android":"levelo://app?vid=c8dca4bb-e856-4aef-9de5-3814d0eb9ded","ios":"levelo://app?vid=c8dca4bb-e856-4aef-9de5-3814d0eb9ded"},"vehicle_type_id":"4","last_reported":1746838286,"current_range_meters":0,"station_id":"","pricing_plan_id":"cebpf4jnsgd1na2vs0mg"},{"bike_id":"e43d995b-a136-4201-b650-ca62eacfe18a","system_id":"levelo_inurba_marseille","lat":43.271405,"lon":5.363648,"is_reserved":false,"is_disabled":true,"rental_uris":{"android":"levelo://app?vid=e43d995b-a136-4201-b650-ca62eacfe18a","ios":"levelo://app?vid=e43d995b-a136-4201-b650-ca62eacfe18a"},"vehicle_type_id":"4","last_reported":1746838286,"current_range_meters":0,"station_id":"","pricing_plan_id":"cebpf4jnsgd1na2vs0mg"},{"bike_id":"689d1ebc-80c1-4c8c-9647-6e072db7ae2b","system_id":"levelo_inurba_marseille","lat":43.268886,"lon":5.369548,"is_reserved":false,"is_disabled":true,"rental_uris":{"android":"levelo://app?vid=689d1ebc-80c1-4c8c-9647-6e072db7ae2b","ios":"levelo://app?vid=689d1ebc-80c1-4c8c-9647-6e072db7ae2b"},"vehicle_type_id":"4","last_reported":1746838286,"current_range_meters":0,"station_id":"","pricing_plan_id":"cebpf4jnsgd1na2vs0mg"},{"bike_id":"87b83d9b-eee9-4cd8-aa5b-c09b2b260155","system_id":"levelo_inurba_marseille","lat":43.293354,"lon":5.475831,"is_reserved":false,"is_disabled":true,"rental_uris":{"android":"levelo://app?vid=87b83d9b-eee9-4cd8-aa5b-c09b2b260155","ios":"levelo://app?vid=87b83d9b-eee9-4cd8-aa5b-c09b2b260155"},"vehicle_type_id":"4","last_reported":1746838286,"current_range_meters":0,"station_id":"","pricing_plan_id":"cebpf4jnsgd1na2vs0mg"},{"bike_id":"a99252aa-8af3-4ece-8d77-10a1e103a68c","system_id":"levelo_inurba_marseille","lat":43.2936,"lon":5.42855,"is_reserved":false,"is_disabled":true,"rental_uris":{"android":"levelo://app?vid=a99252aa-8af3-4ece-8d77-10a1e103a68c","ios":"levelo://app?vid=a99252aa-8af3-4ece-8d77-10a1e103a68c"},"vehicle_type_id":"4","last_reported":1746838286,"current_range_meters":0,"station_id":"","pricing_plan_id":"cebpf4jnsgd1na2vs0mg"},{"bike_id":"70b15a7e-4a44-48d3-a915-70ce3313cd79","system_id":"levelo_inurba_marseille","lat":43.29263,"lon":5.40909,"is_reserved":false,"is_disabled":true,"rental_uris":{"android":"levelo://app?vid=70b15a7e-4a44-48d3-a915-70ce3313cd79","ios":"levelo://app?vid=70b15a7e-4a44-48d3-a915-70ce3313cd79"},"vehicle_type_id":"4","last_reported":1746838286,"current_range_meters":0,"station_id":"ce4bh192rcd13ifvqdc0","pricing_plan_id":"cebpf4jnsgd1na2vs0mg"},{"bike_id":"72595a61-6b23-4b5b-bdf7-0727e99dbb31","system_id":"levelo_inurba_marseille","lat":43.2656,"lon":5.39007,"is_reserved":false,"is_disabled":true,"rental_uris":{"android":"levelo://app?vid=72595a61-6b23-4b5b-bdf7-0727e99dbb31","ios":"levelo://app?vid=72595a61-6b23-4b5b-bdf7-0727e99dbb31"},"vehicle_type_id":"4","last_reported":1746838286,"current_range_meters":0,"station_id":"ce4bhe12rcd13ifvqf30","pricing_plan_id":"cebpf4jnsgd1na2vs0mg"},{"bike_id":"ee3ccf5c-3166-40f5-b4ed-0704f67af1cf","system_id":"levelo_inurba_marseille","lat":43.217454,"lon":5.346156,"is_reserved":false,"is_disabled":true,"rental_uris":{"android":"levelo://app?vid=ee3ccf5c-3166-40f5-b4ed-0704f67af1cf","ios":"levelo://app?vid=ee3ccf5c-3166-40f5-b4ed-0704f67af1cf"},"vehicle_type_id":"4","last_reported":1746838286,"current_range_meters":0,"station_id":"st_cvj6r9ubvosntc0bgbag","pricing_plan_id":"cebpf4jnsgd1na2vs0mg"},{"bike_id":"06af7eed-e121-4b01-a1d5-73b129d913ea","system_id":"levelo_inurba_marseille","lat":43.29754,"lon":5.46034,"is_reserved":false,"is_disabled":true,"rental_uris":{"android":"levelo://app?vid=06af7eed-e121-4b01-a1d5-73b129d913ea","ios":"levelo://app?vid=06af7eed-e121-4b01-a1d5-73b129d913ea"},"vehicle_type_id":"4","last_reported":1746838286,"current_range_meters":1200,"station_id":"","pricing_plan_id":"cebpf4jnsgd1na2vs0mg"},{"bike_id":"a72028ca-425b-4f2c-9e2d-16be28a01f65","system_id":"levelo_inurba_marseille","lat":43.26014,"lon":5.41731,"is_reserved":false,"is_disabled":true,"rental_uris":{"android":"levelo://app?vid=a72028ca-425b-4f2c-9e2d-16be28a01f65","ios":"levelo://app?vid=a72028ca-425b-4f2c-9e2d-16be28a01f65"},"vehicle_type_id":"4","last_reported":1746838286,"current_range_meters":1200,"station_id":"","pricing_plan_id":"cebpf4jnsgd1na2vs0mg"},{"bike_id":"39fee3b6-7972-4229-8d58-1bba2febac66","system_id":"levelo_inurba_marseille","lat":43.217502,"lon":5.345984,"is_reserved":false,"is_disabled":true,"rental_uris":{"android":"levelo://app?vid=39fee3b6-7972-4229-8d58-1bba2febac66","ios":"levelo://app?vid=39fee3b6-7972-4229-8d58-1bba2febac66"},"vehicle_type_id":"4","last_reported":1746838286,"current_range_meters":1200,"station_id":"st_cvj6r9ubvosntc0bgbag","pricing_plan_id":"cebpf4jnsgd1na2vs0mg"},{"bike_id":"e70a6cc7-17eb-4c4e-8e7c-f66b5cfc0fab","system_id":"levelo_inurba_marseille","lat":43.21189,"lon":5.35085,"is_reserved":false,"is_disabled":true,"rental_uris":{"android":"levelo://app?vid=e70a6cc7-17eb-4c4e-8e7c-f66b5cfc0fab","ios":"levelo://app?vid=e70a6cc7-17eb-4c4e-8e7c-f66b5cfc0fab"},"vehicle_type_id":"4","last_reported":1746838286,"current_range_meters":1200,"station_id":"st_cvj6sg6p6f1abm77japg","pricing_plan_id":"cebpf4jnsgd1na2vs0mg"},{"bike_id":"6c0bdbfd-6b23-41da-944b-ac98633dca52","system_id":"levelo_inurba_marseille","lat":43.25125,"lon":5.4032,"is_reserved":false,"is_disabled":false,"rental_uris":{"android":"levelo://app?vid=6c0bdbfd-6b23-41da-944b-ac98633dca52","ios":"levelo://app?vid=6c0bdbfd-6b23-41da-944b-ac98633dca52"},"vehicle_type_id":"4","last_reported":1746838286,"current_range_meters":3600,"station_id":"ce4bhlh2rcd13ifvqgig","pricing_plan_id":"cebpf4jnsgd1na2vs0mg"},{"bike_id":"928bed07-e827-40ef-897c-7ba52991ba55","system_id":"levelo_inurba_marseille","lat":43.28659,"lon":5.36369,"is_reserved":false,"is_disabled":false,"rental_uris":{"android":"levelo://app?vid=928bed07-e827-40ef-897c-7ba52991ba55","ios":"levelo://app?vid=928bed07-e827-40ef-897c-7ba52991ba55"},"vehicle_type_id":"4","last_reported":1746838286,"current_range_meters":4800,"station_id":"ce4bhah2rcd13ifvqej0","pricing_plan_id":"cebpf4jnsgd1na2vs0mg"},{"bike_id":"8a0eb219-0825-4873-8042-7ddafae48f5b","system_id":"levelo_inurba_marseille","lat":43.25858,"lon":5.39932,"is_reserved":false,"is_disabled":false,"rental_uris":{"android":"levelo://app?vid=8a0eb219-0825-4873-8042-7ddafae48f5b","ios":"levelo://app?vid=8a0eb219-0825-4873-8042-7ddafae48f5b"},"vehicle_type_id":"4","last_reported":1746838286,"current_range_meters":4800,"station_id":"ce4bhl92rcd13ifvqghg","pricing_plan_id":"cebpf4jnsgd1na2vs0mg"},{"bike_id":"dce24418-2aec-47dd-9bc8-5d7f1d3bf6af","system_id":"levelo_inurba_marseille","lat":43.245475,"lon":5.395247,"is_reserved":false,"is_disabled":false,"rental_uris":{"android":"levelo://app?vid=dce24418-2aec-47dd-9bc8-5d7f1d3bf6af","ios":"levelo://app?vid=dce24418-2aec-47dd-9bc8-5d7f1d3bf6af"},"vehicle_type_id":"4","last_reported":1746838286,"current_range_meters":4800,"station_id":"ce4bhlp2rcd13ifvqgjg","pricing_plan_id":"cebpf4jnsgd1na2vs0mg"},{"bike_id":"22dfbe01-9157-43ce-a9ac-7077e5980f60","system_id":"levelo_inurba_marseille","lat":43.23482,"lon":5.36046,"is_reserved":false,"is_disabled":false,"rental_uris":{"android":"levelo://app?vid=22dfbe01-9157-43ce-a9ac-7077e5980f60","ios":"levelo://app?vid=22dfbe01-9157-43ce-a9ac-7077e5980f60"},"vehicle_type_id":"4","last_reported":1746838286,"current_range_meters":6000,"station_id":"","pricing_plan_id":"cebpf4jnsgd1na2vs0mg"},{"bike_id":"33d77f94-822a-4b96-be68-071337f0e7ad","system_id":"levelo_inurba_marseille","lat":43.306,"lon":5.37215,"is_reserved":false,"is_disabled":false,"rental_uris":{"android":"levelo://app?vid=33d77f94-822a-4b96-be68-071337f0e7ad","ios":"levelo://app?vid=33d77f94-822a-4b96-be68-071337f0e7ad"},"vehicle_type_id":"4","last_reported":1746838286,"current_range_meters":6400,"station_id":"ce4bgqh2rcd13ifvqc4g","pricing_plan_id":"cebpf4jnsgd1na2vs0mg"},{"bike_id":"f673a50d-776a-4d4f-8bc2-0f75017ffb52","system_id":"levelo_inurba_marseille","lat":43.284499,"lon":5.358347,"is_reserved":false,"is_disabled":false,"rental_uris":{"android":"levelo://app?vid=f673a50d-776a-4d4f-8bc2-0f75017ffb52","ios":"levelo://app?vid=f673a50d-776a-4d4f-8bc2-0f75017ffb52"},"vehicle_type_id":"4","last_reported":1746838286,"current_range_meters":6400,"station_id":"ce4bhah2rcd13ifvqei0","pricing_plan_id":"cebpf4jnsgd1na2vs0mg"},{"bike_id":"9e4ccf65-2c18-41d7-93f6-003c2cda1d6c","system_id":"levelo_inurba_marseille","lat":43.278058,"lon":5.407106,"is_reserved":false,"is_disabled":false,"rental_uris":{"android":"levelo://app?vid=9e4ccf65-2c18-41d7-93f6-003c2cda1d6c","ios":"levelo://app?vid=9e4ccf65-2c18-41d7-93f6-003c2cda1d6c"},"vehicle_type_id":"4","last_reported":1746838286,"current_range_meters":6400,"station_id":"ce4bhnh2rcd13ifvqgtg","pricing_plan_id":"cebpf4jnsgd1na2vs0mg"},{"bike_id":"ba32ee3a-6a49-437c-90fb-7756461a61f4","system_id":"levelo_inurba_marseille","lat":43.24171,"lon":5.36408,"is_reserved":false,"is_disabled":false,"rental_uris":{"android":"levelo://app?vid=ba32ee3a-6a49-437c-90fb-7756461a61f4","ios":"levelo://app?vid=ba32ee3a-6a49-437c-90fb-7756461a61f4"},"vehicle_type_id":"4","last_reported":1746838286,"current_range_meters":6800,"station_id":"cpo36qri1sfpv3e86is0","pricing_plan_id":"cebpf4jnsgd1na2vs0mg"},{"bike_id":"caf9033d-5f00-49c3-b1ee-1328b62008dc","system_id":"levelo_inurba_marseille","lat":43.33578,"lon":5.42824,"is_reserved":false,"is_disabled":false,"rental_uris":{"android":"levelo://app?vid=caf9033d-5f00-49c3-b1ee-1328b62008dc","ios":"levelo://app?vid=caf9033d-5f00-49c3-b1ee-1328b62008dc"},"vehicle_type_id":"4","last_reported":1746838286,"current_range_meters":7200,"station_id":"","pricing_plan_id":"cebpf4jnsgd1na2vs0mg"},{"bike_id":"076d4bb5-d8c5-441b-986a-a5080eb81295","system_id":"levelo_inurba_marseille","lat":43.30893,"lon":5.37182,"is_reserved":false,"is_disabled":false,"rental_uris":{"android":"levelo://app?vid=076d4bb5-d8c5-441b-986a-a5080eb81295","ios":"levelo://app?vid=076d4bb5-d8c5-441b-986a-a5080eb81295"},"vehicle_type_id":"4","last_reported":1746838286,"current_range_meters":7200,"station_id":"ce4bguh2rcd13ifvqckg","pricing_plan_id":"cebpf4jnsgd1na2vs0mg"},{"bike_id":"5a0c3b4c-491c-446d-bb75-c17d5dcb9ca3","system_id":"levelo_inurba_marseille","lat":43.28345,"lon":5.38101,"is_reserved":false,"is_disabled":false,"rental_uris":{"android":"levelo://app?vid=5a0c3b4c-491c-446d-bb75-c17d5dcb9ca3","ios":"levelo://app?vid=5a0c3b4c-491c-446d-bb75-c17d5dcb9ca3"},"vehicle_type_id":"4","last_reported":1746838286,"current_range_meters":7200,"station_id":"ce4bh412rcd13ifvqdr0","pricing_plan_id":"cebpf4jnsgd1na2vs0mg"},{"bike_id":"fd27781f-04ea-4638-b934-8ec205a016dd","system_id":"levelo_inurba_marseille","lat":43.290385,"lon":5.359155,"is_reserved":false,"is_disabled":false,"rental_uris":{"android":"levelo://app?vid=fd27781f-04ea-4638-b934-8ec205a016dd","ios":"levelo://app?vid=fd27781f-04ea-4638-b934-8ec205a016dd"},"vehicle_type_id":"4","last_reported":1746838286,"current_range_meters":8000,"station_id":"ce4bha92rcd13ifvqeg0","pricing_plan_id":"cebpf4jnsgd1na2vs0mg"},{"bike_id":"ab21f5a5-93f8-40e4-8bf2-00816089668e","system_id":"levelo_inurba_marseille","lat":43.27557,"lon":5.38423,"is_reserved":false,"is_disabled":false,"rental_uris":{"android":"levelo://app?vid=ab21f5a5-93f8-40e4-8bf2-00816089668e","ios":"levelo://app?vid=ab21f5a5-93f8-40e4-8bf2-00816089668e"},"vehicle_type_id":"4","last_reported":1746838286,"current_range_meters":8000,"station_id":"ce4bhh92rcd13ifvqfi0","pricing_plan_id":"cebpf4jnsgd1na2vs0mg"},{"bike_id":"41b1a32b-2cab-4ffc-b477-33d19a4dd033","system_id":"levelo_inurba_marseille","lat":43.245483,"lon":5.395205,"is_reserved":false,"is_disabled":false,"rental_uris":{"android":"levelo://app?vid=41b1a32b-2cab-4ffc-b477-33d19a4dd033","ios":"levelo://app?vid=41b1a32b-2cab-4ffc-b477-33d19a4dd033"},"vehicle_type_id":"4","last_reported":1746838286,"current_range_meters":8000,"station_id":"ce4bhlp2rcd13ifvqgjg","pricing_plan_id":"cebpf4jnsgd1na2vs0mg"},{"bike_id":"806fef1a-3fa0-45e1-9e8d-5bcbe020a5f9","system_id":"levelo_inurba_marseille","lat":43.29793,"lon":5.38108,"is_reserved":false,"is_disabled":false,"rental_uris":{"android":"levelo://app?vid=806fef1a-3fa0-45e1-9e8d-5bcbe020a5f9","ios":"levelo://app?vid=806fef1a-3fa0-45e1-9e8d-5bcbe020a5f9"},"vehicle_type_id":"4","last_reported":1746838286,"current_range_meters":8400,"station_id":"ce4bgip2rcd13ifvqbb0","pricing_plan_id":"cebpf4jnsgd1na2vs0mg"},{"bike_id":"ce972654-4647-4640-9be3-f6d267f881ec","system_id":"levelo_inurba_marseille","lat":43.27612,"lon":5.36103,"is_reserved":false,"is_disabled":false,"rental_uris":{"android":"levelo://app?vid=ce972654-4647-4640-9be3-f6d267f881ec","ios":"levelo://app?vid=ce972654-4647-4640-9be3-f6d267f881ec"},"vehicle_type_id":"4","last_reported":1746838286,"current_range_meters":8400,"station_id":"ce4bgj92rcd13ifvqbe0","pricing_plan_id":"cebpf4jnsgd1na2vs0mg"},{"bike_id":"5ef9c87e-d345-4f11-b0b5-68191ebd1ab6","system_id":"levelo_inurba_marseille","lat":43.24544,"lon":5.39524,"is_reserved":false,"is_disabled":false,"rental_uris":{"android":"levelo://app?vid=5ef9c87e-d345-4f11-b0b5-68191ebd1ab6","ios":"levelo://app?vid=5ef9c87e-d345-4f11-b0b5-68191ebd1ab6"},"vehicle_type_id":"4","last_reported":1746838286,"current_range_meters":8400,"station_id":"ce4bhlp2rcd13ifvqgjg","pricing_plan_id":"cebpf4jnsgd1na2vs0mg"},{"bike_id":"dd1b1ff0-ba6c-4744-a9f2-7be34f5a933e","system_id":"levelo_inurba_marseille","lat":43.2794,"lon":5.41042,"is_reserved":false,"is_disabled":false,"rental_uris":{"android":"levelo://app?vid=dd1b1ff0-ba6c-4744-a9f2-7be34f5a933e","ios":"levelo://app?vid=dd1b1ff0-ba6c-4744-a9f2-7be34f5a933e"},"vehicle_type_id":"4","last_reported":1746838286,"current_range_meters":8400,"station_id":"ce4bhnp2rcd13ifvqh0g","pricing_plan_id":"cebpf4jnsgd1na2vs0mg"},{"bike_id":"b0c54ead-2c9a-4d45-904a-5e1b9abf7338","system_id":"levelo_inurba_marseille","lat":43.279074,"lon":5.440757,"is_reserved":false,"is_disabled":false,"rental_uris":{"android":"levelo://app?vid=b0c54ead-2c9a-4d45-904a-5e1b9abf7338","ios":"levelo://app?vid=b0c54ead-2c9a-4d45-904a-5e1b9abf7338"},"vehicle_type_id":"4","last_reported":1746838286,"current_range_meters":8800,"station_id":"","pricing_plan_id":"cebpf4jnsgd1na2vs0mg"},{"bike_id":"50d25eea-70ce-4592-8e42-6542caa6d6f8","system_id":"levelo_inurba_marseille","lat":43.30251,"lon":5.40063,"is_reserved":false,"is_disabled":false,"rental_uris":{"android":"levelo://app?vid=50d25eea-70ce-4592-8e42-6542caa6d6f8","ios":"levelo://app?vid=50d25eea-70ce-4592-8e42-6542caa6d6f8"},"vehicle_type_id":"4","last_reported":1746838286,"current_range_meters":8800,"station_id":"ce4bgvh2rcd13ifvqcs0","pricing_plan_id":"cebpf4jnsgd1na2vs0mg"},{"bike_id":"f8bd5ba1-0844-4c6d-9b78-f958f1313745","system_id":"levelo_inurba_marseille","lat":43.29362,"lon":5.42834,"is_reserved":false,"is_disabled":false,"rental_uris":{"android":"levelo://app?vid=f8bd5ba1-0844-4c6d-9b78-f958f1313745","ios":"levelo://app?vid=f8bd5ba1-0844-4c6d-9b78-f958f1313745"},"vehicle_type_id":"4","last_reported":1746838286,"current_range_meters":9200,"station_id":"","pricing_plan_id":"cebpf4jnsgd1na2vs0mg"},{"bike_id":"3ee8e499-f845-4c6b-aa75-107b3891d613","system_id":"levelo_inurba_marseille","lat":43.28039,"lon":5.36937,"is_reserved":false,"is_disabled":false,"rental_uris":{"android":"levelo://app?vid=3ee8e499-f845-4c6b-aa75-107b3891d613","ios":"levelo://app?vid=3ee8e499-f845-4c6b-aa75-107b3891d613"},"vehicle_type_id":"4","last_reported":1746838286,"current_range_meters":9200,"station_id":"ce4bha12rcd13ifvqef0","pricing_plan_id":"cebpf4jnsgd1na2vs0mg"},{"bike_id":"3c7670ff-3628-42b4-8ea8-664d4fa357dd","system_id":"levelo_inurba_marseille","lat":43.27991,"lon":5.41686,"is_reserved":false,"is_disabled":false,"rental_uris":{"android":"levelo://app?vid=3c7670ff-3628-42b4-8ea8-664d4fa357dd","ios":"levelo://app?vid=3c7670ff-3628-42b4-8ea8-664d4fa357dd"},"vehicle_type_id":"4","last_reported":1746838286,"current_range_meters":9200,"station_id":"ce4bho12rcd13ifvqh1g","pricing_plan_id":"cebpf4jnsgd1na2vs0mg"},{"bike_id":"750853c3-5c7a-41ac-b4b9-21d83e878f6f","system_id":"levelo_inurba_marseille","lat":43.27693,"lon":5.41974,"is_reserved":false,"is_disabled":false,"rental_uris":{"android":"levelo://app?vid=750853c3-5c7a-41ac-b4b9-21d83e878f6f","ios":"levelo://app?vid=750853c3-5c7a-41ac-b4b9-21d83e878f6f"},"vehicle_type_id":"4","last_reported":1746838286,"current_range_meters":9600,"station_id":"","pricing_plan_id":"cebpf4jnsgd1na2vs0mg"},{"bike_id":"0ddf4b2c-72b6-4f8e-9b47-d95bac1d6154","system_id":"levelo_inurba_marseille","lat":43.287244,"lon":5.360986,"is_reserved":false,"is_disabled":false,"rental_uris":{"android":"levelo://app?vid=0ddf4b2c-72b6-4f8e-9b47-d95bac1d6154","ios":"levelo://app?vid=0ddf4b2c-72b6-4f8e-9b47-d95bac1d6154"},"vehicle_type_id":"4","last_reported":1746838286,"current_range_meters":9600,"station_id":"cki0cbj6b192h4jlfktg","pricing_plan_id":"cebpf4jnsgd1na2vs0mg"},{"bike_id":"747b29b2-9706-4876-bed0-5534c2a3ab97","system_id":"levelo_inurba_marseille","lat":43.30327,"lon":5.40438,"is_reserved":false,"is_disabled":false,"rental_uris":{"android":"levelo://app?vid=747b29b2-9706-4876-bed0-5534c2a3ab97","ios":"levelo://app?vid=747b29b2-9706-4876-bed0-5534c2a3ab97"},"vehicle_type_id":"4","last_reported":1746838286,"current_range_meters":10000,"station_id":"ce4bh012rcd13ifvqd10","pricing_plan_id":"cebpf4jnsgd1na2vs0mg"},{"bike_id":"c4b5f570-0998-477e-9415-7d3ec50540cc","system_id":"levelo_inurba_marseille","lat":43.29409,"lon":5.38621,"is_reserved":false,"is_disabled":false,"rental_uris":{"android":"levelo://app?vid=c4b5f570-0998-477e-9415-7d3ec50540cc","ios":"levelo://app?vid=c4b5f570-0998-477e-9415-7d3ec50540cc"},"vehicle_type_id":"4","last_reported":1746838286,"current_range_meters":10000,"station_id":"ce4bh2h2rcd13ifvqdh0","pricing_plan_id":"cebpf4jnsgd1na2vs0mg"},{"bike_id":"044478cb-8194-4092-b984-4fc9c042ef68","system_id":"levelo_inurba_marseille","lat":43.28737,"lon":5.46502,"is_reserved":false,"is_disabled":false,"rental_uris":{"android":"levelo://app?vid=044478cb-8194-4092-b984-4fc9c042ef68","ios":"levelo://app?vid=044478cb-8194-4092-b984-4fc9c042ef68"},"vehicle_type_id":"4","last_reported":1746838286,"current_range_meters":10800,"station_id":"","pricing_plan_id":"cebpf4jnsgd1na2vs0mg"},{"bike_id":"a39d3fbc-8c5f-4938-abe2-b6f8bd058852","system_id":"levelo_inurba_marseille","lat":43.309486,"lon":5.390367,"is_reserved":false,"is_disabled":false,"rental_uris":{"android":"levelo://app?vid=a39d3fbc-8c5f-4938-abe2-b6f8bd058852","ios":"levelo://app?vid=a39d3fbc-8c5f-4938-abe2-b6f8bd058852"},"vehicle_type_id":"4","last_reported":1746838286,"current_range_meters":10800,"station_id":"ce4bgup2rcd13ifvqco0","pricing_plan_id":"cebpf4jnsgd1na2vs0mg"},{"bike_id":"42091268-e1c5-49fa-92ef-af1096d6f585","system_id":"levelo_inurba_marseille","lat":43.30934,"lon":5.40144,"is_reserved":false,"is_disabled":false,"rental_uris":{"android":"levelo://app?vid=42091268-e1c5-49fa-92ef-af1096d6f585","ios":"levelo://app?vid=42091268-e1c5-49fa-92ef-af1096d6f585"},"vehicle_type_id":"4","last_reported":1746838286,"current_range_meters":10800,"station_id":"ce4bgvp2rcd13ifvqct0","pricing_plan_id":"cebpf4jnsgd1na2vs0mg"},{"bike_id":"02b78847-8c19-4c59-93ac-0179dd6fb8a4","system_id":"levelo_inurba_marseille","lat":43.28666,"lon":5.36353,"is_reserved":false,"is_disabled":false,"rental_uris":{"android":"levelo://app?vid=02b78847-8c19-4c59-93ac-0179dd6fb8a4","ios":"levelo://app?vid=02b78847-8c19-4c59-93ac-0179dd6fb8a4"},"vehicle_type_id":"4","last_reported":1746838286,"current_range_meters":10800,"station_id":"ce4bhah2rcd13ifvqej0","pricing_plan_id":"cebpf4jnsgd1na2vs0mg"},{"bike_id":"c23795ea-7683-4dec-afd8-7fe5848041e3","system_id":"levelo_inurba_marseille","lat":43.24167,"lon":5.397362,"is_reserved":false,"is_disabled":false,"rental_uris":{"android":"levelo://app?vid=c23795ea-7683-4dec-afd8-7fe5848041e3","ios":"levelo://app?vid=c23795ea-7683-4dec-afd8-7fe5848041e3"},"vehicle_type_id":"4","last_reported":1746838286,"current_range_meters":10800,"station_id":"ce4bhn12rcd13ifvqgpg","pricing_plan_id":"cebpf4jnsgd1na2vs0mg"},{"bike_id":"1771c0e2-1fe6-49ff-8a23-2166fe76f883","system_id":"levelo_inurba_marseille","lat":43.23176,"lon":5.39992,"is_reserved":false,"is_disabled":false,"rental_uris":{"android":"levelo://app?vid=1771c0e2-1fe6-49ff-8a23-2166fe76f883","ios":"levelo://app?vid=1771c0e2-1fe6-49ff-8a23-2166fe76f883"},"vehicle_type_id":"4","last_reported":1746838286,"current_range_meters":10800,"station_id":"ce4bhn12rcd13ifvqgqg","pricing_plan_id":"cebpf4jnsgd1na2vs0mg"},{"bike_id":"2d9cf84f-80e6-4273-bdb7-a817d129565a","system_id":"levelo_inurba_marseille","lat":43.280765,"lon":5.396551,"is_reserved":false,"is_disabled":false,"rental_uris":{"android":"levelo://app?vid=2d9cf84f-80e6-4273-bdb7-a817d129565a","ios":"levelo://app?vid=2d9cf84f-80e6-4273-bdb7-a817d129565a"},"vehicle_type_id":"4","last_reported":1746838286,"current_range_meters":11200,"station_id":"ce4bho12rcd13ifvqh2g","pricing_plan_id":"cebpf4jnsgd1na2vs0mg"},{"bike_id":"86b478b2-1cf2-4e07-8a5c-76710e912a41","system_id":"levelo_inurba_marseille","lat":43.291266,"lon":5.366899,"is_reserved":false,"is_disabled":false,"rental_uris":{"android":"levelo://app?vid=86b478b2-1cf2-4e07-8a5c-76710e912a41","ios":"levelo://app?vid=86b478b2-1cf2-4e07-8a5c-76710e912a41"},"vehicle_type_id":"4","last_reported":1746838286,"current_range_meters":11600,"station_id":"","pricing_plan_id":"cebpf4jnsgd1na2vs0mg"},{"bike_id":"e540dca9-f48b-48c3-9f93-139faf2bb68f","system_id":"levelo_inurba_marseille","lat":43.314884,"lon":5.37305,"is_reserved":false,"is_disabled":false,"rental_uris":{"android":"levelo://app?vid=e540dca9-f48b-48c3-9f93-139faf2bb68f","ios":"levelo://app?vid=e540dca9-f48b-48c3-9f93-139faf2bb68f"},"vehicle_type_id":"4","last_reported":1746838286,"current_range_meters":11600,"station_id":"ce4bgt12rcd13ifvqcd0","pricing_plan_id":"cebpf4jnsgd1na2vs0mg"},{"bike_id":"4a1f9f14-d8a9-4728-9a31-d3a49c3c6d70","system_id":"levelo_inurba_marseille","lat":43.314922,"lon":5.373086,"is_reserved":false,"is_disabled":false,"rental_uris":{"android":"levelo://app?vid=4a1f9f14-d8a9-4728-9a31-d3a49c3c6d70","ios":"levelo://app?vid=4a1f9f14-d8a9-4728-9a31-d3a49c3c6d70"},"vehicle_type_id":"4","last_reported":1746838286,"current_range_meters":11600,"station_id":"ce4bgt12rcd13ifvqcd0","pricing_plan_id":"cebpf4jnsgd1na2vs0mg"},{"bike_id":"a34bfce8-44ea-45a5-887b-d15f36896976","system_id":"levelo_inurba_marseille","lat":43.292584,"lon":5.409046,"is_reserved":false,"is_disabled":false,"rental_uris":{"android":"levelo://app?vid=a34bfce8-44ea-45a5-887b-d15f36896976","ios":"levelo://app?vid=a34bfce8-44ea-45a5-887b-d15f36896976"},"vehicle_type_id":"4","last_reported":1746838286,"current_range_meters":11600,"station_id":"ce4bh192rcd13ifvqdc0","pricing_plan_id":"cebpf4jnsgd1na2vs0mg"},{"bike_id":"a50985a0-3f26-48e5-b65a-c25bac0f8023","system_id":"levelo_inurba_marseille","lat":43.286163,"lon":5.351015,"is_reserved":false,"is_disabled":false,"rental_uris":{"android":"levelo://app?vid=a50985a0-3f26-48e5-b65a-c25bac0f8023","ios":"levelo://app?vid=a50985a0-3f26-48e5-b65a-c25bac0f8023"},"vehicle_type_id":"4","last_reported":1746838286,"current_range_meters":11600,"station_id":"ce4bhch2rcd13ifvqeug","pricing_plan_id":"cebpf4jnsgd1na2vs0mg"},{"bike_id":"597beefa-8311-4d68-b0f3-88cd0a14dd08","system_id":"levelo_inurba_marseille","lat":43.2755,"lon":5.39563,"is_reserved":false,"is_disabled":false,"rental_uris":{"android":"levelo://app?vid=597beefa-8311-4d68-b0f3-88cd0a14dd08","ios":"levelo://app?vid=597beefa-8311-4d68-b0f3-88cd0a14dd08"},"vehicle_type_id":"4","last_reported":1746838286,"current_range_meters":12000,"station_id":"","pricing_plan_id":"cebpf4jnsgd1na2vs0mg"},{"bike_id":"cfb33b76-ff38-465f-96b4-8908aeb6f4a0","system_id":"levelo_inurba_marseille","lat":43.27385,"lon":5.36255,"is_reserved":false,"is_disabled":false,"rental_uris":{"android":"levelo://app?vid=cfb33b76-ff38-465f-96b4-8908aeb6f4a0","ios":"levelo://app?vid=cfb33b76-ff38-465f-96b4-8908aeb6f4a0"},"vehicle_type_id":"4","last_reported":1746838286,"current_range_meters":12400,"station_id":"ce4bhbh2rcd13ifvqeo0","pricing_plan_id":"cebpf4jnsgd1na2vs0mg"},{"bike_id":"dabc5299-686c-437f-b1fe-4c4dcec4a3bc","system_id":"levelo_inurba_marseille","lat":43.2395,"lon":5.37876,"is_reserved":false,"is_disabled":false,"rental_uris":{"android":"levelo://app?vid=dabc5299-686c-437f-b1fe-4c4dcec4a3bc","ios":"levelo://app?vid=dabc5299-686c-437f-b1fe-4c4dcec4a3bc"},"vehicle_type_id":"4","last_reported":1746838286,"current_range_meters":12400,"station_id":"ce4bhnp2rcd13ifvqgvg","pricing_plan_id":"cebpf4jnsgd1na2vs0mg"},{"bike_id":"29b99ee3-82b0-4cb0-a9d6-8993ba8fcb2f","system_id":"levelo_inurba_marseille","lat":43.24651,"lon":5.389,"is_reserved":false,"is_disabled":false,"rental_uris":{"android":"levelo://app?vid=29b99ee3-82b0-4cb0-a9d6-8993ba8fcb2f","ios":"levelo://app?vid=29b99ee3-82b0-4cb0-a9d6-8993ba8fcb2f"},"vehicle_type_id":"4","last_reported":1746838286,"current_range_meters":12800,"station_id":"ce4bhg12rcd13ifvqf60","pricing_plan_id":"cebpf4jnsgd1na2vs0mg"},{"bike_id":"425a71c2-3497-48ea-abb4-541b2f2a7c98","system_id":"levelo_inurba_marseille","lat":43.24678,"lon":5.38165,"is_reserved":false,"is_disabled":false,"rental_uris":{"android":"levelo://app?vid=425a71c2-3497-48ea-abb4-541b2f2a7c98","ios":"levelo://app?vid=425a71c2-3497-48ea-abb4-541b2f2a7c98"},"vehicle_type_id":"4","last_reported":1746838286,"current_range_meters":12800,"station_id":"ce4bhih2rcd13ifvqfr0","pricing_plan_id":"cebpf4jnsgd1na2vs0mg"},{"bike_id":"d02aa6d0-e7aa-4a61-b2aa-fd492cb18c24","system_id":"levelo_inurba_marseille","lat":43.29769,"lon":5.37078,"is_reserved":false,"is_disabled":false,"rental_uris":{"android":"levelo://app?vid=d02aa6d0-e7aa-4a61-b2aa-fd492cb18c24","ios":"levelo://app?vid=d02aa6d0-e7aa-4a61-b2aa-fd492cb18c24"},"vehicle_type_id":"4","last_reported":1746838286,"current_range_meters":13600,"station_id":"ce4bgop2rcd13ifvqc1g","pricing_plan_id":"cebpf4jnsgd1na2vs0mg"},{"bike_id":"14ea3693-5635-4dcb-a032-08c2fc07b849","system_id":"levelo_inurba_marseille","lat":43.278381,"lon":5.392064,"is_reserved":false,"is_disabled":false,"rental_uris":{"android":"levelo://app?vid=14ea3693-5635-4dcb-a032-08c2fc07b849","ios":"levelo://app?vid=14ea3693-5635-4dcb-a032-08c2fc07b849"},"vehicle_type_id":"4","last_reported":1746838286,"current_range_meters":13600,"station_id":"ce4bhjp2rcd13ifvqga0","pricing_plan_id":"cebpf4jnsgd1na2vs0mg"},{"bike_id":"0bf25778-b4e7-420a-a498-5995461a3de1","system_id":"levelo_inurba_marseille","lat":43.30328,"lon":5.40452,"is_reserved":false,"is_disabled":false,"rental_uris":{"android":"levelo://app?vid=0bf25778-b4e7-420a-a498-5995461a3de1","ios":"levelo://app?vid=0bf25778-b4e7-420a-a498-5995461a3de1"},"vehicle_type_id":"4","last_reported":1746838286,"current_range_meters":14000,"station_id":"ce4bh012rcd13ifvqd10","pricing_plan_id":"cebpf4jnsgd1na2vs0mg"},{"bike_id":"c5bf6457-7a00-4d62-9165-cd5ce63d9661","system_id":"levelo_inurba_marseille","lat":43.24393,"lon":5.37065,"is_reserved":false,"is_disabled":false,"rental_uris":{"android":"levelo://app?vid=c5bf6457-7a00-4d62-9165-cd5ce63d9661","ios":"levelo://app?vid=c5bf6457-7a00-4d62-9165-cd5ce63d9661"},"vehicle_type_id":"4","last_reported":1746838286,"current_range_meters":14000,"station_id":"ce4bhhh2rcd13ifvqfk0","pricing_plan_id":"cebpf4jnsgd1na2vs0mg"},{"bike_id":"33518b87-46ef-4dcd-8074-f2aa6c02335f","system_id":"levelo_inurba_marseille","lat":43.28085,"lon":5.3965,"is_reserved":false,"is_disabled":false,"rental_uris":{"android":"levelo://app?vid=33518b87-46ef-4dcd-8074-f2aa6c02335f","ios":"levelo://app?vid=33518b87-46ef-4dcd-8074-f2aa6c02335f"},"vehicle_type_id":"4","last_reported":1746838286,"current_range_meters":14000,"station_id":"ce4bho12rcd13ifvqh2g","pricing_plan_id":"cebpf4jnsgd1na2vs0mg"},{"bike_id":"4263b004-d7cc-455f-9e4e-bff8018dcbf1","system_id":"levelo_inurba_marseille","lat":43.29693,"lon":5.37299,"is_reserved":false,"is_disabled":false,"rental_uris":{"android":"levelo://app?vid=4263b004-d7cc-455f-9e4e-bff8018dcbf1","ios":"levelo://app?vid=4263b004-d7cc-455f-9e4e-bff8018dcbf1"},"vehicle_type_id":"4","last_reported":1746838286,"current_range_meters":14400,"station_id":"ce4bgk12rcd13ifvqbj0","pricing_plan_id":"cebpf4jnsgd1na2vs0mg"},{"bike_id":"35a8516b-240a-4df8-a3a1-35d4da354b60","system_id":"levelo_inurba_marseille","lat":43.23963,"lon":5.36638,"is_reserved":false,"is_disabled":false,"rental_uris":{"android":"levelo://app?vid=35a8516b-240a-4df8-a3a1-35d4da354b60","ios":"levelo://app?vid=35a8516b-240a-4df8-a3a1-35d4da354b60"},"vehicle_type_id":"4","last_reported":1746838286,"current_range_meters":14400,"station_id":"ce4bhi12rcd13ifvqfp0","pricing_plan_id":"cebpf4jnsgd1na2vs0mg"},{"bike_id":"6a592c79-90d3-4c3a-8d32-667e71e7b710","system_id":"levelo_inurba_marseille","lat":43.316883,"lon":5.404769,"is_reserved":false,"is_disabled":false,"rental_uris":{"android":"levelo://app?vid=6a592c79-90d3-4c3a-8d32-667e71e7b710","ios":"levelo://app?vid=6a592c79-90d3-4c3a-8d32-667e71e7b710"},"vehicle_type_id":"4","last_reported":1746838286,"current_range_meters":14800,"station_id":"ce4bh012rcd13ifvqd00","pricing_plan_id":"cebpf4jnsgd1na2vs0mg"},{"bike_id":"8dda88d1-7a9c-41fc-b75d-6bf65256282a","system_id":"levelo_inurba_marseille","lat":43.28406,"lon":5.37507,"is_reserved":false,"is_disabled":false,"rental_uris":{"android":"levelo://app?vid=8dda88d1-7a9c-41fc-b75d-6bf65256282a","ios":"levelo://app?vid=8dda88d1-7a9c-41fc-b75d-6bf65256282a"},"vehicle_type_id":"4","last_reported":1746838286,"current_range_meters":14800,"station_id":"ce4bh412rcd13ifvqds0","pricing_plan_id":"cebpf4jnsgd1na2vs0mg"},{"bike_id":"5cd76d72-4146-4fdc-823a-8002748e9c2f","system_id":"levelo_inurba_marseille","lat":43.29572,"lon":5.39978,"is_reserved":false,"is_disabled":false,"rental_uris":{"android":"levelo://app?vid=5cd76d72-4146-4fdc-823a-8002748e9c2f","ios":"levelo://app?vid=5cd76d72-4146-4fdc-823a-8002748e9c2f"},"vehicle_type_id":"4","last_reported":1746838286,"current_range_meters":15200,"station_id":"ce4bh312rcd13ifvqdj0","pricing_plan_id":"cebpf4jnsgd1na2vs0mg"},{"bike_id":"575346d1-8dea-4228-8b9c-4d5ea0a89925","system_id":"levelo_inurba_marseille","lat":43.25104,"lon":5.40323,"is_reserved":false,"is_disabled":false,"rental_uris":{"android":"levelo://app?vid=575346d1-8dea-4228-8b9c-4d5ea0a89925","ios":"levelo://app?vid=575346d1-8dea-4228-8b9c-4d5ea0a89925"},"vehicle_type_id":"4","last_reported":1746838286,"current_range_meters":15200,"station_id":"ce4bhlh2rcd13ifvqgig","pricing_plan_id":"cebpf4jnsgd1na2vs0mg"},{"bike_id":"1ce6e6d7-0f2e-45d0-ae5b-8d9be1c0a3ee","system_id":"levelo_inurba_marseille","lat":43.29811,"lon":5.37132,"is_reserved":false,"is_disabled":false,"rental_uris":{"android":"levelo://app?vid=1ce6e6d7-0f2e-45d0-ae5b-8d9be1c0a3ee","ios":"levelo://app?vid=1ce6e6d7-0f2e-45d0-ae5b-8d9be1c0a3ee"},"vehicle_type_id":"4","last_reported":1746838286,"current_range_meters":16000,"station_id":"ce4bgop2rcd13ifvqc1g","pricing_plan_id":"cebpf4jnsgd1na2vs0mg"},{"bike_id":"ee44cbdc-b6bc-4bdd-8950-f4f3410e80de","system_id":"levelo_inurba_marseille","lat":43.29975,"lon":5.37183,"is_reserved":false,"is_disabled":false,"rental_uris":{"android":"levelo://app?vid=ee44cbdc-b6bc-4bdd-8950-f4f3410e80de","ios":"levelo://app?vid=ee44cbdc-b6bc-4bdd-8950-f4f3410e80de"},"vehicle_type_id":"4","last_reported":1746838286,"current_range_meters":16000,"station_id":"ce4bgr92rcd13ifvqc7g","pricing_plan_id":"cebpf4jnsgd1na2vs0mg"},{"bike_id":"2b690ddc-2898-405a-8419-72a110c6c85b","system_id":"levelo_inurba_marseille","lat":43.29002,"lon":5.35611,"is_reserved":false,"is_disabled":false,"rental_uris":{"android":"levelo://app?vid=2b690ddc-2898-405a-8419-72a110c6c85b","ios":"levelo://app?vid=2b690ddc-2898-405a-8419-72a110c6c85b"},"vehicle_type_id":"4","last_reported":1746838286,"current_range_meters":16000,"station_id":"ce4bhb92rcd13ifvqen0","pricing_plan_id":"cebpf4jnsgd1na2vs0mg"},{"bike_id":"bb9dd4d9-ef7c-411c-9ce2-6f0d8890189a","system_id":"levelo_inurba_marseille","lat":43.241684,"lon":5.363916,"is_reserved":false,"is_disabled":false,"rental_uris":{"android":"levelo://app?vid=bb9dd4d9-ef7c-411c-9ce2-6f0d8890189a","ios":"levelo://app?vid=bb9dd4d9-ef7c-411c-9ce2-6f0d8890189a"},"vehicle_type_id":"4","last_reported":1746838286,"current_range_meters":16000,"station_id":"cpo36qri1sfpv3e86is0","pricing_plan_id":"cebpf4jnsgd1na2vs0mg"},{"bike_id":"6ddb49d5-9a27-458a-8e43-8fa88e3709a6","system_id":"levelo_inurba_marseille","lat":43.26564,"lon":5.39029,"is_reserved":false,"is_disabled":false,"rental_uris":{"android":"levelo://app?vid=6ddb49d5-9a27-458a-8e43-8fa88e3709a6","ios":"levelo://app?vid=6ddb49d5-9a27-458a-8e43-8fa88e3709a6"},"vehicle_type_id":"4","last_reported":1746838286,"current_range_meters":16400,"station_id":"ce4bhe12rcd13ifvqf30","pricing_plan_id":"cebpf4jnsgd1na2vs0mg"},{"bike_id":"db8e9453-3d9e-43c6-9459-be7e83be27dd","system_id":"levelo_inurba_marseille","lat":43.25869,"lon":5.399003,"is_reserved":false,"is_disabled":false,"rental_uris":{"android":"levelo://app?vid=db8e9453-3d9e-43c6-9459-be7e83be27dd","ios":"levelo://app?vid=db8e9453-3d9e-43c6-9459-be7e83be27dd"},"vehicle_type_id":"4","last_reported":1746838286,"current_range_meters":16400,"station_id":"ce4bhl92rcd13ifvqghg","pricing_plan_id":"cebpf4jnsgd1na2vs0mg"},{"bike_id":"abbe6961-8403-4d63-ac93-1b1dcf4bf754","system_id":"levelo_inurba_marseille","lat":43.28738,"lon":5.36086,"is_reserved":false,"is_disabled":false,"rental_uris":{"android":"levelo://app?vid=abbe6961-8403-4d63-ac93-1b1dcf4bf754","ios":"levelo://app?vid=abbe6961-8403-4d63-ac93-1b1dcf4bf754"},"vehicle_type_id":"4","last_reported":1746838286,"current_range_meters":16400,"station_id":"cki0cbj6b192h4jlfktg","pricing_plan_id":"cebpf4jnsgd1na2vs0mg"},{"bike_id":"545e5687-b7df-4883-81be-75a8925d5f91","system_id":"levelo_inurba_marseille","lat":43.337444,"lon":5.374475,"is_reserved":false,"is_disabled":false,"rental_uris":{"android":"levelo://app?vid=545e5687-b7df-4883-81be-75a8925d5f91","ios":"levelo://app?vid=545e5687-b7df-4883-81be-75a8925d5f91"},"vehicle_type_id":"4","last_reported":1746838286,"current_range_meters":16800,"station_id":"","pricing_plan_id":"cebpf4jnsgd1na2vs0mg"},{"bike_id":"8dfe763f-2b56-4348-b766-788076babf15","system_id":"levelo_inurba_marseille","lat":43.307786,"lon":5.376461,"is_reserved":false,"is_disabled":false,"rental_uris":{"android":"levelo://app?vid=8dfe763f-2b56-4348-b766-788076babf15","ios":"levelo://app?vid=8dfe763f-2b56-4348-b766-788076babf15"},"vehicle_type_id":"4","last_reported":1746838286,"current_range_meters":16800,"station_id":"ce4bgv92rcd13ifvqcq0","pricing_plan_id":"cebpf4jnsgd1na2vs0mg"},{"bike_id":"26fefdab-a367-4415-a9bc-952832fdd8be","system_id":"levelo_inurba_marseille","lat":43.29019,"lon":5.38135,"is_reserved":false,"is_disabled":false,"rental_uris":{"android":"levelo://app?vid=26fefdab-a367-4415-a9bc-952832fdd8be","ios":"levelo://app?vid=26fefdab-a367-4415-a9bc-952832fdd8be"},"vehicle_type_id":"4","last_reported":1746838286,"current_range_meters":16800,"station_id":"ce4bh4p2rcd13ifvqe1g","pricing_plan_id":"cebpf4jnsgd1na2vs0mg"},{"bike_id":"988217a7-40cc-4175-99a8-3abc98dd942c","system_id":"levelo_inurba_marseille","lat":43.24078,"lon":5.37767,"is_reserved":false,"is_disabled":false,"rental_uris":{"android":"levelo://app?vid=988217a7-40cc-4175-99a8-3abc98dd942c","ios":"levelo://app?vid=988217a7-40cc-4175-99a8-3abc98dd942c"},"vehicle_type_id":"4","last_reported":1746838286,"current_range_meters":16800,"station_id":"ce4bhnp2rcd13ifvqgvg","pricing_plan_id":"cebpf4jnsgd1na2vs0mg"},{"bike_id":"5bee1775-528f-49e6-9c3e-19f7744c053e","system_id":"levelo_inurba_marseille","lat":43.28008,"lon":5.41673,"is_reserved":false,"is_disabled":false,"rental_uris":{"android":"levelo://app?vid=5bee1775-528f-49e6-9c3e-19f7744c053e","ios":"levelo://app?vid=5bee1775-528f-49e6-9c3e-19f7744c053e"},"vehicle_type_id":"4","last_reported":1746838286,"current_range_meters":16800,"station_id":"ce4bho12rcd13ifvqh1g","pricing_plan_id":"cebpf4jnsgd1na2vs0mg"},{"bike_id":"ece07e30-e520-4b99-bf83-e9b15b3a6b3f","system_id":"levelo_inurba_marseille","lat":43.287315,"lon":5.36086,"is_reserved":false,"is_disabled":false,"rental_uris":{"android":"levelo://app?vid=ece07e30-e520-4b99-bf83-e9b15b3a6b3f","ios":"levelo://app?vid=ece07e30-e520-4b99-bf83-e9b15b3a6b3f"},"vehicle_type_id":"4","last_reported":1746838286,"current_range_meters":16800,"station_id":"cki0cbj6b192h4jlfktg","pricing_plan_id":"cebpf4jnsgd1na2vs0mg"},{"bike_id":"fc2577e7-1497-425b-9d4f-ab8d7dc843c6","system_id":"levelo_inurba_marseille","lat":43.33771,"lon":5.37485,"is_reserved":false,"is_disabled":false,"rental_uris":{"android":"levelo://app?vid=fc2577e7-1497-425b-9d4f-ab8d7dc843c6","ios":"levelo://app?vid=fc2577e7-1497-425b-9d4f-ab8d7dc843c6"},"vehicle_type_id":"4","last_reported":1746838286,"current_range_meters":17200,"station_id":"","pricing_plan_id":"cebpf4jnsgd1na2vs0mg"},{"bike_id":"66d39f5f-1aac-423b-9ea7-bf9c1b0e5079","system_id":"levelo_inurba_marseille","lat":43.275143,"lon":5.41133,"is_reserved":false,"is_disabled":false,"rental_uris":{"android":"levelo://app?vid=66d39f5f-1aac-423b-9ea7-bf9c1b0e5079","ios":"levelo://app?vid=66d39f5f-1aac-423b-9ea7-bf9c1b0e5079"},"vehicle_type_id":"4","last_reported":1746838286,"current_range_meters":17200,"station_id":"","pricing_plan_id":"cebpf4jnsgd1na2vs0mg"},{"bike_id":"81d47865-521e-43a8-94d2-1344c220b407","system_id":"levelo_inurba_marseille","lat":43.29256,"lon":5.40909,"is_reserved":false,"is_disabled":false,"rental_uris":{"android":"levelo://app?vid=81d47865-521e-43a8-94d2-1344c220b407","ios":"levelo://app?vid=81d47865-521e-43a8-94d2-1344c220b407"},"vehicle_type_id":"4","last_reported":1746838286,"current_range_meters":17200,"station_id":"ce4bh192rcd13ifvqdc0","pricing_plan_id":"cebpf4jnsgd1na2vs0mg"},{"bike_id":"25bd9db4-b151-496c-ba5d-8dcff47fadbf","system_id":"levelo_inurba_marseille","lat":43.31966,"lon":5.37109,"is_reserved":false,"is_disabled":false,"rental_uris":{"android":"levelo://app?vid=25bd9db4-b151-496c-ba5d-8dcff47fadbf","ios":"levelo://app?vid=25bd9db4-b151-496c-ba5d-8dcff47fadbf"},"vehicle_type_id":"4","last_reported":1746838286,"current_range_meters":17600,"station_id":"","pricing_plan_id":"cebpf4jnsgd1na2vs0mg"},{"bike_id":"796ef36e-55a7-4cb9-844d-596a7e2f3fa6","system_id":"levelo_inurba_marseille","lat":43.28382,"lon":5.36473,"is_reserved":false,"is_disabled":false,"rental_uris":{"android":"levelo://app?vid=796ef36e-55a7-4cb9-844d-596a7e2f3fa6","ios":"levelo://app?vid=796ef36e-55a7-4cb9-844d-596a7e2f3fa6"},"vehicle_type_id":"4","last_reported":1746838286,"current_range_meters":17600,"station_id":"","pricing_plan_id":"cebpf4jnsgd1na2vs0mg"},{"bike_id":"b9adf51f-6113-4e7a-9aab-e48b10640df4","system_id":"levelo_inurba_marseille","lat":43.24373,"lon":5.37073,"is_reserved":false,"is_disabled":false,"rental_uris":{"android":"levelo://app?vid=b9adf51f-6113-4e7a-9aab-e48b10640df4","ios":"levelo://app?vid=b9adf51f-6113-4e7a-9aab-e48b10640df4"},"vehicle_type_id":"4","last_reported":1746838286,"current_range_meters":17600,"station_id":"ce4bhhh2rcd13ifvqfk0","pricing_plan_id":"cebpf4jnsgd1na2vs0mg"},{"bike_id":"082b4e8d-cbc6-4ec5-bfa4-7d551221dd67","system_id":"levelo_inurba_marseille","lat":43.23192,"lon":5.39991,"is_reserved":false,"is_disabled":false,"rental_uris":{"android":"levelo://app?vid=082b4e8d-cbc6-4ec5-bfa4-7d551221dd67","ios":"levelo://app?vid=082b4e8d-cbc6-4ec5-bfa4-7d551221dd67"},"vehicle_type_id":"4","last_reported":1746838286,"current_range_meters":17600,"station_id":"ce4bhn12rcd13ifvqgqg","pricing_plan_id":"cebpf4jnsgd1na2vs0mg"},{"bike_id":"55ca1eb2-98a7-436b-975e-4ba9eb4c0f3c","system_id":"levelo_inurba_marseille","lat":43.30418,"lon":5.41278,"is_reserved":false,"is_disabled":false,"rental_uris":{"android":"levelo://app?vid=55ca1eb2-98a7-436b-975e-4ba9eb4c0f3c","ios":"levelo://app?vid=55ca1eb2-98a7-436b-975e-4ba9eb4c0f3c"},"vehicle_type_id":"4","last_reported":1746838286,"current_range_meters":17600,"station_id":"ce4bhop2rcd13ifvqh8g","pricing_plan_id":"cebpf4jnsgd1na2vs0mg"},{"bike_id":"32b96bd4-7617-4aa8-a6cf-1b9e247a6ce6","system_id":"levelo_inurba_marseille","lat":43.31079,"lon":5.424387,"is_reserved":false,"is_disabled":false,"rental_uris":{"android":"levelo://app?vid=32b96bd4-7617-4aa8-a6cf-1b9e247a6ce6","ios":"levelo://app?vid=32b96bd4-7617-4aa8-a6cf-1b9e247a6ce6"},"vehicle_type_id":"4","last_reported":1746838286,"current_range_meters":17600,"station_id":"ce4bhp92rcd13ifvqhag","pricing_plan_id":"cebpf4jnsgd1na2vs0mg"},{"bike_id":"34fb3a5b-cc5c-48bc-9ccd-5e13c4a43395","system_id":"levelo_inurba_marseille","lat":43.32567,"lon":5.391087,"is_reserved":false,"is_disabled":false,"rental_uris":{"android":"levelo://app?vid=34fb3a5b-cc5c-48bc-9ccd-5e13c4a43395","ios":"levelo://app?vid=34fb3a5b-cc5c-48bc-9ccd-5e13c4a43395"},"vehicle_type_id":"4","last_reported":1746838286,"current_range_meters":18000,"station_id":"","pricing_plan_id":"cebpf4jnsgd1na2vs0mg"},{"bike_id":"c2986ec7-82d0-464b-aacf-f51f322b45f8","system_id":"levelo_inurba_marseille","lat":43.308803,"lon":5.396548,"is_reserved":false,"is_disabled":false,"rental_uris":{"android":"levelo://app?vid=c2986ec7-82d0-464b-aacf-f51f322b45f8","ios":"levelo://app?vid=c2986ec7-82d0-464b-aacf-f51f322b45f8"},"vehicle_type_id":"4","last_reported":1746838286,"current_range_meters":18000,"station_id":"ce4bh012rcd13ifvqcv0","pricing_plan_id":"cebpf4jnsgd1na2vs0mg"},{"bike_id":"4f75806d-3e2f-4374-810a-677fbb53aeab","system_id":"levelo_inurba_marseille","lat":43.24809,"lon":5.37456,"is_reserved":false,"is_disabled":false,"rental_uris":{"android":"levelo://app?vid=4f75806d-3e2f-4374-810a-677fbb53aeab","ios":"levelo://app?vid=4f75806d-3e2f-4374-810a-677fbb53aeab"},"vehicle_type_id":"4","last_reported":1746838286,"current_range_meters":18000,"station_id":"ce4bhgh2rcd13ifvqfb0","pricing_plan_id":"cebpf4jnsgd1na2vs0mg"},{"bike_id":"0cbe1943-2094-4cf7-a364-5e44eea454c1","system_id":"levelo_inurba_marseille","lat":43.23965,"lon":5.36632,"is_reserved":false,"is_disabled":false,"rental_uris":{"android":"levelo://app?vid=0cbe1943-2094-4cf7-a364-5e44eea454c1","ios":"levelo://app?vid=0cbe1943-2094-4cf7-a364-5e44eea454c1"},"vehicle_type_id":"4","last_reported":1746838286,"current_range_meters":18000,"station_id":"ce4bhi12rcd13ifvqfp0","pricing_plan_id":"cebpf4jnsgd1na2vs0mg"},{"bike_id":"a1121b36-b5cd-4dda-96ef-13a3dfaa55e1","system_id":"levelo_inurba_marseille","lat":43.301401,"lon":5.387791,"is_reserved":false,"is_disabled":false,"rental_uris":{"android":"levelo://app?vid=a1121b36-b5cd-4dda-96ef-13a3dfaa55e1","ios":"levelo://app?vid=a1121b36-b5cd-4dda-96ef-13a3dfaa55e1"},"vehicle_type_id":"4","last_reported":1746838286,"current_range_meters":18800,"station_id":"","pricing_plan_id":"cebpf4jnsgd1na2vs0mg"},{"bike_id":"eb2ce52b-29be-4c82-b32c-90086c844fc1","system_id":"levelo_inurba_marseille","lat":43.31358,"lon":5.38502,"is_reserved":false,"is_disabled":false,"rental_uris":{"android":"levelo://app?vid=eb2ce52b-29be-4c82-b32c-90086c844fc1","ios":"levelo://app?vid=eb2ce52b-29be-4c82-b32c-90086c844fc1"},"vehicle_type_id":"4","last_reported":1746838286,"current_range_meters":18800,"station_id":"ce4bgt92rcd13ifvqcf0","pricing_plan_id":"cebpf4jnsgd1na2vs0mg"},{"bike_id":"415e9364-a76c-40f9-843b-af71eee6179c","system_id":"levelo_inurba_marseille","lat":43.2922,"lon":5.4092,"is_reserved":false,"is_disabled":false,"rental_uris":{"android":"levelo://app?vid=415e9364-a76c-40f9-843b-af71eee6179c","ios":"levelo://app?vid=415e9364-a76c-40f9-843b-af71eee6179c"},"vehicle_type_id":"4","last_reported":1746838286,"current_range_meters":18800,"station_id":"ce4bh192rcd13ifvqdc0","pricing_plan_id":"cebpf4jnsgd1na2vs0mg"},{"bike_id":"9c9da47e-7b2c-4714-8414-a3fb2390d50b","system_id":"levelo_inurba_marseille","lat":43.28349,"lon":5.381027,"is_reserved":false,"is_disabled":false,"rental_uris":{"android":"levelo://app?vid=9c9da47e-7b2c-4714-8414-a3fb2390d50b","ios":"levelo://app?vid=9c9da47e-7b2c-4714-8414-a3fb2390d50b"},"vehicle_type_id":"4","last_reported":1746838286,"current_range_meters":18800,"station_id":"ce4bh412rcd13ifvqdr0","pricing_plan_id":"cebpf4jnsgd1na2vs0mg"},{"bike_id":"8be5d6c3-c34a-44d3-aaae-68f41c57e172","system_id":"levelo_inurba_marseille","lat":43.23951,"lon":5.36633,"is_reserved":false,"is_disabled":false,"rental_uris":{"android":"levelo://app?vid=8be5d6c3-c34a-44d3-aaae-68f41c57e172","ios":"levelo://app?vid=8be5d6c3-c34a-44d3-aaae-68f41c57e172"},"vehicle_type_id":"4","last_reported":1746838286,"current_range_meters":18800,"station_id":"ce4bhi12rcd13ifvqfp0","pricing_plan_id":"cebpf4jnsgd1na2vs0mg"},{"bike_id":"50f5e02d-7e3d-4bd6-8a5e-360e84f51370","system_id":"levelo_inurba_marseille","lat":43.251225,"lon":5.403199,"is_reserved":false,"is_disabled":false,"rental_uris":{"android":"levelo://app?vid=50f5e02d-7e3d-4bd6-8a5e-360e84f51370","ios":"levelo://app?vid=50f5e02d-7e3d-4bd6-8a5e-360e84f51370"},"vehicle_type_id":"4","last_reported":1746838286,"current_range_meters":18800,"station_id":"ce4bhlh2rcd13ifvqgig","pricing_plan_id":"cebpf4jnsgd1na2vs0mg"},{"bike_id":"971e8964-f5fa-4560-932b-c14bfa11569b","system_id":"levelo_inurba_marseille","lat":43.241833,"lon":5.397604,"is_reserved":false,"is_disabled":false,"rental_uris":{"android":"levelo://app?vid=971e8964-f5fa-4560-932b-c14bfa11569b","ios":"levelo://app?vid=971e8964-f5fa-4560-932b-c14bfa11569b"},"vehicle_type_id":"4","last_reported":1746838286,"current_range_meters":18800,"station_id":"ce4bhlp2rcd13ifvqgjg","pricing_plan_id":"cebpf4jnsgd1na2vs0mg"},{"bike_id":"e5f9e08b-c7e4-484f-8cb5-f829be2d4c56","system_id":"levelo_inurba_marseille","lat":43.29725,"lon":5.38354,"is_reserved":false,"is_disabled":false,"rental_uris":{"android":"levelo://app?vid=e5f9e08b-c7e4-484f-8cb5-f829be2d4c56","ios":"levelo://app?vid=e5f9e08b-c7e4-484f-8cb5-f829be2d4c56"},"vehicle_type_id":"4","last_reported":1746838286,"current_range_meters":19200,"station_id":"","pricing_plan_id":"cebpf4jnsgd1na2vs0mg"},{"bike_id":"540b073a-9228-4696-a942-43defe045e24","system_id":"levelo_inurba_marseille","lat":43.2988,"lon":5.39725,"is_reserved":false,"is_disabled":false,"rental_uris":{"android":"levelo://app?vid=540b073a-9228-4696-a942-43defe045e24","ios":"levelo://app?vid=540b073a-9228-4696-a942-43defe045e24"},"vehicle_type_id":"4","last_reported":1746838286,"current_range_meters":19200,"station_id":"ce4bh0h2rcd13ifvqd50","pricing_plan_id":"cebpf4jnsgd1na2vs0mg"},{"bike_id":"7a322bfc-9f38-4553-b179-8ddf8c146928","system_id":"levelo_inurba_marseille","lat":43.3022,"lon":5.39481,"is_reserved":false,"is_disabled":false,"rental_uris":{"android":"levelo://app?vid=7a322bfc-9f38-4553-b179-8ddf8c146928","ios":"levelo://app?vid=7a322bfc-9f38-4553-b179-8ddf8c146928"},"vehicle_type_id":"4","last_reported":1746838286,"current_range_meters":19200,"station_id":"ce4bh0p2rcd13ifvqd70","pricing_plan_id":"cebpf4jnsgd1na2vs0mg"},{"bike_id":"d22d2c2f-0207-4e87-8002-cc296bdb9015","system_id":"levelo_inurba_marseille","lat":43.29037,"lon":5.39961,"is_reserved":false,"is_disabled":false,"rental_uris":{"android":"levelo://app?vid=d22d2c2f-0207-4e87-8002-cc296bdb9015","ios":"levelo://app?vid=d22d2c2f-0207-4e87-8002-cc296bdb9015"},"vehicle_type_id":"4","last_reported":1746838286,"current_range_meters":19200,"station_id":"ce4bh392rcd13ifvqdm0","pricing_plan_id":"cebpf4jnsgd1na2vs0mg"},{"bike_id":"7b0b7ba7-66fa-4536-8d2a-ed7181614079","system_id":"levelo_inurba_marseille","lat":43.303753,"lon":5.424917,"is_reserved":false,"is_disabled":false,"rental_uris":{"android":"levelo://app?vid=7b0b7ba7-66fa-4536-8d2a-ed7181614079","ios":"levelo://app?vid=7b0b7ba7-66fa-4536-8d2a-ed7181614079"},"vehicle_type_id":"4","last_reported":1746838286,"current_range_meters":19200,"station_id":"ce4bhoh2rcd13ifvqh6g","pricing_plan_id":"cebpf4jnsgd1na2vs0mg"},{"bike_id":"c71293c5-dc2d-4468-b6ae-26d5a8ee9d52","system_id":"levelo_inurba_marseille","lat":43.30361,"lon":5.41881,"is_reserved":false,"is_disabled":false,"rental_uris":{"android":"levelo://app?vid=c71293c5-dc2d-4468-b6ae-26d5a8ee9d52","ios":"levelo://app?vid=c71293c5-dc2d-4468-b6ae-26d5a8ee9d52"},"vehicle_type_id":"4","last_reported":1746838286,"current_range_meters":19200,"station_id":"ce4bhop2rcd13ifvqh7g","pricing_plan_id":"cebpf4jnsgd1na2vs0mg"},{"bike_id":"11bac9a6-0e04-4c68-9615-f13539342864","system_id":"levelo_inurba_marseille","lat":43.21185,"lon":5.35079,"is_reserved":false,"is_disabled":false,"rental_uris":{"android":"levelo://app?vid=11bac9a6-0e04-4c68-9615-f13539342864","ios":"levelo://app?vid=11bac9a6-0e04-4c68-9615-f13539342864"},"vehicle_type_id":"4","last_reported":1746838286,"current_range_meters":19200,"station_id":"st_cvj6sg6p6f1abm77japg","pricing_plan_id":"cebpf4jnsgd1na2vs0mg"},{"bike_id":"f44042ec-2f55-46a8-ac37-47677a64d341","system_id":"levelo_inurba_marseille","lat":43.30048,"lon":5.3845,"is_reserved":false,"is_disabled":false,"rental_uris":{"android":"levelo://app?vid=f44042ec-2f55-46a8-ac37-47677a64d341","ios":"levelo://app?vid=f44042ec-2f55-46a8-ac37-47677a64d341"},"vehicle_type_id":"4","last_reported":1746838286,"current_range_meters":19600,"station_id":"","pricing_plan_id":"cebpf4jnsgd1na2vs0mg"},{"bike_id":"adad1c39-0cfd-4e36-9a00-8017416df03c","system_id":"levelo_inurba_marseille","lat":43.34032,"lon":5.375,"is_reserved":false,"is_disabled":false,"rental_uris":{"android":"levelo://app?vid=adad1c39-0cfd-4e36-9a00-8017416df03c","ios":"levelo://app?vid=adad1c39-0cfd-4e36-9a00-8017416df03c"},"vehicle_type_id":"4","last_reported":1746838286,"current_range_meters":19600,"station_id":"","pricing_plan_id":"cebpf4jnsgd1na2vs0mg"},{"bike_id":"63c52170-046e-4640-bcac-7efe36817223","system_id":"levelo_inurba_marseille","lat":43.313575,"lon":5.384913,"is_reserved":false,"is_disabled":false,"rental_uris":{"android":"levelo://app?vid=63c52170-046e-4640-bcac-7efe36817223","ios":"levelo://app?vid=63c52170-046e-4640-bcac-7efe36817223"},"vehicle_type_id":"4","last_reported":1746838286,"current_range_meters":19600,"station_id":"ce4bgt92rcd13ifvqcf0","pricing_plan_id":"cebpf4jnsgd1na2vs0mg"},{"bike_id":"d31b2453-837a-4c8a-93f1-d5bdaea22f67","system_id":"levelo_inurba_marseille","lat":43.292556,"lon":5.409106,"is_reserved":false,"is_disabled":false,"rental_uris":{"android":"levelo://app?vid=d31b2453-837a-4c8a-93f1-d5bdaea22f67","ios":"levelo://app?vid=d31b2453-837a-4c8a-93f1-d5bdaea22f67"},"vehicle_type_id":"4","last_reported":1746838286,"current_range_meters":19600,"station_id":"ce4bh192rcd13ifvqdc0","pricing_plan_id":"cebpf4jnsgd1na2vs0mg"},{"bike_id":"0fb6b147-e9a8-4345-a220-93d47a47a517","system_id":"levelo_inurba_marseille","lat":43.229354,"lon":5.353824,"is_reserved":false,"is_disabled":false,"rental_uris":{"android":"levelo://app?vid=0fb6b147-e9a8-4345-a220-93d47a47a517","ios":"levelo://app?vid=0fb6b147-e9a8-4345-a220-93d47a47a517"},"vehicle_type_id":"4","last_reported":1746838286,"current_range_meters":19600,"station_id":"cpo3532slgdg3j2ikp40","pricing_plan_id":"cebpf4jnsgd1na2vs0mg"},{"bike_id":"18f611e4-0bc8-41cc-88cd-3474ccbfd17d","system_id":"levelo_inurba_marseille","lat":43.31366,"lon":5.38495,"is_reserved":false,"is_disabled":false,"rental_uris":{"android":"levelo://app?vid=18f611e4-0bc8-41cc-88cd-3474ccbfd17d","ios":"levelo://app?vid=18f611e4-0bc8-41cc-88cd-3474ccbfd17d"},"vehicle_type_id":"4","last_reported":1746838286,"current_range_meters":20000,"station_id":"ce4bgt92rcd13ifvqcf0","pricing_plan_id":"cebpf4jnsgd1na2vs0mg"},{"bike_id":"d0e9f8ed-c3a9-4714-b1d2-2975a2c24140","system_id":"levelo_inurba_marseille","lat":43.30202,"lon":5.39459,"is_reserved":false,"is_disabled":false,"rental_uris":{"android":"levelo://app?vid=d0e9f8ed-c3a9-4714-b1d2-2975a2c24140","ios":"levelo://app?vid=d0e9f8ed-c3a9-4714-b1d2-2975a2c24140"},"vehicle_type_id":"4","last_reported":1746838286,"current_range_meters":20000,"station_id":"ce4bh0p2rcd13ifvqd70","pricing_plan_id":"cebpf4jnsgd1na2vs0mg"},{"bike_id":"25853bdb-c4c4-484f-8797-cad762c04051","system_id":"levelo_inurba_marseille","lat":43.30634,"lon":5.40079,"is_reserved":false,"is_disabled":false,"rental_uris":{"android":"levelo://app?vid=25853bdb-c4c4-484f-8797-cad762c04051","ios":"levelo://app?vid=25853bdb-c4c4-484f-8797-cad762c04051"},"vehicle_type_id":"4","last_reported":1746838286,"current_range_meters":20400,"station_id":"ce4bh112rcd13ifvqda0","pricing_plan_id":"cebpf4jnsgd1na2vs0mg"},{"bike_id":"1fc00dbb-fc6e-4e8f-a09d-16a53b350d47","system_id":"levelo_inurba_marseille","lat":43.2867,"lon":5.3634,"is_reserved":false,"is_disabled":false,"rental_uris":{"android":"levelo://app?vid=1fc00dbb-fc6e-4e8f-a09d-16a53b350d47","ios":"levelo://app?vid=1fc00dbb-fc6e-4e8f-a09d-16a53b350d47"},"vehicle_type_id":"4","last_reported":1746838286,"current_range_meters":20400,"station_id":"ce4bhah2rcd13ifvqej0","pricing_plan_id":"cebpf4jnsgd1na2vs0mg"},{"bike_id":"b720d480-a9a7-4803-b5fe-d249b8a3fbd4","system_id":"levelo_inurba_marseille","lat":43.30951,"lon":5.39047,"is_reserved":false,"is_disabled":false,"rental_uris":{"android":"levelo://app?vid=b720d480-a9a7-4803-b5fe-d249b8a3fbd4","ios":"levelo://app?vid=b720d480-a9a7-4803-b5fe-d249b8a3fbd4"},"vehicle_type_id":"4","last_reported":1746838286,"current_range_meters":20800,"station_id":"ce4bgup2rcd13ifvqco0","pricing_plan_id":"cebpf4jnsgd1na2vs0mg"},{"bike_id":"612e447e-8642-4d08-9eed-865a2c20ffe1","system_id":"levelo_inurba_marseille","lat":43.2572,"lon":5.41113,"is_reserved":false,"is_disabled":false,"rental_uris":{"android":"levelo://app?vid=612e447e-8642-4d08-9eed-865a2c20ffe1","ios":"levelo://app?vid=612e447e-8642-4d08-9eed-865a2c20ffe1"},"vehicle_type_id":"4","last_reported":1746838286,"current_range_meters":20800,"station_id":"ce4bhkp2rcd13ifvqgd0","pricing_plan_id":"cebpf4jnsgd1na2vs0mg"},{"bike_id":"f0c1a107-9442-4216-902f-1e51cc714f9f","system_id":"levelo_inurba_marseille","lat":43.25117,"lon":5.40324,"is_reserved":false,"is_disabled":false,"rental_uris":{"android":"levelo://app?vid=f0c1a107-9442-4216-902f-1e51cc714f9f","ios":"levelo://app?vid=f0c1a107-9442-4216-902f-1e51cc714f9f"},"vehicle_type_id":"4","last_reported":1746838286,"current_range_meters":20800,"station_id":"ce4bhlh2rcd13ifvqgig","pricing_plan_id":"cebpf4jnsgd1na2vs0mg"},{"bike_id":"dd8b7130-1a2d-4d40-adf8-fde245931dc6","system_id":"levelo_inurba_marseille","lat":43.29259,"lon":5.40906,"is_reserved":false,"is_disabled":false,"rental_uris":{"android":"levelo://app?vid=dd8b7130-1a2d-4d40-adf8-fde245931dc6","ios":"levelo://app?vid=dd8b7130-1a2d-4d40-adf8-fde245931dc6"},"vehicle_type_id":"4","last_reported":1746838286,"current_range_meters":21600,"station_id":"ce4bh192rcd13ifvqdc0","pricing_plan_id":"cebpf4jnsgd1na2vs0mg"},{"bike_id":"fdc83f31-3c68-47e3-81c2-8e2befc46029","system_id":"levelo_inurba_marseille","lat":43.2827,"lon":5.35073,"is_reserved":false,"is_disabled":false,"rental_uris":{"android":"levelo://app?vid=fdc83f31-3c68-47e3-81c2-8e2befc46029","ios":"levelo://app?vid=fdc83f31-3c68-47e3-81c2-8e2befc46029"},"vehicle_type_id":"4","last_reported":1746838286,"current_range_meters":21600,"station_id":"ce4bhbp2rcd13ifvqerg","pricing_plan_id":"cebpf4jnsgd1na2vs0mg"},{"bike_id":"ba4e9974-425a-44fd-a865-c9aa7b778e1c","system_id":"levelo_inurba_marseille","lat":43.31772,"lon":5.39009,"is_reserved":false,"is_disabled":false,"rental_uris":{"android":"levelo://app?vid=ba4e9974-425a-44fd-a865-c9aa7b778e1c","ios":"levelo://app?vid=ba4e9974-425a-44fd-a865-c9aa7b778e1c"},"vehicle_type_id":"4","last_reported":1746838286,"current_range_meters":21600,"station_id":"ce4bhqp2rcd13ifvqhng","pricing_plan_id":"cebpf4jnsgd1na2vs0mg"},{"bike_id":"66114e87-3102-4b6e-b735-c1b9abde13c5","system_id":"levelo_inurba_marseille","lat":43.30931,"lon":5.40145,"is_reserved":false,"is_disabled":false,"rental_uris":{"android":"levelo://app?vid=66114e87-3102-4b6e-b735-c1b9abde13c5","ios":"levelo://app?vid=66114e87-3102-4b6e-b735-c1b9abde13c5"},"vehicle_type_id":"4","last_reported":1746838286,"current_range_meters":22000,"station_id":"ce4bgvp2rcd13ifvqct0","pricing_plan_id":"cebpf4jnsgd1na2vs0mg"},{"bike_id":"6db3f993-0ae6-4220-9fba-e56d0ad095b1","system_id":"levelo_inurba_marseille","lat":43.28572,"lon":5.39496,"is_reserved":false,"is_disabled":false,"rental_uris":{"android":"levelo://app?vid=6db3f993-0ae6-4220-9fba-e56d0ad095b1","ios":"levelo://app?vid=6db3f993-0ae6-4220-9fba-e56d0ad095b1"},"vehicle_type_id":"4","last_reported":1746838286,"current_range_meters":22000,"station_id":"ce4bh292rcd13ifvqdg0","pricing_plan_id":"cebpf4jnsgd1na2vs0mg"},{"bike_id":"a1fd51ca-b321-49a1-823c-2b1617c9714f","system_id":"levelo_inurba_marseille","lat":43.26224,"lon":5.40462,"is_reserved":false,"is_disabled":false,"rental_uris":{"android":"levelo://app?vid=a1fd51ca-b321-49a1-823c-2b1617c9714f","ios":"levelo://app?vid=a1fd51ca-b321-49a1-823c-2b1617c9714f"},"vehicle_type_id":"4","last_reported":1746838286,"current_range_meters":22400,"station_id":"ce4bhmh2rcd13ifvqgmg","pricing_plan_id":"cebpf4jnsgd1na2vs0mg"},{"bike_id":"f52c819d-ca4b-4640-b458-b877db1bf990","system_id":"levelo_inurba_marseille","lat":43.298647,"lon":5.410136,"is_reserved":false,"is_disabled":false,"rental_uris":{"android":"levelo://app?vid=f52c819d-ca4b-4640-b458-b877db1bf990","ios":"levelo://app?vid=f52c819d-ca4b-4640-b458-b877db1bf990"},"vehicle_type_id":"4","last_reported":1746838286,"current_range_meters":22800,"station_id":"","pricing_plan_id":"cebpf4jnsgd1na2vs0mg"},{"bike_id":"273d10c5-745b-4e41-85b5-838b304a8842","system_id":"levelo_inurba_marseille","lat":43.31361,"lon":5.38504,"is_reserved":false,"is_disabled":false,"rental_uris":{"android":"levelo://app?vid=273d10c5-745b-4e41-85b5-838b304a8842","ios":"levelo://app?vid=273d10c5-745b-4e41-85b5-838b304a8842"},"vehicle_type_id":"4","last_reported":1746838286,"current_range_meters":22800,"station_id":"ce4bgt92rcd13ifvqcf0","pricing_plan_id":"cebpf4jnsgd1na2vs0mg"},{"bike_id":"73ded412-1ade-4c78-acbe-a9afd038932d","system_id":"levelo_inurba_marseille","lat":43.241669,"lon":5.363925,"is_reserved":false,"is_disabled":false,"rental_uris":{"android":"levelo://app?vid=73ded412-1ade-4c78-acbe-a9afd038932d","ios":"levelo://app?vid=73ded412-1ade-4c78-acbe-a9afd038932d"},"vehicle_type_id":"4","last_reported":1746838286,"current_range_meters":22800,"station_id":"cpo36qri1sfpv3e86is0","pricing_plan_id":"cebpf4jnsgd1na2vs0mg"},{"bike_id":"d3bf34f2-c2ac-4994-a9d3-d10db436c851","system_id":"levelo_inurba_marseille","lat":43.2998,"lon":5.37195,"is_reserved":false,"is_disabled":false,"rental_uris":{"android":"levelo://app?vid=d3bf34f2-c2ac-4994-a9d3-d10db436c851","ios":"levelo://app?vid=d3bf34f2-c2ac-4994-a9d3-d10db436c851"},"vehicle_type_id":"4","last_reported":1746838286,"current_range_meters":23200,"station_id":"ce4bgr92rcd13ifvqc7g","pricing_plan_id":"cebpf4jnsgd1na2vs0mg"},{"bike_id":"9ed76a8f-6fda-4cd0-b451-641cac5e37b1","system_id":"levelo_inurba_marseille","lat":43.29981,"lon":5.37187,"is_reserved":false,"is_disabled":false,"rental_uris":{"android":"levelo://app?vid=9ed76a8f-6fda-4cd0-b451-641cac5e37b1","ios":"levelo://app?vid=9ed76a8f-6fda-4cd0-b451-641cac5e37b1"},"vehicle_type_id":"4","last_reported":1746838286,"current_range_meters":23200,"station_id":"ce4bgr92rcd13ifvqc7g","pricing_plan_id":"cebpf4jnsgd1na2vs0mg"},{"bike_id":"7ef9c380-74be-455d-a6e8-d8f5bf01ceee","system_id":"levelo_inurba_marseille","lat":43.310735,"lon":5.383574,"is_reserved":false,"is_disabled":false,"rental_uris":{"android":"levelo://app?vid=7ef9c380-74be-455d-a6e8-d8f5bf01ceee","ios":"levelo://app?vid=7ef9c380-74be-455d-a6e8-d8f5bf01ceee"},"vehicle_type_id":"4","last_reported":1746838286,"current_range_meters":23200,"station_id":"ce4bgv92rcd13ifvqcr0","pricing_plan_id":"cebpf4jnsgd1na2vs0mg"},{"bike_id":"5e4184c3-d08e-452c-9867-5d017b069682","system_id":"levelo_inurba_marseille","lat":43.23958,"lon":5.36634,"is_reserved":false,"is_disabled":false,"rental_uris":{"android":"levelo://app?vid=5e4184c3-d08e-452c-9867-5d017b069682","ios":"levelo://app?vid=5e4184c3-d08e-452c-9867-5d017b069682"},"vehicle_type_id":"4","last_reported":1746838286,"current_range_meters":23200,"station_id":"ce4bhi12rcd13ifvqfp0","pricing_plan_id":"cebpf4jnsgd1na2vs0mg"},{"bike_id":"9b9e4b0f-f25e-49d8-b464-f519adbe603a","system_id":"levelo_inurba_marseille","lat":43.265,"lon":5.3954,"is_reserved":false,"is_disabled":false,"rental_uris":{"android":"levelo://app?vid=9b9e4b0f-f25e-49d8-b464-f519adbe603a","ios":"levelo://app?vid=9b9e4b0f-f25e-49d8-b464-f519adbe603a"},"vehicle_type_id":"4","last_reported":1746838286,"current_range_meters":23200,"station_id":"ce4bhi12rcd13ifvqfq0","pricing_plan_id":"cebpf4jnsgd1na2vs0mg"},{"bike_id":"acc9e613-f3ab-462c-94c6-a13f35416d65","system_id":"levelo_inurba_marseille","lat":43.28734,"lon":5.36083,"is_reserved":false,"is_disabled":false,"rental_uris":{"android":"levelo://app?vid=acc9e613-f3ab-462c-94c6-a13f35416d65","ios":"levelo://app?vid=acc9e613-f3ab-462c-94c6-a13f35416d65"},"vehicle_type_id":"4","last_reported":1746838286,"current_range_meters":23200,"station_id":"cki0cbj6b192h4jlfktg","pricing_plan_id":"cebpf4jnsgd1na2vs0mg"},{"bike_id":"48ed43fb-4ad0-4001-acee-f6ea4523cfc5","system_id":"levelo_inurba_marseille","lat":43.28622,"lon":5.47703,"is_reserved":false,"is_disabled":false,"rental_uris":{"android":"levelo://app?vid=48ed43fb-4ad0-4001-acee-f6ea4523cfc5","ios":"levelo://app?vid=48ed43fb-4ad0-4001-acee-f6ea4523cfc5"},"vehicle_type_id":"4","last_reported":1746838286,"current_range_meters":24000,"station_id":"","pricing_plan_id":"cebpf4jnsgd1na2vs0mg"},{"bike_id":"fafc54e7-80d4-4bec-ab8a-c43ff95a1fa5","system_id":"levelo_inurba_marseille","lat":43.3151,"lon":5.3728,"is_reserved":false,"is_disabled":false,"rental_uris":{"android":"levelo://app?vid=fafc54e7-80d4-4bec-ab8a-c43ff95a1fa5","ios":"levelo://app?vid=fafc54e7-80d4-4bec-ab8a-c43ff95a1fa5"},"vehicle_type_id":"4","last_reported":1746838286,"current_range_meters":24000,"station_id":"ce4bgt12rcd13ifvqcd0","pricing_plan_id":"cebpf4jnsgd1na2vs0mg"},{"bike_id":"1ff7551b-548f-44ee-a4f8-caa2b9809bfa","system_id":"levelo_inurba_marseille","lat":43.316903,"lon":5.404717,"is_reserved":false,"is_disabled":false,"rental_uris":{"android":"levelo://app?vid=1ff7551b-548f-44ee-a4f8-caa2b9809bfa","ios":"levelo://app?vid=1ff7551b-548f-44ee-a4f8-caa2b9809bfa"},"vehicle_type_id":"4","last_reported":1746838286,"current_range_meters":24000,"station_id":"ce4bh012rcd13ifvqd00","pricing_plan_id":"cebpf4jnsgd1na2vs0mg"},{"bike_id":"19ffa04c-eeb1-4e63-b56e-4bddacfacf7c","system_id":"levelo_inurba_marseille","lat":43.28463,"lon":5.35901,"is_reserved":false,"is_disabled":false,"rental_uris":{"android":"levelo://app?vid=19ffa04c-eeb1-4e63-b56e-4bddacfacf7c","ios":"levelo://app?vid=19ffa04c-eeb1-4e63-b56e-4bddacfacf7c"},"vehicle_type_id":"4","last_reported":1746838286,"current_range_meters":24000,"station_id":"ce4bhah2rcd13ifvqei0","pricing_plan_id":"cebpf4jnsgd1na2vs0mg"},{"bike_id":"e372757b-b03e-4a38-a409-5bc6cf05440a","system_id":"levelo_inurba_marseille","lat":43.23959,"lon":5.36634,"is_reserved":false,"is_disabled":false,"rental_uris":{"android":"levelo://app?vid=e372757b-b03e-4a38-a409-5bc6cf05440a","ios":"levelo://app?vid=e372757b-b03e-4a38-a409-5bc6cf05440a"},"vehicle_type_id":"4","last_reported":1746838286,"current_range_meters":24000,"station_id":"ce4bhi12rcd13ifvqfp0","pricing_plan_id":"cebpf4jnsgd1na2vs0mg"},{"bike_id":"03029308-fc83-4704-bb3d-c3a3bbd3b6ee","system_id":"levelo_inurba_marseille","lat":43.28608,"lon":5.37062,"is_reserved":false,"is_disabled":false,"rental_uris":{"android":"levelo://app?vid=03029308-fc83-4704-bb3d-c3a3bbd3b6ee","ios":"levelo://app?vid=03029308-fc83-4704-bb3d-c3a3bbd3b6ee"},"vehicle_type_id":"4","last_reported":1746838286,"current_range_meters":24000,"station_id":"ce4bht12rcd13ifvqi60","pricing_plan_id":"cebpf4jnsgd1na2vs0mg"},{"bike_id":"02bac07a-9186-49eb-a666-f70d86d99978","system_id":"levelo_inurba_marseille","lat":43.211865,"lon":5.350825,"is_reserved":false,"is_disabled":false,"rental_uris":{"android":"levelo://app?vid=02bac07a-9186-49eb-a666-f70d86d99978","ios":"levelo://app?vid=02bac07a-9186-49eb-a666-f70d86d99978"},"vehicle_type_id":"4","last_reported":1746838286,"current_range_meters":24000,"station_id":"st_cvj6sg6p6f1abm77japg","pricing_plan_id":"cebpf4jnsgd1na2vs0mg"},{"bike_id":"5ee6c3e3-5c35-4884-80c1-71cd7d0fa4fd","system_id":"levelo_inurba_marseille","lat":43.33058,"lon":5.40667,"is_reserved":false,"is_disabled":false,"rental_uris":{"android":"levelo://app?vid=5ee6c3e3-5c35-4884-80c1-71cd7d0fa4fd","ios":"levelo://app?vid=5ee6c3e3-5c35-4884-80c1-71cd7d0fa4fd"},"vehicle_type_id":"4","last_reported":1746838286,"current_range_meters":24400,"station_id":"","pricing_plan_id":"cebpf4jnsgd1na2vs0mg"},{"bike_id":"628c9361-3d68-4678-b48b-1aeec419f7df","system_id":"levelo_inurba_marseille","lat":43.31356,"lon":5.38512,"is_reserved":false,"is_disabled":false,"rental_uris":{"android":"levelo://app?vid=628c9361-3d68-4678-b48b-1aeec419f7df","ios":"levelo://app?vid=628c9361-3d68-4678-b48b-1aeec419f7df"},"vehicle_type_id":"4","last_reported":1746838286,"current_range_meters":24400,"station_id":"ce4bgt92rcd13ifvqcf0","pricing_plan_id":"cebpf4jnsgd1na2vs0mg"},{"bike_id":"da1c5ec3-22aa-41b9-908c-4d323560536d","system_id":"levelo_inurba_marseille","lat":43.31071,"lon":5.38369,"is_reserved":false,"is_disabled":false,"rental_uris":{"android":"levelo://app?vid=da1c5ec3-22aa-41b9-908c-4d323560536d","ios":"levelo://app?vid=da1c5ec3-22aa-41b9-908c-4d323560536d"},"vehicle_type_id":"4","last_reported":1746838286,"current_range_meters":24400,"station_id":"ce4bgv92rcd13ifvqcr0","pricing_plan_id":"cebpf4jnsgd1na2vs0mg"},{"bike_id":"f652dfe0-253c-4e0e-b718-ab601bc1d291","system_id":"levelo_inurba_marseille","lat":43.28708,"lon":5.37391,"is_reserved":false,"is_disabled":false,"rental_uris":{"android":"levelo://app?vid=f652dfe0-253c-4e0e-b718-ab601bc1d291","ios":"levelo://app?vid=f652dfe0-253c-4e0e-b718-ab601bc1d291"},"vehicle_type_id":"4","last_reported":1746838286,"current_range_meters":24400,"station_id":"ce4bh3p2rcd13ifvqdq0","pricing_plan_id":"cebpf4jnsgd1na2vs0mg"},{"bike_id":"ce808109-3a33-42b9-94bd-9d2185c0cbf5","system_id":"levelo_inurba_marseille","lat":43.28417,"lon":5.37501,"is_reserved":false,"is_disabled":false,"rental_uris":{"android":"levelo://app?vid=ce808109-3a33-42b9-94bd-9d2185c0cbf5","ios":"levelo://app?vid=ce808109-3a33-42b9-94bd-9d2185c0cbf5"},"vehicle_type_id":"4","last_reported":1746838286,"current_range_meters":24400,"station_id":"ce4bh412rcd13ifvqds0","pricing_plan_id":"cebpf4jnsgd1na2vs0mg"},{"bike_id":"b63f0225-a5b3-40c6-9052-ebe97b914ab0","system_id":"levelo_inurba_marseille","lat":43.26499,"lon":5.39549,"is_reserved":false,"is_disabled":false,"rental_uris":{"android":"levelo://app?vid=b63f0225-a5b3-40c6-9052-ebe97b914ab0","ios":"levelo://app?vid=b63f0225-a5b3-40c6-9052-ebe97b914ab0"},"vehicle_type_id":"4","last_reported":1746838286,"current_range_meters":24400,"station_id":"ce4bhi12rcd13ifvqfq0","pricing_plan_id":"cebpf4jnsgd1na2vs0mg"},{"bike_id":"4847d81f-d50e-4609-8983-6082c307ddc0","system_id":"levelo_inurba_marseille","lat":43.317116,"lon":5.437039,"is_reserved":false,"is_disabled":false,"rental_uris":{"android":"levelo://app?vid=4847d81f-d50e-4609-8983-6082c307ddc0","ios":"levelo://app?vid=4847d81f-d50e-4609-8983-6082c307ddc0"},"vehicle_type_id":"4","last_reported":1746838286,"current_range_meters":24400,"station_id":"ce4bhp92rcd13ifvqhcg","pricing_plan_id":"cebpf4jnsgd1na2vs0mg"},{"bike_id":"2d87a111-ceb6-4c23-8221-995f4e300ca7","system_id":"levelo_inurba_marseille","lat":43.28607,"lon":5.37058,"is_reserved":false,"is_disabled":false,"rental_uris":{"android":"levelo://app?vid=2d87a111-ceb6-4c23-8221-995f4e300ca7","ios":"levelo://app?vid=2d87a111-ceb6-4c23-8221-995f4e300ca7"},"vehicle_type_id":"4","last_reported":1746838286,"current_range_meters":24400,"station_id":"ce4bht12rcd13ifvqi60","pricing_plan_id":"cebpf4jnsgd1na2vs0mg"},{"bike_id":"351ef218-24e5-4670-825d-fc1ac5cd3c19","system_id":"levelo_inurba_marseille","lat":43.314856,"lon":5.372977,"is_reserved":false,"is_disabled":false,"rental_uris":{"android":"levelo://app?vid=351ef218-24e5-4670-825d-fc1ac5cd3c19","ios":"levelo://app?vid=351ef218-24e5-4670-825d-fc1ac5cd3c19"},"vehicle_type_id":"4","last_reported":1746838286,"current_range_meters":24800,"station_id":"ce4bgt12rcd13ifvqcd0","pricing_plan_id":"cebpf4jnsgd1na2vs0mg"},{"bike_id":"cb360625-bf99-4647-86fd-aa2204d2019f","system_id":"levelo_inurba_marseille","lat":43.24359,"lon":5.37048,"is_reserved":false,"is_disabled":false,"rental_uris":{"android":"levelo://app?vid=cb360625-bf99-4647-86fd-aa2204d2019f","ios":"levelo://app?vid=cb360625-bf99-4647-86fd-aa2204d2019f"},"vehicle_type_id":"4","last_reported":1746838286,"current_range_meters":24800,"station_id":"ce4bhhh2rcd13ifvqfk0","pricing_plan_id":"cebpf4jnsgd1na2vs0mg"},{"bike_id":"21233236-2456-414e-ba2f-9d04b5682a71","system_id":"levelo_inurba_marseille","lat":43.23967,"lon":5.36631,"is_reserved":false,"is_disabled":false,"rental_uris":{"android":"levelo://app?vid=21233236-2456-414e-ba2f-9d04b5682a71","ios":"levelo://app?vid=21233236-2456-414e-ba2f-9d04b5682a71"},"vehicle_type_id":"4","last_reported":1746838286,"current_range_meters":24800,"station_id":"ce4bhi12rcd13ifvqfp0","pricing_plan_id":"cebpf4jnsgd1na2vs0mg"},{"bike_id":"1eee94a5-e10d-4f9f-8262-b514c57aa896","system_id":"levelo_inurba_marseille","lat":43.28074,"lon":5.396503,"is_reserved":false,"is_disabled":false,"rental_uris":{"android":"levelo://app?vid=1eee94a5-e10d-4f9f-8262-b514c57aa896","ios":"levelo://app?vid=1eee94a5-e10d-4f9f-8262-b514c57aa896"},"vehicle_type_id":"4","last_reported":1746838286,"current_range_meters":24800,"station_id":"ce4bho12rcd13ifvqh2g","pricing_plan_id":"cebpf4jnsgd1na2vs0mg"},{"bike_id":"fc89cb65-da63-4086-84cf-2f95aeacd624","system_id":"levelo_inurba_marseille","lat":43.28706,"lon":5.39999,"is_reserved":false,"is_disabled":false,"rental_uris":{"android":"levelo://app?vid=fc89cb65-da63-4086-84cf-2f95aeacd624","ios":"levelo://app?vid=fc89cb65-da63-4086-84cf-2f95aeacd624"},"vehicle_type_id":"4","last_reported":1746838286,"current_range_meters":24800,"station_id":"ce4bho92rcd13ifvqh3g","pricing_plan_id":"cebpf4jnsgd1na2vs0mg"},{"bike_id":"76641dd9-c233-4b12-9f62-bc33d48bec5c","system_id":"levelo_inurba_marseille","lat":43.30781,"lon":5.37657,"is_reserved":false,"is_disabled":false,"rental_uris":{"android":"levelo://app?vid=76641dd9-c233-4b12-9f62-bc33d48bec5c","ios":"levelo://app?vid=76641dd9-c233-4b12-9f62-bc33d48bec5c"},"vehicle_type_id":"4","last_reported":1746838286,"current_range_meters":25200,"station_id":"ce4bgv92rcd13ifvqcq0","pricing_plan_id":"cebpf4jnsgd1na2vs0mg"},{"bike_id":"d06c5086-a8ea-4946-a4b7-125cf57caa50","system_id":"levelo_inurba_marseille","lat":43.309253,"lon":5.401529,"is_reserved":false,"is_disabled":false,"rental_uris":{"android":"levelo://app?vid=d06c5086-a8ea-4946-a4b7-125cf57caa50","ios":"levelo://app?vid=d06c5086-a8ea-4946-a4b7-125cf57caa50"},"vehicle_type_id":"4","last_reported":1746838286,"current_range_meters":25200,"station_id":"ce4bgvp2rcd13ifvqct0","pricing_plan_id":"cebpf4jnsgd1na2vs0mg"},{"bike_id":"7c1e3ddb-2948-4705-bb9b-70b4c2e85550","system_id":"levelo_inurba_marseille","lat":43.29018,"lon":5.39993,"is_reserved":false,"is_disabled":false,"rental_uris":{"android":"levelo://app?vid=7c1e3ddb-2948-4705-bb9b-70b4c2e85550","ios":"levelo://app?vid=7c1e3ddb-2948-4705-bb9b-70b4c2e85550"},"vehicle_type_id":"4","last_reported":1746838286,"current_range_meters":25200,"station_id":"ce4bh392rcd13ifvqdm0","pricing_plan_id":"cebpf4jnsgd1na2vs0mg"},{"bike_id":"7fc85542-413b-47cb-90f3-fc9a0d501d7e","system_id":"levelo_inurba_marseille","lat":43.24651,"lon":5.38151,"is_reserved":false,"is_disabled":false,"rental_uris":{"android":"levelo://app?vid=7fc85542-413b-47cb-90f3-fc9a0d501d7e","ios":"levelo://app?vid=7fc85542-413b-47cb-90f3-fc9a0d501d7e"},"vehicle_type_id":"4","last_reported":1746838286,"current_range_meters":25200,"station_id":"ce4bhih2rcd13ifvqfr0","pricing_plan_id":"cebpf4jnsgd1na2vs0mg"},{"bike_id":"28cdeca5-6903-4c91-bce2-491f70daf2d0","system_id":"levelo_inurba_marseille","lat":43.229373,"lon":5.353778,"is_reserved":false,"is_disabled":false,"rental_uris":{"android":"levelo://app?vid=28cdeca5-6903-4c91-bce2-491f70daf2d0","ios":"levelo://app?vid=28cdeca5-6903-4c91-bce2-491f70daf2d0"},"vehicle_type_id":"4","last_reported":1746838286,"current_range_meters":25200,"station_id":"cpo3532slgdg3j2ikp40","pricing_plan_id":"cebpf4jnsgd1na2vs0mg"},{"bike_id":"ec2b92c5-71f9-4182-9122-e616fb7594ad","system_id":"levelo_inurba_marseille","lat":43.3107,"lon":5.38392,"is_reserved":false,"is_disabled":false,"rental_uris":{"android":"levelo://app?vid=ec2b92c5-71f9-4182-9122-e616fb7594ad","ios":"levelo://app?vid=ec2b92c5-71f9-4182-9122-e616fb7594ad"},"vehicle_type_id":"4","last_reported":1746838286,"current_range_meters":25600,"station_id":"ce4bgv92rcd13ifvqcr0","pricing_plan_id":"cebpf4jnsgd1na2vs0mg"},{"bike_id":"40b29dc7-38e1-4f66-85b2-7a146d1d8e20","system_id":"levelo_inurba_marseille","lat":43.306381,"lon":5.400738,"is_reserved":false,"is_disabled":false,"rental_uris":{"android":"levelo://app?vid=40b29dc7-38e1-4f66-85b2-7a146d1d8e20","ios":"levelo://app?vid=40b29dc7-38e1-4f66-85b2-7a146d1d8e20"},"vehicle_type_id":"4","last_reported":1746838286,"current_range_meters":25600,"station_id":"ce4bh112rcd13ifvqda0","pricing_plan_id":"cebpf4jnsgd1na2vs0mg"},{"bike_id":"aad14ab8-c24d-475f-9c03-24ac8d2b4dfa","system_id":"levelo_inurba_marseille","lat":43.239652,"lon":5.366304,"is_reserved":false,"is_disabled":false,"rental_uris":{"android":"levelo://app?vid=aad14ab8-c24d-475f-9c03-24ac8d2b4dfa","ios":"levelo://app?vid=aad14ab8-c24d-475f-9c03-24ac8d2b4dfa"},"vehicle_type_id":"4","last_reported":1746838286,"current_range_meters":25600,"station_id":"ce4bhi12rcd13ifvqfp0","pricing_plan_id":"cebpf4jnsgd1na2vs0mg"},{"bike_id":"6d7b81a9-ed30-4588-9ca0-3cbad527564c","system_id":"levelo_inurba_marseille","lat":43.31887,"lon":5.40741,"is_reserved":false,"is_disabled":false,"rental_uris":{"android":"levelo://app?vid=6d7b81a9-ed30-4588-9ca0-3cbad527564c","ios":"levelo://app?vid=6d7b81a9-ed30-4588-9ca0-3cbad527564c"},"vehicle_type_id":"4","last_reported":1746838286,"current_range_meters":25600,"station_id":"ce4bhq12rcd13ifvqhig","pricing_plan_id":"cebpf4jnsgd1na2vs0mg"},{"bike_id":"25f2cfe2-98f0-4667-9971-0d020f8c4269","system_id":"levelo_inurba_marseille","lat":43.33024,"lon":5.39045,"is_reserved":false,"is_disabled":false,"rental_uris":{"android":"levelo://app?vid=25f2cfe2-98f0-4667-9971-0d020f8c4269","ios":"levelo://app?vid=25f2cfe2-98f0-4667-9971-0d020f8c4269"},"vehicle_type_id":"4","last_reported":1746838286,"current_range_meters":25600,"station_id":"ce4bhr92rcd13ifvqhrg","pricing_plan_id":"cebpf4jnsgd1na2vs0mg"},{"bike_id":"6aab6d40-2521-484f-9c54-7c7ab0cd579e","system_id":"levelo_inurba_marseille","lat":43.313592,"lon":5.384902,"is_reserved":false,"is_disabled":false,"rental_uris":{"android":"levelo://app?vid=6aab6d40-2521-484f-9c54-7c7ab0cd579e","ios":"levelo://app?vid=6aab6d40-2521-484f-9c54-7c7ab0cd579e"},"vehicle_type_id":"4","last_reported":1746838286,"current_range_meters":26000,"station_id":"ce4bgt92rcd13ifvqcf0","pricing_plan_id":"cebpf4jnsgd1na2vs0mg"},{"bike_id":"3be46743-fbf4-486d-8a10-8265a7e6a6f1","system_id":"levelo_inurba_marseille","lat":43.3079,"lon":5.37645,"is_reserved":false,"is_disabled":false,"rental_uris":{"android":"levelo://app?vid=3be46743-fbf4-486d-8a10-8265a7e6a6f1","ios":"levelo://app?vid=3be46743-fbf4-486d-8a10-8265a7e6a6f1"},"vehicle_type_id":"4","last_reported":1746838286,"current_range_meters":26000,"station_id":"ce4bgv92rcd13ifvqcq0","pricing_plan_id":"cebpf4jnsgd1na2vs0mg"},{"bike_id":"e8d87c3a-8e63-4494-879e-6d10d56c9c58","system_id":"levelo_inurba_marseille","lat":43.306373,"lon":5.400814,"is_reserved":false,"is_disabled":false,"rental_uris":{"android":"levelo://app?vid=e8d87c3a-8e63-4494-879e-6d10d56c9c58","ios":"levelo://app?vid=e8d87c3a-8e63-4494-879e-6d10d56c9c58"},"vehicle_type_id":"4","last_reported":1746838286,"current_range_meters":26000,"station_id":"ce4bh112rcd13ifvqda0","pricing_plan_id":"cebpf4jnsgd1na2vs0mg"},{"bike_id":"7882874d-26fd-4ca1-bdd3-927516a28f50","system_id":"levelo_inurba_marseille","lat":43.28264,"lon":5.35061,"is_reserved":false,"is_disabled":false,"rental_uris":{"android":"levelo://app?vid=7882874d-26fd-4ca1-bdd3-927516a28f50","ios":"levelo://app?vid=7882874d-26fd-4ca1-bdd3-927516a28f50"},"vehicle_type_id":"4","last_reported":1746838286,"current_range_meters":26000,"station_id":"ce4bhbp2rcd13ifvqerg","pricing_plan_id":"cebpf4jnsgd1na2vs0mg"},{"bike_id":"1d254e36-6d00-4078-a456-c55b43d44b5b","system_id":"levelo_inurba_marseille","lat":43.2396,"lon":5.36636,"is_reserved":false,"is_disabled":false,"rental_uris":{"android":"levelo://app?vid=1d254e36-6d00-4078-a456-c55b43d44b5b","ios":"levelo://app?vid=1d254e36-6d00-4078-a456-c55b43d44b5b"},"vehicle_type_id":"4","last_reported":1746838286,"current_range_meters":26000,"station_id":"ce4bhi12rcd13ifvqfp0","pricing_plan_id":"cebpf4jnsgd1na2vs0mg"},{"bike_id":"f7b17b6c-c8fc-4cba-b0db-8cb329d922d1","system_id":"levelo_inurba_marseille","lat":43.24546,"lon":5.395148,"is_reserved":false,"is_disabled":false,"rental_uris":{"android":"levelo://app?vid=f7b17b6c-c8fc-4cba-b0db-8cb329d922d1","ios":"levelo://app?vid=f7b17b6c-c8fc-4cba-b0db-8cb329d922d1"},"vehicle_type_id":"4","last_reported":1746838286,"current_range_meters":26000,"station_id":"ce4bhlp2rcd13ifvqgjg","pricing_plan_id":"cebpf4jnsgd1na2vs0mg"},{"bike_id":"29399a65-e10d-4bef-bb72-d7b33117028b","system_id":"levelo_inurba_marseille","lat":43.3172,"lon":5.43708,"is_reserved":false,"is_disabled":false,"rental_uris":{"android":"levelo://app?vid=29399a65-e10d-4bef-bb72-d7b33117028b","ios":"levelo://app?vid=29399a65-e10d-4bef-bb72-d7b33117028b"},"vehicle_type_id":"4","last_reported":1746838286,"current_range_meters":26000,"station_id":"ce4bhp92rcd13ifvqhcg","pricing_plan_id":"cebpf4jnsgd1na2vs0mg"},{"bike_id":"a45ee51e-44d8-438b-9671-f759bb105218","system_id":"levelo_inurba_marseille","lat":43.28241,"lon":5.36845,"is_reserved":false,"is_disabled":false,"rental_uris":{"android":"levelo://app?vid=a45ee51e-44d8-438b-9671-f759bb105218","ios":"levelo://app?vid=a45ee51e-44d8-438b-9671-f759bb105218"},"vehicle_type_id":"4","last_reported":1746838286,"current_range_meters":26800,"station_id":"","pricing_plan_id":"cebpf4jnsgd1na2vs0mg"},{"bike_id":"b43e21ab-c94a-4ae2-be47-33767607fa29","system_id":"levelo_inurba_marseille","lat":43.28471,"lon":5.38413,"is_reserved":false,"is_disabled":false,"rental_uris":{"android":"levelo://app?vid=b43e21ab-c94a-4ae2-be47-33767607fa29","ios":"levelo://app?vid=b43e21ab-c94a-4ae2-be47-33767607fa29"},"vehicle_type_id":"4","last_reported":1746838286,"current_range_meters":26800,"station_id":"ce4bh512rcd13ifvqe3g","pricing_plan_id":"cebpf4jnsgd1na2vs0mg"},{"bike_id":"d54f6937-0bc9-4a78-a2b5-d28bbf58baee","system_id":"levelo_inurba_marseille","lat":43.28277,"lon":5.35074,"is_reserved":false,"is_disabled":false,"rental_uris":{"android":"levelo://app?vid=d54f6937-0bc9-4a78-a2b5-d28bbf58baee","ios":"levelo://app?vid=d54f6937-0bc9-4a78-a2b5-d28bbf58baee"},"vehicle_type_id":"4","last_reported":1746838286,"current_range_meters":26800,"station_id":"ce4bhbp2rcd13ifvqerg","pricing_plan_id":"cebpf4jnsgd1na2vs0mg"},{"bike_id":"ab90e9a9-2105-46d9-ad7c-f0b4aa67724b","system_id":"levelo_inurba_marseille","lat":43.23594,"lon":5.40339,"is_reserved":false,"is_disabled":false,"rental_uris":{"android":"levelo://app?vid=ab90e9a9-2105-46d9-ad7c-f0b4aa67724b","ios":"levelo://app?vid=ab90e9a9-2105-46d9-ad7c-f0b4aa67724b"},"vehicle_type_id":"4","last_reported":1746838286,"current_range_meters":27200,"station_id":"","pricing_plan_id":"cebpf4jnsgd1na2vs0mg"},{"bike_id":"4b0d80a1-8c4b-498e-85b7-d16e3c17abd4","system_id":"levelo_inurba_marseille","lat":43.297151,"lon":5.365938,"is_reserved":false,"is_disabled":false,"rental_uris":{"android":"levelo://app?vid=4b0d80a1-8c4b-498e-85b7-d16e3c17abd4","ios":"levelo://app?vid=4b0d80a1-8c4b-498e-85b7-d16e3c17abd4"},"vehicle_type_id":"4","last_reported":1746838286,"current_range_meters":27200,"station_id":"ce4bgn12rcd13ifvqbt0","pricing_plan_id":"cebpf4jnsgd1na2vs0mg"},{"bike_id":"9243ef7d-a226-4f6e-b439-4e8bd906aa3a","system_id":"levelo_inurba_marseille","lat":43.307862,"lon":5.376404,"is_reserved":false,"is_disabled":false,"rental_uris":{"android":"levelo://app?vid=9243ef7d-a226-4f6e-b439-4e8bd906aa3a","ios":"levelo://app?vid=9243ef7d-a226-4f6e-b439-4e8bd906aa3a"},"vehicle_type_id":"4","last_reported":1746838286,"current_range_meters":27200,"station_id":"ce4bgv92rcd13ifvqcq0","pricing_plan_id":"cebpf4jnsgd1na2vs0mg"},{"bike_id":"67f39ce3-4a42-4719-ab5a-042650532753","system_id":"levelo_inurba_marseille","lat":43.31077,"lon":5.38349,"is_reserved":false,"is_disabled":false,"rental_uris":{"android":"levelo://app?vid=67f39ce3-4a42-4719-ab5a-042650532753","ios":"levelo://app?vid=67f39ce3-4a42-4719-ab5a-042650532753"},"vehicle_type_id":"4","last_reported":1746838286,"current_range_meters":27200,"station_id":"ce4bgv92rcd13ifvqcr0","pricing_plan_id":"cebpf4jnsgd1na2vs0mg"},{"bike_id":"5013b049-5182-4d34-b6d0-b1000aea3248","system_id":"levelo_inurba_marseille","lat":43.30934,"lon":5.40142,"is_reserved":false,"is_disabled":false,"rental_uris":{"android":"levelo://app?vid=5013b049-5182-4d34-b6d0-b1000aea3248","ios":"levelo://app?vid=5013b049-5182-4d34-b6d0-b1000aea3248"},"vehicle_type_id":"4","last_reported":1746838286,"current_range_meters":27200,"station_id":"ce4bgvp2rcd13ifvqct0","pricing_plan_id":"cebpf4jnsgd1na2vs0mg"},{"bike_id":"6755debe-282d-4034-9706-e4e2d4660e30","system_id":"levelo_inurba_marseille","lat":43.31327,"lon":5.39704,"is_reserved":false,"is_disabled":false,"rental_uris":{"android":"levelo://app?vid=6755debe-282d-4034-9706-e4e2d4660e30","ios":"levelo://app?vid=6755debe-282d-4034-9706-e4e2d4660e30"},"vehicle_type_id":"4","last_reported":1746838286,"current_range_meters":27200,"station_id":"ce4bgvp2rcd13ifvqcu0","pricing_plan_id":"cebpf4jnsgd1na2vs0mg"},{"bike_id":"d669e399-9a5c-4e60-8060-f2c70f3ae62b","system_id":"levelo_inurba_marseille","lat":43.306462,"lon":5.400752,"is_reserved":false,"is_disabled":false,"rental_uris":{"android":"levelo://app?vid=d669e399-9a5c-4e60-8060-f2c70f3ae62b","ios":"levelo://app?vid=d669e399-9a5c-4e60-8060-f2c70f3ae62b"},"vehicle_type_id":"4","last_reported":1746838286,"current_range_meters":27200,"station_id":"ce4bh112rcd13ifvqda0","pricing_plan_id":"cebpf4jnsgd1na2vs0mg"},{"bike_id":"363068cb-9c48-4c98-b06f-db268d34845d","system_id":"levelo_inurba_marseille","lat":43.29278,"lon":5.40134,"is_reserved":false,"is_disabled":false,"rental_uris":{"android":"levelo://app?vid=363068cb-9c48-4c98-b06f-db268d34845d","ios":"levelo://app?vid=363068cb-9c48-4c98-b06f-db268d34845d"},"vehicle_type_id":"4","last_reported":1746838286,"current_range_meters":27200,"station_id":"ce4bh312rcd13ifvqdk0","pricing_plan_id":"cebpf4jnsgd1na2vs0mg"},{"bike_id":"865cb513-262e-42cf-b3c6-890d7a12e061","system_id":"levelo_inurba_marseille","lat":43.28665,"lon":5.3635,"is_reserved":false,"is_disabled":false,"rental_uris":{"android":"levelo://app?vid=865cb513-262e-42cf-b3c6-890d7a12e061","ios":"levelo://app?vid=865cb513-262e-42cf-b3c6-890d7a12e061"},"vehicle_type_id":"4","last_reported":1746838286,"current_range_meters":27200,"station_id":"ce4bhah2rcd13ifvqej0","pricing_plan_id":"cebpf4jnsgd1na2vs0mg"},{"bike_id":"ed269f08-24c0-40fa-95b0-29c6d4701fde","system_id":"levelo_inurba_marseille","lat":43.270876,"lon":5.42271,"is_reserved":false,"is_disabled":false,"rental_uris":{"android":"levelo://app?vid=ed269f08-24c0-40fa-95b0-29c6d4701fde","ios":"levelo://app?vid=ed269f08-24c0-40fa-95b0-29c6d4701fde"},"vehicle_type_id":"4","last_reported":1746838286,"current_range_meters":27200,"station_id":"ce4bhk92rcd13ifvqgb0","pricing_plan_id":"cebpf4jnsgd1na2vs0mg"},{"bike_id":"ddff29c1-cde5-43c8-adc2-7f7cafa6e926","system_id":"levelo_inurba_marseille","lat":43.313582,"lon":5.384962,"is_reserved":false,"is_disabled":false,"rental_uris":{"android":"levelo://app?vid=ddff29c1-cde5-43c8-adc2-7f7cafa6e926","ios":"levelo://app?vid=ddff29c1-cde5-43c8-adc2-7f7cafa6e926"},"vehicle_type_id":"4","last_reported":1746838286,"current_range_meters":27600,"station_id":"ce4bgt92rcd13ifvqcf0","pricing_plan_id":"cebpf4jnsgd1na2vs0mg"},{"bike_id":"f90bbcc1-5cc4-4a91-8956-4d0dfca0f1ff","system_id":"levelo_inurba_marseille","lat":43.28363,"lon":5.38631,"is_reserved":false,"is_disabled":false,"rental_uris":{"android":"levelo://app?vid=f90bbcc1-5cc4-4a91-8956-4d0dfca0f1ff","ios":"levelo://app?vid=f90bbcc1-5cc4-4a91-8956-4d0dfca0f1ff"},"vehicle_type_id":"4","last_reported":1746838286,"current_range_meters":27600,"station_id":"ce4bh492rcd13ifvqdvg","pricing_plan_id":"cebpf4jnsgd1na2vs0mg"},{"bike_id":"f28a5201-154f-4754-90da-7e4883b2b04b","system_id":"levelo_inurba_marseille","lat":43.32995,"lon":5.39053,"is_reserved":false,"is_disabled":false,"rental_uris":{"android":"levelo://app?vid=f28a5201-154f-4754-90da-7e4883b2b04b","ios":"levelo://app?vid=f28a5201-154f-4754-90da-7e4883b2b04b"},"vehicle_type_id":"4","last_reported":1746838286,"current_range_meters":27600,"station_id":"ce4bhr92rcd13ifvqhrg","pricing_plan_id":"cebpf4jnsgd1na2vs0mg"},{"bike_id":"a35129c7-ae16-4589-b300-131c23bde060","system_id":"levelo_inurba_marseille","lat":43.28728,"lon":5.36083,"is_reserved":false,"is_disabled":false,"rental_uris":{"android":"levelo://app?vid=a35129c7-ae16-4589-b300-131c23bde060","ios":"levelo://app?vid=a35129c7-ae16-4589-b300-131c23bde060"},"vehicle_type_id":"4","last_reported":1746838286,"current_range_meters":27600,"station_id":"cki0cbj6b192h4jlfktg","pricing_plan_id":"cebpf4jnsgd1na2vs0mg"},{"bike_id":"259da1a6-5dc3-4e2e-9dd8-09fbbd8e4f6c","system_id":"levelo_inurba_marseille","lat":43.28732,"lon":5.36086,"is_reserved":false,"is_disabled":false,"rental_uris":{"android":"levelo://app?vid=259da1a6-5dc3-4e2e-9dd8-09fbbd8e4f6c","ios":"levelo://app?vid=259da1a6-5dc3-4e2e-9dd8-09fbbd8e4f6c"},"vehicle_type_id":"4","last_reported":1746838286,"current_range_meters":27600,"station_id":"cki0cbj6b192h4jlfktg","pricing_plan_id":"cebpf4jnsgd1na2vs0mg"},{"bike_id":"e07caf15-7d14-447b-ab7c-2112e51aad83","system_id":"levelo_inurba_marseille","lat":43.30794,"lon":5.38169,"is_reserved":false,"is_disabled":false,"rental_uris":{"android":"levelo://app?vid=e07caf15-7d14-447b-ab7c-2112e51aad83","ios":"levelo://app?vid=e07caf15-7d14-447b-ab7c-2112e51aad83"},"vehicle_type_id":"4","last_reported":1746838286,"current_range_meters":28000,"station_id":"ce4bgt12rcd13ifvqce0","pricing_plan_id":"cebpf4jnsgd1na2vs0mg"},{"bike_id":"4c9e40bf-d7c2-4faa-a0f8-73b4cec902f1","system_id":"levelo_inurba_marseille","lat":43.3137,"lon":5.3852,"is_reserved":false,"is_disabled":false,"rental_uris":{"android":"levelo://app?vid=4c9e40bf-d7c2-4faa-a0f8-73b4cec902f1","ios":"levelo://app?vid=4c9e40bf-d7c2-4faa-a0f8-73b4cec902f1"},"vehicle_type_id":"4","last_reported":1746838286,"current_range_meters":28000,"station_id":"ce4bgt92rcd13ifvqcf0","pricing_plan_id":"cebpf4jnsgd1na2vs0mg"},{"bike_id":"8d71f956-efea-4316-86bd-c9bd3d4e3054","system_id":"levelo_inurba_marseille","lat":43.28673,"lon":5.38673,"is_reserved":false,"is_disabled":false,"rental_uris":{"android":"levelo://app?vid=8d71f956-efea-4316-86bd-c9bd3d4e3054","ios":"levelo://app?vid=8d71f956-efea-4316-86bd-c9bd3d4e3054"},"vehicle_type_id":"4","last_reported":1746838286,"current_range_meters":28000,"station_id":"ce4bh492rcd13ifvqdug","pricing_plan_id":"cebpf4jnsgd1na2vs0mg"},{"bike_id":"a20e1eb1-8e64-4723-ad8c-1f4560d0642a","system_id":"levelo_inurba_marseille","lat":43.27173,"lon":5.40992,"is_reserved":false,"is_disabled":false,"rental_uris":{"android":"levelo://app?vid=a20e1eb1-8e64-4723-ad8c-1f4560d0642a","ios":"levelo://app?vid=a20e1eb1-8e64-4723-ad8c-1f4560d0642a"},"vehicle_type_id":"4","last_reported":1746838286,"current_range_meters":28000,"station_id":"ce4bhl12rcd13ifvqgf0","pricing_plan_id":"cebpf4jnsgd1na2vs0mg"},{"bike_id":"498b64a5-e341-422d-b7d0-c22c98c12ed0","system_id":"levelo_inurba_marseille","lat":43.25107,"lon":5.40331,"is_reserved":false,"is_disabled":false,"rental_uris":{"android":"levelo://app?vid=498b64a5-e341-422d-b7d0-c22c98c12ed0","ios":"levelo://app?vid=498b64a5-e341-422d-b7d0-c22c98c12ed0"},"vehicle_type_id":"4","last_reported":1746838286,"current_range_meters":28000,"station_id":"ce4bhlh2rcd13ifvqgig","pricing_plan_id":"cebpf4jnsgd1na2vs0mg"},{"bike_id":"de3525d5-e61b-454f-85f9-acba6aa1f9c3","system_id":"levelo_inurba_marseille","lat":43.309254,"lon":5.401396,"is_reserved":false,"is_disabled":false,"rental_uris":{"android":"levelo://app?vid=de3525d5-e61b-454f-85f9-acba6aa1f9c3","ios":"levelo://app?vid=de3525d5-e61b-454f-85f9-acba6aa1f9c3"},"vehicle_type_id":"4","last_reported":1746838286,"current_range_meters":28400,"station_id":"","pricing_plan_id":"cebpf4jnsgd1na2vs0mg"},{"bike_id":"df0b7799-b5bd-45fc-89c4-782b54d9e9e3","system_id":"levelo_inurba_marseille","lat":43.30945,"lon":5.39052,"is_reserved":false,"is_disabled":false,"rental_uris":{"android":"levelo://app?vid=df0b7799-b5bd-45fc-89c4-782b54d9e9e3","ios":"levelo://app?vid=df0b7799-b5bd-45fc-89c4-782b54d9e9e3"},"vehicle_type_id":"4","last_reported":1746838286,"current_range_meters":28400,"station_id":"ce4bgup2rcd13ifvqco0","pricing_plan_id":"cebpf4jnsgd1na2vs0mg"},{"bike_id":"e37894a5-6840-4cba-ac27-dd35520bb230","system_id":"levelo_inurba_marseille","lat":43.31064,"lon":5.38351,"is_reserved":false,"is_disabled":false,"rental_uris":{"android":"levelo://app?vid=e37894a5-6840-4cba-ac27-dd35520bb230","ios":"levelo://app?vid=e37894a5-6840-4cba-ac27-dd35520bb230"},"vehicle_type_id":"4","last_reported":1746838286,"current_range_meters":28400,"station_id":"ce4bgv92rcd13ifvqcr0","pricing_plan_id":"cebpf4jnsgd1na2vs0mg"},{"bike_id":"a9eddaf6-7ba0-4dac-b67c-ef101994295e","system_id":"levelo_inurba_marseille","lat":43.29012,"lon":5.39988,"is_reserved":false,"is_disabled":false,"rental_uris":{"android":"levelo://app?vid=a9eddaf6-7ba0-4dac-b67c-ef101994295e","ios":"levelo://app?vid=a9eddaf6-7ba0-4dac-b67c-ef101994295e"},"vehicle_type_id":"4","last_reported":1746838286,"current_range_meters":28400,"station_id":"ce4bh392rcd13ifvqdm0","pricing_plan_id":"cebpf4jnsgd1na2vs0mg"},{"bike_id":"b79438d6-aedd-4e4d-9f0f-80bee0de9dc9","system_id":"levelo_inurba_marseille","lat":43.23964,"lon":5.36631,"is_reserved":false,"is_disabled":false,"rental_uris":{"android":"levelo://app?vid=b79438d6-aedd-4e4d-9f0f-80bee0de9dc9","ios":"levelo://app?vid=b79438d6-aedd-4e4d-9f0f-80bee0de9dc9"},"vehicle_type_id":"4","last_reported":1746838286,"current_range_meters":28400,"station_id":"ce4bhi12rcd13ifvqfp0","pricing_plan_id":"cebpf4jnsgd1na2vs0mg"},{"bike_id":"02769d03-bc00-41f1-a2f5-7e7556d9e2e6","system_id":"levelo_inurba_marseille","lat":43.26228,"lon":5.40462,"is_reserved":false,"is_disabled":false,"rental_uris":{"android":"levelo://app?vid=02769d03-bc00-41f1-a2f5-7e7556d9e2e6","ios":"levelo://app?vid=02769d03-bc00-41f1-a2f5-7e7556d9e2e6"},"vehicle_type_id":"4","last_reported":1746838286,"current_range_meters":28400,"station_id":"ce4bhmh2rcd13ifvqgmg","pricing_plan_id":"cebpf4jnsgd1na2vs0mg"},{"bike_id":"1a34e1e5-7198-41f9-a296-9d70a047744e","system_id":"levelo_inurba_marseille","lat":43.322924,"lon":5.382677,"is_reserved":false,"is_disabled":false,"rental_uris":{"android":"levelo://app?vid=1a34e1e5-7198-41f9-a296-9d70a047744e","ios":"levelo://app?vid=1a34e1e5-7198-41f9-a296-9d70a047744e"},"vehicle_type_id":"4","last_reported":1746838286,"current_range_meters":28400,"station_id":"ce4bhr12rcd13ifvqhqg","pricing_plan_id":"cebpf4jnsgd1na2vs0mg"},{"bike_id":"2265988a-4264-4097-9643-bc0cdfc30c82","system_id":"levelo_inurba_marseille","lat":43.314847,"lon":5.373028,"is_reserved":false,"is_disabled":false,"rental_uris":{"android":"levelo://app?vid=2265988a-4264-4097-9643-bc0cdfc30c82","ios":"levelo://app?vid=2265988a-4264-4097-9643-bc0cdfc30c82"},"vehicle_type_id":"4","last_reported":1746838286,"current_range_meters":28800,"station_id":"ce4bgt12rcd13ifvqcd0","pricing_plan_id":"cebpf4jnsgd1na2vs0mg"},{"bike_id":"23b7162c-ed0e-4dbe-8fac-7bdd87f9b2e6","system_id":"levelo_inurba_marseille","lat":43.30908,"lon":5.39658,"is_reserved":false,"is_disabled":false,"rental_uris":{"android":"levelo://app?vid=23b7162c-ed0e-4dbe-8fac-7bdd87f9b2e6","ios":"levelo://app?vid=23b7162c-ed0e-4dbe-8fac-7bdd87f9b2e6"},"vehicle_type_id":"4","last_reported":1746838286,"current_range_meters":28800,"station_id":"ce4bh012rcd13ifvqcv0","pricing_plan_id":"cebpf4jnsgd1na2vs0mg"},{"bike_id":"157f70b3-bcbd-49fb-ab0a-0445d41c5b03","system_id":"levelo_inurba_marseille","lat":43.31274,"lon":5.40168,"is_reserved":false,"is_disabled":false,"rental_uris":{"android":"levelo://app?vid=157f70b3-bcbd-49fb-ab0a-0445d41c5b03","ios":"levelo://app?vid=157f70b3-bcbd-49fb-ab0a-0445d41c5b03"},"vehicle_type_id":"4","last_reported":1746838286,"current_range_meters":28800,"station_id":"ce4bh092rcd13ifvqd30","pricing_plan_id":"cebpf4jnsgd1na2vs0mg"},{"bike_id":"15882dfc-dc5a-4707-9547-f8c03b98f0c1","system_id":"levelo_inurba_marseille","lat":43.28347,"lon":5.38095,"is_reserved":false,"is_disabled":false,"rental_uris":{"android":"levelo://app?vid=15882dfc-dc5a-4707-9547-f8c03b98f0c1","ios":"levelo://app?vid=15882dfc-dc5a-4707-9547-f8c03b98f0c1"},"vehicle_type_id":"4","last_reported":1746838286,"current_range_meters":28800,"station_id":"ce4bh412rcd13ifvqdr0","pricing_plan_id":"cebpf4jnsgd1na2vs0mg"},{"bike_id":"f7ce4e55-ea71-4cea-aa97-fb83b0bc1874","system_id":"levelo_inurba_marseille","lat":43.29971,"lon":5.38495,"is_reserved":false,"is_disabled":false,"rental_uris":{"android":"levelo://app?vid=f7ce4e55-ea71-4cea-aa97-fb83b0bc1874","ios":"levelo://app?vid=f7ce4e55-ea71-4cea-aa97-fb83b0bc1874"},"vehicle_type_id":"4","last_reported":1746838286,"current_range_meters":29600,"station_id":"","pricing_plan_id":"cebpf4jnsgd1na2vs0mg"},{"bike_id":"0d43a784-3b89-4a2e-a3aa-305a6d06d0cc","system_id":"levelo_inurba_marseille","lat":43.302753,"lon":5.372863,"is_reserved":false,"is_disabled":false,"rental_uris":{"android":"levelo://app?vid=0d43a784-3b89-4a2e-a3aa-305a6d06d0cc","ios":"levelo://app?vid=0d43a784-3b89-4a2e-a3aa-305a6d06d0cc"},"vehicle_type_id":"4","last_reported":1746838286,"current_range_meters":29600,"station_id":"","pricing_plan_id":"cebpf4jnsgd1na2vs0mg"},{"bike_id":"21e0c072-2d43-47ea-94c5-df3a60385f27","system_id":"levelo_inurba_marseille","lat":43.3081,"lon":5.38142,"is_reserved":false,"is_disabled":false,"rental_uris":{"android":"levelo://app?vid=21e0c072-2d43-47ea-94c5-df3a60385f27","ios":"levelo://app?vid=21e0c072-2d43-47ea-94c5-df3a60385f27"},"vehicle_type_id":"4","last_reported":1746838286,"current_range_meters":29600,"station_id":"ce4bgt12rcd13ifvqce0","pricing_plan_id":"cebpf4jnsgd1na2vs0mg"},{"bike_id":"ddd6d318-36a1-49f0-b5fa-5829b3cf626a","system_id":"levelo_inurba_marseille","lat":43.31363,"lon":5.38491,"is_reserved":false,"is_disabled":false,"rental_uris":{"android":"levelo://app?vid=ddd6d318-36a1-49f0-b5fa-5829b3cf626a","ios":"levelo://app?vid=ddd6d318-36a1-49f0-b5fa-5829b3cf626a"},"vehicle_type_id":"4","last_reported":1746838286,"current_range_meters":29600,"station_id":"ce4bgt92rcd13ifvqcf0","pricing_plan_id":"cebpf4jnsgd1na2vs0mg"},{"bike_id":"5cddcfd4-f02a-4e01-bced-3fa9eccb1029","system_id":"levelo_inurba_marseille","lat":43.3135,"lon":5.38503,"is_reserved":false,"is_disabled":false,"rental_uris":{"android":"levelo://app?vid=5cddcfd4-f02a-4e01-bced-3fa9eccb1029","ios":"levelo://app?vid=5cddcfd4-f02a-4e01-bced-3fa9eccb1029"},"vehicle_type_id":"4","last_reported":1746838286,"current_range_meters":29600,"station_id":"ce4bgt92rcd13ifvqcf0","pricing_plan_id":"cebpf4jnsgd1na2vs0mg"},{"bike_id":"ed64e06b-1196-40d8-bf9d-1eff6cabf608","system_id":"levelo_inurba_marseille","lat":43.31698,"lon":5.40433,"is_reserved":false,"is_disabled":false,"rental_uris":{"android":"levelo://app?vid=ed64e06b-1196-40d8-bf9d-1eff6cabf608","ios":"levelo://app?vid=ed64e06b-1196-40d8-bf9d-1eff6cabf608"},"vehicle_type_id":"4","last_reported":1746838286,"current_range_meters":29600,"station_id":"ce4bh012rcd13ifvqd00","pricing_plan_id":"cebpf4jnsgd1na2vs0mg"},{"bike_id":"e817003c-852b-4e51-89dd-533f1b02e7cf","system_id":"levelo_inurba_marseille","lat":43.29217,"lon":5.35833,"is_reserved":false,"is_disabled":false,"rental_uris":{"android":"levelo://app?vid=e817003c-852b-4e51-89dd-533f1b02e7cf","ios":"levelo://app?vid=e817003c-852b-4e51-89dd-533f1b02e7cf"},"vehicle_type_id":"4","last_reported":1746838286,"current_range_meters":29600,"station_id":"ce4bhb12rcd13ifvqel0","pricing_plan_id":"cebpf4jnsgd1na2vs0mg"},{"bike_id":"d1c73cb0-e107-4214-96b0-bc0f1fde15a3","system_id":"levelo_inurba_marseille","lat":43.248131,"lon":5.374571,"is_reserved":false,"is_disabled":false,"rental_uris":{"android":"levelo://app?vid=d1c73cb0-e107-4214-96b0-bc0f1fde15a3","ios":"levelo://app?vid=d1c73cb0-e107-4214-96b0-bc0f1fde15a3"},"vehicle_type_id":"4","last_reported":1746838286,"current_range_meters":29600,"station_id":"ce4bhgh2rcd13ifvqfb0","pricing_plan_id":"cebpf4jnsgd1na2vs0mg"},{"bike_id":"3c0f8b37-01b2-4211-a579-bba83663d25f","system_id":"levelo_inurba_marseille","lat":43.26954,"lon":5.38628,"is_reserved":false,"is_disabled":false,"rental_uris":{"android":"levelo://app?vid=3c0f8b37-01b2-4211-a579-bba83663d25f","ios":"levelo://app?vid=3c0f8b37-01b2-4211-a579-bba83663d25f"},"vehicle_type_id":"4","last_reported":1746838286,"current_range_meters":29600,"station_id":"ce4bhh92rcd13ifvqfh0","pricing_plan_id":"cebpf4jnsgd1na2vs0mg"},{"bike_id":"d1f8b19b-8073-4362-9b76-31fd157203ea","system_id":"levelo_inurba_marseille","lat":43.239623,"lon":5.366376,"is_reserved":false,"is_disabled":false,"rental_uris":{"android":"levelo://app?vid=d1f8b19b-8073-4362-9b76-31fd157203ea","ios":"levelo://app?vid=d1f8b19b-8073-4362-9b76-31fd157203ea"},"vehicle_type_id":"4","last_reported":1746838286,"current_range_meters":29600,"station_id":"ce4bhi12rcd13ifvqfp0","pricing_plan_id":"cebpf4jnsgd1na2vs0mg"},{"bike_id":"89204c06-399c-4d99-b830-602c047f6bdb","system_id":"levelo_inurba_marseille","lat":43.27068,"lon":5.42274,"is_reserved":false,"is_disabled":false,"rental_uris":{"android":"levelo://app?vid=89204c06-399c-4d99-b830-602c047f6bdb","ios":"levelo://app?vid=89204c06-399c-4d99-b830-602c047f6bdb"},"vehicle_type_id":"4","last_reported":1746838286,"current_range_meters":29600,"station_id":"ce4bhk92rcd13ifvqgb0","pricing_plan_id":"cebpf4jnsgd1na2vs0mg"},{"bike_id":"0119e595-0399-4b41-be71-936f00d88cba","system_id":"levelo_inurba_marseille","lat":43.25726,"lon":5.41108,"is_reserved":false,"is_disabled":false,"rental_uris":{"android":"levelo://app?vid=0119e595-0399-4b41-be71-936f00d88cba","ios":"levelo://app?vid=0119e595-0399-4b41-be71-936f00d88cba"},"vehicle_type_id":"4","last_reported":1746838286,"current_range_meters":29600,"station_id":"ce4bhkp2rcd13ifvqgd0","pricing_plan_id":"cebpf4jnsgd1na2vs0mg"},{"bike_id":"91f26885-0028-42d5-a10e-755fc77d154a","system_id":"levelo_inurba_marseille","lat":43.28724,"lon":5.3614,"is_reserved":false,"is_disabled":false,"rental_uris":{"android":"levelo://app?vid=91f26885-0028-42d5-a10e-755fc77d154a","ios":"levelo://app?vid=91f26885-0028-42d5-a10e-755fc77d154a"},"vehicle_type_id":"4","last_reported":1746838286,"current_range_meters":29600,"station_id":"cki0cbj6b192h4jlfktg","pricing_plan_id":"cebpf4jnsgd1na2vs0mg"},