{"last_updated":1744049654,"ttl":60,"version":"2.2","data":{"bikes":[{"bike_id":"33726daf-0594-41e6-875c-292575c24d8d","system_id":"levelo_inurba_marseille","lat":43.27076,"lon":5.4228,"is_reserved":false,"is_disabled":false,"rental_uris":{"android":"levelo://app?vid=33726daf-0594-41e6-875c-292575c24d8d","ios":"levelo://app?vid=33726daf-0594-41e6-875c-292575c24d8d"},"vehicle_type_id":"4","last_reported":1744049654,"current_range_meters":2800,"station_id":"ce4bhk92rcd13ifvqgb0","pricing_plan_id":"cebpf4jnsgd1na2vs0mg"},{"bike_id":"b25d9506-9b61-464b-8e22-83c2f4396dbc","system_id":"levelo_inurba_marseille","lat":43.305423,"lon":5.38432,"is_reserved":false,"is_disabled":false,"rental_uris":{"android":"levelo://app?vid=b25d9506-9b61-464b-8e22-83c2f4396dbc","ios":"levelo://app?vid=b25d9506-9b61-464b-8e22-83c2f4396dbc"},"vehicle_type_id":"4","last_reported":1744049654,"current_range_meters":2800,"station_id":"ce4bgg92rcd13ifvqb30","pricing_plan_id":"cebpf4jnsgd1na2vs0mg"},{"bike_id":"01abd31d-ebfc-4a22-b5fd-7f04a40e94c2","system_id":"levelo_inurba_marseille","lat":43.279699,"lon":5.387464,"is_reserved":false,"is_disabled":false,"rental_uris":{"android":"levelo://app?vid=01abd31d-ebfc-4a22-b5fd-7f04a40e94c2","ios":"levelo://app?vid=01abd31d-ebfc-4a22-b5fd-7f04a40e94c2"},"vehicle_type_id":"4","last_reported":1744049654,"current_range_meters":2800,"station_id":"ce4bh5p2rcd13ifvqe4g","pricing_plan_id":"cebpf4jnsgd1na2vs0mg"},{"bike_id":"daf6a452-989a-4adf-8322-03c647d30ee1","system_id":"levelo_inurba_marseille","lat":43.2694,"lon":5.38902,"is_reserved":false,"is_disabled":false,"rental_uris":{"android":"levelo://app?vid=daf6a452-989a-4adf-8322-03c647d30ee1","ios":"levelo://app?vid=daf6a452-989a-4adf-8322-03c647d30ee1"},"vehicle_type_id":"4","last_reported":1744049654,"current_range_meters":2800,"station_id":"ce4bhhh2rcd13ifvqfl0","pricing_plan_id":"cebpf4jnsgd1na2vs0mg"},{"bike_id":"1ca5a621-b74a-4033-b021-dddaa548900a","system_id":"levelo_inurba_marseille","lat":43.29276,"lon":5.40113,"is_reserved":false,"is_disabled":false,"rental_uris":{"android":"levelo://app?vid=1ca5a621-b74a-4033-b021-dddaa548900a","ios":"levelo://app?vid=1ca5a621-b74a-4033-b021-dddaa548900a"},"vehicle_type_id":"4","last_reported":1744049654,"current_range_meters":2800,"station_id":"ce4bh312rcd13ifvqdk0","pricing_plan_id":"cebpf4jnsgd1na2vs0mg"},{"bike_id":"eb79d1f9-7c91-4ea2-b5f8-796189743e1a","system_id":"levelo_inurba_marseille","lat":43.34268,"lon":5.38106,"is_reserved":false,"is_disabled":false,"rental_uris":{"android":"levelo://app?vid=eb79d1f9-7c91-4ea2-b5f8-796189743e1a","ios":"levelo://app?vid=eb79d1f9-7c91-4ea2-b5f8-796189743e1a"},"vehicle_type_id":"4","last_reported":1744049654,"current_range_meters":3200,"station_id":"","pricing_plan_id":"cebpf4jnsgd1na2vs0mg"},{"bike_id":"6bcd1981-cf12-4bae-bbdd-c30cfb519553","system_id":"levelo_inurba_marseille","lat":43.31184,"lon":5.38722,"is_reserved":false,"is_disabled":true,"rental_uris":{"android":"levelo://app?vid=6bcd1981-cf12-4bae-bbdd-c30cfb519553","ios":"levelo://app?vid=6bcd1981-cf12-4bae-bbdd-c30cfb519553"},"vehicle_type_id":"4","last_reported":1744049654,"current_range_meters":3200,"station_id":"ce4bgv12rcd13ifvqcp0","pricing_plan_id":"cebpf4jnsgd1na2vs0mg"},{"bike_id":"4c3dad34-3ce5-45d8-94d4-846d4e68391e","system_id":"levelo_inurba_marseille","lat":43.30354,"lon":5.41878,"is_reserved":false,"is_disabled":false,"rental_uris":{"android":"levelo://app?vid=4c3dad34-3ce5-45d8-94d4-846d4e68391e","ios":"levelo://app?vid=4c3dad34-3ce5-45d8-94d4-846d4e68391e"},"vehicle_type_id":"4","last_reported":1744049654,"current_range_meters":2800,"station_id":"ce4bhop2rcd13ifvqh7g","pricing_plan_id":"cebpf4jnsgd1na2vs0mg"},{"bike_id":"46aaf249-f504-46ae-93ce-7245839b78b5","system_id":"levelo_inurba_marseille","lat":43.2621,"lon":5.37928,"is_reserved":false,"is_disabled":true,"rental_uris":{"android":"levelo://app?vid=46aaf249-f504-46ae-93ce-7245839b78b5","ios":"levelo://app?vid=46aaf249-f504-46ae-93ce-7245839b78b5"},"vehicle_type_id":"4","last_reported":1744049654,"current_range_meters":3200,"station_id":"ce4bhjp2rcd13ifvqg90","pricing_plan_id":"cebpf4jnsgd1na2vs0mg"},{"bike_id":"9774f14c-a0fa-494a-bc2b-3b1a9c7af89c","system_id":"levelo_inurba_marseille","lat":43.3127,"lon":5.40168,"is_reserved":false,"is_disabled":false,"rental_uris":{"android":"levelo://app?vid=9774f14c-a0fa-494a-bc2b-3b1a9c7af89c","ios":"levelo://app?vid=9774f14c-a0fa-494a-bc2b-3b1a9c7af89c"},"vehicle_type_id":"4","last_reported":1744049654,"current_range_meters":3200,"station_id":"ce4bh092rcd13ifvqd30","pricing_plan_id":"cebpf4jnsgd1na2vs0mg"},{"bike_id":"76fa7e12-bd4b-4070-992a-4b4cb7e8cc90","system_id":"levelo_inurba_marseille","lat":43.27947,"lon":5.41046,"is_reserved":false,"is_disabled":false,"rental_uris":{"android":"levelo://app?vid=76fa7e12-bd4b-4070-992a-4b4cb7e8cc90","ios":"levelo://app?vid=76fa7e12-bd4b-4070-992a-4b4cb7e8cc90"},"vehicle_type_id":"4","last_reported":1744049654,"current_range_meters":3200,"station_id":"ce4bhnp2rcd13ifvqh0g","pricing_plan_id":"cebpf4jnsgd1na2vs0mg"},{"bike_id":"783abd7e-fbe6-486d-ad51-0cce10660a45","system_id":"levelo_inurba_marseille","lat":43.29414,"lon":5.38616,"is_reserved":false,"is_disabled":false,"rental_uris":{"android":"levelo://app?vid=783abd7e-fbe6-486d-ad51-0cce10660a45","ios":"levelo://app?vid=783abd7e-fbe6-486d-ad51-0cce10660a45"},"vehicle_type_id":"4","last_reported":1744049654,"current_range_meters":3200,"station_id":"ce4bh2h2rcd13ifvqdh0","pricing_plan_id":"cebpf4jnsgd1na2vs0mg"},{"bike_id":"a04aea4c-13ed-48a3-b06d-b1ddf9b90bfa","system_id":"levelo_inurba_marseille","lat":43.30122,"lon":5.39859,"is_reserved":false,"is_disabled":false,"rental_uris":{"android":"levelo://app?vid=a04aea4c-13ed-48a3-b06d-b1ddf9b90bfa","ios":"levelo://app?vid=a04aea4c-13ed-48a3-b06d-b1ddf9b90bfa"},"vehicle_type_id":"4","last_reported":1744049654,"current_range_meters":3200,"station_id":"ce4bh0h2rcd13ifvqd40","pricing_plan_id":"cebpf4jnsgd1na2vs0mg"},{"bike_id":"3521d852-5b53-4353-ad78-c224147bc535","system_id":"levelo_inurba_marseille","lat":43.282657,"lon":5.35072,"is_reserved":false,"is_disabled":false,"rental_uris":{"android":"levelo://app?vid=3521d852-5b53-4353-ad78-c224147bc535","ios":"levelo://app?vid=3521d852-5b53-4353-ad78-c224147bc535"},"vehicle_type_id":"4","last_reported":1744049654,"current_range_meters":3200,"station_id":"ce4bhbp2rcd13ifvqerg","pricing_plan_id":"cebpf4jnsgd1na2vs0mg"},{"bike_id":"55a413a3-75ad-43b0-b7c5-e20997f5150a","system_id":"levelo_inurba_marseille","lat":43.28139,"lon":5.42624,"is_reserved":false,"is_disabled":false,"rental_uris":{"android":"levelo://app?vid=55a413a3-75ad-43b0-b7c5-e20997f5150a","ios":"levelo://app?vid=55a413a3-75ad-43b0-b7c5-e20997f5150a"},"vehicle_type_id":"4","last_reported":1744049654,"current_range_meters":3600,"station_id":"ce4bhnh2rcd13ifvqgug","pricing_plan_id":"cebpf4jnsgd1na2vs0mg"},{"bike_id":"655de01b-7e70-4bf7-b458-37e1d363d717","system_id":"levelo_inurba_marseille","lat":43.24395,"lon":5.3706,"is_reserved":false,"is_disabled":true,"rental_uris":{"android":"levelo://app?vid=655de01b-7e70-4bf7-b458-37e1d363d717","ios":"levelo://app?vid=655de01b-7e70-4bf7-b458-37e1d363d717"},"vehicle_type_id":"4","last_reported":1744049654,"current_range_meters":3600,"station_id":"ce4bhhh2rcd13ifvqfk0","pricing_plan_id":"cebpf4jnsgd1na2vs0mg"},{"bike_id":"0a276db6-d562-461c-a4d9-1c45774e17fc","system_id":"levelo_inurba_marseille","lat":43.29888,"lon":5.38899,"is_reserved":false,"is_disabled":false,"rental_uris":{"android":"levelo://app?vid=0a276db6-d562-461c-a4d9-1c45774e17fc","ios":"levelo://app?vid=0a276db6-d562-461c-a4d9-1c45774e17fc"},"vehicle_type_id":"4","last_reported":1744049654,"current_range_meters":3600,"station_id":"ce4bh392rcd13ifvqdl0","pricing_plan_id":"cebpf4jnsgd1na2vs0mg"},{"bike_id":"43dae4b5-a23f-4b28-97e6-93280573ec6a","system_id":"levelo_inurba_marseille","lat":43.29597,"lon":5.381,"is_reserved":false,"is_disabled":true,"rental_uris":{"android":"levelo://app?vid=43dae4b5-a23f-4b28-97e6-93280573ec6a","ios":"levelo://app?vid=43dae4b5-a23f-4b28-97e6-93280573ec6a"},"vehicle_type_id":"4","last_reported":1744049654,"current_range_meters":4000,"station_id":"ce4bgl12rcd13ifvqbo0","pricing_plan_id":"cebpf4jnsgd1na2vs0mg"},{"bike_id":"1d7e5fb9-0c30-44d9-91ab-16a81518796c","system_id":"levelo_inurba_marseille","lat":43.29363,"lon":5.37846,"is_reserved":false,"is_disabled":false,"rental_uris":{"android":"levelo://app?vid=1d7e5fb9-0c30-44d9-91ab-16a81518796c","ios":"levelo://app?vid=1d7e5fb9-0c30-44d9-91ab-16a81518796c"},"vehicle_type_id":"4","last_reported":1744049654,"current_range_meters":4000,"station_id":"ce4bgjh2rcd13ifvqbf0","pricing_plan_id":"cebpf4jnsgd1na2vs0mg"},{"bike_id":"485c82af-af38-4059-a5da-d2611aed0ebb","system_id":"levelo_inurba_marseille","lat":43.28462,"lon":5.38446,"is_reserved":false,"is_disabled":false,"rental_uris":{"android":"levelo://app?vid=485c82af-af38-4059-a5da-d2611aed0ebb","ios":"levelo://app?vid=485c82af-af38-4059-a5da-d2611aed0ebb"},"vehicle_type_id":"4","last_reported":1744049654,"current_range_meters":4000,"station_id":"ce4bh512rcd13ifvqe3g","pricing_plan_id":"cebpf4jnsgd1na2vs0mg"},{"bike_id":"cb951067-5421-444d-a9ce-e78a71cf4a92","system_id":"levelo_inurba_marseille","lat":43.29014,"lon":5.38108,"is_reserved":false,"is_disabled":false,"rental_uris":{"android":"levelo://app?vid=cb951067-5421-444d-a9ce-e78a71cf4a92","ios":"levelo://app?vid=cb951067-5421-444d-a9ce-e78a71cf4a92"},"vehicle_type_id":"4","last_reported":1744049654,"current_range_meters":4000,"station_id":"ce4bh4p2rcd13ifvqe1g","pricing_plan_id":"cebpf4jnsgd1na2vs0mg"},{"bike_id":"d8f246d4-63b0-40ac-97f8-ab32d9b8478c","system_id":"levelo_inurba_marseille","lat":43.27368,"lon":5.36251,"is_reserved":false,"is_disabled":true,"rental_uris":{"android":"levelo://app?vid=d8f246d4-63b0-40ac-97f8-ab32d9b8478c","ios":"levelo://app?vid=d8f246d4-63b0-40ac-97f8-ab32d9b8478c"},"vehicle_type_id":"4","last_reported":1744049654,"current_range_meters":4000,"station_id":"ce4bhbh2rcd13ifvqeo0","pricing_plan_id":"cebpf4jnsgd1na2vs0mg"},{"bike_id":"80058bee-30b9-4434-9ce7-b7a782e41994","system_id":"levelo_inurba_marseille","lat":43.27173,"lon":5.40993,"is_reserved":false,"is_disabled":false,"rental_uris":{"android":"levelo://app?vid=80058bee-30b9-4434-9ce7-b7a782e41994","ios":"levelo://app?vid=80058bee-30b9-4434-9ce7-b7a782e41994"},"vehicle_type_id":"4","last_reported":1744049654,"current_range_meters":4000,"station_id":"ce4bhl12rcd13ifvqgf0","pricing_plan_id":"cebpf4jnsgd1na2vs0mg"},{"bike_id":"5ef592c5-416e-4d25-bd0b-14deb2b9b7c1","system_id":"levelo_inurba_marseille","lat":43.27978,"lon":5.38735,"is_reserved":false,"is_disabled":false,"rental_uris":{"android":"levelo://app?vid=5ef592c5-416e-4d25-bd0b-14deb2b9b7c1","ios":"levelo://app?vid=5ef592c5-416e-4d25-bd0b-14deb2b9b7c1"},"vehicle_type_id":"4","last_reported":1744049654,"current_range_meters":4400,"station_id":"ce4bhg12rcd13ifvqf80","pricing_plan_id":"cebpf4jnsgd1na2vs0mg"},{"bike_id":"9168bda5-bf0f-4e98-8a87-855977ced5b6","system_id":"levelo_inurba_marseille","lat":43.27172,"lon":5.41,"is_reserved":false,"is_disabled":false,"rental_uris":{"android":"levelo://app?vid=9168bda5-bf0f-4e98-8a87-855977ced5b6","ios":"levelo://app?vid=9168bda5-bf0f-4e98-8a87-855977ced5b6"},"vehicle_type_id":"4","last_reported":1744049654,"current_range_meters":4000,"station_id":"ce4bhl12rcd13ifvqgf0","pricing_plan_id":"cebpf4jnsgd1na2vs0mg"},{"bike_id":"454ad229-ae8c-47df-9402-1bfe4abd3acd","system_id":"levelo_inurba_marseille","lat":43.28151,"lon":5.426525,"is_reserved":false,"is_disabled":false,"rental_uris":{"android":"levelo://app?vid=454ad229-ae8c-47df-9402-1bfe4abd3acd","ios":"levelo://app?vid=454ad229-ae8c-47df-9402-1bfe4abd3acd"},"vehicle_type_id":"4","last_reported":1744049654,"current_range_meters":4400,"station_id":"ce4bhnh2rcd13ifvqgug","pricing_plan_id":"cebpf4jnsgd1na2vs0mg"},{"bike_id":"e2646fd4-0964-44b6-897a-ad580e2ba6a5","system_id":"levelo_inurba_marseille","lat":43.28418,"lon":5.34982,"is_reserved":false,"is_disabled":false,"rental_uris":{"android":"levelo://app?vid=e2646fd4-0964-44b6-897a-ad580e2ba6a5","ios":"levelo://app?vid=e2646fd4-0964-44b6-897a-ad580e2ba6a5"},"vehicle_type_id":"4","last_reported":1744049654,"current_range_meters":4800,"station_id":"ce4bhbh2rcd13ifvqepg","pricing_plan_id":"cebpf4jnsgd1na2vs0mg"},{"bike_id":"57dab406-bf9a-4055-b1e6-67e3a818ec75","system_id":"levelo_inurba_marseille","lat":43.26211,"lon":5.3744,"is_reserved":false,"is_disabled":false,"rental_uris":{"android":"levelo://app?vid=57dab406-bf9a-4055-b1e6-67e3a818ec75","ios":"levelo://app?vid=57dab406-bf9a-4055-b1e6-67e3a818ec75"},"vehicle_type_id":"4","last_reported":1744049654,"current_range_meters":4800,"station_id":"ce4bhgp2rcd13ifvqfc0","pricing_plan_id":"cebpf4jnsgd1na2vs0mg"},{"bike_id":"f0564cab-4aec-4c99-bdbc-144b6e9cda6e","system_id":"levelo_inurba_marseille","lat":43.24673,"lon":5.3817,"is_reserved":false,"is_disabled":false,"rental_uris":{"android":"levelo://app?vid=f0564cab-4aec-4c99-bdbc-144b6e9cda6e","ios":"levelo://app?vid=f0564cab-4aec-4c99-bdbc-144b6e9cda6e"},"vehicle_type_id":"4","last_reported":1744049654,"current_range_meters":4800,"station_id":"ce4bhih2rcd13ifvqfr0","pricing_plan_id":"cebpf4jnsgd1na2vs0mg"},{"bike_id":"72b9b8a0-1075-4cbe-a5b1-52561db3ba74","system_id":"levelo_inurba_marseille","lat":43.30792,"lon":5.38149,"is_reserved":false,"is_disabled":false,"rental_uris":{"android":"levelo://app?vid=72b9b8a0-1075-4cbe-a5b1-52561db3ba74","ios":"levelo://app?vid=72b9b8a0-1075-4cbe-a5b1-52561db3ba74"},"vehicle_type_id":"4","last_reported":1744049654,"current_range_meters":4400,"station_id":"ce4bgt12rcd13ifvqce0","pricing_plan_id":"cebpf4jnsgd1na2vs0mg"},{"bike_id":"3b68a275-d99d-484e-8664-0ad3148ec759","system_id":"levelo_inurba_marseille","lat":43.28437,"lon":5.39206,"is_reserved":false,"is_disabled":false,"rental_uris":{"android":"levelo://app?vid=3b68a275-d99d-484e-8664-0ad3148ec759","ios":"levelo://app?vid=3b68a275-d99d-484e-8664-0ad3148ec759"},"vehicle_type_id":"4","last_reported":1744049654,"current_range_meters":4400,"station_id":"ce4bhoh2rcd13ifvqh5g","pricing_plan_id":"cebpf4jnsgd1na2vs0mg"},{"bike_id":"f5d4db43-3a12-4756-9a95-baab6e0e7313","system_id":"levelo_inurba_marseille","lat":43.23959,"lon":5.36649,"is_reserved":false,"is_disabled":false,"rental_uris":{"android":"levelo://app?vid=f5d4db43-3a12-4756-9a95-baab6e0e7313","ios":"levelo://app?vid=f5d4db43-3a12-4756-9a95-baab6e0e7313"},"vehicle_type_id":"4","last_reported":1744049654,"current_range_meters":5600,"station_id":"ce4bhi12rcd13ifvqfp0","pricing_plan_id":"cebpf4jnsgd1na2vs0mg"},{"bike_id":"64e85696-7e3d-4c0a-b3a4-39e4c6e457ea","system_id":"levelo_inurba_marseille","lat":43.289406,"lon":5.366418,"is_reserved":false,"is_disabled":false,"rental_uris":{"android":"levelo://app?vid=64e85696-7e3d-4c0a-b3a4-39e4c6e457ea","ios":"levelo://app?vid=64e85696-7e3d-4c0a-b3a4-39e4c6e457ea"},"vehicle_type_id":"4","last_reported":1744049654,"current_range_meters":5600,"station_id":"ce4bhap2rcd13ifvqek0","pricing_plan_id":"cebpf4jnsgd1na2vs0mg"},{"bike_id":"5c841d88-a883-40a0-9442-29e7312159f9","system_id":"levelo_inurba_marseille","lat":43.27171,"lon":5.40993,"is_reserved":false,"is_disabled":false,"rental_uris":{"android":"levelo://app?vid=5c841d88-a883-40a0-9442-29e7312159f9","ios":"levelo://app?vid=5c841d88-a883-40a0-9442-29e7312159f9"},"vehicle_type_id":"4","last_reported":1744049654,"current_range_meters":5600,"station_id":"ce4bhl12rcd13ifvqgf0","pricing_plan_id":"cebpf4jnsgd1na2vs0mg"},{"bike_id":"3986f57a-46fb-4eaf-a160-2d30801543cb","system_id":"levelo_inurba_marseille","lat":43.29624,"lon":5.37745,"is_reserved":false,"is_disabled":false,"rental_uris":{"android":"levelo://app?vid=3986f57a-46fb-4eaf-a160-2d30801543cb","ios":"levelo://app?vid=3986f57a-46fb-4eaf-a160-2d30801543cb"},"vehicle_type_id":"4","last_reported":1744049654,"current_range_meters":5600,"station_id":"ce4bgi92rcd13ifvqb90","pricing_plan_id":"cebpf4jnsgd1na2vs0mg"},{"bike_id":"f85929bf-8ce3-4f64-9a38-f6ea21d51d14","system_id":"levelo_inurba_marseille","lat":43.2804,"lon":5.36947,"is_reserved":false,"is_disabled":false,"rental_uris":{"android":"levelo://app?vid=f85929bf-8ce3-4f64-9a38-f6ea21d51d14","ios":"levelo://app?vid=f85929bf-8ce3-4f64-9a38-f6ea21d51d14"},"vehicle_type_id":"4","last_reported":1744049654,"current_range_meters":6000,"station_id":"ce4bha12rcd13ifvqef0","pricing_plan_id":"cebpf4jnsgd1na2vs0mg"},{"bike_id":"f3a82a8f-9c35-45c4-ba4d-a07bdb15f8b5","system_id":"levelo_inurba_marseille","lat":43.33162,"lon":5.41069,"is_reserved":false,"is_disabled":false,"rental_uris":{"android":"levelo://app?vid=f3a82a8f-9c35-45c4-ba4d-a07bdb15f8b5","ios":"levelo://app?vid=f3a82a8f-9c35-45c4-ba4d-a07bdb15f8b5"},"vehicle_type_id":"4","last_reported":1744049654,"current_range_meters":6000,"station_id":"","pricing_plan_id":"cebpf4jnsgd1na2vs0mg"},{"bike_id":"2a307174-b7ad-403b-a152-c861d8c97e5d","system_id":"levelo_inurba_marseille","lat":43.3024,"lon":5.40035,"is_reserved":false,"is_disabled":false,"rental_uris":{"android":"levelo://app?vid=2a307174-b7ad-403b-a152-c861d8c97e5d","ios":"levelo://app?vid=2a307174-b7ad-403b-a152-c861d8c97e5d"},"vehicle_type_id":"4","last_reported":1744049654,"current_range_meters":6000,"station_id":"ce4bgvh2rcd13ifvqcs0","pricing_plan_id":"cebpf4jnsgd1na2vs0mg"},{"bike_id":"cc769df6-e2a9-4629-b09e-73a97f376e2a","system_id":"levelo_inurba_marseille","lat":43.27812,"lon":5.40711,"is_reserved":false,"is_disabled":false,"rental_uris":{"android":"levelo://app?vid=cc769df6-e2a9-4629-b09e-73a97f376e2a","ios":"levelo://app?vid=cc769df6-e2a9-4629-b09e-73a97f376e2a"},"vehicle_type_id":"4","last_reported":1744049654,"current_range_meters":6000,"station_id":"ce4bhnh2rcd13ifvqgtg","pricing_plan_id":"cebpf4jnsgd1na2vs0mg"},{"bike_id":"bb1f2792-db69-4c36-9ee4-e528c472560d","system_id":"levelo_inurba_marseille","lat":43.28608,"lon":5.39527,"is_reserved":false,"is_disabled":false,"rental_uris":{"android":"levelo://app?vid=bb1f2792-db69-4c36-9ee4-e528c472560d","ios":"levelo://app?vid=bb1f2792-db69-4c36-9ee4-e528c472560d"},"vehicle_type_id":"4","last_reported":1744049654,"current_range_meters":5600,"station_id":"ce4bh292rcd13ifvqdg0","pricing_plan_id":"cebpf4jnsgd1na2vs0mg"},{"bike_id":"4a912298-85bd-4b3f-9204-c845c8615d03","system_id":"levelo_inurba_marseille","lat":43.31103,"lon":5.37762,"is_reserved":false,"is_disabled":false,"rental_uris":{"android":"levelo://app?vid=4a912298-85bd-4b3f-9204-c845c8615d03","ios":"levelo://app?vid=4a912298-85bd-4b3f-9204-c845c8615d03"},"vehicle_type_id":"4","last_reported":1744049654,"current_range_meters":6400,"station_id":"ce4bgt92rcd13ifvqcg0","pricing_plan_id":"cebpf4jnsgd1na2vs0mg"},{"bike_id":"b7723d15-4b7a-4e2a-8a3e-0a66051f1876","system_id":"levelo_inurba_marseille","lat":43.26805,"lon":5.40273,"is_reserved":false,"is_disabled":false,"rental_uris":{"android":"levelo://app?vid=b7723d15-4b7a-4e2a-8a3e-0a66051f1876","ios":"levelo://app?vid=b7723d15-4b7a-4e2a-8a3e-0a66051f1876"},"vehicle_type_id":"4","last_reported":1744049654,"current_range_meters":6400,"station_id":"ce501612rcd8frsf0b60","pricing_plan_id":"cebpf4jnsgd1na2vs0mg"},{"bike_id":"d60ececb-05c0-47c6-a3a6-107f76da89cf","system_id":"levelo_inurba_marseille","lat":43.312714,"lon":5.401762,"is_reserved":false,"is_disabled":false,"rental_uris":{"android":"levelo://app?vid=d60ececb-05c0-47c6-a3a6-107f76da89cf","ios":"levelo://app?vid=d60ececb-05c0-47c6-a3a6-107f76da89cf"},"vehicle_type_id":"4","last_reported":1744049654,"current_range_meters":6400,"station_id":"ce4bh092rcd13ifvqd30","pricing_plan_id":"cebpf4jnsgd1na2vs0mg"},{"bike_id":"00393ee2-317d-4e98-a30d-fd25773ef49f","system_id":"levelo_inurba_marseille","lat":43.35215,"lon":5.357903,"is_reserved":false,"is_disabled":false,"rental_uris":{"android":"levelo://app?vid=00393ee2-317d-4e98-a30d-fd25773ef49f","ios":"levelo://app?vid=00393ee2-317d-4e98-a30d-fd25773ef49f"},"vehicle_type_id":"4","last_reported":1744049654,"current_range_meters":6400,"station_id":"","pricing_plan_id":"cebpf4jnsgd1na2vs0mg"},{"bike_id":"6c4628d1-f91e-4cc4-b3b3-efc62b47f2b6","system_id":"levelo_inurba_marseille","lat":43.29714,"lon":5.37706,"is_reserved":false,"is_disabled":false,"rental_uris":{"android":"levelo://app?vid=6c4628d1-f91e-4cc4-b3b3-efc62b47f2b6","ios":"levelo://app?vid=6c4628d1-f91e-4cc4-b3b3-efc62b47f2b6"},"vehicle_type_id":"4","last_reported":1744049654,"current_range_meters":6400,"station_id":"ce4bgkh2rcd13ifvqbl0","pricing_plan_id":"cebpf4jnsgd1na2vs0mg"},{"bike_id":"40d2f783-fcea-4182-86f8-dc6ff1df2372","system_id":"levelo_inurba_marseille","lat":43.24653,"lon":5.38936,"is_reserved":false,"is_disabled":false,"rental_uris":{"android":"levelo://app?vid=40d2f783-fcea-4182-86f8-dc6ff1df2372","ios":"levelo://app?vid=40d2f783-fcea-4182-86f8-dc6ff1df2372"},"vehicle_type_id":"4","last_reported":1744049654,"current_range_meters":6400,"station_id":"ce4bhg12rcd13ifvqf60","pricing_plan_id":"cebpf4jnsgd1na2vs0mg"},{"bike_id":"892a8b70-f096-4aab-b59d-4282869faee5","system_id":"levelo_inurba_marseille","lat":43.24812,"lon":5.37456,"is_reserved":false,"is_disabled":false,"rental_uris":{"android":"levelo://app?vid=892a8b70-f096-4aab-b59d-4282869faee5","ios":"levelo://app?vid=892a8b70-f096-4aab-b59d-4282869faee5"},"vehicle_type_id":"4","last_reported":1744049654,"current_range_meters":6400,"station_id":"ce4bhgh2rcd13ifvqfb0","pricing_plan_id":"cebpf4jnsgd1na2vs0mg"},{"bike_id":"136b6e45-ee21-453e-aa22-e07947db9071","system_id":"levelo_inurba_marseille","lat":43.23137,"lon":5.43685,"is_reserved":false,"is_disabled":true,"rental_uris":{"android":"levelo://app?vid=136b6e45-ee21-453e-aa22-e07947db9071","ios":"levelo://app?vid=136b6e45-ee21-453e-aa22-e07947db9071"},"vehicle_type_id":"4","last_reported":1744049654,"current_range_meters":6400,"station_id":"ce4bhmp2rcd13ifvqgog","pricing_plan_id":"cebpf4jnsgd1na2vs0mg"},{"bike_id":"4498f76b-e014-4b1a-9115-9d94294106bf","system_id":"levelo_inurba_marseille","lat":43.295,"lon":5.39046,"is_reserved":false,"is_disabled":false,"rental_uris":{"android":"levelo://app?vid=4498f76b-e014-4b1a-9115-9d94294106bf","ios":"levelo://app?vid=4498f76b-e014-4b1a-9115-9d94294106bf"},"vehicle_type_id":"4","last_reported":1744049654,"current_range_meters":6800,"station_id":"ce4bh3p2rcd13ifvqdp0","pricing_plan_id":"cebpf4jnsgd1na2vs0mg"},{"bike_id":"d0181063-2c7a-4b64-af38-0365daefc193","system_id":"levelo_inurba_marseille","lat":43.2844,"lon":5.39204,"is_reserved":false,"is_disabled":false,"rental_uris":{"android":"levelo://app?vid=d0181063-2c7a-4b64-af38-0365daefc193","ios":"levelo://app?vid=d0181063-2c7a-4b64-af38-0365daefc193"},"vehicle_type_id":"4","last_reported":1744049654,"current_range_meters":6800,"station_id":"ce4bhoh2rcd13ifvqh5g","pricing_plan_id":"cebpf4jnsgd1na2vs0mg"},{"bike_id":"aba5e844-f429-4fca-8fbd-34616f5265a2","system_id":"levelo_inurba_marseille","lat":43.2819,"lon":5.42656,"is_reserved":false,"is_disabled":false,"rental_uris":{"android":"levelo://app?vid=aba5e844-f429-4fca-8fbd-34616f5265a2","ios":"levelo://app?vid=aba5e844-f429-4fca-8fbd-34616f5265a2"},"vehicle_type_id":"4","last_reported":1744049654,"current_range_meters":6800,"station_id":"ce4bhnh2rcd13ifvqgug","pricing_plan_id":"cebpf4jnsgd1na2vs0mg"},{"bike_id":"fd031482-ea9b-4376-833e-f47af40aab38","system_id":"levelo_inurba_marseille","lat":43.28428,"lon":5.34975,"is_reserved":false,"is_disabled":false,"rental_uris":{"android":"levelo://app?vid=fd031482-ea9b-4376-833e-f47af40aab38","ios":"levelo://app?vid=fd031482-ea9b-4376-833e-f47af40aab38"},"vehicle_type_id":"4","last_reported":1744049654,"current_range_meters":6800,"station_id":"ce4bhbh2rcd13ifvqepg","pricing_plan_id":"cebpf4jnsgd1na2vs0mg"},{"bike_id":"1df0e799-75c0-43f6-bdcc-f8655eba86a2","system_id":"levelo_inurba_marseille","lat":43.27207,"lon":5.39175,"is_reserved":false,"is_disabled":false,"rental_uris":{"android":"levelo://app?vid=1df0e799-75c0-43f6-bdcc-f8655eba86a2","ios":"levelo://app?vid=1df0e799-75c0-43f6-bdcc-f8655eba86a2"},"vehicle_type_id":"4","last_reported":1744049654,"current_range_meters":6800,"station_id":"ce4bhhp2rcd13ifvqfm0","pricing_plan_id":"cebpf4jnsgd1na2vs0mg"},{"bike_id":"a061eb6d-7b4b-43be-b402-6ce183ce47f3","system_id":"levelo_inurba_marseille","lat":43.27993,"lon":5.41662,"is_reserved":false,"is_disabled":false,"rental_uris":{"android":"levelo://app?vid=a061eb6d-7b4b-43be-b402-6ce183ce47f3","ios":"levelo://app?vid=a061eb6d-7b4b-43be-b402-6ce183ce47f3"},"vehicle_type_id":"4","last_reported":1744049654,"current_range_meters":6800,"station_id":"ce4bho12rcd13ifvqh1g","pricing_plan_id":"cebpf4jnsgd1na2vs0mg"},{"bike_id":"351b921a-1463-4cf6-859d-ca5bd51a6e76","system_id":"levelo_inurba_marseille","lat":43.31838,"lon":5.36872,"is_reserved":false,"is_disabled":false,"rental_uris":{"android":"levelo://app?vid=351b921a-1463-4cf6-859d-ca5bd51a6e76","ios":"levelo://app?vid=351b921a-1463-4cf6-859d-ca5bd51a6e76"},"vehicle_type_id":"4","last_reported":1744049654,"current_range_meters":7200,"station_id":"","pricing_plan_id":"cebpf4jnsgd1na2vs0mg"},{"bike_id":"ccf8f615-75cb-4118-b91e-f056445e0f7e","system_id":"levelo_inurba_marseille","lat":43.29508,"lon":5.39052,"is_reserved":false,"is_disabled":false,"rental_uris":{"android":"levelo://app?vid=ccf8f615-75cb-4118-b91e-f056445e0f7e","ios":"levelo://app?vid=ccf8f615-75cb-4118-b91e-f056445e0f7e"},"vehicle_type_id":"4","last_reported":1744049654,"current_range_meters":6800,"station_id":"ce4bh3p2rcd13ifvqdp0","pricing_plan_id":"cebpf4jnsgd1na2vs0mg"},{"bike_id":"fb89a1c7-cbbf-4fac-bf7b-882c51eec7eb","system_id":"levelo_inurba_marseille","lat":43.28619,"lon":5.35108,"is_reserved":false,"is_disabled":false,"rental_uris":{"android":"levelo://app?vid=fb89a1c7-cbbf-4fac-bf7b-882c51eec7eb","ios":"levelo://app?vid=fb89a1c7-cbbf-4fac-bf7b-882c51eec7eb"},"vehicle_type_id":"4","last_reported":1744049654,"current_range_meters":6800,"station_id":"ce4bhch2rcd13ifvqeug","pricing_plan_id":"cebpf4jnsgd1na2vs0mg"},{"bike_id":"b9c3309a-ae12-44c5-9eb6-54896e42f0ba","system_id":"levelo_inurba_marseille","lat":43.297788,"lon":5.381636,"is_reserved":false,"is_disabled":false,"rental_uris":{"android":"levelo://app?vid=b9c3309a-ae12-44c5-9eb6-54896e42f0ba","ios":"levelo://app?vid=b9c3309a-ae12-44c5-9eb6-54896e42f0ba"},"vehicle_type_id":"4","last_reported":1744049654,"current_range_meters":6400,"station_id":"ce4bgk12rcd13ifvqbi0","pricing_plan_id":"cebpf4jnsgd1na2vs0mg"},{"bike_id":"62b0b982-4aa5-446d-bf0d-2755892b57e7","system_id":"levelo_inurba_marseille","lat":43.290375,"lon":5.358373,"is_reserved":false,"is_disabled":false,"rental_uris":{"android":"levelo://app?vid=62b0b982-4aa5-446d-bf0d-2755892b57e7","ios":"levelo://app?vid=62b0b982-4aa5-446d-bf0d-2755892b57e7"},"vehicle_type_id":"4","last_reported":1744049654,"current_range_meters":7200,"station_id":"ce4bha92rcd13ifvqeh0","pricing_plan_id":"cebpf4jnsgd1na2vs0mg"},{"bike_id":"93d12cf8-09ac-442f-913a-3ef5ed7a13dc","system_id":"levelo_inurba_marseille","lat":43.27097,"lon":5.42287,"is_reserved":false,"is_disabled":false,"rental_uris":{"android":"levelo://app?vid=93d12cf8-09ac-442f-913a-3ef5ed7a13dc","ios":"levelo://app?vid=93d12cf8-09ac-442f-913a-3ef5ed7a13dc"},"vehicle_type_id":"4","last_reported":1744049654,"current_range_meters":7200,"station_id":"ce4bhk92rcd13ifvqgb0","pricing_plan_id":"cebpf4jnsgd1na2vs0mg"},{"bike_id":"49d4a274-49f5-4a28-9469-cb2ed23a3cfa","system_id":"levelo_inurba_marseille","lat":43.29981,"lon":5.3718,"is_reserved":false,"is_disabled":false,"rental_uris":{"android":"levelo://app?vid=49d4a274-49f5-4a28-9469-cb2ed23a3cfa","ios":"levelo://app?vid=49d4a274-49f5-4a28-9469-cb2ed23a3cfa"},"vehicle_type_id":"4","last_reported":1744049654,"current_range_meters":6800,"station_id":"ce4bgr92rcd13ifvqc7g","pricing_plan_id":"cebpf4jnsgd1na2vs0mg"},{"bike_id":"7ae1c95c-1e2c-400a-8efd-618212ebe707","system_id":"levelo_inurba_marseille","lat":43.31539,"lon":5.38044,"is_reserved":false,"is_disabled":false,"rental_uris":{"android":"levelo://app?vid=7ae1c95c-1e2c-400a-8efd-618212ebe707","ios":"levelo://app?vid=7ae1c95c-1e2c-400a-8efd-618212ebe707"},"vehicle_type_id":"4","last_reported":1744049654,"current_range_meters":7200,"station_id":"ce4bhsp2rcd13ifvqi50","pricing_plan_id":"cebpf4jnsgd1na2vs0mg"},{"bike_id":"606675f6-9cae-427a-83c9-8a064752327b","system_id":"levelo_inurba_marseille","lat":43.323609,"lon":5.367498,"is_reserved":false,"is_disabled":false,"rental_uris":{"android":"levelo://app?vid=606675f6-9cae-427a-83c9-8a064752327b","ios":"levelo://app?vid=606675f6-9cae-427a-83c9-8a064752327b"},"vehicle_type_id":"4","last_reported":1744049654,"current_range_meters":7200,"station_id":"ce4bhsh2rcd13ifvqi2g","pricing_plan_id":"cebpf4jnsgd1na2vs0mg"},{"bike_id":"2395bca8-a20d-4937-ae2d-1c5a0b001d4a","system_id":"levelo_inurba_marseille","lat":43.29718,"lon":5.37664,"is_reserved":false,"is_disabled":false,"rental_uris":{"android":"levelo://app?vid=2395bca8-a20d-4937-ae2d-1c5a0b001d4a","ios":"levelo://app?vid=2395bca8-a20d-4937-ae2d-1c5a0b001d4a"},"vehicle_type_id":"4","last_reported":1744049654,"current_range_meters":7200,"station_id":"ce4bgkh2rcd13ifvqbl0","pricing_plan_id":"cebpf4jnsgd1na2vs0mg"},{"bike_id":"6ba20bde-7559-487f-a621-51d11d834989","system_id":"levelo_inurba_marseille","lat":43.30343,"lon":5.40449,"is_reserved":false,"is_disabled":false,"rental_uris":{"android":"levelo://app?vid=6ba20bde-7559-487f-a621-51d11d834989","ios":"levelo://app?vid=6ba20bde-7559-487f-a621-51d11d834989"},"vehicle_type_id":"4","last_reported":1744049654,"current_range_meters":7200,"station_id":"ce4bh012rcd13ifvqd10","pricing_plan_id":"cebpf4jnsgd1na2vs0mg"},{"bike_id":"e43179e7-9ea1-42f1-8703-ea2392df2443","system_id":"levelo_inurba_marseille","lat":43.29419,"lon":5.3863,"is_reserved":false,"is_disabled":false,"rental_uris":{"android":"levelo://app?vid=e43179e7-9ea1-42f1-8703-ea2392df2443","ios":"levelo://app?vid=e43179e7-9ea1-42f1-8703-ea2392df2443"},"vehicle_type_id":"4","last_reported":1744049654,"current_range_meters":8000,"station_id":"ce4bh2h2rcd13ifvqdh0","pricing_plan_id":"cebpf4jnsgd1na2vs0mg"},{"bike_id":"3197b0bf-ab2d-49e1-82fd-109691e437c9","system_id":"levelo_inurba_marseille","lat":43.28459,"lon":5.3589,"is_reserved":false,"is_disabled":false,"rental_uris":{"android":"levelo://app?vid=3197b0bf-ab2d-49e1-82fd-109691e437c9","ios":"levelo://app?vid=3197b0bf-ab2d-49e1-82fd-109691e437c9"},"vehicle_type_id":"4","last_reported":1744049654,"current_range_meters":8000,"station_id":"ce4bhah2rcd13ifvqei0","pricing_plan_id":"cebpf4jnsgd1na2vs0mg"},{"bike_id":"7b30b772-8bed-4dd6-bb6b-36db6de85526","system_id":"levelo_inurba_marseille","lat":43.2991,"lon":5.39756,"is_reserved":false,"is_disabled":false,"rental_uris":{"android":"levelo://app?vid=7b30b772-8bed-4dd6-bb6b-36db6de85526","ios":"levelo://app?vid=7b30b772-8bed-4dd6-bb6b-36db6de85526"},"vehicle_type_id":"4","last_reported":1744049654,"current_range_meters":8000,"station_id":"","pricing_plan_id":"cebpf4jnsgd1na2vs0mg"},{"bike_id":"79ab7e2b-c8a0-4086-a8e4-f12e17aa0560","system_id":"levelo_inurba_marseille","lat":43.30286,"lon":5.37132,"is_reserved":false,"is_disabled":false,"rental_uris":{"android":"levelo://app?vid=79ab7e2b-c8a0-4086-a8e4-f12e17aa0560","ios":"levelo://app?vid=79ab7e2b-c8a0-4086-a8e4-f12e17aa0560"},"vehicle_type_id":"4","last_reported":1744049654,"current_range_meters":8000,"station_id":"","pricing_plan_id":"cebpf4jnsgd1na2vs0mg"},{"bike_id":"c3e6d442-6282-4c88-9f90-93d85aff9e76","system_id":"levelo_inurba_marseille","lat":43.28178,"lon":5.42687,"is_reserved":false,"is_disabled":false,"rental_uris":{"android":"levelo://app?vid=c3e6d442-6282-4c88-9f90-93d85aff9e76","ios":"levelo://app?vid=c3e6d442-6282-4c88-9f90-93d85aff9e76"},"vehicle_type_id":"4","last_reported":1744049654,"current_range_meters":8000,"station_id":"ce4bhnh2rcd13ifvqgug","pricing_plan_id":"cebpf4jnsgd1na2vs0mg"},{"bike_id":"78e4d4d6-0053-48cf-aa0f-2ab46a65e0e7","system_id":"levelo_inurba_marseille","lat":43.296315,"lon":5.377108,"is_reserved":false,"is_disabled":false,"rental_uris":{"android":"levelo://app?vid=78e4d4d6-0053-48cf-aa0f-2ab46a65e0e7","ios":"levelo://app?vid=78e4d4d6-0053-48cf-aa0f-2ab46a65e0e7"},"vehicle_type_id":"4","last_reported":1744049654,"current_range_meters":7200,"station_id":"ce4bguh2rcd13ifvqckg","pricing_plan_id":"cebpf4jnsgd1na2vs0mg"},{"bike_id":"909e2664-11bd-4df8-bebf-6eff5570fba4","system_id":"levelo_inurba_marseille","lat":43.29427,"lon":5.38627,"is_reserved":false,"is_disabled":false,"rental_uris":{"android":"levelo://app?vid=909e2664-11bd-4df8-bebf-6eff5570fba4","ios":"levelo://app?vid=909e2664-11bd-4df8-bebf-6eff5570fba4"},"vehicle_type_id":"4","last_reported":1744049654,"current_range_meters":8000,"station_id":"ce4bh2h2rcd13ifvqdh0","pricing_plan_id":"cebpf4jnsgd1na2vs0mg"},{"bike_id":"7c49e682-e77e-4b13-b7aa-05698060056c","system_id":"levelo_inurba_marseille","lat":43.28846,"lon":5.35861,"is_reserved":false,"is_disabled":false,"rental_uris":{"android":"levelo://app?vid=7c49e682-e77e-4b13-b7aa-05698060056c","ios":"levelo://app?vid=7c49e682-e77e-4b13-b7aa-05698060056c"},"vehicle_type_id":"4","last_reported":1744049654,"current_range_meters":8000,"station_id":"ce4bhb12rcd13ifvqem0","pricing_plan_id":"cebpf4jnsgd1na2vs0mg"},{"bike_id":"8a38320c-a733-4cf5-8c8e-152497fe8f8f","system_id":"levelo_inurba_marseille","lat":43.27919,"lon":5.42641,"is_reserved":false,"is_disabled":false,"rental_uris":{"android":"levelo://app?vid=8a38320c-a733-4cf5-8c8e-152497fe8f8f","ios":"levelo://app?vid=8a38320c-a733-4cf5-8c8e-152497fe8f8f"},"vehicle_type_id":"4","last_reported":1744049654,"current_range_meters":8400,"station_id":"","pricing_plan_id":"cebpf4jnsgd1na2vs0mg"},{"bike_id":"014bf0c2-7c78-4502-8137-3281d7ce487a","system_id":"levelo_inurba_marseille","lat":43.29411,"lon":5.38624,"is_reserved":false,"is_disabled":false,"rental_uris":{"android":"levelo://app?vid=014bf0c2-7c78-4502-8137-3281d7ce487a","ios":"levelo://app?vid=014bf0c2-7c78-4502-8137-3281d7ce487a"},"vehicle_type_id":"4","last_reported":1744049654,"current_range_meters":8400,"station_id":"ce4bh2h2rcd13ifvqdh0","pricing_plan_id":"cebpf4jnsgd1na2vs0mg"},{"bike_id":"3a6cf4dd-4a04-48a6-bbfb-6b1ea18759b5","system_id":"levelo_inurba_marseille","lat":43.32379,"lon":5.36767,"is_reserved":false,"is_disabled":false,"rental_uris":{"android":"levelo://app?vid=3a6cf4dd-4a04-48a6-bbfb-6b1ea18759b5","ios":"levelo://app?vid=3a6cf4dd-4a04-48a6-bbfb-6b1ea18759b5"},"vehicle_type_id":"4","last_reported":1744049654,"current_range_meters":8400,"station_id":"ce4bhsh2rcd13ifvqi2g","pricing_plan_id":"cebpf4jnsgd1na2vs0mg"},{"bike_id":"6b770536-e0ee-4074-a4d5-7fac1065bae9","system_id":"levelo_inurba_marseille","lat":43.337275,"lon":5.391855,"is_reserved":false,"is_disabled":false,"rental_uris":{"android":"levelo://app?vid=6b770536-e0ee-4074-a4d5-7fac1065bae9","ios":"levelo://app?vid=6b770536-e0ee-4074-a4d5-7fac1065bae9"},"vehicle_type_id":"4","last_reported":1744049654,"current_range_meters":8400,"station_id":"ce4bhr92rcd13ifvqhsg","pricing_plan_id":"cebpf4jnsgd1na2vs0mg"},{"bike_id":"84664750-914f-4773-92f0-ec08ad702917","system_id":"levelo_inurba_marseille","lat":43.26969,"lon":5.36612,"is_reserved":false,"is_disabled":false,"rental_uris":{"android":"levelo://app?vid=84664750-914f-4773-92f0-ec08ad702917","ios":"levelo://app?vid=84664750-914f-4773-92f0-ec08ad702917"},"vehicle_type_id":"4","last_reported":1744049654,"current_range_meters":8400,"station_id":"ce4bgvp2rcd13ifvqcu0","pricing_plan_id":"cebpf4jnsgd1na2vs0mg"},{"bike_id":"f3b83e8a-c65f-4f5d-8899-2b84c089f530","system_id":"levelo_inurba_marseille","lat":43.32098,"lon":5.36772,"is_reserved":false,"is_disabled":false,"rental_uris":{"android":"levelo://app?vid=f3b83e8a-c65f-4f5d-8899-2b84c089f530","ios":"levelo://app?vid=f3b83e8a-c65f-4f5d-8899-2b84c089f530"},"vehicle_type_id":"4","last_reported":1744049654,"current_range_meters":8400,"station_id":"ce4bhrh2rcd13ifvqhug","pricing_plan_id":"cebpf4jnsgd1na2vs0mg"},{"bike_id":"4fc4702f-e0fb-497f-b9d1-6af7a0770551","system_id":"levelo_inurba_marseille","lat":43.307984,"lon":5.381571,"is_reserved":false,"is_disabled":false,"rental_uris":{"android":"levelo://app?vid=4fc4702f-e0fb-497f-b9d1-6af7a0770551","ios":"levelo://app?vid=4fc4702f-e0fb-497f-b9d1-6af7a0770551"},"vehicle_type_id":"4","last_reported":1744049654,"current_range_meters":8400,"station_id":"ce4bgt12rcd13ifvqce0","pricing_plan_id":"cebpf4jnsgd1na2vs0mg"},{"bike_id":"a959694d-18ce-4d80-917f-23c91ed81065","system_id":"levelo_inurba_marseille","lat":43.2992,"lon":5.4368,"is_reserved":false,"is_disabled":false,"rental_uris":{"android":"levelo://app?vid=a959694d-18ce-4d80-917f-23c91ed81065","ios":"levelo://app?vid=a959694d-18ce-4d80-917f-23c91ed81065"},"vehicle_type_id":"4","last_reported":1744049654,"current_range_meters":8400,"station_id":"ce4bhpp2rcd13ifvqhfg","pricing_plan_id":"cebpf4jnsgd1na2vs0mg"},{"bike_id":"516d1131-8d22-4c00-9743-8f8296b9be79","system_id":"levelo_inurba_marseille","lat":43.25507,"lon":5.37703,"is_reserved":false,"is_disabled":true,"rental_uris":{"android":"levelo://app?vid=516d1131-8d22-4c00-9743-8f8296b9be79","ios":"levelo://app?vid=516d1131-8d22-4c00-9743-8f8296b9be79"},"vehicle_type_id":"4","last_reported":1744049654,"current_range_meters":8400,"station_id":"ce4bhh12rcd13ifvqff0","pricing_plan_id":"cebpf4jnsgd1na2vs0mg"},{"bike_id":"4771d1ef-2789-4bcc-b934-15605702020a","system_id":"levelo_inurba_marseille","lat":43.273698,"lon":5.362623,"is_reserved":false,"is_disabled":false,"rental_uris":{"android":"levelo://app?vid=4771d1ef-2789-4bcc-b934-15605702020a","ios":"levelo://app?vid=4771d1ef-2789-4bcc-b934-15605702020a"},"vehicle_type_id":"4","last_reported":1744049654,"current_range_meters":8400,"station_id":"ce4bhbh2rcd13ifvqeo0","pricing_plan_id":"cebpf4jnsgd1na2vs0mg"},{"bike_id":"73276e73-379c-4215-bfe8-0a4cdf26f8fb","system_id":"levelo_inurba_marseille","lat":43.273815,"lon":5.3625,"is_reserved":false,"is_disabled":true,"rental_uris":{"android":"levelo://app?vid=73276e73-379c-4215-bfe8-0a4cdf26f8fb","ios":"levelo://app?vid=73276e73-379c-4215-bfe8-0a4cdf26f8fb"},"vehicle_type_id":"4","last_reported":1744049654,"current_range_meters":8400,"station_id":"ce4bhbh2rcd13ifvqeo0","pricing_plan_id":"cebpf4jnsgd1na2vs0mg"},{"bike_id":"fb6acf77-1e74-4888-b654-d015099aa74e","system_id":"levelo_inurba_marseille","lat":43.28942,"lon":5.36634,"is_reserved":false,"is_disabled":false,"rental_uris":{"android":"levelo://app?vid=fb6acf77-1e74-4888-b654-d015099aa74e","ios":"levelo://app?vid=fb6acf77-1e74-4888-b654-d015099aa74e"},"vehicle_type_id":"4","last_reported":1744049654,"current_range_meters":8400,"station_id":"ce4bhap2rcd13ifvqek0","pricing_plan_id":"cebpf4jnsgd1na2vs0mg"},{"bike_id":"e421937b-e099-4a2e-8300-8f68f33b2de0","system_id":"levelo_inurba_marseille","lat":43.292948,"lon":5.374669,"is_reserved":false,"is_disabled":false,"rental_uris":{"android":"levelo://app?vid=e421937b-e099-4a2e-8300-8f68f33b2de0","ios":"levelo://app?vid=e421937b-e099-4a2e-8300-8f68f33b2de0"},"vehicle_type_id":"4","last_reported":1744049654,"current_range_meters":8000,"station_id":"ce4bgi12rcd13ifvqb70","pricing_plan_id":"cebpf4jnsgd1na2vs0mg"},{"bike_id":"9bfd2743-0789-4937-9946-b05cb9e27bf7","system_id":"levelo_inurba_marseille","lat":43.29539,"lon":5.38552,"is_reserved":false,"is_disabled":false,"rental_uris":{"android":"levelo://app?vid=9bfd2743-0789-4937-9946-b05cb9e27bf7","ios":"levelo://app?vid=9bfd2743-0789-4937-9946-b05cb9e27bf7"},"vehicle_type_id":"4","last_reported":1744049654,"current_range_meters":8800,"station_id":"ce4bgih2rcd13ifvqba0","pricing_plan_id":"cebpf4jnsgd1na2vs0mg"},{"bike_id":"886b0a85-89c3-4bb8-88e9-bb3b18e406ae","system_id":"levelo_inurba_marseille","lat":43.24073,"lon":5.37763,"is_reserved":false,"is_disabled":false,"rental_uris":{"android":"levelo://app?vid=886b0a85-89c3-4bb8-88e9-bb3b18e406ae","ios":"levelo://app?vid=886b0a85-89c3-4bb8-88e9-bb3b18e406ae"},"vehicle_type_id":"4","last_reported":1744049654,"current_range_meters":8800,"station_id":"ce4bhnp2rcd13ifvqgvg","pricing_plan_id":"cebpf4jnsgd1na2vs0mg"},{"bike_id":"2b7755cb-a0e4-454a-881c-7b111a9ab34f","system_id":"levelo_inurba_marseille","lat":43.29372,"lon":5.37836,"is_reserved":false,"is_disabled":false,"rental_uris":{"android":"levelo://app?vid=2b7755cb-a0e4-454a-881c-7b111a9ab34f","ios":"levelo://app?vid=2b7755cb-a0e4-454a-881c-7b111a9ab34f"},"vehicle_type_id":"4","last_reported":1744049654,"current_range_meters":8800,"station_id":"ce4bgjh2rcd13ifvqbf0","pricing_plan_id":"cebpf4jnsgd1na2vs0mg"},{"bike_id":"755acd57-59ea-49ed-ad6a-698107bd5c37","system_id":"levelo_inurba_marseille","lat":43.32361,"lon":5.36755,"is_reserved":false,"is_disabled":false,"rental_uris":{"android":"levelo://app?vid=755acd57-59ea-49ed-ad6a-698107bd5c37","ios":"levelo://app?vid=755acd57-59ea-49ed-ad6a-698107bd5c37"},"vehicle_type_id":"4","last_reported":1744049654,"current_range_meters":8800,"station_id":"ce4bhsh2rcd13ifvqi2g","pricing_plan_id":"cebpf4jnsgd1na2vs0mg"},{"bike_id":"e973de3c-0913-4ed0-ac6e-7648e98f8d97","system_id":"levelo_inurba_marseille","lat":43.24809,"lon":5.37454,"is_reserved":false,"is_disabled":false,"rental_uris":{"android":"levelo://app?vid=e973de3c-0913-4ed0-ac6e-7648e98f8d97","ios":"levelo://app?vid=e973de3c-0913-4ed0-ac6e-7648e98f8d97"},"vehicle_type_id":"4","last_reported":1744049654,"current_range_meters":8800,"station_id":"ce4bhgh2rcd13ifvqfb0","pricing_plan_id":"cebpf4jnsgd1na2vs0mg"},{"bike_id":"71087a5b-02b6-4a46-932a-009561f906a3","system_id":"levelo_inurba_marseille","lat":43.28892,"lon":5.36526,"is_reserved":false,"is_disabled":true,"rental_uris":{"android":"levelo://app?vid=71087a5b-02b6-4a46-932a-009561f906a3","ios":"levelo://app?vid=71087a5b-02b6-4a46-932a-009561f906a3"},"vehicle_type_id":"4","last_reported":1744049654,"current_range_meters":8800,"station_id":"","pricing_plan_id":"cebpf4jnsgd1na2vs0mg"},{"bike_id":"d3347dfc-82a5-43e9-a4cc-6141daafe75c","system_id":"levelo_inurba_marseille","lat":43.24075,"lon":5.37754,"is_reserved":false,"is_disabled":false,"rental_uris":{"android":"levelo://app?vid=d3347dfc-82a5-43e9-a4cc-6141daafe75c","ios":"levelo://app?vid=d3347dfc-82a5-43e9-a4cc-6141daafe75c"},"vehicle_type_id":"4","last_reported":1744049654,"current_range_meters":8400,"station_id":"ce4bhnp2rcd13ifvqgvg","pricing_plan_id":"cebpf4jnsgd1na2vs0mg"},{"bike_id":"e223670b-5545-4017-934f-c2adf2f3c08b","system_id":"levelo_inurba_marseille","lat":43.2707,"lon":5.42281,"is_reserved":false,"is_disabled":false,"rental_uris":{"android":"levelo://app?vid=e223670b-5545-4017-934f-c2adf2f3c08b","ios":"levelo://app?vid=e223670b-5545-4017-934f-c2adf2f3c08b"},"vehicle_type_id":"4","last_reported":1744049654,"current_range_meters":8800,"station_id":"ce4bhk92rcd13ifvqgb0","pricing_plan_id":"cebpf4jnsgd1na2vs0mg"},{"bike_id":"21ad2b20-e326-40c8-a3d6-b2092488dc26","system_id":"levelo_inurba_marseille","lat":43.2439,"lon":5.37011,"is_reserved":false,"is_disabled":false,"rental_uris":{"android":"levelo://app?vid=21ad2b20-e326-40c8-a3d6-b2092488dc26","ios":"levelo://app?vid=21ad2b20-e326-40c8-a3d6-b2092488dc26"},"vehicle_type_id":"4","last_reported":1744049654,"current_range_meters":8800,"station_id":"","pricing_plan_id":"cebpf4jnsgd1na2vs0mg"},{"bike_id":"08e4998a-1903-4cbe-92e4-a068e610e269","system_id":"levelo_inurba_marseille","lat":43.28608,"lon":5.3511,"is_reserved":false,"is_disabled":false,"rental_uris":{"android":"levelo://app?vid=08e4998a-1903-4cbe-92e4-a068e610e269","ios":"levelo://app?vid=08e4998a-1903-4cbe-92e4-a068e610e269"},"vehicle_type_id":"4","last_reported":1744049654,"current_range_meters":9200,"station_id":"ce4bhch2rcd13ifvqeug","pricing_plan_id":"cebpf4jnsgd1na2vs0mg"},{"bike_id":"4f9035ff-8f54-4f29-9066-ebc9ba8e1dd8","system_id":"levelo_inurba_marseille","lat":43.284873,"lon":5.375707,"is_reserved":false,"is_disabled":false,"rental_uris":{"android":"levelo://app?vid=4f9035ff-8f54-4f29-9066-ebc9ba8e1dd8","ios":"levelo://app?vid=4f9035ff-8f54-4f29-9066-ebc9ba8e1dd8"},"vehicle_type_id":"4","last_reported":1744049654,"current_range_meters":9200,"station_id":"","pricing_plan_id":"cebpf4jnsgd1na2vs0mg"},{"bike_id":"b23b9655-e473-456b-9ad4-83de4968d0ee","system_id":"levelo_inurba_marseille","lat":43.288665,"lon":5.358493,"is_reserved":false,"is_disabled":false,"rental_uris":{"android":"levelo://app?vid=b23b9655-e473-456b-9ad4-83de4968d0ee","ios":"levelo://app?vid=b23b9655-e473-456b-9ad4-83de4968d0ee"},"vehicle_type_id":"4","last_reported":1744049654,"current_range_meters":9200,"station_id":"ce4bhb12rcd13ifvqem0","pricing_plan_id":"cebpf4jnsgd1na2vs0mg"},{"bike_id":"87bda883-ac94-49fc-94c2-3a86e52b4f97","system_id":"levelo_inurba_marseille","lat":43.307303,"lon":5.383484,"is_reserved":false,"is_disabled":false,"rental_uris":{"android":"levelo://app?vid=87bda883-ac94-49fc-94c2-3a86e52b4f97","ios":"levelo://app?vid=87bda883-ac94-49fc-94c2-3a86e52b4f97"},"vehicle_type_id":"4","last_reported":1744049654,"current_range_meters":9200,"station_id":"","pricing_plan_id":"cebpf4jnsgd1na2vs0mg"},{"bike_id":"1a58a830-97d6-479c-b929-678336cf052d","system_id":"levelo_inurba_marseille","lat":43.31082,"lon":5.38369,"is_reserved":false,"is_disabled":false,"rental_uris":{"android":"levelo://app?vid=1a58a830-97d6-479c-b929-678336cf052d","ios":"levelo://app?vid=1a58a830-97d6-479c-b929-678336cf052d"},"vehicle_type_id":"4","last_reported":1744049654,"current_range_meters":9200,"station_id":"ce4bgv92rcd13ifvqcr0","pricing_plan_id":"cebpf4jnsgd1na2vs0mg"},{"bike_id":"298e8aa8-f36d-4aed-bfec-3855b68a7d9b","system_id":"levelo_inurba_marseille","lat":43.24071,"lon":5.37771,"is_reserved":false,"is_disabled":false,"rental_uris":{"android":"levelo://app?vid=298e8aa8-f36d-4aed-bfec-3855b68a7d9b","ios":"levelo://app?vid=298e8aa8-f36d-4aed-bfec-3855b68a7d9b"},"vehicle_type_id":"4","last_reported":1744049654,"current_range_meters":9200,"station_id":"ce4bhnp2rcd13ifvqgvg","pricing_plan_id":"cebpf4jnsgd1na2vs0mg"},{"bike_id":"9c4a69b5-6dd6-414d-97f5-1cb3f8869e9e","system_id":"levelo_inurba_marseille","lat":43.28263,"lon":5.35065,"is_reserved":false,"is_disabled":false,"rental_uris":{"android":"levelo://app?vid=9c4a69b5-6dd6-414d-97f5-1cb3f8869e9e","ios":"levelo://app?vid=9c4a69b5-6dd6-414d-97f5-1cb3f8869e9e"},"vehicle_type_id":"4","last_reported":1744049654,"current_range_meters":9200,"station_id":"ce4bhbp2rcd13ifvqerg","pricing_plan_id":"cebpf4jnsgd1na2vs0mg"},{"bike_id":"e8c2c0e7-e799-456b-b848-1987756806e2","system_id":"levelo_inurba_marseille","lat":43.25096,"lon":5.39508,"is_reserved":false,"is_disabled":false,"rental_uris":{"android":"levelo://app?vid=e8c2c0e7-e799-456b-b848-1987756806e2","ios":"levelo://app?vid=e8c2c0e7-e799-456b-b848-1987756806e2"},"vehicle_type_id":"4","last_reported":1744049654,"current_range_meters":9200,"station_id":"ce4bhm12rcd13ifvqgkg","pricing_plan_id":"cebpf4jnsgd1na2vs0mg"},{"bike_id":"dc373a8f-2fb5-45d6-8f67-bcb08a32e91a","system_id":"levelo_inurba_marseille","lat":43.28855,"lon":5.3933,"is_reserved":false,"is_disabled":true,"rental_uris":{"android":"levelo://app?vid=dc373a8f-2fb5-45d6-8f67-bcb08a32e91a","ios":"levelo://app?vid=dc373a8f-2fb5-45d6-8f67-bcb08a32e91a"},"vehicle_type_id":"4","last_reported":1744049654,"current_range_meters":9200,"station_id":"ce4bh2p2rcd13ifvqdi0","pricing_plan_id":"cebpf4jnsgd1na2vs0mg"},{"bike_id":"de0e4ce4-b5e7-4884-9f7b-7fa35cc8048d","system_id":"levelo_inurba_marseille","lat":43.29028,"lon":5.38633,"is_reserved":false,"is_disabled":false,"rental_uris":{"android":"levelo://app?vid=de0e4ce4-b5e7-4884-9f7b-7fa35cc8048d","ios":"levelo://app?vid=de0e4ce4-b5e7-4884-9f7b-7fa35cc8048d"},"vehicle_type_id":"4","last_reported":1744049654,"current_range_meters":9200,"station_id":"ce4bh4p2rcd13ifvqe0g","pricing_plan_id":"cebpf4jnsgd1na2vs0mg"},{"bike_id":"cf26a141-928f-4dc2-9bbb-ff06956c6b28","system_id":"levelo_inurba_marseille","lat":43.29416,"lon":5.38635,"is_reserved":false,"is_disabled":false,"rental_uris":{"android":"levelo://app?vid=cf26a141-928f-4dc2-9bbb-ff06956c6b28","ios":"levelo://app?vid=cf26a141-928f-4dc2-9bbb-ff06956c6b28"},"vehicle_type_id":"4","last_reported":1744049654,"current_range_meters":9200,"station_id":"ce4bh2h2rcd13ifvqdh0","pricing_plan_id":"cebpf4jnsgd1na2vs0mg"},{"bike_id":"ff0b2453-2fbb-467c-80b5-41964aa97aa4","system_id":"levelo_inurba_marseille","lat":43.310746,"lon":5.383204,"is_reserved":false,"is_disabled":false,"rental_uris":{"android":"levelo://app?vid=ff0b2453-2fbb-467c-80b5-41964aa97aa4","ios":"levelo://app?vid=ff0b2453-2fbb-467c-80b5-41964aa97aa4"},"vehicle_type_id":"4","last_reported":1744049654,"current_range_meters":9200,"station_id":"ce4bgv92rcd13ifvqcr0","pricing_plan_id":"cebpf4jnsgd1na2vs0mg"},{"bike_id":"6d59871d-a2bb-46af-a9c2-81186c24fbb2","system_id":"levelo_inurba_marseille","lat":43.26934,"lon":5.38921,"is_reserved":false,"is_disabled":false,"rental_uris":{"android":"levelo://app?vid=6d59871d-a2bb-46af-a9c2-81186c24fbb2","ios":"levelo://app?vid=6d59871d-a2bb-46af-a9c2-81186c24fbb2"},"vehicle_type_id":"4","last_reported":1744049654,"current_range_meters":9200,"station_id":"ce4bhhh2rcd13ifvqfl0","pricing_plan_id":"cebpf4jnsgd1na2vs0mg"},{"bike_id":"bfe0f738-04ba-4092-8bcc-23596a10bafb","system_id":"levelo_inurba_marseille","lat":43.26683,"lon":5.38276,"is_reserved":false,"is_disabled":false,"rental_uris":{"android":"levelo://app?vid=bfe0f738-04ba-4092-8bcc-23596a10bafb","ios":"levelo://app?vid=bfe0f738-04ba-4092-8bcc-23596a10bafb"},"vehicle_type_id":"4","last_reported":1744049654,"current_range_meters":9600,"station_id":"ce4bhg92rcd13ifvqf90","pricing_plan_id":"cebpf4jnsgd1na2vs0mg"},{"bike_id":"17d99dfd-747a-4c52-ac39-e535d04d1d82","system_id":"levelo_inurba_marseille","lat":43.28854,"lon":5.35853,"is_reserved":false,"is_disabled":false,"rental_uris":{"android":"levelo://app?vid=17d99dfd-747a-4c52-ac39-e535d04d1d82","ios":"levelo://app?vid=17d99dfd-747a-4c52-ac39-e535d04d1d82"},"vehicle_type_id":"4","last_reported":1744049654,"current_range_meters":9600,"station_id":"ce4bhb12rcd13ifvqem0","pricing_plan_id":"cebpf4jnsgd1na2vs0mg"},{"bike_id":"db77aa95-72db-470c-9c43-5322da612de8","system_id":"levelo_inurba_marseille","lat":43.31811,"lon":5.40187,"is_reserved":false,"is_disabled":false,"rental_uris":{"android":"levelo://app?vid=db77aa95-72db-470c-9c43-5322da612de8","ios":"levelo://app?vid=db77aa95-72db-470c-9c43-5322da612de8"},"vehicle_type_id":"4","last_reported":1744049654,"current_range_meters":9600,"station_id":"","pricing_plan_id":"cebpf4jnsgd1na2vs0mg"},{"bike_id":"cc057f14-b1e1-4dee-b107-8741c01c5964","system_id":"levelo_inurba_marseille","lat":43.32092,"lon":5.36784,"is_reserved":false,"is_disabled":true,"rental_uris":{"android":"levelo://app?vid=cc057f14-b1e1-4dee-b107-8741c01c5964","ios":"levelo://app?vid=cc057f14-b1e1-4dee-b107-8741c01c5964"},"vehicle_type_id":"4","last_reported":1744049654,"current_range_meters":9600,"station_id":"ce4bhrh2rcd13ifvqhug","pricing_plan_id":"cebpf4jnsgd1na2vs0mg"},{"bike_id":"61e73022-1944-49b2-9c9a-c265459b8929","system_id":"levelo_inurba_marseille","lat":43.275342,"lon":5.359942,"is_reserved":false,"is_disabled":false,"rental_uris":{"android":"levelo://app?vid=61e73022-1944-49b2-9c9a-c265459b8929","ios":"levelo://app?vid=61e73022-1944-49b2-9c9a-c265459b8929"},"vehicle_type_id":"4","last_reported":1744049654,"current_range_meters":9600,"station_id":"ce4bgj92rcd13ifvqbe0","pricing_plan_id":"cebpf4jnsgd1na2vs0mg"},{"bike_id":"9bfd3ff6-084b-4c17-a7ee-b7c98d071a3b","system_id":"levelo_inurba_marseille","lat":43.27659,"lon":5.38898,"is_reserved":false,"is_disabled":false,"rental_uris":{"android":"levelo://app?vid=9bfd3ff6-084b-4c17-a7ee-b7c98d071a3b","ios":"levelo://app?vid=9bfd3ff6-084b-4c17-a7ee-b7c98d071a3b"},"vehicle_type_id":"4","last_reported":1744049654,"current_range_meters":9600,"station_id":"ce4bhi12rcd13ifvqfo0","pricing_plan_id":"cebpf4jnsgd1na2vs0mg"},{"bike_id":"a5ba63a0-3a59-4706-aaf2-152024cf9204","system_id":"levelo_inurba_marseille","lat":43.292,"lon":5.39326,"is_reserved":false,"is_disabled":false,"rental_uris":{"android":"levelo://app?vid=a5ba63a0-3a59-4706-aaf2-152024cf9204","ios":"levelo://app?vid=a5ba63a0-3a59-4706-aaf2-152024cf9204"},"vehicle_type_id":"4","last_reported":1744049654,"current_range_meters":9600,"station_id":"ce4bh192rcd13ifvqdd0","pricing_plan_id":"cebpf4jnsgd1na2vs0mg"},{"bike_id":"8c2b79eb-d21b-4d71-b618-90f0979a1f04","system_id":"levelo_inurba_marseille","lat":43.31111,"lon":5.37765,"is_reserved":false,"is_disabled":false,"rental_uris":{"android":"levelo://app?vid=8c2b79eb-d21b-4d71-b618-90f0979a1f04","ios":"levelo://app?vid=8c2b79eb-d21b-4d71-b618-90f0979a1f04"},"vehicle_type_id":"4","last_reported":1744049654,"current_range_meters":10000,"station_id":"ce4bgt92rcd13ifvqcg0","pricing_plan_id":"cebpf4jnsgd1na2vs0mg"},{"bike_id":"750bc9c2-8244-4f27-a571-77c62d7d6b92","system_id":"levelo_inurba_marseille","lat":43.31287,"lon":5.37788,"is_reserved":false,"is_disabled":false,"rental_uris":{"android":"levelo://app?vid=750bc9c2-8244-4f27-a571-77c62d7d6b92","ios":"levelo://app?vid=750bc9c2-8244-4f27-a571-77c62d7d6b92"},"vehicle_type_id":"4","last_reported":1744049654,"current_range_meters":10000,"station_id":"","pricing_plan_id":"cebpf4jnsgd1na2vs0mg"},{"bike_id":"9389f907-78e2-4c8e-b008-de9739faa63f","system_id":"levelo_inurba_marseille","lat":43.33017,"lon":5.3944,"is_reserved":false,"is_disabled":false,"rental_uris":{"android":"levelo://app?vid=9389f907-78e2-4c8e-b008-de9739faa63f","ios":"levelo://app?vid=9389f907-78e2-4c8e-b008-de9739faa63f"},"vehicle_type_id":"4","last_reported":1744049654,"current_range_meters":10000,"station_id":"","pricing_plan_id":"cebpf4jnsgd1na2vs0mg"},{"bike_id":"89771962-fe60-4144-a8a6-39dd0f7b9fb3","system_id":"levelo_inurba_marseille","lat":43.21217,"lon":5.35086,"is_reserved":false,"is_disabled":false,"rental_uris":{"android":"levelo://app?vid=89771962-fe60-4144-a8a6-39dd0f7b9fb3","ios":"levelo://app?vid=89771962-fe60-4144-a8a6-39dd0f7b9fb3"},"vehicle_type_id":"4","last_reported":1744049654,"current_range_meters":10000,"station_id":"st_cvj6sg6p6f1abm77japg","pricing_plan_id":"cebpf4jnsgd1na2vs0mg"},{"bike_id":"8b497f79-9857-4c2e-ae6e-95b0d6ccbc52","system_id":"levelo_inurba_marseille","lat":43.32514,"lon":5.36599,"is_reserved":false,"is_disabled":true,"rental_uris":{"android":"levelo://app?vid=8b497f79-9857-4c2e-ae6e-95b0d6ccbc52","ios":"levelo://app?vid=8b497f79-9857-4c2e-ae6e-95b0d6ccbc52"},"vehicle_type_id":"4","last_reported":1744049654,"current_range_meters":10000,"station_id":"ce4bhs12rcd13ifvqhvg","pricing_plan_id":"cebpf4jnsgd1na2vs0mg"},{"bike_id":"68533b34-6cde-444b-b6ca-310254d27c70","system_id":"levelo_inurba_marseille","lat":43.29418,"lon":5.38634,"is_reserved":false,"is_disabled":false,"rental_uris":{"android":"levelo://app?vid=68533b34-6cde-444b-b6ca-310254d27c70","ios":"levelo://app?vid=68533b34-6cde-444b-b6ca-310254d27c70"},"vehicle_type_id":"4","last_reported":1744049654,"current_range_meters":10000,"station_id":"ce4bh2h2rcd13ifvqdh0","pricing_plan_id":"cebpf4jnsgd1na2vs0mg"},{"bike_id":"effcbbd5-6ca6-452f-aeb7-9e0ae178b747","system_id":"levelo_inurba_marseille","lat":43.27805,"lon":5.40719,"is_reserved":false,"is_disabled":false,"rental_uris":{"android":"levelo://app?vid=effcbbd5-6ca6-452f-aeb7-9e0ae178b747","ios":"levelo://app?vid=effcbbd5-6ca6-452f-aeb7-9e0ae178b747"},"vehicle_type_id":"4","last_reported":1744049654,"current_range_meters":9600,"station_id":"ce4bhnh2rcd13ifvqgtg","pricing_plan_id":"cebpf4jnsgd1na2vs0mg"},{"bike_id":"7b3646e0-cbf2-40de-92a8-c829ec618775","system_id":"levelo_inurba_marseille","lat":43.31998,"lon":5.381537,"is_reserved":false,"is_disabled":true,"rental_uris":{"android":"levelo://app?vid=7b3646e0-cbf2-40de-92a8-c829ec618775","ios":"levelo://app?vid=7b3646e0-cbf2-40de-92a8-c829ec618775"},"vehicle_type_id":"4","last_reported":1744049654,"current_range_meters":10000,"station_id":"ce4bhr12rcd13ifvqhpg","pricing_plan_id":"cebpf4jnsgd1na2vs0mg"},{"bike_id":"79537ffb-5232-4549-a0c1-44d0c11f25a2","system_id":"levelo_inurba_marseille","lat":43.317158,"lon":5.43688,"is_reserved":false,"is_disabled":false,"rental_uris":{"android":"levelo://app?vid=79537ffb-5232-4549-a0c1-44d0c11f25a2","ios":"levelo://app?vid=79537ffb-5232-4549-a0c1-44d0c11f25a2"},"vehicle_type_id":"4","last_reported":1744049654,"current_range_meters":10000,"station_id":"ce4bhp92rcd13ifvqhcg","pricing_plan_id":"cebpf4jnsgd1na2vs0mg"},{"bike_id":"5b226ba7-85d7-4509-a4e8-f1d6bebbec90","system_id":"levelo_inurba_marseille","lat":43.28637,"lon":5.35125,"is_reserved":false,"is_disabled":false,"rental_uris":{"android":"levelo://app?vid=5b226ba7-85d7-4509-a4e8-f1d6bebbec90","ios":"levelo://app?vid=5b226ba7-85d7-4509-a4e8-f1d6bebbec90"},"vehicle_type_id":"4","last_reported":1744049654,"current_range_meters":10000,"station_id":"ce4bhch2rcd13ifvqeug","pricing_plan_id":"cebpf4jnsgd1na2vs0mg"},{"bike_id":"14b3f9d4-3533-4279-b094-1355f1281d04","system_id":"levelo_inurba_marseille","lat":43.25569,"lon":5.38259,"is_reserved":false,"is_disabled":false,"rental_uris":{"android":"levelo://app?vid=14b3f9d4-3533-4279-b094-1355f1281d04","ios":"levelo://app?vid=14b3f9d4-3533-4279-b094-1355f1281d04"},"vehicle_type_id":"4","last_reported":1744049654,"current_range_meters":10000,"station_id":"ce4bhih2rcd13ifvqfs0","pricing_plan_id":"cebpf4jnsgd1na2vs0mg"},{"bike_id":"047a377b-4f9b-4af3-811b-908c89bd8971","system_id":"levelo_inurba_marseille","lat":43.28618,"lon":5.3511,"is_reserved":false,"is_disabled":false,"rental_uris":{"android":"levelo://app?vid=047a377b-4f9b-4af3-811b-908c89bd8971","ios":"levelo://app?vid=047a377b-4f9b-4af3-811b-908c89bd8971"},"vehicle_type_id":"4","last_reported":1744049654,"current_range_meters":10000,"station_id":"ce4bhch2rcd13ifvqeug","pricing_plan_id":"cebpf4jnsgd1na2vs0mg"},{"bike_id":"4e63bc7f-b907-45ea-bc67-f61c9be2b9d6","system_id":"levelo_inurba_marseille","lat":43.29989,"lon":5.38485,"is_reserved":false,"is_disabled":true,"rental_uris":{"android":"levelo://app?vid=4e63bc7f-b907-45ea-bc67-f61c9be2b9d6","ios":"levelo://app?vid=4e63bc7f-b907-45ea-bc67-f61c9be2b9d6"},"vehicle_type_id":"4","last_reported":1744049654,"current_range_meters":10000,"station_id":"ce4bgj92rcd13ifvqbd0","pricing_plan_id":"cebpf4jnsgd1na2vs0mg"},{"bike_id":"22b4cb04-0eab-4844-88d4-cae86fc5085f","system_id":"levelo_inurba_marseille","lat":43.29873,"lon":5.38901,"is_reserved":false,"is_disabled":false,"rental_uris":{"android":"levelo://app?vid=22b4cb04-0eab-4844-88d4-cae86fc5085f","ios":"levelo://app?vid=22b4cb04-0eab-4844-88d4-cae86fc5085f"},"vehicle_type_id":"4","last_reported":1744049654,"current_range_meters":9600,"station_id":"ce4bh392rcd13ifvqdl0","pricing_plan_id":"cebpf4jnsgd1na2vs0mg"},{"bike_id":"3cbad1fb-d71d-4e4f-90fa-c1465f9f9b65","system_id":"levelo_inurba_marseille","lat":43.21186,"lon":5.35084,"is_reserved":false,"is_disabled":false,"rental_uris":{"android":"levelo://app?vid=3cbad1fb-d71d-4e4f-90fa-c1465f9f9b65","ios":"levelo://app?vid=3cbad1fb-d71d-4e4f-90fa-c1465f9f9b65"},"vehicle_type_id":"4","last_reported":1744049654,"current_range_meters":10000,"station_id":"st_cvj6sg6p6f1abm77japg","pricing_plan_id":"cebpf4jnsgd1na2vs0mg"},{"bike_id":"93e6b926-84ae-4be7-b35c-f97b9a0b42d5","system_id":"levelo_inurba_marseille","lat":43.28707,"lon":5.37408,"is_reserved":false,"is_disabled":false,"rental_uris":{"android":"levelo://app?vid=93e6b926-84ae-4be7-b35c-f97b9a0b42d5","ios":"levelo://app?vid=93e6b926-84ae-4be7-b35c-f97b9a0b42d5"},"vehicle_type_id":"4","last_reported":1744049654,"current_range_meters":10000,"station_id":"ce4bh3p2rcd13ifvqdq0","pricing_plan_id":"cebpf4jnsgd1na2vs0mg"},{"bike_id":"bebb522c-04be-433b-905d-5d328f0bd36e","system_id":"levelo_inurba_marseille","lat":43.30487,"lon":5.39848,"is_reserved":false,"is_disabled":false,"rental_uris":{"android":"levelo://app?vid=bebb522c-04be-433b-905d-5d328f0bd36e","ios":"levelo://app?vid=bebb522c-04be-433b-905d-5d328f0bd36e"},"vehicle_type_id":"4","last_reported":1744049654,"current_range_meters":10000,"station_id":"","pricing_plan_id":"cebpf4jnsgd1na2vs0mg"},{"bike_id":"50331bc9-3ff4-45df-bda4-49cc63118a84","system_id":"levelo_inurba_marseille","lat":43.2761,"lon":5.36118,"is_reserved":false,"is_disabled":false,"rental_uris":{"android":"levelo://app?vid=50331bc9-3ff4-45df-bda4-49cc63118a84","ios":"levelo://app?vid=50331bc9-3ff4-45df-bda4-49cc63118a84"},"vehicle_type_id":"4","last_reported":1744049654,"current_range_meters":10800,"station_id":"ce4bgj92rcd13ifvqbe0","pricing_plan_id":"cebpf4jnsgd1na2vs0mg"},{"bike_id":"e53b9e9b-ac51-4f70-ad60-ed3149b8c178","system_id":"levelo_inurba_marseille","lat":43.313287,"lon":5.373427,"is_reserved":false,"is_disabled":false,"rental_uris":{"android":"levelo://app?vid=e53b9e9b-ac51-4f70-ad60-ed3149b8c178","ios":"levelo://app?vid=e53b9e9b-ac51-4f70-ad60-ed3149b8c178"},"vehicle_type_id":"4","last_reported":1744049654,"current_range_meters":10800,"station_id":"","pricing_plan_id":"cebpf4jnsgd1na2vs0mg"},{"bike_id":"63e3861c-51c1-4054-a911-b187299982cc","system_id":"levelo_inurba_marseille","lat":43.290405,"lon":5.375569,"is_reserved":false,"is_disabled":false,"rental_uris":{"android":"levelo://app?vid=63e3861c-51c1-4054-a911-b187299982cc","ios":"levelo://app?vid=63e3861c-51c1-4054-a911-b187299982cc"},"vehicle_type_id":"4","last_reported":1744049654,"current_range_meters":10000,"station_id":"ce4bh692rcd13ifvqe90","pricing_plan_id":"cebpf4jnsgd1na2vs0mg"},{"bike_id":"b7d15525-0102-4d63-b7d3-eaa2bc4c21c3","system_id":"levelo_inurba_marseille","lat":43.21743,"lon":5.34603,"is_reserved":false,"is_disabled":true,"rental_uris":{"android":"levelo://app?vid=b7d15525-0102-4d63-b7d3-eaa2bc4c21c3","ios":"levelo://app?vid=b7d15525-0102-4d63-b7d3-eaa2bc4c21c3"},"vehicle_type_id":"4","last_reported":1744049654,"current_range_meters":10800,"station_id":"","pricing_plan_id":"cebpf4jnsgd1na2vs0mg"},{"bike_id":"06c29459-1804-4468-a29a-8ce733487662","system_id":"levelo_inurba_marseille","lat":43.2893,"lon":5.36623,"is_reserved":false,"is_disabled":false,"rental_uris":{"android":"levelo://app?vid=06c29459-1804-4468-a29a-8ce733487662","ios":"levelo://app?vid=06c29459-1804-4468-a29a-8ce733487662"},"vehicle_type_id":"4","last_reported":1744049654,"current_range_meters":10800,"station_id":"ce4bhap2rcd13ifvqek0","pricing_plan_id":"cebpf4jnsgd1na2vs0mg"},{"bike_id":"19224d95-e048-4cbb-8884-43e0e6b3db9b","system_id":"levelo_inurba_marseille","lat":43.29892,"lon":5.39741,"is_reserved":false,"is_disabled":true,"rental_uris":{"android":"levelo://app?vid=19224d95-e048-4cbb-8884-43e0e6b3db9b","ios":"levelo://app?vid=19224d95-e048-4cbb-8884-43e0e6b3db9b"},"vehicle_type_id":"4","last_reported":1744049654,"current_range_meters":10800,"station_id":"ce4bh0h2rcd13ifvqd50","pricing_plan_id":"cebpf4jnsgd1na2vs0mg"},{"bike_id":"d5336e05-c483-42e9-9d22-06117ee9ac14","system_id":"levelo_inurba_marseille","lat":43.28617,"lon":5.35099,"is_reserved":false,"is_disabled":false,"rental_uris":{"android":"levelo://app?vid=d5336e05-c483-42e9-9d22-06117ee9ac14","ios":"levelo://app?vid=d5336e05-c483-42e9-9d22-06117ee9ac14"},"vehicle_type_id":"4","last_reported":1744049654,"current_range_meters":10800,"station_id":"ce4bhch2rcd13ifvqeug","pricing_plan_id":"cebpf4jnsgd1na2vs0mg"},{"bike_id":"6b6ad154-8d3b-47c9-a0db-1befeb0a88ab","system_id":"levelo_inurba_marseille","lat":43.28424,"lon":5.35005,"is_reserved":false,"is_disabled":false,"rental_uris":{"android":"levelo://app?vid=6b6ad154-8d3b-47c9-a0db-1befeb0a88ab","ios":"levelo://app?vid=6b6ad154-8d3b-47c9-a0db-1befeb0a88ab"},"vehicle_type_id":"4","last_reported":1744049654,"current_range_meters":10800,"station_id":"ce4bhbh2rcd13ifvqepg","pricing_plan_id":"cebpf4jnsgd1na2vs0mg"},{"bike_id":"723a7b6f-5dca-4f97-b321-36199dda41f6","system_id":"levelo_inurba_marseille","lat":43.315258,"lon":5.380549,"is_reserved":false,"is_disabled":false,"rental_uris":{"android":"levelo://app?vid=723a7b6f-5dca-4f97-b321-36199dda41f6","ios":"levelo://app?vid=723a7b6f-5dca-4f97-b321-36199dda41f6"},"vehicle_type_id":"4","last_reported":1744049654,"current_range_meters":10800,"station_id":"ce4bhsp2rcd13ifvqi50","pricing_plan_id":"cebpf4jnsgd1na2vs0mg"},{"bike_id":"7b879770-1bbd-421d-9c8b-e0235cabedcf","system_id":"levelo_inurba_marseille","lat":43.25399,"lon":5.4189,"is_reserved":false,"is_disabled":false,"rental_uris":{"android":"levelo://app?vid=7b879770-1bbd-421d-9c8b-e0235cabedcf","ios":"levelo://app?vid=7b879770-1bbd-421d-9c8b-e0235cabedcf"},"vehicle_type_id":"4","last_reported":1744049654,"current_range_meters":11200,"station_id":"","pricing_plan_id":"cebpf4jnsgd1na2vs0mg"},{"bike_id":"e8979a1c-1516-45ae-81b6-33bfd7d92ec1","system_id":"levelo_inurba_marseille","lat":43.255,"lon":5.3765,"is_reserved":false,"is_disabled":false,"rental_uris":{"android":"levelo://app?vid=e8979a1c-1516-45ae-81b6-33bfd7d92ec1","ios":"levelo://app?vid=e8979a1c-1516-45ae-81b6-33bfd7d92ec1"},"vehicle_type_id":"4","last_reported":1744049654,"current_range_meters":11200,"station_id":"ce4bhh12rcd13ifvqff0","pricing_plan_id":"cebpf4jnsgd1na2vs0mg"},{"bike_id":"0248df62-4eee-4932-8070-15531e9cd027","system_id":"levelo_inurba_marseille","lat":43.28433,"lon":5.34996,"is_reserved":false,"is_disabled":false,"rental_uris":{"android":"levelo://app?vid=0248df62-4eee-4932-8070-15531e9cd027","ios":"levelo://app?vid=0248df62-4eee-4932-8070-15531e9cd027"},"vehicle_type_id":"4","last_reported":1744049654,"current_range_meters":11200,"station_id":"ce4bhbh2rcd13ifvqepg","pricing_plan_id":"cebpf4jnsgd1na2vs0mg"},{"bike_id":"1e01d50e-cead-45bb-a3a4-7e0d04b7b063","system_id":"levelo_inurba_marseille","lat":43.29025,"lon":5.38602,"is_reserved":false,"is_disabled":true,"rental_uris":{"android":"levelo://app?vid=1e01d50e-cead-45bb-a3a4-7e0d04b7b063","ios":"levelo://app?vid=1e01d50e-cead-45bb-a3a4-7e0d04b7b063"},"vehicle_type_id":"4","last_reported":1744049654,"current_range_meters":11200,"station_id":"ce4bh4p2rcd13ifvqe0g","pricing_plan_id":"cebpf4jnsgd1na2vs0mg"},{"bike_id":"847cff54-9149-4fb3-8217-2338a6e302d9","system_id":"levelo_inurba_marseille","lat":43.28869,"lon":5.3585,"is_reserved":false,"is_disabled":false,"rental_uris":{"android":"levelo://app?vid=847cff54-9149-4fb3-8217-2338a6e302d9","ios":"levelo://app?vid=847cff54-9149-4fb3-8217-2338a6e302d9"},"vehicle_type_id":"4","last_reported":1744049654,"current_range_meters":11200,"station_id":"ce4bhb12rcd13ifvqem0","pricing_plan_id":"cebpf4jnsgd1na2vs0mg"},{"bike_id":"9aac2fe2-cdbb-4c6c-a98a-ccac5f4e4d8e","system_id":"levelo_inurba_marseille","lat":43.2791,"lon":5.38012,"is_reserved":false,"is_disabled":false,"rental_uris":{"android":"levelo://app?vid=9aac2fe2-cdbb-4c6c-a98a-ccac5f4e4d8e","ios":"levelo://app?vid=9aac2fe2-cdbb-4c6c-a98a-ccac5f4e4d8e"},"vehicle_type_id":"4","last_reported":1744049654,"current_range_meters":11200,"station_id":"ce4bhf92rcd13ifvqf50","pricing_plan_id":"cebpf4jnsgd1na2vs0mg"},{"bike_id":"2e9000dc-6400-4918-a994-dd60039ca96d","system_id":"levelo_inurba_marseille","lat":43.32044,"lon":5.38134,"is_reserved":false,"is_disabled":true,"rental_uris":{"android":"levelo://app?vid=2e9000dc-6400-4918-a994-dd60039ca96d","ios":"levelo://app?vid=2e9000dc-6400-4918-a994-dd60039ca96d"},"vehicle_type_id":"4","last_reported":1744049654,"current_range_meters":11200,"station_id":"ce4bhr12rcd13ifvqhpg","pricing_plan_id":"cebpf4jnsgd1na2vs0mg"},{"bike_id":"7646bd0c-8d5c-4b84-ac07-f74aada3b683","system_id":"levelo_inurba_marseille","lat":43.24662,"lon":5.38902,"is_reserved":false,"is_disabled":false,"rental_uris":{"android":"levelo://app?vid=7646bd0c-8d5c-4b84-ac07-f74aada3b683","ios":"levelo://app?vid=7646bd0c-8d5c-4b84-ac07-f74aada3b683"},"vehicle_type_id":"4","last_reported":1744049654,"current_range_meters":11600,"station_id":"ce4bhg12rcd13ifvqf60","pricing_plan_id":"cebpf4jnsgd1na2vs0mg"},{"bike_id":"a019bc61-bb4f-4555-b15f-f084ee6b79c8","system_id":"levelo_inurba_marseille","lat":43.28617,"lon":5.35102,"is_reserved":false,"is_disabled":false,"rental_uris":{"android":"levelo://app?vid=a019bc61-bb4f-4555-b15f-f084ee6b79c8","ios":"levelo://app?vid=a019bc61-bb4f-4555-b15f-f084ee6b79c8"},"vehicle_type_id":"4","last_reported":1744049654,"current_range_meters":11600,"station_id":"ce4bhch2rcd13ifvqeug","pricing_plan_id":"cebpf4jnsgd1na2vs0mg"},{"bike_id":"257d1c02-5396-419e-a612-6a8a1704493e","system_id":"levelo_inurba_marseille","lat":43.28995,"lon":5.37549,"is_reserved":false,"is_disabled":true,"rental_uris":{"android":"levelo://app?vid=257d1c02-5396-419e-a612-6a8a1704493e","ios":"levelo://app?vid=257d1c02-5396-419e-a612-6a8a1704493e"},"vehicle_type_id":"4","last_reported":1744049654,"current_range_meters":12000,"station_id":"ce4bh692rcd13ifvqe90","pricing_plan_id":"cebpf4jnsgd1na2vs0mg"},{"bike_id":"f39be6f5-2f69-4c37-b021-559d20b299a4","system_id":"levelo_inurba_marseille","lat":43.30016,"lon":5.37621,"is_reserved":false,"is_disabled":false,"rental_uris":{"android":"levelo://app?vid=f39be6f5-2f69-4c37-b021-559d20b299a4","ios":"levelo://app?vid=f39be6f5-2f69-4c37-b021-559d20b299a4"},"vehicle_type_id":"4","last_reported":1744049654,"current_range_meters":11600,"station_id":"","pricing_plan_id":"cebpf4jnsgd1na2vs0mg"},{"bike_id":"4aa55ac3-6671-4389-ae58-5dbcc06deebe","system_id":"levelo_inurba_marseille","lat":43.285688,"lon":5.394937,"is_reserved":false,"is_disabled":false,"rental_uris":{"android":"levelo://app?vid=4aa55ac3-6671-4389-ae58-5dbcc06deebe","ios":"levelo://app?vid=4aa55ac3-6671-4389-ae58-5dbcc06deebe"},"vehicle_type_id":"4","last_reported":1744049654,"current_range_meters":11600,"station_id":"ce4bh292rcd13ifvqdg0","pricing_plan_id":"cebpf4jnsgd1na2vs0mg"},{"bike_id":"013c9875-d237-4971-8826-684a16f40d7d","system_id":"levelo_inurba_marseille","lat":43.31386,"lon":5.38515,"is_reserved":false,"is_disabled":false,"rental_uris":{"android":"levelo://app?vid=013c9875-d237-4971-8826-684a16f40d7d","ios":"levelo://app?vid=013c9875-d237-4971-8826-684a16f40d7d"},"vehicle_type_id":"4","last_reported":1744049654,"current_range_meters":11600,"station_id":"ce4bgt92rcd13ifvqcf0","pricing_plan_id":"cebpf4jnsgd1na2vs0mg"},{"bike_id":"6382b020-9b82-4293-9394-513363579650","system_id":"levelo_inurba_marseille","lat":43.28263,"lon":5.3507,"is_reserved":false,"is_disabled":false,"rental_uris":{"android":"levelo://app?vid=6382b020-9b82-4293-9394-513363579650","ios":"levelo://app?vid=6382b020-9b82-4293-9394-513363579650"},"vehicle_type_id":"4","last_reported":1744049654,"current_range_meters":11600,"station_id":"ce4bhbp2rcd13ifvqerg","pricing_plan_id":"cebpf4jnsgd1na2vs0mg"},{"bike_id":"c8aa664a-4796-4c11-a066-04ca1586721a","system_id":"levelo_inurba_marseille","lat":43.29335,"lon":5.37156,"is_reserved":false,"is_disabled":false,"rental_uris":{"android":"levelo://app?vid=c8aa664a-4796-4c11-a066-04ca1586721a","ios":"levelo://app?vid=c8aa664a-4796-4c11-a066-04ca1586721a"},"vehicle_type_id":"4","last_reported":1744049654,"current_range_meters":12000,"station_id":"ce4bgh92rcd13ifvqb40","pricing_plan_id":"cebpf4jnsgd1na2vs0mg"},{"bike_id":"e6e258ad-0425-4ff4-9119-6ff0d6c5aef7","system_id":"levelo_inurba_marseille","lat":43.26211,"lon":5.37443,"is_reserved":false,"is_disabled":false,"rental_uris":{"android":"levelo://app?vid=e6e258ad-0425-4ff4-9119-6ff0d6c5aef7","ios":"levelo://app?vid=e6e258ad-0425-4ff4-9119-6ff0d6c5aef7"},"vehicle_type_id":"4","last_reported":1744049654,"current_range_meters":12000,"station_id":"ce4bhgp2rcd13ifvqfc0","pricing_plan_id":"cebpf4jnsgd1na2vs0mg"},{"bike_id":"db476220-210b-4a5d-915f-8fa8ddf85da6","system_id":"levelo_inurba_marseille","lat":43.28566,"lon":5.39509,"is_reserved":false,"is_disabled":false,"rental_uris":{"android":"levelo://app?vid=db476220-210b-4a5d-915f-8fa8ddf85da6","ios":"levelo://app?vid=db476220-210b-4a5d-915f-8fa8ddf85da6"},"vehicle_type_id":"4","last_reported":1744049654,"current_range_meters":12000,"station_id":"ce4bh292rcd13ifvqdg0","pricing_plan_id":"cebpf4jnsgd1na2vs0mg"},{"bike_id":"87846fea-2a7d-4ecf-84f6-c1a120ac8997","system_id":"levelo_inurba_marseille","lat":43.29424,"lon":5.38627,"is_reserved":false,"is_disabled":false,"rental_uris":{"android":"levelo://app?vid=87846fea-2a7d-4ecf-84f6-c1a120ac8997","ios":"levelo://app?vid=87846fea-2a7d-4ecf-84f6-c1a120ac8997"},"vehicle_type_id":"4","last_reported":1744049654,"current_range_meters":12000,"station_id":"ce4bh2h2rcd13ifvqdh0","pricing_plan_id":"cebpf4jnsgd1na2vs0mg"},{"bike_id":"c7169289-4b15-4cde-946e-e60f8877f72d","system_id":"levelo_inurba_marseille","lat":43.286228,"lon":5.351,"is_reserved":false,"is_disabled":false,"rental_uris":{"android":"levelo://app?vid=c7169289-4b15-4cde-946e-e60f8877f72d","ios":"levelo://app?vid=c7169289-4b15-4cde-946e-e60f8877f72d"},"vehicle_type_id":"4","last_reported":1744049654,"current_range_meters":12000,"station_id":"ce4bhch2rcd13ifvqeug","pricing_plan_id":"cebpf4jnsgd1na2vs0mg"},{"bike_id":"1caaf187-7c56-4777-81af-6cb943962ba6","system_id":"levelo_inurba_marseille","lat":43.303,"lon":5.39211,"is_reserved":false,"is_disabled":true,"rental_uris":{"android":"levelo://app?vid=1caaf187-7c56-4777-81af-6cb943962ba6","ios":"levelo://app?vid=1caaf187-7c56-4777-81af-6cb943962ba6"},"vehicle_type_id":"4","last_reported":1744049654,"current_range_meters":12000,"station_id":"ce4bgkh2rcd13ifvqbk0","pricing_plan_id":"cebpf4jnsgd1na2vs0mg"},{"bike_id":"82f28cf6-556c-431d-a12b-bd3ce5fc2f28","system_id":"levelo_inurba_marseille","lat":43.27509,"lon":5.37737,"is_reserved":false,"is_disabled":false,"rental_uris":{"android":"levelo://app?vid=82f28cf6-556c-431d-a12b-bd3ce5fc2f28","ios":"levelo://app?vid=82f28cf6-556c-431d-a12b-bd3ce5fc2f28"},"vehicle_type_id":"4","last_reported":1744049654,"current_range_meters":12400,"station_id":"","pricing_plan_id":"cebpf4jnsgd1na2vs0mg"},{"bike_id":"3576b946-70b3-456f-a60a-d98e227f015c","system_id":"levelo_inurba_marseille","lat":43.30091,"lon":5.3826,"is_reserved":false,"is_disabled":false,"rental_uris":{"android":"levelo://app?vid=3576b946-70b3-456f-a60a-d98e227f015c","ios":"levelo://app?vid=3576b946-70b3-456f-a60a-d98e227f015c"},"vehicle_type_id":"4","last_reported":1744049654,"current_range_meters":12400,"station_id":"ce4bgup2rcd13ifvqcn0","pricing_plan_id":"cebpf4jnsgd1na2vs0mg"},{"bike_id":"9aa59841-1fd2-4cc8-ab99-66a4c9fe5c5c","system_id":"levelo_inurba_marseille","lat":43.28564,"lon":5.39514,"is_reserved":false,"is_disabled":false,"rental_uris":{"android":"levelo://app?vid=9aa59841-1fd2-4cc8-ab99-66a4c9fe5c5c","ios":"levelo://app?vid=9aa59841-1fd2-4cc8-ab99-66a4c9fe5c5c"},"vehicle_type_id":"4","last_reported":1744049654,"current_range_meters":12000,"station_id":"ce4bh292rcd13ifvqdg0","pricing_plan_id":"cebpf4jnsgd1na2vs0mg"},{"bike_id":"a6c2b2df-d2a4-4525-881b-16258228367e","system_id":"levelo_inurba_marseille","lat":43.29537,"lon":5.38556,"is_reserved":false,"is_disabled":false,"rental_uris":{"android":"levelo://app?vid=a6c2b2df-d2a4-4525-881b-16258228367e","ios":"levelo://app?vid=a6c2b2df-d2a4-4525-881b-16258228367e"},"vehicle_type_id":"4","last_reported":1744049654,"current_range_meters":12400,"station_id":"ce4bgih2rcd13ifvqba0","pricing_plan_id":"cebpf4jnsgd1na2vs0mg"},{"bike_id":"1b4bad9c-12d7-4e89-b132-b44a5df44c73","system_id":"levelo_inurba_marseille","lat":43.29284,"lon":5.37452,"is_reserved":false,"is_disabled":true,"rental_uris":{"android":"levelo://app?vid=1b4bad9c-12d7-4e89-b132-b44a5df44c73","ios":"levelo://app?vid=1b4bad9c-12d7-4e89-b132-b44a5df44c73"},"vehicle_type_id":"4","last_reported":1744049654,"current_range_meters":12400,"station_id":"ce4bgi12rcd13ifvqb70","pricing_plan_id":"cebpf4jnsgd1na2vs0mg"},{"bike_id":"149d12c1-918e-45ca-96d3-9e3d71a1137b","system_id":"levelo_inurba_marseille","lat":43.29036,"lon":5.40013,"is_reserved":false,"is_disabled":false,"rental_uris":{"android":"levelo://app?vid=149d12c1-918e-45ca-96d3-9e3d71a1137b","ios":"levelo://app?vid=149d12c1-918e-45ca-96d3-9e3d71a1137b"},"vehicle_type_id":"4","last_reported":1744049654,"current_range_meters":12400,"station_id":"","pricing_plan_id":"cebpf4jnsgd1na2vs0mg"},{"bike_id":"f17ce36f-e80a-4732-89e2-7a7dfab19d87","system_id":"levelo_inurba_marseille","lat":43.29914,"lon":5.43677,"is_reserved":false,"is_disabled":false,"rental_uris":{"android":"levelo://app?vid=f17ce36f-e80a-4732-89e2-7a7dfab19d87","ios":"levelo://app?vid=f17ce36f-e80a-4732-89e2-7a7dfab19d87"},"vehicle_type_id":"4","last_reported":1744049654,"current_range_meters":12800,"station_id":"ce4bhpp2rcd13ifvqhfg","pricing_plan_id":"cebpf4jnsgd1na2vs0mg"},{"bike_id":"6c1d93a4-799f-4360-ae22-75d4736d2fbe","system_id":"levelo_inurba_marseille","lat":43.29411,"lon":5.38608,"is_reserved":false,"is_disabled":false,"rental_uris":{"android":"levelo://app?vid=6c1d93a4-799f-4360-ae22-75d4736d2fbe","ios":"levelo://app?vid=6c1d93a4-799f-4360-ae22-75d4736d2fbe"},"vehicle_type_id":"4","last_reported":1744049654,"current_range_meters":12800,"station_id":"ce4bh2h2rcd13ifvqdh0","pricing_plan_id":"cebpf4jnsgd1na2vs0mg"},{"bike_id":"731b6366-8a51-4da6-8dde-5fcd08ed82c6","system_id":"levelo_inurba_marseille","lat":43.275658,"lon":5.384205,"is_reserved":false,"is_disabled":false,"rental_uris":{"android":"levelo://app?vid=731b6366-8a51-4da6-8dde-5fcd08ed82c6","ios":"levelo://app?vid=731b6366-8a51-4da6-8dde-5fcd08ed82c6"},"vehicle_type_id":"4","last_reported":1744049654,"current_range_meters":12400,"station_id":"ce4bh9p2rcd13ifvqed0","pricing_plan_id":"cebpf4jnsgd1na2vs0mg"},{"bike_id":"34e12724-f067-4e7b-9bf6-3725d0260e87","system_id":"levelo_inurba_marseille","lat":43.30797,"lon":5.38148,"is_reserved":false,"is_disabled":false,"rental_uris":{"android":"levelo://app?vid=34e12724-f067-4e7b-9bf6-3725d0260e87","ios":"levelo://app?vid=34e12724-f067-4e7b-9bf6-3725d0260e87"},"vehicle_type_id":"4","last_reported":1744049654,"current_range_meters":12800,"station_id":"ce4bgt12rcd13ifvqce0","pricing_plan_id":"cebpf4jnsgd1na2vs0mg"},{"bike_id":"57a20044-8482-4461-9a83-389bfb2991a7","system_id":"levelo_inurba_marseille","lat":43.28429,"lon":5.34992,"is_reserved":false,"is_disabled":false,"rental_uris":{"android":"levelo://app?vid=57a20044-8482-4461-9a83-389bfb2991a7","ios":"levelo://app?vid=57a20044-8482-4461-9a83-389bfb2991a7"},"vehicle_type_id":"4","last_reported":1744049654,"current_range_meters":12800,"station_id":"ce4bhbh2rcd13ifvqepg","pricing_plan_id":"cebpf4jnsgd1na2vs0mg"},{"bike_id":"5563dcf0-5ad7-4ebf-930e-b1e8987b91fa","system_id":"levelo_inurba_marseille","lat":43.286969,"lon":5.373798,"is_reserved":false,"is_disabled":false,"rental_uris":{"android":"levelo://app?vid=5563dcf0-5ad7-4ebf-930e-b1e8987b91fa","ios":"levelo://app?vid=5563dcf0-5ad7-4ebf-930e-b1e8987b91fa"},"vehicle_type_id":"4","last_reported":1744049654,"current_range_meters":12800,"station_id":"ce4bh3p2rcd13ifvqdq0","pricing_plan_id":"cebpf4jnsgd1na2vs0mg"},{"bike_id":"ea7c4563-3a64-4725-bee3-88cf7807dae0","system_id":"levelo_inurba_marseille","lat":43.24803,"lon":5.37457,"is_reserved":false,"is_disabled":false,"rental_uris":{"android":"levelo://app?vid=ea7c4563-3a64-4725-bee3-88cf7807dae0","ios":"levelo://app?vid=ea7c4563-3a64-4725-bee3-88cf7807dae0"},"vehicle_type_id":"4","last_reported":1744049654,"current_range_meters":13600,"station_id":"ce4bhgh2rcd13ifvqfb0","pricing_plan_id":"cebpf4jnsgd1na2vs0mg"},{"bike_id":"034b881e-44c7-46eb-affa-8c5577be2c99","system_id":"levelo_inurba_marseille","lat":43.27809,"lon":5.40722,"is_reserved":false,"is_disabled":false,"rental_uris":{"android":"levelo://app?vid=034b881e-44c7-46eb-affa-8c5577be2c99","ios":"levelo://app?vid=034b881e-44c7-46eb-affa-8c5577be2c99"},"vehicle_type_id":"4","last_reported":1744049654,"current_range_meters":13600,"station_id":"ce4bhnh2rcd13ifvqgtg","pricing_plan_id":"cebpf4jnsgd1na2vs0mg"},{"bike_id":"93e60567-da62-4d46-9d99-e003cb8d2ba0","system_id":"levelo_inurba_marseille","lat":43.31169,"lon":5.38723,"is_reserved":false,"is_disabled":false,"rental_uris":{"android":"levelo://app?vid=93e60567-da62-4d46-9d99-e003cb8d2ba0","ios":"levelo://app?vid=93e60567-da62-4d46-9d99-e003cb8d2ba0"},"vehicle_type_id":"4","last_reported":1744049654,"current_range_meters":13600,"station_id":"ce4bgv12rcd13ifvqcp0","pricing_plan_id":"cebpf4jnsgd1na2vs0mg"},{"bike_id":"1a451709-2124-4289-b190-af34f0768c52","system_id":"levelo_inurba_marseille","lat":43.29008,"lon":5.35616,"is_reserved":false,"is_disabled":false,"rental_uris":{"android":"levelo://app?vid=1a451709-2124-4289-b190-af34f0768c52","ios":"levelo://app?vid=1a451709-2124-4289-b190-af34f0768c52"},"vehicle_type_id":"4","last_reported":1744049654,"current_range_meters":12800,"station_id":"ce4bhb92rcd13ifvqen0","pricing_plan_id":"cebpf4jnsgd1na2vs0mg"},{"bike_id":"ded7c3f0-0722-4d69-b1d6-25a1e687d382","system_id":"levelo_inurba_marseille","lat":43.26061,"lon":5.39403,"is_reserved":false,"is_disabled":false,"rental_uris":{"android":"levelo://app?vid=ded7c3f0-0722-4d69-b1d6-25a1e687d382","ios":"levelo://app?vid=ded7c3f0-0722-4d69-b1d6-25a1e687d382"},"vehicle_type_id":"4","last_reported":1744049654,"current_range_meters":13600,"station_id":"ce4bhh92rcd13ifvqfj0","pricing_plan_id":"cebpf4jnsgd1na2vs0mg"},{"bike_id":"3c138577-fc2b-4a0a-8088-1f602bd94b3b","system_id":"levelo_inurba_marseille","lat":43.28729,"lon":5.36089,"is_reserved":false,"is_disabled":false,"rental_uris":{"android":"levelo://app?vid=3c138577-fc2b-4a0a-8088-1f602bd94b3b","ios":"levelo://app?vid=3c138577-fc2b-4a0a-8088-1f602bd94b3b"},"vehicle_type_id":"4","last_reported":1744049654,"current_range_meters":12800,"station_id":"cki0cbj6b192h4jlfktg","pricing_plan_id":"cebpf4jnsgd1na2vs0mg"},{"bike_id":"4b9dfe05-0e60-423c-af4b-3ef6e8cad4ce","system_id":"levelo_inurba_marseille","lat":43.25113,"lon":5.40325,"is_reserved":false,"is_disabled":true,"rental_uris":{"android":"levelo://app?vid=4b9dfe05-0e60-423c-af4b-3ef6e8cad4ce","ios":"levelo://app?vid=4b9dfe05-0e60-423c-af4b-3ef6e8cad4ce"},"vehicle_type_id":"4","last_reported":1744049654,"current_range_meters":13600,"station_id":"ce4bhlh2rcd13ifvqgig","pricing_plan_id":"cebpf4jnsgd1na2vs0mg"},{"bike_id":"de0994eb-8889-4628-816a-80a3e465065e","system_id":"levelo_inurba_marseille","lat":43.265347,"lon":5.395544,"is_reserved":false,"is_disabled":false,"rental_uris":{"android":"levelo://app?vid=de0994eb-8889-4628-816a-80a3e465065e","ios":"levelo://app?vid=de0994eb-8889-4628-816a-80a3e465065e"},"vehicle_type_id":"4","last_reported":1744049654,"current_range_meters":12800,"station_id":"ce4bhlh2rcd13ifvqgig","pricing_plan_id":"cebpf4jnsgd1na2vs0mg"},{"bike_id":"e50be82d-8919-4b41-b110-ea0f138a00bc","system_id":"levelo_inurba_marseille","lat":43.26939,"lon":5.40246,"is_reserved":false,"is_disabled":false,"rental_uris":{"android":"levelo://app?vid=e50be82d-8919-4b41-b110-ea0f138a00bc","ios":"levelo://app?vid=e50be82d-8919-4b41-b110-ea0f138a00bc"},"vehicle_type_id":"4","last_reported":1744049654,"current_range_meters":13600,"station_id":"cjm6bp8fraef2m0cb0m0","pricing_plan_id":"cebpf4jnsgd1na2vs0mg"},{"bike_id":"c86be446-33b4-453c-bc7e-58f1c0a41d7e","system_id":"levelo_inurba_marseille","lat":43.29521,"lon":5.39048,"is_reserved":false,"is_disabled":false,"rental_uris":{"android":"levelo://app?vid=c86be446-33b4-453c-bc7e-58f1c0a41d7e","ios":"levelo://app?vid=c86be446-33b4-453c-bc7e-58f1c0a41d7e"},"vehicle_type_id":"4","last_reported":1744049654,"current_range_meters":14000,"station_id":"ce4bh3p2rcd13ifvqdp0","pricing_plan_id":"cebpf4jnsgd1na2vs0mg"},{"bike_id":"fb9f6b16-b64d-4eb9-b329-0548a57bc9c5","system_id":"levelo_inurba_marseille","lat":43.30096,"lon":5.39103,"is_reserved":false,"is_disabled":false,"rental_uris":{"android":"levelo://app?vid=fb9f6b16-b64d-4eb9-b329-0548a57bc9c5","ios":"levelo://app?vid=fb9f6b16-b64d-4eb9-b329-0548a57bc9c5"},"vehicle_type_id":"4","last_reported":1744049654,"current_range_meters":14000,"station_id":"ce4bh192rcd13ifvqdb0","pricing_plan_id":"cebpf4jnsgd1na2vs0mg"},{"bike_id":"5d932e95-78f9-4d72-9913-150a1b50546f","system_id":"levelo_inurba_marseille","lat":43.30355,"lon":5.41869,"is_reserved":false,"is_disabled":false,"rental_uris":{"android":"levelo://app?vid=5d932e95-78f9-4d72-9913-150a1b50546f","ios":"levelo://app?vid=5d932e95-78f9-4d72-9913-150a1b50546f"},"vehicle_type_id":"4","last_reported":1744049654,"current_range_meters":14000,"station_id":"ce4bhop2rcd13ifvqh7g","pricing_plan_id":"cebpf4jnsgd1na2vs0mg"},{"bike_id":"d46832df-f54f-42e6-869a-ff08607f1276","system_id":"levelo_inurba_marseille","lat":43.24803,"lon":5.37454,"is_reserved":false,"is_disabled":false,"rental_uris":{"android":"levelo://app?vid=d46832df-f54f-42e6-869a-ff08607f1276","ios":"levelo://app?vid=d46832df-f54f-42e6-869a-ff08607f1276"},"vehicle_type_id":"4","last_reported":1744049654,"current_range_meters":14000,"station_id":"ce4bhgh2rcd13ifvqfb0","pricing_plan_id":"cebpf4jnsgd1na2vs0mg"},{"bike_id":"ec7d3251-d53b-4874-b96d-6dae899b6aa1","system_id":"levelo_inurba_marseille","lat":43.27225,"lon":5.39169,"is_reserved":false,"is_disabled":true,"rental_uris":{"android":"levelo://app?vid=ec7d3251-d53b-4874-b96d-6dae899b6aa1","ios":"levelo://app?vid=ec7d3251-d53b-4874-b96d-6dae899b6aa1"},"vehicle_type_id":"4","last_reported":1744049654,"current_range_meters":14000,"station_id":"ce4bhhp2rcd13ifvqfm0","pricing_plan_id":"cebpf4jnsgd1na2vs0mg"},{"bike_id":"f85453cb-4a61-440d-b952-fef1f141997f","system_id":"levelo_inurba_marseille","lat":43.29054,"lon":5.3716,"is_reserved":false,"is_disabled":false,"rental_uris":{"android":"levelo://app?vid=f85453cb-4a61-440d-b952-fef1f141997f","ios":"levelo://app?vid=f85453cb-4a61-440d-b952-fef1f141997f"},"vehicle_type_id":"4","last_reported":1744049654,"current_range_meters":14000,"station_id":"ce4bh5p2rcd13ifvqe4g","pricing_plan_id":"cebpf4jnsgd1na2vs0mg"},{"bike_id":"8162e87e-c165-40e1-8764-58e0664b7378","system_id":"levelo_inurba_marseille","lat":43.2895,"lon":5.36631,"is_reserved":false,"is_disabled":false,"rental_uris":{"android":"levelo://app?vid=8162e87e-c165-40e1-8764-58e0664b7378","ios":"levelo://app?vid=8162e87e-c165-40e1-8764-58e0664b7378"},"vehicle_type_id":"4","last_reported":1744049654,"current_range_meters":14400,"station_id":"ce4bhap2rcd13ifvqek0","pricing_plan_id":"cebpf4jnsgd1na2vs0mg"},{"bike_id":"296ddd60-754f-4903-b919-93a30b995367","system_id":"levelo_inurba_marseille","lat":43.28612,"lon":5.3511,"is_reserved":false,"is_disabled":false,"rental_uris":{"android":"levelo://app?vid=296ddd60-754f-4903-b919-93a30b995367","ios":"levelo://app?vid=296ddd60-754f-4903-b919-93a30b995367"},"vehicle_type_id":"4","last_reported":1744049654,"current_range_meters":14400,"station_id":"ce4bhch2rcd13ifvqeug","pricing_plan_id":"cebpf4jnsgd1na2vs0mg"},{"bike_id":"52bd305f-95d6-4223-9d42-07c7464ce170","system_id":"levelo_inurba_marseille","lat":43.25001,"lon":5.38924,"is_reserved":false,"is_disabled":false,"rental_uris":{"android":"levelo://app?vid=52bd305f-95d6-4223-9d42-07c7464ce170","ios":"levelo://app?vid=52bd305f-95d6-4223-9d42-07c7464ce170"},"vehicle_type_id":"4","last_reported":1744049654,"current_range_meters":14000,"station_id":"ce4bhgp2rcd13ifvqfd0","pricing_plan_id":"cebpf4jnsgd1na2vs0mg"},{"bike_id":"e70a4480-ebdd-4df5-a6f4-ad91bfa2fb56","system_id":"levelo_inurba_marseille","lat":43.29026,"lon":5.38649,"is_reserved":false,"is_disabled":false,"rental_uris":{"android":"levelo://app?vid=e70a4480-ebdd-4df5-a6f4-ad91bfa2fb56","ios":"levelo://app?vid=e70a4480-ebdd-4df5-a6f4-ad91bfa2fb56"},"vehicle_type_id":"4","last_reported":1744049654,"current_range_meters":14000,"station_id":"ce4bh4p2rcd13ifvqe0g","pricing_plan_id":"cebpf4jnsgd1na2vs0mg"},{"bike_id":"f2b6ee84-557e-4b23-805b-89f15c45f618","system_id":"levelo_inurba_marseille","lat":43.29801,"lon":5.38103,"is_reserved":false,"is_disabled":false,"rental_uris":{"android":"levelo://app?vid=f2b6ee84-557e-4b23-805b-89f15c45f618","ios":"levelo://app?vid=f2b6ee84-557e-4b23-805b-89f15c45f618"},"vehicle_type_id":"4","last_reported":1744049654,"current_range_meters":14400,"station_id":"ce4bgip2rcd13ifvqbb0","pricing_plan_id":"cebpf4jnsgd1na2vs0mg"},{"bike_id":"1977a4e0-06ea-4154-9b08-86dd12105721","system_id":"levelo_inurba_marseille","lat":43.28655,"lon":5.36355,"is_reserved":false,"is_disabled":false,"rental_uris":{"android":"levelo://app?vid=1977a4e0-06ea-4154-9b08-86dd12105721","ios":"levelo://app?vid=1977a4e0-06ea-4154-9b08-86dd12105721"},"vehicle_type_id":"4","last_reported":1744049654,"current_range_meters":14400,"station_id":"ce4bhah2rcd13ifvqej0","pricing_plan_id":"cebpf4jnsgd1na2vs0mg"},{"bike_id":"f86aae66-1d81-4724-a47a-d74d3ba4d31a","system_id":"levelo_inurba_marseille","lat":43.28614,"lon":5.35107,"is_reserved":false,"is_disabled":false,"rental_uris":{"android":"levelo://app?vid=f86aae66-1d81-4724-a47a-d74d3ba4d31a","ios":"levelo://app?vid=f86aae66-1d81-4724-a47a-d74d3ba4d31a"},"vehicle_type_id":"4","last_reported":1744049654,"current_range_meters":14800,"station_id":"ce4bhch2rcd13ifvqeug","pricing_plan_id":"cebpf4jnsgd1na2vs0mg"},{"bike_id":"0aa02c49-cbb3-4907-a588-f754056f3ba8","system_id":"levelo_inurba_marseille","lat":43.30796,"lon":5.38149,"is_reserved":false,"is_disabled":true,"rental_uris":{"android":"levelo://app?vid=0aa02c49-cbb3-4907-a588-f754056f3ba8","ios":"levelo://app?vid=0aa02c49-cbb3-4907-a588-f754056f3ba8"},"vehicle_type_id":"4","last_reported":1744049654,"current_range_meters":14800,"station_id":"ce4bgt12rcd13ifvqce0","pricing_plan_id":"cebpf4jnsgd1na2vs0mg"},{"bike_id":"7da93dfd-fc32-4928-98f5-aecb718f4bfe","system_id":"levelo_inurba_marseille","lat":43.28839,"lon":5.39313,"is_reserved":false,"is_disabled":false,"rental_uris":{"android":"levelo://app?vid=7da93dfd-fc32-4928-98f5-aecb718f4bfe","ios":"levelo://app?vid=7da93dfd-fc32-4928-98f5-aecb718f4bfe"},"vehicle_type_id":"4","last_reported":1744049654,"current_range_meters":14800,"station_id":"ce4bh2p2rcd13ifvqdi0","pricing_plan_id":"cebpf4jnsgd1na2vs0mg"},{"bike_id":"21d4a5e7-9aba-4d7b-9bd4-9bdaf7ad171a","system_id":"levelo_inurba_marseille","lat":43.28161,"lon":5.42637,"is_reserved":false,"is_disabled":false,"rental_uris":{"android":"levelo://app?vid=21d4a5e7-9aba-4d7b-9bd4-9bdaf7ad171a","ios":"levelo://app?vid=21d4a5e7-9aba-4d7b-9bd4-9bdaf7ad171a"},"vehicle_type_id":"4","last_reported":1744049654,"current_range_meters":14800,"station_id":"ce4bhnh2rcd13ifvqgug","pricing_plan_id":"cebpf4jnsgd1na2vs0mg"},{"bike_id":"9b6a11d8-7d85-4d65-8a68-05fcd752db7e","system_id":"levelo_inurba_marseille","lat":43.2827,"lon":5.35094,"is_reserved":false,"is_disabled":false,"rental_uris":{"android":"levelo://app?vid=9b6a11d8-7d85-4d65-8a68-05fcd752db7e","ios":"levelo://app?vid=9b6a11d8-7d85-4d65-8a68-05fcd752db7e"},"vehicle_type_id":"4","last_reported":1744049654,"current_range_meters":14800,"station_id":"ce4bhbp2rcd13ifvqerg","pricing_plan_id":"cebpf4jnsgd1na2vs0mg"},{"bike_id":"d893a78a-9318-483a-996e-9bec91fd98dc","system_id":"levelo_inurba_marseille","lat":43.31719,"lon":5.43734,"is_reserved":false,"is_disabled":false,"rental_uris":{"android":"levelo://app?vid=d893a78a-9318-483a-996e-9bec91fd98dc","ios":"levelo://app?vid=d893a78a-9318-483a-996e-9bec91fd98dc"},"vehicle_type_id":"4","last_reported":1744049654,"current_range_meters":14400,"station_id":"ce4bhp92rcd13ifvqhcg","pricing_plan_id":"cebpf4jnsgd1na2vs0mg"},{"bike_id":"4e0de06a-5fb6-425c-864f-446dbfc90cbc","system_id":"levelo_inurba_marseille","lat":43.28458,"lon":5.35886,"is_reserved":false,"is_disabled":false,"rental_uris":{"android":"levelo://app?vid=4e0de06a-5fb6-425c-864f-446dbfc90cbc","ios":"levelo://app?vid=4e0de06a-5fb6-425c-864f-446dbfc90cbc"},"vehicle_type_id":"4","last_reported":1744049654,"current_range_meters":14800,"station_id":"ce4bhah2rcd13ifvqei0","pricing_plan_id":"cebpf4jnsgd1na2vs0mg"},{"bike_id":"93e3fd92-d65f-4f36-ba40-a3e5476ebc87","system_id":"levelo_inurba_marseille","lat":43.30659,"lon":5.36564,"is_reserved":false,"is_disabled":false,"rental_uris":{"android":"levelo://app?vid=93e3fd92-d65f-4f36-ba40-a3e5476ebc87","ios":"levelo://app?vid=93e3fd92-d65f-4f36-ba40-a3e5476ebc87"},"vehicle_type_id":"4","last_reported":1744049654,"current_range_meters":15200,"station_id":"","pricing_plan_id":"cebpf4jnsgd1na2vs0mg"},{"bike_id":"61cd41de-07c4-4597-a74e-0c712a9e4d87","system_id":"levelo_inurba_marseille","lat":43.22939,"lon":5.35403,"is_reserved":false,"is_disabled":true,"rental_uris":{"android":"levelo://app?vid=61cd41de-07c4-4597-a74e-0c712a9e4d87","ios":"levelo://app?vid=61cd41de-07c4-4597-a74e-0c712a9e4d87"},"vehicle_type_id":"4","last_reported":1744049654,"current_range_meters":15200,"station_id":"cpo3532slgdg3j2ikp40","pricing_plan_id":"cebpf4jnsgd1na2vs0mg"},{"bike_id":"3da3134d-f13d-46ab-aab3-bcea2ff1553d","system_id":"levelo_inurba_marseille","lat":43.28662,"lon":5.36349,"is_reserved":false,"is_disabled":false,"rental_uris":{"android":"levelo://app?vid=3da3134d-f13d-46ab-aab3-bcea2ff1553d","ios":"levelo://app?vid=3da3134d-f13d-46ab-aab3-bcea2ff1553d"},"vehicle_type_id":"4","last_reported":1744049654,"current_range_meters":15200,"station_id":"ce4bhah2rcd13ifvqej0","pricing_plan_id":"cebpf4jnsgd1na2vs0mg"},{"bike_id":"68d1cc33-0218-451e-8e10-d32225c21263","system_id":"levelo_inurba_marseille","lat":43.23176,"lon":5.43724,"is_reserved":false,"is_disabled":true,"rental_uris":{"android":"levelo://app?vid=68d1cc33-0218-451e-8e10-d32225c21263","ios":"levelo://app?vid=68d1cc33-0218-451e-8e10-d32225c21263"},"vehicle_type_id":"4","last_reported":1744049654,"current_range_meters":15200,"station_id":"ce4bhmp2rcd13ifvqgog","pricing_plan_id":"cebpf4jnsgd1na2vs0mg"},{"bike_id":"eb1e5b7a-290e-4364-ab02-b83ade46598f","system_id":"levelo_inurba_marseille","lat":43.28272,"lon":5.35061,"is_reserved":false,"is_disabled":false,"rental_uris":{"android":"levelo://app?vid=eb1e5b7a-290e-4364-ab02-b83ade46598f","ios":"levelo://app?vid=eb1e5b7a-290e-4364-ab02-b83ade46598f"},"vehicle_type_id":"4","last_reported":1744049654,"current_range_meters":15200,"station_id":"ce4bhbp2rcd13ifvqerg","pricing_plan_id":"cebpf4jnsgd1na2vs0mg"},{"bike_id":"28106982-b4c2-4a17-a517-f2f6ec8e207f","system_id":"levelo_inurba_marseille","lat":43.31363,"lon":5.38496,"is_reserved":false,"is_disabled":false,"rental_uris":{"android":"levelo://app?vid=28106982-b4c2-4a17-a517-f2f6ec8e207f","ios":"levelo://app?vid=28106982-b4c2-4a17-a517-f2f6ec8e207f"},"vehicle_type_id":"4","last_reported":1744049654,"current_range_meters":15200,"station_id":"ce4bgt92rcd13ifvqcf0","pricing_plan_id":"cebpf4jnsgd1na2vs0mg"},{"bike_id":"436d7858-b16d-4898-9847-04b1790c94c8","system_id":"levelo_inurba_marseille","lat":43.26935,"lon":5.38925,"is_reserved":false,"is_disabled":false,"rental_uris":{"android":"levelo://app?vid=436d7858-b16d-4898-9847-04b1790c94c8","ios":"levelo://app?vid=436d7858-b16d-4898-9847-04b1790c94c8"},"vehicle_type_id":"4","last_reported":1744049654,"current_range_meters":16000,"station_id":"ce4bhhh2rcd13ifvqfl0","pricing_plan_id":"cebpf4jnsgd1na2vs0mg"},{"bike_id":"6b64bee7-76ac-43f5-922e-028576f4ef49","system_id":"levelo_inurba_marseille","lat":43.28691,"lon":5.37401,"is_reserved":false,"is_disabled":false,"rental_uris":{"android":"levelo://app?vid=6b64bee7-76ac-43f5-922e-028576f4ef49","ios":"levelo://app?vid=6b64bee7-76ac-43f5-922e-028576f4ef49"},"vehicle_type_id":"4","last_reported":1744049654,"current_range_meters":16000,"station_id":"ce4bh3p2rcd13ifvqdq0","pricing_plan_id":"cebpf4jnsgd1na2vs0mg"},{"bike_id":"110cda96-7e53-497a-8708-6b2ad6ca1fd4","system_id":"levelo_inurba_marseille","lat":43.24663,"lon":5.38168,"is_reserved":false,"is_disabled":false,"rental_uris":{"android":"levelo://app?vid=110cda96-7e53-497a-8708-6b2ad6ca1fd4","ios":"levelo://app?vid=110cda96-7e53-497a-8708-6b2ad6ca1fd4"},"vehicle_type_id":"4","last_reported":1744049654,"current_range_meters":15200,"station_id":"ce4bhih2rcd13ifvqfr0","pricing_plan_id":"cebpf4jnsgd1na2vs0mg"},{"bike_id":"d3f97686-bc70-463d-88f6-edbfc075ae66","system_id":"levelo_inurba_marseille","lat":43.29707,"lon":5.36611,"is_reserved":false,"is_disabled":false,"rental_uris":{"android":"levelo://app?vid=d3f97686-bc70-463d-88f6-edbfc075ae66","ios":"levelo://app?vid=d3f97686-bc70-463d-88f6-edbfc075ae66"},"vehicle_type_id":"4","last_reported":1744049654,"current_range_meters":16000,"station_id":"ce4bgn12rcd13ifvqbt0","pricing_plan_id":"cebpf4jnsgd1na2vs0mg"},{"bike_id":"a2b55975-55e4-4a3f-8af7-2c27ff45ed68","system_id":"levelo_inurba_marseille","lat":43.2816,"lon":5.4264,"is_reserved":false,"is_disabled":true,"rental_uris":{"android":"levelo://app?vid=a2b55975-55e4-4a3f-8af7-2c27ff45ed68","ios":"levelo://app?vid=a2b55975-55e4-4a3f-8af7-2c27ff45ed68"},"vehicle_type_id":"4","last_reported":1744049654,"current_range_meters":16400,"station_id":"ce4bhnh2rcd13ifvqgug","pricing_plan_id":"cebpf4jnsgd1na2vs0mg"},{"bike_id":"1ca7d0c4-b7aa-4350-ad9f-4e24c2ba029a","system_id":"levelo_inurba_marseille","lat":43.30383,"lon":5.42486,"is_reserved":false,"is_disabled":true,"rental_uris":{"android":"levelo://app?vid=1ca7d0c4-b7aa-4350-ad9f-4e24c2ba029a","ios":"levelo://app?vid=1ca7d0c4-b7aa-4350-ad9f-4e24c2ba029a"},"vehicle_type_id":"4","last_reported":1744049654,"current_range_meters":16400,"station_id":"ce4bhoh2rcd13ifvqh6g","pricing_plan_id":"cebpf4jnsgd1na2vs0mg"},{"bike_id":"1862436f-613a-43de-aac0-f21210494cee","system_id":"levelo_inurba_marseille","lat":43.33728,"lon":5.39195,"is_reserved":false,"is_disabled":false,"rental_uris":{"android":"levelo://app?vid=1862436f-613a-43de-aac0-f21210494cee","ios":"levelo://app?vid=1862436f-613a-43de-aac0-f21210494cee"},"vehicle_type_id":"4","last_reported":1744049654,"current_range_meters":16400,"station_id":"ce4bhr92rcd13ifvqhsg","pricing_plan_id":"cebpf4jnsgd1na2vs0mg"},{"bike_id":"158df057-ca83-4895-ad1d-881f1e1b56e6","system_id":"levelo_inurba_marseille","lat":43.27227,"lon":5.39152,"is_reserved":false,"is_disabled":true,"rental_uris":{"android":"levelo://app?vid=158df057-ca83-4895-ad1d-881f1e1b56e6","ios":"levelo://app?vid=158df057-ca83-4895-ad1d-881f1e1b56e6"},"vehicle_type_id":"4","last_reported":1744049654,"current_range_meters":16400,"station_id":"ce4bhhp2rcd13ifvqfm0","pricing_plan_id":"cebpf4jnsgd1na2vs0mg"},{"bike_id":"e1b0d24a-ac23-496a-84d5-031100258b18","system_id":"levelo_inurba_marseille","lat":43.27368,"lon":5.36257,"is_reserved":false,"is_disabled":false,"rental_uris":{"android":"levelo://app?vid=e1b0d24a-ac23-496a-84d5-031100258b18","ios":"levelo://app?vid=e1b0d24a-ac23-496a-84d5-031100258b18"},"vehicle_type_id":"4","last_reported":1744049654,"current_range_meters":16400,"station_id":"ce4bhbh2rcd13ifvqeo0","pricing_plan_id":"cebpf4jnsgd1na2vs0mg"},{"bike_id":"dc13e99a-13f7-4cfa-8f17-76a64c08e10d","system_id":"levelo_inurba_marseille","lat":43.28684,"lon":5.37399,"is_reserved":false,"is_disabled":false,"rental_uris":{"android":"levelo://app?vid=dc13e99a-13f7-4cfa-8f17-76a64c08e10d","ios":"levelo://app?vid=dc13e99a-13f7-4cfa-8f17-76a64c08e10d"},"vehicle_type_id":"4","last_reported":1744049654,"current_range_meters":16400,"station_id":"ce4bh3p2rcd13ifvqdq0","pricing_plan_id":"cebpf4jnsgd1na2vs0mg"},{"bike_id":"3c7fead0-d147-458e-9f02-4695a2993555","system_id":"levelo_inurba_marseille","lat":43.29541,"lon":5.38553,"is_reserved":false,"is_disabled":false,"rental_uris":{"android":"levelo://app?vid=3c7fead0-d147-458e-9f02-4695a2993555","ios":"levelo://app?vid=3c7fead0-d147-458e-9f02-4695a2993555"},"vehicle_type_id":"4","last_reported":1744049654,"current_range_meters":16400,"station_id":"ce4bgih2rcd13ifvqba0","pricing_plan_id":"cebpf4jnsgd1na2vs0mg"},{"bike_id":"760b85de-5509-453b-8eec-362280e5b3cd","system_id":"levelo_inurba_marseille","lat":43.27056,"lon":5.42279,"is_reserved":false,"is_disabled":false,"rental_uris":{"android":"levelo://app?vid=760b85de-5509-453b-8eec-362280e5b3cd","ios":"levelo://app?vid=760b85de-5509-453b-8eec-362280e5b3cd"},"vehicle_type_id":"4","last_reported":1744049654,"current_range_meters":16000,"station_id":"ce4bhk92rcd13ifvqgb0","pricing_plan_id":"cebpf4jnsgd1na2vs0mg"},{"bike_id":"e0c712a4-8c41-4e69-a875-50251525a0f6","system_id":"levelo_inurba_marseille","lat":43.27937,"lon":5.40845,"is_reserved":false,"is_disabled":false,"rental_uris":{"android":"levelo://app?vid=e0c712a4-8c41-4e69-a875-50251525a0f6","ios":"levelo://app?vid=e0c712a4-8c41-4e69-a875-50251525a0f6"},