{"last_updated":1701975942,"ttl":30,"version":"2.2","data":{"bikes":[{"bike_id":"7fd92a2c-6f7c-4717-b945-edee76682e0c","system_id":"levelo_inurba_marseille","lat":43.313391,"lon":5.36706,"is_reserved":false,"is_disabled":false,"rental_uris":{"android":"levelo://app?vid=7fd92a2c-6f7c-4717-b945-edee76682e0c","ios":"levelo://app?vid=7fd92a2c-6f7c-4717-b945-edee76682e0c"},"vehicle_type_id":"4","last_reported":1701975943,"current_range_meters":13600,"station_id":"ce4bgr92rcd13ifvqc6g","pricing_plan_id":"free"},{"bike_id":"adb2f603-0135-4203-8407-597239175e1b","system_id":"levelo_inurba_marseille","lat":43.312239,"lon":5.368562,"is_reserved":false,"is_disabled":false,"rental_uris":{"android":"levelo://app?vid=adb2f603-0135-4203-8407-597239175e1b","ios":"levelo://app?vid=adb2f603-0135-4203-8407-597239175e1b"},"vehicle_type_id":"4","last_reported":1701975943,"current_range_meters":4400,"station_id":"ce4bgl92rcd13ifvqbq0","pricing_plan_id":"free"},{"bike_id":"2b623d78-31db-4523-9092-99a23494fa06","system_id":"levelo_inurba_marseille","lat":43.309076,"lon":5.368465,"is_reserved":false,"is_disabled":false,"rental_uris":{"android":"levelo://app?vid=2b623d78-31db-4523-9092-99a23494fa06","ios":"levelo://app?vid=2b623d78-31db-4523-9092-99a23494fa06"},"vehicle_type_id":"4","last_reported":1701975943,"current_range_meters":11200,"station_id":"ce4bgn92rcd13ifvqbvg","pricing_plan_id":"free"},{"bike_id":"57cbfa0e-0d67-4fa3-a2fb-ebde618b6f0d","system_id":"levelo_inurba_marseille","lat":43.309076,"lon":5.368465,"is_reserved":false,"is_disabled":false,"rental_uris":{"android":"levelo://app?vid=57cbfa0e-0d67-4fa3-a2fb-ebde618b6f0d","ios":"levelo://app?vid=57cbfa0e-0d67-4fa3-a2fb-ebde618b6f0d"},"vehicle_type_id":"4","last_reported":1701975943,"current_range_meters":20000,"station_id":"ce4bgn92rcd13ifvqbvg","pricing_plan_id":"free"},{"bike_id":"2c4259f8-296c-49b8-818d-81d850bc35bf","system_id":"levelo_inurba_marseille","lat":43.317075,"lon":5.377367,"is_reserved":false,"is_disabled":false,"rental_uris":{"android":"levelo://app?vid=2c4259f8-296c-49b8-818d-81d850bc35bf","ios":"levelo://app?vid=2c4259f8-296c-49b8-818d-81d850bc35bf"},"vehicle_type_id":"4","last_reported":1701975943,"current_range_meters":2800,"station_id":"ce4bgth2rcd13ifvqch0","pricing_plan_id":"free"},{"bike_id":"adf146c5-e4e1-4668-9a33-042940925130","system_id":"levelo_inurba_marseille","lat":43.31351,"lon":5.37909,"is_reserved":false,"is_disabled":false,"rental_uris":{"android":"levelo://app?vid=adf146c5-e4e1-4668-9a33-042940925130","ios":"levelo://app?vid=adf146c5-e4e1-4668-9a33-042940925130"},"vehicle_type_id":"4","last_reported":1701975943,"current_range_meters":1600,"station_id":"","pricing_plan_id":"free"},{"bike_id":"8b14b5b5-e20c-48d8-a3da-5b4495cbd933","system_id":"levelo_inurba_marseille","lat":43.30304,"lon":5.368987,"is_reserved":false,"is_disabled":false,"rental_uris":{"android":"levelo://app?vid=8b14b5b5-e20c-48d8-a3da-5b4495cbd933","ios":"levelo://app?vid=8b14b5b5-e20c-48d8-a3da-5b4495cbd933"},"vehicle_type_id":"4","last_reported":1701975943,"current_range_meters":5600,"station_id":"ce4bgqh2rcd13ifvqc5g","pricing_plan_id":"free"},{"bike_id":"1ea60f58-75f7-4484-b705-1156df4b02ad","system_id":"levelo_inurba_marseille","lat":43.302733,"lon":5.373501,"is_reserved":false,"is_disabled":false,"rental_uris":{"android":"levelo://app?vid=1ea60f58-75f7-4484-b705-1156df4b02ad","ios":"levelo://app?vid=1ea60f58-75f7-4484-b705-1156df4b02ad"},"vehicle_type_id":"4","last_reported":1701975943,"current_range_meters":4400,"station_id":"","pricing_plan_id":"free"},{"bike_id":"55311dec-ec61-4646-8d1a-4ddd89532043","system_id":"levelo_inurba_marseille","lat":43.32431,"lon":5.36815,"is_reserved":false,"is_disabled":false,"rental_uris":{"android":"levelo://app?vid=55311dec-ec61-4646-8d1a-4ddd89532043","ios":"levelo://app?vid=55311dec-ec61-4646-8d1a-4ddd89532043"},"vehicle_type_id":"4","last_reported":1701975943,"current_range_meters":23600,"station_id":"","pricing_plan_id":"free"},{"bike_id":"92db128a-24c2-4799-8541-ae409e68241a","system_id":"levelo_inurba_marseille","lat":43.301429,"lon":5.37413,"is_reserved":false,"is_disabled":false,"rental_uris":{"android":"levelo://app?vid=92db128a-24c2-4799-8541-ae409e68241a","ios":"levelo://app?vid=92db128a-24c2-4799-8541-ae409e68241a"},"vehicle_type_id":"4","last_reported":1701975943,"current_range_meters":0,"station_id":"ce4bgs92rcd13ifvqcc0","pricing_plan_id":"free"},{"bike_id":"8e6bcc22-26a3-4f21-b99e-ec3014f3e345","system_id":"levelo_inurba_marseille","lat":43.31993,"lon":5.38149,"is_reserved":false,"is_disabled":false,"rental_uris":{"android":"levelo://app?vid=8e6bcc22-26a3-4f21-b99e-ec3014f3e345","ios":"levelo://app?vid=8e6bcc22-26a3-4f21-b99e-ec3014f3e345"},"vehicle_type_id":"4","last_reported":1701975943,"current_range_meters":17200,"station_id":"ce4bhr12rcd13ifvqhpg","pricing_plan_id":"free"},{"bike_id":"a88cf5d7-0e4d-4efb-83ba-895743ae7648","system_id":"levelo_inurba_marseille","lat":43.319935,"lon":5.381699,"is_reserved":false,"is_disabled":false,"rental_uris":{"android":"levelo://app?vid=a88cf5d7-0e4d-4efb-83ba-895743ae7648","ios":"levelo://app?vid=a88cf5d7-0e4d-4efb-83ba-895743ae7648"},"vehicle_type_id":"4","last_reported":1701975943,"current_range_meters":18800,"station_id":"ce4bhr12rcd13ifvqhpg","pricing_plan_id":"free"},{"bike_id":"9ee0ef7a-8d9c-4d78-8ae5-64e12b708d26","system_id":"levelo_inurba_marseille","lat":43.319997,"lon":5.381594,"is_reserved":false,"is_disabled":false,"rental_uris":{"android":"levelo://app?vid=9ee0ef7a-8d9c-4d78-8ae5-64e12b708d26","ios":"levelo://app?vid=9ee0ef7a-8d9c-4d78-8ae5-64e12b708d26"},"vehicle_type_id":"4","last_reported":1701975943,"current_range_meters":0,"station_id":"ce4bhr12rcd13ifvqhpg","pricing_plan_id":"free"},{"bike_id":"cb473838-747e-47ca-b07a-3dc20b15e156","system_id":"levelo_inurba_marseille","lat":43.32,"lon":5.38164,"is_reserved":false,"is_disabled":false,"rental_uris":{"android":"levelo://app?vid=cb473838-747e-47ca-b07a-3dc20b15e156","ios":"levelo://app?vid=cb473838-747e-47ca-b07a-3dc20b15e156"},"vehicle_type_id":"4","last_reported":1701975943,"current_range_meters":24400,"station_id":"ce4bhr12rcd13ifvqhpg","pricing_plan_id":"free"},{"bike_id":"a49b99ee-38eb-49b5-978d-00cf198fff08","system_id":"levelo_inurba_marseille","lat":43.299658,"lon":5.366318,"is_reserved":false,"is_disabled":false,"rental_uris":{"android":"levelo://app?vid=a49b99ee-38eb-49b5-978d-00cf198fff08","ios":"levelo://app?vid=a49b99ee-38eb-49b5-978d-00cf198fff08"},"vehicle_type_id":"4","last_reported":1701975943,"current_range_meters":22800,"station_id":"","pricing_plan_id":"free"},{"bike_id":"781b096c-5e14-4c34-aff1-d69705669af9","system_id":"levelo_inurba_marseille","lat":43.313571,"lon":5.384829,"is_reserved":false,"is_disabled":false,"rental_uris":{"android":"levelo://app?vid=781b096c-5e14-4c34-aff1-d69705669af9","ios":"levelo://app?vid=781b096c-5e14-4c34-aff1-d69705669af9"},"vehicle_type_id":"4","last_reported":1701975943,"current_range_meters":12000,"station_id":"ce4bgt92rcd13ifvqcf0","pricing_plan_id":"free"},{"bike_id":"f984904f-62bc-4aae-af34-3663db5b3bf1","system_id":"levelo_inurba_marseille","lat":43.313571,"lon":5.384829,"is_reserved":false,"is_disabled":false,"rental_uris":{"android":"levelo://app?vid=f984904f-62bc-4aae-af34-3663db5b3bf1","ios":"levelo://app?vid=f984904f-62bc-4aae-af34-3663db5b3bf1"},"vehicle_type_id":"4","last_reported":1701975943,"current_range_meters":24800,"station_id":"ce4bgt92rcd13ifvqcf0","pricing_plan_id":"free"},{"bike_id":"a2906976-24c7-46de-bb3a-c45bf1599c3a","system_id":"levelo_inurba_marseille","lat":43.313571,"lon":5.384829,"is_reserved":false,"is_disabled":false,"rental_uris":{"android":"levelo://app?vid=a2906976-24c7-46de-bb3a-c45bf1599c3a","ios":"levelo://app?vid=a2906976-24c7-46de-bb3a-c45bf1599c3a"},"vehicle_type_id":"4","last_reported":1701975943,"current_range_meters":26800,"station_id":"ce4bgt92rcd13ifvqcf0","pricing_plan_id":"free"},{"bike_id":"fc264b3f-3320-4cc5-b6c9-33d6dd892c87","system_id":"levelo_inurba_marseille","lat":43.32744,"lon":5.36593,"is_reserved":false,"is_disabled":false,"rental_uris":{"android":"levelo://app?vid=fc264b3f-3320-4cc5-b6c9-33d6dd892c87","ios":"levelo://app?vid=fc264b3f-3320-4cc5-b6c9-33d6dd892c87"},"vehicle_type_id":"4","last_reported":1701975943,"current_range_meters":20000,"station_id":"","pricing_plan_id":"free"},{"bike_id":"e02aeff7-8788-4c5a-91c7-ebd838387504","system_id":"levelo_inurba_marseille","lat":43.311722,"lon":5.387247,"is_reserved":false,"is_disabled":false,"rental_uris":{"android":"levelo://app?vid=e02aeff7-8788-4c5a-91c7-ebd838387504","ios":"levelo://app?vid=e02aeff7-8788-4c5a-91c7-ebd838387504"},"vehicle_type_id":"4","last_reported":1701975943,"current_range_meters":3600,"station_id":"ce4bgv12rcd13ifvqcp0","pricing_plan_id":"free"},{"bike_id":"5245f0d2-e83f-4123-be4c-6988fd9633ea","system_id":"levelo_inurba_marseille","lat":43.311722,"lon":5.387247,"is_reserved":false,"is_disabled":false,"rental_uris":{"android":"levelo://app?vid=5245f0d2-e83f-4123-be4c-6988fd9633ea","ios":"levelo://app?vid=5245f0d2-e83f-4123-be4c-6988fd9633ea"},"vehicle_type_id":"4","last_reported":1701975943,"current_range_meters":10400,"station_id":"ce4bgv12rcd13ifvqcp0","pricing_plan_id":"free"},{"bike_id":"a0ad3862-c751-4d98-b245-dc65bc252b85","system_id":"levelo_inurba_marseille","lat":43.297774,"lon":5.370875,"is_reserved":false,"is_disabled":false,"rental_uris":{"android":"levelo://app?vid=a0ad3862-c751-4d98-b245-dc65bc252b85","ios":"levelo://app?vid=a0ad3862-c751-4d98-b245-dc65bc252b85"},"vehicle_type_id":"4","last_reported":1701975943,"current_range_meters":22000,"station_id":"ce4bgop2rcd13ifvqc1g","pricing_plan_id":"free"},{"bike_id":"0d54d094-e0f1-40b0-976d-4597098b5ddc","system_id":"levelo_inurba_marseille","lat":43.322872,"lon":5.382756,"is_reserved":false,"is_disabled":false,"rental_uris":{"android":"levelo://app?vid=0d54d094-e0f1-40b0-976d-4597098b5ddc","ios":"levelo://app?vid=0d54d094-e0f1-40b0-976d-4597098b5ddc"},"vehicle_type_id":"4","last_reported":1701975943,"current_range_meters":14000,"station_id":"ce4bhr12rcd13ifvqhqg","pricing_plan_id":"free"},{"bike_id":"3dcd4a73-468d-493a-bf11-93ceddd109f8","system_id":"levelo_inurba_marseille","lat":43.322872,"lon":5.382756,"is_reserved":false,"is_disabled":false,"rental_uris":{"android":"levelo://app?vid=3dcd4a73-468d-493a-bf11-93ceddd109f8","ios":"levelo://app?vid=3dcd4a73-468d-493a-bf11-93ceddd109f8"},"vehicle_type_id":"4","last_reported":1701975943,"current_range_meters":19600,"station_id":"ce4bhr12rcd13ifvqhqg","pricing_plan_id":"free"},{"bike_id":"9c16f2f7-d9da-467d-8e24-08427835fb58","system_id":"levelo_inurba_marseille","lat":43.297163,"lon":5.365866,"is_reserved":false,"is_disabled":false,"rental_uris":{"android":"levelo://app?vid=9c16f2f7-d9da-467d-8e24-08427835fb58","ios":"levelo://app?vid=9c16f2f7-d9da-467d-8e24-08427835fb58"},"vehicle_type_id":"4","last_reported":1701975943,"current_range_meters":20400,"station_id":"ce4bgn12rcd13ifvqbt0","pricing_plan_id":"free"},{"bike_id":"26fc0c47-e5ee-49d2-911f-b4135c252acd","system_id":"levelo_inurba_marseille","lat":43.328662,"lon":5.36519,"is_reserved":false,"is_disabled":false,"rental_uris":{"android":"levelo://app?vid=26fc0c47-e5ee-49d2-911f-b4135c252acd","ios":"levelo://app?vid=26fc0c47-e5ee-49d2-911f-b4135c252acd"},"vehicle_type_id":"4","last_reported":1701975943,"current_range_meters":28000,"station_id":"","pricing_plan_id":"free"},{"bike_id":"92dc65d6-6823-4de3-93d4-056f738f090c","system_id":"levelo_inurba_marseille","lat":43.316538,"lon":5.38954,"is_reserved":false,"is_disabled":false,"rental_uris":{"android":"levelo://app?vid=92dc65d6-6823-4de3-93d4-056f738f090c","ios":"levelo://app?vid=92dc65d6-6823-4de3-93d4-056f738f090c"},"vehicle_type_id":"4","last_reported":1701975943,"current_range_meters":4400,"station_id":"","pricing_plan_id":"free"},{"bike_id":"ef08f774-2713-46c7-ac61-11066468225e","system_id":"levelo_inurba_marseille","lat":43.295767,"lon":5.367983,"is_reserved":false,"is_disabled":false,"rental_uris":{"android":"levelo://app?vid=ef08f774-2713-46c7-ac61-11066468225e","ios":"levelo://app?vid=ef08f774-2713-46c7-ac61-11066468225e"},"vehicle_type_id":"4","last_reported":1701975943,"current_range_meters":25600,"station_id":"ce4bgph2rcd13ifvqc2g","pricing_plan_id":"free"},{"bike_id":"3e3b9075-0ace-403d-8eca-2e186639c9c0","system_id":"levelo_inurba_marseille","lat":43.299028,"lon":5.381509,"is_reserved":false,"is_disabled":false,"rental_uris":{"android":"levelo://app?vid=3e3b9075-0ace-403d-8eca-2e186639c9c0","ios":"levelo://app?vid=3e3b9075-0ace-403d-8eca-2e186639c9c0"},"vehicle_type_id":"4","last_reported":1701975943,"current_range_meters":22400,"station_id":"ce4bgj12rcd13ifvqbc0","pricing_plan_id":"free"},{"bike_id":"6704ccc9-e404-4d45-a1cc-5cfa5b218334","system_id":"levelo_inurba_marseille","lat":43.30949,"lon":5.39027,"is_reserved":false,"is_disabled":false,"rental_uris":{"android":"levelo://app?vid=6704ccc9-e404-4d45-a1cc-5cfa5b218334","ios":"levelo://app?vid=6704ccc9-e404-4d45-a1cc-5cfa5b218334"},"vehicle_type_id":"4","last_reported":1701975943,"current_range_meters":2400,"station_id":"ce4bgup2rcd13ifvqco0","pricing_plan_id":"free"},{"bike_id":"a807cea0-7344-4410-b064-525875788c36","system_id":"levelo_inurba_marseille","lat":43.309589,"lon":5.390258,"is_reserved":false,"is_disabled":false,"rental_uris":{"android":"levelo://app?vid=a807cea0-7344-4410-b064-525875788c36","ios":"levelo://app?vid=a807cea0-7344-4410-b064-525875788c36"},"vehicle_type_id":"4","last_reported":1701975943,"current_range_meters":22000,"station_id":"ce4bgup2rcd13ifvqco0","pricing_plan_id":"free"},{"bike_id":"95dc5271-00ea-4d48-9852-3d8ba79295bb","system_id":"levelo_inurba_marseille","lat":43.295279,"lon":5.375048,"is_reserved":false,"is_disabled":false,"rental_uris":{"android":"levelo://app?vid=95dc5271-00ea-4d48-9852-3d8ba79295bb","ios":"levelo://app?vid=95dc5271-00ea-4d48-9852-3d8ba79295bb"},"vehicle_type_id":"4","last_reported":1701975943,"current_range_meters":8800,"station_id":"ce4bgkp2rcd13ifvqbmg","pricing_plan_id":"free"},{"bike_id":"b8c88944-6fef-48f6-b70f-fad422e100d9","system_id":"levelo_inurba_marseille","lat":43.3236,"lon":5.38898,"is_reserved":false,"is_disabled":false,"rental_uris":{"android":"levelo://app?vid=b8c88944-6fef-48f6-b70f-fad422e100d9","ios":"levelo://app?vid=b8c88944-6fef-48f6-b70f-fad422e100d9"},"vehicle_type_id":"4","last_reported":1701975943,"current_range_meters":10800,"station_id":"ce4bhqp2rcd13ifvqhog","pricing_plan_id":"free"},{"bike_id":"7579423d-f3b8-4e7f-be59-2ba9da91b549","system_id":"levelo_inurba_marseille","lat":43.314227,"lon":5.393817,"is_reserved":false,"is_disabled":false,"rental_uris":{"android":"levelo://app?vid=7579423d-f3b8-4e7f-be59-2ba9da91b549","ios":"levelo://app?vid=7579423d-f3b8-4e7f-be59-2ba9da91b549"},"vehicle_type_id":"4","last_reported":1701975943,"current_range_meters":8000,"station_id":"","pricing_plan_id":"free"},{"bike_id":"9dabeea2-8be3-4a1f-a1ef-11dc4b8e2bfb","system_id":"levelo_inurba_marseille","lat":43.292749,"lon":5.368402,"is_reserved":false,"is_disabled":false,"rental_uris":{"android":"levelo://app?vid=9dabeea2-8be3-4a1f-a1ef-11dc4b8e2bfb","ios":"levelo://app?vid=9dabeea2-8be3-4a1f-a1ef-11dc4b8e2bfb"},"vehicle_type_id":"4","last_reported":1701975943,"current_range_meters":3200,"station_id":"ce4bhbp2rcd13ifvqesg","pricing_plan_id":"free"},{"bike_id":"209d3b5c-b6ac-4eab-80f9-4b3672dfcd56","system_id":"levelo_inurba_marseille","lat":43.29277,"lon":5.36841,"is_reserved":false,"is_disabled":false,"rental_uris":{"android":"levelo://app?vid=209d3b5c-b6ac-4eab-80f9-4b3672dfcd56","ios":"levelo://app?vid=209d3b5c-b6ac-4eab-80f9-4b3672dfcd56"},"vehicle_type_id":"4","last_reported":1701975943,"current_range_meters":7200,"station_id":"ce4bhbp2rcd13ifvqesg","pricing_plan_id":"free"},{"bike_id":"cbf5f2da-b7ed-4559-a1ad-523a3f26544c","system_id":"levelo_inurba_marseille","lat":43.293259,"lon":5.371586,"is_reserved":false,"is_disabled":false,"rental_uris":{"android":"levelo://app?vid=cbf5f2da-b7ed-4559-a1ad-523a3f26544c","ios":"levelo://app?vid=cbf5f2da-b7ed-4559-a1ad-523a3f26544c"},"vehicle_type_id":"4","last_reported":1701975943,"current_range_meters":21600,"station_id":"ce4bgh92rcd13ifvqb40","pricing_plan_id":"free"},{"bike_id":"97c6ceb1-2eda-4549-83a1-a5c49cb36bb8","system_id":"levelo_inurba_marseille","lat":43.29272,"lon":5.36839,"is_reserved":false,"is_disabled":false,"rental_uris":{"android":"levelo://app?vid=97c6ceb1-2eda-4549-83a1-a5c49cb36bb8","ios":"levelo://app?vid=97c6ceb1-2eda-4549-83a1-a5c49cb36bb8"},"vehicle_type_id":"4","last_reported":1701975943,"current_range_meters":14000,"station_id":"ce4bhbp2rcd13ifvqesg","pricing_plan_id":"free"},{"bike_id":"5296c050-d192-4ed8-a347-3fe2bcfadb67","system_id":"levelo_inurba_marseille","lat":43.29272,"lon":5.36846,"is_reserved":false,"is_disabled":false,"rental_uris":{"android":"levelo://app?vid=5296c050-d192-4ed8-a347-3fe2bcfadb67","ios":"levelo://app?vid=5296c050-d192-4ed8-a347-3fe2bcfadb67"},"vehicle_type_id":"4","last_reported":1701975943,"current_range_meters":5200,"station_id":"ce4bhbp2rcd13ifvqesg","pricing_plan_id":"free"},{"bike_id":"fb8b7923-e37a-47d1-9460-bea256733a48","system_id":"levelo_inurba_marseille","lat":43.293009,"lon":5.374584,"is_reserved":false,"is_disabled":false,"rental_uris":{"android":"levelo://app?vid=fb8b7923-e37a-47d1-9460-bea256733a48","ios":"levelo://app?vid=fb8b7923-e37a-47d1-9460-bea256733a48"},"vehicle_type_id":"4","last_reported":1701975943,"current_range_meters":29200,"station_id":"ce4bgi12rcd13ifvqb70","pricing_plan_id":"free"},{"bike_id":"164757cd-cf3d-45ec-9eaa-6a3f9c12778b","system_id":"levelo_inurba_marseille","lat":43.30085,"lon":5.390856,"is_reserved":false,"is_disabled":false,"rental_uris":{"android":"levelo://app?vid=164757cd-cf3d-45ec-9eaa-6a3f9c12778b","ios":"levelo://app?vid=164757cd-cf3d-45ec-9eaa-6a3f9c12778b"},"vehicle_type_id":"4","last_reported":1701975943,"current_range_meters":24000,"station_id":"ce4bh192rcd13ifvqdb0","pricing_plan_id":"free"},{"bike_id":"008b0c00-499d-41f1-a2cd-77908a6aa827","system_id":"levelo_inurba_marseille","lat":43.292311,"lon":5.360731,"is_reserved":false,"is_disabled":false,"rental_uris":{"android":"levelo://app?vid=008b0c00-499d-41f1-a2cd-77908a6aa827","ios":"levelo://app?vid=008b0c00-499d-41f1-a2cd-77908a6aa827"},"vehicle_type_id":"4","last_reported":1701975943,"current_range_meters":11200,"station_id":"ce4bhbh2rcd13ifvqeqg","pricing_plan_id":"free"},{"bike_id":"402666bd-ab7f-44c3-a6a5-bd73fc74f492","system_id":"levelo_inurba_marseille","lat":43.31325,"lon":5.39691,"is_reserved":false,"is_disabled":false,"rental_uris":{"android":"levelo://app?vid=402666bd-ab7f-44c3-a6a5-bd73fc74f492","ios":"levelo://app?vid=402666bd-ab7f-44c3-a6a5-bd73fc74f492"},"vehicle_type_id":"4","last_reported":1701975943,"current_range_meters":0,"station_id":"ce4bgvp2rcd13ifvqcu0","pricing_plan_id":"free"},{"bike_id":"3814f3b5-cafa-4033-bb67-ed20152de6b0","system_id":"levelo_inurba_marseille","lat":43.31325,"lon":5.39692,"is_reserved":false,"is_disabled":false,"rental_uris":{"android":"levelo://app?vid=3814f3b5-cafa-4033-bb67-ed20152de6b0","ios":"levelo://app?vid=3814f3b5-cafa-4033-bb67-ed20152de6b0"},"vehicle_type_id":"4","last_reported":1701975943,"current_range_meters":1200,"station_id":"ce4bgvp2rcd13ifvqcu0","pricing_plan_id":"free"},{"bike_id":"5cc46180-f859-423b-b402-0af92ab53d05","system_id":"levelo_inurba_marseille","lat":43.31326,"lon":5.39692,"is_reserved":false,"is_disabled":false,"rental_uris":{"android":"levelo://app?vid=5cc46180-f859-423b-b402-0af92ab53d05","ios":"levelo://app?vid=5cc46180-f859-423b-b402-0af92ab53d05"},"vehicle_type_id":"4","last_reported":1701975943,"current_range_meters":0,"station_id":"ce4bgvp2rcd13ifvqcu0","pricing_plan_id":"free"},{"bike_id":"9896f0ee-c20e-4279-ae97-fc4ae65c84d6","system_id":"levelo_inurba_marseille","lat":43.313291,"lon":5.396838,"is_reserved":false,"is_disabled":false,"rental_uris":{"android":"levelo://app?vid=9896f0ee-c20e-4279-ae97-fc4ae65c84d6","ios":"levelo://app?vid=9896f0ee-c20e-4279-ae97-fc4ae65c84d6"},"vehicle_type_id":"4","last_reported":1701975943,"current_range_meters":27600,"station_id":"ce4bgvp2rcd13ifvqcu0","pricing_plan_id":"free"},{"bike_id":"3134bd8b-1f4d-4e00-b3fa-c7bc8df2e245","system_id":"levelo_inurba_marseille","lat":43.313291,"lon":5.396838,"is_reserved":false,"is_disabled":false,"rental_uris":{"android":"levelo://app?vid=3134bd8b-1f4d-4e00-b3fa-c7bc8df2e245","ios":"levelo://app?vid=3134bd8b-1f4d-4e00-b3fa-c7bc8df2e245"},"vehicle_type_id":"4","last_reported":1701975943,"current_range_meters":12800,"station_id":"ce4bgvp2rcd13ifvqcu0","pricing_plan_id":"free"},{"bike_id":"64766862-e240-4bdb-98fa-426d15a1d725","system_id":"levelo_inurba_marseille","lat":43.309038,"lon":5.396546,"is_reserved":false,"is_disabled":false,"rental_uris":{"android":"levelo://app?vid=64766862-e240-4bdb-98fa-426d15a1d725","ios":"levelo://app?vid=64766862-e240-4bdb-98fa-426d15a1d725"},"vehicle_type_id":"4","last_reported":1701975943,"current_range_meters":0,"station_id":"ce4bh012rcd13ifvqcv0","pricing_plan_id":"free"},{"bike_id":"7ab4e3c2-383d-494e-91f8-1a6d2584c06e","system_id":"levelo_inurba_marseille","lat":43.294153,"lon":5.386305,"is_reserved":false,"is_disabled":false,"rental_uris":{"android":"levelo://app?vid=7ab4e3c2-383d-494e-91f8-1a6d2584c06e","ios":"levelo://app?vid=7ab4e3c2-383d-494e-91f8-1a6d2584c06e"},"vehicle_type_id":"4","last_reported":1701975943,"current_range_meters":8800,"station_id":"ce4bh2h2rcd13ifvqdh0","pricing_plan_id":"free"},{"bike_id":"df276083-cab6-4174-a29c-9557f1ba2cb2","system_id":"levelo_inurba_marseille","lat":43.294153,"lon":5.386305,"is_reserved":false,"is_disabled":false,"rental_uris":{"android":"levelo://app?vid=df276083-cab6-4174-a29c-9557f1ba2cb2","ios":"levelo://app?vid=df276083-cab6-4174-a29c-9557f1ba2cb2"},"vehicle_type_id":"4","last_reported":1701975943,"current_range_meters":20400,"station_id":"ce4bh2h2rcd13ifvqdh0","pricing_plan_id":"free"},{"bike_id":"ba4076c7-ae6f-4ba6-909e-8135d4e87918","system_id":"levelo_inurba_marseille","lat":43.294153,"lon":5.386305,"is_reserved":false,"is_disabled":false,"rental_uris":{"android":"levelo://app?vid=ba4076c7-ae6f-4ba6-909e-8135d4e87918","ios":"levelo://app?vid=ba4076c7-ae6f-4ba6-909e-8135d4e87918"},"vehicle_type_id":"4","last_reported":1701975943,"current_range_meters":0,"station_id":"ce4bh2h2rcd13ifvqdh0","pricing_plan_id":"free"},{"bike_id":"54f4ffef-4aae-4aaa-a542-9cb546cdb0d6","system_id":"levelo_inurba_marseille","lat":43.29029,"lon":5.37573,"is_reserved":false,"is_disabled":false,"rental_uris":{"android":"levelo://app?vid=54f4ffef-4aae-4aaa-a542-9cb546cdb0d6","ios":"levelo://app?vid=54f4ffef-4aae-4aaa-a542-9cb546cdb0d6"},"vehicle_type_id":"4","last_reported":1701975943,"current_range_meters":0,"station_id":"ce4bh692rcd13ifvqe90","pricing_plan_id":"free"},{"bike_id":"8a94f3ac-0283-4846-800c-bb7f861b668e","system_id":"levelo_inurba_marseille","lat":43.290161,"lon":5.375651,"is_reserved":false,"is_disabled":false,"rental_uris":{"android":"levelo://app?vid=8a94f3ac-0283-4846-800c-bb7f861b668e","ios":"levelo://app?vid=8a94f3ac-0283-4846-800c-bb7f861b668e"},"vehicle_type_id":"4","last_reported":1701975943,"current_range_meters":20000,"station_id":"","pricing_plan_id":"free"},{"bike_id":"a02a1b20-1fb1-4951-988a-77389649024d","system_id":"levelo_inurba_marseille","lat":43.289259,"lon":5.366364,"is_reserved":false,"is_disabled":false,"rental_uris":{"android":"levelo://app?vid=a02a1b20-1fb1-4951-988a-77389649024d","ios":"levelo://app?vid=a02a1b20-1fb1-4951-988a-77389649024d"},"vehicle_type_id":"4","last_reported":1701975943,"current_range_meters":18800,"station_id":"","pricing_plan_id":"free"},{"bike_id":"9253c692-8a08-4c16-8f1a-e9f38e5e7a1b","system_id":"levelo_inurba_marseille","lat":43.289741,"lon":5.378306,"is_reserved":false,"is_disabled":false,"rental_uris":{"android":"levelo://app?vid=9253c692-8a08-4c16-8f1a-e9f38e5e7a1b","ios":"levelo://app?vid=9253c692-8a08-4c16-8f1a-e9f38e5e7a1b"},"vehicle_type_id":"4","last_reported":1701975943,"current_range_meters":2400,"station_id":"ce4bh9p2rcd13ifvqed0","pricing_plan_id":"free"},{"bike_id":"2b195898-e2f4-4617-9fd6-3cf47c0f0a02","system_id":"levelo_inurba_marseille","lat":43.290094,"lon":5.381264,"is_reserved":false,"is_disabled":false,"rental_uris":{"android":"levelo://app?vid=2b195898-e2f4-4617-9fd6-3cf47c0f0a02","ios":"levelo://app?vid=2b195898-e2f4-4617-9fd6-3cf47c0f0a02"},"vehicle_type_id":"4","last_reported":1701975943,"current_range_meters":4000,"station_id":"ce4bh4p2rcd13ifvqe1g","pricing_plan_id":"free"},{"bike_id":"47c4d13e-886f-4bf1-928b-1b50473f16f7","system_id":"levelo_inurba_marseille","lat":43.2901,"lon":5.381269,"is_reserved":false,"is_disabled":false,"rental_uris":{"android":"levelo://app?vid=47c4d13e-886f-4bf1-928b-1b50473f16f7","ios":"levelo://app?vid=47c4d13e-886f-4bf1-928b-1b50473f16f7"},"vehicle_type_id":"4","last_reported":1701975943,"current_range_meters":7600,"station_id":"ce4bh4p2rcd13ifvqe1g","pricing_plan_id":"free"},{"bike_id":"108696cb-6bfa-4400-aa7a-ab44a5402b00","system_id":"levelo_inurba_marseille","lat":43.288558,"lon":5.358635,"is_reserved":false,"is_disabled":false,"rental_uris":{"android":"levelo://app?vid=108696cb-6bfa-4400-aa7a-ab44a5402b00","ios":"levelo://app?vid=108696cb-6bfa-4400-aa7a-ab44a5402b00"},"vehicle_type_id":"4","last_reported":1701975943,"current_range_meters":27200,"station_id":"","pricing_plan_id":"free"},{"bike_id":"5ae2f13f-64f6-43aa-bf47-f4c5e1590624","system_id":"levelo_inurba_marseille","lat":43.309371,"lon":5.401449,"is_reserved":false,"is_disabled":false,"rental_uris":{"android":"levelo://app?vid=5ae2f13f-64f6-43aa-bf47-f4c5e1590624","ios":"levelo://app?vid=5ae2f13f-64f6-43aa-bf47-f4c5e1590624"},"vehicle_type_id":"4","last_reported":1701975943,"current_range_meters":400,"station_id":"ce4bgvp2rcd13ifvqct0","pricing_plan_id":"free"},{"bike_id":"a4372249-f4f9-4775-8e34-43803d58d905","system_id":"levelo_inurba_marseille","lat":43.33753,"lon":5.37453,"is_reserved":false,"is_disabled":false,"rental_uris":{"android":"levelo://app?vid=a4372249-f4f9-4775-8e34-43803d58d905","ios":"levelo://app?vid=a4372249-f4f9-4775-8e34-43803d58d905"},"vehicle_type_id":"4","last_reported":1701975943,"current_range_meters":29600,"station_id":"","pricing_plan_id":"free"},{"bike_id":"1d261fd6-86a5-4868-953a-b296fc62cf7f","system_id":"levelo_inurba_marseille","lat":43.33757,"lon":5.374531,"is_reserved":false,"is_disabled":false,"rental_uris":{"android":"levelo://app?vid=1d261fd6-86a5-4868-953a-b296fc62cf7f","ios":"levelo://app?vid=1d261fd6-86a5-4868-953a-b296fc62cf7f"},"vehicle_type_id":"4","last_reported":1701975943,"current_range_meters":24400,"station_id":"","pricing_plan_id":"free"},{"bike_id":"e6ec139b-2583-41ed-a72d-28c56201626f","system_id":"levelo_inurba_marseille","lat":43.337623,"lon":5.374701,"is_reserved":false,"is_disabled":false,"rental_uris":{"android":"levelo://app?vid=e6ec139b-2583-41ed-a72d-28c56201626f","ios":"levelo://app?vid=e6ec139b-2583-41ed-a72d-28c56201626f"},"vehicle_type_id":"4","last_reported":1701975943,"current_range_meters":24400,"station_id":"","pricing_plan_id":"free"},{"bike_id":"fd40dc9e-a00d-43fe-8432-48841f888ab5","system_id":"levelo_inurba_marseille","lat":43.301117,"lon":5.398795,"is_reserved":false,"is_disabled":false,"rental_uris":{"android":"levelo://app?vid=fd40dc9e-a00d-43fe-8432-48841f888ab5","ios":"levelo://app?vid=fd40dc9e-a00d-43fe-8432-48841f888ab5"},"vehicle_type_id":"4","last_reported":1701975943,"current_range_meters":20400,"station_id":"ce4bh0h2rcd13ifvqd40","pricing_plan_id":"free"},{"bike_id":"dea5526f-c581-4283-9648-ebf692555b87","system_id":"levelo_inurba_marseille","lat":43.301117,"lon":5.398795,"is_reserved":false,"is_disabled":false,"rental_uris":{"android":"levelo://app?vid=dea5526f-c581-4283-9648-ebf692555b87","ios":"levelo://app?vid=dea5526f-c581-4283-9648-ebf692555b87"},"vehicle_type_id":"4","last_reported":1701975943,"current_range_meters":20800,"station_id":"ce4bh0h2rcd13ifvqd40","pricing_plan_id":"free"},{"bike_id":"f0dd8e31-f08e-444c-8bda-236440bfc1d2","system_id":"levelo_inurba_marseille","lat":43.28727,"lon":5.36078,"is_reserved":false,"is_disabled":false,"rental_uris":{"android":"levelo://app?vid=f0dd8e31-f08e-444c-8bda-236440bfc1d2","ios":"levelo://app?vid=f0dd8e31-f08e-444c-8bda-236440bfc1d2"},"vehicle_type_id":"4","last_reported":1701975943,"current_range_meters":19600,"station_id":"cki0cbj6b192h4jlfktg","pricing_plan_id":"free"},{"bike_id":"c9e1a250-deb7-428f-acfd-3ab065d0f623","system_id":"levelo_inurba_marseille","lat":43.287232,"lon":5.374116,"is_reserved":false,"is_disabled":false,"rental_uris":{"android":"levelo://app?vid=c9e1a250-deb7-428f-acfd-3ab065d0f623","ios":"levelo://app?vid=c9e1a250-deb7-428f-acfd-3ab065d0f623"},"vehicle_type_id":"4","last_reported":1701975943,"current_range_meters":14400,"station_id":"","pricing_plan_id":"free"},{"bike_id":"56dc8561-265b-4432-bea3-03af63a4b80c","system_id":"levelo_inurba_marseille","lat":43.286961,"lon":5.373785,"is_reserved":false,"is_disabled":false,"rental_uris":{"android":"levelo://app?vid=56dc8561-265b-4432-bea3-03af63a4b80c","ios":"levelo://app?vid=56dc8561-265b-4432-bea3-03af63a4b80c"},"vehicle_type_id":"4","last_reported":1701975943,"current_range_meters":25600,"station_id":"ce4bh3p2rcd13ifvqdq0","pricing_plan_id":"free"},{"bike_id":"9771dfd8-017b-477e-9f38-39c8dec9c905","system_id":"levelo_inurba_marseille","lat":43.286039,"lon":5.370679,"is_reserved":false,"is_disabled":false,"rental_uris":{"android":"levelo://app?vid=9771dfd8-017b-477e-9f38-39c8dec9c905","ios":"levelo://app?vid=9771dfd8-017b-477e-9f38-39c8dec9c905"},"vehicle_type_id":"4","last_reported":1701975943,"current_range_meters":30000,"station_id":"ce4bht12rcd13ifvqi60","pricing_plan_id":"free"},{"bike_id":"ea8c1405-c92b-4eeb-83f7-c365c61396dd","system_id":"levelo_inurba_marseille","lat":43.287185,"lon":5.379373,"is_reserved":false,"is_disabled":false,"rental_uris":{"android":"levelo://app?vid=ea8c1405-c92b-4eeb-83f7-c365c61396dd","ios":"levelo://app?vid=ea8c1405-c92b-4eeb-83f7-c365c61396dd"},"vehicle_type_id":"4","last_reported":1701975943,"current_range_meters":2800,"station_id":"ce4bh9p2rcd13ifvqec0","pricing_plan_id":"free"},{"bike_id":"e1ff1582-ea7a-42cb-9285-9276c3ef9773","system_id":"levelo_inurba_marseille","lat":43.287185,"lon":5.379373,"is_reserved":false,"is_disabled":false,"rental_uris":{"android":"levelo://app?vid=e1ff1582-ea7a-42cb-9285-9276c3ef9773","ios":"levelo://app?vid=e1ff1582-ea7a-42cb-9285-9276c3ef9773"},"vehicle_type_id":"4","last_reported":1701975943,"current_range_meters":3200,"station_id":"ce4bh9p2rcd13ifvqec0","pricing_plan_id":"free"},{"bike_id":"ee7230cb-a355-4f49-b676-0652d9f0d848","system_id":"levelo_inurba_marseille","lat":43.287185,"lon":5.379373,"is_reserved":false,"is_disabled":false,"rental_uris":{"android":"levelo://app?vid=ee7230cb-a355-4f49-b676-0652d9f0d848","ios":"levelo://app?vid=ee7230cb-a355-4f49-b676-0652d9f0d848"},"vehicle_type_id":"4","last_reported":1701975943,"current_range_meters":2000,"station_id":"ce4bh9p2rcd13ifvqec0","pricing_plan_id":"free"},{"bike_id":"b9368d4f-73ed-4565-b2ae-63aeb9262fc6","system_id":"levelo_inurba_marseille","lat":43.31696,"lon":5.4047,"is_reserved":false,"is_disabled":false,"rental_uris":{"android":"levelo://app?vid=b9368d4f-73ed-4565-b2ae-63aeb9262fc6","ios":"levelo://app?vid=b9368d4f-73ed-4565-b2ae-63aeb9262fc6"},"vehicle_type_id":"4","last_reported":1701975943,"current_range_meters":19200,"station_id":"","pricing_plan_id":"free"},{"bike_id":"2dba3b3f-3412-4d56-b788-7061b5b71739","system_id":"levelo_inurba_marseille","lat":43.284538,"lon":5.358657,"is_reserved":false,"is_disabled":false,"rental_uris":{"android":"levelo://app?vid=2dba3b3f-3412-4d56-b788-7061b5b71739","ios":"levelo://app?vid=2dba3b3f-3412-4d56-b788-7061b5b71739"},"vehicle_type_id":"4","last_reported":1701975943,"current_range_meters":17200,"station_id":"ce4bhah2rcd13ifvqei0","pricing_plan_id":"free"},{"bike_id":"2b715313-a8a9-4433-9018-d854945294a0","system_id":"levelo_inurba_marseille","lat":43.284538,"lon":5.358657,"is_reserved":false,"is_disabled":false,"rental_uris":{"android":"levelo://app?vid=2b715313-a8a9-4433-9018-d854945294a0","ios":"levelo://app?vid=2b715313-a8a9-4433-9018-d854945294a0"},"vehicle_type_id":"4","last_reported":1701975943,"current_range_meters":5600,"station_id":"ce4bhah2rcd13ifvqei0","pricing_plan_id":"free"},{"bike_id":"6f3805da-607e-4644-a872-a570d4d7529e","system_id":"levelo_inurba_marseille","lat":43.284538,"lon":5.358657,"is_reserved":false,"is_disabled":false,"rental_uris":{"android":"levelo://app?vid=6f3805da-607e-4644-a872-a570d4d7529e","ios":"levelo://app?vid=6f3805da-607e-4644-a872-a570d4d7529e"},"vehicle_type_id":"4","last_reported":1701975943,"current_range_meters":12000,"station_id":"ce4bhah2rcd13ifvqei0","pricing_plan_id":"free"},{"bike_id":"6fd039fe-02e4-4614-9798-24c698a4e133","system_id":"levelo_inurba_marseille","lat":43.284538,"lon":5.358657,"is_reserved":false,"is_disabled":false,"rental_uris":{"android":"levelo://app?vid=6fd039fe-02e4-4614-9798-24c698a4e133","ios":"levelo://app?vid=6fd039fe-02e4-4614-9798-24c698a4e133"},"vehicle_type_id":"4","last_reported":1701975943,"current_range_meters":18800,"station_id":"ce4bhah2rcd13ifvqei0","pricing_plan_id":"free"},{"bike_id":"c884ba4f-eb3b-4c6f-9a66-04d0b0c97449","system_id":"levelo_inurba_marseille","lat":43.286187,"lon":5.351003,"is_reserved":false,"is_disabled":false,"rental_uris":{"android":"levelo://app?vid=c884ba4f-eb3b-4c6f-9a66-04d0b0c97449","ios":"levelo://app?vid=c884ba4f-eb3b-4c6f-9a66-04d0b0c97449"},"vehicle_type_id":"4","last_reported":1701975943,"current_range_meters":30400,"station_id":"ce4bhch2rcd13ifvqeug","pricing_plan_id":"free"},{"bike_id":"0622d24a-cd88-4a42-a30a-817dcc9d377c","system_id":"levelo_inurba_marseille","lat":43.28615,"lon":5.35099,"is_reserved":false,"is_disabled":false,"rental_uris":{"android":"levelo://app?vid=0622d24a-cd88-4a42-a30a-817dcc9d377c","ios":"levelo://app?vid=0622d24a-cd88-4a42-a30a-817dcc9d377c"},"vehicle_type_id":"4","last_reported":1701975943,"current_range_meters":27600,"station_id":"ce4bhch2rcd13ifvqeug","pricing_plan_id":"free"},{"bike_id":"c771b558-9cb4-43a3-a324-61fb00b71a60","system_id":"levelo_inurba_marseille","lat":43.286121,"lon":5.351079,"is_reserved":false,"is_disabled":false,"rental_uris":{"android":"levelo://app?vid=c771b558-9cb4-43a3-a324-61fb00b71a60","ios":"levelo://app?vid=c771b558-9cb4-43a3-a324-61fb00b71a60"},"vehicle_type_id":"4","last_reported":1701975943,"current_range_meters":24000,"station_id":"ce4bhch2rcd13ifvqeug","pricing_plan_id":"free"},{"bike_id":"26b1bda2-61f4-437b-9df9-5744148fdab0","system_id":"levelo_inurba_marseille","lat":43.286146,"lon":5.350994,"is_reserved":false,"is_disabled":false,"rental_uris":{"android":"levelo://app?vid=26b1bda2-61f4-437b-9df9-5744148fdab0","ios":"levelo://app?vid=26b1bda2-61f4-437b-9df9-5744148fdab0"},"vehicle_type_id":"4","last_reported":1701975943,"current_range_meters":30800,"station_id":"ce4bhch2rcd13ifvqeug","pricing_plan_id":"free"},{"bike_id":"15169293-4511-4f9b-bd76-b3e5d467311c","system_id":"levelo_inurba_marseille","lat":43.285848,"lon":5.350787,"is_reserved":false,"is_disabled":false,"rental_uris":{"android":"levelo://app?vid=15169293-4511-4f9b-bd76-b3e5d467311c","ios":"levelo://app?vid=15169293-4511-4f9b-bd76-b3e5d467311c"},"vehicle_type_id":"4","last_reported":1701975943,"current_range_meters":28800,"station_id":"ce4bhch2rcd13ifvqeug","pricing_plan_id":"free"},{"bike_id":"b77d28e4-5c0e-4a7f-b184-8b5c352d6957","system_id":"levelo_inurba_marseille","lat":43.319179,"lon":5.407725,"is_reserved":false,"is_disabled":false,"rental_uris":{"android":"levelo://app?vid=b77d28e4-5c0e-4a7f-b184-8b5c352d6957","ios":"levelo://app?vid=b77d28e4-5c0e-4a7f-b184-8b5c352d6957"},"vehicle_type_id":"4","last_reported":1701975943,"current_range_meters":12400,"station_id":"ce4bhq12rcd13ifvqhig","pricing_plan_id":"free"},{"bike_id":"06070a5a-4b04-4262-80e6-ef3153c54cac","system_id":"levelo_inurba_marseille","lat":43.319179,"lon":5.407725,"is_reserved":false,"is_disabled":false,"rental_uris":{"android":"levelo://app?vid=06070a5a-4b04-4262-80e6-ef3153c54cac","ios":"levelo://app?vid=06070a5a-4b04-4262-80e6-ef3153c54cac"},"vehicle_type_id":"4","last_reported":1701975943,"current_range_meters":13200,"station_id":"ce4bhq12rcd13ifvqhig","pricing_plan_id":"free"},{"bike_id":"56ac9cc9-bb61-47d5-bb32-c23299a9fd93","system_id":"levelo_inurba_marseille","lat":43.32256,"lon":5.406993,"is_reserved":false,"is_disabled":false,"rental_uris":{"android":"levelo://app?vid=56ac9cc9-bb61-47d5-bb32-c23299a9fd93","ios":"levelo://app?vid=56ac9cc9-bb61-47d5-bb32-c23299a9fd93"},"vehicle_type_id":"4","last_reported":1701975943,"current_range_meters":27200,"station_id":"","pricing_plan_id":"free"},{"bike_id":"a72915e6-3a85-49d1-bc22-0ecfd6304769","system_id":"levelo_inurba_marseille","lat":43.284219,"lon":5.3497,"is_reserved":false,"is_disabled":false,"rental_uris":{"android":"levelo://app?vid=a72915e6-3a85-49d1-bc22-0ecfd6304769","ios":"levelo://app?vid=a72915e6-3a85-49d1-bc22-0ecfd6304769"},"vehicle_type_id":"4","last_reported":1701975943,"current_range_meters":26000,"station_id":"ce4bhbh2rcd13ifvqepg","pricing_plan_id":"free"},{"bike_id":"42694c68-d724-4da8-8850-bdff1271d4af","system_id":"levelo_inurba_marseille","lat":43.283502,"lon":5.386471,"is_reserved":false,"is_disabled":false,"rental_uris":{"android":"levelo://app?vid=42694c68-d724-4da8-8850-bdff1271d4af","ios":"levelo://app?vid=42694c68-d724-4da8-8850-bdff1271d4af"},"vehicle_type_id":"4","last_reported":1701975943,"current_range_meters":10000,"station_id":"ce4bh492rcd13ifvqdvg","pricing_plan_id":"free"},{"bike_id":"d44fee12-4fe4-450b-bcf4-d3994226802b","system_id":"levelo_inurba_marseille","lat":43.283612,"lon":5.386225,"is_reserved":false,"is_disabled":false,"rental_uris":{"android":"levelo://app?vid=d44fee12-4fe4-450b-bcf4-d3994226802b","ios":"levelo://app?vid=d44fee12-4fe4-450b-bcf4-d3994226802b"},"vehicle_type_id":"4","last_reported":1701975943,"current_range_meters":1200,"station_id":"","pricing_plan_id":"free"},{"bike_id":"b6d7f8e9-a14d-4ca8-a33d-ad36a81b4bc6","system_id":"levelo_inurba_marseille","lat":43.28039,"lon":5.369297,"is_reserved":false,"is_disabled":false,"rental_uris":{"android":"levelo://app?vid=b6d7f8e9-a14d-4ca8-a33d-ad36a81b4bc6","ios":"levelo://app?vid=b6d7f8e9-a14d-4ca8-a33d-ad36a81b4bc6"},"vehicle_type_id":"4","last_reported":1701975943,"current_range_meters":12400,"station_id":"ce4bha12rcd13ifvqef0","pricing_plan_id":"free"},{"bike_id":"eb8cbc53-a540-4691-8c3b-0681c41b0d15","system_id":"levelo_inurba_marseille","lat":43.28039,"lon":5.369297,"is_reserved":false,"is_disabled":false,"rental_uris":{"android":"levelo://app?vid=eb8cbc53-a540-4691-8c3b-0681c41b0d15","ios":"levelo://app?vid=eb8cbc53-a540-4691-8c3b-0681c41b0d15"},"vehicle_type_id":"4","last_reported":1701975943,"current_range_meters":30800,"station_id":"ce4bha12rcd13ifvqef0","pricing_plan_id":"free"},{"bike_id":"d5f463f1-42f7-4b4b-beab-188bb98bb28a","system_id":"levelo_inurba_marseille","lat":43.28101,"lon":5.378483,"is_reserved":false,"is_disabled":false,"rental_uris":{"android":"levelo://app?vid=d5f463f1-42f7-4b4b-beab-188bb98bb28a","ios":"levelo://app?vid=d5f463f1-42f7-4b4b-beab-188bb98bb28a"},"vehicle_type_id":"4","last_reported":1701975943,"current_range_meters":0,"station_id":"ce4bha12rcd13ifvqee0","pricing_plan_id":"free"},{"bike_id":"5479ec44-6531-4cd2-a31f-eaf7df8a408e","system_id":"levelo_inurba_marseille","lat":43.28573,"lon":5.394992,"is_reserved":false,"is_disabled":false,"rental_uris":{"android":"levelo://app?vid=5479ec44-6531-4cd2-a31f-eaf7df8a408e","ios":"levelo://app?vid=5479ec44-6531-4cd2-a31f-eaf7df8a408e"},"vehicle_type_id":"4","last_reported":1701975943,"current_range_meters":11200,"station_id":"ce4bh292rcd13ifvqdg0","pricing_plan_id":"free"},{"bike_id":"070a260d-ecc1-46d1-afab-6774750cd900","system_id":"levelo_inurba_marseille","lat":43.326605,"lon":5.409903,"is_reserved":false,"is_disabled":false,"rental_uris":{"android":"levelo://app?vid=070a260d-ecc1-46d1-afab-6774750cd900","ios":"levelo://app?vid=070a260d-ecc1-46d1-afab-6774750cd900"},"vehicle_type_id":"4","last_reported":1701975943,"current_range_meters":2400,"station_id":"ce4bhpp2rcd13ifvqhgg","pricing_plan_id":"free"},{"bike_id":"1062989e-5509-4131-add8-21721d8275d9","system_id":"levelo_inurba_marseille","lat":43.304188,"lon":5.412904,"is_reserved":false,"is_disabled":false,"rental_uris":{"android":"levelo://app?vid=1062989e-5509-4131-add8-21721d8275d9","ios":"levelo://app?vid=1062989e-5509-4131-add8-21721d8275d9"},"vehicle_type_id":"4","last_reported":1701975943,"current_range_meters":26800,"station_id":"ce4bhop2rcd13ifvqh8g","pricing_plan_id":"free"},{"bike_id":"bf9c0286-54ca-458d-a58a-9d0d9c0353fb","system_id":"levelo_inurba_marseille","lat":43.279087,"lon":5.380114,"is_reserved":false,"is_disabled":false,"rental_uris":{"android":"levelo://app?vid=bf9c0286-54ca-458d-a58a-9d0d9c0353fb","ios":"levelo://app?vid=bf9c0286-54ca-458d-a58a-9d0d9c0353fb"},"vehicle_type_id":"4","last_reported":1701975943,"current_range_meters":23200,"station_id":"ce4bhf92rcd13ifvqf50","pricing_plan_id":"free"},{"bike_id":"cc2af946-af2d-439f-967b-6b2d2cf58ec0","system_id":"levelo_inurba_marseille","lat":43.336148,"lon":5.410349,"is_reserved":false,"is_disabled":false,"rental_uris":{"android":"levelo://app?vid=cc2af946-af2d-439f-967b-6b2d2cf58ec0","ios":"levelo://app?vid=cc2af946-af2d-439f-967b-6b2d2cf58ec0"},"vehicle_type_id":"4","last_reported":1701975943,"current_range_meters":18800,"station_id":"ce4bhqh2rcd13ifvqhmg","pricing_plan_id":"free"},{"bike_id":"6001a8a3-1715-4d67-ae24-1286ec7f5762","system_id":"levelo_inurba_marseille","lat":43.303837,"lon":5.418724,"is_reserved":false,"is_disabled":false,"rental_uris":{"android":"levelo://app?vid=6001a8a3-1715-4d67-ae24-1286ec7f5762","ios":"levelo://app?vid=6001a8a3-1715-4d67-ae24-1286ec7f5762"},"vehicle_type_id":"4","last_reported":1701975943,"current_range_meters":16400,"station_id":"ce4bhop2rcd13ifvqh7g","pricing_plan_id":"free"},{"bike_id":"da8d6ff8-e1f0-4f21-894c-b0d31a40f237","system_id":"levelo_inurba_marseille","lat":43.278399,"lon":5.392139,"is_reserved":false,"is_disabled":false,"rental_uris":{"android":"levelo://app?vid=da8d6ff8-e1f0-4f21-894c-b0d31a40f237","ios":"levelo://app?vid=da8d6ff8-e1f0-4f21-894c-b0d31a40f237"},"vehicle_type_id":"4","last_reported":1701975943,"current_range_meters":14000,"station_id":"ce4bhjp2rcd13ifvqga0","pricing_plan_id":"free"},{"bike_id":"9667e010-49a2-4303-8054-6ba9f8dcfdcb","system_id":"levelo_inurba_marseille","lat":43.275625,"lon":5.384392,"is_reserved":false,"is_disabled":false,"rental_uris":{"android":"levelo://app?vid=9667e010-49a2-4303-8054-6ba9f8dcfdcb","ios":"levelo://app?vid=9667e010-49a2-4303-8054-6ba9f8dcfdcb"},"vehicle_type_id":"4","last_reported":1701975943,"current_range_meters":21200,"station_id":"ce4bhh92rcd13ifvqfi0","pricing_plan_id":"free"},{"bike_id":"9af4cd29-1b7b-4931-b1a6-2ecb3a186984","system_id":"levelo_inurba_marseille","lat":43.275625,"lon":5.384392,"is_reserved":false,"is_disabled":false,"rental_uris":{"android":"levelo://app?vid=9af4cd29-1b7b-4931-b1a6-2ecb3a186984","ios":"levelo://app?vid=9af4cd29-1b7b-4931-b1a6-2ecb3a186984"},"vehicle_type_id":"4","last_reported":1701975943,"current_range_meters":23200,"station_id":"ce4bhh92rcd13ifvqfi0","pricing_plan_id":"free"},{"bike_id":"3a14b7e9-9e04-4b0e-95bf-f1515833e55d","system_id":"levelo_inurba_marseille","lat":43.275625,"lon":5.384392,"is_reserved":false,"is_disabled":false,"rental_uris":{"android":"levelo://app?vid=3a14b7e9-9e04-4b0e-95bf-f1515833e55d","ios":"levelo://app?vid=3a14b7e9-9e04-4b0e-95bf-f1515833e55d"},"vehicle_type_id":"4","last_reported":1701975943,"current_range_meters":3200,"station_id":"ce4bhh92rcd13ifvqfi0","pricing_plan_id":"free"},{"bike_id":"63d862d4-2199-4489-81f5-d0f30ae70523","system_id":"levelo_inurba_marseille","lat":43.336134,"lon":5.410341,"is_reserved":false,"is_disabled":false,"rental_uris":{"android":"levelo://app?vid=63d862d4-2199-4489-81f5-d0f30ae70523","ios":"levelo://app?vid=63d862d4-2199-4489-81f5-d0f30ae70523"},"vehicle_type_id":"4","last_reported":1701975943,"current_range_meters":23200,"station_id":"ce4bhqh2rcd13ifvqhmg","pricing_plan_id":"free"},{"bike_id":"417255ce-2886-418f-840c-a8460c94906d","system_id":"levelo_inurba_marseille","lat":43.275625,"lon":5.384392,"is_reserved":false,"is_disabled":false,"rental_uris":{"android":"levelo://app?vid=417255ce-2886-418f-840c-a8460c94906d","ios":"levelo://app?vid=417255ce-2886-418f-840c-a8460c94906d"},"vehicle_type_id":"4","last_reported":1701975943,"current_range_meters":14000,"station_id":"ce4bhh92rcd13ifvqfi0","pricing_plan_id":"free"},{"bike_id":"a8ea5ecb-ce36-4267-82c8-ca4db217ccae","system_id":"levelo_inurba_marseille","lat":43.27998,"lon":5.40014,"is_reserved":false,"is_disabled":false,"rental_uris":{"android":"levelo://app?vid=a8ea5ecb-ce36-4267-82c8-ca4db217ccae","ios":"levelo://app?vid=a8ea5ecb-ce36-4267-82c8-ca4db217ccae"},"vehicle_type_id":"4","last_reported":1701975943,"current_range_meters":10000,"station_id":"ce4bho92rcd13ifvqh4g","pricing_plan_id":"free"},{"bike_id":"0e989299-089e-4f43-b1b7-4a3aa52329e3","system_id":"levelo_inurba_marseille","lat":43.279975,"lon":5.40009,"is_reserved":false,"is_disabled":false,"rental_uris":{"android":"levelo://app?vid=0e989299-089e-4f43-b1b7-4a3aa52329e3","ios":"levelo://app?vid=0e989299-089e-4f43-b1b7-4a3aa52329e3"},"vehicle_type_id":"4","last_reported":1701975943,"current_range_meters":5600,"station_id":"ce4bho92rcd13ifvqh4g","pricing_plan_id":"free"},{"bike_id":"8a8bc4d6-0029-4fbf-9728-a692a0316877","system_id":"levelo_inurba_marseille","lat":43.274692,"lon":5.394545,"is_reserved":false,"is_disabled":false,"rental_uris":{"android":"levelo://app?vid=8a8bc4d6-0029-4fbf-9728-a692a0316877","ios":"levelo://app?vid=8a8bc4d6-0029-4fbf-9728-a692a0316877"},"vehicle_type_id":"4","last_reported":1701975943,"current_range_meters":2800,"station_id":"","pricing_plan_id":"free"},{"bike_id":"3a8e9d09-326a-45c1-b478-0f502fb2190c","system_id":"levelo_inurba_marseille","lat":43.304096,"lon":5.425385,"is_reserved":false,"is_disabled":false,"rental_uris":{"android":"levelo://app?vid=3a8e9d09-326a-45c1-b478-0f502fb2190c","ios":"levelo://app?vid=3a8e9d09-326a-45c1-b478-0f502fb2190c"},"vehicle_type_id":"4","last_reported":1701975943,"current_range_meters":8800,"station_id":"ce4bhoh2rcd13ifvqh6g","pricing_plan_id":"free"},{"bike_id":"ed151561-2bf8-4f6c-8b8d-eca389b86957","system_id":"levelo_inurba_marseille","lat":43.272124,"lon":5.391768,"is_reserved":false,"is_disabled":false,"rental_uris":{"android":"levelo://app?vid=ed151561-2bf8-4f6c-8b8d-eca389b86957","ios":"levelo://app?vid=ed151561-2bf8-4f6c-8b8d-eca389b86957"},"vehicle_type_id":"4","last_reported":1701975943,"current_range_meters":15200,"station_id":"ce4bhhp2rcd13ifvqfm0","pricing_plan_id":"free"},{"bike_id":"f8ba8e70-f3a0-408d-8a8b-bde0a26b8706","system_id":"levelo_inurba_marseille","lat":43.272118,"lon":5.391758,"is_reserved":false,"is_disabled":false,"rental_uris":{"android":"levelo://app?vid=f8ba8e70-f3a0-408d-8a8b-bde0a26b8706","ios":"levelo://app?vid=f8ba8e70-f3a0-408d-8a8b-bde0a26b8706"},"vehicle_type_id":"4","last_reported":1701975943,"current_range_meters":21200,"station_id":"ce4bhhp2rcd13ifvqfm0","pricing_plan_id":"free"},{"bike_id":"16197249-6bf4-4666-9c4c-a00c45ff16a7","system_id":"levelo_inurba_marseille","lat":43.272116,"lon":5.391747,"is_reserved":false,"is_disabled":false,"rental_uris":{"android":"levelo://app?vid=16197249-6bf4-4666-9c4c-a00c45ff16a7","ios":"levelo://app?vid=16197249-6bf4-4666-9c4c-a00c45ff16a7"},"vehicle_type_id":"4","last_reported":1701975943,"current_range_meters":25200,"station_id":"ce4bhhp2rcd13ifvqfm0","pricing_plan_id":"free"},{"bike_id":"77e2df1b-d75a-48fe-a6ad-744dfbe91f1d","system_id":"levelo_inurba_marseille","lat":43.27214,"lon":5.3925,"is_reserved":false,"is_disabled":false,"rental_uris":{"android":"levelo://app?vid=77e2df1b-d75a-48fe-a6ad-744dfbe91f1d","ios":"levelo://app?vid=77e2df1b-d75a-48fe-a6ad-744dfbe91f1d"},"vehicle_type_id":"4","last_reported":1701975943,"current_range_meters":8400,"station_id":"","pricing_plan_id":"free"},{"bike_id":"c3e1a85a-f0ec-4402-aae7-a79f7120b679","system_id":"levelo_inurba_marseille","lat":43.26681,"lon":5.382694,"is_reserved":false,"is_disabled":false,"rental_uris":{"android":"levelo://app?vid=c3e1a85a-f0ec-4402-aae7-a79f7120b679","ios":"levelo://app?vid=c3e1a85a-f0ec-4402-aae7-a79f7120b679"},"vehicle_type_id":"4","last_reported":1701975943,"current_range_meters":20800,"station_id":"ce4bhg92rcd13ifvqf90","pricing_plan_id":"free"},{"bike_id":"cd1651d1-9afd-4f87-ad0b-92c6ac6b10f5","system_id":"levelo_inurba_marseille","lat":43.279881,"lon":5.416579,"is_reserved":false,"is_disabled":false,"rental_uris":{"android":"levelo://app?vid=cd1651d1-9afd-4f87-ad0b-92c6ac6b10f5","ios":"levelo://app?vid=cd1651d1-9afd-4f87-ad0b-92c6ac6b10f5"},"vehicle_type_id":"4","last_reported":1701975943,"current_range_meters":8800,"station_id":"ce4bho12rcd13ifvqh1g","pricing_plan_id":"free"},{"bike_id":"5c62f0fe-2a68-4f0e-8c5e-1c3be35b64ff","system_id":"levelo_inurba_marseille","lat":43.29176,"lon":5.42793,"is_reserved":false,"is_disabled":false,"rental_uris":{"android":"levelo://app?vid=5c62f0fe-2a68-4f0e-8c5e-1c3be35b64ff","ios":"levelo://app?vid=5c62f0fe-2a68-4f0e-8c5e-1c3be35b64ff"},"vehicle_type_id":"4","last_reported":1701975943,"current_range_meters":14000,"station_id":"","pricing_plan_id":"free"},{"bike_id":"94a4ba24-bccf-4c87-ac17-c799eaea448b","system_id":"levelo_inurba_marseille","lat":43.261836,"lon":5.374398,"is_reserved":false,"is_disabled":false,"rental_uris":{"android":"levelo://app?vid=94a4ba24-bccf-4c87-ac17-c799eaea448b","ios":"levelo://app?vid=94a4ba24-bccf-4c87-ac17-c799eaea448b"},"vehicle_type_id":"4","last_reported":1701975943,"current_range_meters":30000,"station_id":"ce4bhgp2rcd13ifvqfc0","pricing_plan_id":"free"},{"bike_id":"348fb38f-6188-424d-b105-be89b04f1f0d","system_id":"levelo_inurba_marseille","lat":43.261782,"lon":5.374515,"is_reserved":false,"is_disabled":false,"rental_uris":{"android":"levelo://app?vid=348fb38f-6188-424d-b105-be89b04f1f0d","ios":"levelo://app?vid=348fb38f-6188-424d-b105-be89b04f1f0d"},"vehicle_type_id":"4","last_reported":1701975943,"current_range_meters":30000,"station_id":"ce4bhgp2rcd13ifvqfc0","pricing_plan_id":"free"},{"bike_id":"d2ec8962-9e85-4cdd-9ded-420338983c94","system_id":"levelo_inurba_marseille","lat":43.261782,"lon":5.374515,"is_reserved":false,"is_disabled":false,"rental_uris":{"android":"levelo://app?vid=d2ec8962-9e85-4cdd-9ded-420338983c94","ios":"levelo://app?vid=d2ec8962-9e85-4cdd-9ded-420338983c94"},"vehicle_type_id":"4","last_reported":1701975943,"current_range_meters":14800,"station_id":"ce4bhgp2rcd13ifvqfc0","pricing_plan_id":"free"},{"bike_id":"837003b0-2b49-4f38-9ab9-fca5b462f5a3","system_id":"levelo_inurba_marseille","lat":43.261782,"lon":5.374515,"is_reserved":false,"is_disabled":false,"rental_uris":{"android":"levelo://app?vid=837003b0-2b49-4f38-9ab9-fca5b462f5a3","ios":"levelo://app?vid=837003b0-2b49-4f38-9ab9-fca5b462f5a3"},"vehicle_type_id":"4","last_reported":1701975943,"current_range_meters":28800,"station_id":"ce4bhgp2rcd13ifvqfc0","pricing_plan_id":"free"},{"bike_id":"ed3d39e3-16d0-4193-b5f3-7d15fa62181e","system_id":"levelo_inurba_marseille","lat":43.262012,"lon":5.379307,"is_reserved":false,"is_disabled":false,"rental_uris":{"android":"levelo://app?vid=ed3d39e3-16d0-4193-b5f3-7d15fa62181e","ios":"levelo://app?vid=ed3d39e3-16d0-4193-b5f3-7d15fa62181e"},"vehicle_type_id":"4","last_reported":1701975943,"current_range_meters":26800,"station_id":"ce4bhjp2rcd13ifvqg90","pricing_plan_id":"free"},{"bike_id":"c1c633b1-949d-4123-8171-c197a14e353e","system_id":"levelo_inurba_marseille","lat":43.271811,"lon":5.409912,"is_reserved":false,"is_disabled":false,"rental_uris":{"android":"levelo://app?vid=c1c633b1-949d-4123-8171-c197a14e353e","ios":"levelo://app?vid=c1c633b1-949d-4123-8171-c197a14e353e"},"vehicle_type_id":"4","last_reported":1701975943,"current_range_meters":9200,"station_id":"ce4bhl12rcd13ifvqgf0","pricing_plan_id":"free"},{"bike_id":"4f68f183-a711-4386-a731-e8ea8e2f115e","system_id":"levelo_inurba_marseille","lat":43.298768,"lon":5.43643,"is_reserved":false,"is_disabled":false,"rental_uris":{"android":"levelo://app?vid=4f68f183-a711-4386-a731-e8ea8e2f115e","ios":"levelo://app?vid=4f68f183-a711-4386-a731-e8ea8e2f115e"},"vehicle_type_id":"4","last_reported":1701975943,"current_range_meters":27200,"station_id":"ce4bhpp2rcd13ifvqhfg","pricing_plan_id":"free"},{"bike_id":"83e2018e-7127-4415-8bbf-2e347a9c6750","system_id":"levelo_inurba_marseille","lat":43.298927,"lon":5.436636,"is_reserved":false,"is_disabled":false,"rental_uris":{"android":"levelo://app?vid=83e2018e-7127-4415-8bbf-2e347a9c6750","ios":"levelo://app?vid=83e2018e-7127-4415-8bbf-2e347a9c6750"},"vehicle_type_id":"4","last_reported":1701975943,"current_range_meters":6800,"station_id":"ce4bhpp2rcd13ifvqhfg","pricing_plan_id":"free"},{"bike_id":"ca4db8a8-5b98-4b78-bc3d-514f38028a3d","system_id":"levelo_inurba_marseille","lat":43.298768,"lon":5.43643,"is_reserved":false,"is_disabled":false,"rental_uris":{"android":"levelo://app?vid=ca4db8a8-5b98-4b78-bc3d-514f38028a3d","ios":"levelo://app?vid=ca4db8a8-5b98-4b78-bc3d-514f38028a3d"},"vehicle_type_id":"4","last_reported":1701975943,"current_range_meters":30800,"station_id":"ce4bhpp2rcd13ifvqhfg","pricing_plan_id":"free"},{"bike_id":"0a3af9fe-4495-4765-a364-07e789cdace4","system_id":"levelo_inurba_marseille","lat":43.298768,"lon":5.43643,"is_reserved":false,"is_disabled":false,"rental_uris":{"android":"levelo://app?vid=0a3af9fe-4495-4765-a364-07e789cdace4","ios":"levelo://app?vid=0a3af9fe-4495-4765-a364-07e789cdace4"},"vehicle_type_id":"4","last_reported":1701975943,"current_range_meters":29600,"station_id":"ce4bhpp2rcd13ifvqhfg","pricing_plan_id":"free"},{"bike_id":"b13d38ce-5f53-4fd8-a1c9-e1f1d0d516e7","system_id":"levelo_inurba_marseille","lat":43.281548,"lon":5.42643,"is_reserved":false,"is_disabled":false,"rental_uris":{"android":"levelo://app?vid=b13d38ce-5f53-4fd8-a1c9-e1f1d0d516e7","ios":"levelo://app?vid=b13d38ce-5f53-4fd8-a1c9-e1f1d0d516e7"},"vehicle_type_id":"4","last_reported":1701975943,"current_range_meters":29200,"station_id":"ce4bhnh2rcd13ifvqgug","pricing_plan_id":"free"},{"bike_id":"6c4a4127-c4de-4571-99d2-c4e93580765c","system_id":"levelo_inurba_marseille","lat":43.281548,"lon":5.42643,"is_reserved":false,"is_disabled":false,"rental_uris":{"android":"levelo://app?vid=6c4a4127-c4de-4571-99d2-c4e93580765c","ios":"levelo://app?vid=6c4a4127-c4de-4571-99d2-c4e93580765c"},"vehicle_type_id":"4","last_reported":1701975943,"current_range_meters":20800,"station_id":"ce4bhnh2rcd13ifvqgug","pricing_plan_id":"free"},{"bike_id":"c2edc354-3ba4-477d-8448-4ce787d4af44","system_id":"levelo_inurba_marseille","lat":43.281548,"lon":5.42643,"is_reserved":false,"is_disabled":false,"rental_uris":{"android":"levelo://app?vid=c2edc354-3ba4-477d-8448-4ce787d4af44","ios":"levelo://app?vid=c2edc354-3ba4-477d-8448-4ce787d4af44"},"vehicle_type_id":"4","last_reported":1701975943,"current_range_meters":30400,"station_id":"ce4bhnh2rcd13ifvqgug","pricing_plan_id":"free"},{"bike_id":"ba7ddf79-ff50-4f5c-8fc6-82d165f47152","system_id":"levelo_inurba_marseille","lat":43.28156,"lon":5.42655,"is_reserved":false,"is_disabled":false,"rental_uris":{"android":"levelo://app?vid=ba7ddf79-ff50-4f5c-8fc6-82d165f47152","ios":"levelo://app?vid=ba7ddf79-ff50-4f5c-8fc6-82d165f47152"},"vehicle_type_id":"4","last_reported":1701975943,"current_range_meters":6800,"station_id":"ce4bhnh2rcd13ifvqgug","pricing_plan_id":"free"},{"bike_id":"3cc5cf78-58d1-4e0b-8786-521f677431b2","system_id":"levelo_inurba_marseille","lat":43.281548,"lon":5.42643,"is_reserved":false,"is_disabled":false,"rental_uris":{"android":"levelo://app?vid=3cc5cf78-58d1-4e0b-8786-521f677431b2","ios":"levelo://app?vid=3cc5cf78-58d1-4e0b-8786-521f677431b2"},"vehicle_type_id":"4","last_reported":1701975943,"current_range_meters":29600,"station_id":"ce4bhnh2rcd13ifvqgug","pricing_plan_id":"free"},{"bike_id":"1007d281-2790-4c48-a03b-57b7fdb10a09","system_id":"levelo_inurba_marseille","lat":43.2607,"lon":5.393983,"is_reserved":false,"is_disabled":false,"rental_uris":{"android":"levelo://app?vid=1007d281-2790-4c48-a03b-57b7fdb10a09","ios":"levelo://app?vid=1007d281-2790-4c48-a03b-57b7fdb10a09"},"vehicle_type_id":"4","last_reported":1701975943,"current_range_meters":6400,"station_id":"ce4bhh92rcd13ifvqfj0","pricing_plan_id":"free"},{"bike_id":"f7aff15c-1413-489e-ac71-1f75a75fe20a","system_id":"levelo_inurba_marseille","lat":43.2607,"lon":5.393983,"is_reserved":false,"is_disabled":false,"rental_uris":{"android":"levelo://app?vid=f7aff15c-1413-489e-ac71-1f75a75fe20a","ios":"levelo://app?vid=f7aff15c-1413-489e-ac71-1f75a75fe20a"},"vehicle_type_id":"4","last_reported":1701975943,"current_range_meters":22000,"station_id":"ce4bhh92rcd13ifvqfj0","pricing_plan_id":"free"},{"bike_id":"09f678c9-cba3-47e0-8b9a-77e472d1189b","system_id":"levelo_inurba_marseille","lat":43.275003,"lon":5.424467,"is_reserved":false,"is_disabled":false,"rental_uris":{"android":"levelo://app?vid=09f678c9-cba3-47e0-8b9a-77e472d1189b","ios":"levelo://app?vid=09f678c9-cba3-47e0-8b9a-77e472d1189b"},"vehicle_type_id":"4","last_reported":1701975943,"current_range_meters":2000,"station_id":"ce4bhn92rcd13ifvqgrg","pricing_plan_id":"free"},{"bike_id":"836d4217-05a1-4b02-8a89-16c9d7e6e94b","system_id":"levelo_inurba_marseille","lat":43.25582,"lon":5.38232,"is_reserved":false,"is_disabled":false,"rental_uris":{"android":"levelo://app?vid=836d4217-05a1-4b02-8a89-16c9d7e6e94b","ios":"levelo://app?vid=836d4217-05a1-4b02-8a89-16c9d7e6e94b"},"vehicle_type_id":"4","last_reported":1701975943,"current_range_meters":22400,"station_id":"ce4bhih2rcd13ifvqfs0","pricing_plan_id":"free"},{"bike_id":"5bb68a54-0224-415c-8bca-93092ce235c6","system_id":"levelo_inurba_marseille","lat":43.25579,"lon":5.38225,"is_reserved":false,"is_disabled":false,"rental_uris":{"android":"levelo://app?vid=5bb68a54-0224-415c-8bca-93092ce235c6","ios":"levelo://app?vid=5bb68a54-0224-415c-8bca-93092ce235c6"},"vehicle_type_id":"4","last_reported":1701975943,"current_range_meters":1600,"station_id":"ce4bhih2rcd13ifvqfs0","pricing_plan_id":"free"},{"bike_id":"5c09df78-b4f8-4a20-a9dc-d7ed9c2dc359","system_id":"levelo_inurba_marseille","lat":43.25578,"lon":5.38232,"is_reserved":false,"is_disabled":false,"rental_uris":{"android":"levelo://app?vid=5c09df78-b4f8-4a20-a9dc-d7ed9c2dc359","ios":"levelo://app?vid=5c09df78-b4f8-4a20-a9dc-d7ed9c2dc359"},"vehicle_type_id":"4","last_reported":1701975943,"current_range_meters":7600,"station_id":"ce4bhih2rcd13ifvqfs0","pricing_plan_id":"free"},{"bike_id":"cfd254c5-2a45-45c5-823d-81bf5b5cf361","system_id":"levelo_inurba_marseille","lat":43.254947,"lon":5.376454,"is_reserved":false,"is_disabled":false,"rental_uris":{"android":"levelo://app?vid=cfd254c5-2a45-45c5-823d-81bf5b5cf361","ios":"levelo://app?vid=cfd254c5-2a45-45c5-823d-81bf5b5cf361"},"vehicle_type_id":"4","last_reported":1701975943,"current_range_meters":5200,"station_id":"ce4bhh12rcd13ifvqff0","pricing_plan_id":"free"},{"bike_id":"0683a2d5-fe2d-479b-b729-af58b98d1789","system_id":"levelo_inurba_marseille","lat":43.270721,"lon":5.422764,"is_reserved":false,"is_disabled":false,"rental_uris":{"android":"levelo://app?vid=0683a2d5-fe2d-479b-b729-af58b98d1789","ios":"levelo://app?vid=0683a2d5-fe2d-479b-b729-af58b98d1789"},"vehicle_type_id":"4","last_reported":1701975943,"current_range_meters":13200,"station_id":"ce4bhk92rcd13ifvqgb0","pricing_plan_id":"free"},{"bike_id":"988506ac-2c90-4ef1-890a-b9028b8dac3f","system_id":"levelo_inurba_marseille","lat":43.270721,"lon":5.422764,"is_reserved":false,"is_disabled":false,"rental_uris":{"android":"levelo://app?vid=988506ac-2c90-4ef1-890a-b9028b8dac3f","ios":"levelo://app?vid=988506ac-2c90-4ef1-890a-b9028b8dac3f"},"vehicle_type_id":"4","last_reported":1701975943,"current_range_meters":29600,"station_id":"ce4bhk92rcd13ifvqgb0","pricing_plan_id":"free"},{"bike_id":"08d9ac1e-a500-45d2-9e89-0b3c79f69a1c","system_id":"levelo_inurba_marseille","lat":43.258658,"lon":5.398935,"is_reserved":false,"is_disabled":false,"rental_uris":{"android":"levelo://app?vid=08d9ac1e-a500-45d2-9e89-0b3c79f69a1c","ios":"levelo://app?vid=08d9ac1e-a500-45d2-9e89-0b3c79f69a1c"},"vehicle_type_id":"4","last_reported":1701975943,"current_range_meters":1600,"station_id":"ce4bhl92rcd13ifvqghg","pricing_plan_id":"free"},{"bike_id":"82a58f87-3779-46df-a3d7-771c0822f310","system_id":"levelo_inurba_marseille","lat":43.258658,"lon":5.398935,"is_reserved":false,"is_disabled":false,"rental_uris":{"android":"levelo://app?vid=82a58f87-3779-46df-a3d7-771c0822f310","ios":"levelo://app?vid=82a58f87-3779-46df-a3d7-771c0822f310"},"vehicle_type_id":"4","last_reported":1701975943,"current_range_meters":7600,"station_id":"ce4bhl92rcd13ifvqghg","pricing_plan_id":"free"},{"bike_id":"ea6f15d6-03ac-476d-a535-2e7d3b9eaeef","system_id":"levelo_inurba_marseille","lat":43.257079,"lon":5.411051,"is_reserved":false,"is_disabled":false,"rental_uris":{"android":"levelo://app?vid=ea6f15d6-03ac-476d-a535-2e7d3b9eaeef","ios":"levelo://app?vid=ea6f15d6-03ac-476d-a535-2e7d3b9eaeef"},"vehicle_type_id":"4","last_reported":1701975943,"current_range_meters":800,"station_id":"ce4bhkp2rcd13ifvqgd0","pricing_plan_id":"free"},{"bike_id":"5e28afdb-366a-4ee2-bf4c-72dd44305a45","system_id":"levelo_inurba_marseille","lat":43.257079,"lon":5.411051,"is_reserved":false,"is_disabled":false,"rental_uris":{"android":"levelo://app?vid=5e28afdb-366a-4ee2-bf4c-72dd44305a45","ios":"levelo://app?vid=5e28afdb-366a-4ee2-bf4c-72dd44305a45"},"vehicle_type_id":"4","last_reported":1701975943,"current_range_meters":3200,"station_id":"ce4bhkp2rcd13ifvqgd0","pricing_plan_id":"free"},{"bike_id":"430e7c59-7257-45c0-9a36-bfaa9a147960","system_id":"levelo_inurba_marseille","lat":43.2479,"lon":5.374457,"is_reserved":false,"is_disabled":false,"rental_uris":{"android":"levelo://app?vid=430e7c59-7257-45c0-9a36-bfaa9a147960","ios":"levelo://app?vid=430e7c59-7257-45c0-9a36-bfaa9a147960"},"vehicle_type_id":"4","last_reported":1701975943,"current_range_meters":12000,"station_id":"ce4bhgh2rcd13ifvqfb0","pricing_plan_id":"free"},{"bike_id":"06cc70de-7146-4da6-b747-f32cca09a658","system_id":"levelo_inurba_marseille","lat":43.250966,"lon":5.395186,"is_reserved":false,"is_disabled":false,"rental_uris":{"android":"levelo://app?vid=06cc70de-7146-4da6-b747-f32cca09a658","ios":"levelo://app?vid=06cc70de-7146-4da6-b747-f32cca09a658"},"vehicle_type_id":"4","last_reported":1701975943,"current_range_meters":10000,"station_id":"ce4bhm12rcd13ifvqgkg","pricing_plan_id":"free"},{"bike_id":"1d4296c3-4c35-49d7-b21a-6f3477fe085a","system_id":"levelo_inurba_marseille","lat":43.25102,"lon":5.403214,"is_reserved":false,"is_disabled":false,"rental_uris":{"android":"levelo://app?vid=1d4296c3-4c35-49d7-b21a-6f3477fe085a","ios":"levelo://app?vid=1d4296c3-4c35-49d7-b21a-6f3477fe085a"},"vehicle_type_id":"4","last_reported":1701975943,"current_range_meters":1600,"station_id":"ce4bhlh2rcd13ifvqgig","pricing_plan_id":"free"},{"bike_id":"7fa28b9f-041a-4ac4-bd68-1adb36ed1ee2","system_id":"levelo_inurba_marseille","lat":43.243884,"lon":5.370737,"is_reserved":false,"is_disabled":false,"rental_uris":{"android":"levelo://app?vid=7fa28b9f-041a-4ac4-bd68-1adb36ed1ee2","ios":"levelo://app?vid=7fa28b9f-041a-4ac4-bd68-1adb36ed1ee2"},"vehicle_type_id":"4","last_reported":1701975943,"current_range_meters":30400,"station_id":"ce4bhhh2rcd13ifvqfk0","pricing_plan_id":"free"},{"bike_id":"8b59b500-ecc8-4962-8958-689a83bb1e67","system_id":"levelo_inurba_marseille","lat":43.240623,"lon":5.377642,"is_reserved":false,"is_disabled":false,"rental_uris":{"android":"levelo://app?vid=8b59b500-ecc8-4962-8958-689a83bb1e67","ios":"levelo://app?vid=8b59b500-ecc8-4962-8958-689a83bb1e67"},"vehicle_type_id":"4","last_reported":1701975943,"current_range_meters":24000,"station_id":"ce4bhnp2rcd13ifvqgvg","pricing_plan_id":"free"},{"bike_id":"7ece5855-fe49-46dd-ba3f-2d015925612a","system_id":"levelo_inurba_marseille","lat":43.239588,"lon":5.366238,"is_reserved":false,"is_disabled":false,"rental_uris":{"android":"levelo://app?vid=7ece5855-fe49-46dd-ba3f-2d015925612a","ios":"levelo://app?vid=7ece5855-fe49-46dd-ba3f-2d015925612a"},"vehicle_type_id":"4","last_reported":1701975943,"current_range_meters":30800,"station_id":"ce4bhi12rcd13ifvqfp0","pricing_plan_id":"free"},{"bike_id":"7fb0f437-2534-4c82-a071-a834d78df9bc","system_id":"levelo_inurba_marseille","lat":43.23195,"lon":5.35552,"is_reserved":false,"is_disabled":false,"rental_uris":{"android":"levelo://app?vid=7fb0f437-2534-4c82-a071-a834d78df9bc","ios":"levelo://app?vid=7fb0f437-2534-4c82-a071-a834d78df9bc"},"vehicle_type_id":"4","last_reported":1701975943,"current_range_meters":0,"station_id":"ce4bhu92rcd13ifvqi70","pricing_plan_id":"free"},{"bike_id":"db8ee247-5c27-465c-9667-2bac338a063a","system_id":"levelo_inurba_marseille","lat":43.231794,"lon":5.400052,"is_reserved":false,"is_disabled":false,"rental_uris":{"android":"levelo://app?vid=db8ee247-5c27-465c-9667-2bac338a063a","ios":"levelo://app?vid=db8ee247-5c27-465c-9667-2bac338a063a"},"vehicle_type_id":"4","last_reported":1701975943,"current_range_meters":20800,"station_id":"ce4bhn12rcd13ifvqgqg","pricing_plan_id":"free"},{"bike_id":"be845917-f52e-4a9f-83ff-909546a09332","system_id":"levelo_inurba_marseille","lat":43.231794,"lon":5.400052,"is_reserved":false,"is_disabled":false,"rental_uris":{"android":"levelo://app?vid=be845917-f52e-4a9f-83ff-909546a09332","ios":"levelo://app?vid=be845917-f52e-4a9f-83ff-909546a09332"},"vehicle_type_id":"4","last_reported":1701975943,"current_range_meters":30000,"station_id":"ce4bhn12rcd13ifvqgqg","pricing_plan_id":"free"},{"bike_id":"6c4620c0-0d4d-493f-9950-4fd3c4457696","system_id":"levelo_inurba_marseille","lat":43.231794,"lon":5.400052,"is_reserved":false,"is_disabled":false,"rental_uris":{"android":"levelo://app?vid=6c4620c0-0d4d-493f-9950-4fd3c4457696","ios":"levelo://app?vid=6c4620c0-0d4d-493f-9950-4fd3c4457696"},"vehicle_type_id":"4","last_reported":1701975943,"current_range_meters":31600,"station_id":"ce4bhn12rcd13ifvqgqg","pricing_plan_id":"free"}]}}