{"last_updated":1730912861,"ttl":60,"version":"2.2","data":{"bikes":[{"bike_id":"9b776303-1f5e-4e2f-bcec-c8b167ce8f8c","system_id":"levelo_inurba_marseille","lat":43.30992,"lon":5.37364,"is_reserved":false,"is_disabled":false,"rental_uris":{"android":"levelo://app?vid=9b776303-1f5e-4e2f-bcec-c8b167ce8f8c","ios":"levelo://app?vid=9b776303-1f5e-4e2f-bcec-c8b167ce8f8c"},"vehicle_type_id":"4","last_reported":1730912861,"current_range_meters":10000,"station_id":"ce4bguh2rcd13ifvqckg","pricing_plan_id":"cebpf4jnsgd1na2vs0mg"},{"bike_id":"7ae96026-45f8-4be1-a705-40a234940d94","system_id":"levelo_inurba_marseille","lat":43.27995,"lon":5.4003,"is_reserved":false,"is_disabled":false,"rental_uris":{"android":"levelo://app?vid=7ae96026-45f8-4be1-a705-40a234940d94","ios":"levelo://app?vid=7ae96026-45f8-4be1-a705-40a234940d94"},"vehicle_type_id":"4","last_reported":1730912861,"current_range_meters":38000,"station_id":"ce4bho92rcd13ifvqh4g","pricing_plan_id":"cebpf4jnsgd1na2vs0mg"},{"bike_id":"b0c67293-8a46-49b7-8f81-f9c6af9c2e88","system_id":"levelo_inurba_marseille","lat":43.323485,"lon":5.40629,"is_reserved":false,"is_disabled":false,"rental_uris":{"android":"levelo://app?vid=b0c67293-8a46-49b7-8f81-f9c6af9c2e88","ios":"levelo://app?vid=b0c67293-8a46-49b7-8f81-f9c6af9c2e88"},"vehicle_type_id":"4","last_reported":1730912861,"current_range_meters":18000,"station_id":"ce4bhq92rcd13ifvqhjg","pricing_plan_id":"cebpf4jnsgd1na2vs0mg"},{"bike_id":"464472e3-4c83-4b76-b273-60338afc8859","system_id":"levelo_inurba_marseille","lat":43.285807,"lon":5.394949,"is_reserved":false,"is_disabled":false,"rental_uris":{"android":"levelo://app?vid=464472e3-4c83-4b76-b273-60338afc8859","ios":"levelo://app?vid=464472e3-4c83-4b76-b273-60338afc8859"},"vehicle_type_id":"4","last_reported":1730912861,"current_range_meters":30400,"station_id":"ce4bh292rcd13ifvqdg0","pricing_plan_id":"cebpf4jnsgd1na2vs0mg"},{"bike_id":"ed971324-ba57-4913-83f0-32c47b52b880","system_id":"levelo_inurba_marseille","lat":43.24997,"lon":5.38937,"is_reserved":false,"is_disabled":false,"rental_uris":{"android":"levelo://app?vid=ed971324-ba57-4913-83f0-32c47b52b880","ios":"levelo://app?vid=ed971324-ba57-4913-83f0-32c47b52b880"},"vehicle_type_id":"4","last_reported":1730912861,"current_range_meters":38800,"station_id":"ce4bhgp2rcd13ifvqfd0","pricing_plan_id":"cebpf4jnsgd1na2vs0mg"},{"bike_id":"c0af6018-d0b2-4a9b-b8d6-a4130a9d9432","system_id":"levelo_inurba_marseille","lat":43.30893,"lon":5.37196,"is_reserved":false,"is_disabled":false,"rental_uris":{"android":"levelo://app?vid=c0af6018-d0b2-4a9b-b8d6-a4130a9d9432","ios":"levelo://app?vid=c0af6018-d0b2-4a9b-b8d6-a4130a9d9432"},"vehicle_type_id":"4","last_reported":1730912861,"current_range_meters":24400,"station_id":"ce4bguh2rcd13ifvqckg","pricing_plan_id":"cebpf4jnsgd1na2vs0mg"},{"bike_id":"8cfac06c-664c-4191-80ef-378f683605c5","system_id":"levelo_inurba_marseille","lat":43.2953,"lon":5.38547,"is_reserved":false,"is_disabled":false,"rental_uris":{"android":"levelo://app?vid=8cfac06c-664c-4191-80ef-378f683605c5","ios":"levelo://app?vid=8cfac06c-664c-4191-80ef-378f683605c5"},"vehicle_type_id":"4","last_reported":1730912861,"current_range_meters":38800,"station_id":"ce4bgih2rcd13ifvqba0","pricing_plan_id":"cebpf4jnsgd1na2vs0mg"},{"bike_id":"d386fd97-6c3d-467c-b1bf-bd1effebdeb3","system_id":"levelo_inurba_marseille","lat":43.30145,"lon":5.39881,"is_reserved":false,"is_disabled":false,"rental_uris":{"android":"levelo://app?vid=d386fd97-6c3d-467c-b1bf-bd1effebdeb3","ios":"levelo://app?vid=d386fd97-6c3d-467c-b1bf-bd1effebdeb3"},"vehicle_type_id":"4","last_reported":1730912861,"current_range_meters":38800,"station_id":"ce4bh0h2rcd13ifvqd40","pricing_plan_id":"cebpf4jnsgd1na2vs0mg"},{"bike_id":"dbb61991-7592-4e4d-ac73-387ebf8886c5","system_id":"levelo_inurba_marseille","lat":43.28852,"lon":5.35864,"is_reserved":false,"is_disabled":false,"rental_uris":{"android":"levelo://app?vid=dbb61991-7592-4e4d-ac73-387ebf8886c5","ios":"levelo://app?vid=dbb61991-7592-4e4d-ac73-387ebf8886c5"},"vehicle_type_id":"4","last_reported":1730912861,"current_range_meters":38800,"station_id":"ce4bhb12rcd13ifvqem0","pricing_plan_id":"cebpf4jnsgd1na2vs0mg"},{"bike_id":"aaf896be-23fc-4cde-b212-d643c208e7c1","system_id":"levelo_inurba_marseille","lat":43.30423,"lon":5.41293,"is_reserved":false,"is_disabled":false,"rental_uris":{"android":"levelo://app?vid=aaf896be-23fc-4cde-b212-d643c208e7c1","ios":"levelo://app?vid=aaf896be-23fc-4cde-b212-d643c208e7c1"},"vehicle_type_id":"4","last_reported":1730912861,"current_range_meters":37600,"station_id":"ce4bhop2rcd13ifvqh8g","pricing_plan_id":"cebpf4jnsgd1na2vs0mg"},{"bike_id":"72efadbb-bf11-43ff-96cf-c421a3f198ee","system_id":"levelo_inurba_marseille","lat":43.27615,"lon":5.3612,"is_reserved":false,"is_disabled":false,"rental_uris":{"android":"levelo://app?vid=72efadbb-bf11-43ff-96cf-c421a3f198ee","ios":"levelo://app?vid=72efadbb-bf11-43ff-96cf-c421a3f198ee"},"vehicle_type_id":"4","last_reported":1730912861,"current_range_meters":15200,"station_id":"ce4bgj92rcd13ifvqbe0","pricing_plan_id":"cebpf4jnsgd1na2vs0mg"},{"bike_id":"8f5f4415-60a2-4fbf-8247-632bdcdb5d90","system_id":"levelo_inurba_marseille","lat":43.30443,"lon":5.38905,"is_reserved":false,"is_disabled":false,"rental_uris":{"android":"levelo://app?vid=8f5f4415-60a2-4fbf-8247-632bdcdb5d90","ios":"levelo://app?vid=8f5f4415-60a2-4fbf-8247-632bdcdb5d90"},"vehicle_type_id":"4","last_reported":1730912861,"current_range_meters":35600,"station_id":"ce4bgk12rcd13ifvqbi0","pricing_plan_id":"cebpf4jnsgd1na2vs0mg"},{"bike_id":"f8a8783b-0794-438f-a191-d5fbb4608e9a","system_id":"levelo_inurba_marseille","lat":43.31992,"lon":5.38167,"is_reserved":false,"is_disabled":false,"rental_uris":{"android":"levelo://app?vid=f8a8783b-0794-438f-a191-d5fbb4608e9a","ios":"levelo://app?vid=f8a8783b-0794-438f-a191-d5fbb4608e9a"},"vehicle_type_id":"4","last_reported":1730912861,"current_range_meters":10800,"station_id":"ce4bhr12rcd13ifvqhpg","pricing_plan_id":"cebpf4jnsgd1na2vs0mg"},{"bike_id":"8af378d1-5bc4-457f-9470-74e88c52bda7","system_id":"levelo_inurba_marseille","lat":43.32004,"lon":5.3816,"is_reserved":false,"is_disabled":false,"rental_uris":{"android":"levelo://app?vid=8af378d1-5bc4-457f-9470-74e88c52bda7","ios":"levelo://app?vid=8af378d1-5bc4-457f-9470-74e88c52bda7"},"vehicle_type_id":"4","last_reported":1730912861,"current_range_meters":6800,"station_id":"ce4bhr12rcd13ifvqhpg","pricing_plan_id":"cebpf4jnsgd1na2vs0mg"},{"bike_id":"55fc641b-46b1-4285-8546-805cff3fb723","system_id":"levelo_inurba_marseille","lat":43.28079,"lon":5.39661,"is_reserved":false,"is_disabled":false,"rental_uris":{"android":"levelo://app?vid=55fc641b-46b1-4285-8546-805cff3fb723","ios":"levelo://app?vid=55fc641b-46b1-4285-8546-805cff3fb723"},"vehicle_type_id":"4","last_reported":1730912861,"current_range_meters":7200,"station_id":"ce4bho12rcd13ifvqh2g","pricing_plan_id":"cebpf4jnsgd1na2vs0mg"},{"bike_id":"4a31f31a-9b88-4ed1-a886-c9f916d1a7c2","system_id":"levelo_inurba_marseille","lat":43.30904,"lon":5.37216,"is_reserved":false,"is_disabled":false,"rental_uris":{"android":"levelo://app?vid=4a31f31a-9b88-4ed1-a886-c9f916d1a7c2","ios":"levelo://app?vid=4a31f31a-9b88-4ed1-a886-c9f916d1a7c2"},"vehicle_type_id":"4","last_reported":1730912861,"current_range_meters":31200,"station_id":"ce4bguh2rcd13ifvqckg","pricing_plan_id":"cebpf4jnsgd1na2vs0mg"},{"bike_id":"44135612-fabe-4db6-b769-98ffa02d00e4","system_id":"levelo_inurba_marseille","lat":43.32291,"lon":5.38279,"is_reserved":false,"is_disabled":false,"rental_uris":{"android":"levelo://app?vid=44135612-fabe-4db6-b769-98ffa02d00e4","ios":"levelo://app?vid=44135612-fabe-4db6-b769-98ffa02d00e4"},"vehicle_type_id":"4","last_reported":1730912861,"current_range_meters":28000,"station_id":"ce4bhr12rcd13ifvqhqg","pricing_plan_id":"cebpf4jnsgd1na2vs0mg"},{"bike_id":"a460f533-cb16-47d9-af54-c1d1a16d2706","system_id":"levelo_inurba_marseille","lat":43.29531,"lon":5.3904,"is_reserved":false,"is_disabled":false,"rental_uris":{"android":"levelo://app?vid=a460f533-cb16-47d9-af54-c1d1a16d2706","ios":"levelo://app?vid=a460f533-cb16-47d9-af54-c1d1a16d2706"},"vehicle_type_id":"4","last_reported":1730912861,"current_range_meters":28400,"station_id":"ce4bh3p2rcd13ifvqdp0","pricing_plan_id":"cebpf4jnsgd1na2vs0mg"},{"bike_id":"82ff2f43-e2d1-424e-9024-6bd551df2841","system_id":"levelo_inurba_marseille","lat":43.29544,"lon":5.37504,"is_reserved":false,"is_disabled":false,"rental_uris":{"android":"levelo://app?vid=82ff2f43-e2d1-424e-9024-6bd551df2841","ios":"levelo://app?vid=82ff2f43-e2d1-424e-9024-6bd551df2841"},"vehicle_type_id":"4","last_reported":1730912861,"current_range_meters":11200,"station_id":"ce4bgkp2rcd13ifvqbmg","pricing_plan_id":"cebpf4jnsgd1na2vs0mg"},{"bike_id":"390a9e29-2e78-492f-aa6c-7f042ec042ec","system_id":"levelo_inurba_marseille","lat":43.29875,"lon":5.39736,"is_reserved":false,"is_disabled":false,"rental_uris":{"android":"levelo://app?vid=390a9e29-2e78-492f-aa6c-7f042ec042ec","ios":"levelo://app?vid=390a9e29-2e78-492f-aa6c-7f042ec042ec"},"vehicle_type_id":"4","last_reported":1730912861,"current_range_meters":39200,"station_id":"ce4bh0h2rcd13ifvqd50","pricing_plan_id":"cebpf4jnsgd1na2vs0mg"},{"bike_id":"1e042949-838c-4779-9ed3-e835e41e7461","system_id":"levelo_inurba_marseille","lat":43.27996,"lon":5.40015,"is_reserved":false,"is_disabled":false,"rental_uris":{"android":"levelo://app?vid=1e042949-838c-4779-9ed3-e835e41e7461","ios":"levelo://app?vid=1e042949-838c-4779-9ed3-e835e41e7461"},"vehicle_type_id":"4","last_reported":1730912861,"current_range_meters":6800,"station_id":"ce4bho92rcd13ifvqh4g","pricing_plan_id":"cebpf4jnsgd1na2vs0mg"},{"bike_id":"4bf0d33b-24d4-45ad-82f1-05d608502eaf","system_id":"levelo_inurba_marseille","lat":43.31331,"lon":5.39698,"is_reserved":false,"is_disabled":false,"rental_uris":{"android":"levelo://app?vid=4bf0d33b-24d4-45ad-82f1-05d608502eaf","ios":"levelo://app?vid=4bf0d33b-24d4-45ad-82f1-05d608502eaf"},"vehicle_type_id":"4","last_reported":1730912861,"current_range_meters":8800,"station_id":"ce4bgvp2rcd13ifvqcu0","pricing_plan_id":"cebpf4jnsgd1na2vs0mg"},{"bike_id":"b5f01ca1-08a3-4b12-8a1e-5c3219f2f4c8","system_id":"levelo_inurba_marseille","lat":43.27818,"lon":5.40718,"is_reserved":false,"is_disabled":false,"rental_uris":{"android":"levelo://app?vid=b5f01ca1-08a3-4b12-8a1e-5c3219f2f4c8","ios":"levelo://app?vid=b5f01ca1-08a3-4b12-8a1e-5c3219f2f4c8"},"vehicle_type_id":"4","last_reported":1730912861,"current_range_meters":35600,"station_id":"ce4bhnh2rcd13ifvqgtg","pricing_plan_id":"cebpf4jnsgd1na2vs0mg"},{"bike_id":"40512a4d-68bc-40a3-81d1-67cc73d350d9","system_id":"levelo_inurba_marseille","lat":43.27182,"lon":5.40994,"is_reserved":false,"is_disabled":false,"rental_uris":{"android":"levelo://app?vid=40512a4d-68bc-40a3-81d1-67cc73d350d9","ios":"levelo://app?vid=40512a4d-68bc-40a3-81d1-67cc73d350d9"},"vehicle_type_id":"4","last_reported":1730912861,"current_range_meters":19200,"station_id":"ce4bhl12rcd13ifvqgf0","pricing_plan_id":"cebpf4jnsgd1na2vs0mg"},{"bike_id":"8a401a8a-30f9-4643-ad63-74116d1b600f","system_id":"levelo_inurba_marseille","lat":43.32488,"lon":5.36588,"is_reserved":false,"is_disabled":false,"rental_uris":{"android":"levelo://app?vid=8a401a8a-30f9-4643-ad63-74116d1b600f","ios":"levelo://app?vid=8a401a8a-30f9-4643-ad63-74116d1b600f"},"vehicle_type_id":"4","last_reported":1730912861,"current_range_meters":38800,"station_id":"ce4bhs12rcd13ifvqhvg","pricing_plan_id":"cebpf4jnsgd1na2vs0mg"},{"bike_id":"171db454-9231-4690-bd0b-fa5dcfdd830b","system_id":"levelo_inurba_marseille","lat":43.31753,"lon":5.39025,"is_reserved":false,"is_disabled":false,"rental_uris":{"android":"levelo://app?vid=171db454-9231-4690-bd0b-fa5dcfdd830b","ios":"levelo://app?vid=171db454-9231-4690-bd0b-fa5dcfdd830b"},"vehicle_type_id":"4","last_reported":1730912861,"current_range_meters":3600,"station_id":"ce4bhqp2rcd13ifvqhng","pricing_plan_id":"cebpf4jnsgd1na2vs0mg"},{"bike_id":"bcf94556-2246-41f1-8c06-a98f1a3ca966","system_id":"levelo_inurba_marseille","lat":43.28925,"lon":5.38397,"is_reserved":false,"is_disabled":false,"rental_uris":{"android":"levelo://app?vid=bcf94556-2246-41f1-8c06-a98f1a3ca966","ios":"levelo://app?vid=bcf94556-2246-41f1-8c06-a98f1a3ca966"},"vehicle_type_id":"4","last_reported":1730912861,"current_range_meters":22800,"station_id":"ce4bh612rcd13ifvqe6g","pricing_plan_id":"cebpf4jnsgd1na2vs0mg"},{"bike_id":"fab86eb8-413e-4528-92a2-a9637c218cc6","system_id":"levelo_inurba_marseille","lat":43.26565,"lon":5.39011,"is_reserved":false,"is_disabled":false,"rental_uris":{"android":"levelo://app?vid=fab86eb8-413e-4528-92a2-a9637c218cc6","ios":"levelo://app?vid=fab86eb8-413e-4528-92a2-a9637c218cc6"},"vehicle_type_id":"4","last_reported":1730912861,"current_range_meters":22400,"station_id":"ce4bhe12rcd13ifvqf30","pricing_plan_id":"cebpf4jnsgd1na2vs0mg"},{"bike_id":"298636ed-7b05-41bf-b5fa-0d78686171a7","system_id":"levelo_inurba_marseille","lat":43.2952,"lon":5.39411,"is_reserved":false,"is_disabled":false,"rental_uris":{"android":"levelo://app?vid=298636ed-7b05-41bf-b5fa-0d78686171a7","ios":"levelo://app?vid=298636ed-7b05-41bf-b5fa-0d78686171a7"},"vehicle_type_id":"4","last_reported":1730912861,"current_range_meters":26800,"station_id":"ce4bh292rcd13ifvqdf0","pricing_plan_id":"cebpf4jnsgd1na2vs0mg"},{"bike_id":"d229beaa-ac54-4996-9589-9d5015965115","system_id":"levelo_inurba_marseille","lat":43.28542,"lon":5.39525,"is_reserved":false,"is_disabled":false,"rental_uris":{"android":"levelo://app?vid=d229beaa-ac54-4996-9589-9d5015965115","ios":"levelo://app?vid=d229beaa-ac54-4996-9589-9d5015965115"},"vehicle_type_id":"4","last_reported":1730912861,"current_range_meters":22800,"station_id":"ce4bh292rcd13ifvqdg0","pricing_plan_id":"cebpf4jnsgd1na2vs0mg"},{"bike_id":"35628766-9127-4eb3-97e9-cb7de5d331c6","system_id":"levelo_inurba_marseille","lat":43.28157,"lon":5.4265,"is_reserved":false,"is_disabled":false,"rental_uris":{"android":"levelo://app?vid=35628766-9127-4eb3-97e9-cb7de5d331c6","ios":"levelo://app?vid=35628766-9127-4eb3-97e9-cb7de5d331c6"},"vehicle_type_id":"4","last_reported":1730912861,"current_range_meters":25200,"station_id":"ce4bhnh2rcd13ifvqgug","pricing_plan_id":"cebpf4jnsgd1na2vs0mg"},{"bike_id":"0b970381-a0d7-4db7-875c-7bacf0147af0","system_id":"levelo_inurba_marseille","lat":43.28948,"lon":5.36415,"is_reserved":false,"is_disabled":false,"rental_uris":{"android":"levelo://app?vid=0b970381-a0d7-4db7-875c-7bacf0147af0","ios":"levelo://app?vid=0b970381-a0d7-4db7-875c-7bacf0147af0"},"vehicle_type_id":"4","last_reported":1730912861,"current_range_meters":28800,"station_id":"ce4bhc92rcd13ifvqetg","pricing_plan_id":"cebpf4jnsgd1na2vs0mg"},{"bike_id":"328512fc-3e80-4303-8fb9-8bdfa1c9bb84","system_id":"levelo_inurba_marseille","lat":43.2895,"lon":5.39669,"is_reserved":false,"is_disabled":false,"rental_uris":{"android":"levelo://app?vid=328512fc-3e80-4303-8fb9-8bdfa1c9bb84","ios":"levelo://app?vid=328512fc-3e80-4303-8fb9-8bdfa1c9bb84"},"vehicle_type_id":"4","last_reported":1730912861,"current_range_meters":36800,"station_id":"ce4bh3h2rcd13ifvqdn0","pricing_plan_id":"cebpf4jnsgd1na2vs0mg"},{"bike_id":"692f31da-ed64-4e18-b7cc-350f01a2fb79","system_id":"levelo_inurba_marseille","lat":43.29897,"lon":5.43679,"is_reserved":false,"is_disabled":false,"rental_uris":{"android":"levelo://app?vid=692f31da-ed64-4e18-b7cc-350f01a2fb79","ios":"levelo://app?vid=692f31da-ed64-4e18-b7cc-350f01a2fb79"},"vehicle_type_id":"4","last_reported":1730912861,"current_range_meters":18800,"station_id":"ce4bhpp2rcd13ifvqhfg","pricing_plan_id":"cebpf4jnsgd1na2vs0mg"},{"bike_id":"af114740-a9c4-4afa-9ec9-1d0f168702da","system_id":"levelo_inurba_marseille","lat":43.29421,"lon":5.38615,"is_reserved":false,"is_disabled":false,"rental_uris":{"android":"levelo://app?vid=af114740-a9c4-4afa-9ec9-1d0f168702da","ios":"levelo://app?vid=af114740-a9c4-4afa-9ec9-1d0f168702da"},"vehicle_type_id":"4","last_reported":1730912861,"current_range_meters":38000,"station_id":"ce4bh2h2rcd13ifvqdh0","pricing_plan_id":"cebpf4jnsgd1na2vs0mg"},{"bike_id":"fab437d6-8486-401d-85b7-94e09454f07d","system_id":"levelo_inurba_marseille","lat":43.29776,"lon":5.37108,"is_reserved":false,"is_disabled":false,"rental_uris":{"android":"levelo://app?vid=fab437d6-8486-401d-85b7-94e09454f07d","ios":"levelo://app?vid=fab437d6-8486-401d-85b7-94e09454f07d"},"vehicle_type_id":"4","last_reported":1730912861,"current_range_meters":28000,"station_id":"ce4bgop2rcd13ifvqc1g","pricing_plan_id":"cebpf4jnsgd1na2vs0mg"},{"bike_id":"a887a981-1478-406d-b7ab-9caf2f3b5d8d","system_id":"levelo_inurba_marseille","lat":43.30435,"lon":5.38897,"is_reserved":false,"is_disabled":false,"rental_uris":{"android":"levelo://app?vid=a887a981-1478-406d-b7ab-9caf2f3b5d8d","ios":"levelo://app?vid=a887a981-1478-406d-b7ab-9caf2f3b5d8d"},"vehicle_type_id":"4","last_reported":1730912861,"current_range_meters":29600,"station_id":"ce4bgk12rcd13ifvqbi0","pricing_plan_id":"cebpf4jnsgd1na2vs0mg"},{"bike_id":"c0314875-546c-4af6-b76f-540f33ba13ae","system_id":"levelo_inurba_marseille","lat":43.28571,"lon":5.39494,"is_reserved":false,"is_disabled":false,"rental_uris":{"android":"levelo://app?vid=c0314875-546c-4af6-b76f-540f33ba13ae","ios":"levelo://app?vid=c0314875-546c-4af6-b76f-540f33ba13ae"},"vehicle_type_id":"4","last_reported":1730912861,"current_range_meters":11600,"station_id":"ce4bh292rcd13ifvqdg0","pricing_plan_id":"cebpf4jnsgd1na2vs0mg"},{"bike_id":"2541c8c4-0b0a-4815-b1ce-36da8a74d451","system_id":"levelo_inurba_marseille","lat":43.313318,"lon":5.396925,"is_reserved":false,"is_disabled":false,"rental_uris":{"android":"levelo://app?vid=2541c8c4-0b0a-4815-b1ce-36da8a74d451","ios":"levelo://app?vid=2541c8c4-0b0a-4815-b1ce-36da8a74d451"},"vehicle_type_id":"4","last_reported":1730912861,"current_range_meters":24400,"station_id":"ce4bgvp2rcd13ifvqcu0","pricing_plan_id":"cebpf4jnsgd1na2vs0mg"},{"bike_id":"b30b3076-6dc0-4cb5-80a1-9fcabfa933da","system_id":"levelo_inurba_marseille","lat":43.30254,"lon":5.40079,"is_reserved":false,"is_disabled":false,"rental_uris":{"android":"levelo://app?vid=b30b3076-6dc0-4cb5-80a1-9fcabfa933da","ios":"levelo://app?vid=b30b3076-6dc0-4cb5-80a1-9fcabfa933da"},"vehicle_type_id":"4","last_reported":1730912861,"current_range_meters":29600,"station_id":"ce4bgvh2rcd13ifvqcs0","pricing_plan_id":"cebpf4jnsgd1na2vs0mg"},{"bike_id":"66cadc2f-87dc-4b78-bb91-c6d6eee1cfce","system_id":"levelo_inurba_marseille","lat":43.3014,"lon":5.3987,"is_reserved":false,"is_disabled":false,"rental_uris":{"android":"levelo://app?vid=66cadc2f-87dc-4b78-bb91-c6d6eee1cfce","ios":"levelo://app?vid=66cadc2f-87dc-4b78-bb91-c6d6eee1cfce"},"vehicle_type_id":"4","last_reported":1730912861,"current_range_meters":18000,"station_id":"ce4bh0h2rcd13ifvqd40","pricing_plan_id":"cebpf4jnsgd1na2vs0mg"},{"bike_id":"50325615-633d-4e71-961b-1dc2d7bd3bd7","system_id":"levelo_inurba_marseille","lat":43.268032,"lon":5.402683,"is_reserved":false,"is_disabled":false,"rental_uris":{"android":"levelo://app?vid=50325615-633d-4e71-961b-1dc2d7bd3bd7","ios":"levelo://app?vid=50325615-633d-4e71-961b-1dc2d7bd3bd7"},"vehicle_type_id":"4","last_reported":1730912861,"current_range_meters":20800,"station_id":"ce501612rcd8frsf0b60","pricing_plan_id":"cebpf4jnsgd1na2vs0mg"},{"bike_id":"6c0ec494-6a8d-470b-8cc1-989fb91438d3","system_id":"levelo_inurba_marseille","lat":43.23178,"lon":5.40004,"is_reserved":false,"is_disabled":false,"rental_uris":{"android":"levelo://app?vid=6c0ec494-6a8d-470b-8cc1-989fb91438d3","ios":"levelo://app?vid=6c0ec494-6a8d-470b-8cc1-989fb91438d3"},"vehicle_type_id":"4","last_reported":1730912861,"current_range_meters":29600,"station_id":"ce4bhn12rcd13ifvqgqg","pricing_plan_id":"cebpf4jnsgd1na2vs0mg"},{"bike_id":"4728e619-d228-40ab-9271-e9ff59262252","system_id":"levelo_inurba_marseille","lat":43.29533,"lon":5.38552,"is_reserved":false,"is_disabled":false,"rental_uris":{"android":"levelo://app?vid=4728e619-d228-40ab-9271-e9ff59262252","ios":"levelo://app?vid=4728e619-d228-40ab-9271-e9ff59262252"},"vehicle_type_id":"4","last_reported":1730912861,"current_range_meters":12800,"station_id":"ce4bgih2rcd13ifvqba0","pricing_plan_id":"cebpf4jnsgd1na2vs0mg"},{"bike_id":"e3c7ce97-3dcf-4081-91de-c1db44982c5f","system_id":"levelo_inurba_marseille","lat":43.24392,"lon":5.37064,"is_reserved":false,"is_disabled":false,"rental_uris":{"android":"levelo://app?vid=e3c7ce97-3dcf-4081-91de-c1db44982c5f","ios":"levelo://app?vid=e3c7ce97-3dcf-4081-91de-c1db44982c5f"},"vehicle_type_id":"4","last_reported":1730912861,"current_range_meters":28800,"station_id":"ce4bhhh2rcd13ifvqfk0","pricing_plan_id":"cebpf4jnsgd1na2vs0mg"},{"bike_id":"a9134a2c-0cd3-42f1-aaa5-22766e2fb6e3","system_id":"levelo_inurba_marseille","lat":43.30595,"lon":5.37214,"is_reserved":false,"is_disabled":false,"rental_uris":{"android":"levelo://app?vid=a9134a2c-0cd3-42f1-aaa5-22766e2fb6e3","ios":"levelo://app?vid=a9134a2c-0cd3-42f1-aaa5-22766e2fb6e3"},"vehicle_type_id":"4","last_reported":1730912861,"current_range_meters":38800,"station_id":"ce4bgqh2rcd13ifvqc4g","pricing_plan_id":"cebpf4jnsgd1na2vs0mg"},{"bike_id":"a73a739c-a64b-48e6-a605-93b33fdf6716","system_id":"levelo_inurba_marseille","lat":43.249981,"lon":5.389346,"is_reserved":false,"is_disabled":false,"rental_uris":{"android":"levelo://app?vid=a73a739c-a64b-48e6-a605-93b33fdf6716","ios":"levelo://app?vid=a73a739c-a64b-48e6-a605-93b33fdf6716"},"vehicle_type_id":"4","last_reported":1730912861,"current_range_meters":38800,"station_id":"ce4bhgp2rcd13ifvqfd0","pricing_plan_id":"cebpf4jnsgd1na2vs0mg"},{"bike_id":"42163e3e-5009-401f-a1ce-f09eb7e2a510","system_id":"levelo_inurba_marseille","lat":43.3133,"lon":5.39698,"is_reserved":false,"is_disabled":false,"rental_uris":{"android":"levelo://app?vid=42163e3e-5009-401f-a1ce-f09eb7e2a510","ios":"levelo://app?vid=42163e3e-5009-401f-a1ce-f09eb7e2a510"},"vehicle_type_id":"4","last_reported":1730912861,"current_range_meters":40000,"station_id":"ce4bgvp2rcd13ifvqcu0","pricing_plan_id":"cebpf4jnsgd1na2vs0mg"},{"bike_id":"1a2ea1fb-e06d-4a91-bac1-a8a2ed1446a1","system_id":"levelo_inurba_marseille","lat":43.26584,"lon":5.39014,"is_reserved":false,"is_disabled":false,"rental_uris":{"android":"levelo://app?vid=1a2ea1fb-e06d-4a91-bac1-a8a2ed1446a1","ios":"levelo://app?vid=1a2ea1fb-e06d-4a91-bac1-a8a2ed1446a1"},"vehicle_type_id":"4","last_reported":1730912861,"current_range_meters":5600,"station_id":"ce4bhe12rcd13ifvqf30","pricing_plan_id":"cebpf4jnsgd1na2vs0mg"},{"bike_id":"15937298-afb2-4078-a70f-3ca58271954f","system_id":"levelo_inurba_marseille","lat":43.28656,"lon":5.38679,"is_reserved":false,"is_disabled":false,"rental_uris":{"android":"levelo://app?vid=15937298-afb2-4078-a70f-3ca58271954f","ios":"levelo://app?vid=15937298-afb2-4078-a70f-3ca58271954f"},"vehicle_type_id":"4","last_reported":1730912861,"current_range_meters":24000,"station_id":"ce4bh492rcd13ifvqdug","pricing_plan_id":"cebpf4jnsgd1na2vs0mg"},{"bike_id":"a0db1695-32d8-4d9c-9829-ab1da773a69e","system_id":"levelo_inurba_marseille","lat":43.301413,"lon":5.398695,"is_reserved":false,"is_disabled":false,"rental_uris":{"android":"levelo://app?vid=a0db1695-32d8-4d9c-9829-ab1da773a69e","ios":"levelo://app?vid=a0db1695-32d8-4d9c-9829-ab1da773a69e"},"vehicle_type_id":"4","last_reported":1730912861,"current_range_meters":36800,"station_id":"ce4bh0h2rcd13ifvqd40","pricing_plan_id":"cebpf4jnsgd1na2vs0mg"},{"bike_id":"27caf880-90e2-4bca-b7ba-9c1d4d24c442","system_id":"levelo_inurba_marseille","lat":43.28949,"lon":5.38392,"is_reserved":false,"is_disabled":false,"rental_uris":{"android":"levelo://app?vid=27caf880-90e2-4bca-b7ba-9c1d4d24c442","ios":"levelo://app?vid=27caf880-90e2-4bca-b7ba-9c1d4d24c442"},"vehicle_type_id":"4","last_reported":1730912861,"current_range_meters":3600,"station_id":"ce4bh612rcd13ifvqe6g","pricing_plan_id":"cebpf4jnsgd1na2vs0mg"},{"bike_id":"732a66b4-3a97-4212-ae3d-7d1b770cbfc2","system_id":"levelo_inurba_marseille","lat":43.23156,"lon":5.43727,"is_reserved":false,"is_disabled":false,"rental_uris":{"android":"levelo://app?vid=732a66b4-3a97-4212-ae3d-7d1b770cbfc2","ios":"levelo://app?vid=732a66b4-3a97-4212-ae3d-7d1b770cbfc2"},"vehicle_type_id":"4","last_reported":1730912861,"current_range_meters":3600,"station_id":"ce4bhmp2rcd13ifvqgog","pricing_plan_id":"cebpf4jnsgd1na2vs0mg"},{"bike_id":"2be58595-1ee4-4e97-90d2-c6d933b5e1c7","system_id":"levelo_inurba_marseille","lat":43.29897,"lon":5.43667,"is_reserved":false,"is_disabled":false,"rental_uris":{"android":"levelo://app?vid=2be58595-1ee4-4e97-90d2-c6d933b5e1c7","ios":"levelo://app?vid=2be58595-1ee4-4e97-90d2-c6d933b5e1c7"},"vehicle_type_id":"4","last_reported":1730912861,"current_range_meters":19200,"station_id":"ce4bhpp2rcd13ifvqhfg","pricing_plan_id":"cebpf4jnsgd1na2vs0mg"},{"bike_id":"321ad10c-b110-4696-ba69-ee07dbde06f4","system_id":"levelo_inurba_marseille","lat":43.28082,"lon":5.39672,"is_reserved":false,"is_disabled":false,"rental_uris":{"android":"levelo://app?vid=321ad10c-b110-4696-ba69-ee07dbde06f4","ios":"levelo://app?vid=321ad10c-b110-4696-ba69-ee07dbde06f4"},"vehicle_type_id":"4","last_reported":1730912861,"current_range_meters":39200,"station_id":"ce4bho12rcd13ifvqh2g","pricing_plan_id":"cebpf4jnsgd1na2vs0mg"},{"bike_id":"1d1c4056-7a38-429a-911c-e9f787b7be9f","system_id":"levelo_inurba_marseille","lat":43.2942,"lon":5.38631,"is_reserved":false,"is_disabled":false,"rental_uris":{"android":"levelo://app?vid=1d1c4056-7a38-429a-911c-e9f787b7be9f","ios":"levelo://app?vid=1d1c4056-7a38-429a-911c-e9f787b7be9f"},"vehicle_type_id":"4","last_reported":1730912861,"current_range_meters":24800,"station_id":"ce4bh2h2rcd13ifvqdh0","pricing_plan_id":"cebpf4jnsgd1na2vs0mg"},{"bike_id":"9dd3607f-4f2f-4f96-ba92-948334cfc5ef","system_id":"levelo_inurba_marseille","lat":43.29533,"lon":5.38539,"is_reserved":false,"is_disabled":false,"rental_uris":{"android":"levelo://app?vid=9dd3607f-4f2f-4f96-ba92-948334cfc5ef","ios":"levelo://app?vid=9dd3607f-4f2f-4f96-ba92-948334cfc5ef"},"vehicle_type_id":"4","last_reported":1730912861,"current_range_meters":32000,"station_id":"ce4bgih2rcd13ifvqba0","pricing_plan_id":"cebpf4jnsgd1na2vs0mg"},{"bike_id":"6a1d03d1-c4b9-4b38-82e7-bab03726f19f","system_id":"levelo_inurba_marseille","lat":43.3031,"lon":5.36894,"is_reserved":false,"is_disabled":false,"rental_uris":{"android":"levelo://app?vid=6a1d03d1-c4b9-4b38-82e7-bab03726f19f","ios":"levelo://app?vid=6a1d03d1-c4b9-4b38-82e7-bab03726f19f"},"vehicle_type_id":"4","last_reported":1730912861,"current_range_meters":32000,"station_id":"ce4bgqh2rcd13ifvqc5g","pricing_plan_id":"cebpf4jnsgd1na2vs0mg"},{"bike_id":"0e0cc7c3-4ffb-42d5-9933-a1ebcfb771ff","system_id":"levelo_inurba_marseille","lat":43.2894,"lon":5.39634,"is_reserved":false,"is_disabled":false,"rental_uris":{"android":"levelo://app?vid=0e0cc7c3-4ffb-42d5-9933-a1ebcfb771ff","ios":"levelo://app?vid=0e0cc7c3-4ffb-42d5-9933-a1ebcfb771ff"},"vehicle_type_id":"4","last_reported":1730912861,"current_range_meters":36400,"station_id":"ce4bh3h2rcd13ifvqdn0","pricing_plan_id":"cebpf4jnsgd1na2vs0mg"},{"bike_id":"f348c9f4-9a66-4443-89e4-59eadd84ea52","system_id":"levelo_inurba_marseille","lat":43.31531,"lon":5.37247,"is_reserved":false,"is_disabled":false,"rental_uris":{"android":"levelo://app?vid=f348c9f4-9a66-4443-89e4-59eadd84ea52","ios":"levelo://app?vid=f348c9f4-9a66-4443-89e4-59eadd84ea52"},"vehicle_type_id":"4","last_reported":1730912861,"current_range_meters":7200,"station_id":"","pricing_plan_id":"cebpf4jnsgd1na2vs0mg"},{"bike_id":"9a57b94b-08e2-46b1-a431-346b37d938e3","system_id":"levelo_inurba_marseille","lat":43.27183,"lon":5.40994,"is_reserved":false,"is_disabled":false,"rental_uris":{"android":"levelo://app?vid=9a57b94b-08e2-46b1-a431-346b37d938e3","ios":"levelo://app?vid=9a57b94b-08e2-46b1-a431-346b37d938e3"},"vehicle_type_id":"4","last_reported":1730912861,"current_range_meters":3600,"station_id":"ce4bhl12rcd13ifvqgf0","pricing_plan_id":"cebpf4jnsgd1na2vs0mg"},{"bike_id":"87eebe45-bf29-476c-85b7-0159f04ab238","system_id":"levelo_inurba_marseille","lat":43.31529,"lon":5.38037,"is_reserved":false,"is_disabled":false,"rental_uris":{"android":"levelo://app?vid=87eebe45-bf29-476c-85b7-0159f04ab238","ios":"levelo://app?vid=87eebe45-bf29-476c-85b7-0159f04ab238"},"vehicle_type_id":"4","last_reported":1730912861,"current_range_meters":13600,"station_id":"ce4bhsp2rcd13ifvqi50","pricing_plan_id":"cebpf4jnsgd1na2vs0mg"},{"bike_id":"aa99810f-d4db-4779-a755-0efaece821ec","system_id":"levelo_inurba_marseille","lat":43.29029,"lon":5.38131,"is_reserved":false,"is_disabled":false,"rental_uris":{"android":"levelo://app?vid=aa99810f-d4db-4779-a755-0efaece821ec","ios":"levelo://app?vid=aa99810f-d4db-4779-a755-0efaece821ec"},"vehicle_type_id":"4","last_reported":1730912861,"current_range_meters":20000,"station_id":"ce4bh4p2rcd13ifvqe1g","pricing_plan_id":"cebpf4jnsgd1na2vs0mg"},{"bike_id":"c2e7671d-a865-4328-85a3-cc17793c28bc","system_id":"levelo_inurba_marseille","lat":43.29887,"lon":5.39737,"is_reserved":false,"is_disabled":false,"rental_uris":{"android":"levelo://app?vid=c2e7671d-a865-4328-85a3-cc17793c28bc","ios":"levelo://app?vid=c2e7671d-a865-4328-85a3-cc17793c28bc"},"vehicle_type_id":"4","last_reported":1730912861,"current_range_meters":17200,"station_id":"ce4bh0h2rcd13ifvqd50","pricing_plan_id":"cebpf4jnsgd1na2vs0mg"},{"bike_id":"1f47ed8e-1934-48ce-892b-9aee2605272e","system_id":"levelo_inurba_marseille","lat":43.28934,"lon":5.38416,"is_reserved":false,"is_disabled":false,"rental_uris":{"android":"levelo://app?vid=1f47ed8e-1934-48ce-892b-9aee2605272e","ios":"levelo://app?vid=1f47ed8e-1934-48ce-892b-9aee2605272e"},"vehicle_type_id":"4","last_reported":1730912861,"current_range_meters":39200,"station_id":"ce4bh612rcd13ifvqe6g","pricing_plan_id":"cebpf4jnsgd1na2vs0mg"},{"bike_id":"5bce6358-d04a-4f55-9d5c-b1a54161f3c6","system_id":"levelo_inurba_marseille","lat":43.29874,"lon":5.39739,"is_reserved":false,"is_disabled":false,"rental_uris":{"android":"levelo://app?vid=5bce6358-d04a-4f55-9d5c-b1a54161f3c6","ios":"levelo://app?vid=5bce6358-d04a-4f55-9d5c-b1a54161f3c6"},"vehicle_type_id":"4","last_reported":1730912861,"current_range_meters":31200,"station_id":"ce4bh0h2rcd13ifvqd50","pricing_plan_id":"cebpf4jnsgd1na2vs0mg"},{"bike_id":"d3047eb6-38d5-4318-9b55-0a98a8a122d1","system_id":"levelo_inurba_marseille","lat":43.28695,"lon":5.39992,"is_reserved":false,"is_disabled":false,"rental_uris":{"android":"levelo://app?vid=d3047eb6-38d5-4318-9b55-0a98a8a122d1","ios":"levelo://app?vid=d3047eb6-38d5-4318-9b55-0a98a8a122d1"},"vehicle_type_id":"4","last_reported":1730912861,"current_range_meters":30000,"station_id":"ce4bho92rcd13ifvqh3g","pricing_plan_id":"cebpf4jnsgd1na2vs0mg"},{"bike_id":"138edf40-8b55-4b5b-8ebd-2a9cd72069a9","system_id":"levelo_inurba_marseille","lat":43.24671,"lon":5.38174,"is_reserved":false,"is_disabled":false,"rental_uris":{"android":"levelo://app?vid=138edf40-8b55-4b5b-8ebd-2a9cd72069a9","ios":"levelo://app?vid=138edf40-8b55-4b5b-8ebd-2a9cd72069a9"},"vehicle_type_id":"4","last_reported":1730912861,"current_range_meters":18000,"station_id":"ce4bhih2rcd13ifvqfr0","pricing_plan_id":"cebpf4jnsgd1na2vs0mg"},{"bike_id":"c1f11680-2672-40b6-8614-d00a9bc5e3c1","system_id":"levelo_inurba_marseille","lat":43.25863,"lon":5.39908,"is_reserved":false,"is_disabled":false,"rental_uris":{"android":"levelo://app?vid=c1f11680-2672-40b6-8614-d00a9bc5e3c1","ios":"levelo://app?vid=c1f11680-2672-40b6-8614-d00a9bc5e3c1"},"vehicle_type_id":"4","last_reported":1730912861,"current_range_meters":37600,"station_id":"ce4bhl92rcd13ifvqghg","pricing_plan_id":"cebpf4jnsgd1na2vs0mg"},{"bike_id":"cde33d01-4fdf-4588-9993-50576e545d63","system_id":"levelo_inurba_marseille","lat":43.29903,"lon":5.43677,"is_reserved":false,"is_disabled":false,"rental_uris":{"android":"levelo://app?vid=cde33d01-4fdf-4588-9993-50576e545d63","ios":"levelo://app?vid=cde33d01-4fdf-4588-9993-50576e545d63"},"vehicle_type_id":"4","last_reported":1730912861,"current_range_meters":37600,"station_id":"ce4bhpp2rcd13ifvqhfg","pricing_plan_id":"cebpf4jnsgd1na2vs0mg"},{"bike_id":"7b0fa45b-73b1-43d0-b318-c7b89f93ae59","system_id":"levelo_inurba_marseille","lat":43.31334,"lon":5.39704,"is_reserved":false,"is_disabled":false,"rental_uris":{"android":"levelo://app?vid=7b0fa45b-73b1-43d0-b318-c7b89f93ae59","ios":"levelo://app?vid=7b0fa45b-73b1-43d0-b318-c7b89f93ae59"},"vehicle_type_id":"4","last_reported":1730912861,"current_range_meters":8400,"station_id":"ce4bgvp2rcd13ifvqcu0","pricing_plan_id":"cebpf4jnsgd1na2vs0mg"},{"bike_id":"b479ed1a-0154-4ad8-bb5e-8792ecef09e1","system_id":"levelo_inurba_marseille","lat":43.29794,"lon":5.38101,"is_reserved":false,"is_disabled":false,"rental_uris":{"android":"levelo://app?vid=b479ed1a-0154-4ad8-bb5e-8792ecef09e1","ios":"levelo://app?vid=b479ed1a-0154-4ad8-bb5e-8792ecef09e1"},"vehicle_type_id":"4","last_reported":1730912861,"current_range_meters":39200,"station_id":"ce4bgip2rcd13ifvqbb0","pricing_plan_id":"cebpf4jnsgd1na2vs0mg"},{"bike_id":"5956a5cb-e298-42ff-9b3c-0356908fb07f","system_id":"levelo_inurba_marseille","lat":43.30788,"lon":5.37658,"is_reserved":false,"is_disabled":false,"rental_uris":{"android":"levelo://app?vid=5956a5cb-e298-42ff-9b3c-0356908fb07f","ios":"levelo://app?vid=5956a5cb-e298-42ff-9b3c-0356908fb07f"},"vehicle_type_id":"4","last_reported":1730912861,"current_range_meters":39200,"station_id":"ce4bgv92rcd13ifvqcq0","pricing_plan_id":"cebpf4jnsgd1na2vs0mg"},{"bike_id":"27968d1c-4451-420e-96c8-e314c79b868b","system_id":"levelo_inurba_marseille","lat":43.300242,"lon":5.385713,"is_reserved":false,"is_disabled":false,"rental_uris":{"android":"levelo://app?vid=27968d1c-4451-420e-96c8-e314c79b868b","ios":"levelo://app?vid=27968d1c-4451-420e-96c8-e314c79b868b"},"vehicle_type_id":"4","last_reported":1730912861,"current_range_meters":18800,"station_id":"ce4bgj92rcd13ifvqbd0","pricing_plan_id":"cebpf4jnsgd1na2vs0mg"},{"bike_id":"99cd5de6-2c20-41af-b82d-c84ed6e71ebc","system_id":"levelo_inurba_marseille","lat":43.27073,"lon":5.42277,"is_reserved":false,"is_disabled":false,"rental_uris":{"android":"levelo://app?vid=99cd5de6-2c20-41af-b82d-c84ed6e71ebc","ios":"levelo://app?vid=99cd5de6-2c20-41af-b82d-c84ed6e71ebc"},"vehicle_type_id":"4","last_reported":1730912861,"current_range_meters":14000,"station_id":"ce4bhk92rcd13ifvqgb0","pricing_plan_id":"cebpf4jnsgd1na2vs0mg"},{"bike_id":"bc8ee944-4095-408e-9184-b2d4e6d962c5","system_id":"levelo_inurba_marseille","lat":43.29194,"lon":5.39318,"is_reserved":false,"is_disabled":false,"rental_uris":{"android":"levelo://app?vid=bc8ee944-4095-408e-9184-b2d4e6d962c5","ios":"levelo://app?vid=bc8ee944-4095-408e-9184-b2d4e6d962c5"},"vehicle_type_id":"4","last_reported":1730912861,"current_range_meters":35600,"station_id":"ce4bh192rcd13ifvqdd0","pricing_plan_id":"cebpf4jnsgd1na2vs0mg"},{"bike_id":"5174ae6b-73b7-4eb9-b82e-9c61c1f78ce8","system_id":"levelo_inurba_marseille","lat":43.31228,"lon":5.40609,"is_reserved":false,"is_disabled":false,"rental_uris":{"android":"levelo://app?vid=5174ae6b-73b7-4eb9-b82e-9c61c1f78ce8","ios":"levelo://app?vid=5174ae6b-73b7-4eb9-b82e-9c61c1f78ce8"},"vehicle_type_id":"4","last_reported":1730912861,"current_range_meters":22000,"station_id":"","pricing_plan_id":"cebpf4jnsgd1na2vs0mg"},{"bike_id":"a3cf8471-b2be-43d3-82bc-d68681d6f77e","system_id":"levelo_inurba_marseille","lat":43.30807,"lon":5.4353,"is_reserved":false,"is_disabled":false,"rental_uris":{"android":"levelo://app?vid=a3cf8471-b2be-43d3-82bc-d68681d6f77e","ios":"levelo://app?vid=a3cf8471-b2be-43d3-82bc-d68681d6f77e"},"vehicle_type_id":"4","last_reported":1730912861,"current_range_meters":12800,"station_id":"ce4bhph2rcd13ifvqheg","pricing_plan_id":"cebpf4jnsgd1na2vs0mg"},{"bike_id":"6954516e-4dfd-46f1-9b78-3f3c29cbf96c","system_id":"levelo_inurba_marseille","lat":43.286652,"lon":5.363395,"is_reserved":false,"is_disabled":false,"rental_uris":{"android":"levelo://app?vid=6954516e-4dfd-46f1-9b78-3f3c29cbf96c","ios":"levelo://app?vid=6954516e-4dfd-46f1-9b78-3f3c29cbf96c"},"vehicle_type_id":"4","last_reported":1730912861,"current_range_meters":18800,"station_id":"ce4bhc92rcd13ifvqetg","pricing_plan_id":"cebpf4jnsgd1na2vs0mg"},{"bike_id":"bff19b85-fa9d-4d2e-a404-1b3282f15d63","system_id":"levelo_inurba_marseille","lat":43.28002,"lon":5.40023,"is_reserved":false,"is_disabled":false,"rental_uris":{"android":"levelo://app?vid=bff19b85-fa9d-4d2e-a404-1b3282f15d63","ios":"levelo://app?vid=bff19b85-fa9d-4d2e-a404-1b3282f15d63"},"vehicle_type_id":"4","last_reported":1730912861,"current_range_meters":38000,"station_id":"ce4bho92rcd13ifvqh4g","pricing_plan_id":"cebpf4jnsgd1na2vs0mg"},{"bike_id":"686bd12c-9afe-4030-b380-790763444c55","system_id":"levelo_inurba_marseille","lat":43.285658,"lon":5.395073,"is_reserved":false,"is_disabled":false,"rental_uris":{"android":"levelo://app?vid=686bd12c-9afe-4030-b380-790763444c55","ios":"levelo://app?vid=686bd12c-9afe-4030-b380-790763444c55"},"vehicle_type_id":"4","last_reported":1730912861,"current_range_meters":25200,"station_id":"ce4bh292rcd13ifvqdg0","pricing_plan_id":"cebpf4jnsgd1na2vs0mg"},{"bike_id":"b93efa06-f5ab-42e4-b69b-a11cef7d90ab","system_id":"levelo_inurba_marseille","lat":43.29534,"lon":5.38546,"is_reserved":false,"is_disabled":false,"rental_uris":{"android":"levelo://app?vid=b93efa06-f5ab-42e4-b69b-a11cef7d90ab","ios":"levelo://app?vid=b93efa06-f5ab-42e4-b69b-a11cef7d90ab"},"vehicle_type_id":"4","last_reported":1730912861,"current_range_meters":28800,"station_id":"ce4bgih2rcd13ifvqba0","pricing_plan_id":"cebpf4jnsgd1na2vs0mg"},{"bike_id":"b3fe9c81-d894-4a06-baa2-c483f85920ff","system_id":"levelo_inurba_marseille","lat":43.323407,"lon":5.406218,"is_reserved":false,"is_disabled":false,"rental_uris":{"android":"levelo://app?vid=b3fe9c81-d894-4a06-baa2-c483f85920ff","ios":"levelo://app?vid=b3fe9c81-d894-4a06-baa2-c483f85920ff"},"vehicle_type_id":"4","last_reported":1730912861,"current_range_meters":17200,"station_id":"ce4bhq92rcd13ifvqhjg","pricing_plan_id":"cebpf4jnsgd1na2vs0mg"},{"bike_id":"048d8c8e-ed12-4cd5-b3fe-018672c0b043","system_id":"levelo_inurba_marseille","lat":43.29641,"lon":5.40599,"is_reserved":false,"is_disabled":false,"rental_uris":{"android":"levelo://app?vid=048d8c8e-ed12-4cd5-b3fe-018672c0b043","ios":"levelo://app?vid=048d8c8e-ed12-4cd5-b3fe-018672c0b043"},"vehicle_type_id":"4","last_reported":1730912861,"current_range_meters":34800,"station_id":"ce4bh0h2rcd13ifvqd60","pricing_plan_id":"cebpf4jnsgd1na2vs0mg"},{"bike_id":"19e5cbb4-3e46-46e1-95a0-541c0c546477","system_id":"levelo_inurba_marseille","lat":43.24665,"lon":5.38168,"is_reserved":false,"is_disabled":false,"rental_uris":{"android":"levelo://app?vid=19e5cbb4-3e46-46e1-95a0-541c0c546477","ios":"levelo://app?vid=19e5cbb4-3e46-46e1-95a0-541c0c546477"},"vehicle_type_id":"4","last_reported":1730912861,"current_range_meters":19600,"station_id":"ce4bhih2rcd13ifvqfr0","pricing_plan_id":"cebpf4jnsgd1na2vs0mg"},{"bike_id":"ca0a8d28-a53c-41f5-adc5-74a743632fdb","system_id":"levelo_inurba_marseille","lat":43.2582,"lon":5.3944,"is_reserved":false,"is_disabled":false,"rental_uris":{"android":"levelo://app?vid=ca0a8d28-a53c-41f5-adc5-74a743632fdb","ios":"levelo://app?vid=ca0a8d28-a53c-41f5-adc5-74a743632fdb"},"vehicle_type_id":"4","last_reported":1730912861,"current_range_meters":38400,"station_id":"ce4bhip2rcd13ifvqft0","pricing_plan_id":"cebpf4jnsgd1na2vs0mg"},{"bike_id":"cfdf668a-e40a-4cb4-9d3c-0b34832b6a89","system_id":"levelo_inurba_marseille","lat":43.27002,"lon":5.39958,"is_reserved":false,"is_disabled":false,"rental_uris":{"android":"levelo://app?vid=cfdf668a-e40a-4cb4-9d3c-0b34832b6a89","ios":"levelo://app?vid=cfdf668a-e40a-4cb4-9d3c-0b34832b6a89"},"vehicle_type_id":"4","last_reported":1730912861,"current_range_meters":25600,"station_id":"","pricing_plan_id":"cebpf4jnsgd1na2vs0mg"},{"bike_id":"7cfcd606-1189-4965-a84b-71ec26c0d2d4","system_id":"levelo_inurba_marseille","lat":43.26066,"lon":5.39403,"is_reserved":false,"is_disabled":false,"rental_uris":{"android":"levelo://app?vid=7cfcd606-1189-4965-a84b-71ec26c0d2d4","ios":"levelo://app?vid=7cfcd606-1189-4965-a84b-71ec26c0d2d4"},"vehicle_type_id":"4","last_reported":1730912861,"current_range_meters":32800,"station_id":"ce4bhh92rcd13ifvqfj0","pricing_plan_id":"cebpf4jnsgd1na2vs0mg"},{"bike_id":"ad936195-ebbc-4d0d-b57c-43ce0fd71164","system_id":"levelo_inurba_marseille","lat":43.30599,"lon":5.37222,"is_reserved":false,"is_disabled":false,"rental_uris":{"android":"levelo://app?vid=ad936195-ebbc-4d0d-b57c-43ce0fd71164","ios":"levelo://app?vid=ad936195-ebbc-4d0d-b57c-43ce0fd71164"},"vehicle_type_id":"4","last_reported":1730912861,"current_range_meters":31200,"station_id":"ce4bgqh2rcd13ifvqc4g","pricing_plan_id":"cebpf4jnsgd1na2vs0mg"},{"bike_id":"67c65a4c-d5fc-45c3-aaae-b079185a8771","system_id":"levelo_inurba_marseille","lat":43.28728,"lon":5.36089,"is_reserved":false,"is_disabled":false,"rental_uris":{"android":"levelo://app?vid=67c65a4c-d5fc-45c3-aaae-b079185a8771","ios":"levelo://app?vid=67c65a4c-d5fc-45c3-aaae-b079185a8771"},"vehicle_type_id":"4","last_reported":1730912861,"current_range_meters":10000,"station_id":"cki0cbj6b192h4jlfktg","pricing_plan_id":"cebpf4jnsgd1na2vs0mg"},{"bike_id":"2fe515d7-c2ba-40bc-af58-2812fb065090","system_id":"levelo_inurba_marseille","lat":43.29877,"lon":5.39739,"is_reserved":false,"is_disabled":false,"rental_uris":{"android":"levelo://app?vid=2fe515d7-c2ba-40bc-af58-2812fb065090","ios":"levelo://app?vid=2fe515d7-c2ba-40bc-af58-2812fb065090"},"vehicle_type_id":"4","last_reported":1730912861,"current_range_meters":17200,"station_id":"ce4bh0h2rcd13ifvqd50","pricing_plan_id":"cebpf4jnsgd1na2vs0mg"},{"bike_id":"0af48bc9-0793-4c29-8b26-eb6a37d5183c","system_id":"levelo_inurba_marseille","lat":43.30263,"lon":5.40087,"is_reserved":false,"is_disabled":false,"rental_uris":{"android":"levelo://app?vid=0af48bc9-0793-4c29-8b26-eb6a37d5183c","ios":"levelo://app?vid=0af48bc9-0793-4c29-8b26-eb6a37d5183c"},"vehicle_type_id":"4","last_reported":1730912861,"current_range_meters":23200,"station_id":"ce4bgvh2rcd13ifvqcs0","pricing_plan_id":"cebpf4jnsgd1na2vs0mg"},{"bike_id":"a5bc2fce-204d-4ecc-bd2f-0a758ce61f0d","system_id":"levelo_inurba_marseille","lat":43.27991,"lon":5.4002,"is_reserved":false,"is_disabled":false,"rental_uris":{"android":"levelo://app?vid=a5bc2fce-204d-4ecc-bd2f-0a758ce61f0d","ios":"levelo://app?vid=a5bc2fce-204d-4ecc-bd2f-0a758ce61f0d"},"vehicle_type_id":"4","last_reported":1730912861,"current_range_meters":8400,"station_id":"ce4bho92rcd13ifvqh4g","pricing_plan_id":"cebpf4jnsgd1na2vs0mg"},{"bike_id":"d0196702-7429-4a2d-86eb-6777a267cff3","system_id":"levelo_inurba_marseille","lat":43.29995,"lon":5.37184,"is_reserved":false,"is_disabled":false,"rental_uris":{"android":"levelo://app?vid=d0196702-7429-4a2d-86eb-6777a267cff3","ios":"levelo://app?vid=d0196702-7429-4a2d-86eb-6777a267cff3"},"vehicle_type_id":"4","last_reported":1730912861,"current_range_meters":9200,"station_id":"ce4bgr92rcd13ifvqc7g","pricing_plan_id":"cebpf4jnsgd1na2vs0mg"},{"bike_id":"d819f25f-4b96-4652-be74-423203d85c6b","system_id":"levelo_inurba_marseille","lat":43.29438,"lon":5.39756,"is_reserved":false,"is_disabled":false,"rental_uris":{"android":"levelo://app?vid=d819f25f-4b96-4652-be74-423203d85c6b","ios":"levelo://app?vid=d819f25f-4b96-4652-be74-423203d85c6b"},"vehicle_type_id":"4","last_reported":1730912861,"current_range_meters":19200,"station_id":"ce4bh3h2rcd13ifvqdo0","pricing_plan_id":"cebpf4jnsgd1na2vs0mg"},{"bike_id":"4d3c374a-1f45-46b9-8607-f64397074506","system_id":"levelo_inurba_marseille","lat":43.25097,"lon":5.39509,"is_reserved":false,"is_disabled":false,"rental_uris":{"android":"levelo://app?vid=4d3c374a-1f45-46b9-8607-f64397074506","ios":"levelo://app?vid=4d3c374a-1f45-46b9-8607-f64397074506"},"vehicle_type_id":"4","last_reported":1730912861,"current_range_meters":30000,"station_id":"ce4bhm12rcd13ifvqgkg","pricing_plan_id":"cebpf4jnsgd1na2vs0mg"},{"bike_id":"cd223594-6aa7-4649-9cf2-f9b13b3bac92","system_id":"levelo_inurba_marseille","lat":43.28157,"lon":5.42648,"is_reserved":false,"is_disabled":false,"rental_uris":{"android":"levelo://app?vid=cd223594-6aa7-4649-9cf2-f9b13b3bac92","ios":"levelo://app?vid=cd223594-6aa7-4649-9cf2-f9b13b3bac92"},"vehicle_type_id":"4","last_reported":1730912861,"current_range_meters":19600,"station_id":"ce4bhnh2rcd13ifvqgug","pricing_plan_id":"cebpf4jnsgd1na2vs0mg"},{"bike_id":"fa7b0e37-7e18-4a6e-9d36-9bc2f765b5d0","system_id":"levelo_inurba_marseille","lat":43.33777,"lon":5.37441,"is_reserved":false,"is_disabled":false,"rental_uris":{"android":"levelo://app?vid=fa7b0e37-7e18-4a6e-9d36-9bc2f765b5d0","ios":"levelo://app?vid=fa7b0e37-7e18-4a6e-9d36-9bc2f765b5d0"},"vehicle_type_id":"4","last_reported":1730912861,"current_range_meters":36000,"station_id":"","pricing_plan_id":"cebpf4jnsgd1na2vs0mg"},{"bike_id":"b7dd8bea-767b-4a90-a1d4-bc825086e891","system_id":"levelo_inurba_marseille","lat":43.30137,"lon":5.39877,"is_reserved":false,"is_disabled":false,"rental_uris":{"android":"levelo://app?vid=b7dd8bea-767b-4a90-a1d4-bc825086e891","ios":"levelo://app?vid=b7dd8bea-767b-4a90-a1d4-bc825086e891"},"vehicle_type_id":"4","last_reported":1730912861,"current_range_meters":28000,"station_id":"ce4bh0h2rcd13ifvqd40","pricing_plan_id":"cebpf4jnsgd1na2vs0mg"},{"bike_id":"46a2ef6f-e190-43e5-b17e-ab9d44a9a294","system_id":"levelo_inurba_marseille","lat":43.30552,"lon":5.36554,"is_reserved":false,"is_disabled":false,"rental_uris":{"android":"levelo://app?vid=46a2ef6f-e190-43e5-b17e-ab9d44a9a294","ios":"levelo://app?vid=46a2ef6f-e190-43e5-b17e-ab9d44a9a294"},"vehicle_type_id":"4","last_reported":1730912861,"current_range_meters":32400,"station_id":"ce4bhqh2rcd13ifvqhlg","pricing_plan_id":"cebpf4jnsgd1na2vs0mg"},{"bike_id":"fa75792c-e5d5-4826-a65d-b964422195e2","system_id":"levelo_inurba_marseille","lat":43.31755,"lon":5.39021,"is_reserved":false,"is_disabled":false,"rental_uris":{"android":"levelo://app?vid=fa75792c-e5d5-4826-a65d-b964422195e2","ios":"levelo://app?vid=fa75792c-e5d5-4826-a65d-b964422195e2"},"vehicle_type_id":"4","last_reported":1730912861,"current_range_meters":39200,"station_id":"ce4bhqp2rcd13ifvqhng","pricing_plan_id":"cebpf4jnsgd1na2vs0mg"},{"bike_id":"5ef51004-40da-4dd1-8bf1-e82263a32e9b","system_id":"levelo_inurba_marseille","lat":43.28941,"lon":5.39631,"is_reserved":false,"is_disabled":false,"rental_uris":{"android":"levelo://app?vid=5ef51004-40da-4dd1-8bf1-e82263a32e9b","ios":"levelo://app?vid=5ef51004-40da-4dd1-8bf1-e82263a32e9b"},"vehicle_type_id":"4","last_reported":1730912861,"current_range_meters":34000,"station_id":"ce4bh3h2rcd13ifvqdn0","pricing_plan_id":"cebpf4jnsgd1na2vs0mg"},{"bike_id":"55a677bd-87c6-4021-ae5c-c9a5693b7d71","system_id":"levelo_inurba_marseille","lat":43.31333,"lon":5.39705,"is_reserved":false,"is_disabled":false,"rental_uris":{"android":"levelo://app?vid=55a677bd-87c6-4021-ae5c-c9a5693b7d71","ios":"levelo://app?vid=55a677bd-87c6-4021-ae5c-c9a5693b7d71"},"vehicle_type_id":"4","last_reported":1730912861,"current_range_meters":38800,"station_id":"ce4bgvp2rcd13ifvqcu0","pricing_plan_id":"cebpf4jnsgd1na2vs0mg"},{"bike_id":"4e5d727a-7c34-44b8-af94-45a54b88c1cc","system_id":"levelo_inurba_marseille","lat":43.3372,"lon":5.39183,"is_reserved":false,"is_disabled":false,"rental_uris":{"android":"levelo://app?vid=4e5d727a-7c34-44b8-af94-45a54b88c1cc","ios":"levelo://app?vid=4e5d727a-7c34-44b8-af94-45a54b88c1cc"},"vehicle_type_id":"4","last_reported":1730912861,"current_range_meters":40000,"station_id":"ce4bhr92rcd13ifvqhsg","pricing_plan_id":"cebpf4jnsgd1na2vs0mg"},{"bike_id":"02aa260d-3573-43a9-9c9d-4111abda83bc","system_id":"levelo_inurba_marseille","lat":43.28463,"lon":5.35892,"is_reserved":false,"is_disabled":false,"rental_uris":{"android":"levelo://app?vid=02aa260d-3573-43a9-9c9d-4111abda83bc","ios":"levelo://app?vid=02aa260d-3573-43a9-9c9d-4111abda83bc"},"vehicle_type_id":"4","last_reported":1730912861,"current_range_meters":24800,"station_id":"ce4bhah2rcd13ifvqei0","pricing_plan_id":"cebpf4jnsgd1na2vs0mg"},{"bike_id":"2ac59b30-95ad-4d41-84cd-66b709f67fc4","system_id":"levelo_inurba_marseille","lat":43.337444,"lon":5.374475,"is_reserved":false,"is_disabled":false,"rental_uris":{"android":"levelo://app?vid=2ac59b30-95ad-4d41-84cd-66b709f67fc4","ios":"levelo://app?vid=2ac59b30-95ad-4d41-84cd-66b709f67fc4"},"vehicle_type_id":"4","last_reported":1730912861,"current_range_meters":36400,"station_id":"","pricing_plan_id":"cebpf4jnsgd1na2vs0mg"},{"bike_id":"b213054e-e43a-40d8-8010-1854647110d6","system_id":"levelo_inurba_marseille","lat":43.27916,"lon":5.39582,"is_reserved":false,"is_disabled":false,"rental_uris":{"android":"levelo://app?vid=b213054e-e43a-40d8-8010-1854647110d6","ios":"levelo://app?vid=b213054e-e43a-40d8-8010-1854647110d6"},"vehicle_type_id":"4","last_reported":1730912861,"current_range_meters":16400,"station_id":"ce4bhf92rcd13ifvqf40","pricing_plan_id":"cebpf4jnsgd1na2vs0mg"},{"bike_id":"57edf76c-b4aa-4160-91c4-32462ed36588","system_id":"levelo_inurba_marseille","lat":43.29569,"lon":5.399747,"is_reserved":false,"is_disabled":false,"rental_uris":{"android":"levelo://app?vid=57edf76c-b4aa-4160-91c4-32462ed36588","ios":"levelo://app?vid=57edf76c-b4aa-4160-91c4-32462ed36588"},"vehicle_type_id":"4","last_reported":1730912861,"current_range_meters":38000,"station_id":"ce4bh312rcd13ifvqdj0","pricing_plan_id":"cebpf4jnsgd1na2vs0mg"},{"bike_id":"b79cbe56-e1e4-4cb1-b89c-bfae6a477924","system_id":"levelo_inurba_marseille","lat":43.27054,"lon":5.40263,"is_reserved":false,"is_disabled":false,"rental_uris":{"android":"levelo://app?vid=b79cbe56-e1e4-4cb1-b89c-bfae6a477924","ios":"levelo://app?vid=b79cbe56-e1e4-4cb1-b89c-bfae6a477924"},"vehicle_type_id":"4","last_reported":1730912861,"current_range_meters":28800,"station_id":"ce4bhk92rcd13ifvqgc0","pricing_plan_id":"cebpf4jnsgd1na2vs0mg"},{"bike_id":"ee3d2f2a-a72b-42a6-b6de-a1c75790bb0f","system_id":"levelo_inurba_marseille","lat":43.28461,"lon":5.35886,"is_reserved":false,"is_disabled":false,"rental_uris":{"android":"levelo://app?vid=ee3d2f2a-a72b-42a6-b6de-a1c75790bb0f","ios":"levelo://app?vid=ee3d2f2a-a72b-42a6-b6de-a1c75790bb0f"},"vehicle_type_id":"4","last_reported":1730912861,"current_range_meters":39200,"station_id":"ce4bhah2rcd13ifvqei0","pricing_plan_id":"cebpf4jnsgd1na2vs0mg"},{"bike_id":"7b2a674a-4993-442c-a6fc-f666e636b5aa","system_id":"levelo_inurba_marseille","lat":43.28363,"lon":5.3864,"is_reserved":false,"is_disabled":false,"rental_uris":{"android":"levelo://app?vid=7b2a674a-4993-442c-a6fc-f666e636b5aa","ios":"levelo://app?vid=7b2a674a-4993-442c-a6fc-f666e636b5aa"},"vehicle_type_id":"4","last_reported":1730912861,"current_range_meters":8000,"station_id":"ce4bh492rcd13ifvqdvg","pricing_plan_id":"cebpf4jnsgd1na2vs0mg"},{"bike_id":"44144d57-9c23-4136-92b5-7992ae432d41","system_id":"levelo_inurba_marseille","lat":43.29964,"lon":5.41326,"is_reserved":false,"is_disabled":false,"rental_uris":{"android":"levelo://app?vid=44144d57-9c23-4136-92b5-7992ae432d41","ios":"levelo://app?vid=44144d57-9c23-4136-92b5-7992ae432d41"},"vehicle_type_id":"4","last_reported":1730912861,"current_range_meters":38400,"station_id":"ce4bhp12rcd13ifvqh9g","pricing_plan_id":"cebpf4jnsgd1na2vs0mg"},{"bike_id":"fccee34f-9cfa-4825-9220-6e416ec4caf7","system_id":"levelo_inurba_marseille","lat":43.29196,"lon":5.35812,"is_reserved":false,"is_disabled":false,"rental_uris":{"android":"levelo://app?vid=fccee34f-9cfa-4825-9220-6e416ec4caf7","ios":"levelo://app?vid=fccee34f-9cfa-4825-9220-6e416ec4caf7"},"vehicle_type_id":"4","last_reported":1730912861,"current_range_meters":34000,"station_id":"ce4bhb12rcd13ifvqel0","pricing_plan_id":"cebpf4jnsgd1na2vs0mg"},{"bike_id":"58191bb6-809f-4d21-b8c6-bc42ddfe305a","system_id":"levelo_inurba_marseille","lat":43.31498,"lon":5.37315,"is_reserved":false,"is_disabled":false,"rental_uris":{"android":"levelo://app?vid=58191bb6-809f-4d21-b8c6-bc42ddfe305a","ios":"levelo://app?vid=58191bb6-809f-4d21-b8c6-bc42ddfe305a"},"vehicle_type_id":"4","last_reported":1730912861,"current_range_meters":24800,"station_id":"ce4bgt12rcd13ifvqcd0","pricing_plan_id":"cebpf4jnsgd1na2vs0mg"},{"bike_id":"0072c09f-84dc-4387-89a5-d8c408b867ad","system_id":"levelo_inurba_marseille","lat":43.30134,"lon":5.39867,"is_reserved":false,"is_disabled":false,"rental_uris":{"android":"levelo://app?vid=0072c09f-84dc-4387-89a5-d8c408b867ad","ios":"levelo://app?vid=0072c09f-84dc-4387-89a5-d8c408b867ad"},"vehicle_type_id":"4","last_reported":1730912861,"current_range_meters":39200,"station_id":"ce4bh0h2rcd13ifvqd40","pricing_plan_id":"cebpf4jnsgd1na2vs0mg"},{"bike_id":"ecc2597c-73b2-4662-b036-f015722a8a69","system_id":"levelo_inurba_marseille","lat":43.22935,"lon":5.35384,"is_reserved":false,"is_disabled":false,"rental_uris":{"android":"levelo://app?vid=ecc2597c-73b2-4662-b036-f015722a8a69","ios":"levelo://app?vid=ecc2597c-73b2-4662-b036-f015722a8a69"},"vehicle_type_id":"4","last_reported":1730912861,"current_range_meters":24400,"station_id":"cpo3532slgdg3j2ikp40","pricing_plan_id":"cebpf4jnsgd1na2vs0mg"},{"bike_id":"18b38a4a-99b8-41e9-82b3-6dc8fa087c65","system_id":"levelo_inurba_marseille","lat":43.23196,"lon":5.35561,"is_reserved":false,"is_disabled":false,"rental_uris":{"android":"levelo://app?vid=18b38a4a-99b8-41e9-82b3-6dc8fa087c65","ios":"levelo://app?vid=18b38a4a-99b8-41e9-82b3-6dc8fa087c65"},"vehicle_type_id":"4","last_reported":1730912861,"current_range_meters":9200,"station_id":"ce4bhu92rcd13ifvqi70","pricing_plan_id":"cebpf4jnsgd1na2vs0mg"},{"bike_id":"52af7a3b-ddda-465a-a3b9-5cc6f08e1552","system_id":"levelo_inurba_marseille","lat":43.24167,"lon":5.36397,"is_reserved":false,"is_disabled":false,"rental_uris":{"android":"levelo://app?vid=52af7a3b-ddda-465a-a3b9-5cc6f08e1552","ios":"levelo://app?vid=52af7a3b-ddda-465a-a3b9-5cc6f08e1552"},"vehicle_type_id":"4","last_reported":1730912861,"current_range_meters":20000,"station_id":"cpo36qri1sfpv3e86is0","pricing_plan_id":"cebpf4jnsgd1na2vs0mg"},{"bike_id":"44423419-f0d1-483c-9426-b4c6ca5505ba","system_id":"levelo_inurba_marseille","lat":43.31501,"lon":5.37318,"is_reserved":false,"is_disabled":false,"rental_uris":{"android":"levelo://app?vid=44423419-f0d1-483c-9426-b4c6ca5505ba","ios":"levelo://app?vid=44423419-f0d1-483c-9426-b4c6ca5505ba"},"vehicle_type_id":"4","last_reported":1730912861,"current_range_meters":28400,"station_id":"ce4bgt12rcd13ifvqcd0","pricing_plan_id":"cebpf4jnsgd1na2vs0mg"},{"bike_id":"5c6bc1f3-7017-4929-976f-f1324a18e705","system_id":"levelo_inurba_marseille","lat":43.27998,"lon":5.41672,"is_reserved":false,"is_disabled":false,"rental_uris":{"android":"levelo://app?vid=5c6bc1f3-7017-4929-976f-f1324a18e705","ios":"levelo://app?vid=5c6bc1f3-7017-4929-976f-f1324a18e705"},"vehicle_type_id":"4","last_reported":1730912861,"current_range_meters":22800,"station_id":"ce4bho12rcd13ifvqh1g","pricing_plan_id":"cebpf4jnsgd1na2vs0mg"},{"bike_id":"c2fc5e3b-c699-4a99-aacf-56857037535b","system_id":"levelo_inurba_marseille","lat":43.30428,"lon":5.38888,"is_reserved":false,"is_disabled":false,"rental_uris":{"android":"levelo://app?vid=c2fc5e3b-c699-4a99-aacf-56857037535b","ios":"levelo://app?vid=c2fc5e3b-c699-4a99-aacf-56857037535b"},"vehicle_type_id":"4","last_reported":1730912861,"current_range_meters":28800,"station_id":"ce4bgk12rcd13ifvqbi0","pricing_plan_id":"cebpf4jnsgd1na2vs0mg"},{"bike_id":"7d1a67f1-0513-43ca-88bf-12e59adf70dc","system_id":"levelo_inurba_marseille","lat":43.29959,"lon":5.41324,"is_reserved":false,"is_disabled":false,"rental_uris":{"android":"levelo://app?vid=7d1a67f1-0513-43ca-88bf-12e59adf70dc","ios":"levelo://app?vid=7d1a67f1-0513-43ca-88bf-12e59adf70dc"},"vehicle_type_id":"4","last_reported":1730912861,"current_range_meters":38400,"station_id":"ce4bhp12rcd13ifvqh9g","pricing_plan_id":"cebpf4jnsgd1na2vs0mg"},{"bike_id":"13d6bed8-4343-46cf-8feb-d327220ee05d","system_id":"levelo_inurba_marseille","lat":43.28724,"lon":5.36097,"is_reserved":false,"is_disabled":false,"rental_uris":{"android":"levelo://app?vid=13d6bed8-4343-46cf-8feb-d327220ee05d","ios":"levelo://app?vid=13d6bed8-4343-46cf-8feb-d327220ee05d"},"vehicle_type_id":"4","last_reported":1730912861,"current_range_meters":39200,"station_id":"cki0cbj6b192h4jlfktg","pricing_plan_id":"cebpf4jnsgd1na2vs0mg"},{"bike_id":"6441791a-a44d-4bb0-a42c-62560f071d92","system_id":"levelo_inurba_marseille","lat":43.29522,"lon":5.38549,"is_reserved":false,"is_disabled":false,"rental_uris":{"android":"levelo://app?vid=6441791a-a44d-4bb0-a42c-62560f071d92","ios":"levelo://app?vid=6441791a-a44d-4bb0-a42c-62560f071d92"},"vehicle_type_id":"4","last_reported":1730912861,"current_range_meters":24000,"station_id":"ce4bgih2rcd13ifvqba0","pricing_plan_id":"cebpf4jnsgd1na2vs0mg"},{"bike_id":"b4e62baa-dee2-4e37-b545-3e7956abd5af","system_id":"levelo_inurba_marseille","lat":43.23183,"lon":5.39995,"is_reserved":false,"is_disabled":false,"rental_uris":{"android":"levelo://app?vid=b4e62baa-dee2-4e37-b545-3e7956abd5af","ios":"levelo://app?vid=b4e62baa-dee2-4e37-b545-3e7956abd5af"},"vehicle_type_id":"4","last_reported":1730912861,"current_range_meters":10000,"station_id":"ce4bhn12rcd13ifvqgqg","pricing_plan_id":"cebpf4jnsgd1na2vs0mg"},{"bike_id":"f1e37e88-c5af-449c-a946-d19a3de82be6","system_id":"levelo_inurba_marseille","lat":43.28439,"lon":5.39191,"is_reserved":false,"is_disabled":false,"rental_uris":{"android":"levelo://app?vid=f1e37e88-c5af-449c-a946-d19a3de82be6","ios":"levelo://app?vid=f1e37e88-c5af-449c-a946-d19a3de82be6"},"vehicle_type_id":"4","last_reported":1730912861,"current_range_meters":8400,"station_id":"ce4bhoh2rcd13ifvqh5g","pricing_plan_id":"cebpf4jnsgd1na2vs0mg"},{"bike_id":"1529359c-122e-4c9a-aa9e-4cb2884ac623","system_id":"levelo_inurba_marseille","lat":43.29019,"lon":5.35622,"is_reserved":false,"is_disabled":false,"rental_uris":{"android":"levelo://app?vid=1529359c-122e-4c9a-aa9e-4cb2884ac623","ios":"levelo://app?vid=1529359c-122e-4c9a-aa9e-4cb2884ac623"},"vehicle_type_id":"4","last_reported":1730912861,"current_range_meters":38800,"station_id":"ce4bhb92rcd13ifvqen0","pricing_plan_id":"cebpf4jnsgd1na2vs0mg"},{"bike_id":"a3db9c72-1de4-4699-b5b9-89f8a353b7c4","system_id":"levelo_inurba_marseille","lat":43.29778,"lon":5.39326,"is_reserved":false,"is_disabled":false,"rental_uris":{"android":"levelo://app?vid=a3db9c72-1de4-4699-b5b9-89f8a353b7c4","ios":"levelo://app?vid=a3db9c72-1de4-4699-b5b9-89f8a353b7c4"},"vehicle_type_id":"4","last_reported":1730912861,"current_range_meters":29600,"station_id":"chh1huq6cuj3fo74tm60","pricing_plan_id":"cebpf4jnsgd1na2vs0mg"},{"bike_id":"e58aacf2-a8a5-4ce2-835e-5eb9a75e9200","system_id":"levelo_inurba_marseille","lat":43.30814,"lon":5.36995,"is_reserved":false,"is_disabled":false,"rental_uris":{"android":"levelo://app?vid=e58aacf2-a8a5-4ce2-835e-5eb9a75e9200","ios":"levelo://app?vid=e58aacf2-a8a5-4ce2-835e-5eb9a75e9200"},"vehicle_type_id":"4","last_reported":1730912861,"current_range_meters":10800,"station_id":"","pricing_plan_id":"cebpf4jnsgd1na2vs0mg"},{"bike_id":"27b827b3-9e6a-40e5-85ac-202e46f3f38b","system_id":"levelo_inurba_marseille","lat":43.29571,"lon":5.39781,"is_reserved":false,"is_disabled":false,"rental_uris":{"android":"levelo://app?vid=27b827b3-9e6a-40e5-85ac-202e46f3f38b","ios":"levelo://app?vid=27b827b3-9e6a-40e5-85ac-202e46f3f38b"},"vehicle_type_id":"4","last_reported":1730912861,"current_range_meters":33600,"station_id":"ce4bh3p2rcd13ifvqdp0","pricing_plan_id":"cebpf4jnsgd1na2vs0mg"},{"bike_id":"5dd1c4cd-459f-4fe1-8c4c-e87580a069a9","system_id":"levelo_inurba_marseille","lat":43.29028,"lon":5.38656,"is_reserved":false,"is_disabled":false,"rental_uris":{"android":"levelo://app?vid=5dd1c4cd-459f-4fe1-8c4c-e87580a069a9","ios":"levelo://app?vid=5dd1c4cd-459f-4fe1-8c4c-e87580a069a9"},"vehicle_type_id":"4","last_reported":1730912861,"current_range_meters":32400,"station_id":"ce4bh4p2rcd13ifvqe0g","pricing_plan_id":"cebpf4jnsgd1na2vs0mg"},{"bike_id":"62a01264-b77d-443d-8dca-83850ba87014","system_id":"levelo_inurba_marseille","lat":43.2871,"lon":5.40001,"is_reserved":false,"is_disabled":false,"rental_uris":{"android":"levelo://app?vid=62a01264-b77d-443d-8dca-83850ba87014","ios":"levelo://app?vid=62a01264-b77d-443d-8dca-83850ba87014"},"vehicle_type_id":"4","last_reported":1730912861,"current_range_meters":32000,"station_id":"ce4bho92rcd13ifvqh3g","pricing_plan_id":"cebpf4jnsgd1na2vs0mg"},{"bike_id":"ed058e4f-9ac0-418d-bdc9-6394a770ce1f","system_id":"levelo_inurba_marseille","lat":43.292569,"lon":5.409048,"is_reserved":false,"is_disabled":false,"rental_uris":{"android":"levelo://app?vid=ed058e4f-9ac0-418d-bdc9-6394a770ce1f","ios":"levelo://app?vid=ed058e4f-9ac0-418d-bdc9-6394a770ce1f"},"vehicle_type_id":"4","last_reported":1730912861,"current_range_meters":39200,"station_id":"ce4bh192rcd13ifvqdc0","pricing_plan_id":"cebpf4jnsgd1na2vs0mg"},{"bike_id":"7b03e489-e38f-490f-b482-ed7db3c26bb0","system_id":"levelo_inurba_marseille","lat":43.29867,"lon":5.39744,"is_reserved":false,"is_disabled":false,"rental_uris":{"android":"levelo://app?vid=7b03e489-e38f-490f-b482-ed7db3c26bb0","ios":"levelo://app?vid=7b03e489-e38f-490f-b482-ed7db3c26bb0"},"vehicle_type_id":"4","last_reported":1730912861,"current_range_meters":33600,"station_id":"ce4bh0h2rcd13ifvqd50","pricing_plan_id":"cebpf4jnsgd1na2vs0mg"},{"bike_id":"31f76837-30e9-46ba-bd32-9f6cc82e2941","system_id":"levelo_inurba_marseille","lat":43.31103,"lon":5.40072,"is_reserved":false,"is_disabled":false,"rental_uris":{"android":"levelo://app?vid=31f76837-30e9-46ba-bd32-9f6cc82e2941","ios":"levelo://app?vid=31f76837-30e9-46ba-bd32-9f6cc82e2941"},"vehicle_type_id":"4","last_reported":1730912861,"current_range_meters":26000,"station_id":"","pricing_plan_id":"cebpf4jnsgd1na2vs0mg"},{"bike_id":"65db49b4-b930-41a8-b3de-94ae5277e660","system_id":"levelo_inurba_marseille","lat":43.25576,"lon":5.3823,"is_reserved":false,"is_disabled":false,"rental_uris":{"android":"levelo://app?vid=65db49b4-b930-41a8-b3de-94ae5277e660","ios":"levelo://app?vid=65db49b4-b930-41a8-b3de-94ae5277e660"},"vehicle_type_id":"4","last_reported":1730912861,"current_range_meters":18000,"station_id":"ce4bhih2rcd13ifvqfs0","pricing_plan_id":"cebpf4jnsgd1na2vs0mg"},{"bike_id":"4174861a-146d-49ec-8066-da30563c39ce","system_id":"levelo_inurba_marseille","lat":43.27851,"lon":5.39229,"is_reserved":false,"is_disabled":false,"rental_uris":{"android":"levelo://app?vid=4174861a-146d-49ec-8066-da30563c39ce","ios":"levelo://app?vid=4174861a-146d-49ec-8066-da30563c39ce"},"vehicle_type_id":"4","last_reported":1730912861,"current_range_meters":32800,"station_id":"ce4bhjp2rcd13ifvqga0","pricing_plan_id":"cebpf4jnsgd1na2vs0mg"},{"bike_id":"7ef599ce-17a2-4f29-929f-c38ecfb9647a","system_id":"levelo_inurba_marseille","lat":43.28001,"lon":5.40017,"is_reserved":false,"is_disabled":false,"rental_uris":{"android":"levelo://app?vid=7ef599ce-17a2-4f29-929f-c38ecfb9647a","ios":"levelo://app?vid=7ef599ce-17a2-4f29-929f-c38ecfb9647a"},"vehicle_type_id":"4","last_reported":1730912861,"current_range_meters":11600,"station_id":"ce4bho92rcd13ifvqh4g","pricing_plan_id":"cebpf4jnsgd1na2vs0mg"},{"bike_id":"d42e973d-2c93-4443-b098-71d6d11cc36d","system_id":"levelo_inurba_marseille","lat":43.29587,"lon":5.3674,"is_reserved":false,"is_disabled":false,"rental_uris":{"android":"levelo://app?vid=d42e973d-2c93-4443-b098-71d6d11cc36d","ios":"levelo://app?vid=d42e973d-2c93-4443-b098-71d6d11cc36d"},"vehicle_type_id":"4","last_reported":1730912861,"current_range_meters":24400,"station_id":"ce4bgph2rcd13ifvqc2g","pricing_plan_id":"cebpf4jnsgd1na2vs0mg"},{"bike_id":"8fac359d-4130-40a3-a4d7-cfc14af1f6ef","system_id":"levelo_inurba_marseille","lat":43.26061,"lon":5.394,"is_reserved":false,"is_disabled":false,"rental_uris":{"android":"levelo://app?vid=8fac359d-4130-40a3-a4d7-cfc14af1f6ef","ios":"levelo://app?vid=8fac359d-4130-40a3-a4d7-cfc14af1f6ef"},"vehicle_type_id":"4","last_reported":1730912861,"current_range_meters":23200,"station_id":"ce4bhh92rcd13ifvqfj0","pricing_plan_id":"cebpf4jnsgd1na2vs0mg"},{"bike_id":"0007c120-2b8f-49c1-b3a2-b69854c6b2ad","system_id":"levelo_inurba_marseille","lat":43.27996,"lon":5.40016,"is_reserved":false,"is_disabled":false,"rental_uris":{"android":"levelo://app?vid=0007c120-2b8f-49c1-b3a2-b69854c6b2ad","ios":"levelo://app?vid=0007c120-2b8f-49c1-b3a2-b69854c6b2ad"},"vehicle_type_id":"4","last_reported":1730912861,"current_range_meters":34000,"station_id":"ce4bho92rcd13ifvqh4g","pricing_plan_id":"cebpf4jnsgd1na2vs0mg"},{"bike_id":"65ad63ff-098d-4aae-b723-92c80f5a52ef","system_id":"levelo_inurba_marseille","lat":43.30523,"lon":5.38086,"is_reserved":false,"is_disabled":false,"rental_uris":{"android":"levelo://app?vid=65ad63ff-098d-4aae-b723-92c80f5a52ef","ios":"levelo://app?vid=65ad63ff-098d-4aae-b723-92c80f5a52ef"},"vehicle_type_id":"4","last_reported":1730912861,"current_range_meters":36800,"station_id":"","pricing_plan_id":"cebpf4jnsgd1na2vs0mg"},{"bike_id":"76a6e6d2-4686-4b04-b754-fb622b90a2bd","system_id":"levelo_inurba_marseille","lat":43.30126,"lon":5.3988,"is_reserved":false,"is_disabled":false,"rental_uris":{"android":"levelo://app?vid=76a6e6d2-4686-4b04-b754-fb622b90a2bd","ios":"levelo://app?vid=76a6e6d2-4686-4b04-b754-fb622b90a2bd"},"vehicle_type_id":"4","last_reported":1730912861,"current_range_meters":38800,"station_id":"ce4bh0h2rcd13ifvqd40","pricing_plan_id":"cebpf4jnsgd1na2vs0mg"},{"bike_id":"8436ecb3-47e0-4cca-9ae8-d7421c2f92f4","system_id":"levelo_inurba_marseille","lat":43.23183,"lon":5.39992,"is_reserved":false,"is_disabled":false,"rental_uris":{"android":"levelo://app?vid=8436ecb3-47e0-4cca-9ae8-d7421c2f92f4","ios":"levelo://app?vid=8436ecb3-47e0-4cca-9ae8-d7421c2f92f4"},"vehicle_type_id":"4","last_reported":1730912861,"current_range_meters":9200,"station_id":"ce4bhn12rcd13ifvqgqg","pricing_plan_id":"cebpf4jnsgd1na2vs0mg"},{"bike_id":"fcd275a5-6524-4b95-8278-672949a8ba04","system_id":"levelo_inurba_marseille","lat":43.2931,"lon":5.37185,"is_reserved":false,"is_disabled":false,"rental_uris":{"android":"levelo://app?vid=fcd275a5-6524-4b95-8278-672949a8ba04","ios":"levelo://app?vid=fcd275a5-6524-4b95-8278-672949a8ba04"},"vehicle_type_id":"4","last_reported":1730912861,"current_range_meters":8400,"station_id":"ce4bgh92rcd13ifvqb40","pricing_plan_id":"cebpf4jnsgd1na2vs0mg"},{"bike_id":"ce1990ac-3390-413c-9a93-5d1336a43aa1","system_id":"levelo_inurba_marseille","lat":43.27378,"lon":5.36251,"is_reserved":false,"is_disabled":false,"rental_uris":{"android":"levelo://app?vid=ce1990ac-3390-413c-9a93-5d1336a43aa1","ios":"levelo://app?vid=ce1990ac-3390-413c-9a93-5d1336a43aa1"},"vehicle_type_id":"4","last_reported":1730912861,"current_range_meters":36000,"station_id":"ce4bhbh2rcd13ifvqeo0","pricing_plan_id":"cebpf4jnsgd1na2vs0mg"},{"bike_id":"f8c0aa4b-1f92-4c77-8103-7344489e419b","system_id":"levelo_inurba_marseille","lat":43.24654,"lon":5.38898,"is_reserved":false,"is_disabled":false,"rental_uris":{"android":"levelo://app?vid=f8c0aa4b-1f92-4c77-8103-7344489e419b","ios":"levelo://app?vid=f8c0aa4b-1f92-4c77-8103-7344489e419b"},"vehicle_type_id":"4","last_reported":1730912861,"current_range_meters":37600,"station_id":"ce4bhg12rcd13ifvqf60","pricing_plan_id":"cebpf4jnsgd1na2vs0mg"},{"bike_id":"ab7bf301-1673-4b3c-ba90-98dd36fdef45","system_id":"levelo_inurba_marseille","lat":43.32005,"lon":5.38156,"is_reserved":false,"is_disabled":false,"rental_uris":{"android":"levelo://app?vid=ab7bf301-1673-4b3c-ba90-98dd36fdef45","ios":"levelo://app?vid=ab7bf301-1673-4b3c-ba90-98dd36fdef45"},"vehicle_type_id":"4","last_reported":1730912861,"current_range_meters":39200,"station_id":"ce4bhr12rcd13ifvqhpg","pricing_plan_id":"cebpf4jnsgd1na2vs0mg"},{"bike_id":"ae6e1c1e-737d-4ab4-a479-480a9b282c20","system_id":"levelo_inurba_marseille","lat":43.29281,"lon":5.40118,"is_reserved":false,"is_disabled":false,"rental_uris":{"android":"levelo://app?vid=ae6e1c1e-737d-4ab4-a479-480a9b282c20","ios":"levelo://app?vid=ae6e1c1e-737d-4ab4-a479-480a9b282c20"},"vehicle_type_id":"4","last_reported":1730912861,"current_range_meters":22800,"station_id":"ce4bh312rcd13ifvqdk0","pricing_plan_id":"cebpf4jnsgd1na2vs0mg"},{"bike_id":"6fbacec9-43d5-454f-a2a4-ef8f02d5b68a","system_id":"levelo_inurba_marseille","lat":43.28731,"lon":5.36085,"is_reserved":false,"is_disabled":false,"rental_uris":{"android":"levelo://app?vid=6fbacec9-43d5-454f-a2a4-ef8f02d5b68a","ios":"levelo://app?vid=6fbacec9-43d5-454f-a2a4-ef8f02d5b68a"},"vehicle_type_id":"4","last_reported":1730912861,"current_range_meters":8000,"station_id":"cki0cbj6b192h4jlfktg","pricing_plan_id":"cebpf4jnsgd1na2vs0mg"},{"bike_id":"f9a8c473-50f6-461e-98fa-f58e5ab7fcbc","system_id":"levelo_inurba_marseille","lat":43.30805,"lon":5.37386,"is_reserved":false,"is_disabled":false,"rental_uris":{"android":"levelo://app?vid=f9a8c473-50f6-461e-98fa-f58e5ab7fcbc","ios":"levelo://app?vid=f9a8c473-50f6-461e-98fa-f58e5ab7fcbc"},"vehicle_type_id":"4","last_reported":1730912861,"current_range_meters":7200,"station_id":"","pricing_plan_id":"cebpf4jnsgd1na2vs0mg"},{"bike_id":"9c07c115-8458-42eb-a90e-dec43e520f3f","system_id":"levelo_inurba_marseille","lat":43.26028,"lon":5.37565,"is_reserved":false,"is_disabled":false,"rental_uris":{"android":"levelo://app?vid=9c07c115-8458-42eb-a90e-dec43e520f3f","ios":"levelo://app?vid=9c07c115-8458-42eb-a90e-dec43e520f3f"},"vehicle_type_id":"4","last_reported":1730912861,"current_range_meters":36800,"station_id":"ce4bhgh2rcd13ifvqfa0","pricing_plan_id":"cebpf4jnsgd1na2vs0mg"},{"bike_id":"69fd7977-f21c-40b6-aa7d-074cb0f9e56d","system_id":"levelo_inurba_marseille","lat":43.28663,"lon":5.36351,"is_reserved":false,"is_disabled":false,"rental_uris":{"android":"levelo://app?vid=69fd7977-f21c-40b6-aa7d-074cb0f9e56d","ios":"levelo://app?vid=69fd7977-f21c-40b6-aa7d-074cb0f9e56d"},"vehicle_type_id":"4","last_reported":1730912861,"current_range_meters":29600,"station_id":"ce4bhah2rcd13ifvqej0","pricing_plan_id":"cebpf4jnsgd1na2vs0mg"},{"bike_id":"a86bc38f-f1dc-44fb-89cc-e08a0fc88a24","system_id":"levelo_inurba_marseille","lat":43.32047,"lon":5.41556,"is_reserved":false,"is_disabled":false,"rental_uris":{"android":"levelo://app?vid=a86bc38f-f1dc-44fb-89cc-e08a0fc88a24","ios":"levelo://app?vid=a86bc38f-f1dc-44fb-89cc-e08a0fc88a24"},"vehicle_type_id":"4","last_reported":1730912861,"current_range_meters":14400,"station_id":"ce4bhq92rcd13ifvqhkg","pricing_plan_id":"cebpf4jnsgd1na2vs0mg"},{"bike_id":"6170c8e8-344c-45de-be30-6f954918c2d1","system_id":"levelo_inurba_marseille","lat":43.29197,"lon":5.35805,"is_reserved":false,"is_disabled":false,"rental_uris":{"android":"levelo://app?vid=6170c8e8-344c-45de-be30-6f954918c2d1","ios":"levelo://app?vid=6170c8e8-344c-45de-be30-6f954918c2d1"},"vehicle_type_id":"4","last_reported":1730912861,"current_range_meters":16400,"station_id":"ce4bhb12rcd13ifvqel0","pricing_plan_id":"cebpf4jnsgd1na2vs0mg"},{"bike_id":"98d192e2-791b-4118-a00c-104d767ac022","system_id":"levelo_inurba_marseille","lat":43.31478,"lon":5.37307,"is_reserved":false,"is_disabled":false,"rental_uris":{"android":"levelo://app?vid=98d192e2-791b-4118-a00c-104d767ac022","ios":"levelo://app?vid=98d192e2-791b-4118-a00c-104d767ac022"},"vehicle_type_id":"4","last_reported":1730912861,"current_range_meters":39200,"station_id":"ce4bgt12rcd13ifvqcd0","pricing_plan_id":"cebpf4jnsgd1na2vs0mg"},{"bike_id":"fbed8a20-ba8f-493d-a500-85e828f3ec4e","system_id":"levelo_inurba_marseille","lat":43.2872,"lon":5.36105,"is_reserved":false,"is_disabled":false,"rental_uris":{"android":"levelo://app?vid=fbed8a20-ba8f-493d-a500-85e828f3ec4e","ios":"levelo://app?vid=fbed8a20-ba8f-493d-a500-85e828f3ec4e"},"vehicle_type_id":"4","last_reported":1730912861,"current_range_meters":39200,"station_id":"cki0cbj6b192h4jlfktg","pricing_plan_id":"cebpf4jnsgd1na2vs0mg"},{"bike_id":"4d715f9f-ce94-4939-89ff-301e505a0127","system_id":"levelo_inurba_marseille","lat":43.2903,"lon":5.38639,"is_reserved":false,"is_disabled":false,"rental_uris":{"android":"levelo://app?vid=4d715f9f-ce94-4939-89ff-301e505a0127","ios":"levelo://app?vid=4d715f9f-ce94-4939-89ff-301e505a0127"},"vehicle_type_id":"4","last_reported":1730912861,"current_range_meters":16400,"station_id":"ce4bh4p2rcd13ifvqe0g","pricing_plan_id":"cebpf4jnsgd1na2vs0mg"},{"bike_id":"f4d69404-5782-437a-9be7-531c2e4354b9","system_id":"levelo_inurba_marseille","lat":43.27925,"lon":5.39587,"is_reserved":false,"is_disabled":false,"rental_uris":{"android":"levelo://app?vid=f4d69404-5782-437a-9be7-531c2e4354b9","ios":"levelo://app?vid=f4d69404-5782-437a-9be7-531c2e4354b9"},"vehicle_type_id":"4","last_reported":1730912861,"current_range_meters":28000,"station_id":"ce4bhf92rcd13ifvqf40","pricing_plan_id":"cebpf4jnsgd1na2vs0mg"},{"bike_id":"e2ebc34f-8877-44b7-b7e6-cf338a86e03b","system_id":"levelo_inurba_marseille","lat":43.29886,"lon":5.38915,"is_reserved":false,"is_disabled":false,"rental_uris":{"android":"levelo://app?vid=e2ebc34f-8877-44b7-b7e6-cf338a86e03b","ios":"levelo://app?vid=e2ebc34f-8877-44b7-b7e6-cf338a86e03b"},"vehicle_type_id":"4","last_reported":1730912861,"current_range_meters":38800,"station_id":"ce4bh392rcd13ifvqdl0","pricing_plan_id":"cebpf4jnsgd1na2vs0mg"},{"bike_id":"9f569402-b56c-4b31-b617-a71c7dee418c","system_id":"levelo_inurba_marseille","lat":43.27548,"lon":5.35989,"is_reserved":false,"is_disabled":false,"rental_uris":{"android":"levelo://app?vid=9f569402-b56c-4b31-b617-a71c7dee418c","ios":"levelo://app?vid=9f569402-b56c-4b31-b617-a71c7dee418c"},"vehicle_type_id":"4","last_reported":1730912861,"current_range_meters":19600,"station_id":"","pricing_plan_id":"cebpf4jnsgd1na2vs0mg"},{"bike_id":"c2750e3b-2925-4c33-a58e-197714f34e2b","system_id":"levelo_inurba_marseille","lat":43.29935,"lon":5.36557,"is_reserved":false,"is_disabled":false,"rental_uris":{"android":"levelo://app?vid=c2750e3b-2925-4c33-a58e-197714f34e2b","ios":"levelo://app?vid=c2750e3b-2925-4c33-a58e-197714f34e2b"},"vehicle_type_id":"4","last_reported":1730912861,"current_range_meters":36800,"station_id":"ce4bgm92rcd13ifvqbr0","pricing_plan_id":"cebpf4jnsgd1na2vs0mg"},{"bike_id":"4acfa4ff-61f4-48d5-b11b-3a9d16c684ec","system_id":"levelo_inurba_marseille","lat":43.3373,"lon":5.39192,"is_reserved":false,"is_disabled":false,"rental_uris":{"android":"levelo://app?vid=4acfa4ff-61f4-48d5-b11b-3a9d16c684ec","ios":"levelo://app?vid=4acfa4ff-61f4-48d5-b11b-3a9d16c684ec"},"vehicle_type_id":"4","last_reported":1730912861,"current_range_meters":38000,"station_id":"ce4bhr92rcd13ifvqhsg","pricing_plan_id":"cebpf4jnsgd1na2vs0mg"},{"bike_id":"575ba5d2-89b1-4fa2-90a8-bfc83bb813e2","system_id":"levelo_inurba_marseille","lat":43.29871,"lon":5.39746,"is_reserved":false,"is_disabled":false,"rental_uris":{"android":"levelo://app?vid=575ba5d2-89b1-4fa2-90a8-bfc83bb813e2","ios":"levelo://app?vid=575ba5d2-89b1-4fa2-90a8-bfc83bb813e2"},"vehicle_type_id":"4","last_reported":1730912861,"current_range_meters":38800,"station_id":"ce4bh0h2rcd13ifvqd50","pricing_plan_id":"cebpf4jnsgd1na2vs0mg"},{"bike_id":"4153d831-8f39-4232-a279-c94da179091a","system_id":"levelo_inurba_marseille","lat":43.31333,"lon":5.397,"is_reserved":false,"is_disabled":false,"rental_uris":{"android":"levelo://app?vid=4153d831-8f39-4232-a279-c94da179091a","ios":"levelo://app?vid=4153d831-8f39-4232-a279-c94da179091a"},"vehicle_type_id":"4","last_reported":1730912861,"current_range_meters":32400,"station_id":"ce4bgvp2rcd13ifvqcu0","pricing_plan_id":"cebpf4jnsgd1na2vs0mg"},{"bike_id":"52df7b98-52c1-48d8-ba41-d7c87c1277ae","system_id":"levelo_inurba_marseille","lat":43.25872,"lon":5.39898,"is_reserved":false,"is_disabled":false,"rental_uris":{"android":"levelo://app?vid=52df7b98-52c1-48d8-ba41-d7c87c1277ae","ios":"levelo://app?vid=52df7b98-52c1-48d8-ba41-d7c87c1277ae"},"vehicle_type_id":"4","last_reported":1730912861,"current_range_meters":16000,"station_id":"ce4bhl92rcd13ifvqghg","pricing_plan_id":"cebpf4jnsgd1na2vs0mg"},{"bike_id":"f55cc1d3-66e2-4092-8a56-209373b1b8a1","system_id":"levelo_inurba_marseille","lat":43.27615,"lon":5.3612,"is_reserved":false,"is_disabled":false,"rental_uris":{"android":"levelo://app?vid=f55cc1d3-66e2-4092-8a56-209373b1b8a1","ios":"levelo://app?vid=f55cc1d3-66e2-4092-8a56-209373b1b8a1"},"vehicle_type_id":"4","last_reported":1730912861,"current_range_meters":22400,"station_id":"ce4bgj92rcd13ifvqbe0","pricing_plan_id":"cebpf4jnsgd1na2vs0mg"},{"bike_id":"ac8a1837-707b-403a-acac-64a94ee617d2","system_id":"levelo_inurba_marseille","lat":43.30305,"lon":5.36893,"is_reserved":false,"is_disabled":false,"rental_uris":{"android":"levelo://app?vid=ac8a1837-707b-403a-acac-64a94ee617d2","ios":"levelo://app?vid=ac8a1837-707b-403a-acac-64a94ee617d2"},"vehicle_type_id":"4","last_reported":1730912861,"current_range_meters":24000,"station_id":"ce4bgqh2rcd13ifvqc5g","pricing_plan_id":"cebpf4jnsgd1na2vs0mg"},{"bike_id":"cde70de3-b73a-44f7-8518-bf6133388ab0","system_id":"levelo_inurba_marseille","lat":43.28976,"lon":5.39226,"is_reserved":false,"is_disabled":false,"rental_uris":{"android":"levelo://app?vid=cde70de3-b73a-44f7-8518-bf6133388ab0","ios":"levelo://app?vid=cde70de3-b73a-44f7-8518-bf6133388ab0"},"vehicle_type_id":"4","last_reported":1730912861,"current_range_meters":28400,"station_id":"ce4bh292rcd13ifvqdf0","pricing_plan_id":"cebpf4jnsgd1na2vs0mg"},{"bike_id":"8bf7742b-023e-4888-9dec-9a70f1fc556b","system_id":"levelo_inurba_marseille","lat":43.27516,"lon":5.39045,"is_reserved":false,"is_disabled":false,"rental_uris":{"android":"levelo://app?vid=8bf7742b-023e-4888-9dec-9a70f1fc556b","ios":"levelo://app?vid=8bf7742b-023e-4888-9dec-9a70f1fc556b"},"vehicle_type_id":"4","last_reported":1730912861,"current_range_meters":29600,"station_id":"ce4bh512rcd13ifvqe3g","pricing_plan_id":"cebpf4jnsgd1na2vs0mg"},{"bike_id":"627b251a-f500-42f4-9659-7bb69bf13dc9","system_id":"levelo_inurba_marseille","lat":43.24185,"lon":5.39733,"is_reserved":false,"is_disabled":false,"rental_uris":{"android":"levelo://app?vid=627b251a-f500-42f4-9659-7bb69bf13dc9","ios":"levelo://app?vid=627b251a-f500-42f4-9659-7bb69bf13dc9"},"vehicle_type_id":"4","last_reported":1730912861,"current_range_meters":13600,"station_id":"ce4bhn12rcd13ifvqgpg","pricing_plan_id":"cebpf4jnsgd1na2vs0mg"},{"bike_id":"633ed261-aefb-4b2a-b6c8-c5d1ddc36a7a","system_id":"levelo_inurba_marseille","lat":43.29584,"lon":5.36442,"is_reserved":false,"is_disabled":false,"rental_uris":{"android":"levelo://app?vid=633ed261-aefb-4b2a-b6c8-c5d1ddc36a7a","ios":"levelo://app?vid=633ed261-aefb-4b2a-b6c8-c5d1ddc36a7a"},"vehicle_type_id":"4","last_reported":1730912861,"current_range_meters":2800,"station_id":"","pricing_plan_id":"cebpf4jnsgd1na2vs0mg"},{"bike_id":"615280ca-f059-40fe-82f2-b888639b02a5","system_id":"levelo_inurba_marseille","lat":43.326584,"lon":5.409937,"is_reserved":false,"is_disabled":false,"rental_uris":{"android":"levelo://app?vid=615280ca-f059-40fe-82f2-b888639b02a5","ios":"levelo://app?vid=615280ca-f059-40fe-82f2-b888639b02a5"},"vehicle_type_id":"4","last_reported":1730912861,"current_range_meters":32000,"station_id":"ce4bhpp2rcd13ifvqhgg","pricing_plan_id":"cebpf4jnsgd1na2vs0mg"},{"bike_id":"51af0a6b-ab65-4a32-a61e-bba1707c844d","system_id":"levelo_inurba_marseille","lat":43.2927,"lon":5.38437,"is_reserved":false,"is_disabled":false,"rental_uris":{"android":"levelo://app?vid=51af0a6b-ab65-4a32-a61e-bba1707c844d","ios":"levelo://app?vid=51af0a6b-ab65-4a32-a61e-bba1707c844d"},"vehicle_type_id":"4","last_reported":1730912861,"current_range_meters":37600,"station_id":"ce4bh692rcd13ifvqea0","pricing_plan_id":"cebpf4jnsgd1na2vs0mg"},{"bike_id":"55d8bef9-f646-44e8-9e91-29d82d59470f","system_id":"levelo_inurba_marseille","lat":43.2827,"lon":5.35072,"is_reserved":false,"is_disabled":false,"rental_uris":{"android":"levelo://app?vid=55d8bef9-f646-44e8-9e91-29d82d59470f","ios":"levelo://app?vid=55d8bef9-f646-44e8-9e91-29d82d59470f"},"vehicle_type_id":"4","last_reported":1730912861,"current_range_meters":39200,"station_id":"ce4bhbp2rcd13ifvqerg","pricing_plan_id":"cebpf4jnsgd1na2vs0mg"},{"bike_id":"1b8665b8-3fba-48e1-9f38-47bc7afbeb61","system_id":"levelo_inurba_marseille","lat":43.30135,"lon":5.3987,"is_reserved":false,"is_disabled":false,"rental_uris":{"android":"levelo://app?vid=1b8665b8-3fba-48e1-9f38-47bc7afbeb61","ios":"levelo://app?vid=1b8665b8-3fba-48e1-9f38-47bc7afbeb61"},"vehicle_type_id":"4","last_reported":1730912861,"current_range_meters":38800,"station_id":"ce4bh0h2rcd13ifvqd40","pricing_plan_id":"cebpf4jnsgd1na2vs0mg"},{"bike_id":"20c80413-bdb6-4737-bcdb-0a5d048834b3","system_id":"levelo_inurba_marseille","lat":43.23187,"lon":5.39988,"is_reserved":false,"is_disabled":false,"rental_uris":{"android":"levelo://app?vid=20c80413-bdb6-4737-bcdb-0a5d048834b3","ios":"levelo://app?vid=20c80413-bdb6-4737-bcdb-0a5d048834b3"},"vehicle_type_id":"4","last_reported":1730912861,"current_range_meters":40000,"station_id":"ce4bhn12rcd13ifvqgqg","pricing_plan_id":"cebpf4jnsgd1na2vs0mg"},{"bike_id":"bdf52a34-8790-49fd-815a-8a08721cb924","system_id":"levelo_inurba_marseille","lat":43.29876,"lon":5.39739,"is_reserved":false,"is_disabled":false,"rental_uris":{"android":"levelo://app?vid=bdf52a34-8790-49fd-815a-8a08721cb924","ios":"levelo://app?vid=bdf52a34-8790-49fd-815a-8a08721cb924"},"vehicle_type_id":"4","last_reported":1730912861,"current_range_meters":39200,"station_id":"ce4bh0h2rcd13ifvqd50","pricing_plan_id":"cebpf4jnsgd1na2vs0mg"},{"bike_id":"e139c3b5-44d1-4882-b0b9-de587e584d60","system_id":"levelo_inurba_marseille","lat":43.29043,"lon":5.3866,"is_reserved":false,"is_disabled":false,"rental_uris":{"android":"levelo://app?vid=e139c3b5-44d1-4882-b0b9-de587e584d60","ios":"levelo://app?vid=e139c3b5-44d1-4882-b0b9-de587e584d60"},"vehicle_type_id":"4","last_reported":1730912861,"current_range_meters":10000,"station_id":"ce4bh4p2rcd13ifvqe0g","pricing_plan_id":"cebpf4jnsgd1na2vs0mg"},{"bike_id":"319d4761-c65a-4af6-b42c-312f7abb5990","system_id":"levelo_inurba_marseille","lat":43.337551,"lon":5.374532,"is_reserved":false,"is_disabled":false,"rental_uris":{"android":"levelo://app?vid=319d4761-c65a-4af6-b42c-312f7abb5990","ios":"levelo://app?vid=319d4761-c65a-4af6-b42c-312f7abb5990"},"vehicle_type_id":"4","last_reported":1730912861,"current_range_meters":30800,"station_id":"","pricing_plan_id":"cebpf4jnsgd1na2vs0mg"},{"bike_id":"eb3bff27-ce8a-434e-8208-025c928b9b81","system_id":"levelo_inurba_marseille","lat":43.26575,"lon":5.39013,"is_reserved":false,"is_disabled":false,"rental_uris":{"android":"levelo://app?vid=eb3bff27-ce8a-434e-8208-025c928b9b81","ios":"levelo://app?vid=eb3bff27-ce8a-434e-8208-025c928b9b81"},"vehicle_type_id":"4","last_reported":1730912861,"current_range_meters":16800,"station_id":"ce4bhe12rcd13ifvqf30","pricing_plan_id":"cebpf4jnsgd1na2vs0mg"},{"bike_id":"5f291a7d-e5fc-4673-9f7f-432c49de7c39","system_id":"levelo_inurba_marseille","lat":43.24697,"lon":5.38157,"is_reserved":false,"is_disabled":false,"rental_uris":{"android":"levelo://app?vid=5f291a7d-e5fc-4673-9f7f-432c49de7c39","ios":"levelo://app?vid=5f291a7d-e5fc-4673-9f7f-432c49de7c39"},"vehicle_type_id":"4","last_reported":1730912861,"current_range_meters":10800,"station_id":"ce4bhih2rcd13ifvqfr0","pricing_plan_id":"cebpf4jnsgd1na2vs0mg"},{"bike_id":"b6a58992-2ba4-4b29-9a0f-7ec6e7d96688","system_id":"levelo_inurba_marseille","lat":43.28567,"lon":5.39511,"is_reserved":false,"is_disabled":false,"rental_uris":{"android":"levelo://app?vid=b6a58992-2ba4-4b29-9a0f-7ec6e7d96688","ios":"levelo://app?vid=b6a58992-2ba4-4b29-9a0f-7ec6e7d96688"},"vehicle_type_id":"4","last_reported":1730912861,"current_range_meters":40000,"station_id":"ce4bh292rcd13ifvqdg0","pricing_plan_id":"cebpf4jnsgd1na2vs0mg"},{"bike_id":"93a83a5c-0d3d-43a2-be24-e99a92c3575d","system_id":"levelo_inurba_marseille","lat":43.30849,"lon":5.37124,"is_reserved":false,"is_disabled":false,"rental_uris":{"android":"levelo://app?vid=93a83a5c-0d3d-43a2-be24-e99a92c3575d","ios":"levelo://app?vid=93a83a5c-0d3d-43a2-be24-e99a92c3575d"},"vehicle_type_id":"4","last_reported":1730912861,"current_range_meters":7200,"station_id":"","pricing_plan_id":"cebpf4jnsgd1na2vs0mg"},{"bike_id":"556bbab7-5967-4431-858e-21443566a120","system_id":"levelo_inurba_marseille","lat":43.28475,"lon":5.38425,"is_reserved":false,"is_disabled":false,"rental_uris":{"android":"levelo://app?vid=556bbab7-5967-4431-858e-21443566a120","ios":"levelo://app?vid=556bbab7-5967-4431-858e-21443566a120"},"vehicle_type_id":"4","last_reported":1730912861,"current_range_meters":24000,"station_id":"ce4bh512rcd13ifvqe3g","pricing_plan_id":"cebpf4jnsgd1na2vs0mg"},{"bike_id":"c0866652-0040-4770-a45a-3f7f022c6c50","system_id":"levelo_inurba_marseille","lat":43.271667,"lon":5.409819,"is_reserved":false,"is_disabled":false,"rental_uris":{"android":"levelo://app?vid=c0866652-0040-4770-a45a-3f7f022c6c50","ios":"levelo://app?vid=c0866652-0040-4770-a45a-3f7f022c6c50"},"vehicle_type_id":"4","last_reported":1730912861,"current_range_meters":24000,"station_id":"ce4bho12rcd13ifvqh1g","pricing_plan_id":"cebpf4jnsgd1na2vs0mg"},{"bike_id":"c7b11c4b-c130-4424-8913-a7e0f63b2714","system_id":"levelo_inurba_marseille","lat":43.28567,"lon":5.39505,"is_reserved":false,"is_disabled":false,"rental_uris":{"android":"levelo://app?vid=c7b11c4b-c130-4424-8913-a7e0f63b2714","ios":"levelo://app?vid=c7b11c4b-c130-4424-8913-a7e0f63b2714"},"vehicle_type_id":"4","last_reported":1730912861,"current_range_meters":28400,"station_id":"ce4bh292rcd13ifvqdg0","pricing_plan_id":"cebpf4jnsgd1na2vs0mg"},{"bike_id":"0867c150-3252-473c-af48-909e1bb13044","system_id":"levelo_inurba_marseille","lat":43.315797,"lon":5.379533,"is_reserved":false,"is_disabled":false,"rental_uris":{"android":"levelo://app?vid=0867c150-3252-473c-af48-909e1bb13044","ios":"levelo://app?vid=0867c150-3252-473c-af48-909e1bb13044"},"vehicle_type_id":"4","last_reported":1730912861,"current_range_meters":38400,"station_id":"","pricing_plan_id":"cebpf4jnsgd1na2vs0mg"},{"bike_id":"6123e777-4a6d-44c8-84c5-24e9faf865f2","system_id":"levelo_inurba_marseille","lat":43.239679,"lon":5.366319,"is_reserved":false,"is_disabled":false,"rental_uris":{"android":"levelo://app?vid=6123e777-4a6d-44c8-84c5-24e9faf865f2","ios":"levelo://app?vid=6123e777-4a6d-44c8-84c5-24e9faf865f2"},"vehicle_type_id":"4","last_reported":1730912861,"current_range_meters":8800,"station_id":"ce4bhi12rcd13ifvqfp0","pricing_plan_id":"cebpf4jnsgd1na2vs0mg"},{"bike_id":"91fe2fee-d4a5-4407-af17-9bd27419cb64","system_id":"levelo_inurba_marseille","lat":43.28477,"lon":5.35897,"is_reserved":false,"is_disabled":false,"rental_uris":{"android":"levelo://app?vid=91fe2fee-d4a5-4407-af17-9bd27419cb64","ios":"levelo://app?vid=91fe2fee-d4a5-4407-af17-9bd27419cb64"},"vehicle_type_id":"4","last_reported":1730912861,"current_range_meters":14800,"station_id":"ce4bhah2rcd13ifvqei0","pricing_plan_id":"cebpf4jnsgd1na2vs0mg"},{"bike_id":"9c84298b-f5b3-41b5-a807-64897e4b4943","system_id":"levelo_inurba_marseille","lat":43.28568,"lon":5.39513,"is_reserved":false,"is_disabled":false,"rental_uris":{"android":"levelo://app?vid=9c84298b-f5b3-41b5-a807-64897e4b4943","ios":"levelo://app?vid=9c84298b-f5b3-41b5-a807-64897e4b4943"},"vehicle_type_id":"4","last_reported":1730912861,"current_range_meters":36000,"station_id":"ce4bh292rcd13ifvqdg0","pricing_plan_id":"cebpf4jnsgd1na2vs0mg"},{"bike_id":"04d56940-9b65-4736-bf93-8c78dfe647b8","system_id":"levelo_inurba_marseille","lat":43.29256,"lon":5.40913,"is_reserved":false,"is_disabled":false,"rental_uris":{"android":"levelo://app?vid=04d56940-9b65-4736-bf93-8c78dfe647b8","ios":"levelo://app?vid=04d56940-9b65-4736-bf93-8c78dfe647b8"},"vehicle_type_id":"4","last_reported":1730912861,"current_range_meters":9600,"station_id":"ce4bh192rcd13ifvqdc0","pricing_plan_id":"cebpf4jnsgd1na2vs0mg"},{"bike_id":"6f4d3377-964d-4ced-bb6a-b1d042821e4f","system_id":"levelo_inurba_marseille","lat":43.24392,"lon":5.37066,"is_reserved":false,"is_disabled":false,"rental_uris":{"android":"levelo://app?vid=6f4d3377-964d-4ced-bb6a-b1d042821e4f","ios":"levelo://app?vid=6f4d3377-964d-4ced-bb6a-b1d042821e4f"},"vehicle_type_id":"4","last_reported":1730912861,"current_range_meters":7200,"station_id":"ce4bhhh2rcd13ifvqfk0","pricing_plan_id":"cebpf4jnsgd1na2vs0mg"},{"bike_id":"c577947d-42a8-4d86-8531-5a7537148064","system_id":"levelo_inurba_marseille","lat":43.29882,"lon":5.39738,"is_reserved":false,"is_disabled":false,"rental_uris":{"android":"levelo://app?vid=c577947d-42a8-4d86-8531-5a7537148064","ios":"levelo://app?vid=c577947d-42a8-4d86-8531-5a7537148064"},"vehicle_type_id":"4","last_reported":1730912861,"current_range_meters":8400,"station_id":"ce4bh0h2rcd13ifvqd50","pricing_plan_id":"cebpf4jnsgd1na2vs0mg"},{"bike_id":"99e0b55e-2853-45bd-847c-5e8545bce86d","system_id":"levelo_inurba_marseille","lat":43.262024,"lon":5.379369,"is_reserved":false,"is_disabled":false,"rental_uris":{"android":"levelo://app?vid=99e0b55e-2853-45bd-847c-5e8545bce86d","ios":"levelo://app?vid=99e0b55e-2853-45bd-847c-5e8545bce86d"},"vehicle_type_id":"4","last_reported":1730912861,"current_range_meters":3200,"station_id":"ce4bhjp2rcd13ifvqg90","pricing_plan_id":"cebpf4jnsgd1na2vs0mg"},{"bike_id":"e2f533f6-e109-40ce-b372-f2348f50db15","system_id":"levelo_inurba_marseille","lat":43.25574,"lon":5.38241,"is_reserved":false,"is_disabled":false,"rental_uris":{"android":"levelo://app?vid=e2f533f6-e109-40ce-b372-f2348f50db15","ios":"levelo://app?vid=e2f533f6-e109-40ce-b372-f2348f50db15"},"vehicle_type_id":"4","last_reported":1730912861,"current_range_meters":36000,"station_id":"ce4bhih2rcd13ifvqfs0","pricing_plan_id":"cebpf4jnsgd1na2vs0mg"},{"bike_id":"658ecc05-26b5-49c1-bc1b-e262e48e68a9","system_id":"levelo_inurba_marseille","lat":43.28082,"lon":5.39663,"is_reserved":false,"is_disabled":false,"rental_uris":{"android":"levelo://app?vid=658ecc05-26b5-49c1-bc1b-e262e48e68a9","ios":"levelo://app?vid=658ecc05-26b5-49c1-bc1b-e262e48e68a9"},"vehicle_type_id":"4","last_reported":1730912861,"current_range_meters":36800,"station_id":"ce4bho12rcd13ifvqh2g","pricing_plan_id":"cebpf4jnsgd1na2vs0mg"},{"bike_id":"9e66d990-5634-4c6a-a8f9-20371a314137","system_id":"levelo_inurba_marseille","lat":43.32337,"lon":5.40629,"is_reserved":false,"is_disabled":false,"rental_uris":{"android":"levelo://app?vid=9e66d990-5634-4c6a-a8f9-20371a314137","ios":"levelo://app?vid=9e66d990-5634-4c6a-a8f9-20371a314137"},"vehicle_type_id":"4","last_reported":1730912861,"current_range_meters":34800,"station_id":"ce4bhq92rcd13ifvqhjg","pricing_plan_id":"cebpf4jnsgd1na2vs0mg"},{"bike_id":"c37e6351-6641-4f18-9ac0-1f6b7e66c406","system_id":"levelo_inurba_marseille","lat":43.28698,"lon":5.39987,"is_reserved":false,"is_disabled":false,"rental_uris":{"android":"levelo://app?vid=c37e6351-6641-4f18-9ac0-1f6b7e66c406","ios":"levelo://app?vid=c37e6351-6641-4f18-9ac0-1f6b7e66c406"},"vehicle_type_id":"4","last_reported":1730912861,"current_range_meters":26800,"station_id":"ce4bho92rcd13ifvqh3g","pricing_plan_id":"cebpf4jnsgd1na2vs0mg"},{"bike_id":"f07c891e-a763-45ee-88b2-eeb2c87e3c5d","system_id":"levelo_inurba_marseille","lat":43.30899,"lon":5.37205,"is_reserved":false,"is_disabled":false,"rental_uris":{"android":"levelo://app?vid=f07c891e-a763-45ee-88b2-eeb2c87e3c5d","ios":"levelo://app?vid=f07c891e-a763-45ee-88b2-eeb2c87e3c5d"},"vehicle_type_id":"4","last_reported":1730912861,"current_range_meters":35200,"station_id":"ce4bguh2rcd13ifvqckg","pricing_plan_id":"cebpf4jnsgd1na2vs0mg"},{"bike_id":"ae0b390c-a9c9-4b2a-8f82-406c4e21cdcd","system_id":"levelo_inurba_marseille","lat":43.29738,"lon":5.35947,"is_reserved":false,"is_disabled":false,"rental_uris":{"android":"levelo://app?vid=ae0b390c-a9c9-4b2a-8f82-406c4e21cdcd","ios":"levelo://app?vid=ae0b390c-a9c9-4b2a-8f82-406c4e21cdcd"},"vehicle_type_id":"4","last_reported":1730912861,"current_range_meters":10000,"station_id":"","pricing_plan_id":"cebpf4jnsgd1na2vs0mg"},{"bike_id":"44075926-f92a-43b7-b945-feabe9c15c8c","system_id":"levelo_inurba_marseille","lat":43.28269,"lon":5.3507,"is_reserved":false,"is_disabled":false,"rental_uris":{"android":"levelo://app?vid=44075926-f92a-43b7-b945-feabe9c15c8c","ios":"levelo://app?vid=44075926-f92a-43b7-b945-feabe9c15c8c"},"vehicle_type_id":"4","last_reported":1730912861,"current_range_meters":30800,"station_id":"ce4bhbp2rcd13ifvqerg","pricing_plan_id":"cebpf4jnsgd1na2vs0mg"},{"bike_id":"7b376055-b7c2-47e0-a2a5-b02eec740bc6","system_id":"levelo_inurba_marseille","lat":43.27673,"lon":5.38874,"is_reserved":false,"is_disabled":false,"rental_uris":{"android":"levelo://app?vid=7b376055-b7c2-47e0-a2a5-b02eec740bc6","ios":"levelo://app?vid=7b376055-b7c2-47e0-a2a5-b02eec740bc6"},"vehicle_type_id":"4","last_reported":1730912861,"current_range_meters":6400,"station_id":"ce4bhi12rcd13ifvqfo0","pricing_plan_id":"cebpf4jnsgd1na2vs0mg"},{"bike_id":"0b17fd3e-86cf-42ae-a4f1-342b1758f1c8","system_id":"levelo_inurba_marseille","lat":43.30921,"lon":5.40143,"is_reserved":false,"is_disabled":false,"rental_uris":{"android":"levelo://app?vid=0b17fd3e-86cf-42ae-a4f1-342b1758f1c8","ios":"levelo://app?vid=0b17fd3e-86cf-42ae-a4f1-342b1758f1c8"},"vehicle_type_id":"4","last_reported":1730912861,"current_range_meters":29600,"station_id":"ce4bgvp2rcd13ifvqct0","pricing_plan_id":"cebpf4jnsgd1na2vs0mg"},{"bike_id":"8266674d-da44-468c-8826-430aa0bd3efa","system_id":"levelo_inurba_marseille","lat":43.29687,"lon":5.36754,"is_reserved":false,"is_disabled":false,"rental_uris":{"android":"levelo://app?vid=8266674d-da44-468c-8826-430aa0bd3efa","ios":"levelo://app?vid=8266674d-da44-468c-8826-430aa0bd3efa"},"vehicle_type_id":"4","last_reported":1730912861,"current_range_meters":28400,"station_id":"ce4bh3p2rcd13ifvqdp0","pricing_plan_id":"cebpf4jnsgd1na2vs0mg"},{"bike_id":"4fd336fb-ec63-4d09-84d4-45cf143f4508","system_id":"levelo_inurba_marseille","lat":43.31334,"lon":5.39705,"is_reserved":false,"is_disabled":false,"rental_uris":{"android":"levelo://app?vid=4fd336fb-ec63-4d09-84d4-45cf143f4508","ios":"levelo://app?vid=4fd336fb-ec63-4d09-84d4-45cf143f4508"},"vehicle_type_id":"4","last_reported":1730912861,"current_range_meters":33200,"station_id":"ce4bgvp2rcd13ifvqcu0","pricing_plan_id":"cebpf4jnsgd1na2vs0mg"},{"bike_id":"449007b1-3212-49d4-a958-020d7fedd26c","system_id":"levelo_inurba_marseille","lat":43.24652,"lon":5.38912,"is_reserved":false,"is_disabled":false,"rental_uris":{"android":"levelo://app?vid=449007b1-3212-49d4-a958-020d7fedd26c","ios":"levelo://app?vid=449007b1-3212-49d4-a958-020d7fedd26c"},"vehicle_type_id":"4","last_reported":1730912861,"current_range_meters":29600,"station_id":"ce4bhg12rcd13ifvqf60","pricing_plan_id":"cebpf4jnsgd1na2vs0mg"},{"bike_id":"d63c9232-58cf-4d03-81e7-896f3f04d5fc","system_id":"levelo_inurba_marseille","lat":43.27945,"lon":5.41054,"is_reserved":false,"is_disabled":false,"rental_uris":{"android":"levelo://app?vid=d63c9232-58cf-4d03-81e7-896f3f04d5fc","ios":"levelo://app?vid=d63c9232-58cf-4d03-81e7-896f3f04d5fc"},"vehicle_type_id":"4","last_reported":1730912861,"current_range_meters":34000,"station_id":"ce4bhnp2rcd13ifvqh0g","pricing_plan_id":"cebpf4jnsgd1na2vs0mg"},{"bike_id":"22a2e792-1334-4a60-b669-1b243972754c","system_id":"levelo_inurba_marseille","lat":43.25587,"lon":5.38231,"is_reserved":false,"is_disabled":false,"rental_uris":{"android":"levelo://app?vid=22a2e792-1334-4a60-b669-1b243972754c","ios":"levelo://app?vid=22a2e792-1334-4a60-b669-1b243972754c"},"vehicle_type_id":"4","last_reported":1730912861,"current_range_meters":10800,"station_id":"ce4bhih2rcd13ifvqfs0","pricing_plan_id":"cebpf4jnsgd1na2vs0mg"},{"bike_id":"04b3bb9b-a2f7-4701-a390-d309c819daee","system_id":"levelo_inurba_marseille","lat":43.29075,"lon":5.37182,"is_reserved":false,"is_disabled":false,"rental_uris":{"android":"levelo://app?vid=04b3bb9b-a2f7-4701-a390-d309c819daee","ios":"levelo://app?vid=04b3bb9b-a2f7-4701-a390-d309c819daee"},"vehicle_type_id":"4","last_reported":1730912861,"current_range_meters":26000,"station_id":"ce4bh5p2rcd13ifvqe4g","pricing_plan_id":"cebpf4jnsgd1na2vs0mg"},{"bike_id":"f2ffdcd3-a0b2-42c4-8bc2-c6b65479a185","system_id":"levelo_inurba_marseille","lat":43.32011,"lon":5.38155,"is_reserved":false,"is_disabled":false,"rental_uris":{"android":"levelo://app?vid=f2ffdcd3-a0b2-42c4-8bc2-c6b65479a185","ios":"levelo://app?vid=f2ffdcd3-a0b2-42c4-8bc2-c6b65479a185"},"vehicle_type_id":"4","last_reported":1730912861,"current_range_meters":40000,"station_id":"ce4bhr12rcd13ifvqhpg","pricing_plan_id":"cebpf4jnsgd1na2vs0mg"},{"bike_id":"d93278fd-6e2b-498d-b6ce-a2e59d46f7c7","system_id":"levelo_inurba_marseille","lat":43.26204,"lon":5.37934,"is_reserved":false,"is_disabled":false,"rental_uris":{"android":"levelo://app?vid=d93278fd-6e2b-498d-b6ce-a2e59d46f7c7","ios":"levelo://app?vid=d93278fd-6e2b-498d-b6ce-a2e59d46f7c7"},"vehicle_type_id":"4","last_reported":1730912861,"current_range_meters":38400,"station_id":"ce4bhjp2rcd13ifvqg90","pricing_plan_id":"cebpf4jnsgd1na2vs0mg"},{"bike_id":"8fe892d4-47f6-483c-800f-82a49931e522","system_id":"levelo_inurba_marseille","lat":43.28157,"lon":5.42653,"is_reserved":false,"is_disabled":false,"rental_uris":{"android":"levelo://app?vid=8fe892d4-47f6-483c-800f-82a49931e522","ios":"levelo://app?vid=8fe892d4-47f6-483c-800f-82a49931e522"},"vehicle_type_id":"4","last_reported":1730912861,"current_range_meters":9200,"station_id":"ce4bhnh2rcd13ifvqgug","pricing_plan_id":"cebpf4jnsgd1na2vs0mg"},{"bike_id":"dfbd2ae2-fd90-4234-b402-5dd435fed18f","system_id":"levelo_inurba_marseille","lat":43.28002,"lon":5.41674,"is_reserved":false,"is_disabled":false,"rental_uris":{"android":"levelo://app?vid=dfbd2ae2-fd90-4234-b402-5dd435fed18f","ios":"levelo://app?vid=dfbd2ae2-fd90-4234-b402-5dd435fed18f"},"vehicle_type_id":"4","last_reported":1730912861,"current_range_meters":31200,"station_id":"ce4bho12rcd13ifvqh1g","pricing_plan_id":"cebpf4jnsgd1na2vs0mg"},{"bike_id":"49fe0042-3e26-4e5b-b209-53c4532ef8f3","system_id":"levelo_inurba_marseille","lat":43.29419,"lon":5.38625,"is_reserved":false,"is_disabled":false,"rental_uris":{"android":"levelo://app?vid=49fe0042-3e26-4e5b-b209-53c4532ef8f3","ios":"levelo://app?vid=49fe0042-3e26-4e5b-b209-53c4532ef8f3"},"vehicle_type_id":"4","last_reported":1730912861,"current_range_meters":34000,"station_id":"ce4bh2h2rcd13ifvqdh0","pricing_plan_id":"cebpf4jnsgd1na2vs0mg"},{"bike_id":"7b83092c-0fd9-4977-81c9-4a4461d5f2c0","system_id":"levelo_inurba_marseille","lat":43.3372,"lon":5.39184,"is_reserved":false,"is_disabled":false,"rental_uris":{"android":"levelo://app?vid=7b83092c-0fd9-4977-81c9-4a4461d5f2c0","ios":"levelo://app?vid=7b83092c-0fd9-4977-81c9-4a4461d5f2c0"},"vehicle_type_id":"4","last_reported":1730912861,"current_range_meters":36000,"station_id":"ce4bhr92rcd13ifvqhsg","pricing_plan_id":"cebpf4jnsgd1na2vs0mg"},{"bike_id":"f7bcf1ee-c044-4331-9699-6326654e91bc","system_id":"levelo_inurba_marseille","lat":43.30356,"lon":5.41887,"is_reserved":false,"is_disabled":false,"rental_uris":{"android":"levelo://app?vid=f7bcf1ee-c044-4331-9699-6326654e91bc","ios":"levelo://app?vid=f7bcf1ee-c044-4331-9699-6326654e91bc"},"vehicle_type_id":"4","last_reported":1730912861,"current_range_meters":25200,"station_id":"ce4bhop2rcd13ifvqh7g","pricing_plan_id":"cebpf4jnsgd1na2vs0mg"},{"bike_id":"a5cb94c8-a057-462c-8362-d888e53f3ac5","system_id":"levelo_inurba_marseille","lat":43.29897,"lon":5.43666,"is_reserved":false,"is_disabled":false,"rental_uris":{"android":"levelo://app?vid=a5cb94c8-a057-462c-8362-d888e53f3ac5","ios":"levelo://app?vid=a5cb94c8-a057-462c-8362-d888e53f3ac5"},"vehicle_type_id":"4","last_reported":1730912861,"current_range_meters":39200,"station_id":"ce4bhpp2rcd13ifvqhfg","pricing_plan_id":"cebpf4jnsgd1na2vs0mg"},{"bike_id":"8f3ba132-13b6-4a17-9f25-50f0c0ac64b1","system_id":"levelo_inurba_marseille","lat":43.27947,"lon":5.41051,"is_reserved":false,"is_disabled":false,"rental_uris":{"android":"levelo://app?vid=8f3ba132-13b6-4a17-9f25-50f0c0ac64b1","ios":"levelo://app?vid=8f3ba132-13b6-4a17-9f25-50f0c0ac64b1"},"vehicle_type_id":"4","last_reported":1730912861,"current_range_meters":38400,"station_id":"ce4bhnp2rcd13ifvqh0g","pricing_plan_id":"cebpf4jnsgd1na2vs0mg"},