{"last_updated":1703264768,"ttl":30,"version":"2.2","data":{"bikes":[{"bike_id":"7ae3870c-f6a5-40d2-a622-249c149380d1","system_id":"levelo_inurba_marseille","lat":43.312239,"lon":5.368562,"is_reserved":false,"is_disabled":false,"rental_uris":{"android":"levelo://app?vid=7ae3870c-f6a5-40d2-a622-249c149380d1","ios":"levelo://app?vid=7ae3870c-f6a5-40d2-a622-249c149380d1"},"vehicle_type_id":"4","last_reported":1703264768,"current_range_meters":0,"station_id":"ce4bgl92rcd13ifvqbq0","pricing_plan_id":"free"},{"bike_id":"2e2ceee1-ebc2-4cb9-a8bf-14fc4852ebf1","system_id":"levelo_inurba_marseille","lat":43.309447,"lon":5.36879,"is_reserved":false,"is_disabled":false,"rental_uris":{"android":"levelo://app?vid=2e2ceee1-ebc2-4cb9-a8bf-14fc4852ebf1","ios":"levelo://app?vid=2e2ceee1-ebc2-4cb9-a8bf-14fc4852ebf1"},"vehicle_type_id":"4","last_reported":1703264768,"current_range_meters":8400,"station_id":"ce4bgn92rcd13ifvqbvg","pricing_plan_id":"free"},{"bike_id":"4de757be-1c92-49c7-a54e-7f01d643902e","system_id":"levelo_inurba_marseille","lat":43.30904,"lon":5.3705,"is_reserved":false,"is_disabled":false,"rental_uris":{"android":"levelo://app?vid=4de757be-1c92-49c7-a54e-7f01d643902e","ios":"levelo://app?vid=4de757be-1c92-49c7-a54e-7f01d643902e"},"vehicle_type_id":"4","last_reported":1703264768,"current_range_meters":0,"station_id":"ce4bgl92rcd13ifvqbq0","pricing_plan_id":"free"},{"bike_id":"e8753a50-faa5-4727-876a-b9ad4ab66808","system_id":"levelo_inurba_marseille","lat":43.309039,"lon":5.371797,"is_reserved":false,"is_disabled":false,"rental_uris":{"android":"levelo://app?vid=e8753a50-faa5-4727-876a-b9ad4ab66808","ios":"levelo://app?vid=e8753a50-faa5-4727-876a-b9ad4ab66808"},"vehicle_type_id":"4","last_reported":1703264768,"current_range_meters":26400,"station_id":"ce4bguh2rcd13ifvqckg","pricing_plan_id":"free"},{"bike_id":"761adc38-6649-436e-b4b1-0e84789b676d","system_id":"levelo_inurba_marseille","lat":43.305712,"lon":5.365641,"is_reserved":false,"is_disabled":false,"rental_uris":{"android":"levelo://app?vid=761adc38-6649-436e-b4b1-0e84789b676d","ios":"levelo://app?vid=761adc38-6649-436e-b4b1-0e84789b676d"},"vehicle_type_id":"4","last_reported":1703264768,"current_range_meters":9600,"station_id":"ce4bgs12rcd13ifvqcag","pricing_plan_id":"free"},{"bike_id":"76a6f832-a131-4051-81f9-5be4222b0fac","system_id":"levelo_inurba_marseille","lat":43.305368,"lon":5.367343,"is_reserved":false,"is_disabled":false,"rental_uris":{"android":"levelo://app?vid=76a6f832-a131-4051-81f9-5be4222b0fac","ios":"levelo://app?vid=76a6f832-a131-4051-81f9-5be4222b0fac"},"vehicle_type_id":"4","last_reported":1703264768,"current_range_meters":4400,"station_id":"ce4bgrp2rcd13ifvqc9g","pricing_plan_id":"free"},{"bike_id":"39916792-a3aa-4e92-8ddb-5bdc7a162ca3","system_id":"levelo_inurba_marseille","lat":43.30539,"lon":5.3654,"is_reserved":false,"is_disabled":false,"rental_uris":{"android":"levelo://app?vid=39916792-a3aa-4e92-8ddb-5bdc7a162ca3","ios":"levelo://app?vid=39916792-a3aa-4e92-8ddb-5bdc7a162ca3"},"vehicle_type_id":"4","last_reported":1703264768,"current_range_meters":2800,"station_id":"ce4bgs12rcd13ifvqcag","pricing_plan_id":"free"},{"bike_id":"c6c8da75-62e4-4eec-8fba-a9b6b8cdb722","system_id":"levelo_inurba_marseille","lat":43.305714,"lon":5.365633,"is_reserved":false,"is_disabled":false,"rental_uris":{"android":"levelo://app?vid=c6c8da75-62e4-4eec-8fba-a9b6b8cdb722","ios":"levelo://app?vid=c6c8da75-62e4-4eec-8fba-a9b6b8cdb722"},"vehicle_type_id":"4","last_reported":1703264768,"current_range_meters":13200,"station_id":"ce4bgs12rcd13ifvqcag","pricing_plan_id":"free"},{"bike_id":"428c9830-2eda-4d83-a017-bfa501fada0d","system_id":"levelo_inurba_marseille","lat":43.311131,"lon":5.377651,"is_reserved":false,"is_disabled":false,"rental_uris":{"android":"levelo://app?vid=428c9830-2eda-4d83-a017-bfa501fada0d","ios":"levelo://app?vid=428c9830-2eda-4d83-a017-bfa501fada0d"},"vehicle_type_id":"4","last_reported":1703264768,"current_range_meters":28000,"station_id":"ce4bgt92rcd13ifvqcg0","pricing_plan_id":"free"},{"bike_id":"5f82680d-70ce-4aa8-b81a-59fcc9fa161b","system_id":"levelo_inurba_marseille","lat":43.30789,"lon":5.37638,"is_reserved":false,"is_disabled":false,"rental_uris":{"android":"levelo://app?vid=5f82680d-70ce-4aa8-b81a-59fcc9fa161b","ios":"levelo://app?vid=5f82680d-70ce-4aa8-b81a-59fcc9fa161b"},"vehicle_type_id":"4","last_reported":1703264768,"current_range_meters":31200,"station_id":"ce4bgv92rcd13ifvqcq0","pricing_plan_id":"free"},{"bike_id":"baa7fffe-178b-4d67-a11a-628e9d913b35","system_id":"levelo_inurba_marseille","lat":43.30789,"lon":5.37648,"is_reserved":false,"is_disabled":false,"rental_uris":{"android":"levelo://app?vid=baa7fffe-178b-4d67-a11a-628e9d913b35","ios":"levelo://app?vid=baa7fffe-178b-4d67-a11a-628e9d913b35"},"vehicle_type_id":"4","last_reported":1703264768,"current_range_meters":13200,"station_id":"ce4bgv92rcd13ifvqcq0","pricing_plan_id":"free"},{"bike_id":"99f8f273-776e-42d9-bcea-603dca2786dd","system_id":"levelo_inurba_marseille","lat":43.30785,"lon":5.37654,"is_reserved":false,"is_disabled":false,"rental_uris":{"android":"levelo://app?vid=99f8f273-776e-42d9-bcea-603dca2786dd","ios":"levelo://app?vid=99f8f273-776e-42d9-bcea-603dca2786dd"},"vehicle_type_id":"4","last_reported":1703264768,"current_range_meters":26400,"station_id":"ce4bgv92rcd13ifvqcq0","pricing_plan_id":"free"},{"bike_id":"e621f788-e0b8-4fda-933f-4b10808ea0de","system_id":"levelo_inurba_marseille","lat":43.307802,"lon":5.37651,"is_reserved":false,"is_disabled":false,"rental_uris":{"android":"levelo://app?vid=e621f788-e0b8-4fda-933f-4b10808ea0de","ios":"levelo://app?vid=e621f788-e0b8-4fda-933f-4b10808ea0de"},"vehicle_type_id":"4","last_reported":1703264768,"current_range_meters":31200,"station_id":"ce4bgv92rcd13ifvqcq0","pricing_plan_id":"free"},{"bike_id":"e3d412e6-d75e-499f-9b12-871b89eb61ea","system_id":"levelo_inurba_marseille","lat":43.307945,"lon":5.376487,"is_reserved":false,"is_disabled":false,"rental_uris":{"android":"levelo://app?vid=e3d412e6-d75e-499f-9b12-871b89eb61ea","ios":"levelo://app?vid=e3d412e6-d75e-499f-9b12-871b89eb61ea"},"vehicle_type_id":"4","last_reported":1703264768,"current_range_meters":25200,"station_id":"ce4bgv92rcd13ifvqcq0","pricing_plan_id":"free"},{"bike_id":"5c611857-e3d8-4370-bac1-45f674b95c93","system_id":"levelo_inurba_marseille","lat":43.317075,"lon":5.377367,"is_reserved":false,"is_disabled":false,"rental_uris":{"android":"levelo://app?vid=5c611857-e3d8-4370-bac1-45f674b95c93","ios":"levelo://app?vid=5c611857-e3d8-4370-bac1-45f674b95c93"},"vehicle_type_id":"4","last_reported":1703264768,"current_range_meters":8800,"station_id":"ce4bgth2rcd13ifvqch0","pricing_plan_id":"free"},{"bike_id":"674de96a-9ddc-4750-8a69-73a7acd1990d","system_id":"levelo_inurba_marseille","lat":43.303046,"lon":5.368981,"is_reserved":false,"is_disabled":false,"rental_uris":{"android":"levelo://app?vid=674de96a-9ddc-4750-8a69-73a7acd1990d","ios":"levelo://app?vid=674de96a-9ddc-4750-8a69-73a7acd1990d"},"vehicle_type_id":"4","last_reported":1703264768,"current_range_meters":4400,"station_id":"ce4bgqh2rcd13ifvqc5g","pricing_plan_id":"free"},{"bike_id":"b8015337-b838-45fe-b0ef-4af090bd6846","system_id":"levelo_inurba_marseille","lat":43.301939,"lon":5.366286,"is_reserved":false,"is_disabled":false,"rental_uris":{"android":"levelo://app?vid=b8015337-b838-45fe-b0ef-4af090bd6846","ios":"levelo://app?vid=b8015337-b838-45fe-b0ef-4af090bd6846"},"vehicle_type_id":"4","last_reported":1703264768,"current_range_meters":24800,"station_id":"ce4bgrh2rcd13ifvqc8g","pricing_plan_id":"free"},{"bike_id":"ad7c09ef-f98a-4474-9063-5e8c0f4c66a7","system_id":"levelo_inurba_marseille","lat":43.308012,"lon":5.381511,"is_reserved":false,"is_disabled":false,"rental_uris":{"android":"levelo://app?vid=ad7c09ef-f98a-4474-9063-5e8c0f4c66a7","ios":"levelo://app?vid=ad7c09ef-f98a-4474-9063-5e8c0f4c66a7"},"vehicle_type_id":"4","last_reported":1703264768,"current_range_meters":0,"station_id":"ce4bgt12rcd13ifvqce0","pricing_plan_id":"free"},{"bike_id":"1218862f-5e73-45b7-9726-710674f0fd82","system_id":"levelo_inurba_marseille","lat":43.301429,"lon":5.37413,"is_reserved":false,"is_disabled":false,"rental_uris":{"android":"levelo://app?vid=1218862f-5e73-45b7-9726-710674f0fd82","ios":"levelo://app?vid=1218862f-5e73-45b7-9726-710674f0fd82"},"vehicle_type_id":"4","last_reported":1703264768,"current_range_meters":10000,"station_id":"ce4bgs92rcd13ifvqcc0","pricing_plan_id":"free"},{"bike_id":"82b7c1aa-506b-4cff-953c-bb835d7847c3","system_id":"levelo_inurba_marseille","lat":43.319935,"lon":5.381699,"is_reserved":false,"is_disabled":false,"rental_uris":{"android":"levelo://app?vid=82b7c1aa-506b-4cff-953c-bb835d7847c3","ios":"levelo://app?vid=82b7c1aa-506b-4cff-953c-bb835d7847c3"},"vehicle_type_id":"4","last_reported":1703264768,"current_range_meters":14800,"station_id":"ce4bhr12rcd13ifvqhpg","pricing_plan_id":"free"},{"bike_id":"dc0f6af5-c02c-4610-baea-e5c6ca16f530","system_id":"levelo_inurba_marseille","lat":43.31992,"lon":5.38159,"is_reserved":false,"is_disabled":false,"rental_uris":{"android":"levelo://app?vid=dc0f6af5-c02c-4610-baea-e5c6ca16f530","ios":"levelo://app?vid=dc0f6af5-c02c-4610-baea-e5c6ca16f530"},"vehicle_type_id":"4","last_reported":1703264768,"current_range_meters":28400,"station_id":"ce4bhr12rcd13ifvqhpg","pricing_plan_id":"free"},{"bike_id":"9c231161-337f-4eba-87d3-44d75eaa84aa","system_id":"levelo_inurba_marseille","lat":43.32002,"lon":5.38166,"is_reserved":false,"is_disabled":false,"rental_uris":{"android":"levelo://app?vid=9c231161-337f-4eba-87d3-44d75eaa84aa","ios":"levelo://app?vid=9c231161-337f-4eba-87d3-44d75eaa84aa"},"vehicle_type_id":"4","last_reported":1703264768,"current_range_meters":30000,"station_id":"ce4bhr12rcd13ifvqhpg","pricing_plan_id":"free"},{"bike_id":"433f0661-0ff6-444d-bdb3-700cb63f16af","system_id":"levelo_inurba_marseille","lat":43.298433,"lon":5.362774,"is_reserved":false,"is_disabled":false,"rental_uris":{"android":"levelo://app?vid=433f0661-0ff6-444d-bdb3-700cb63f16af","ios":"levelo://app?vid=433f0661-0ff6-444d-bdb3-700cb63f16af"},"vehicle_type_id":"4","last_reported":1703264768,"current_range_meters":26400,"station_id":"ce4bgpp2rcd13ifvqc3g","pricing_plan_id":"free"},{"bike_id":"c7cbc70e-3f5d-48a6-902d-688d5364e5fb","system_id":"levelo_inurba_marseille","lat":43.305364,"lon":5.384119,"is_reserved":false,"is_disabled":false,"rental_uris":{"android":"levelo://app?vid=c7cbc70e-3f5d-48a6-902d-688d5364e5fb","ios":"levelo://app?vid=c7cbc70e-3f5d-48a6-902d-688d5364e5fb"},"vehicle_type_id":"4","last_reported":1703264768,"current_range_meters":18800,"station_id":"ce4bgg92rcd13ifvqb30","pricing_plan_id":"free"},{"bike_id":"e59c44c6-6491-4c4c-9e3c-502e256ddeb5","system_id":"levelo_inurba_marseille","lat":43.298433,"lon":5.362774,"is_reserved":false,"is_disabled":false,"rental_uris":{"android":"levelo://app?vid=e59c44c6-6491-4c4c-9e3c-502e256ddeb5","ios":"levelo://app?vid=e59c44c6-6491-4c4c-9e3c-502e256ddeb5"},"vehicle_type_id":"4","last_reported":1703264768,"current_range_meters":29200,"station_id":"ce4bgpp2rcd13ifvqc3g","pricing_plan_id":"free"},{"bike_id":"641f3e3c-ebaf-4277-b0ad-f3fbc134c224","system_id":"levelo_inurba_marseille","lat":43.305364,"lon":5.384119,"is_reserved":false,"is_disabled":false,"rental_uris":{"android":"levelo://app?vid=641f3e3c-ebaf-4277-b0ad-f3fbc134c224","ios":"levelo://app?vid=641f3e3c-ebaf-4277-b0ad-f3fbc134c224"},"vehicle_type_id":"4","last_reported":1703264768,"current_range_meters":20000,"station_id":"ce4bgg92rcd13ifvqb30","pricing_plan_id":"free"},{"bike_id":"5498b26f-0c00-4254-8730-41086348ea3a","system_id":"levelo_inurba_marseille","lat":43.299243,"lon":5.37481,"is_reserved":false,"is_disabled":false,"rental_uris":{"android":"levelo://app?vid=5498b26f-0c00-4254-8730-41086348ea3a","ios":"levelo://app?vid=5498b26f-0c00-4254-8730-41086348ea3a"},"vehicle_type_id":"4","last_reported":1703264768,"current_range_meters":10000,"station_id":"ce4bgjh2rcd13ifvqbg0","pricing_plan_id":"free"},{"bike_id":"223ca2bf-84c4-4ea1-8116-afe4af7aa62c","system_id":"levelo_inurba_marseille","lat":43.299243,"lon":5.374807,"is_reserved":false,"is_disabled":false,"rental_uris":{"android":"levelo://app?vid=223ca2bf-84c4-4ea1-8116-afe4af7aa62c","ios":"levelo://app?vid=223ca2bf-84c4-4ea1-8116-afe4af7aa62c"},"vehicle_type_id":"4","last_reported":1703264768,"current_range_meters":14800,"station_id":"ce4bgjh2rcd13ifvqbg0","pricing_plan_id":"free"},{"bike_id":"3522674a-6f42-4a39-baf1-4120c440e2d4","system_id":"levelo_inurba_marseille","lat":43.297794,"lon":5.370888,"is_reserved":false,"is_disabled":false,"rental_uris":{"android":"levelo://app?vid=3522674a-6f42-4a39-baf1-4120c440e2d4","ios":"levelo://app?vid=3522674a-6f42-4a39-baf1-4120c440e2d4"},"vehicle_type_id":"4","last_reported":1703264768,"current_range_meters":28800,"station_id":"ce4bgop2rcd13ifvqc1g","pricing_plan_id":"free"},{"bike_id":"816721d0-2191-4245-867f-88be4f7f9f53","system_id":"levelo_inurba_marseille","lat":43.297794,"lon":5.370888,"is_reserved":false,"is_disabled":false,"rental_uris":{"android":"levelo://app?vid=816721d0-2191-4245-867f-88be4f7f9f53","ios":"levelo://app?vid=816721d0-2191-4245-867f-88be4f7f9f53"},"vehicle_type_id":"4","last_reported":1703264768,"current_range_meters":24400,"station_id":"ce4bgop2rcd13ifvqc1g","pricing_plan_id":"free"},{"bike_id":"f5987233-1d3e-4901-8b4d-56e1ca83344b","system_id":"levelo_inurba_marseille","lat":43.322872,"lon":5.382756,"is_reserved":false,"is_disabled":false,"rental_uris":{"android":"levelo://app?vid=f5987233-1d3e-4901-8b4d-56e1ca83344b","ios":"levelo://app?vid=f5987233-1d3e-4901-8b4d-56e1ca83344b"},"vehicle_type_id":"4","last_reported":1703264768,"current_range_meters":28400,"station_id":"ce4bhr12rcd13ifvqhqg","pricing_plan_id":"free"},{"bike_id":"a84e9cb2-7542-46c3-b163-fa2e03aee383","system_id":"levelo_inurba_marseille","lat":43.297774,"lon":5.370875,"is_reserved":false,"is_disabled":false,"rental_uris":{"android":"levelo://app?vid=a84e9cb2-7542-46c3-b163-fa2e03aee383","ios":"levelo://app?vid=a84e9cb2-7542-46c3-b163-fa2e03aee383"},"vehicle_type_id":"4","last_reported":1703264768,"current_range_meters":11600,"station_id":"ce4bgop2rcd13ifvqc1g","pricing_plan_id":"free"},{"bike_id":"62a0e181-56c1-4aad-a05b-240ecf27baec","system_id":"levelo_inurba_marseille","lat":43.322872,"lon":5.382756,"is_reserved":false,"is_disabled":false,"rental_uris":{"android":"levelo://app?vid=62a0e181-56c1-4aad-a05b-240ecf27baec","ios":"levelo://app?vid=62a0e181-56c1-4aad-a05b-240ecf27baec"},"vehicle_type_id":"4","last_reported":1703264768,"current_range_meters":20800,"station_id":"ce4bhr12rcd13ifvqhqg","pricing_plan_id":"free"},{"bike_id":"3de3cb9d-902e-4db6-b594-b4026993780e","system_id":"levelo_inurba_marseille","lat":43.297794,"lon":5.370888,"is_reserved":false,"is_disabled":false,"rental_uris":{"android":"levelo://app?vid=3de3cb9d-902e-4db6-b594-b4026993780e","ios":"levelo://app?vid=3de3cb9d-902e-4db6-b594-b4026993780e"},"vehicle_type_id":"4","last_reported":1703264768,"current_range_meters":23200,"station_id":"ce4bgop2rcd13ifvqc1g","pricing_plan_id":"free"},{"bike_id":"525f6ec1-c089-48ad-8216-d8e073aa768d","system_id":"levelo_inurba_marseille","lat":43.32829,"lon":5.36675,"is_reserved":false,"is_disabled":false,"rental_uris":{"android":"levelo://app?vid=525f6ec1-c089-48ad-8216-d8e073aa768d","ios":"levelo://app?vid=525f6ec1-c089-48ad-8216-d8e073aa768d"},"vehicle_type_id":"4","last_reported":1703264768,"current_range_meters":6800,"station_id":"ce4bhs92rcd13ifvqi0g","pricing_plan_id":"free"},{"bike_id":"903435cc-fb50-49ce-8ef3-248b2266d358","system_id":"levelo_inurba_marseille","lat":43.297163,"lon":5.365866,"is_reserved":false,"is_disabled":false,"rental_uris":{"android":"levelo://app?vid=903435cc-fb50-49ce-8ef3-248b2266d358","ios":"levelo://app?vid=903435cc-fb50-49ce-8ef3-248b2266d358"},"vehicle_type_id":"4","last_reported":1703264768,"current_range_meters":28000,"station_id":"ce4bgn12rcd13ifvqbt0","pricing_plan_id":"free"},{"bike_id":"8694edd6-1ff0-4211-b919-61e4c2e4ae86","system_id":"levelo_inurba_marseille","lat":43.2968,"lon":5.37291,"is_reserved":false,"is_disabled":false,"rental_uris":{"android":"levelo://app?vid=8694edd6-1ff0-4211-b919-61e4c2e4ae86","ios":"levelo://app?vid=8694edd6-1ff0-4211-b919-61e4c2e4ae86"},"vehicle_type_id":"4","last_reported":1703264768,"current_range_meters":17200,"station_id":"ce4bgk12rcd13ifvqbj0","pricing_plan_id":"free"},{"bike_id":"3037ad33-bb38-4d61-9d2f-4129ba560f76","system_id":"levelo_inurba_marseille","lat":43.2968,"lon":5.37291,"is_reserved":false,"is_disabled":false,"rental_uris":{"android":"levelo://app?vid=3037ad33-bb38-4d61-9d2f-4129ba560f76","ios":"levelo://app?vid=3037ad33-bb38-4d61-9d2f-4129ba560f76"},"vehicle_type_id":"4","last_reported":1703264768,"current_range_meters":12400,"station_id":"ce4bgk12rcd13ifvqbj0","pricing_plan_id":"free"},{"bike_id":"21850f16-4df9-4bfd-965a-95f081466e0f","system_id":"levelo_inurba_marseille","lat":43.2968,"lon":5.37291,"is_reserved":false,"is_disabled":false,"rental_uris":{"android":"levelo://app?vid=21850f16-4df9-4bfd-965a-95f081466e0f","ios":"levelo://app?vid=21850f16-4df9-4bfd-965a-95f081466e0f"},"vehicle_type_id":"4","last_reported":1703264768,"current_range_meters":11200,"station_id":"ce4bgk12rcd13ifvqbj0","pricing_plan_id":"free"},{"bike_id":"558ec63f-134c-4e7a-9858-e5ff95d1d8fa","system_id":"levelo_inurba_marseille","lat":43.295973,"lon":5.367927,"is_reserved":false,"is_disabled":false,"rental_uris":{"android":"levelo://app?vid=558ec63f-134c-4e7a-9858-e5ff95d1d8fa","ios":"levelo://app?vid=558ec63f-134c-4e7a-9858-e5ff95d1d8fa"},"vehicle_type_id":"4","last_reported":1703264768,"current_range_meters":14000,"station_id":"","pricing_plan_id":"free"},{"bike_id":"96feec09-382a-4a36-99c3-0206c226fac9","system_id":"levelo_inurba_marseille","lat":43.299028,"lon":5.381509,"is_reserved":false,"is_disabled":false,"rental_uris":{"android":"levelo://app?vid=96feec09-382a-4a36-99c3-0206c226fac9","ios":"levelo://app?vid=96feec09-382a-4a36-99c3-0206c226fac9"},"vehicle_type_id":"4","last_reported":1703264768,"current_range_meters":15600,"station_id":"ce4bgj12rcd13ifvqbc0","pricing_plan_id":"free"},{"bike_id":"43855516-4c02-494d-aefa-3c215dbc6b85","system_id":"levelo_inurba_marseille","lat":43.317557,"lon":5.390173,"is_reserved":false,"is_disabled":false,"rental_uris":{"android":"levelo://app?vid=43855516-4c02-494d-aefa-3c215dbc6b85","ios":"levelo://app?vid=43855516-4c02-494d-aefa-3c215dbc6b85"},"vehicle_type_id":"4","last_reported":1703264768,"current_range_meters":2000,"station_id":"ce4bhqp2rcd13ifvqhng","pricing_plan_id":"free"},{"bike_id":"9c19988d-ba2d-4adf-9709-5b267033c9aa","system_id":"levelo_inurba_marseille","lat":43.295748,"lon":5.37522,"is_reserved":false,"is_disabled":false,"rental_uris":{"android":"levelo://app?vid=9c19988d-ba2d-4adf-9709-5b267033c9aa","ios":"levelo://app?vid=9c19988d-ba2d-4adf-9709-5b267033c9aa"},"vehicle_type_id":"4","last_reported":1703264768,"current_range_meters":22800,"station_id":"ce4bgh92rcd13ifvqb50","pricing_plan_id":"free"},{"bike_id":"fd17499b-3912-4ba3-bc40-ce4949b44af2","system_id":"levelo_inurba_marseille","lat":43.29539,"lon":5.36116,"is_reserved":false,"is_disabled":false,"rental_uris":{"android":"levelo://app?vid=fd17499b-3912-4ba3-bc40-ce4949b44af2","ios":"levelo://app?vid=fd17499b-3912-4ba3-bc40-ce4949b44af2"},"vehicle_type_id":"4","last_reported":1703264768,"current_range_meters":9600,"station_id":"","pricing_plan_id":"free"},{"bike_id":"2cdd59e6-1126-408c-bdd6-b4ccc205cc2f","system_id":"levelo_inurba_marseille","lat":43.295748,"lon":5.37522,"is_reserved":false,"is_disabled":false,"rental_uris":{"android":"levelo://app?vid=2cdd59e6-1126-408c-bdd6-b4ccc205cc2f","ios":"levelo://app?vid=2cdd59e6-1126-408c-bdd6-b4ccc205cc2f"},"vehicle_type_id":"4","last_reported":1703264768,"current_range_meters":6000,"station_id":"ce4bgh92rcd13ifvqb50","pricing_plan_id":"free"},{"bike_id":"7eada8fb-8c59-41ea-ae15-1164bd9fc1af","system_id":"levelo_inurba_marseille","lat":43.321738,"lon":5.388392,"is_reserved":false,"is_disabled":false,"rental_uris":{"android":"levelo://app?vid=7eada8fb-8c59-41ea-ae15-1164bd9fc1af","ios":"levelo://app?vid=7eada8fb-8c59-41ea-ae15-1164bd9fc1af"},"vehicle_type_id":"4","last_reported":1703264768,"current_range_meters":30400,"station_id":"","pricing_plan_id":"free"},{"bike_id":"46e28cab-3360-42a4-ab15-78981f3cd212","system_id":"levelo_inurba_marseille","lat":43.295748,"lon":5.37522,"is_reserved":false,"is_disabled":false,"rental_uris":{"android":"levelo://app?vid=46e28cab-3360-42a4-ab15-78981f3cd212","ios":"levelo://app?vid=46e28cab-3360-42a4-ab15-78981f3cd212"},"vehicle_type_id":"4","last_reported":1703264768,"current_range_meters":22000,"station_id":"ce4bgh92rcd13ifvqb50","pricing_plan_id":"free"},{"bike_id":"1378810b-812d-44e5-847a-1b7aeb90e4c4","system_id":"levelo_inurba_marseille","lat":43.299,"lon":5.38357,"is_reserved":false,"is_disabled":false,"rental_uris":{"android":"levelo://app?vid=1378810b-812d-44e5-847a-1b7aeb90e4c4","ios":"levelo://app?vid=1378810b-812d-44e5-847a-1b7aeb90e4c4"},"vehicle_type_id":"4","last_reported":1703264768,"current_range_meters":2000,"station_id":"","pricing_plan_id":"free"},{"bike_id":"7b8c0bab-aa36-4ca7-b91b-8fdfbcf0792a","system_id":"levelo_inurba_marseille","lat":43.32367,"lon":5.388836,"is_reserved":false,"is_disabled":false,"rental_uris":{"android":"levelo://app?vid=7b8c0bab-aa36-4ca7-b91b-8fdfbcf0792a","ios":"levelo://app?vid=7b8c0bab-aa36-4ca7-b91b-8fdfbcf0792a"},"vehicle_type_id":"4","last_reported":1703264768,"current_range_meters":10800,"station_id":"ce4bhqp2rcd13ifvqhog","pricing_plan_id":"free"},{"bike_id":"dc43bc2e-f3d2-4faa-8607-d6370cf86e01","system_id":"levelo_inurba_marseille","lat":43.32367,"lon":5.388836,"is_reserved":false,"is_disabled":false,"rental_uris":{"android":"levelo://app?vid=dc43bc2e-f3d2-4faa-8607-d6370cf86e01","ios":"levelo://app?vid=dc43bc2e-f3d2-4faa-8607-d6370cf86e01"},"vehicle_type_id":"4","last_reported":1703264768,"current_range_meters":6800,"station_id":"ce4bhqp2rcd13ifvqhog","pricing_plan_id":"free"},{"bike_id":"035ba96c-8560-4c70-973e-f7eb3e99c40c","system_id":"levelo_inurba_marseille","lat":43.32367,"lon":5.388836,"is_reserved":false,"is_disabled":false,"rental_uris":{"android":"levelo://app?vid=035ba96c-8560-4c70-973e-f7eb3e99c40c","ios":"levelo://app?vid=035ba96c-8560-4c70-973e-f7eb3e99c40c"},"vehicle_type_id":"4","last_reported":1703264768,"current_range_meters":20800,"station_id":"ce4bhqp2rcd13ifvqhog","pricing_plan_id":"free"},{"bike_id":"cc7743c4-385c-403d-859e-14ff6c38e121","system_id":"levelo_inurba_marseille","lat":43.32367,"lon":5.388836,"is_reserved":false,"is_disabled":false,"rental_uris":{"android":"levelo://app?vid=cc7743c4-385c-403d-859e-14ff6c38e121","ios":"levelo://app?vid=cc7743c4-385c-403d-859e-14ff6c38e121"},"vehicle_type_id":"4","last_reported":1703264768,"current_range_meters":17600,"station_id":"ce4bhqp2rcd13ifvqhog","pricing_plan_id":"free"},{"bike_id":"3e526db5-8f21-4e29-8ecf-04dd2f796e28","system_id":"levelo_inurba_marseille","lat":43.293259,"lon":5.371586,"is_reserved":false,"is_disabled":false,"rental_uris":{"android":"levelo://app?vid=3e526db5-8f21-4e29-8ecf-04dd2f796e28","ios":"levelo://app?vid=3e526db5-8f21-4e29-8ecf-04dd2f796e28"},"vehicle_type_id":"4","last_reported":1703264768,"current_range_meters":26400,"station_id":"ce4bgh92rcd13ifvqb40","pricing_plan_id":"free"},{"bike_id":"fb74f448-cf0c-4f6d-9a57-05fd864169d2","system_id":"levelo_inurba_marseille","lat":43.29304,"lon":5.37164,"is_reserved":false,"is_disabled":false,"rental_uris":{"android":"levelo://app?vid=fb74f448-cf0c-4f6d-9a57-05fd864169d2","ios":"levelo://app?vid=fb74f448-cf0c-4f6d-9a57-05fd864169d2"},"vehicle_type_id":"4","last_reported":1703264768,"current_range_meters":2000,"station_id":"ce4bgh92rcd13ifvqb40","pricing_plan_id":"free"},{"bike_id":"83feb4a4-5e30-43f5-b0f6-e01235fbafe9","system_id":"levelo_inurba_marseille","lat":43.293009,"lon":5.374584,"is_reserved":false,"is_disabled":false,"rental_uris":{"android":"levelo://app?vid=83feb4a4-5e30-43f5-b0f6-e01235fbafe9","ios":"levelo://app?vid=83feb4a4-5e30-43f5-b0f6-e01235fbafe9"},"vehicle_type_id":"4","last_reported":1703264768,"current_range_meters":26000,"station_id":"ce4bgi12rcd13ifvqb70","pricing_plan_id":"free"},{"bike_id":"f737f305-f8ba-4cf2-b807-456f139990d5","system_id":"levelo_inurba_marseille","lat":43.293009,"lon":5.374584,"is_reserved":false,"is_disabled":false,"rental_uris":{"android":"levelo://app?vid=f737f305-f8ba-4cf2-b807-456f139990d5","ios":"levelo://app?vid=f737f305-f8ba-4cf2-b807-456f139990d5"},"vehicle_type_id":"4","last_reported":1703264768,"current_range_meters":1200,"station_id":"ce4bgi12rcd13ifvqb70","pricing_plan_id":"free"},{"bike_id":"374c819e-c7fa-4e14-9a36-0f6ec74d305d","system_id":"levelo_inurba_marseille","lat":43.2936,"lon":5.37835,"is_reserved":false,"is_disabled":false,"rental_uris":{"android":"levelo://app?vid=374c819e-c7fa-4e14-9a36-0f6ec74d305d","ios":"levelo://app?vid=374c819e-c7fa-4e14-9a36-0f6ec74d305d"},"vehicle_type_id":"4","last_reported":1703264768,"current_range_meters":11200,"station_id":"ce4bgjh2rcd13ifvqbf0","pricing_plan_id":"free"},{"bike_id":"2e22b897-4f7a-4454-a012-fc4fb81142f9","system_id":"levelo_inurba_marseille","lat":43.292311,"lon":5.360731,"is_reserved":false,"is_disabled":false,"rental_uris":{"android":"levelo://app?vid=2e22b897-4f7a-4454-a012-fc4fb81142f9","ios":"levelo://app?vid=2e22b897-4f7a-4454-a012-fc4fb81142f9"},"vehicle_type_id":"4","last_reported":1703264768,"current_range_meters":18400,"station_id":"ce4bhbh2rcd13ifvqeqg","pricing_plan_id":"free"},{"bike_id":"3ae6684c-01f8-4050-be88-566dbace8a44","system_id":"levelo_inurba_marseille","lat":43.30094,"lon":5.39075,"is_reserved":false,"is_disabled":false,"rental_uris":{"android":"levelo://app?vid=3ae6684c-01f8-4050-be88-566dbace8a44","ios":"levelo://app?vid=3ae6684c-01f8-4050-be88-566dbace8a44"},"vehicle_type_id":"4","last_reported":1703264768,"current_range_meters":18000,"station_id":"ce4bh192rcd13ifvqdb0","pricing_plan_id":"free"},{"bike_id":"557000a1-02d5-45c6-b20c-951b70bf4f82","system_id":"levelo_inurba_marseille","lat":43.30099,"lon":5.390878,"is_reserved":false,"is_disabled":false,"rental_uris":{"android":"levelo://app?vid=557000a1-02d5-45c6-b20c-951b70bf4f82","ios":"levelo://app?vid=557000a1-02d5-45c6-b20c-951b70bf4f82"},"vehicle_type_id":"4","last_reported":1703264768,"current_range_meters":0,"station_id":"","pricing_plan_id":"free"},{"bike_id":"0e8d39bd-c10d-4b27-b8b7-b9bf2c1335e6","system_id":"levelo_inurba_marseille","lat":43.29872,"lon":5.38896,"is_reserved":false,"is_disabled":false,"rental_uris":{"android":"levelo://app?vid=0e8d39bd-c10d-4b27-b8b7-b9bf2c1335e6","ios":"levelo://app?vid=0e8d39bd-c10d-4b27-b8b7-b9bf2c1335e6"},"vehicle_type_id":"4","last_reported":1703264768,"current_range_meters":18000,"station_id":"","pricing_plan_id":"free"},{"bike_id":"a4176ca6-6a77-4576-b3e1-4b48d82d5abb","system_id":"levelo_inurba_marseille","lat":43.2987,"lon":5.38899,"is_reserved":false,"is_disabled":false,"rental_uris":{"android":"levelo://app?vid=a4176ca6-6a77-4576-b3e1-4b48d82d5abb","ios":"levelo://app?vid=a4176ca6-6a77-4576-b3e1-4b48d82d5abb"},"vehicle_type_id":"4","last_reported":1703264768,"current_range_meters":12400,"station_id":"","pricing_plan_id":"free"},{"bike_id":"709cd1f0-d5f6-4a6a-9320-3175e0506ff9","system_id":"levelo_inurba_marseille","lat":43.2987,"lon":5.38903,"is_reserved":false,"is_disabled":false,"rental_uris":{"android":"levelo://app?vid=709cd1f0-d5f6-4a6a-9320-3175e0506ff9","ios":"levelo://app?vid=709cd1f0-d5f6-4a6a-9320-3175e0506ff9"},"vehicle_type_id":"4","last_reported":1703264768,"current_range_meters":20000,"station_id":"","pricing_plan_id":"free"},{"bike_id":"bfeab3b4-00c2-4361-8c01-2d0b50c959af","system_id":"levelo_inurba_marseille","lat":43.30886,"lon":5.39639,"is_reserved":false,"is_disabled":false,"rental_uris":{"android":"levelo://app?vid=bfeab3b4-00c2-4361-8c01-2d0b50c959af","ios":"levelo://app?vid=bfeab3b4-00c2-4361-8c01-2d0b50c959af"},"vehicle_type_id":"4","last_reported":1703264768,"current_range_meters":0,"station_id":"ce4bh012rcd13ifvqcv0","pricing_plan_id":"free"},{"bike_id":"cbc62839-3c9d-4d9e-963f-bbabfe928114","system_id":"levelo_inurba_marseille","lat":43.313291,"lon":5.396838,"is_reserved":false,"is_disabled":false,"rental_uris":{"android":"levelo://app?vid=cbc62839-3c9d-4d9e-963f-bbabfe928114","ios":"levelo://app?vid=cbc62839-3c9d-4d9e-963f-bbabfe928114"},"vehicle_type_id":"4","last_reported":1703264768,"current_range_meters":0,"station_id":"ce4bgvp2rcd13ifvqcu0","pricing_plan_id":"free"},{"bike_id":"fa38fcc7-ca87-4463-a289-03c7cd4e6723","system_id":"levelo_inurba_marseille","lat":43.313291,"lon":5.396838,"is_reserved":false,"is_disabled":false,"rental_uris":{"android":"levelo://app?vid=fa38fcc7-ca87-4463-a289-03c7cd4e6723","ios":"levelo://app?vid=fa38fcc7-ca87-4463-a289-03c7cd4e6723"},"vehicle_type_id":"4","last_reported":1703264768,"current_range_meters":13600,"station_id":"ce4bgvp2rcd13ifvqcu0","pricing_plan_id":"free"},{"bike_id":"a90b8b83-e596-4fc1-8b62-b201f740b064","system_id":"levelo_inurba_marseille","lat":43.313291,"lon":5.396838,"is_reserved":false,"is_disabled":false,"rental_uris":{"android":"levelo://app?vid=a90b8b83-e596-4fc1-8b62-b201f740b064","ios":"levelo://app?vid=a90b8b83-e596-4fc1-8b62-b201f740b064"},"vehicle_type_id":"4","last_reported":1703264768,"current_range_meters":10400,"station_id":"ce4bgvp2rcd13ifvqcu0","pricing_plan_id":"free"},{"bike_id":"78b06166-cd33-40c0-8742-ca216db153b4","system_id":"levelo_inurba_marseille","lat":43.313291,"lon":5.396838,"is_reserved":false,"is_disabled":false,"rental_uris":{"android":"levelo://app?vid=78b06166-cd33-40c0-8742-ca216db153b4","ios":"levelo://app?vid=78b06166-cd33-40c0-8742-ca216db153b4"},"vehicle_type_id":"4","last_reported":1703264768,"current_range_meters":30400,"station_id":"ce4bgvp2rcd13ifvqcu0","pricing_plan_id":"free"},{"bike_id":"c84f4aa9-9d2f-4256-9b2c-a35c628b2523","system_id":"levelo_inurba_marseille","lat":43.31329,"lon":5.39696,"is_reserved":false,"is_disabled":false,"rental_uris":{"android":"levelo://app?vid=c84f4aa9-9d2f-4256-9b2c-a35c628b2523","ios":"levelo://app?vid=c84f4aa9-9d2f-4256-9b2c-a35c628b2523"},"vehicle_type_id":"4","last_reported":1703264768,"current_range_meters":0,"station_id":"ce4bgvp2rcd13ifvqcu0","pricing_plan_id":"free"},{"bike_id":"c4b5c253-f844-42fd-82a6-50cb9b8a64cd","system_id":"levelo_inurba_marseille","lat":43.313291,"lon":5.396838,"is_reserved":false,"is_disabled":false,"rental_uris":{"android":"levelo://app?vid=c4b5c253-f844-42fd-82a6-50cb9b8a64cd","ios":"levelo://app?vid=c4b5c253-f844-42fd-82a6-50cb9b8a64cd"},"vehicle_type_id":"4","last_reported":1703264768,"current_range_meters":30800,"station_id":"ce4bgvp2rcd13ifvqcu0","pricing_plan_id":"free"},{"bike_id":"0004734d-40cc-450b-9fcc-8495b59476fb","system_id":"levelo_inurba_marseille","lat":43.290407,"lon":5.35915,"is_reserved":false,"is_disabled":false,"rental_uris":{"android":"levelo://app?vid=0004734d-40cc-450b-9fcc-8495b59476fb","ios":"levelo://app?vid=0004734d-40cc-450b-9fcc-8495b59476fb"},"vehicle_type_id":"4","last_reported":1703264768,"current_range_meters":0,"station_id":"ce4bha92rcd13ifvqeg0","pricing_plan_id":"free"},{"bike_id":"bf4e01bf-c949-4e20-80b1-446e66a2fd8f","system_id":"levelo_inurba_marseille","lat":43.294162,"lon":5.386292,"is_reserved":false,"is_disabled":false,"rental_uris":{"android":"levelo://app?vid=bf4e01bf-c949-4e20-80b1-446e66a2fd8f","ios":"levelo://app?vid=bf4e01bf-c949-4e20-80b1-446e66a2fd8f"},"vehicle_type_id":"4","last_reported":1703264768,"current_range_meters":25600,"station_id":"ce4bh2h2rcd13ifvqdh0","pricing_plan_id":"free"},{"bike_id":"a661b77a-3cef-4e7d-8b87-26cda7cb3fd6","system_id":"levelo_inurba_marseille","lat":43.294162,"lon":5.386292,"is_reserved":false,"is_disabled":false,"rental_uris":{"android":"levelo://app?vid=a661b77a-3cef-4e7d-8b87-26cda7cb3fd6","ios":"levelo://app?vid=a661b77a-3cef-4e7d-8b87-26cda7cb3fd6"},"vehicle_type_id":"4","last_reported":1703264768,"current_range_meters":3200,"station_id":"ce4bh2h2rcd13ifvqdh0","pricing_plan_id":"free"},{"bike_id":"3c1ee6e7-d7c8-4954-b4de-3a8f9005db79","system_id":"levelo_inurba_marseille","lat":43.294162,"lon":5.386292,"is_reserved":false,"is_disabled":false,"rental_uris":{"android":"levelo://app?vid=3c1ee6e7-d7c8-4954-b4de-3a8f9005db79","ios":"levelo://app?vid=3c1ee6e7-d7c8-4954-b4de-3a8f9005db79"},"vehicle_type_id":"4","last_reported":1703264768,"current_range_meters":0,"station_id":"ce4bh2h2rcd13ifvqdh0","pricing_plan_id":"free"},{"bike_id":"e524f8ed-3c46-49e8-9b21-3c1d7ac00a4f","system_id":"levelo_inurba_marseille","lat":43.292644,"lon":5.384257,"is_reserved":false,"is_disabled":false,"rental_uris":{"android":"levelo://app?vid=e524f8ed-3c46-49e8-9b21-3c1d7ac00a4f","ios":"levelo://app?vid=e524f8ed-3c46-49e8-9b21-3c1d7ac00a4f"},"vehicle_type_id":"4","last_reported":1703264768,"current_range_meters":6800,"station_id":"ce4bh692rcd13ifvqea0","pricing_plan_id":"free"},{"bike_id":"07e68a0c-a494-494d-abde-500ceefed9a3","system_id":"levelo_inurba_marseille","lat":43.292644,"lon":5.384257,"is_reserved":false,"is_disabled":false,"rental_uris":{"android":"levelo://app?vid=07e68a0c-a494-494d-abde-500ceefed9a3","ios":"levelo://app?vid=07e68a0c-a494-494d-abde-500ceefed9a3"},"vehicle_type_id":"4","last_reported":1703264768,"current_range_meters":16800,"station_id":"ce4bh692rcd13ifvqea0","pricing_plan_id":"free"},{"bike_id":"b059c3d1-6293-4b77-9eca-5e124894d90e","system_id":"levelo_inurba_marseille","lat":43.292642,"lon":5.384254,"is_reserved":false,"is_disabled":false,"rental_uris":{"android":"levelo://app?vid=b059c3d1-6293-4b77-9eca-5e124894d90e","ios":"levelo://app?vid=b059c3d1-6293-4b77-9eca-5e124894d90e"},"vehicle_type_id":"4","last_reported":1703264768,"current_range_meters":14400,"station_id":"ce4bh692rcd13ifvqea0","pricing_plan_id":"free"},{"bike_id":"21578691-4551-4092-8d7b-a3928a31c625","system_id":"levelo_inurba_marseille","lat":43.29788,"lon":5.39339,"is_reserved":false,"is_disabled":false,"rental_uris":{"android":"levelo://app?vid=21578691-4551-4092-8d7b-a3928a31c625","ios":"levelo://app?vid=21578691-4551-4092-8d7b-a3928a31c625"},"vehicle_type_id":"4","last_reported":1703264768,"current_range_meters":30000,"station_id":"chh1huq6cuj3fo74tm60","pricing_plan_id":"free"},{"bike_id":"460af855-5e18-4740-a42b-edc08aea66fe","system_id":"levelo_inurba_marseille","lat":43.330442,"lon":5.389148,"is_reserved":false,"is_disabled":false,"rental_uris":{"android":"levelo://app?vid=460af855-5e18-4740-a42b-edc08aea66fe","ios":"levelo://app?vid=460af855-5e18-4740-a42b-edc08aea66fe"},"vehicle_type_id":"4","last_reported":1703264768,"current_range_meters":20800,"station_id":"ce4bhr92rcd13ifvqhrg","pricing_plan_id":"free"},{"bike_id":"c5f6e276-9baa-47a8-b3ae-49b59dfb8840","system_id":"levelo_inurba_marseille","lat":43.29513,"lon":5.39032,"is_reserved":false,"is_disabled":false,"rental_uris":{"android":"levelo://app?vid=c5f6e276-9baa-47a8-b3ae-49b59dfb8840","ios":"levelo://app?vid=c5f6e276-9baa-47a8-b3ae-49b59dfb8840"},"vehicle_type_id":"4","last_reported":1703264768,"current_range_meters":0,"station_id":"ce4bh3p2rcd13ifvqdp0","pricing_plan_id":"free"},{"bike_id":"8516412d-ed1b-43c4-bd1e-951e035510a0","system_id":"levelo_inurba_marseille","lat":43.337355,"lon":5.374602,"is_reserved":false,"is_disabled":false,"rental_uris":{"android":"levelo://app?vid=8516412d-ed1b-43c4-bd1e-951e035510a0","ios":"levelo://app?vid=8516412d-ed1b-43c4-bd1e-951e035510a0"},"vehicle_type_id":"4","last_reported":1703264768,"current_range_meters":11600,"station_id":"ce4rr2p2rcd13i802rgg","pricing_plan_id":"free"},{"bike_id":"b33ac411-3022-4b7f-8fa2-906aea7c3fc7","system_id":"levelo_inurba_marseille","lat":43.312609,"lon":5.401662,"is_reserved":false,"is_disabled":false,"rental_uris":{"android":"levelo://app?vid=b33ac411-3022-4b7f-8fa2-906aea7c3fc7","ios":"levelo://app?vid=b33ac411-3022-4b7f-8fa2-906aea7c3fc7"},"vehicle_type_id":"4","last_reported":1703264768,"current_range_meters":15200,"station_id":"ce4bh092rcd13ifvqd30","pricing_plan_id":"free"},{"bike_id":"2f08b99a-372d-4bdb-ac22-98ca5d6b6c70","system_id":"levelo_inurba_marseille","lat":43.312609,"lon":5.401662,"is_reserved":false,"is_disabled":false,"rental_uris":{"android":"levelo://app?vid=2f08b99a-372d-4bdb-ac22-98ca5d6b6c70","ios":"levelo://app?vid=2f08b99a-372d-4bdb-ac22-98ca5d6b6c70"},"vehicle_type_id":"4","last_reported":1703264768,"current_range_meters":13600,"station_id":"ce4bh092rcd13ifvqd30","pricing_plan_id":"free"},{"bike_id":"248036c1-af81-4d27-9242-6593b46581d0","system_id":"levelo_inurba_marseille","lat":43.337605,"lon":5.374326,"is_reserved":false,"is_disabled":false,"rental_uris":{"android":"levelo://app?vid=248036c1-af81-4d27-9242-6593b46581d0","ios":"levelo://app?vid=248036c1-af81-4d27-9242-6593b46581d0"},"vehicle_type_id":"4","last_reported":1703264768,"current_range_meters":31200,"station_id":"ce4rr2p2rcd13i802rgg","pricing_plan_id":"free"},{"bike_id":"41c046a6-7cba-49c2-8c7a-f269d8a6e461","system_id":"levelo_inurba_marseille","lat":43.337586,"lon":5.374507,"is_reserved":false,"is_disabled":false,"rental_uris":{"android":"levelo://app?vid=41c046a6-7cba-49c2-8c7a-f269d8a6e461","ios":"levelo://app?vid=41c046a6-7cba-49c2-8c7a-f269d8a6e461"},"vehicle_type_id":"4","last_reported":1703264768,"current_range_meters":14400,"station_id":"ce4rr2p2rcd13i802rgg","pricing_plan_id":"free"},{"bike_id":"48361e8a-6fad-43b0-9b77-4696a50c3aea","system_id":"levelo_inurba_marseille","lat":43.337635,"lon":5.374325,"is_reserved":false,"is_disabled":false,"rental_uris":{"android":"levelo://app?vid=48361e8a-6fad-43b0-9b77-4696a50c3aea","ios":"levelo://app?vid=48361e8a-6fad-43b0-9b77-4696a50c3aea"},"vehicle_type_id":"4","last_reported":1703264768,"current_range_meters":12800,"station_id":"ce4rr2p2rcd13i802rgg","pricing_plan_id":"free"},{"bike_id":"e3b05bb2-3bf6-4e93-a935-8d00a3036fa0","system_id":"levelo_inurba_marseille","lat":43.33764,"lon":5.37442,"is_reserved":false,"is_disabled":false,"rental_uris":{"android":"levelo://app?vid=e3b05bb2-3bf6-4e93-a935-8d00a3036fa0","ios":"levelo://app?vid=e3b05bb2-3bf6-4e93-a935-8d00a3036fa0"},"vehicle_type_id":"4","last_reported":1703264768,"current_range_meters":9200,"station_id":"ce4rr2p2rcd13i802rgg","pricing_plan_id":"free"},{"bike_id":"af782aaf-55ff-4275-9a35-1eaf63c3c50f","system_id":"levelo_inurba_marseille","lat":43.33764,"lon":5.37443,"is_reserved":false,"is_disabled":false,"rental_uris":{"android":"levelo://app?vid=af782aaf-55ff-4275-9a35-1eaf63c3c50f","ios":"levelo://app?vid=af782aaf-55ff-4275-9a35-1eaf63c3c50f"},"vehicle_type_id":"4","last_reported":1703264768,"current_range_meters":18000,"station_id":"ce4rr2p2rcd13i802rgg","pricing_plan_id":"free"},{"bike_id":"b9c8fefe-fcf2-4e1c-95c9-c0ffed42221d","system_id":"levelo_inurba_marseille","lat":43.337665,"lon":5.374275,"is_reserved":false,"is_disabled":false,"rental_uris":{"android":"levelo://app?vid=b9c8fefe-fcf2-4e1c-95c9-c0ffed42221d","ios":"levelo://app?vid=b9c8fefe-fcf2-4e1c-95c9-c0ffed42221d"},"vehicle_type_id":"4","last_reported":1703264768,"current_range_meters":4400,"station_id":"ce4rr2p2rcd13i802rgg","pricing_plan_id":"free"},{"bike_id":"7811aa18-a03e-4a2b-a28f-08bba09af440","system_id":"levelo_inurba_marseille","lat":43.30642,"lon":5.401031,"is_reserved":false,"is_disabled":false,"rental_uris":{"android":"levelo://app?vid=7811aa18-a03e-4a2b-a28f-08bba09af440","ios":"levelo://app?vid=7811aa18-a03e-4a2b-a28f-08bba09af440"},"vehicle_type_id":"4","last_reported":1703264768,"current_range_meters":12400,"station_id":"ce4bh112rcd13ifvqda0","pricing_plan_id":"free"},{"bike_id":"db5ccab8-7a8a-4751-a062-0c2ba2bfc08b","system_id":"levelo_inurba_marseille","lat":43.33768,"lon":5.374342,"is_reserved":false,"is_disabled":false,"rental_uris":{"android":"levelo://app?vid=db5ccab8-7a8a-4751-a062-0c2ba2bfc08b","ios":"levelo://app?vid=db5ccab8-7a8a-4751-a062-0c2ba2bfc08b"},"vehicle_type_id":"4","last_reported":1703264768,"current_range_meters":17200,"station_id":"","pricing_plan_id":"free"},{"bike_id":"5f6df711-5c47-41c8-b2e0-ca21db0773eb","system_id":"levelo_inurba_marseille","lat":43.337706,"lon":5.374359,"is_reserved":false,"is_disabled":false,"rental_uris":{"android":"levelo://app?vid=5f6df711-5c47-41c8-b2e0-ca21db0773eb","ios":"levelo://app?vid=5f6df711-5c47-41c8-b2e0-ca21db0773eb"},"vehicle_type_id":"4","last_reported":1703264768,"current_range_meters":22800,"station_id":"","pricing_plan_id":"free"},{"bike_id":"ed03c11c-b2f2-4071-b320-8aa881128fb4","system_id":"levelo_inurba_marseille","lat":43.337711,"lon":5.374356,"is_reserved":false,"is_disabled":false,"rental_uris":{"android":"levelo://app?vid=ed03c11c-b2f2-4071-b320-8aa881128fb4","ios":"levelo://app?vid=ed03c11c-b2f2-4071-b320-8aa881128fb4"},"vehicle_type_id":"4","last_reported":1703264768,"current_range_meters":23600,"station_id":"ce4rr2p2rcd13i802rgg","pricing_plan_id":"free"},{"bike_id":"aa2bb981-e08f-448f-a65e-a15a6461a4f7","system_id":"levelo_inurba_marseille","lat":43.337733,"lon":5.37442,"is_reserved":false,"is_disabled":false,"rental_uris":{"android":"levelo://app?vid=aa2bb981-e08f-448f-a65e-a15a6461a4f7","ios":"levelo://app?vid=aa2bb981-e08f-448f-a65e-a15a6461a4f7"},"vehicle_type_id":"4","last_reported":1703264768,"current_range_meters":16800,"station_id":"ce4rr2p2rcd13i802rgg","pricing_plan_id":"free"},{"bike_id":"34c78df7-f2bb-400e-aef1-c66331cbb061","system_id":"levelo_inurba_marseille","lat":43.306412,"lon":5.401035,"is_reserved":false,"is_disabled":false,"rental_uris":{"android":"levelo://app?vid=34c78df7-f2bb-400e-aef1-c66331cbb061","ios":"levelo://app?vid=34c78df7-f2bb-400e-aef1-c66331cbb061"},"vehicle_type_id":"4","last_reported":1703264768,"current_range_meters":20400,"station_id":"ce4bh112rcd13ifvqda0","pricing_plan_id":"free"},{"bike_id":"4dfd2fe6-d396-45fe-a9f3-2cf80069454a","system_id":"levelo_inurba_marseille","lat":43.337775,"lon":5.37433,"is_reserved":false,"is_disabled":false,"rental_uris":{"android":"levelo://app?vid=4dfd2fe6-d396-45fe-a9f3-2cf80069454a","ios":"levelo://app?vid=4dfd2fe6-d396-45fe-a9f3-2cf80069454a"},"vehicle_type_id":"4","last_reported":1703264768,"current_range_meters":15200,"station_id":"ce4rr2p2rcd13i802rgg","pricing_plan_id":"free"},{"bike_id":"8ed93715-ec1e-4703-acb2-7183fed943a4","system_id":"levelo_inurba_marseille","lat":43.33785,"lon":5.374445,"is_reserved":false,"is_disabled":false,"rental_uris":{"android":"levelo://app?vid=8ed93715-ec1e-4703-acb2-7183fed943a4","ios":"levelo://app?vid=8ed93715-ec1e-4703-acb2-7183fed943a4"},"vehicle_type_id":"4","last_reported":1703264768,"current_range_meters":12400,"station_id":"ce4rr2p2rcd13i802rgg","pricing_plan_id":"free"},{"bike_id":"2972540b-4dd3-4a14-8ecd-db3012f61695","system_id":"levelo_inurba_marseille","lat":43.301117,"lon":5.398795,"is_reserved":false,"is_disabled":false,"rental_uris":{"android":"levelo://app?vid=2972540b-4dd3-4a14-8ecd-db3012f61695","ios":"levelo://app?vid=2972540b-4dd3-4a14-8ecd-db3012f61695"},"vehicle_type_id":"4","last_reported":1703264768,"current_range_meters":21600,"station_id":"ce4bh0h2rcd13ifvqd40","pricing_plan_id":"free"},{"bike_id":"14fdb900-864b-4d0e-84af-3a0f58a9c5c5","system_id":"levelo_inurba_marseille","lat":43.301365,"lon":5.398617,"is_reserved":false,"is_disabled":false,"rental_uris":{"android":"levelo://app?vid=14fdb900-864b-4d0e-84af-3a0f58a9c5c5","ios":"levelo://app?vid=14fdb900-864b-4d0e-84af-3a0f58a9c5c5"},"vehicle_type_id":"4","last_reported":1703264768,"current_range_meters":22000,"station_id":"ce4bh0h2rcd13ifvqd40","pricing_plan_id":"free"},{"bike_id":"3ca5e681-f073-4009-af86-95f93f5da6e9","system_id":"levelo_inurba_marseille","lat":43.286591,"lon":5.363346,"is_reserved":false,"is_disabled":false,"rental_uris":{"android":"levelo://app?vid=3ca5e681-f073-4009-af86-95f93f5da6e9","ios":"levelo://app?vid=3ca5e681-f073-4009-af86-95f93f5da6e9"},"vehicle_type_id":"4","last_reported":1703264768,"current_range_meters":13600,"station_id":"ce4bhah2rcd13ifvqej0","pricing_plan_id":"free"},{"bike_id":"0d76ffc3-59d8-4ef9-94b5-e1a0c7b8bd3f","system_id":"levelo_inurba_marseille","lat":43.28706,"lon":5.37382,"is_reserved":false,"is_disabled":false,"rental_uris":{"android":"levelo://app?vid=0d76ffc3-59d8-4ef9-94b5-e1a0c7b8bd3f","ios":"levelo://app?vid=0d76ffc3-59d8-4ef9-94b5-e1a0c7b8bd3f"},"vehicle_type_id":"4","last_reported":1703264768,"current_range_meters":0,"station_id":"ce4bh3p2rcd13ifvqdq0","pricing_plan_id":"free"},{"bike_id":"a3b8f2a1-77d7-4fa1-89bc-c6859885bf6d","system_id":"levelo_inurba_marseille","lat":43.286961,"lon":5.373785,"is_reserved":false,"is_disabled":false,"rental_uris":{"android":"levelo://app?vid=a3b8f2a1-77d7-4fa1-89bc-c6859885bf6d","ios":"levelo://app?vid=a3b8f2a1-77d7-4fa1-89bc-c6859885bf6d"},"vehicle_type_id":"4","last_reported":1703264768,"current_range_meters":27200,"station_id":"ce4bh3p2rcd13ifvqdq0","pricing_plan_id":"free"},{"bike_id":"eef353c6-d779-40d1-ba26-2750963173c1","system_id":"levelo_inurba_marseille","lat":43.298681,"lon":5.397225,"is_reserved":false,"is_disabled":false,"rental_uris":{"android":"levelo://app?vid=eef353c6-d779-40d1-ba26-2750963173c1","ios":"levelo://app?vid=eef353c6-d779-40d1-ba26-2750963173c1"},"vehicle_type_id":"4","last_reported":1703264768,"current_range_meters":3600,"station_id":"ce4bh0h2rcd13ifvqd50","pricing_plan_id":"free"},{"bike_id":"575f5b89-8c71-467a-8824-16e1299aa9fb","system_id":"levelo_inurba_marseille","lat":43.298681,"lon":5.397225,"is_reserved":false,"is_disabled":false,"rental_uris":{"android":"levelo://app?vid=575f5b89-8c71-467a-8824-16e1299aa9fb","ios":"levelo://app?vid=575f5b89-8c71-467a-8824-16e1299aa9fb"},"vehicle_type_id":"4","last_reported":1703264768,"current_range_meters":0,"station_id":"ce4bh0h2rcd13ifvqd50","pricing_plan_id":"free"},{"bike_id":"87fe6ed6-5ff5-4095-bc1c-5f2f657b0204","system_id":"levelo_inurba_marseille","lat":43.287001,"lon":5.373853,"is_reserved":false,"is_disabled":false,"rental_uris":{"android":"levelo://app?vid=87fe6ed6-5ff5-4095-bc1c-5f2f657b0204","ios":"levelo://app?vid=87fe6ed6-5ff5-4095-bc1c-5f2f657b0204"},"vehicle_type_id":"4","last_reported":1703264768,"current_range_meters":6000,"station_id":"","pricing_plan_id":"free"},{"bike_id":"29121033-4c68-4cb7-b25f-e5becfe7c528","system_id":"levelo_inurba_marseille","lat":43.286618,"lon":5.363546,"is_reserved":false,"is_disabled":false,"rental_uris":{"android":"levelo://app?vid=29121033-4c68-4cb7-b25f-e5becfe7c528","ios":"levelo://app?vid=29121033-4c68-4cb7-b25f-e5becfe7c528"},"vehicle_type_id":"4","last_reported":1703264768,"current_range_meters":0,"station_id":"ce4bhah2rcd13ifvqej0","pricing_plan_id":"free"},{"bike_id":"780443a3-dc52-4f71-a89e-6255abac5390","system_id":"levelo_inurba_marseille","lat":43.302759,"lon":5.400793,"is_reserved":false,"is_disabled":false,"rental_uris":{"android":"levelo://app?vid=780443a3-dc52-4f71-a89e-6255abac5390","ios":"levelo://app?vid=780443a3-dc52-4f71-a89e-6255abac5390"},"vehicle_type_id":"4","last_reported":1703264768,"current_range_meters":1200,"station_id":"ce4bgvh2rcd13ifvqcs0","pricing_plan_id":"free"},{"bike_id":"4e71b08e-f33a-49d9-ba8d-698ce8ffbba5","system_id":"levelo_inurba_marseille","lat":43.302759,"lon":5.400793,"is_reserved":false,"is_disabled":false,"rental_uris":{"android":"levelo://app?vid=4e71b08e-f33a-49d9-ba8d-698ce8ffbba5","ios":"levelo://app?vid=4e71b08e-f33a-49d9-ba8d-698ce8ffbba5"},"vehicle_type_id":"4","last_reported":1703264768,"current_range_meters":21200,"station_id":"ce4bgvh2rcd13ifvqcs0","pricing_plan_id":"free"},{"bike_id":"62505184-ecdd-4b6a-90e2-018ae89a5f61","system_id":"levelo_inurba_marseille","lat":43.286039,"lon":5.370679,"is_reserved":false,"is_disabled":false,"rental_uris":{"android":"levelo://app?vid=62505184-ecdd-4b6a-90e2-018ae89a5f61","ios":"levelo://app?vid=62505184-ecdd-4b6a-90e2-018ae89a5f61"},"vehicle_type_id":"4","last_reported":1703264768,"current_range_meters":19200,"station_id":"ce4bht12rcd13ifvqi60","pricing_plan_id":"free"},{"bike_id":"bbd8e328-bece-4fc4-835d-94a1a886fe34","system_id":"levelo_inurba_marseille","lat":43.287184,"lon":5.37937,"is_reserved":false,"is_disabled":false,"rental_uris":{"android":"levelo://app?vid=bbd8e328-bece-4fc4-835d-94a1a886fe34","ios":"levelo://app?vid=bbd8e328-bece-4fc4-835d-94a1a886fe34"},"vehicle_type_id":"4","last_reported":1703264768,"current_range_meters":24000,"station_id":"ce4bh9p2rcd13ifvqec0","pricing_plan_id":"free"},{"bike_id":"35626461-9086-4717-b083-e4f7c7dc682f","system_id":"levelo_inurba_marseille","lat":43.287207,"lon":5.379377,"is_reserved":false,"is_disabled":false,"rental_uris":{"android":"levelo://app?vid=35626461-9086-4717-b083-e4f7c7dc682f","ios":"levelo://app?vid=35626461-9086-4717-b083-e4f7c7dc682f"},"vehicle_type_id":"4","last_reported":1703264768,"current_range_meters":9600,"station_id":"ce4bh9p2rcd13ifvqec0","pricing_plan_id":"free"},{"bike_id":"6edcf796-0ac1-47d3-bcb0-ef4ee74e88aa","system_id":"levelo_inurba_marseille","lat":43.291994,"lon":5.392907,"is_reserved":false,"is_disabled":false,"rental_uris":{"android":"levelo://app?vid=6edcf796-0ac1-47d3-bcb0-ef4ee74e88aa","ios":"levelo://app?vid=6edcf796-0ac1-47d3-bcb0-ef4ee74e88aa"},"vehicle_type_id":"4","last_reported":1703264768,"current_range_meters":1600,"station_id":"ce4bh192rcd13ifvqdd0","pricing_plan_id":"free"},{"bike_id":"ccd5bbbb-170e-4777-906f-d918836fc608","system_id":"levelo_inurba_marseille","lat":43.291994,"lon":5.392907,"is_reserved":false,"is_disabled":false,"rental_uris":{"android":"levelo://app?vid=ccd5bbbb-170e-4777-906f-d918836fc608","ios":"levelo://app?vid=ccd5bbbb-170e-4777-906f-d918836fc608"},"vehicle_type_id":"4","last_reported":1703264768,"current_range_meters":31600,"station_id":"ce4bh192rcd13ifvqdd0","pricing_plan_id":"free"},{"bike_id":"b7e40bc8-261a-4a40-86a2-2d4057ab3262","system_id":"levelo_inurba_marseille","lat":43.291994,"lon":5.392907,"is_reserved":false,"is_disabled":false,"rental_uris":{"android":"levelo://app?vid=b7e40bc8-261a-4a40-86a2-2d4057ab3262","ios":"levelo://app?vid=b7e40bc8-261a-4a40-86a2-2d4057ab3262"},"vehicle_type_id":"4","last_reported":1703264768,"current_range_meters":30400,"station_id":"ce4bh192rcd13ifvqdd0","pricing_plan_id":"free"},{"bike_id":"e2adfa7c-882e-48a1-9ee4-b36e6186ebbf","system_id":"levelo_inurba_marseille","lat":43.330912,"lon":5.396935,"is_reserved":false,"is_disabled":false,"rental_uris":{"android":"levelo://app?vid=e2adfa7c-882e-48a1-9ee4-b36e6186ebbf","ios":"levelo://app?vid=e2adfa7c-882e-48a1-9ee4-b36e6186ebbf"},"vehicle_type_id":"4","last_reported":1703264768,"current_range_meters":17600,"station_id":"","pricing_plan_id":"free"},{"bike_id":"68c7d980-5a76-4417-87bd-643fa064eb78","system_id":"levelo_inurba_marseille","lat":43.302759,"lon":5.400793,"is_reserved":false,"is_disabled":false,"rental_uris":{"android":"levelo://app?vid=68c7d980-5a76-4417-87bd-643fa064eb78","ios":"levelo://app?vid=68c7d980-5a76-4417-87bd-643fa064eb78"},"vehicle_type_id":"4","last_reported":1703264768,"current_range_meters":7600,"station_id":"ce4bgvh2rcd13ifvqcs0","pricing_plan_id":"free"},{"bike_id":"b58c266e-5a67-4977-97d6-68ed614052cf","system_id":"levelo_inurba_marseille","lat":43.284538,"lon":5.358657,"is_reserved":false,"is_disabled":false,"rental_uris":{"android":"levelo://app?vid=b58c266e-5a67-4977-97d6-68ed614052cf","ios":"levelo://app?vid=b58c266e-5a67-4977-97d6-68ed614052cf"},"vehicle_type_id":"4","last_reported":1703264768,"current_range_meters":22800,"station_id":"ce4bhah2rcd13ifvqei0","pricing_plan_id":"free"},{"bike_id":"352cad74-1610-4c26-82a3-d7d472476246","system_id":"levelo_inurba_marseille","lat":43.284534,"lon":5.358662,"is_reserved":false,"is_disabled":false,"rental_uris":{"android":"levelo://app?vid=352cad74-1610-4c26-82a3-d7d472476246","ios":"levelo://app?vid=352cad74-1610-4c26-82a3-d7d472476246"},"vehicle_type_id":"4","last_reported":1703264768,"current_range_meters":25200,"station_id":"ce4bhah2rcd13ifvqei0","pricing_plan_id":"free"},{"bike_id":"c4917dc1-345c-4f72-936b-fc63911f55b0","system_id":"levelo_inurba_marseille","lat":43.284534,"lon":5.358662,"is_reserved":false,"is_disabled":false,"rental_uris":{"android":"levelo://app?vid=c4917dc1-345c-4f72-936b-fc63911f55b0","ios":"levelo://app?vid=c4917dc1-345c-4f72-936b-fc63911f55b0"},"vehicle_type_id":"4","last_reported":1703264768,"current_range_meters":19600,"station_id":"ce4bhah2rcd13ifvqei0","pricing_plan_id":"free"},{"bike_id":"df618aa9-fcc3-4fee-ad1b-036f9791cd9c","system_id":"levelo_inurba_marseille","lat":43.284538,"lon":5.358657,"is_reserved":false,"is_disabled":false,"rental_uris":{"android":"levelo://app?vid=df618aa9-fcc3-4fee-ad1b-036f9791cd9c","ios":"levelo://app?vid=df618aa9-fcc3-4fee-ad1b-036f9791cd9c"},"vehicle_type_id":"4","last_reported":1703264768,"current_range_meters":20000,"station_id":"ce4bhah2rcd13ifvqei0","pricing_plan_id":"free"},{"bike_id":"116f5a49-86cd-4201-b72b-02493325c701","system_id":"levelo_inurba_marseille","lat":43.284534,"lon":5.358662,"is_reserved":false,"is_disabled":false,"rental_uris":{"android":"levelo://app?vid=116f5a49-86cd-4201-b72b-02493325c701","ios":"levelo://app?vid=116f5a49-86cd-4201-b72b-02493325c701"},"vehicle_type_id":"4","last_reported":1703264768,"current_range_meters":10000,"station_id":"ce4bhah2rcd13ifvqei0","pricing_plan_id":"free"},{"bike_id":"462e3507-2c93-43e7-bb58-f171f77afc8d","system_id":"levelo_inurba_marseille","lat":43.294314,"lon":5.397498,"is_reserved":false,"is_disabled":false,"rental_uris":{"android":"levelo://app?vid=462e3507-2c93-43e7-bb58-f171f77afc8d","ios":"levelo://app?vid=462e3507-2c93-43e7-bb58-f171f77afc8d"},"vehicle_type_id":"4","last_reported":1703264768,"current_range_meters":24400,"station_id":"ce4bh3h2rcd13ifvqdo0","pricing_plan_id":"free"},{"bike_id":"c7135c5d-c16b-4785-917d-d24d5db22e01","system_id":"levelo_inurba_marseille","lat":43.284538,"lon":5.358657,"is_reserved":false,"is_disabled":false,"rental_uris":{"android":"levelo://app?vid=c7135c5d-c16b-4785-917d-d24d5db22e01","ios":"levelo://app?vid=c7135c5d-c16b-4785-917d-d24d5db22e01"},"vehicle_type_id":"4","last_reported":1703264768,"current_range_meters":18800,"station_id":"ce4bhah2rcd13ifvqei0","pricing_plan_id":"free"},{"bike_id":"70ec93ed-fd5e-4cd5-99b5-41d7b0780674","system_id":"levelo_inurba_marseille","lat":43.294314,"lon":5.397498,"is_reserved":false,"is_disabled":false,"rental_uris":{"android":"levelo://app?vid=70ec93ed-fd5e-4cd5-99b5-41d7b0780674","ios":"levelo://app?vid=70ec93ed-fd5e-4cd5-99b5-41d7b0780674"},"vehicle_type_id":"4","last_reported":1703264768,"current_range_meters":26800,"station_id":"ce4bh3h2rcd13ifvqdo0","pricing_plan_id":"free"},{"bike_id":"6681f091-8cae-40db-82be-2afedc79afec","system_id":"levelo_inurba_marseille","lat":43.297886,"lon":5.401048,"is_reserved":false,"is_disabled":false,"rental_uris":{"android":"levelo://app?vid=6681f091-8cae-40db-82be-2afedc79afec","ios":"levelo://app?vid=6681f091-8cae-40db-82be-2afedc79afec"},"vehicle_type_id":"4","last_reported":1703264768,"current_range_meters":5600,"station_id":"","pricing_plan_id":"free"},{"bike_id":"dba2967a-9594-4cdb-8306-ce66615749f0","system_id":"levelo_inurba_marseille","lat":43.294314,"lon":5.397498,"is_reserved":false,"is_disabled":false,"rental_uris":{"android":"levelo://app?vid=dba2967a-9594-4cdb-8306-ce66615749f0","ios":"levelo://app?vid=dba2967a-9594-4cdb-8306-ce66615749f0"},"vehicle_type_id":"4","last_reported":1703264768,"current_range_meters":5200,"station_id":"ce4bh3h2rcd13ifvqdo0","pricing_plan_id":"free"},{"bike_id":"4cbba94f-0f8a-459d-bdb8-04d7c647e90b","system_id":"levelo_inurba_marseille","lat":43.285856,"lon":5.350771,"is_reserved":false,"is_disabled":false,"rental_uris":{"android":"levelo://app?vid=4cbba94f-0f8a-459d-bdb8-04d7c647e90b","ios":"levelo://app?vid=4cbba94f-0f8a-459d-bdb8-04d7c647e90b"},"vehicle_type_id":"4","last_reported":1703264768,"current_range_meters":30800,"station_id":"ce4bhch2rcd13ifvqeug","pricing_plan_id":"free"},{"bike_id":"817ebf8a-e216-4510-a414-6605a02c6d24","system_id":"levelo_inurba_marseille","lat":43.285856,"lon":5.350771,"is_reserved":false,"is_disabled":false,"rental_uris":{"android":"levelo://app?vid=817ebf8a-e216-4510-a414-6605a02c6d24","ios":"levelo://app?vid=817ebf8a-e216-4510-a414-6605a02c6d24"},"vehicle_type_id":"4","last_reported":1703264768,"current_range_meters":31200,"station_id":"ce4bhch2rcd13ifvqeug","pricing_plan_id":"free"},{"bike_id":"b5d8175d-d9fe-4c40-99bc-002ccb55dc44","system_id":"levelo_inurba_marseille","lat":43.28735,"lon":5.38902,"is_reserved":false,"is_disabled":false,"rental_uris":{"android":"levelo://app?vid=b5d8175d-d9fe-4c40-99bc-002ccb55dc44","ios":"levelo://app?vid=b5d8175d-d9fe-4c40-99bc-002ccb55dc44"},"vehicle_type_id":"4","last_reported":1703264768,"current_range_meters":800,"station_id":"","pricing_plan_id":"free"},{"bike_id":"466773aa-9016-44e1-93cb-7486a7111ea0","system_id":"levelo_inurba_marseille","lat":43.323464,"lon":5.406297,"is_reserved":false,"is_disabled":false,"rental_uris":{"android":"levelo://app?vid=466773aa-9016-44e1-93cb-7486a7111ea0","ios":"levelo://app?vid=466773aa-9016-44e1-93cb-7486a7111ea0"},"vehicle_type_id":"4","last_reported":1703264768,"current_range_meters":6000,"station_id":"ce4bhq92rcd13ifvqhjg","pricing_plan_id":"free"},{"bike_id":"3b7e3ec0-988e-4aeb-bcf3-3017c628b5d3","system_id":"levelo_inurba_marseille","lat":43.33717,"lon":5.391857,"is_reserved":false,"is_disabled":false,"rental_uris":{"android":"levelo://app?vid=3b7e3ec0-988e-4aeb-bcf3-3017c628b5d3","ios":"levelo://app?vid=3b7e3ec0-988e-4aeb-bcf3-3017c628b5d3"},"vehicle_type_id":"4","last_reported":1703264768,"current_range_meters":26800,"station_id":"ce4bhr92rcd13ifvqhsg","pricing_plan_id":"free"},{"bike_id":"b7c71217-6fce-490c-9bd4-073ff8143718","system_id":"levelo_inurba_marseille","lat":43.33717,"lon":5.391857,"is_reserved":false,"is_disabled":false,"rental_uris":{"android":"levelo://app?vid=b7c71217-6fce-490c-9bd4-073ff8143718","ios":"levelo://app?vid=b7c71217-6fce-490c-9bd4-073ff8143718"},"vehicle_type_id":"4","last_reported":1703264768,"current_range_meters":8400,"station_id":"ce4bhr92rcd13ifvqhsg","pricing_plan_id":"free"},{"bike_id":"e4558259-d634-4f02-b1ac-ed5d44525078","system_id":"levelo_inurba_marseille","lat":43.323464,"lon":5.406297,"is_reserved":false,"is_disabled":false,"rental_uris":{"android":"levelo://app?vid=e4558259-d634-4f02-b1ac-ed5d44525078","ios":"levelo://app?vid=e4558259-d634-4f02-b1ac-ed5d44525078"},"vehicle_type_id":"4","last_reported":1703264768,"current_range_meters":30800,"station_id":"ce4bhq92rcd13ifvqhjg","pricing_plan_id":"free"},{"bike_id":"e5145a44-688c-421a-9e99-b1d2f4d16973","system_id":"levelo_inurba_marseille","lat":43.29795,"lon":5.404086,"is_reserved":false,"is_disabled":false,"rental_uris":{"android":"levelo://app?vid=e5145a44-688c-421a-9e99-b1d2f4d16973","ios":"levelo://app?vid=e5145a44-688c-421a-9e99-b1d2f4d16973"},"vehicle_type_id":"4","last_reported":1703264768,"current_range_meters":23600,"station_id":"ce4bh112rcd13ifvqd90","pricing_plan_id":"free"},{"bike_id":"d06619a0-9c96-4da8-a8dd-d9262ff06ca3","system_id":"levelo_inurba_marseille","lat":43.283494,"lon":5.380945,"is_reserved":false,"is_disabled":false,"rental_uris":{"android":"levelo://app?vid=d06619a0-9c96-4da8-a8dd-d9262ff06ca3","ios":"levelo://app?vid=d06619a0-9c96-4da8-a8dd-d9262ff06ca3"},"vehicle_type_id":"4","last_reported":1703264768,"current_range_meters":10000,"station_id":"ce4bh412rcd13ifvqdr0","pricing_plan_id":"free"},{"bike_id":"75f74555-80dc-411b-978d-265d4d91ba26","system_id":"levelo_inurba_marseille","lat":43.288417,"lon":5.393187,"is_reserved":false,"is_disabled":false,"rental_uris":{"android":"levelo://app?vid=75f74555-80dc-411b-978d-265d4d91ba26","ios":"levelo://app?vid=75f74555-80dc-411b-978d-265d4d91ba26"},"vehicle_type_id":"4","last_reported":1703264768,"current_range_meters":0,"station_id":"ce4bh2p2rcd13ifvqdi0","pricing_plan_id":"free"},{"bike_id":"9ec10e24-24ed-4255-874d-b5cab2b57223","system_id":"levelo_inurba_marseille","lat":43.284217,"lon":5.349697,"is_reserved":false,"is_disabled":false,"rental_uris":{"android":"levelo://app?vid=9ec10e24-24ed-4255-874d-b5cab2b57223","ios":"levelo://app?vid=9ec10e24-24ed-4255-874d-b5cab2b57223"},"vehicle_type_id":"4","last_reported":1703264768,"current_range_meters":25600,"station_id":"ce4bhbh2rcd13ifvqepg","pricing_plan_id":"free"},{"bike_id":"9164d9dd-057f-4a1a-8737-197b60c32400","system_id":"levelo_inurba_marseille","lat":43.28039,"lon":5.369297,"is_reserved":false,"is_disabled":false,"rental_uris":{"android":"levelo://app?vid=9164d9dd-057f-4a1a-8737-197b60c32400","ios":"levelo://app?vid=9164d9dd-057f-4a1a-8737-197b60c32400"},"vehicle_type_id":"4","last_reported":1703264768,"current_range_meters":5600,"station_id":"ce4bha12rcd13ifvqef0","pricing_plan_id":"free"},{"bike_id":"0c07039d-f042-4577-ad3b-2eb17b5732ec","system_id":"levelo_inurba_marseille","lat":43.28272,"lon":5.35073,"is_reserved":false,"is_disabled":false,"rental_uris":{"android":"levelo://app?vid=0c07039d-f042-4577-ad3b-2eb17b5732ec","ios":"levelo://app?vid=0c07039d-f042-4577-ad3b-2eb17b5732ec"},"vehicle_type_id":"4","last_reported":1703264768,"current_range_meters":11200,"station_id":"ce4bhbp2rcd13ifvqerg","pricing_plan_id":"free"},{"bike_id":"5dfbda82-9999-48e9-9779-7781fbf040e2","system_id":"levelo_inurba_marseille","lat":43.2827,"lon":5.3507,"is_reserved":false,"is_disabled":false,"rental_uris":{"android":"levelo://app?vid=5dfbda82-9999-48e9-9779-7781fbf040e2","ios":"levelo://app?vid=5dfbda82-9999-48e9-9779-7781fbf040e2"},"vehicle_type_id":"4","last_reported":1703264768,"current_range_meters":30800,"station_id":"ce4bhbp2rcd13ifvqerg","pricing_plan_id":"free"},{"bike_id":"d332ec10-17d6-45fe-968e-61437c93c8fc","system_id":"levelo_inurba_marseille","lat":43.282744,"lon":5.350533,"is_reserved":false,"is_disabled":false,"rental_uris":{"android":"levelo://app?vid=d332ec10-17d6-45fe-968e-61437c93c8fc","ios":"levelo://app?vid=d332ec10-17d6-45fe-968e-61437c93c8fc"},"vehicle_type_id":"4","last_reported":1703264768,"current_range_meters":20400,"station_id":"ce4bhbp2rcd13ifvqerg","pricing_plan_id":"free"},{"bike_id":"21b26dac-c3db-4fb7-8981-4ad7f1629d93","system_id":"levelo_inurba_marseille","lat":43.28272,"lon":5.35061,"is_reserved":false,"is_disabled":false,"rental_uris":{"android":"levelo://app?vid=21b26dac-c3db-4fb7-8981-4ad7f1629d93","ios":"levelo://app?vid=21b26dac-c3db-4fb7-8981-4ad7f1629d93"},"vehicle_type_id":"4","last_reported":1703264768,"current_range_meters":24000,"station_id":"ce4bhbp2rcd13ifvqerg","pricing_plan_id":"free"},{"bike_id":"7b9b7364-5ab5-4958-b8d3-2ce102e8228b","system_id":"levelo_inurba_marseille","lat":43.28271,"lon":5.35064,"is_reserved":false,"is_disabled":false,"rental_uris":{"android":"levelo://app?vid=7b9b7364-5ab5-4958-b8d3-2ce102e8228b","ios":"levelo://app?vid=7b9b7364-5ab5-4958-b8d3-2ce102e8228b"},"vehicle_type_id":"4","last_reported":1703264768,"current_range_meters":25600,"station_id":"ce4bhbp2rcd13ifvqerg","pricing_plan_id":"free"},{"bike_id":"9055ca72-0b15-41da-abc1-0d01dd44c2f7","system_id":"levelo_inurba_marseille","lat":43.28268,"lon":5.3507,"is_reserved":false,"is_disabled":false,"rental_uris":{"android":"levelo://app?vid=9055ca72-0b15-41da-abc1-0d01dd44c2f7","ios":"levelo://app?vid=9055ca72-0b15-41da-abc1-0d01dd44c2f7"},"vehicle_type_id":"4","last_reported":1703264768,"current_range_meters":25600,"station_id":"ce4bhbp2rcd13ifvqerg","pricing_plan_id":"free"},{"bike_id":"cafe9907-7d49-4973-9e8c-95f9ef61f63a","system_id":"levelo_inurba_marseille","lat":43.28267,"lon":5.3507,"is_reserved":false,"is_disabled":false,"rental_uris":{"android":"levelo://app?vid=cafe9907-7d49-4973-9e8c-95f9ef61f63a","ios":"levelo://app?vid=cafe9907-7d49-4973-9e8c-95f9ef61f63a"},"vehicle_type_id":"4","last_reported":1703264768,"current_range_meters":19200,"station_id":"ce4bhbp2rcd13ifvqerg","pricing_plan_id":"free"},{"bike_id":"7054a930-e9e7-4d41-9e2b-41f0a98eceda","system_id":"levelo_inurba_marseille","lat":43.28267,"lon":5.35069,"is_reserved":false,"is_disabled":false,"rental_uris":{"android":"levelo://app?vid=7054a930-e9e7-4d41-9e2b-41f0a98eceda","ios":"levelo://app?vid=7054a930-e9e7-4d41-9e2b-41f0a98eceda"},"vehicle_type_id":"4","last_reported":1703264768,"current_range_meters":26000,"station_id":"ce4bhbp2rcd13ifvqerg","pricing_plan_id":"free"},{"bike_id":"0d2a3d34-f60f-4e8e-8e14-8c50bd340f3e","system_id":"levelo_inurba_marseille","lat":43.283502,"lon":5.386471,"is_reserved":false,"is_disabled":false,"rental_uris":{"android":"levelo://app?vid=0d2a3d34-f60f-4e8e-8e14-8c50bd340f3e","ios":"levelo://app?vid=0d2a3d34-f60f-4e8e-8e14-8c50bd340f3e"},"vehicle_type_id":"4","last_reported":1703264768,"current_range_meters":0,"station_id":"ce4bh492rcd13ifvqdvg","pricing_plan_id":"free"},{"bike_id":"0bb11488-f524-43ac-b0ef-26d7b8df5763","system_id":"levelo_inurba_marseille","lat":43.28263,"lon":5.35067,"is_reserved":false,"is_disabled":false,"rental_uris":{"android":"levelo://app?vid=0bb11488-f524-43ac-b0ef-26d7b8df5763","ios":"levelo://app?vid=0bb11488-f524-43ac-b0ef-26d7b8df5763"},"vehicle_type_id":"4","last_reported":1703264768,"current_range_meters":12400,"station_id":"ce4bhbp2rcd13ifvqerg","pricing_plan_id":"free"},{"bike_id":"1bb9feff-3e8b-46d2-8c5c-420eb3be4d2c","system_id":"levelo_inurba_marseille","lat":43.28039,"lon":5.369297,"is_reserved":false,"is_disabled":false,"rental_uris":{"android":"levelo://app?vid=1bb9feff-3e8b-46d2-8c5c-420eb3be4d2c","ios":"levelo://app?vid=1bb9feff-3e8b-46d2-8c5c-420eb3be4d2c"},"vehicle_type_id":"4","last_reported":1703264768,"current_range_meters":18000,"station_id":"ce4bha12rcd13ifvqef0","pricing_plan_id":"free"},{"bike_id":"82c2acc7-6769-4898-a529-ddaf76dca8dc","system_id":"levelo_inurba_marseille","lat":43.296263,"lon":5.40601,"is_reserved":false,"is_disabled":false,"rental_uris":{"android":"levelo://app?vid=82c2acc7-6769-4898-a529-ddaf76dca8dc","ios":"levelo://app?vid=82c2acc7-6769-4898-a529-ddaf76dca8dc"},"vehicle_type_id":"4","last_reported":1703264768,"current_range_meters":1200,"station_id":"ce4bh0h2rcd13ifvqd60","pricing_plan_id":"free"},{"bike_id":"1b929b5c-e3e7-48fa-964c-c93541da2d9e","system_id":"levelo_inurba_marseille","lat":43.284462,"lon":5.392121,"is_reserved":false,"is_disabled":false,"rental_uris":{"android":"levelo://app?vid=1b929b5c-e3e7-48fa-964c-c93541da2d9e","ios":"levelo://app?vid=1b929b5c-e3e7-48fa-964c-c93541da2d9e"},"vehicle_type_id":"4","last_reported":1703264768,"current_range_meters":7200,"station_id":"ce4bhoh2rcd13ifvqh5g","pricing_plan_id":"free"},{"bike_id":"2dce41b4-f1e9-4565-979b-d206af37124f","system_id":"levelo_inurba_marseille","lat":43.326605,"lon":5.409903,"is_reserved":false,"is_disabled":false,"rental_uris":{"android":"levelo://app?vid=2dce41b4-f1e9-4565-979b-d206af37124f","ios":"levelo://app?vid=2dce41b4-f1e9-4565-979b-d206af37124f"},"vehicle_type_id":"4","last_reported":1703264768,"current_range_meters":29200,"station_id":"ce4bhpp2rcd13ifvqhgg","pricing_plan_id":"free"},{"bike_id":"dd0eec32-78c3-4a8e-a212-15e3ec4908d3","system_id":"levelo_inurba_marseille","lat":43.326605,"lon":5.409903,"is_reserved":false,"is_disabled":false,"rental_uris":{"android":"levelo://app?vid=dd0eec32-78c3-4a8e-a212-15e3ec4908d3","ios":"levelo://app?vid=dd0eec32-78c3-4a8e-a212-15e3ec4908d3"},"vehicle_type_id":"4","last_reported":1703264768,"current_range_meters":4000,"station_id":"ce4bhpp2rcd13ifvqhgg","pricing_plan_id":"free"},{"bike_id":"e2543a4e-e066-488e-bfbe-4955c2c6c028","system_id":"levelo_inurba_marseille","lat":43.304188,"lon":5.412904,"is_reserved":false,"is_disabled":false,"rental_uris":{"android":"levelo://app?vid=e2543a4e-e066-488e-bfbe-4955c2c6c028","ios":"levelo://app?vid=e2543a4e-e066-488e-bfbe-4955c2c6c028"},"vehicle_type_id":"4","last_reported":1703264768,"current_range_meters":23600,"station_id":"ce4bhop2rcd13ifvqh8g","pricing_plan_id":"free"},{"bike_id":"7f89473b-4ee2-4ba8-86bf-bc53e18d4702","system_id":"levelo_inurba_marseille","lat":43.304188,"lon":5.412904,"is_reserved":false,"is_disabled":false,"rental_uris":{"android":"levelo://app?vid=7f89473b-4ee2-4ba8-86bf-bc53e18d4702","ios":"levelo://app?vid=7f89473b-4ee2-4ba8-86bf-bc53e18d4702"},"vehicle_type_id":"4","last_reported":1703264768,"current_range_meters":4000,"station_id":"ce4bhop2rcd13ifvqh8g","pricing_plan_id":"free"},{"bike_id":"25533977-d396-43bc-bfb5-ebb3b51e6c4b","system_id":"levelo_inurba_marseille","lat":43.304188,"lon":5.412904,"is_reserved":false,"is_disabled":false,"rental_uris":{"android":"levelo://app?vid=25533977-d396-43bc-bfb5-ebb3b51e6c4b","ios":"levelo://app?vid=25533977-d396-43bc-bfb5-ebb3b51e6c4b"},"vehicle_type_id":"4","last_reported":1703264768,"current_range_meters":22800,"station_id":"ce4bhop2rcd13ifvqh8g","pricing_plan_id":"free"},{"bike_id":"2994219f-f282-434d-a4a5-dcac2f9151e5","system_id":"levelo_inurba_marseille","lat":43.304188,"lon":5.412904,"is_reserved":false,"is_disabled":false,"rental_uris":{"android":"levelo://app?vid=2994219f-f282-434d-a4a5-dcac2f9151e5","ios":"levelo://app?vid=2994219f-f282-434d-a4a5-dcac2f9151e5"},"vehicle_type_id":"4","last_reported":1703264768,"current_range_meters":14800,"station_id":"ce4bhop2rcd13ifvqh8g","pricing_plan_id":"free"},{"bike_id":"f2a735b9-b183-4b03-acbe-8b823bd40b24","system_id":"levelo_inurba_marseille","lat":43.304188,"lon":5.412904,"is_reserved":false,"is_disabled":false,"rental_uris":{"android":"levelo://app?vid=f2a735b9-b183-4b03-acbe-8b823bd40b24","ios":"levelo://app?vid=f2a735b9-b183-4b03-acbe-8b823bd40b24"},"vehicle_type_id":"4","last_reported":1703264768,"current_range_meters":31200,"station_id":"ce4bhop2rcd13ifvqh8g","pricing_plan_id":"free"},{"bike_id":"3facbe4d-388c-40d0-82e4-59c677c06a34","system_id":"levelo_inurba_marseille","lat":43.304188,"lon":5.412904,"is_reserved":false,"is_disabled":false,"rental_uris":{"android":"levelo://app?vid=3facbe4d-388c-40d0-82e4-59c677c06a34","ios":"levelo://app?vid=3facbe4d-388c-40d0-82e4-59c677c06a34"},"vehicle_type_id":"4","last_reported":1703264768,"current_range_meters":6000,"station_id":"ce4bhop2rcd13ifvqh8g","pricing_plan_id":"free"},{"bike_id":"6b4b2b4f-1c3f-44c6-980a-312b64b972ca","system_id":"levelo_inurba_marseille","lat":43.287154,"lon":5.399979,"is_reserved":false,"is_disabled":false,"rental_uris":{"android":"levelo://app?vid=6b4b2b4f-1c3f-44c6-980a-312b64b972ca","ios":"levelo://app?vid=6b4b2b4f-1c3f-44c6-980a-312b64b972ca"},"vehicle_type_id":"4","last_reported":1703264768,"current_range_meters":16800,"station_id":"ce4bho92rcd13ifvqh3g","pricing_plan_id":"free"},{"bike_id":"d3d16ee3-2d8d-48fe-99dd-1e8a259f6ff1","system_id":"levelo_inurba_marseille","lat":43.29269,"lon":5.40904,"is_reserved":false,"is_disabled":false,"rental_uris":{"android":"levelo://app?vid=d3d16ee3-2d8d-48fe-99dd-1e8a259f6ff1","ios":"levelo://app?vid=d3d16ee3-2d8d-48fe-99dd-1e8a259f6ff1"},"vehicle_type_id":"4","last_reported":1703264768,"current_range_meters":2000,"station_id":"ce4bh192rcd13ifvqdc0","pricing_plan_id":"free"},{"bike_id":"6be694d4-c7fd-4a0c-bfc4-ee8d2385144e","system_id":"levelo_inurba_marseille","lat":43.29261,"lon":5.40909,"is_reserved":false,"is_disabled":false,"rental_uris":{"android":"levelo://app?vid=6be694d4-c7fd-4a0c-bfc4-ee8d2385144e","ios":"levelo://app?vid=6be694d4-c7fd-4a0c-bfc4-ee8d2385144e"},"vehicle_type_id":"4","last_reported":1703264768,"current_range_meters":24800,"station_id":"ce4bh192rcd13ifvqdc0","pricing_plan_id":"free"},{"bike_id":"66f58c5e-529b-4099-a804-a1e31773bc82","system_id":"levelo_inurba_marseille","lat":43.2926,"lon":5.40909,"is_reserved":false,"is_disabled":false,"rental_uris":{"android":"levelo://app?vid=66f58c5e-529b-4099-a804-a1e31773bc82","ios":"levelo://app?vid=66f58c5e-529b-4099-a804-a1e31773bc82"},"vehicle_type_id":"4","last_reported":1703264768,"current_range_meters":12800,"station_id":"ce4bh192rcd13ifvqdc0","pricing_plan_id":"free"},{"bike_id":"623f8c50-51de-4d7c-9abd-c4d7a3b44d05","system_id":"levelo_inurba_marseille","lat":43.2925,"lon":5.40906,"is_reserved":false,"is_disabled":false,"rental_uris":{"android":"levelo://app?vid=623f8c50-51de-4d7c-9abd-c4d7a3b44d05","ios":"levelo://app?vid=623f8c50-51de-4d7c-9abd-c4d7a3b44d05"},"vehicle_type_id":"4","last_reported":1703264768,"current_range_meters":26000,"station_id":"ce4bh192rcd13ifvqdc0","pricing_plan_id":"free"},{"bike_id":"8b5591c9-b8e9-447c-a437-9a29081582b8","system_id":"levelo_inurba_marseille","lat":43.292569,"lon":5.409107,"is_reserved":false,"is_disabled":false,"rental_uris":{"android":"levelo://app?vid=8b5591c9-b8e9-447c-a437-9a29081582b8","ios":"levelo://app?vid=8b5591c9-b8e9-447c-a437-9a29081582b8"},"vehicle_type_id":"4","last_reported":1703264768,"current_range_meters":12800,"station_id":"ce4bh192rcd13ifvqdc0","pricing_plan_id":"free"},{"bike_id":"6c4fc49e-5505-4646-a9f6-d50687341480","system_id":"levelo_inurba_marseille","lat":43.27618,"lon":5.361009,"is_reserved":false,"is_disabled":false,"rental_uris":{"android":"levelo://app?vid=6c4fc49e-5505-4646-a9f6-d50687341480","ios":"levelo://app?vid=6c4fc49e-5505-4646-a9f6-d50687341480"},"vehicle_type_id":"4","last_reported":1703264768,"current_range_meters":10400,"station_id":"ce4bgj92rcd13ifvqbe0","pricing_plan_id":"free"},{"bike_id":"61322095-9497-4445-9bac-a34db4d38a31","system_id":"levelo_inurba_marseille","lat":43.303837,"lon":5.418724,"is_reserved":false,"is_disabled":false,"rental_uris":{"android":"levelo://app?vid=61322095-9497-4445-9bac-a34db4d38a31","ios":"levelo://app?vid=61322095-9497-4445-9bac-a34db4d38a31"},"vehicle_type_id":"4","last_reported":1703264768,"current_range_meters":800,"station_id":"ce4bhop2rcd13ifvqh7g","pricing_plan_id":"free"},{"bike_id":"06d3ff84-b9e2-4386-9d7f-761c181f7861","system_id":"levelo_inurba_marseille","lat":43.303837,"lon":5.418724,"is_reserved":false,"is_disabled":false,"rental_uris":{"android":"levelo://app?vid=06d3ff84-b9e2-4386-9d7f-761c181f7861","ios":"levelo://app?vid=06d3ff84-b9e2-4386-9d7f-761c181f7861"},"vehicle_type_id":"4","last_reported":1703264768,"current_range_meters":24800,"station_id":"ce4bhop2rcd13ifvqh7g","pricing_plan_id":"free"},{"bike_id":"61cc9edf-fb9f-4d0f-ab9b-7d2db52407ae","system_id":"levelo_inurba_marseille","lat":43.278401,"lon":5.392152,"is_reserved":false,"is_disabled":false,"rental_uris":{"android":"levelo://app?vid=61cc9edf-fb9f-4d0f-ab9b-7d2db52407ae","ios":"levelo://app?vid=61cc9edf-fb9f-4d0f-ab9b-7d2db52407ae"},"vehicle_type_id":"4","last_reported":1703264768,"current_range_meters":27600,"station_id":"ce4bhjp2rcd13ifvqga0","pricing_plan_id":"free"},{"bike_id":"fd05e688-09b5-4208-bce6-d99b826dd41b","system_id":"levelo_inurba_marseille","lat":43.275625,"lon":5.384392,"is_reserved":false,"is_disabled":false,"rental_uris":{"android":"levelo://app?vid=fd05e688-09b5-4208-bce6-d99b826dd41b","ios":"levelo://app?vid=fd05e688-09b5-4208-bce6-d99b826dd41b"},"vehicle_type_id":"4","last_reported":1703264768,"current_range_meters":9600,"station_id":"ce4bhh92rcd13ifvqfi0","pricing_plan_id":"free"},{"bike_id":"843de36b-095c-4afd-830d-de0e9d07ea09","system_id":"levelo_inurba_marseille","lat":43.273613,"lon":5.362705,"is_reserved":false,"is_disabled":false,"rental_uris":{"android":"levelo://app?vid=843de36b-095c-4afd-830d-de0e9d07ea09","ios":"levelo://app?vid=843de36b-095c-4afd-830d-de0e9d07ea09"},"vehicle_type_id":"4","last_reported":1703264768,"current_range_meters":13200,"station_id":"ce4bhbh2rcd13ifvqeo0","pricing_plan_id":"free"},{"bike_id":"48cb72d6-5769-46dd-a4f2-54dfd0bfb283","system_id":"levelo_inurba_marseille","lat":43.273613,"lon":5.362705,"is_reserved":false,"is_disabled":false,"rental_uris":{"android":"levelo://app?vid=48cb72d6-5769-46dd-a4f2-54dfd0bfb283","ios":"levelo://app?vid=48cb72d6-5769-46dd-a4f2-54dfd0bfb283"},"vehicle_type_id":"4","last_reported":1703264768,"current_range_meters":20800,"station_id":"ce4bhbh2rcd13ifvqeo0","pricing_plan_id":"free"},{"bike_id":"173bda84-9c7c-4377-bd9a-2f3d840898c7","system_id":"levelo_inurba_marseille","lat":43.273613,"lon":5.362705,"is_reserved":false,"is_disabled":false,"rental_uris":{"android":"levelo://app?vid=173bda84-9c7c-4377-bd9a-2f3d840898c7","ios":"levelo://app?vid=173bda84-9c7c-4377-bd9a-2f3d840898c7"},"vehicle_type_id":"4","last_reported":1703264768,"current_range_meters":27600,"station_id":"ce4bhbh2rcd13ifvqeo0","pricing_plan_id":"free"},{"bike_id":"e09a6d18-e62b-45bc-ba72-f8db6df2fcf5","system_id":"levelo_inurba_marseille","lat":43.273609,"lon":5.362708,"is_reserved":false,"is_disabled":false,"rental_uris":{"android":"levelo://app?vid=e09a6d18-e62b-45bc-ba72-f8db6df2fcf5","ios":"levelo://app?vid=e09a6d18-e62b-45bc-ba72-f8db6df2fcf5"},"vehicle_type_id":"4","last_reported":1703264768,"current_range_meters":31200,"station_id":"ce4bhbh2rcd13ifvqeo0","pricing_plan_id":"free"},{"bike_id":"7bf0471c-a8b2-4f71-b318-35de0e9bb0af","system_id":"levelo_inurba_marseille","lat":43.276769,"lon":5.388787,"is_reserved":false,"is_disabled":false,"rental_uris":{"android":"levelo://app?vid=7bf0471c-a8b2-4f71-b318-35de0e9bb0af","ios":"levelo://app?vid=7bf0471c-a8b2-4f71-b318-35de0e9bb0af"},"vehicle_type_id":"4","last_reported":1703264768,"current_range_meters":24400,"station_id":"ce4bhi12rcd13ifvqfo0","pricing_plan_id":"free"},{"bike_id":"2489290f-0307-4f5f-94f2-ff7a755a6bbe","system_id":"levelo_inurba_marseille","lat":43.276771,"lon":5.388799,"is_reserved":false,"is_disabled":false,"rental_uris":{"android":"levelo://app?vid=2489290f-0307-4f5f-94f2-ff7a755a6bbe","ios":"levelo://app?vid=2489290f-0307-4f5f-94f2-ff7a755a6bbe"},"vehicle_type_id":"4","last_reported":1703264768,"current_range_meters":27600,"station_id":"ce4bhi12rcd13ifvqfo0","pricing_plan_id":"free"},{"bike_id":"3a34cd06-a0ef-4e65-8ab0-441b414f8e64","system_id":"levelo_inurba_marseille","lat":43.273125,"lon":5.390731,"is_reserved":false,"is_disabled":false,"rental_uris":{"android":"levelo://app?vid=3a34cd06-a0ef-4e65-8ab0-441b414f8e64","ios":"levelo://app?vid=3a34cd06-a0ef-4e65-8ab0-441b414f8e64"},"vehicle_type_id":"4","last_reported":1703264768,"current_range_meters":11600,"station_id":"ce4bhgp2rcd13ifvqfe0","pricing_plan_id":"free"},{"bike_id":"04943c3f-434f-460b-9357-61f7fac8d331","system_id":"levelo_inurba_marseille","lat":43.273125,"lon":5.390731,"is_reserved":false,"is_disabled":false,"rental_uris":{"android":"levelo://app?vid=04943c3f-434f-460b-9357-61f7fac8d331","ios":"levelo://app?vid=04943c3f-434f-460b-9357-61f7fac8d331"},"vehicle_type_id":"4","last_reported":1703264768,"current_range_meters":28400,"station_id":"ce4bhgp2rcd13ifvqfe0","pricing_plan_id":"free"},{"bike_id":"938af0a6-18c6-4e36-9b63-569e16fc4bbd","system_id":"levelo_inurba_marseille","lat":43.274099,"lon":5.394019,"is_reserved":false,"is_disabled":false,"rental_uris":{"android":"levelo://app?vid=938af0a6-18c6-4e36-9b63-569e16fc4bbd","ios":"levelo://app?vid=938af0a6-18c6-4e36-9b63-569e16fc4bbd"},"vehicle_type_id":"4","last_reported":1703264768,"current_range_meters":4400,"station_id":"ce4bhdp2rcd13ifvqf20","pricing_plan_id":"free"},{"bike_id":"96939607-2741-4089-ba93-703e03251f9d","system_id":"levelo_inurba_marseille","lat":43.274099,"lon":5.394019,"is_reserved":false,"is_disabled":false,"rental_uris":{"android":"levelo://app?vid=96939607-2741-4089-ba93-703e03251f9d","ios":"levelo://app?vid=96939607-2741-4089-ba93-703e03251f9d"},"vehicle_type_id":"4","last_reported":1703264768,"current_range_meters":31600,"station_id":"ce4bhdp2rcd13ifvqf20","pricing_plan_id":"free"},{"bike_id":"b88b7ef1-e79f-4cb8-8cf0-577fb0b0ed23","system_id":"levelo_inurba_marseille","lat":43.274103,"lon":5.394016,"is_reserved":false,"is_disabled":false,"rental_uris":{"android":"levelo://app?vid=b88b7ef1-e79f-4cb8-8cf0-577fb0b0ed23","ios":"levelo://app?vid=b88b7ef1-e79f-4cb8-8cf0-577fb0b0ed23"},"vehicle_type_id":"4","last_reported":1703264768,"current_range_meters":30000,"station_id":"ce4bhdp2rcd13ifvqf20","pricing_plan_id":"free"},{"bike_id":"b8e35838-8509-4212-8487-481f9f479ac3","system_id":"levelo_inurba_marseille","lat":43.304096,"lon":5.425385,"is_reserved":false,"is_disabled":false,"rental_uris":{"android":"levelo://app?vid=b8e35838-8509-4212-8487-481f9f479ac3","ios":"levelo://app?vid=b8e35838-8509-4212-8487-481f9f479ac3"},"vehicle_type_id":"4","last_reported":1703264768,"current_range_meters":6400,"station_id":"ce4bhoh2rcd13ifvqh6g","pricing_plan_id":"free"},{"bike_id":"a80c78b0-54bd-4c06-a456-7ff9cb5fb92c","system_id":"levelo_inurba_marseille","lat":43.295523,"lon":5.422926,"is_reserved":false,"is_disabled":false,"rental_uris":{"android":"levelo://app?vid=a80c78b0-54bd-4c06-a456-7ff9cb5fb92c","ios":"levelo://app?vid=a80c78b0-54bd-4c06-a456-7ff9cb5fb92c"},"vehicle_type_id":"4","last_reported":1703264768,"current_range_meters":31200,"station_id":"ce4bhph2rcd13ifvqhdg","pricing_plan_id":"free"},{"bike_id":"94e53acf-8f90-44eb-9956-dbbec89fe991","system_id":"levelo_inurba_marseille","lat":43.272124,"lon":5.391768,"is_reserved":false,"is_disabled":false,"rental_uris":{"android":"levelo://app?vid=94e53acf-8f90-44eb-9956-dbbec89fe991","ios":"levelo://app?vid=94e53acf-8f90-44eb-9956-dbbec89fe991"},"vehicle_type_id":"4","last_reported":1703264768,"current_range_meters":24400,"station_id":"ce4bhhp2rcd13ifvqfm0","pricing_plan_id":"free"},{"bike_id":"f1f97a3a-d4c6-4294-a4c2-64567b8aebe9","system_id":"levelo_inurba_marseille","lat":43.272124,"lon":5.391768,"is_reserved":false,"is_disabled":false,"rental_uris":{"android":"levelo://app?vid=f1f97a3a-d4c6-4294-a4c2-64567b8aebe9","ios":"levelo://app?vid=f1f97a3a-d4c6-4294-a4c2-64567b8aebe9"},"vehicle_type_id":"4","last_reported":1703264768,"current_range_meters":5600,"station_id":"ce4bhhp2rcd13ifvqfm0","pricing_plan_id":"free"},{"bike_id":"bb528e3a-2fc0-414e-a352-5aac7dcc6f90","system_id":"levelo_inurba_marseille","lat":43.272118,"lon":5.391758,"is_reserved":false,"is_disabled":false,"rental_uris":{"android":"levelo://app?vid=bb528e3a-2fc0-414e-a352-5aac7dcc6f90","ios":"levelo://app?vid=bb528e3a-2fc0-414e-a352-5aac7dcc6f90"},"vehicle_type_id":"4","last_reported":1703264768,"current_range_meters":25200,"station_id":"ce4bhhp2rcd13ifvqfm0","pricing_plan_id":"free"},{"bike_id":"b728f4e6-c6da-4e69-9cd2-187ab443a07e","system_id":"levelo_inurba_marseille","lat":43.272124,"lon":5.391768,"is_reserved":false,"is_disabled":false,"rental_uris":{"android":"levelo://app?vid=b728f4e6-c6da-4e69-9cd2-187ab443a07e","ios":"levelo://app?vid=b728f4e6-c6da-4e69-9cd2-187ab443a07e"},"vehicle_type_id":"4","last_reported":1703264768,"current_range_meters":6800,"station_id":"ce4bhhp2rcd13ifvqfm0","pricing_plan_id":"free"},{"bike_id":"899de1b9-2b33-4eed-a8d1-78853cd0b3f3","system_id":"levelo_inurba_marseille","lat":43.278128,"lon":5.407195,"is_reserved":false,"is_disabled":false,"rental_uris":{"android":"levelo://app?vid=899de1b9-2b33-4eed-a8d1-78853cd0b3f3","ios":"levelo://app?vid=899de1b9-2b33-4eed-a8d1-78853cd0b3f3"},"vehicle_type_id":"4","last_reported":1703264768,"current_range_meters":6000,"station_id":"ce4bhnh2rcd13ifvqgtg","pricing_plan_id":"free"},{"bike_id":"a24d475b-1fa7-4396-a4da-4cdb17697f26","system_id":"levelo_inurba_marseille","lat":43.278128,"lon":5.407195,"is_reserved":false,"is_disabled":false,"rental_uris":{"android":"levelo://app?vid=a24d475b-1fa7-4396-a4da-4cdb17697f26","ios":"levelo://app?vid=a24d475b-1fa7-4396-a4da-4cdb17697f26"},"vehicle_type_id":"4","last_reported":1703264768,"current_range_meters":13600,"station_id":"ce4bhnh2rcd13ifvqgtg","pricing_plan_id":"free"},{"bike_id":"f32d229d-46ee-4a04-b20e-6cc156a1ca57","system_id":"levelo_inurba_marseille","lat":43.278128,"lon":5.407195,"is_reserved":false,"is_disabled":false,"rental_uris":{"android":"levelo://app?vid=f32d229d-46ee-4a04-b20e-6cc156a1ca57","ios":"levelo://app?vid=f32d229d-46ee-4a04-b20e-6cc156a1ca57"},"vehicle_type_id":"4","last_reported":1703264768,"current_range_meters":24800,"station_id":"ce4bhnh2rcd13ifvqgtg","pricing_plan_id":"free"},{"bike_id":"88834d05-b612-4b0f-b9ac-182d70e795dc","system_id":"levelo_inurba_marseille","lat":43.26681,"lon":5.382694,"is_reserved":false,"is_disabled":false,"rental_uris":{"android":"levelo://app?vid=88834d05-b612-4b0f-b9ac-182d70e795dc","ios":"levelo://app?vid=88834d05-b612-4b0f-b9ac-182d70e795dc"},"vehicle_type_id":"4","last_reported":1703264768,"current_range_meters":28800,"station_id":"ce4bhg92rcd13ifvqf90","pricing_plan_id":"free"},{"bike_id":"f03fa982-a75b-4498-86b8-be2db5337a14","system_id":"levelo_inurba_marseille","lat":43.27996,"lon":5.416624,"is_reserved":false,"is_disabled":false,"rental_uris":{"android":"levelo://app?vid=f03fa982-a75b-4498-86b8-be2db5337a14","ios":"levelo://app?vid=f03fa982-a75b-4498-86b8-be2db5337a14"},"vehicle_type_id":"4","last_reported":1703264768,"current_range_meters":6000,"station_id":"ce4bho12rcd13ifvqh1g","pricing_plan_id":"free"},{"bike_id":"f37ef895-5115-4df2-8316-aa6df246e09a","system_id":"levelo_inurba_marseille","lat":43.27996,"lon":5.416624,"is_reserved":false,"is_disabled":false,"rental_uris":{"android":"levelo://app?vid=f37ef895-5115-4df2-8316-aa6df246e09a","ios":"levelo://app?vid=f37ef895-5115-4df2-8316-aa6df246e09a"},"vehicle_type_id":"4","last_reported":1703264768,"current_range_meters":28000,"station_id":"ce4bho12rcd13ifvqh1g","pricing_plan_id":"free"},{"bike_id":"2583a5a1-4ac8-4830-86d7-fe5c2e42eb0f","system_id":"levelo_inurba_marseille","lat":43.265714,"lon":5.372891,"is_reserved":false,"is_disabled":false,"rental_uris":{"android":"levelo://app?vid=2583a5a1-4ac8-4830-86d7-fe5c2e42eb0f","ios":"levelo://app?vid=2583a5a1-4ac8-4830-86d7-fe5c2e42eb0f"},"vehicle_type_id":"4","last_reported":1703264768,"current_range_meters":2000,"station_id":"ce4bhg12rcd13ifvqf70","pricing_plan_id":"free"},{"bike_id":"3ba6c963-9d7d-4fc5-b8f2-91ac5d439c7f","system_id":"levelo_inurba_marseille","lat":43.265714,"lon":5.372891,"is_reserved":false,"is_disabled":false,"rental_uris":{"android":"levelo://app?vid=3ba6c963-9d7d-4fc5-b8f2-91ac5d439c7f","ios":"levelo://app?vid=3ba6c963-9d7d-4fc5-b8f2-91ac5d439c7f"},"vehicle_type_id":"4","last_reported":1703264768,"current_range_meters":16400,"station_id":"ce4bhg12rcd13ifvqf70","pricing_plan_id":"free"},{"bike_id":"7895bbd1-586b-486f-9ad7-55825d208fab","system_id":"levelo_inurba_marseille","lat":43.267966,"lon":5.393976,"is_reserved":false,"is_disabled":false,"rental_uris":{"android":"levelo://app?vid=7895bbd1-586b-486f-9ad7-55825d208fab","ios":"levelo://app?vid=7895bbd1-586b-486f-9ad7-55825d208fab"},"vehicle_type_id":"4","last_reported":1703264768,"current_range_meters":10800,"station_id":"ce4bhh12rcd13ifvqfg0","pricing_plan_id":"free"},{"bike_id":"e8d6de0f-b4fa-436e-9bde-261b7735c600","system_id":"levelo_inurba_marseille","lat":43.267966,"lon":5.393976,"is_reserved":false,"is_disabled":false,"rental_uris":{"android":"levelo://app?vid=e8d6de0f-b4fa-436e-9bde-261b7735c600","ios":"levelo://app?vid=e8d6de0f-b4fa-436e-9bde-261b7735c600"},"vehicle_type_id":"4","last_reported":1703264768,"current_range_meters":4800,"station_id":"ce4bhh12rcd13ifvqfg0","pricing_plan_id":"free"},{"bike_id":"7da48e38-01dc-4d8d-845a-7c7bdf54278f","system_id":"levelo_inurba_marseille","lat":43.308051,"lon":5.43527,"is_reserved":false,"is_disabled":false,"rental_uris":{"android":"levelo://app?vid=7da48e38-01dc-4d8d-845a-7c7bdf54278f","ios":"levelo://app?vid=7da48e38-01dc-4d8d-845a-7c7bdf54278f"},"vehicle_type_id":"4","last_reported":1703264768,"current_range_meters":2000,"station_id":"ce4bhph2rcd13ifvqheg","pricing_plan_id":"free"},{"bike_id":"e61b2723-dda4-422c-86dc-dd41eb37e695","system_id":"levelo_inurba_marseille","lat":43.265569,"lon":5.390047,"is_reserved":false,"is_disabled":false,"rental_uris":{"android":"levelo://app?vid=e61b2723-dda4-422c-86dc-dd41eb37e695","ios":"levelo://app?vid=e61b2723-dda4-422c-86dc-dd41eb37e695"},"vehicle_type_id":"4","last_reported":1703264768,"current_range_meters":12800,"station_id":"ce4bhe12rcd13ifvqf30","pricing_plan_id":"free"},{"bike_id":"3c97a8a7-622c-4d01-a316-783cde5fc7f9","system_id":"levelo_inurba_marseille","lat":43.317104,"lon":5.436818,"is_reserved":false,"is_disabled":false,"rental_uris":{"android":"levelo://app?vid=3c97a8a7-622c-4d01-a316-783cde5fc7f9","ios":"levelo://app?vid=3c97a8a7-622c-4d01-a316-783cde5fc7f9"},"vehicle_type_id":"4","last_reported":1703264768,"current_range_meters":15600,"station_id":"ce4bhp92rcd13ifvqhcg","pricing_plan_id":"free"},{"bike_id":"ecded0b1-26e9-4178-868a-0ff40f1e2ee0","system_id":"levelo_inurba_marseille","lat":43.271388,"lon":5.409269,"is_reserved":false,"is_disabled":false,"rental_uris":{"android":"levelo://app?vid=ecded0b1-26e9-4178-868a-0ff40f1e2ee0","ios":"levelo://app?vid=ecded0b1-26e9-4178-868a-0ff40f1e2ee0"},"vehicle_type_id":"4","last_reported":1703264768,"current_range_meters":22000,"station_id":"ce4bhl12rcd13ifvqgf0","pricing_plan_id":"free"},{"bike_id":"76090ef0-8487-40ab-93d1-ba72dd775cab","system_id":"levelo_inurba_marseille","lat":43.271368,"lon":5.40928,"is_reserved":false,"is_disabled":false,"rental_uris":{"android":"levelo://app?vid=76090ef0-8487-40ab-93d1-ba72dd775cab","ios":"levelo://app?vid=76090ef0-8487-40ab-93d1-ba72dd775cab"},"vehicle_type_id":"4","last_reported":1703264768,"current_range_meters":11200,"station_id":"ce4bhl12rcd13ifvqgf0","pricing_plan_id":"free"},{"bike_id":"ed515ca5-d8bf-4ab8-896b-6c9ca2b46c7c","system_id":"levelo_inurba_marseille","lat":43.26501,"lon":5.39543,"is_reserved":false,"is_disabled":false,"rental_uris":{"android":"levelo://app?vid=ed515ca5-d8bf-4ab8-896b-6c9ca2b46c7c","ios":"levelo://app?vid=ed515ca5-d8bf-4ab8-896b-6c9ca2b46c7c"},"vehicle_type_id":"4","last_reported":1703264768,"current_range_meters":0,"station_id":"","pricing_plan_id":"free"},{"bike_id":"add5aa90-0fc3-4624-b38b-d2cfb52fb640","system_id":"levelo_inurba_marseille","lat":43.26036,"lon":5.37544,"is_reserved":false,"is_disabled":false,"rental_uris":{"android":"levelo://app?vid=add5aa90-0fc3-4624-b38b-d2cfb52fb640","ios":"levelo://app?vid=add5aa90-0fc3-4624-b38b-d2cfb52fb640"},"vehicle_type_id":"4","last_reported":1703264768,"current_range_meters":22000,"station_id":"ce4bhgh2rcd13ifvqfa0","pricing_plan_id":"free"},{"bike_id":"7a4f22f0-00c8-4a84-9d00-c7c35af8e279","system_id":"levelo_inurba_marseille","lat":43.281548,"lon":5.42643,"is_reserved":false,"is_disabled":false,"rental_uris":{"android":"levelo://app?vid=7a4f22f0-00c8-4a84-9d00-c7c35af8e279","ios":"levelo://app?vid=7a4f22f0-00c8-4a84-9d00-c7c35af8e279"},"vehicle_type_id":"4","last_reported":1703264768,"current_range_meters":16400,"station_id":"ce4bhnh2rcd13ifvqgug","pricing_plan_id":"free"},{"bike_id":"56f4ef61-5398-4308-bc58-2c0a391f7f76","system_id":"levelo_inurba_marseille","lat":43.281548,"lon":5.42643,"is_reserved":false,"is_disabled":false,"rental_uris":{"android":"levelo://app?vid=56f4ef61-5398-4308-bc58-2c0a391f7f76","ios":"levelo://app?vid=56f4ef61-5398-4308-bc58-2c0a391f7f76"},"vehicle_type_id":"4","last_reported":1703264768,"current_range_meters":20400,"station_id":"ce4bhnh2rcd13ifvqgug","pricing_plan_id":"free"},{"bike_id":"9cf6f839-4848-4808-b5f0-d3cdf4f1b9a9","system_id":"levelo_inurba_marseille","lat":43.2607,"lon":5.393983,"is_reserved":false,"is_disabled":false,"rental_uris":{"android":"levelo://app?vid=9cf6f839-4848-4808-b5f0-d3cdf4f1b9a9","ios":"levelo://app?vid=9cf6f839-4848-4808-b5f0-d3cdf4f1b9a9"},"vehicle_type_id":"4","last_reported":1703264768,"current_range_meters":23600,"station_id":"ce4bhh92rcd13ifvqfj0","pricing_plan_id":"free"},{"bike_id":"38ba45a0-9290-4b38-8be6-50e03b75000e","system_id":"levelo_inurba_marseille","lat":43.255756,"lon":5.382303,"is_reserved":false,"is_disabled":false,"rental_uris":{"android":"levelo://app?vid=38ba45a0-9290-4b38-8be6-50e03b75000e","ios":"levelo://app?vid=38ba45a0-9290-4b38-8be6-50e03b75000e"},"vehicle_type_id":"4","last_reported":1703264768,"current_range_meters":22400,"station_id":"ce4bhih2rcd13ifvqfs0","pricing_plan_id":"free"},{"bike_id":"9e31705f-4f0a-4cb9-b231-21e465b6e902","system_id":"levelo_inurba_marseille","lat":43.25583,"lon":5.38233,"is_reserved":false,"is_disabled":false,"rental_uris":{"android":"levelo://app?vid=9e31705f-4f0a-4cb9-b231-21e465b6e902","ios":"levelo://app?vid=9e31705f-4f0a-4cb9-b231-21e465b6e902"},"vehicle_type_id":"4","last_reported":1703264768,"current_range_meters":21200,"station_id":"ce4bhih2rcd13ifvqfs0","pricing_plan_id":"free"},{"bike_id":"8cf99fad-2807-4e32-8919-6e0625ab5b56","system_id":"levelo_inurba_marseille","lat":43.25578,"lon":5.38234,"is_reserved":false,"is_disabled":false,"rental_uris":{"android":"levelo://app?vid=8cf99fad-2807-4e32-8919-6e0625ab5b56","ios":"levelo://app?vid=8cf99fad-2807-4e32-8919-6e0625ab5b56"},"vehicle_type_id":"4","last_reported":1703264768,"current_range_meters":0,"station_id":"ce4bhih2rcd13ifvqfs0","pricing_plan_id":"free"},{"bike_id":"afe55259-3199-49df-9871-851f304f12a6","system_id":"levelo_inurba_marseille","lat":43.25577,"lon":5.38246,"is_reserved":false,"is_disabled":false,"rental_uris":{"android":"levelo://app?vid=afe55259-3199-49df-9871-851f304f12a6","ios":"levelo://app?vid=afe55259-3199-49df-9871-851f304f12a6"},"vehicle_type_id":"4","last_reported":1703264768,"current_range_meters":28400,"station_id":"ce4bhih2rcd13ifvqfs0","pricing_plan_id":"free"},{"bike_id":"2d760b22-7696-43cc-b8f1-e69057bd77d9","system_id":"levelo_inurba_marseille","lat":43.25567,"lon":5.38232,"is_reserved":false,"is_disabled":false,"rental_uris":{"android":"levelo://app?vid=2d760b22-7696-43cc-b8f1-e69057bd77d9","ios":"levelo://app?vid=2d760b22-7696-43cc-b8f1-e69057bd77d9"},"vehicle_type_id":"4","last_reported":1703264768,"current_range_meters":31200,"station_id":"ce4bhih2rcd13ifvqfs0","pricing_plan_id":"free"},{"bike_id":"8ed3c848-efea-40bc-a290-5097bc6bb5da","system_id":"levelo_inurba_marseille","lat":43.254947,"lon":5.376454,"is_reserved":false,"is_disabled":false,"rental_uris":{"android":"levelo://app?vid=8ed3c848-efea-40bc-a290-5097bc6bb5da","ios":"levelo://app?vid=8ed3c848-efea-40bc-a290-5097bc6bb5da"},"vehicle_type_id":"4","last_reported":1703264768,"current_range_meters":14400,"station_id":"ce4bhh12rcd13ifvqff0","pricing_plan_id":"free"},{"bike_id":"130c59a6-9dfa-41ab-899a-a65f5db8f748","system_id":"levelo_inurba_marseille","lat":43.270721,"lon":5.422764,"is_reserved":false,"is_disabled":false,"rental_uris":{"android":"levelo://app?vid=130c59a6-9dfa-41ab-899a-a65f5db8f748","ios":"levelo://app?vid=130c59a6-9dfa-41ab-899a-a65f5db8f748"},"vehicle_type_id":"4","last_reported":1703264768,"current_range_meters":11200,"station_id":"ce4bhk92rcd13ifvqgb0","pricing_plan_id":"free"},{"bike_id":"68a456a2-08d9-4af5-8351-fa0557745378","system_id":"levelo_inurba_marseille","lat":43.258658,"lon":5.398935,"is_reserved":false,"is_disabled":false,"rental_uris":{"android":"levelo://app?vid=68a456a2-08d9-4af5-8351-fa0557745378","ios":"levelo://app?vid=68a456a2-08d9-4af5-8351-fa0557745378"},"vehicle_type_id":"4","last_reported":1703264768,"current_range_meters":4800,"station_id":"ce4bhl92rcd13ifvqghg","pricing_plan_id":"free"},{"bike_id":"235698e4-889f-4e7f-b70d-e84f27fe80c5","system_id":"levelo_inurba_marseille","lat":43.258658,"lon":5.398935,"is_reserved":false,"is_disabled":false,"rental_uris":{"android":"levelo://app?vid=235698e4-889f-4e7f-b70d-e84f27fe80c5","ios":"levelo://app?vid=235698e4-889f-4e7f-b70d-e84f27fe80c5"},"vehicle_type_id":"4","last_reported":1703264768,"current_range_meters":16000,"station_id":"ce4bhl92rcd13ifvqghg","pricing_plan_id":"free"},{"bike_id":"da4216a2-24fc-4099-9d12-5f58e93851c4","system_id":"levelo_inurba_marseille","lat":43.250023,"lon":5.38919,"is_reserved":false,"is_disabled":false,"rental_uris":{"android":"levelo://app?vid=da4216a2-24fc-4099-9d12-5f58e93851c4","ios":"levelo://app?vid=da4216a2-24fc-4099-9d12-5f58e93851c4"},"vehicle_type_id":"4","last_reported":1703264768,"current_range_meters":4000,"station_id":"ce4bhgp2rcd13ifvqfd0","pricing_plan_id":"free"},{"bike_id":"a1bc7d25-5461-43b1-8ea0-39fdd314d558","system_id":"levelo_inurba_marseille","lat":43.2479,"lon":5.374457,"is_reserved":false,"is_disabled":false,"rental_uris":{"android":"levelo://app?vid=a1bc7d25-5461-43b1-8ea0-39fdd314d558","ios":"levelo://app?vid=a1bc7d25-5461-43b1-8ea0-39fdd314d558"},"vehicle_type_id":"4","last_reported":1703264768,"current_range_meters":17600,"station_id":"ce4bhgh2rcd13ifvqfb0","pricing_plan_id":"free"},{"bike_id":"032be55d-0e31-49bc-b977-d3b0f290ffd6","system_id":"levelo_inurba_marseille","lat":43.2479,"lon":5.374457,"is_reserved":false,"is_disabled":false,"rental_uris":{"android":"levelo://app?vid=032be55d-0e31-49bc-b977-d3b0f290ffd6","ios":"levelo://app?vid=032be55d-0e31-49bc-b977-d3b0f290ffd6"},"vehicle_type_id":"4","last_reported":1703264768,"current_range_meters":24400,"station_id":"ce4bhgh2rcd13ifvqfb0","pricing_plan_id":"free"},{"bike_id":"75019bed-b7e3-442d-a90c-69e582a33de9","system_id":"levelo_inurba_marseille","lat":43.2479,"lon":5.374457,"is_reserved":false,"is_disabled":false,"rental_uris":{"android":"levelo://app?vid=75019bed-b7e3-442d-a90c-69e582a33de9","ios":"levelo://app?vid=75019bed-b7e3-442d-a90c-69e582a33de9"},"vehicle_type_id":"4","last_reported":1703264768,"current_range_meters":29200,"station_id":"ce4bhgh2rcd13ifvqfb0","pricing_plan_id":"free"},{"bike_id":"4c09004f-2e83-41eb-9ad5-f442b6c4bf89","system_id":"levelo_inurba_marseille","lat":43.250966,"lon":5.395186,"is_reserved":false,"is_disabled":false,"rental_uris":{"android":"levelo://app?vid=4c09004f-2e83-41eb-9ad5-f442b6c4bf89","ios":"levelo://app?vid=4c09004f-2e83-41eb-9ad5-f442b6c4bf89"},"vehicle_type_id":"4","last_reported":1703264768,"current_range_meters":27600,"station_id":"ce4bhm12rcd13ifvqgkg","pricing_plan_id":"free"},{"bike_id":"fe993f93-ebcb-445f-ac0a-8bca530bddc6","system_id":"levelo_inurba_marseille","lat":43.24693,"lon":5.382096,"is_reserved":false,"is_disabled":false,"rental_uris":{"android":"levelo://app?vid=fe993f93-ebcb-445f-ac0a-8bca530bddc6","ios":"levelo://app?vid=fe993f93-ebcb-445f-ac0a-8bca530bddc6"},"vehicle_type_id":"4","last_reported":1703264768,"current_range_meters":9200,"station_id":"ce4bhih2rcd13ifvqfr0","pricing_plan_id":"free"},{"bike_id":"bd5c39f8-6382-4812-b544-7cee0aac5be3","system_id":"levelo_inurba_marseille","lat":43.24693,"lon":5.382096,"is_reserved":false,"is_disabled":false,"rental_uris":{"android":"levelo://app?vid=bd5c39f8-6382-4812-b544-7cee0aac5be3","ios":"levelo://app?vid=bd5c39f8-6382-4812-b544-7cee0aac5be3"},"vehicle_type_id":"4","last_reported":1703264768,"current_range_meters":20000,"station_id":"ce4bhih2rcd13ifvqfr0","pricing_plan_id":"free"},{"bike_id":"301d21bd-888e-47ec-ad62-57e4f776886b","system_id":"levelo_inurba_marseille","lat":43.25114,"lon":5.40327,"is_reserved":false,"is_disabled":false,"rental_uris":{"android":"levelo://app?vid=301d21bd-888e-47ec-ad62-57e4f776886b","ios":"levelo://app?vid=301d21bd-888e-47ec-ad62-57e4f776886b"},"vehicle_type_id":"4","last_reported":1703264768,"current_range_meters":400,"station_id":"ce4bhlh2rcd13ifvqgig","pricing_plan_id":"free"},{"bike_id":"550968e4-1c1f-4b92-9f4f-37ad2b156290","system_id":"levelo_inurba_marseille","lat":43.246461,"lon":5.389014,"is_reserved":false,"is_disabled":false,"rental_uris":{"android":"levelo://app?vid=550968e4-1c1f-4b92-9f4f-37ad2b156290","ios":"levelo://app?vid=550968e4-1c1f-4b92-9f4f-37ad2b156290"},"vehicle_type_id":"4","last_reported":1703264768,"current_range_meters":24800,"station_id":"ce4bhg12rcd13ifvqf60","pricing_plan_id":"free"},{"bike_id":"235c7991-be09-4585-be82-a33511232df9","system_id":"levelo_inurba_marseille","lat":43.24393,"lon":5.37063,"is_reserved":false,"is_disabled":false,"rental_uris":{"android":"levelo://app?vid=235c7991-be09-4585-be82-a33511232df9","ios":"levelo://app?vid=235c7991-be09-4585-be82-a33511232df9"},"vehicle_type_id":"4","last_reported":1703264768,"current_range_meters":31200,"station_id":"ce4bhhh2rcd13ifvqfk0","pricing_plan_id":"free"},{"bike_id":"b10c0282-8bcb-4b70-b53b-db93aebee1fc","system_id":"levelo_inurba_marseille","lat":43.243884,"lon":5.370736,"is_reserved":false,"is_disabled":false,"rental_uris":{"android":"levelo://app?vid=b10c0282-8bcb-4b70-b53b-db93aebee1fc","ios":"levelo://app?vid=b10c0282-8bcb-4b70-b53b-db93aebee1fc"},