{"last_updated":1702245987,"ttl":30,"version":"2.2","data":{"bikes":[{"bike_id":"6168fb62-4fc3-4d05-aa3b-f7a961049b67","system_id":"levelo_inurba_marseille","lat":43.309039,"lon":5.371797,"is_reserved":false,"is_disabled":false,"rental_uris":{"android":"levelo://app?vid=6168fb62-4fc3-4d05-aa3b-f7a961049b67","ios":"levelo://app?vid=6168fb62-4fc3-4d05-aa3b-f7a961049b67"},"vehicle_type_id":"4","last_reported":1702245988,"current_range_meters":26400,"station_id":"ce4bguh2rcd13ifvqckg","pricing_plan_id":"free"},{"bike_id":"28874a70-ac71-4e1d-9cf4-1ec17d387eda","system_id":"levelo_inurba_marseille","lat":43.305989,"lon":5.37225,"is_reserved":false,"is_disabled":false,"rental_uris":{"android":"levelo://app?vid=28874a70-ac71-4e1d-9cf4-1ec17d387eda","ios":"levelo://app?vid=28874a70-ac71-4e1d-9cf4-1ec17d387eda"},"vehicle_type_id":"4","last_reported":1702245988,"current_range_meters":26000,"station_id":"ce4bgqh2rcd13ifvqc4g","pricing_plan_id":"free"},{"bike_id":"2330bda6-7ff6-47a9-bfa2-86d106547740","system_id":"levelo_inurba_marseille","lat":43.311274,"lon":5.377662,"is_reserved":false,"is_disabled":false,"rental_uris":{"android":"levelo://app?vid=2330bda6-7ff6-47a9-bfa2-86d106547740","ios":"levelo://app?vid=2330bda6-7ff6-47a9-bfa2-86d106547740"},"vehicle_type_id":"4","last_reported":1702245988,"current_range_meters":30400,"station_id":"ce4bgt92rcd13ifvqcg0","pricing_plan_id":"free"},{"bike_id":"cfb08640-f022-4b6f-bc07-0a4adbfe78eb","system_id":"levelo_inurba_marseille","lat":43.311125,"lon":5.377624,"is_reserved":false,"is_disabled":false,"rental_uris":{"android":"levelo://app?vid=cfb08640-f022-4b6f-bc07-0a4adbfe78eb","ios":"levelo://app?vid=cfb08640-f022-4b6f-bc07-0a4adbfe78eb"},"vehicle_type_id":"4","last_reported":1702245988,"current_range_meters":29600,"station_id":"ce4bgt92rcd13ifvqcg0","pricing_plan_id":"free"},{"bike_id":"61e45265-b5d7-4633-ab4f-9fe0e7cc1409","system_id":"levelo_inurba_marseille","lat":43.311125,"lon":5.377624,"is_reserved":false,"is_disabled":false,"rental_uris":{"android":"levelo://app?vid=61e45265-b5d7-4633-ab4f-9fe0e7cc1409","ios":"levelo://app?vid=61e45265-b5d7-4633-ab4f-9fe0e7cc1409"},"vehicle_type_id":"4","last_reported":1702245988,"current_range_meters":18800,"station_id":"ce4bgt92rcd13ifvqcg0","pricing_plan_id":"free"},{"bike_id":"9cda16cd-e010-4fce-8679-c88844db2d74","system_id":"levelo_inurba_marseille","lat":43.311131,"lon":5.377651,"is_reserved":false,"is_disabled":false,"rental_uris":{"android":"levelo://app?vid=9cda16cd-e010-4fce-8679-c88844db2d74","ios":"levelo://app?vid=9cda16cd-e010-4fce-8679-c88844db2d74"},"vehicle_type_id":"4","last_reported":1702245988,"current_range_meters":18800,"station_id":"ce4bgt92rcd13ifvqcg0","pricing_plan_id":"free"},{"bike_id":"b925c0ea-2b3a-4107-95dc-8832b3d581af","system_id":"levelo_inurba_marseille","lat":43.317075,"lon":5.377367,"is_reserved":false,"is_disabled":false,"rental_uris":{"android":"levelo://app?vid=b925c0ea-2b3a-4107-95dc-8832b3d581af","ios":"levelo://app?vid=b925c0ea-2b3a-4107-95dc-8832b3d581af"},"vehicle_type_id":"4","last_reported":1702245988,"current_range_meters":21200,"station_id":"ce4bgth2rcd13ifvqch0","pricing_plan_id":"free"},{"bike_id":"98c7773a-ac33-4088-a3f6-5333d9eb3e1a","system_id":"levelo_inurba_marseille","lat":43.317075,"lon":5.377367,"is_reserved":false,"is_disabled":false,"rental_uris":{"android":"levelo://app?vid=98c7773a-ac33-4088-a3f6-5333d9eb3e1a","ios":"levelo://app?vid=98c7773a-ac33-4088-a3f6-5333d9eb3e1a"},"vehicle_type_id":"4","last_reported":1702245988,"current_range_meters":31200,"station_id":"ce4bgth2rcd13ifvqch0","pricing_plan_id":"free"},{"bike_id":"c1656968-21b1-40d4-af20-5558f0d9731a","system_id":"levelo_inurba_marseille","lat":43.317075,"lon":5.377367,"is_reserved":false,"is_disabled":false,"rental_uris":{"android":"levelo://app?vid=c1656968-21b1-40d4-af20-5558f0d9731a","ios":"levelo://app?vid=c1656968-21b1-40d4-af20-5558f0d9731a"},"vehicle_type_id":"4","last_reported":1702245988,"current_range_meters":16000,"station_id":"ce4bgth2rcd13ifvqch0","pricing_plan_id":"free"},{"bike_id":"77a6c46d-d898-4e4f-8846-efa91689c7f0","system_id":"levelo_inurba_marseille","lat":43.303053,"lon":5.366851,"is_reserved":false,"is_disabled":false,"rental_uris":{"android":"levelo://app?vid=77a6c46d-d898-4e4f-8846-efa91689c7f0","ios":"levelo://app?vid=77a6c46d-d898-4e4f-8846-efa91689c7f0"},"vehicle_type_id":"4","last_reported":1702245988,"current_range_meters":0,"station_id":"","pricing_plan_id":"free"},{"bike_id":"7f5c0de8-62eb-4362-9249-101b068af657","system_id":"levelo_inurba_marseille","lat":43.303046,"lon":5.368981,"is_reserved":false,"is_disabled":false,"rental_uris":{"android":"levelo://app?vid=7f5c0de8-62eb-4362-9249-101b068af657","ios":"levelo://app?vid=7f5c0de8-62eb-4362-9249-101b068af657"},"vehicle_type_id":"4","last_reported":1702245988,"current_range_meters":28400,"station_id":"ce4bgqh2rcd13ifvqc5g","pricing_plan_id":"free"},{"bike_id":"8629d01c-6224-47d2-b84d-1633684d4c17","system_id":"levelo_inurba_marseille","lat":43.31542,"lon":5.38024,"is_reserved":false,"is_disabled":false,"rental_uris":{"android":"levelo://app?vid=8629d01c-6224-47d2-b84d-1633684d4c17","ios":"levelo://app?vid=8629d01c-6224-47d2-b84d-1633684d4c17"},"vehicle_type_id":"4","last_reported":1702245988,"current_range_meters":31200,"station_id":"ce4bhsp2rcd13ifvqi50","pricing_plan_id":"free"},{"bike_id":"dd8f1229-75a7-42d3-9640-5c12052a4cba","system_id":"levelo_inurba_marseille","lat":43.31532,"lon":5.38032,"is_reserved":false,"is_disabled":false,"rental_uris":{"android":"levelo://app?vid=dd8f1229-75a7-42d3-9640-5c12052a4cba","ios":"levelo://app?vid=dd8f1229-75a7-42d3-9640-5c12052a4cba"},"vehicle_type_id":"4","last_reported":1702245988,"current_range_meters":31200,"station_id":"ce4bhsp2rcd13ifvqi50","pricing_plan_id":"free"},{"bike_id":"3e20bd4d-0495-4aaa-a6cd-f35f5f2a54e5","system_id":"levelo_inurba_marseille","lat":43.315363,"lon":5.38031,"is_reserved":false,"is_disabled":false,"rental_uris":{"android":"levelo://app?vid=3e20bd4d-0495-4aaa-a6cd-f35f5f2a54e5","ios":"levelo://app?vid=3e20bd4d-0495-4aaa-a6cd-f35f5f2a54e5"},"vehicle_type_id":"4","last_reported":1702245988,"current_range_meters":31200,"station_id":"ce4bhsp2rcd13ifvqi50","pricing_plan_id":"free"},{"bike_id":"60584088-d5eb-48d3-aaf7-ef8c7058c398","system_id":"levelo_inurba_marseille","lat":43.31533,"lon":5.3804,"is_reserved":false,"is_disabled":false,"rental_uris":{"android":"levelo://app?vid=60584088-d5eb-48d3-aaf7-ef8c7058c398","ios":"levelo://app?vid=60584088-d5eb-48d3-aaf7-ef8c7058c398"},"vehicle_type_id":"4","last_reported":1702245988,"current_range_meters":20000,"station_id":"ce4bhsp2rcd13ifvqi50","pricing_plan_id":"free"},{"bike_id":"a1e90a08-2dae-4577-818d-7f4cf81ae672","system_id":"levelo_inurba_marseille","lat":43.301939,"lon":5.366286,"is_reserved":false,"is_disabled":false,"rental_uris":{"android":"levelo://app?vid=a1e90a08-2dae-4577-818d-7f4cf81ae672","ios":"levelo://app?vid=a1e90a08-2dae-4577-818d-7f4cf81ae672"},"vehicle_type_id":"4","last_reported":1702245988,"current_range_meters":20800,"station_id":"ce4bgrh2rcd13ifvqc8g","pricing_plan_id":"free"},{"bike_id":"5838e2bb-5a69-4086-b942-50194e4a7124","system_id":"levelo_inurba_marseille","lat":43.30812,"lon":5.38159,"is_reserved":false,"is_disabled":false,"rental_uris":{"android":"levelo://app?vid=5838e2bb-5a69-4086-b942-50194e4a7124","ios":"levelo://app?vid=5838e2bb-5a69-4086-b942-50194e4a7124"},"vehicle_type_id":"4","last_reported":1702245988,"current_range_meters":28000,"station_id":"ce4bgt12rcd13ifvqce0","pricing_plan_id":"free"},{"bike_id":"1ff068c1-ae4e-4f65-ba30-532b9b28b15a","system_id":"levelo_inurba_marseille","lat":43.308012,"lon":5.381511,"is_reserved":false,"is_disabled":false,"rental_uris":{"android":"levelo://app?vid=1ff068c1-ae4e-4f65-ba30-532b9b28b15a","ios":"levelo://app?vid=1ff068c1-ae4e-4f65-ba30-532b9b28b15a"},"vehicle_type_id":"4","last_reported":1702245988,"current_range_meters":31200,"station_id":"ce4bgt12rcd13ifvqce0","pricing_plan_id":"free"},{"bike_id":"c0a64342-12aa-4bfb-966b-6688b6029cbf","system_id":"levelo_inurba_marseille","lat":43.324748,"lon":5.3657,"is_reserved":false,"is_disabled":false,"rental_uris":{"android":"levelo://app?vid=c0a64342-12aa-4bfb-966b-6688b6029cbf","ios":"levelo://app?vid=c0a64342-12aa-4bfb-966b-6688b6029cbf"},"vehicle_type_id":"4","last_reported":1702245988,"current_range_meters":10000,"station_id":"ce4bhs12rcd13ifvqhvg","pricing_plan_id":"free"},{"bike_id":"7b40c181-4667-4501-874b-a1d36de3aede","system_id":"levelo_inurba_marseille","lat":43.32491,"lon":5.3659,"is_reserved":false,"is_disabled":false,"rental_uris":{"android":"levelo://app?vid=7b40c181-4667-4501-874b-a1d36de3aede","ios":"levelo://app?vid=7b40c181-4667-4501-874b-a1d36de3aede"},"vehicle_type_id":"4","last_reported":1702245988,"current_range_meters":6400,"station_id":"ce4bhs12rcd13ifvqhvg","pricing_plan_id":"free"},{"bike_id":"d507dc20-f3f0-485a-b520-e5ecd0effbe5","system_id":"levelo_inurba_marseille","lat":43.31992,"lon":5.3815,"is_reserved":false,"is_disabled":false,"rental_uris":{"android":"levelo://app?vid=d507dc20-f3f0-485a-b520-e5ecd0effbe5","ios":"levelo://app?vid=d507dc20-f3f0-485a-b520-e5ecd0effbe5"},"vehicle_type_id":"4","last_reported":1702245988,"current_range_meters":22000,"station_id":"ce4bhr12rcd13ifvqhpg","pricing_plan_id":"free"},{"bike_id":"5f3a248d-b745-4a98-b9b9-56d58584d2c4","system_id":"levelo_inurba_marseille","lat":43.313571,"lon":5.384829,"is_reserved":false,"is_disabled":false,"rental_uris":{"android":"levelo://app?vid=5f3a248d-b745-4a98-b9b9-56d58584d2c4","ios":"levelo://app?vid=5f3a248d-b745-4a98-b9b9-56d58584d2c4"},"vehicle_type_id":"4","last_reported":1702245988,"current_range_meters":24800,"station_id":"ce4bgt92rcd13ifvqcf0","pricing_plan_id":"free"},{"bike_id":"d8be298e-f4c0-4479-a66b-e307c680d7cc","system_id":"levelo_inurba_marseille","lat":43.31356,"lon":5.38493,"is_reserved":false,"is_disabled":false,"rental_uris":{"android":"levelo://app?vid=d8be298e-f4c0-4479-a66b-e307c680d7cc","ios":"levelo://app?vid=d8be298e-f4c0-4479-a66b-e307c680d7cc"},"vehicle_type_id":"4","last_reported":1702245988,"current_range_meters":18800,"station_id":"ce4bgt92rcd13ifvqcf0","pricing_plan_id":"free"},{"bike_id":"3263de88-5376-4615-bc65-d177b553d74a","system_id":"levelo_inurba_marseille","lat":43.31365,"lon":5.38498,"is_reserved":false,"is_disabled":false,"rental_uris":{"android":"levelo://app?vid=3263de88-5376-4615-bc65-d177b553d74a","ios":"levelo://app?vid=3263de88-5376-4615-bc65-d177b553d74a"},"vehicle_type_id":"4","last_reported":1702245988,"current_range_meters":6800,"station_id":"ce4bgt92rcd13ifvqcf0","pricing_plan_id":"free"},{"bike_id":"69b761bc-e019-4c40-ab09-85dae138d73a","system_id":"levelo_inurba_marseille","lat":43.305364,"lon":5.384119,"is_reserved":false,"is_disabled":false,"rental_uris":{"android":"levelo://app?vid=69b761bc-e019-4c40-ab09-85dae138d73a","ios":"levelo://app?vid=69b761bc-e019-4c40-ab09-85dae138d73a"},"vehicle_type_id":"4","last_reported":1702245988,"current_range_meters":29600,"station_id":"ce4bgg92rcd13ifvqb30","pricing_plan_id":"free"},{"bike_id":"5d957cf2-ccf4-410b-8167-1e6542b18b45","system_id":"levelo_inurba_marseille","lat":43.305364,"lon":5.384119,"is_reserved":false,"is_disabled":false,"rental_uris":{"android":"levelo://app?vid=5d957cf2-ccf4-410b-8167-1e6542b18b45","ios":"levelo://app?vid=5d957cf2-ccf4-410b-8167-1e6542b18b45"},"vehicle_type_id":"4","last_reported":1702245988,"current_range_meters":30400,"station_id":"ce4bgg92rcd13ifvqb30","pricing_plan_id":"free"},{"bike_id":"ab271e6e-b9ba-42d6-beab-0570fd9297d6","system_id":"levelo_inurba_marseille","lat":43.311722,"lon":5.387247,"is_reserved":false,"is_disabled":false,"rental_uris":{"android":"levelo://app?vid=ab271e6e-b9ba-42d6-beab-0570fd9297d6","ios":"levelo://app?vid=ab271e6e-b9ba-42d6-beab-0570fd9297d6"},"vehicle_type_id":"4","last_reported":1702245988,"current_range_meters":28000,"station_id":"ce4bgv12rcd13ifvqcp0","pricing_plan_id":"free"},{"bike_id":"ccd4fbf7-a0c2-498b-8ecc-15a67004cff0","system_id":"levelo_inurba_marseille","lat":43.322872,"lon":5.382756,"is_reserved":false,"is_disabled":false,"rental_uris":{"android":"levelo://app?vid=ccd4fbf7-a0c2-498b-8ecc-15a67004cff0","ios":"levelo://app?vid=ccd4fbf7-a0c2-498b-8ecc-15a67004cff0"},"vehicle_type_id":"4","last_reported":1702245988,"current_range_meters":28400,"station_id":"ce4bhr12rcd13ifvqhqg","pricing_plan_id":"free"},{"bike_id":"6ac675f1-e0be-498c-ad2f-b742a949d4b0","system_id":"levelo_inurba_marseille","lat":43.298218,"lon":5.374416,"is_reserved":false,"is_disabled":false,"rental_uris":{"android":"levelo://app?vid=6ac675f1-e0be-498c-ad2f-b742a949d4b0","ios":"levelo://app?vid=6ac675f1-e0be-498c-ad2f-b742a949d4b0"},"vehicle_type_id":"4","last_reported":1702245988,"current_range_meters":0,"station_id":"","pricing_plan_id":"free"},{"bike_id":"ced04489-6372-4e64-a3af-03ee9dbb0ab6","system_id":"levelo_inurba_marseille","lat":43.328317,"lon":5.36684,"is_reserved":false,"is_disabled":false,"rental_uris":{"android":"levelo://app?vid=ced04489-6372-4e64-a3af-03ee9dbb0ab6","ios":"levelo://app?vid=ced04489-6372-4e64-a3af-03ee9dbb0ab6"},"vehicle_type_id":"4","last_reported":1702245988,"current_range_meters":27200,"station_id":"ce4bhs92rcd13ifvqi0g","pricing_plan_id":"free"},{"bike_id":"92dc65d6-6823-4de3-93d4-056f738f090c","system_id":"levelo_inurba_marseille","lat":43.316538,"lon":5.38954,"is_reserved":false,"is_disabled":false,"rental_uris":{"android":"levelo://app?vid=92dc65d6-6823-4de3-93d4-056f738f090c","ios":"levelo://app?vid=92dc65d6-6823-4de3-93d4-056f738f090c"},"vehicle_type_id":"4","last_reported":1702245988,"current_range_meters":0,"station_id":"","pricing_plan_id":"free"},{"bike_id":"e71c2018-16ba-45fe-841d-ab2679fa1fe3","system_id":"levelo_inurba_marseille","lat":43.309589,"lon":5.390258,"is_reserved":false,"is_disabled":false,"rental_uris":{"android":"levelo://app?vid=e71c2018-16ba-45fe-841d-ab2679fa1fe3","ios":"levelo://app?vid=e71c2018-16ba-45fe-841d-ab2679fa1fe3"},"vehicle_type_id":"4","last_reported":1702245988,"current_range_meters":14800,"station_id":"ce4bgup2rcd13ifvqco0","pricing_plan_id":"free"},{"bike_id":"cada5130-7313-45c6-b58c-c61697132b43","system_id":"levelo_inurba_marseille","lat":43.317557,"lon":5.390173,"is_reserved":false,"is_disabled":false,"rental_uris":{"android":"levelo://app?vid=cada5130-7313-45c6-b58c-c61697132b43","ios":"levelo://app?vid=cada5130-7313-45c6-b58c-c61697132b43"},"vehicle_type_id":"4","last_reported":1702245988,"current_range_meters":28400,"station_id":"ce4bhqp2rcd13ifvqhng","pricing_plan_id":"free"},{"bike_id":"629123aa-9fe4-44b7-9a68-a45f23702089","system_id":"levelo_inurba_marseille","lat":43.317557,"lon":5.390173,"is_reserved":false,"is_disabled":false,"rental_uris":{"android":"levelo://app?vid=629123aa-9fe4-44b7-9a68-a45f23702089","ios":"levelo://app?vid=629123aa-9fe4-44b7-9a68-a45f23702089"},"vehicle_type_id":"4","last_reported":1702245988,"current_range_meters":26400,"station_id":"ce4bhqp2rcd13ifvqhng","pricing_plan_id":"free"},{"bike_id":"681cd541-e409-4aa8-af5b-d30caffba5e4","system_id":"levelo_inurba_marseille","lat":43.299717,"lon":5.384845,"is_reserved":false,"is_disabled":false,"rental_uris":{"android":"levelo://app?vid=681cd541-e409-4aa8-af5b-d30caffba5e4","ios":"levelo://app?vid=681cd541-e409-4aa8-af5b-d30caffba5e4"},"vehicle_type_id":"4","last_reported":1702245988,"current_range_meters":5600,"station_id":"ce4bgj92rcd13ifvqbd0","pricing_plan_id":"free"},{"bike_id":"74dedefc-9d72-48e0-bb73-66e097456753","system_id":"levelo_inurba_marseille","lat":43.32368,"lon":5.38885,"is_reserved":false,"is_disabled":false,"rental_uris":{"android":"levelo://app?vid=74dedefc-9d72-48e0-bb73-66e097456753","ios":"levelo://app?vid=74dedefc-9d72-48e0-bb73-66e097456753"},"vehicle_type_id":"4","last_reported":1702245988,"current_range_meters":5200,"station_id":"ce4bhqp2rcd13ifvqhog","pricing_plan_id":"free"},{"bike_id":"7552bd73-e322-4fc2-8df3-bbc3e0781cde","system_id":"levelo_inurba_marseille","lat":43.29253,"lon":5.37632,"is_reserved":false,"is_disabled":false,"rental_uris":{"android":"levelo://app?vid=7552bd73-e322-4fc2-8df3-bbc3e0781cde","ios":"levelo://app?vid=7552bd73-e322-4fc2-8df3-bbc3e0781cde"},"vehicle_type_id":"4","last_reported":1702245988,"current_range_meters":4000,"station_id":"ce4bgi12rcd13ifvqb80","pricing_plan_id":"free"},{"bike_id":"a5524107-bbdf-4392-b562-97d10181933a","system_id":"levelo_inurba_marseille","lat":43.309038,"lon":5.396546,"is_reserved":false,"is_disabled":false,"rental_uris":{"android":"levelo://app?vid=a5524107-bbdf-4392-b562-97d10181933a","ios":"levelo://app?vid=a5524107-bbdf-4392-b562-97d10181933a"},"vehicle_type_id":"4","last_reported":1702245988,"current_range_meters":30000,"station_id":"ce4bh012rcd13ifvqcv0","pricing_plan_id":"free"},{"bike_id":"fbcc3e80-89c8-4aed-b22f-293feb3422bb","system_id":"levelo_inurba_marseille","lat":43.309047,"lon":5.396551,"is_reserved":false,"is_disabled":false,"rental_uris":{"android":"levelo://app?vid=fbcc3e80-89c8-4aed-b22f-293feb3422bb","ios":"levelo://app?vid=fbcc3e80-89c8-4aed-b22f-293feb3422bb"},"vehicle_type_id":"4","last_reported":1702245988,"current_range_meters":28000,"station_id":"ce4bh012rcd13ifvqcv0","pricing_plan_id":"free"},{"bike_id":"0834032b-1a31-494d-afb5-666ddeadc25f","system_id":"levelo_inurba_marseille","lat":43.2894,"lon":5.36626,"is_reserved":false,"is_disabled":false,"rental_uris":{"android":"levelo://app?vid=0834032b-1a31-494d-afb5-666ddeadc25f","ios":"levelo://app?vid=0834032b-1a31-494d-afb5-666ddeadc25f"},"vehicle_type_id":"4","last_reported":1702245988,"current_range_meters":0,"station_id":"ce4bhap2rcd13ifvqek0","pricing_plan_id":"free"},{"bike_id":"a02a1b20-1fb1-4951-988a-77389649024d","system_id":"levelo_inurba_marseille","lat":43.289259,"lon":5.366364,"is_reserved":false,"is_disabled":false,"rental_uris":{"android":"levelo://app?vid=a02a1b20-1fb1-4951-988a-77389649024d","ios":"levelo://app?vid=a02a1b20-1fb1-4951-988a-77389649024d"},"vehicle_type_id":"4","last_reported":1702245988,"current_range_meters":6800,"station_id":"","pricing_plan_id":"free"},{"bike_id":"e3ad2d5e-bc42-40e6-baeb-12daeb8c0198","system_id":"levelo_inurba_marseille","lat":43.28932,"lon":5.36398,"is_reserved":false,"is_disabled":false,"rental_uris":{"android":"levelo://app?vid=e3ad2d5e-bc42-40e6-baeb-12daeb8c0198","ios":"levelo://app?vid=e3ad2d5e-bc42-40e6-baeb-12daeb8c0198"},"vehicle_type_id":"4","last_reported":1702245988,"current_range_meters":25200,"station_id":"ce4bhc92rcd13ifvqetg","pricing_plan_id":"free"},{"bike_id":"932e4179-cc21-4af2-9b5f-c7545c6a85a7","system_id":"levelo_inurba_marseille","lat":43.304296,"lon":5.397513,"is_reserved":false,"is_disabled":false,"rental_uris":{"android":"levelo://app?vid=932e4179-cc21-4af2-9b5f-c7545c6a85a7","ios":"levelo://app?vid=932e4179-cc21-4af2-9b5f-c7545c6a85a7"},"vehicle_type_id":"4","last_reported":1702245988,"current_range_meters":17200,"station_id":"ce4bh092rcd13ifvqd20","pricing_plan_id":"free"},{"bike_id":"2c922e28-5d22-4dd1-bf6c-d686043bce6c","system_id":"levelo_inurba_marseille","lat":43.33039,"lon":5.38923,"is_reserved":false,"is_disabled":false,"rental_uris":{"android":"levelo://app?vid=2c922e28-5d22-4dd1-bf6c-d686043bce6c","ios":"levelo://app?vid=2c922e28-5d22-4dd1-bf6c-d686043bce6c"},"vehicle_type_id":"4","last_reported":1702245988,"current_range_meters":0,"station_id":"ce4bhr92rcd13ifvqhrg","pricing_plan_id":"free"},{"bike_id":"b6a058cb-df72-45bf-a5c7-26f5c3fc542f","system_id":"levelo_inurba_marseille","lat":43.297815,"lon":5.393548,"is_reserved":false,"is_disabled":false,"rental_uris":{"android":"levelo://app?vid=b6a058cb-df72-45bf-a5c7-26f5c3fc542f","ios":"levelo://app?vid=b6a058cb-df72-45bf-a5c7-26f5c3fc542f"},"vehicle_type_id":"4","last_reported":1702245988,"current_range_meters":22800,"station_id":"chh1huq6cuj3fo74tm60","pricing_plan_id":"free"},{"bike_id":"3a4267ec-eb56-4d43-82a1-817967632c68","system_id":"levelo_inurba_marseille","lat":43.28856,"lon":5.358371,"is_reserved":false,"is_disabled":false,"rental_uris":{"android":"levelo://app?vid=3a4267ec-eb56-4d43-82a1-817967632c68","ios":"levelo://app?vid=3a4267ec-eb56-4d43-82a1-817967632c68"},"vehicle_type_id":"4","last_reported":1702245988,"current_range_meters":0,"station_id":"ce4bhb12rcd13ifvqem0","pricing_plan_id":"free"},{"bike_id":"c7dc1baf-2585-4138-9aa9-1bea746ab99a","system_id":"levelo_inurba_marseille","lat":43.312766,"lon":5.401693,"is_reserved":false,"is_disabled":false,"rental_uris":{"android":"levelo://app?vid=c7dc1baf-2585-4138-9aa9-1bea746ab99a","ios":"levelo://app?vid=c7dc1baf-2585-4138-9aa9-1bea746ab99a"},"vehicle_type_id":"4","last_reported":1702245988,"current_range_meters":0,"station_id":"ce4bh092rcd13ifvqd30","pricing_plan_id":"free"},{"bike_id":"063daa3e-4850-4885-a235-865f4a36d69e","system_id":"levelo_inurba_marseille","lat":43.3094,"lon":5.40147,"is_reserved":false,"is_disabled":false,"rental_uris":{"android":"levelo://app?vid=063daa3e-4850-4885-a235-865f4a36d69e","ios":"levelo://app?vid=063daa3e-4850-4885-a235-865f4a36d69e"},"vehicle_type_id":"4","last_reported":1702245988,"current_range_meters":24400,"station_id":"ce4bgvp2rcd13ifvqct0","pricing_plan_id":"free"},{"bike_id":"e739535b-1c8f-413d-8c64-3d79e7eec33b","system_id":"levelo_inurba_marseille","lat":43.309371,"lon":5.401449,"is_reserved":false,"is_disabled":false,"rental_uris":{"android":"levelo://app?vid=e739535b-1c8f-413d-8c64-3d79e7eec33b","ios":"levelo://app?vid=e739535b-1c8f-413d-8c64-3d79e7eec33b"},"vehicle_type_id":"4","last_reported":1702245988,"current_range_meters":14000,"station_id":"ce4bgvp2rcd13ifvqct0","pricing_plan_id":"free"},{"bike_id":"1bca5501-83ce-4d12-ba0c-c0f0266cf2a5","system_id":"levelo_inurba_marseille","lat":43.306412,"lon":5.401035,"is_reserved":false,"is_disabled":false,"rental_uris":{"android":"levelo://app?vid=1bca5501-83ce-4d12-ba0c-c0f0266cf2a5","ios":"levelo://app?vid=1bca5501-83ce-4d12-ba0c-c0f0266cf2a5"},"vehicle_type_id":"4","last_reported":1702245988,"current_range_meters":24400,"station_id":"ce4bh112rcd13ifvqda0","pricing_plan_id":"free"},{"bike_id":"a2ef4979-dad7-4d49-95f5-9b9978667d0d","system_id":"levelo_inurba_marseille","lat":43.2881,"lon":5.37683,"is_reserved":false,"is_disabled":false,"rental_uris":{"android":"levelo://app?vid=a2ef4979-dad7-4d49-95f5-9b9978667d0d","ios":"levelo://app?vid=a2ef4979-dad7-4d49-95f5-9b9978667d0d"},"vehicle_type_id":"4","last_reported":1702245988,"current_range_meters":0,"station_id":"","pricing_plan_id":"free"},{"bike_id":"a1b7e675-1fbd-4587-a6f2-26ec9a74ce8e","system_id":"levelo_inurba_marseille","lat":43.28727,"lon":5.36078,"is_reserved":false,"is_disabled":false,"rental_uris":{"android":"levelo://app?vid=a1b7e675-1fbd-4587-a6f2-26ec9a74ce8e","ios":"levelo://app?vid=a1b7e675-1fbd-4587-a6f2-26ec9a74ce8e"},"vehicle_type_id":"4","last_reported":1702245988,"current_range_meters":5200,"station_id":"cki0cbj6b192h4jlfktg","pricing_plan_id":"free"},{"bike_id":"b83fd9fc-ecdf-4c7d-8f06-bc7c83d6cf1e","system_id":"levelo_inurba_marseille","lat":43.28727,"lon":5.36078,"is_reserved":false,"is_disabled":false,"rental_uris":{"android":"levelo://app?vid=b83fd9fc-ecdf-4c7d-8f06-bc7c83d6cf1e","ios":"levelo://app?vid=b83fd9fc-ecdf-4c7d-8f06-bc7c83d6cf1e"},"vehicle_type_id":"4","last_reported":1702245988,"current_range_meters":29600,"station_id":"cki0cbj6b192h4jlfktg","pricing_plan_id":"free"},{"bike_id":"ec895315-dc2d-4277-ac24-20c29d74b8d9","system_id":"levelo_inurba_marseille","lat":43.28727,"lon":5.36078,"is_reserved":false,"is_disabled":false,"rental_uris":{"android":"levelo://app?vid=ec895315-dc2d-4277-ac24-20c29d74b8d9","ios":"levelo://app?vid=ec895315-dc2d-4277-ac24-20c29d74b8d9"},"vehicle_type_id":"4","last_reported":1702245988,"current_range_meters":6000,"station_id":"cki0cbj6b192h4jlfktg","pricing_plan_id":"free"},{"bike_id":"75c92b3f-a2cc-438c-b8dc-8fb28761734d","system_id":"levelo_inurba_marseille","lat":43.28727,"lon":5.36078,"is_reserved":false,"is_disabled":false,"rental_uris":{"android":"levelo://app?vid=75c92b3f-a2cc-438c-b8dc-8fb28761734d","ios":"levelo://app?vid=75c92b3f-a2cc-438c-b8dc-8fb28761734d"},"vehicle_type_id":"4","last_reported":1702245988,"current_range_meters":1200,"station_id":"cki0cbj6b192h4jlfktg","pricing_plan_id":"free"},{"bike_id":"55be7eba-580f-41fd-929c-d901781e9cbd","system_id":"levelo_inurba_marseille","lat":43.286591,"lon":5.363346,"is_reserved":false,"is_disabled":false,"rental_uris":{"android":"levelo://app?vid=55be7eba-580f-41fd-929c-d901781e9cbd","ios":"levelo://app?vid=55be7eba-580f-41fd-929c-d901781e9cbd"},"vehicle_type_id":"4","last_reported":1702245988,"current_range_meters":11600,"station_id":"ce4bhah2rcd13ifvqej0","pricing_plan_id":"free"},{"bike_id":"743c9578-b8f3-4e30-9547-3f47d37efa14","system_id":"levelo_inurba_marseille","lat":43.286591,"lon":5.363346,"is_reserved":false,"is_disabled":false,"rental_uris":{"android":"levelo://app?vid=743c9578-b8f3-4e30-9547-3f47d37efa14","ios":"levelo://app?vid=743c9578-b8f3-4e30-9547-3f47d37efa14"},"vehicle_type_id":"4","last_reported":1702245988,"current_range_meters":31200,"station_id":"ce4bhah2rcd13ifvqej0","pricing_plan_id":"free"},{"bike_id":"93969e87-34f8-4e80-b564-cb7598527d8d","system_id":"levelo_inurba_marseille","lat":43.286593,"lon":5.363346,"is_reserved":false,"is_disabled":false,"rental_uris":{"android":"levelo://app?vid=93969e87-34f8-4e80-b564-cb7598527d8d","ios":"levelo://app?vid=93969e87-34f8-4e80-b564-cb7598527d8d"},"vehicle_type_id":"4","last_reported":1702245988,"current_range_meters":28000,"station_id":"ce4bhah2rcd13ifvqej0","pricing_plan_id":"free"},{"bike_id":"db24d0c9-111b-4d2e-92f6-cb94aea4c632","system_id":"levelo_inurba_marseille","lat":43.302759,"lon":5.400793,"is_reserved":false,"is_disabled":false,"rental_uris":{"android":"levelo://app?vid=db24d0c9-111b-4d2e-92f6-cb94aea4c632","ios":"levelo://app?vid=db24d0c9-111b-4d2e-92f6-cb94aea4c632"},"vehicle_type_id":"4","last_reported":1702245988,"current_range_meters":14400,"station_id":"ce4bgvh2rcd13ifvqcs0","pricing_plan_id":"free"},{"bike_id":"335b26cd-af17-41df-991c-27f3791d5a59","system_id":"levelo_inurba_marseille","lat":43.302759,"lon":5.400793,"is_reserved":false,"is_disabled":false,"rental_uris":{"android":"levelo://app?vid=335b26cd-af17-41df-991c-27f3791d5a59","ios":"levelo://app?vid=335b26cd-af17-41df-991c-27f3791d5a59"},"vehicle_type_id":"4","last_reported":1702245988,"current_range_meters":23200,"station_id":"ce4bgvh2rcd13ifvqcs0","pricing_plan_id":"free"},{"bike_id":"7a48da1a-f763-4f66-8fcb-72e474f7bb4a","system_id":"levelo_inurba_marseille","lat":43.287154,"lon":5.399979,"is_reserved":false,"is_disabled":false,"rental_uris":{"android":"levelo://app?vid=7a48da1a-f763-4f66-8fcb-72e474f7bb4a","ios":"levelo://app?vid=7a48da1a-f763-4f66-8fcb-72e474f7bb4a"},"vehicle_type_id":"4","last_reported":1702245988,"current_range_meters":12800,"station_id":"ce4bho92rcd13ifvqh3g","pricing_plan_id":"free"},{"bike_id":"ec7a9793-37ea-4058-8f46-8c2d42b07888","system_id":"levelo_inurba_marseille","lat":43.291994,"lon":5.392907,"is_reserved":false,"is_disabled":false,"rental_uris":{"android":"levelo://app?vid=ec7a9793-37ea-4058-8f46-8c2d42b07888","ios":"levelo://app?vid=ec7a9793-37ea-4058-8f46-8c2d42b07888"},"vehicle_type_id":"4","last_reported":1702245988,"current_range_meters":26000,"station_id":"ce4bh192rcd13ifvqdd0","pricing_plan_id":"free"},{"bike_id":"25395eb9-1409-4bd2-b943-4a15c1d20608","system_id":"levelo_inurba_marseille","lat":43.28467,"lon":5.35887,"is_reserved":false,"is_disabled":false,"rental_uris":{"android":"levelo://app?vid=25395eb9-1409-4bd2-b943-4a15c1d20608","ios":"levelo://app?vid=25395eb9-1409-4bd2-b943-4a15c1d20608"},"vehicle_type_id":"4","last_reported":1702245988,"current_range_meters":18000,"station_id":"ce4bhah2rcd13ifvqei0","pricing_plan_id":"free"},{"bike_id":"c9bdfd9d-659c-41a7-9d9b-4c86251ef96c","system_id":"levelo_inurba_marseille","lat":43.284648,"lon":5.35888,"is_reserved":false,"is_disabled":false,"rental_uris":{"android":"levelo://app?vid=c9bdfd9d-659c-41a7-9d9b-4c86251ef96c","ios":"levelo://app?vid=c9bdfd9d-659c-41a7-9d9b-4c86251ef96c"},"vehicle_type_id":"4","last_reported":1702245988,"current_range_meters":19600,"station_id":"ce4bhah2rcd13ifvqei0","pricing_plan_id":"free"},{"bike_id":"1fe7dae6-be01-4e96-9800-a99a19bfe32c","system_id":"levelo_inurba_marseille","lat":43.284534,"lon":5.358662,"is_reserved":false,"is_disabled":false,"rental_uris":{"android":"levelo://app?vid=1fe7dae6-be01-4e96-9800-a99a19bfe32c","ios":"levelo://app?vid=1fe7dae6-be01-4e96-9800-a99a19bfe32c"},"vehicle_type_id":"4","last_reported":1702245988,"current_range_meters":21600,"station_id":"ce4bhah2rcd13ifvqei0","pricing_plan_id":"free"},{"bike_id":"54eca29a-728b-41f2-b50a-77a0d433362e","system_id":"levelo_inurba_marseille","lat":43.284584,"lon":5.359003,"is_reserved":false,"is_disabled":false,"rental_uris":{"android":"levelo://app?vid=54eca29a-728b-41f2-b50a-77a0d433362e","ios":"levelo://app?vid=54eca29a-728b-41f2-b50a-77a0d433362e"},"vehicle_type_id":"4","last_reported":1702245988,"current_range_meters":18800,"station_id":"ce4bhah2rcd13ifvqei0","pricing_plan_id":"free"},{"bike_id":"119ee8e3-fa65-44d6-bb3b-11d0d77085d3","system_id":"levelo_inurba_marseille","lat":43.284591,"lon":5.358944,"is_reserved":false,"is_disabled":false,"rental_uris":{"android":"levelo://app?vid=119ee8e3-fa65-44d6-bb3b-11d0d77085d3","ios":"levelo://app?vid=119ee8e3-fa65-44d6-bb3b-11d0d77085d3"},"vehicle_type_id":"4","last_reported":1702245988,"current_range_meters":17600,"station_id":"ce4bhah2rcd13ifvqei0","pricing_plan_id":"free"},{"bike_id":"fa8fc40c-2bf2-4cc0-bee7-a0e4d72c9a1d","system_id":"levelo_inurba_marseille","lat":43.2846,"lon":5.35887,"is_reserved":false,"is_disabled":false,"rental_uris":{"android":"levelo://app?vid=fa8fc40c-2bf2-4cc0-bee7-a0e4d72c9a1d","ios":"levelo://app?vid=fa8fc40c-2bf2-4cc0-bee7-a0e4d72c9a1d"},"vehicle_type_id":"4","last_reported":1702245988,"current_range_meters":14800,"station_id":"ce4bhah2rcd13ifvqei0","pricing_plan_id":"free"},{"bike_id":"407293e1-3a88-41e1-af44-9ca5448b3884","system_id":"levelo_inurba_marseille","lat":43.284598,"lon":5.35883,"is_reserved":false,"is_disabled":false,"rental_uris":{"android":"levelo://app?vid=407293e1-3a88-41e1-af44-9ca5448b3884","ios":"levelo://app?vid=407293e1-3a88-41e1-af44-9ca5448b3884"},"vehicle_type_id":"4","last_reported":1702245988,"current_range_meters":7200,"station_id":"ce4bhah2rcd13ifvqei0","pricing_plan_id":"free"},{"bike_id":"a864b496-4175-421d-a32b-6c3b511474cb","system_id":"levelo_inurba_marseille","lat":43.284534,"lon":5.358662,"is_reserved":false,"is_disabled":false,"rental_uris":{"android":"levelo://app?vid=a864b496-4175-421d-a32b-6c3b511474cb","ios":"levelo://app?vid=a864b496-4175-421d-a32b-6c3b511474cb"},"vehicle_type_id":"4","last_reported":1702245988,"current_range_meters":20400,"station_id":"ce4bhah2rcd13ifvqei0","pricing_plan_id":"free"},{"bike_id":"25abb136-3c34-4966-a7ae-66a1e6ac7379","system_id":"levelo_inurba_marseille","lat":43.284564,"lon":5.358938,"is_reserved":false,"is_disabled":false,"rental_uris":{"android":"levelo://app?vid=25abb136-3c34-4966-a7ae-66a1e6ac7379","ios":"levelo://app?vid=25abb136-3c34-4966-a7ae-66a1e6ac7379"},"vehicle_type_id":"4","last_reported":1702245988,"current_range_meters":16800,"station_id":"ce4bhah2rcd13ifvqei0","pricing_plan_id":"free"},{"bike_id":"14b8c816-28a1-491c-86e6-c6bcdcd843d4","system_id":"levelo_inurba_marseille","lat":43.285856,"lon":5.350771,"is_reserved":false,"is_disabled":false,"rental_uris":{"android":"levelo://app?vid=14b8c816-28a1-491c-86e6-c6bcdcd843d4","ios":"levelo://app?vid=14b8c816-28a1-491c-86e6-c6bcdcd843d4"},"vehicle_type_id":"4","last_reported":1702245988,"current_range_meters":21600,"station_id":"ce4bhch2rcd13ifvqeug","pricing_plan_id":"free"},{"bike_id":"47a82285-29d3-44bc-a446-b80e06f0098a","system_id":"levelo_inurba_marseille","lat":43.284106,"lon":5.375286,"is_reserved":false,"is_disabled":false,"rental_uris":{"android":"levelo://app?vid=47a82285-29d3-44bc-a446-b80e06f0098a","ios":"levelo://app?vid=47a82285-29d3-44bc-a446-b80e06f0098a"},"vehicle_type_id":"4","last_reported":1702245988,"current_range_meters":0,"station_id":"ce4bh412rcd13ifvqds0","pricing_plan_id":"free"},{"bike_id":"ebefaaee-f067-48ca-b515-37055e3b17e9","system_id":"levelo_inurba_marseille","lat":43.286595,"lon":5.386795,"is_reserved":false,"is_disabled":false,"rental_uris":{"android":"levelo://app?vid=ebefaaee-f067-48ca-b515-37055e3b17e9","ios":"levelo://app?vid=ebefaaee-f067-48ca-b515-37055e3b17e9"},"vehicle_type_id":"4","last_reported":1702245988,"current_range_meters":12400,"station_id":"ce4bh492rcd13ifvqdug","pricing_plan_id":"free"},{"bike_id":"e8b9d767-1294-468f-9b9a-f156850ad894","system_id":"levelo_inurba_marseille","lat":43.297946,"lon":5.404063,"is_reserved":false,"is_disabled":false,"rental_uris":{"android":"levelo://app?vid=e8b9d767-1294-468f-9b9a-f156850ad894","ios":"levelo://app?vid=e8b9d767-1294-468f-9b9a-f156850ad894"},"vehicle_type_id":"4","last_reported":1702245988,"current_range_meters":26400,"station_id":"ce4bh112rcd13ifvqd90","pricing_plan_id":"free"},{"bike_id":"a2f20fb3-acbc-4a95-a88f-80f165cf7682","system_id":"levelo_inurba_marseille","lat":43.288501,"lon":5.393087,"is_reserved":false,"is_disabled":false,"rental_uris":{"android":"levelo://app?vid=a2f20fb3-acbc-4a95-a88f-80f165cf7682","ios":"levelo://app?vid=a2f20fb3-acbc-4a95-a88f-80f165cf7682"},"vehicle_type_id":"4","last_reported":1702245988,"current_range_meters":25200,"station_id":"ce4bh2p2rcd13ifvqdi0","pricing_plan_id":"free"},{"bike_id":"3aa34bec-bc05-472a-8080-6a94ef1db8bb","system_id":"levelo_inurba_marseille","lat":43.28856,"lon":5.39321,"is_reserved":false,"is_disabled":false,"rental_uris":{"android":"levelo://app?vid=3aa34bec-bc05-472a-8080-6a94ef1db8bb","ios":"levelo://app?vid=3aa34bec-bc05-472a-8080-6a94ef1db8bb"},"vehicle_type_id":"4","last_reported":1702245988,"current_range_meters":24000,"station_id":"","pricing_plan_id":"free"},{"bike_id":"4cb3fd0e-f6d6-4ab1-aa53-fac295dfe978","system_id":"levelo_inurba_marseille","lat":43.288501,"lon":5.393087,"is_reserved":false,"is_disabled":false,"rental_uris":{"android":"levelo://app?vid=4cb3fd0e-f6d6-4ab1-aa53-fac295dfe978","ios":"levelo://app?vid=4cb3fd0e-f6d6-4ab1-aa53-fac295dfe978"},"vehicle_type_id":"4","last_reported":1702245988,"current_range_meters":13600,"station_id":"ce4bh2p2rcd13ifvqdi0","pricing_plan_id":"free"},{"bike_id":"74aa0d01-cc7f-4347-9a90-8b6d41f50b18","system_id":"levelo_inurba_marseille","lat":43.28348,"lon":5.38118,"is_reserved":false,"is_disabled":false,"rental_uris":{"android":"levelo://app?vid=74aa0d01-cc7f-4347-9a90-8b6d41f50b18","ios":"levelo://app?vid=74aa0d01-cc7f-4347-9a90-8b6d41f50b18"},"vehicle_type_id":"4","last_reported":1702245988,"current_range_meters":0,"station_id":"ce4bh412rcd13ifvqdr0","pricing_plan_id":"free"},{"bike_id":"1483aa38-d657-4455-bc63-a5004ae94d16","system_id":"levelo_inurba_marseille","lat":43.284217,"lon":5.349822,"is_reserved":false,"is_disabled":false,"rental_uris":{"android":"levelo://app?vid=1483aa38-d657-4455-bc63-a5004ae94d16","ios":"levelo://app?vid=1483aa38-d657-4455-bc63-a5004ae94d16"},"vehicle_type_id":"4","last_reported":1702245988,"current_range_meters":21600,"station_id":"ce4bhbh2rcd13ifvqepg","pricing_plan_id":"free"},{"bike_id":"2f81e9fd-63ae-4d13-8e48-a2921038652f","system_id":"levelo_inurba_marseille","lat":43.289363,"lon":5.396322,"is_reserved":false,"is_disabled":false,"rental_uris":{"android":"levelo://app?vid=2f81e9fd-63ae-4d13-8e48-a2921038652f","ios":"levelo://app?vid=2f81e9fd-63ae-4d13-8e48-a2921038652f"},"vehicle_type_id":"4","last_reported":1702245988,"current_range_meters":24000,"station_id":"ce4bh3h2rcd13ifvqdn0","pricing_plan_id":"free"},{"bike_id":"434fe083-b637-4d29-9f97-8e699f7061a7","system_id":"levelo_inurba_marseille","lat":43.292724,"lon":5.401131,"is_reserved":false,"is_disabled":false,"rental_uris":{"android":"levelo://app?vid=434fe083-b637-4d29-9f97-8e699f7061a7","ios":"levelo://app?vid=434fe083-b637-4d29-9f97-8e699f7061a7"},"vehicle_type_id":"4","last_reported":1702245988,"current_range_meters":16400,"station_id":"ce4bh312rcd13ifvqdk0","pricing_plan_id":"free"},{"bike_id":"acf7b623-8d7d-4953-812a-017bea343a7f","system_id":"levelo_inurba_marseille","lat":43.29216,"lon":5.40074,"is_reserved":false,"is_disabled":false,"rental_uris":{"android":"levelo://app?vid=acf7b623-8d7d-4953-812a-017bea343a7f","ios":"levelo://app?vid=acf7b623-8d7d-4953-812a-017bea343a7f"},"vehicle_type_id":"4","last_reported":1702245988,"current_range_meters":0,"station_id":"","pricing_plan_id":"free"},{"bike_id":"48a4d9fe-fdc0-4cd0-9ac0-baf0bd45d62b","system_id":"levelo_inurba_marseille","lat":43.28039,"lon":5.369297,"is_reserved":false,"is_disabled":false,"rental_uris":{"android":"levelo://app?vid=48a4d9fe-fdc0-4cd0-9ac0-baf0bd45d62b","ios":"levelo://app?vid=48a4d9fe-fdc0-4cd0-9ac0-baf0bd45d62b"},"vehicle_type_id":"4","last_reported":1702245988,"current_range_meters":2400,"station_id":"ce4bha12rcd13ifvqef0","pricing_plan_id":"free"},{"bike_id":"5ee7e84f-5922-43a2-9c96-8b27c780e2f4","system_id":"levelo_inurba_marseille","lat":43.284462,"lon":5.392121,"is_reserved":false,"is_disabled":false,"rental_uris":{"android":"levelo://app?vid=5ee7e84f-5922-43a2-9c96-8b27c780e2f4","ios":"levelo://app?vid=5ee7e84f-5922-43a2-9c96-8b27c780e2f4"},"vehicle_type_id":"4","last_reported":1702245988,"current_range_meters":28400,"station_id":"ce4bhoh2rcd13ifvqh5g","pricing_plan_id":"free"},{"bike_id":"484f0240-80a4-41cf-b17e-43d65fdff02d","system_id":"levelo_inurba_marseille","lat":43.285742,"lon":5.395004,"is_reserved":false,"is_disabled":false,"rental_uris":{"android":"levelo://app?vid=484f0240-80a4-41cf-b17e-43d65fdff02d","ios":"levelo://app?vid=484f0240-80a4-41cf-b17e-43d65fdff02d"},"vehicle_type_id":"4","last_reported":1702245988,"current_range_meters":28400,"station_id":"ce4bh292rcd13ifvqdg0","pricing_plan_id":"free"},{"bike_id":"ab5fa486-5a40-43a6-a640-b81e2ceb0760","system_id":"levelo_inurba_marseille","lat":43.326605,"lon":5.409903,"is_reserved":false,"is_disabled":false,"rental_uris":{"android":"levelo://app?vid=ab5fa486-5a40-43a6-a640-b81e2ceb0760","ios":"levelo://app?vid=ab5fa486-5a40-43a6-a640-b81e2ceb0760"},"vehicle_type_id":"4","last_reported":1702245988,"current_range_meters":4000,"station_id":"ce4bhpp2rcd13ifvqhgg","pricing_plan_id":"free"},{"bike_id":"8f24570c-8c0e-4baf-b9e9-81d41a12db0c","system_id":"levelo_inurba_marseille","lat":43.304188,"lon":5.412904,"is_reserved":false,"is_disabled":false,"rental_uris":{"android":"levelo://app?vid=8f24570c-8c0e-4baf-b9e9-81d41a12db0c","ios":"levelo://app?vid=8f24570c-8c0e-4baf-b9e9-81d41a12db0c"},"vehicle_type_id":"4","last_reported":1702245988,"current_range_meters":14800,"station_id":"ce4bhop2rcd13ifvqh8g","pricing_plan_id":"free"},{"bike_id":"374b7ca6-3120-4a0e-9ce6-c184d55a61ab","system_id":"levelo_inurba_marseille","lat":43.287154,"lon":5.399979,"is_reserved":false,"is_disabled":false,"rental_uris":{"android":"levelo://app?vid=374b7ca6-3120-4a0e-9ce6-c184d55a61ab","ios":"levelo://app?vid=374b7ca6-3120-4a0e-9ce6-c184d55a61ab"},"vehicle_type_id":"4","last_reported":1702245988,"current_range_meters":13600,"station_id":"ce4bho92rcd13ifvqh3g","pricing_plan_id":"free"},{"bike_id":"f2aff530-cc12-40b0-94d3-150a968e20e2","system_id":"levelo_inurba_marseille","lat":43.287154,"lon":5.399979,"is_reserved":false,"is_disabled":false,"rental_uris":{"android":"levelo://app?vid=f2aff530-cc12-40b0-94d3-150a968e20e2","ios":"levelo://app?vid=f2aff530-cc12-40b0-94d3-150a968e20e2"},"vehicle_type_id":"4","last_reported":1702245988,"current_range_meters":5600,"station_id":"ce4bho92rcd13ifvqh3g","pricing_plan_id":"free"},{"bike_id":"99c8d016-1187-4cc4-b836-7835d40dfe3d","system_id":"levelo_inurba_marseille","lat":43.287154,"lon":5.399979,"is_reserved":false,"is_disabled":false,"rental_uris":{"android":"levelo://app?vid=99c8d016-1187-4cc4-b836-7835d40dfe3d","ios":"levelo://app?vid=99c8d016-1187-4cc4-b836-7835d40dfe3d"},"vehicle_type_id":"4","last_reported":1702245988,"current_range_meters":20800,"station_id":"ce4bho92rcd13ifvqh3g","pricing_plan_id":"free"},{"bike_id":"43d61ca8-1cf4-47d9-b912-1ec202093abf","system_id":"levelo_inurba_marseille","lat":43.287154,"lon":5.399979,"is_reserved":false,"is_disabled":false,"rental_uris":{"android":"levelo://app?vid=43d61ca8-1cf4-47d9-b912-1ec202093abf","ios":"levelo://app?vid=43d61ca8-1cf4-47d9-b912-1ec202093abf"},"vehicle_type_id":"4","last_reported":1702245988,"current_range_meters":7600,"station_id":"ce4bho92rcd13ifvqh3g","pricing_plan_id":"free"},{"bike_id":"6da20e4a-29d3-46f6-9d42-34f66f2f25f0","system_id":"levelo_inurba_marseille","lat":43.299577,"lon":5.413277,"is_reserved":false,"is_disabled":false,"rental_uris":{"android":"levelo://app?vid=6da20e4a-29d3-46f6-9d42-34f66f2f25f0","ios":"levelo://app?vid=6da20e4a-29d3-46f6-9d42-34f66f2f25f0"},"vehicle_type_id":"4","last_reported":1702245988,"current_range_meters":28800,"station_id":"ce4bhp12rcd13ifvqh9g","pricing_plan_id":"free"},{"bike_id":"b755b32e-10b7-4584-895f-e73181e8826f","system_id":"levelo_inurba_marseille","lat":43.29261,"lon":5.40902,"is_reserved":false,"is_disabled":false,"rental_uris":{"android":"levelo://app?vid=b755b32e-10b7-4584-895f-e73181e8826f","ios":"levelo://app?vid=b755b32e-10b7-4584-895f-e73181e8826f"},"vehicle_type_id":"4","last_reported":1702245988,"current_range_meters":19200,"station_id":"ce4bh192rcd13ifvqdc0","pricing_plan_id":"free"},{"bike_id":"d582b1b8-4fb7-42b5-a62e-2e2d72128f73","system_id":"levelo_inurba_marseille","lat":43.2926,"lon":5.40908,"is_reserved":false,"is_disabled":false,"rental_uris":{"android":"levelo://app?vid=d582b1b8-4fb7-42b5-a62e-2e2d72128f73","ios":"levelo://app?vid=d582b1b8-4fb7-42b5-a62e-2e2d72128f73"},"vehicle_type_id":"4","last_reported":1702245988,"current_range_meters":9600,"station_id":"ce4bh192rcd13ifvqdc0","pricing_plan_id":"free"},{"bike_id":"0d60d0d2-152a-499a-b103-6a8718567a09","system_id":"levelo_inurba_marseille","lat":43.29258,"lon":5.40909,"is_reserved":false,"is_disabled":false,"rental_uris":{"android":"levelo://app?vid=0d60d0d2-152a-499a-b103-6a8718567a09","ios":"levelo://app?vid=0d60d0d2-152a-499a-b103-6a8718567a09"},"vehicle_type_id":"4","last_reported":1702245988,"current_range_meters":5600,"station_id":"ce4bh192rcd13ifvqdc0","pricing_plan_id":"free"},{"bike_id":"444e0494-bd0b-488a-8959-45dfceebe5ae","system_id":"levelo_inurba_marseille","lat":43.292571,"lon":5.409107,"is_reserved":false,"is_disabled":false,"rental_uris":{"android":"levelo://app?vid=444e0494-bd0b-488a-8959-45dfceebe5ae","ios":"levelo://app?vid=444e0494-bd0b-488a-8959-45dfceebe5ae"},"vehicle_type_id":"4","last_reported":1702245988,"current_range_meters":26000,"station_id":"ce4bh192rcd13ifvqdc0","pricing_plan_id":"free"},{"bike_id":"8408d889-2f0c-4697-bdc2-9cc8090c15c4","system_id":"levelo_inurba_marseille","lat":43.280784,"lon":5.396622,"is_reserved":false,"is_disabled":false,"rental_uris":{"android":"levelo://app?vid=8408d889-2f0c-4697-bdc2-9cc8090c15c4","ios":"levelo://app?vid=8408d889-2f0c-4697-bdc2-9cc8090c15c4"},"vehicle_type_id":"4","last_reported":1702245988,"current_range_meters":26000,"station_id":"ce4bho12rcd13ifvqh2g","pricing_plan_id":"free"},{"bike_id":"3f8eae91-c8c9-4a83-9904-309b876e1d54","system_id":"levelo_inurba_marseille","lat":43.27372,"lon":5.36244,"is_reserved":false,"is_disabled":false,"rental_uris":{"android":"levelo://app?vid=3f8eae91-c8c9-4a83-9904-309b876e1d54","ios":"levelo://app?vid=3f8eae91-c8c9-4a83-9904-309b876e1d54"},"vehicle_type_id":"4","last_reported":1702245988,"current_range_meters":0,"station_id":"ce4bhbh2rcd13ifvqeo0","pricing_plan_id":"free"},{"bike_id":"1a2323a3-432a-41e1-b879-996f7d0dc72a","system_id":"levelo_inurba_marseille","lat":43.275625,"lon":5.384392,"is_reserved":false,"is_disabled":false,"rental_uris":{"android":"levelo://app?vid=1a2323a3-432a-41e1-b879-996f7d0dc72a","ios":"levelo://app?vid=1a2323a3-432a-41e1-b879-996f7d0dc72a"},"vehicle_type_id":"4","last_reported":1702245988,"current_range_meters":25200,"station_id":"ce4bhh92rcd13ifvqfi0","pricing_plan_id":"free"},{"bike_id":"b49195d1-5252-4b63-9ddd-c39017071e00","system_id":"levelo_inurba_marseille","lat":43.27639,"lon":5.39485,"is_reserved":false,"is_disabled":false,"rental_uris":{"android":"levelo://app?vid=b49195d1-5252-4b63-9ddd-c39017071e00","ios":"levelo://app?vid=b49195d1-5252-4b63-9ddd-c39017071e00"},"vehicle_type_id":"4","last_reported":1702245988,"current_range_meters":16800,"station_id":"","pricing_plan_id":"free"},{"bike_id":"63133364-316e-458e-b234-bbd4926c63fc","system_id":"levelo_inurba_marseille","lat":43.27583,"lon":5.39474,"is_reserved":false,"is_disabled":false,"rental_uris":{"android":"levelo://app?vid=63133364-316e-458e-b234-bbd4926c63fc","ios":"levelo://app?vid=63133364-316e-458e-b234-bbd4926c63fc"},"vehicle_type_id":"4","last_reported":1702245988,"current_range_meters":2000,"station_id":"","pricing_plan_id":"free"},{"bike_id":"333ea7a5-e528-4395-aad6-49ba718c25fe","system_id":"levelo_inurba_marseille","lat":43.304096,"lon":5.425385,"is_reserved":false,"is_disabled":false,"rental_uris":{"android":"levelo://app?vid=333ea7a5-e528-4395-aad6-49ba718c25fe","ios":"levelo://app?vid=333ea7a5-e528-4395-aad6-49ba718c25fe"},"vehicle_type_id":"4","last_reported":1702245988,"current_range_meters":28000,"station_id":"ce4bhoh2rcd13ifvqh6g","pricing_plan_id":"free"},{"bike_id":"05c3dd6c-9816-4000-92e5-52e3d95ee2fa","system_id":"levelo_inurba_marseille","lat":43.28325,"lon":5.41204,"is_reserved":false,"is_disabled":false,"rental_uris":{"android":"levelo://app?vid=05c3dd6c-9816-4000-92e5-52e3d95ee2fa","ios":"levelo://app?vid=05c3dd6c-9816-4000-92e5-52e3d95ee2fa"},"vehicle_type_id":"4","last_reported":1702245988,"current_range_meters":9200,"station_id":"","pricing_plan_id":"free"},{"bike_id":"0f1cac5f-17bc-416f-98ba-caefa247ccca","system_id":"levelo_inurba_marseille","lat":43.295511,"lon":5.422926,"is_reserved":false,"is_disabled":false,"rental_uris":{"android":"levelo://app?vid=0f1cac5f-17bc-416f-98ba-caefa247ccca","ios":"levelo://app?vid=0f1cac5f-17bc-416f-98ba-caefa247ccca"},"vehicle_type_id":"4","last_reported":1702245988,"current_range_meters":2800,"station_id":"ce4bhph2rcd13ifvqhdg","pricing_plan_id":"free"},{"bike_id":"ae870a7b-ef76-4fbf-b621-66ea43765260","system_id":"levelo_inurba_marseille","lat":43.295523,"lon":5.422926,"is_reserved":false,"is_disabled":false,"rental_uris":{"android":"levelo://app?vid=ae870a7b-ef76-4fbf-b621-66ea43765260","ios":"levelo://app?vid=ae870a7b-ef76-4fbf-b621-66ea43765260"},"vehicle_type_id":"4","last_reported":1702245988,"current_range_meters":27200,"station_id":"ce4bhph2rcd13ifvqhdg","pricing_plan_id":"free"},{"bike_id":"790aa083-1b5a-427a-9bce-f7efd6cf9eb4","system_id":"levelo_inurba_marseille","lat":43.295511,"lon":5.422926,"is_reserved":false,"is_disabled":false,"rental_uris":{"android":"levelo://app?vid=790aa083-1b5a-427a-9bce-f7efd6cf9eb4","ios":"levelo://app?vid=790aa083-1b5a-427a-9bce-f7efd6cf9eb4"},"vehicle_type_id":"4","last_reported":1702245988,"current_range_meters":30800,"station_id":"ce4bhph2rcd13ifvqhdg","pricing_plan_id":"free"},{"bike_id":"8648bdb0-ba2b-4da9-97a2-fe24128721c9","system_id":"levelo_inurba_marseille","lat":43.295511,"lon":5.422926,"is_reserved":false,"is_disabled":false,"rental_uris":{"android":"levelo://app?vid=8648bdb0-ba2b-4da9-97a2-fe24128721c9","ios":"levelo://app?vid=8648bdb0-ba2b-4da9-97a2-fe24128721c9"},"vehicle_type_id":"4","last_reported":1702245988,"current_range_meters":28800,"station_id":"ce4bhph2rcd13ifvqhdg","pricing_plan_id":"free"},{"bike_id":"b97b56e0-6c5f-4636-9523-78734a8d3e3e","system_id":"levelo_inurba_marseille","lat":43.278128,"lon":5.407195,"is_reserved":false,"is_disabled":false,"rental_uris":{"android":"levelo://app?vid=b97b56e0-6c5f-4636-9523-78734a8d3e3e","ios":"levelo://app?vid=b97b56e0-6c5f-4636-9523-78734a8d3e3e"},"vehicle_type_id":"4","last_reported":1702245988,"current_range_meters":29600,"station_id":"ce4bhnh2rcd13ifvqgtg","pricing_plan_id":"free"},{"bike_id":"785aa56a-d909-44d2-b33a-7c27cfa20d05","system_id":"levelo_inurba_marseille","lat":43.278128,"lon":5.407195,"is_reserved":false,"is_disabled":false,"rental_uris":{"android":"levelo://app?vid=785aa56a-d909-44d2-b33a-7c27cfa20d05","ios":"levelo://app?vid=785aa56a-d909-44d2-b33a-7c27cfa20d05"},"vehicle_type_id":"4","last_reported":1702245988,"current_range_meters":30400,"station_id":"ce4bhnh2rcd13ifvqgtg","pricing_plan_id":"free"},{"bike_id":"cc782833-78d1-4a61-b0c7-9863f91d36fc","system_id":"levelo_inurba_marseille","lat":43.278128,"lon":5.407195,"is_reserved":false,"is_disabled":false,"rental_uris":{"android":"levelo://app?vid=cc782833-78d1-4a61-b0c7-9863f91d36fc","ios":"levelo://app?vid=cc782833-78d1-4a61-b0c7-9863f91d36fc"},"vehicle_type_id":"4","last_reported":1702245988,"current_range_meters":26000,"station_id":"ce4bhnh2rcd13ifvqgtg","pricing_plan_id":"free"},{"bike_id":"1d787f7f-5f6c-4dc1-bdec-53143b6ebb0c","system_id":"levelo_inurba_marseille","lat":43.27948,"lon":5.41035,"is_reserved":false,"is_disabled":false,"rental_uris":{"android":"levelo://app?vid=1d787f7f-5f6c-4dc1-bdec-53143b6ebb0c","ios":"levelo://app?vid=1d787f7f-5f6c-4dc1-bdec-53143b6ebb0c"},"vehicle_type_id":"4","last_reported":1702245988,"current_range_meters":7600,"station_id":"ce4bhnp2rcd13ifvqh0g","pricing_plan_id":"free"},{"bike_id":"c92b2869-dae8-4727-a126-c1deb1cd64a7","system_id":"levelo_inurba_marseille","lat":43.279465,"lon":5.410561,"is_reserved":false,"is_disabled":false,"rental_uris":{"android":"levelo://app?vid=c92b2869-dae8-4727-a126-c1deb1cd64a7","ios":"levelo://app?vid=c92b2869-dae8-4727-a126-c1deb1cd64a7"},"vehicle_type_id":"4","last_reported":1702245988,"current_range_meters":16000,"station_id":"ce4bhnp2rcd13ifvqh0g","pricing_plan_id":"free"},{"bike_id":"336e1ad8-8d7e-499f-aa3d-8a0653461583","system_id":"levelo_inurba_marseille","lat":43.27906,"lon":5.412256,"is_reserved":false,"is_disabled":false,"rental_uris":{"android":"levelo://app?vid=336e1ad8-8d7e-499f-aa3d-8a0653461583","ios":"levelo://app?vid=336e1ad8-8d7e-499f-aa3d-8a0653461583"},"vehicle_type_id":"4","last_reported":1702245988,"current_range_meters":23200,"station_id":"","pricing_plan_id":"free"},{"bike_id":"7244d0b7-0a9b-4675-930f-975dbbeed40b","system_id":"levelo_inurba_marseille","lat":43.2661,"lon":5.38155,"is_reserved":false,"is_disabled":false,"rental_uris":{"android":"levelo://app?vid=7244d0b7-0a9b-4675-930f-975dbbeed40b","ios":"levelo://app?vid=7244d0b7-0a9b-4675-930f-975dbbeed40b"},"vehicle_type_id":"4","last_reported":1702245988,"current_range_meters":4800,"station_id":"","pricing_plan_id":"free"},{"bike_id":"2bb56467-3cf7-4875-a906-07d8d8889d01","system_id":"levelo_inurba_marseille","lat":43.26949,"lon":5.40262,"is_reserved":false,"is_disabled":false,"rental_uris":{"android":"levelo://app?vid=2bb56467-3cf7-4875-a906-07d8d8889d01","ios":"levelo://app?vid=2bb56467-3cf7-4875-a906-07d8d8889d01"},"vehicle_type_id":"4","last_reported":1702245988,"current_range_meters":19600,"station_id":"cjm6bp8fraef2m0cb0m0","pricing_plan_id":"free"},{"bike_id":"287e9254-f263-4a4d-afd9-500f2b256a68","system_id":"levelo_inurba_marseille","lat":43.2616,"lon":5.37423,"is_reserved":false,"is_disabled":false,"rental_uris":{"android":"levelo://app?vid=287e9254-f263-4a4d-afd9-500f2b256a68","ios":"levelo://app?vid=287e9254-f263-4a4d-afd9-500f2b256a68"},"vehicle_type_id":"4","last_reported":1702245988,"current_range_meters":26000,"station_id":"ce4bhgp2rcd13ifvqfc0","pricing_plan_id":"free"},{"bike_id":"8dbb999f-020b-4680-92a7-f79b383a1e3a","system_id":"levelo_inurba_marseille","lat":43.262012,"lon":5.379307,"is_reserved":false,"is_disabled":false,"rental_uris":{"android":"levelo://app?vid=8dbb999f-020b-4680-92a7-f79b383a1e3a","ios":"levelo://app?vid=8dbb999f-020b-4680-92a7-f79b383a1e3a"},"vehicle_type_id":"4","last_reported":1702245988,"current_range_meters":28400,"station_id":"ce4bhjp2rcd13ifvqg90","pricing_plan_id":"free"},{"bike_id":"b23e3fdb-25cf-4324-932e-816637918270","system_id":"levelo_inurba_marseille","lat":43.267959,"lon":5.402687,"is_reserved":false,"is_disabled":false,"rental_uris":{"android":"levelo://app?vid=b23e3fdb-25cf-4324-932e-816637918270","ios":"levelo://app?vid=b23e3fdb-25cf-4324-932e-816637918270"},"vehicle_type_id":"4","last_reported":1702245988,"current_range_meters":17200,"station_id":"ce501612rcd8frsf0b60","pricing_plan_id":"free"},{"bike_id":"bba8858e-2565-4fb8-b7f5-1043d9f538d1","system_id":"levelo_inurba_marseille","lat":43.298768,"lon":5.43643,"is_reserved":false,"is_disabled":false,"rental_uris":{"android":"levelo://app?vid=bba8858e-2565-4fb8-b7f5-1043d9f538d1","ios":"levelo://app?vid=bba8858e-2565-4fb8-b7f5-1043d9f538d1"},"vehicle_type_id":"4","last_reported":1702245988,"current_range_meters":18400,"station_id":"ce4bhpp2rcd13ifvqhfg","pricing_plan_id":"free"},{"bike_id":"3de0a6a1-4453-486c-a1ba-fc284c4c0e2c","system_id":"levelo_inurba_marseille","lat":43.298768,"lon":5.43643,"is_reserved":false,"is_disabled":false,"rental_uris":{"android":"levelo://app?vid=3de0a6a1-4453-486c-a1ba-fc284c4c0e2c","ios":"levelo://app?vid=3de0a6a1-4453-486c-a1ba-fc284c4c0e2c"},"vehicle_type_id":"4","last_reported":1702245988,"current_range_meters":30800,"station_id":"ce4bhpp2rcd13ifvqhfg","pricing_plan_id":"free"},{"bike_id":"1316559d-09bb-47a0-acd5-c23c83976b68","system_id":"levelo_inurba_marseille","lat":43.281548,"lon":5.42643,"is_reserved":false,"is_disabled":false,"rental_uris":{"android":"levelo://app?vid=1316559d-09bb-47a0-acd5-c23c83976b68","ios":"levelo://app?vid=1316559d-09bb-47a0-acd5-c23c83976b68"},"vehicle_type_id":"4","last_reported":1702245988,"current_range_meters":23200,"station_id":"ce4bhnh2rcd13ifvqgug","pricing_plan_id":"free"},{"bike_id":"565786fa-eb1c-4c71-9970-60c79fca54bc","system_id":"levelo_inurba_marseille","lat":43.281548,"lon":5.42643,"is_reserved":false,"is_disabled":false,"rental_uris":{"android":"levelo://app?vid=565786fa-eb1c-4c71-9970-60c79fca54bc","ios":"levelo://app?vid=565786fa-eb1c-4c71-9970-60c79fca54bc"},"vehicle_type_id":"4","last_reported":1702245988,"current_range_meters":24400,"station_id":"ce4bhnh2rcd13ifvqgug","pricing_plan_id":"free"},{"bike_id":"e633fe30-3d88-4ede-900f-6629e6d62cad","system_id":"levelo_inurba_marseille","lat":43.255844,"lon":5.382321,"is_reserved":false,"is_disabled":false,"rental_uris":{"android":"levelo://app?vid=e633fe30-3d88-4ede-900f-6629e6d62cad","ios":"levelo://app?vid=e633fe30-3d88-4ede-900f-6629e6d62cad"},"vehicle_type_id":"4","last_reported":1702245988,"current_range_meters":3200,"station_id":"ce4bhih2rcd13ifvqfs0","pricing_plan_id":"free"},{"bike_id":"1b403881-100b-4e36-a8a8-5f763208a5e7","system_id":"levelo_inurba_marseille","lat":43.25827,"lon":5.394376,"is_reserved":false,"is_disabled":false,"rental_uris":{"android":"levelo://app?vid=1b403881-100b-4e36-a8a8-5f763208a5e7","ios":"levelo://app?vid=1b403881-100b-4e36-a8a8-5f763208a5e7"},"vehicle_type_id":"4","last_reported":1702245988,"current_range_meters":29200,"station_id":"ce4bhip2rcd13ifvqft0","pricing_plan_id":"free"},{"bike_id":"d60b9791-78c5-42c2-ba82-d1ccc8eefd7e","system_id":"levelo_inurba_marseille","lat":43.25504,"lon":5.3765,"is_reserved":false,"is_disabled":false,"rental_uris":{"android":"levelo://app?vid=d60b9791-78c5-42c2-ba82-d1ccc8eefd7e","ios":"levelo://app?vid=d60b9791-78c5-42c2-ba82-d1ccc8eefd7e"},"vehicle_type_id":"4","last_reported":1702245988,"current_range_meters":2400,"station_id":"","pricing_plan_id":"free"},{"bike_id":"afb5ec19-dafa-4711-b1cf-85f317593fa6","system_id":"levelo_inurba_marseille","lat":43.270721,"lon":5.422764,"is_reserved":false,"is_disabled":false,"rental_uris":{"android":"levelo://app?vid=afb5ec19-dafa-4711-b1cf-85f317593fa6","ios":"levelo://app?vid=afb5ec19-dafa-4711-b1cf-85f317593fa6"},"vehicle_type_id":"4","last_reported":1702245988,"current_range_meters":20400,"station_id":"ce4bhk92rcd13ifvqgb0","pricing_plan_id":"free"},{"bike_id":"b4408aed-a663-49ff-a72e-60a86d2103cd","system_id":"levelo_inurba_marseille","lat":43.259293,"lon":5.409183,"is_reserved":false,"is_disabled":false,"rental_uris":{"android":"levelo://app?vid=b4408aed-a663-49ff-a72e-60a86d2103cd","ios":"levelo://app?vid=b4408aed-a663-49ff-a72e-60a86d2103cd"},"vehicle_type_id":"4","last_reported":1702245988,"current_range_meters":2400,"station_id":"ce4bhm92rcd13ifvqglg","pricing_plan_id":"free"},{"bike_id":"12cad532-059e-430e-8687-280170c85cfb","system_id":"levelo_inurba_marseille","lat":43.257079,"lon":5.411051,"is_reserved":false,"is_disabled":false,"rental_uris":{"android":"levelo://app?vid=12cad532-059e-430e-8687-280170c85cfb","ios":"levelo://app?vid=12cad532-059e-430e-8687-280170c85cfb"},"vehicle_type_id":"4","last_reported":1702245988,"current_range_meters":31200,"station_id":"ce4bhkp2rcd13ifvqgd0","pricing_plan_id":"free"},{"bike_id":"53637d02-cb32-49a6-ab6d-29d69306aed3","system_id":"levelo_inurba_marseille","lat":43.257079,"lon":5.411051,"is_reserved":false,"is_disabled":false,"rental_uris":{"android":"levelo://app?vid=53637d02-cb32-49a6-ab6d-29d69306aed3","ios":"levelo://app?vid=53637d02-cb32-49a6-ab6d-29d69306aed3"},"vehicle_type_id":"4","last_reported":1702245988,"current_range_meters":800,"station_id":"ce4bhkp2rcd13ifvqgd0","pricing_plan_id":"free"},{"bike_id":"548bdd7c-bb01-4420-a166-3de6bf59d824","system_id":"levelo_inurba_marseille","lat":43.25709,"lon":5.41122,"is_reserved":false,"is_disabled":false,"rental_uris":{"android":"levelo://app?vid=548bdd7c-bb01-4420-a166-3de6bf59d824","ios":"levelo://app?vid=548bdd7c-bb01-4420-a166-3de6bf59d824"},"vehicle_type_id":"4","last_reported":1702245988,"current_range_meters":21200,"station_id":"ce4bhkp2rcd13ifvqgd0","pricing_plan_id":"free"},{"bike_id":"e2cf6bb9-5114-4621-9f5c-52d2e7252895","system_id":"levelo_inurba_marseille","lat":43.29367,"lon":5.45153,"is_reserved":false,"is_disabled":false,"rental_uris":{"android":"levelo://app?vid=e2cf6bb9-5114-4621-9f5c-52d2e7252895","ios":"levelo://app?vid=e2cf6bb9-5114-4621-9f5c-52d2e7252895"},"vehicle_type_id":"4","last_reported":1702245988,"current_range_meters":14000,"station_id":"","pricing_plan_id":"free"},{"bike_id":"c58abba1-0886-4999-83b4-5808f55ca642","system_id":"levelo_inurba_marseille","lat":43.2479,"lon":5.374457,"is_reserved":false,"is_disabled":false,"rental_uris":{"android":"levelo://app?vid=c58abba1-0886-4999-83b4-5808f55ca642","ios":"levelo://app?vid=c58abba1-0886-4999-83b4-5808f55ca642"},"vehicle_type_id":"4","last_reported":1702245988,"current_range_meters":27200,"station_id":"ce4bhgh2rcd13ifvqfb0","pricing_plan_id":"free"},{"bike_id":"7d160669-bdc8-487a-955a-10cd0b46ab01","system_id":"levelo_inurba_marseille","lat":43.24802,"lon":5.37454,"is_reserved":false,"is_disabled":false,"rental_uris":{"android":"levelo://app?vid=7d160669-bdc8-487a-955a-10cd0b46ab01","ios":"levelo://app?vid=7d160669-bdc8-487a-955a-10cd0b46ab01"},"vehicle_type_id":"4","last_reported":1702245988,"current_range_meters":15600,"station_id":"ce4bhgh2rcd13ifvqfb0","pricing_plan_id":"free"},{"bike_id":"d17812b4-28d7-44f8-8f1e-a5cc0c57f7c8","system_id":"levelo_inurba_marseille","lat":43.25098,"lon":5.39534,"is_reserved":false,"is_disabled":false,"rental_uris":{"android":"levelo://app?vid=d17812b4-28d7-44f8-8f1e-a5cc0c57f7c8","ios":"levelo://app?vid=d17812b4-28d7-44f8-8f1e-a5cc0c57f7c8"},"vehicle_type_id":"4","last_reported":1702245988,"current_range_meters":17200,"station_id":"ce4bhm12rcd13ifvqgkg","pricing_plan_id":"free"},{"bike_id":"6c841a86-0db3-43df-89cd-8d77eefd74e9","system_id":"levelo_inurba_marseille","lat":43.250966,"lon":5.395186,"is_reserved":false,"is_disabled":false,"rental_uris":{"android":"levelo://app?vid=6c841a86-0db3-43df-89cd-8d77eefd74e9","ios":"levelo://app?vid=6c841a86-0db3-43df-89cd-8d77eefd74e9"},"vehicle_type_id":"4","last_reported":1702245988,"current_range_meters":28400,"station_id":"ce4bhm12rcd13ifvqgkg","pricing_plan_id":"free"},{"bike_id":"20012db8-0a24-48ec-997c-36b593c9fd5d","system_id":"levelo_inurba_marseille","lat":43.250966,"lon":5.395186,"is_reserved":false,"is_disabled":false,"rental_uris":{"android":"levelo://app?vid=20012db8-0a24-48ec-997c-36b593c9fd5d","ios":"levelo://app?vid=20012db8-0a24-48ec-997c-36b593c9fd5d"},"vehicle_type_id":"4","last_reported":1702245988,"current_range_meters":16000,"station_id":"ce4bhm12rcd13ifvqgkg","pricing_plan_id":"free"},{"bike_id":"060cb037-a797-43cb-a3be-257ca78beff6","system_id":"levelo_inurba_marseille","lat":43.250966,"lon":5.395186,"is_reserved":false,"is_disabled":false,"rental_uris":{"android":"levelo://app?vid=060cb037-a797-43cb-a3be-257ca78beff6","ios":"levelo://app?vid=060cb037-a797-43cb-a3be-257ca78beff6"},"vehicle_type_id":"4","last_reported":1702245988,"current_range_meters":21200,"station_id":"ce4bhm12rcd13ifvqgkg","pricing_plan_id":"free"},{"bike_id":"a3daf168-0cba-4393-8bf5-b67ba48a0ad3","system_id":"levelo_inurba_marseille","lat":43.250966,"lon":5.395186,"is_reserved":false,"is_disabled":false,"rental_uris":{"android":"levelo://app?vid=a3daf168-0cba-4393-8bf5-b67ba48a0ad3","ios":"levelo://app?vid=a3daf168-0cba-4393-8bf5-b67ba48a0ad3"},"vehicle_type_id":"4","last_reported":1702245988,"current_range_meters":2400,"station_id":"ce4bhm12rcd13ifvqgkg","pricing_plan_id":"free"},{"bike_id":"7c19531a-ce0f-4065-9678-865d22e14376","system_id":"levelo_inurba_marseille","lat":43.24693,"lon":5.382096,"is_reserved":false,"is_disabled":false,"rental_uris":{"android":"levelo://app?vid=7c19531a-ce0f-4065-9678-865d22e14376","ios":"levelo://app?vid=7c19531a-ce0f-4065-9678-865d22e14376"},"vehicle_type_id":"4","last_reported":1702245988,"current_range_meters":16000,"station_id":"ce4bhih2rcd13ifvqfr0","pricing_plan_id":"free"},{"bike_id":"e88e9005-7d34-43e0-878e-bcd0266d64e9","system_id":"levelo_inurba_marseille","lat":43.24693,"lon":5.382096,"is_reserved":false,"is_disabled":false,"rental_uris":{"android":"levelo://app?vid=e88e9005-7d34-43e0-878e-bcd0266d64e9","ios":"levelo://app?vid=e88e9005-7d34-43e0-878e-bcd0266d64e9"},"vehicle_type_id":"4","last_reported":1702245988,"current_range_meters":17600,"station_id":"ce4bhih2rcd13ifvqfr0","pricing_plan_id":"free"},{"bike_id":"a94728d5-8fac-4dbb-a538-34fa12863f73","system_id":"levelo_inurba_marseille","lat":43.246467,"lon":5.388984,"is_reserved":false,"is_disabled":false,"rental_uris":{"android":"levelo://app?vid=a94728d5-8fac-4dbb-a538-34fa12863f73","ios":"levelo://app?vid=a94728d5-8fac-4dbb-a538-34fa12863f73"},"vehicle_type_id":"4","last_reported":1702245988,"current_range_meters":25600,"station_id":"ce4bhg12rcd13ifvqf60","pricing_plan_id":"free"},{"bike_id":"571322be-87e3-43ae-9901-b36ab49cb1d3","system_id":"levelo_inurba_marseille","lat":43.243884,"lon":5.370736,"is_reserved":false,"is_disabled":false,"rental_uris":{"android":"levelo://app?vid=571322be-87e3-43ae-9901-b36ab49cb1d3","ios":"levelo://app?vid=571322be-87e3-43ae-9901-b36ab49cb1d3"},"vehicle_type_id":"4","last_reported":1702245988,"current_range_meters":9600,"station_id":"ce4bhhh2rcd13ifvqfk0","pricing_plan_id":"free"},{"bike_id":"4e2a1b92-fd1a-4f0e-94a5-beda735ca1ff","system_id":"levelo_inurba_marseille","lat":43.24072,"lon":5.3776,"is_reserved":false,"is_disabled":false,"rental_uris":{"android":"levelo://app?vid=4e2a1b92-fd1a-4f0e-94a5-beda735ca1ff","ios":"levelo://app?vid=4e2a1b92-fd1a-4f0e-94a5-beda735ca1ff"},"vehicle_type_id":"4","last_reported":1702245988,"current_range_meters":5600,"station_id":"ce4bhnp2rcd13ifvqgvg","pricing_plan_id":"free"},{"bike_id":"d1c72fa7-c6c4-4741-ba8a-4ddbc6475ecc","system_id":"levelo_inurba_marseille","lat":43.240623,"lon":5.377642,"is_reserved":false,"is_disabled":false,"rental_uris":{"android":"levelo://app?vid=d1c72fa7-c6c4-4741-ba8a-4ddbc6475ecc","ios":"levelo://app?vid=d1c72fa7-c6c4-4741-ba8a-4ddbc6475ecc"},"vehicle_type_id":"4","last_reported":1702245988,"current_range_meters":19600,"station_id":"ce4bhnp2rcd13ifvqgvg","pricing_plan_id":"free"},{"bike_id":"ba2ffe5d-0854-438d-83e7-4a71cbe644cc","system_id":"levelo_inurba_marseille","lat":43.231794,"lon":5.400052,"is_reserved":false,"is_disabled":false,"rental_uris":{"android":"levelo://app?vid=ba2ffe5d-0854-438d-83e7-4a71cbe644cc","ios":"levelo://app?vid=ba2ffe5d-0854-438d-83e7-4a71cbe644cc"},"vehicle_type_id":"4","last_reported":1702245988,"current_range_meters":28800,"station_id":"ce4bhn12rcd13ifvqgqg","pricing_plan_id":"free"},{"bike_id":"20b9dc23-3fdd-4258-8fed-b5bd0e113f50","system_id":"levelo_inurba_marseille","lat":43.231794,"lon":5.400052,"is_reserved":false,"is_disabled":false,"rental_uris":{"android":"levelo://app?vid=20b9dc23-3fdd-4258-8fed-b5bd0e113f50","ios":"levelo://app?vid=20b9dc23-3fdd-4258-8fed-b5bd0e113f50"},"vehicle_type_id":"4","last_reported":1702245988,"current_range_meters":18400,"station_id":"ce4bhn12rcd13ifvqgqg","pricing_plan_id":"free"},{"bike_id":"f11845c2-6b31-49fe-ac90-9911fa36fa39","system_id":"levelo_inurba_marseille","lat":43.231793,"lon":5.400044,"is_reserved":false,"is_disabled":false,"rental_uris":{"android":"levelo://app?vid=f11845c2-6b31-49fe-ac90-9911fa36fa39","ios":"levelo://app?vid=f11845c2-6b31-49fe-ac90-9911fa36fa39"},"vehicle_type_id":"4","last_reported":1702245988,"current_range_meters":12000,"station_id":"ce4bhn12rcd13ifvqgqg","pricing_plan_id":"free"},{"bike_id":"eaaddb79-e79f-4481-80b2-574aaa4a11a3","system_id":"levelo_inurba_marseille","lat":43.231794,"lon":5.400052,"is_reserved":false,"is_disabled":false,"rental_uris":{"android":"levelo://app?vid=eaaddb79-e79f-4481-80b2-574aaa4a11a3","ios":"levelo://app?vid=eaaddb79-e79f-4481-80b2-574aaa4a11a3"},"vehicle_type_id":"4","last_reported":1702245988,"current_range_meters":25200,"station_id":"ce4bhn12rcd13ifvqgqg","pricing_plan_id":"free"},{"bike_id":"496ad7a1-4b9d-4f9f-908f-bf1a1ea6364f","system_id":"levelo_inurba_marseille","lat":43.231562,"lon":5.436933,"is_reserved":false,"is_disabled":false,"rental_uris":{"android":"levelo://app?vid=496ad7a1-4b9d-4f9f-908f-bf1a1ea6364f","ios":"levelo://app?vid=496ad7a1-4b9d-4f9f-908f-bf1a1ea6364f"},"vehicle_type_id":"4","last_reported":1702245988,"current_range_meters":24800,"station_id":"ce4bhmp2rcd13ifvqgog","pricing_plan_id":"free"},{"bike_id":"1342626e-2d76-4ebd-a051-4249bf5fdd5f","system_id":"levelo_inurba_marseille","lat":43.231562,"lon":5.436933,"is_reserved":false,"is_disabled":false,"rental_uris":{"android":"levelo://app?vid=1342626e-2d76-4ebd-a051-4249bf5fdd5f","ios":"levelo://app?vid=1342626e-2d76-4ebd-a051-4249bf5fdd5f"},"vehicle_type_id":"4","last_reported":1702245988,"current_range_meters":0,"station_id":"ce4bhmp2rcd13ifvqgog","pricing_plan_id":"free"},{"bike_id":"1aae6cdc-e4e2-4912-a240-f90a945937f8","system_id":"levelo_inurba_marseille","lat":43.231562,"lon":5.436933,"is_reserved":false,"is_disabled":false,"rental_uris":{"android":"levelo://app?vid=1aae6cdc-e4e2-4912-a240-f90a945937f8","ios":"levelo://app?vid=1aae6cdc-e4e2-4912-a240-f90a945937f8"},"vehicle_type_id":"4","last_reported":1702245988,"current_range_meters":22800,"station_id":"ce4bhmp2rcd13ifvqgog","pricing_plan_id":"free"}]}}