{"last_updated":1685214268,"ttl":30,"version":"2.2","data":{"bikes":[{"bike_id":"54716154-8db0-4266-ab8e-a58a594b5020","system_id":"levelo_inurba_marseille","lat":43.312239,"lon":5.368562,"is_reserved":false,"is_disabled":false,"rental_uris":{"android":"levelo://app?vid=54716154-8db0-4266-ab8e-a58a594b5020","ios":"levelo://app?vid=54716154-8db0-4266-ab8e-a58a594b5020"},"vehicle_type_id":"4","last_reported":1685214268,"current_range_meters":0,"station_id":"ce4bgl92rcd13ifvqbq0","pricing_plan_id":"free"},{"bike_id":"b812b941-5eb1-4382-ac02-c15d6233d807","system_id":"levelo_inurba_marseille","lat":43.30757,"lon":5.36819,"is_reserved":false,"is_disabled":false,"rental_uris":{"android":"levelo://app?vid=b812b941-5eb1-4382-ac02-c15d6233d807","ios":"levelo://app?vid=b812b941-5eb1-4382-ac02-c15d6233d807"},"vehicle_type_id":"4","last_reported":1685214268,"current_range_meters":4400,"station_id":"","pricing_plan_id":"free"},{"bike_id":"c7ab77c7-a2a1-4964-9670-5877fdbb3b9c","system_id":"levelo_inurba_marseille","lat":43.30537,"lon":5.367345,"is_reserved":false,"is_disabled":false,"rental_uris":{"android":"levelo://app?vid=c7ab77c7-a2a1-4964-9670-5877fdbb3b9c","ios":"levelo://app?vid=c7ab77c7-a2a1-4964-9670-5877fdbb3b9c"},"vehicle_type_id":"4","last_reported":1685214268,"current_range_meters":4000,"station_id":"ce4bgrp2rcd13ifvqc9g","pricing_plan_id":"free"},{"bike_id":"b5352156-39d8-47bc-8344-a2f755775863","system_id":"levelo_inurba_marseille","lat":43.305706,"lon":5.365654,"is_reserved":false,"is_disabled":false,"rental_uris":{"android":"levelo://app?vid=b5352156-39d8-47bc-8344-a2f755775863","ios":"levelo://app?vid=b5352156-39d8-47bc-8344-a2f755775863"},"vehicle_type_id":"4","last_reported":1685214268,"current_range_meters":16000,"station_id":"ce4bgs12rcd13ifvqcag","pricing_plan_id":"free"},{"bike_id":"4349fe8f-0d55-4e5b-afb3-b4eeb7064467","system_id":"levelo_inurba_marseille","lat":43.30304,"lon":5.368987,"is_reserved":false,"is_disabled":false,"rental_uris":{"android":"levelo://app?vid=4349fe8f-0d55-4e5b-afb3-b4eeb7064467","ios":"levelo://app?vid=4349fe8f-0d55-4e5b-afb3-b4eeb7064467"},"vehicle_type_id":"4","last_reported":1685214268,"current_range_meters":20400,"station_id":"ce4bgqh2rcd13ifvqc5g","pricing_plan_id":"free"},{"bike_id":"28a03abd-e24c-4927-801a-f15175c88f1a","system_id":"levelo_inurba_marseille","lat":43.301939,"lon":5.366286,"is_reserved":false,"is_disabled":false,"rental_uris":{"android":"levelo://app?vid=28a03abd-e24c-4927-801a-f15175c88f1a","ios":"levelo://app?vid=28a03abd-e24c-4927-801a-f15175c88f1a"},"vehicle_type_id":"4","last_reported":1685214268,"current_range_meters":2000,"station_id":"ce4bgrh2rcd13ifvqc8g","pricing_plan_id":"free"},{"bike_id":"7eb53555-11f1-4d07-9f3e-2b558458aa7c","system_id":"levelo_inurba_marseille","lat":43.308038,"lon":5.381574,"is_reserved":false,"is_disabled":false,"rental_uris":{"android":"levelo://app?vid=7eb53555-11f1-4d07-9f3e-2b558458aa7c","ios":"levelo://app?vid=7eb53555-11f1-4d07-9f3e-2b558458aa7c"},"vehicle_type_id":"4","last_reported":1685214268,"current_range_meters":9200,"station_id":"ce4bgt12rcd13ifvqce0","pricing_plan_id":"free"},{"bike_id":"48d64c0a-612f-4e0b-8182-479a86e4c8ec","system_id":"levelo_inurba_marseille","lat":43.30139,"lon":5.37398,"is_reserved":false,"is_disabled":false,"rental_uris":{"android":"levelo://app?vid=48d64c0a-612f-4e0b-8182-479a86e4c8ec","ios":"levelo://app?vid=48d64c0a-612f-4e0b-8182-479a86e4c8ec"},"vehicle_type_id":"4","last_reported":1685214268,"current_range_meters":2000,"station_id":"","pricing_plan_id":"free"},{"bike_id":"4c75012b-1abd-4813-9206-169903ad0fd2","system_id":"levelo_inurba_marseille","lat":43.298433,"lon":5.362774,"is_reserved":false,"is_disabled":false,"rental_uris":{"android":"levelo://app?vid=4c75012b-1abd-4813-9206-169903ad0fd2","ios":"levelo://app?vid=4c75012b-1abd-4813-9206-169903ad0fd2"},"vehicle_type_id":"4","last_reported":1685214268,"current_range_meters":2800,"station_id":"ce4bgpp2rcd13ifvqc3g","pricing_plan_id":"free"},{"bike_id":"4a6d7bad-2186-4d2d-8aef-24966bc4b828","system_id":"levelo_inurba_marseille","lat":43.29843,"lon":5.36273,"is_reserved":false,"is_disabled":false,"rental_uris":{"android":"levelo://app?vid=4a6d7bad-2186-4d2d-8aef-24966bc4b828","ios":"levelo://app?vid=4a6d7bad-2186-4d2d-8aef-24966bc4b828"},"vehicle_type_id":"4","last_reported":1685214268,"current_range_meters":0,"station_id":"ce4bgpp2rcd13ifvqc3g","pricing_plan_id":"free"},{"bike_id":"5c105bed-0782-4c82-afcd-9fc2f16871f8","system_id":"levelo_inurba_marseille","lat":43.298433,"lon":5.362774,"is_reserved":false,"is_disabled":false,"rental_uris":{"android":"levelo://app?vid=5c105bed-0782-4c82-afcd-9fc2f16871f8","ios":"levelo://app?vid=5c105bed-0782-4c82-afcd-9fc2f16871f8"},"vehicle_type_id":"4","last_reported":1685214268,"current_range_meters":7200,"station_id":"ce4bgpp2rcd13ifvqc3g","pricing_plan_id":"free"},{"bike_id":"9bd33e9b-61d3-446d-915b-4d620be749d4","system_id":"levelo_inurba_marseille","lat":43.299243,"lon":5.37481,"is_reserved":false,"is_disabled":false,"rental_uris":{"android":"levelo://app?vid=9bd33e9b-61d3-446d-915b-4d620be749d4","ios":"levelo://app?vid=9bd33e9b-61d3-446d-915b-4d620be749d4"},"vehicle_type_id":"4","last_reported":1685214268,"current_range_meters":1200,"station_id":"ce4bgjh2rcd13ifvqbg0","pricing_plan_id":"free"},{"bike_id":"341dc5df-6561-4b7c-8ad4-a467e765ff4e","system_id":"levelo_inurba_marseille","lat":43.297774,"lon":5.370875,"is_reserved":false,"is_disabled":false,"rental_uris":{"android":"levelo://app?vid=341dc5df-6561-4b7c-8ad4-a467e765ff4e","ios":"levelo://app?vid=341dc5df-6561-4b7c-8ad4-a467e765ff4e"},"vehicle_type_id":"4","last_reported":1685214268,"current_range_meters":15200,"station_id":"ce4bgop2rcd13ifvqc1g","pricing_plan_id":"free"},{"bike_id":"0220bb19-c014-4038-a833-602611a2091f","system_id":"levelo_inurba_marseille","lat":43.297774,"lon":5.370875,"is_reserved":false,"is_disabled":false,"rental_uris":{"android":"levelo://app?vid=0220bb19-c014-4038-a833-602611a2091f","ios":"levelo://app?vid=0220bb19-c014-4038-a833-602611a2091f"},"vehicle_type_id":"4","last_reported":1685214268,"current_range_meters":8000,"station_id":"ce4bgop2rcd13ifvqc1g","pricing_plan_id":"free"},{"bike_id":"0697e84c-57d4-45b6-ac93-9935734c2afe","system_id":"levelo_inurba_marseille","lat":43.297774,"lon":5.370875,"is_reserved":false,"is_disabled":false,"rental_uris":{"android":"levelo://app?vid=0697e84c-57d4-45b6-ac93-9935734c2afe","ios":"levelo://app?vid=0697e84c-57d4-45b6-ac93-9935734c2afe"},"vehicle_type_id":"4","last_reported":1685214268,"current_range_meters":2400,"station_id":"ce4bgop2rcd13ifvqc1g","pricing_plan_id":"free"},{"bike_id":"b1760b79-f5e1-4726-9404-389d402d64b9","system_id":"levelo_inurba_marseille","lat":43.297774,"lon":5.370875,"is_reserved":false,"is_disabled":false,"rental_uris":{"android":"levelo://app?vid=b1760b79-f5e1-4726-9404-389d402d64b9","ios":"levelo://app?vid=b1760b79-f5e1-4726-9404-389d402d64b9"},"vehicle_type_id":"4","last_reported":1685214268,"current_range_meters":0,"station_id":"ce4bgop2rcd13ifvqc1g","pricing_plan_id":"free"},{"bike_id":"6aadd20f-ee22-42f7-9c69-f3066c5dfcf1","system_id":"levelo_inurba_marseille","lat":43.328371,"lon":5.366909,"is_reserved":false,"is_disabled":false,"rental_uris":{"android":"levelo://app?vid=6aadd20f-ee22-42f7-9c69-f3066c5dfcf1","ios":"levelo://app?vid=6aadd20f-ee22-42f7-9c69-f3066c5dfcf1"},"vehicle_type_id":"4","last_reported":1685214268,"current_range_meters":14400,"station_id":"ce4bhs92rcd13ifvqi0g","pricing_plan_id":"free"},{"bike_id":"e56cb228-bb4d-4c0c-918c-5fb17ff8d7c3","system_id":"levelo_inurba_marseille","lat":43.32833,"lon":5.3668,"is_reserved":false,"is_disabled":false,"rental_uris":{"android":"levelo://app?vid=e56cb228-bb4d-4c0c-918c-5fb17ff8d7c3","ios":"levelo://app?vid=e56cb228-bb4d-4c0c-918c-5fb17ff8d7c3"},"vehicle_type_id":"4","last_reported":1685214268,"current_range_meters":0,"station_id":"ce4bhs92rcd13ifvqi0g","pricing_plan_id":"free"},{"bike_id":"a83b73cc-71af-4049-8863-614fb9abda16","system_id":"levelo_inurba_marseille","lat":43.2971,"lon":5.36607,"is_reserved":false,"is_disabled":false,"rental_uris":{"android":"levelo://app?vid=a83b73cc-71af-4049-8863-614fb9abda16","ios":"levelo://app?vid=a83b73cc-71af-4049-8863-614fb9abda16"},"vehicle_type_id":"4","last_reported":1685214268,"current_range_meters":800,"station_id":"","pricing_plan_id":"free"},{"bike_id":"b0d8b901-c1e4-4bd4-9b20-2664ad8759ad","system_id":"levelo_inurba_marseille","lat":43.29686,"lon":5.37288,"is_reserved":false,"is_disabled":false,"rental_uris":{"android":"levelo://app?vid=b0d8b901-c1e4-4bd4-9b20-2664ad8759ad","ios":"levelo://app?vid=b0d8b901-c1e4-4bd4-9b20-2664ad8759ad"},"vehicle_type_id":"4","last_reported":1685214268,"current_range_meters":4000,"station_id":"ce4bgk12rcd13ifvqbj0","pricing_plan_id":"free"},{"bike_id":"d087a229-a95c-41be-af30-a00fa7bce099","system_id":"levelo_inurba_marseille","lat":43.296131,"lon":5.370791,"is_reserved":false,"is_disabled":false,"rental_uris":{"android":"levelo://app?vid=d087a229-a95c-41be-af30-a00fa7bce099","ios":"levelo://app?vid=d087a229-a95c-41be-af30-a00fa7bce099"},"vehicle_type_id":"4","last_reported":1685214268,"current_range_meters":800,"station_id":"ce4bgnh2rcd13ifvqc0g","pricing_plan_id":"free"},{"bike_id":"55f4fa09-749c-43a4-9483-2329a69a8e3a","system_id":"levelo_inurba_marseille","lat":43.30951,"lon":5.39031,"is_reserved":false,"is_disabled":false,"rental_uris":{"android":"levelo://app?vid=55f4fa09-749c-43a4-9483-2329a69a8e3a","ios":"levelo://app?vid=55f4fa09-749c-43a4-9483-2329a69a8e3a"},"vehicle_type_id":"4","last_reported":1685214268,"current_range_meters":3600,"station_id":"ce4bgup2rcd13ifvqco0","pricing_plan_id":"free"},{"bike_id":"04f6883d-fac2-49cf-876c-0d231a0edf40","system_id":"levelo_inurba_marseille","lat":43.317557,"lon":5.390173,"is_reserved":false,"is_disabled":false,"rental_uris":{"android":"levelo://app?vid=04f6883d-fac2-49cf-876c-0d231a0edf40","ios":"levelo://app?vid=04f6883d-fac2-49cf-876c-0d231a0edf40"},"vehicle_type_id":"4","last_reported":1685214268,"current_range_meters":20400,"station_id":"ce4bhqp2rcd13ifvqhng","pricing_plan_id":"free"},{"bike_id":"d1758b63-d362-4c86-8acd-a32d6551bd6c","system_id":"levelo_inurba_marseille","lat":43.292749,"lon":5.368402,"is_reserved":false,"is_disabled":false,"rental_uris":{"android":"levelo://app?vid=d1758b63-d362-4c86-8acd-a32d6551bd6c","ios":"levelo://app?vid=d1758b63-d362-4c86-8acd-a32d6551bd6c"},"vehicle_type_id":"4","last_reported":1685214268,"current_range_meters":2800,"station_id":"ce4bhbp2rcd13ifvqesg","pricing_plan_id":"free"},{"bike_id":"dbf34a59-e8a9-4112-ac4a-055304613b27","system_id":"levelo_inurba_marseille","lat":43.298037,"lon":5.381066,"is_reserved":false,"is_disabled":false,"rental_uris":{"android":"levelo://app?vid=dbf34a59-e8a9-4112-ac4a-055304613b27","ios":"levelo://app?vid=dbf34a59-e8a9-4112-ac4a-055304613b27"},"vehicle_type_id":"4","last_reported":1685214268,"current_range_meters":0,"station_id":"ce4bgip2rcd13ifvqbb0","pricing_plan_id":"free"},{"bike_id":"20fd6ce6-d34c-47cf-86ab-011b8b4bff60","system_id":"levelo_inurba_marseille","lat":43.304274,"lon":5.388873,"is_reserved":false,"is_disabled":false,"rental_uris":{"android":"levelo://app?vid=20fd6ce6-d34c-47cf-86ab-011b8b4bff60","ios":"levelo://app?vid=20fd6ce6-d34c-47cf-86ab-011b8b4bff60"},"vehicle_type_id":"4","last_reported":1685214268,"current_range_meters":3200,"station_id":"ce4bgk12rcd13ifvqbi0","pricing_plan_id":"free"},{"bike_id":"8bb80f7a-3fdd-406e-9644-735686eb9059","system_id":"levelo_inurba_marseille","lat":43.29963,"lon":5.38498,"is_reserved":false,"is_disabled":false,"rental_uris":{"android":"levelo://app?vid=8bb80f7a-3fdd-406e-9644-735686eb9059","ios":"levelo://app?vid=8bb80f7a-3fdd-406e-9644-735686eb9059"},"vehicle_type_id":"4","last_reported":1685214268,"current_range_meters":0,"station_id":"ce4bgj92rcd13ifvqbd0","pricing_plan_id":"free"},{"bike_id":"3289b7bc-6138-4ebb-8d82-2b0e69f1f911","system_id":"levelo_inurba_marseille","lat":43.296556,"lon":5.381226,"is_reserved":false,"is_disabled":false,"rental_uris":{"android":"levelo://app?vid=3289b7bc-6138-4ebb-8d82-2b0e69f1f911","ios":"levelo://app?vid=3289b7bc-6138-4ebb-8d82-2b0e69f1f911"},"vehicle_type_id":"4","last_reported":1685214268,"current_range_meters":0,"station_id":"","pricing_plan_id":"free"},{"bike_id":"7f49ef87-7fc7-45b0-8263-747245d48ec0","system_id":"levelo_inurba_marseille","lat":43.32367,"lon":5.388836,"is_reserved":false,"is_disabled":false,"rental_uris":{"android":"levelo://app?vid=7f49ef87-7fc7-45b0-8263-747245d48ec0","ios":"levelo://app?vid=7f49ef87-7fc7-45b0-8263-747245d48ec0"},"vehicle_type_id":"4","last_reported":1685214268,"current_range_meters":6400,"station_id":"ce4bhqp2rcd13ifvqhog","pricing_plan_id":"free"},{"bike_id":"ebe0ad27-7f50-45f1-bf2c-491d5ff5892a","system_id":"levelo_inurba_marseille","lat":43.29412,"lon":5.37388,"is_reserved":false,"is_disabled":false,"rental_uris":{"android":"levelo://app?vid=ebe0ad27-7f50-45f1-bf2c-491d5ff5892a","ios":"levelo://app?vid=ebe0ad27-7f50-45f1-bf2c-491d5ff5892a"},"vehicle_type_id":"4","last_reported":1685214268,"current_range_meters":2800,"station_id":"","pricing_plan_id":"free"},{"bike_id":"5ccdc43d-a4a7-4bf9-b763-cfe12833edd3","system_id":"levelo_inurba_marseille","lat":43.29601,"lon":5.381084,"is_reserved":false,"is_disabled":false,"rental_uris":{"android":"levelo://app?vid=5ccdc43d-a4a7-4bf9-b763-cfe12833edd3","ios":"levelo://app?vid=5ccdc43d-a4a7-4bf9-b763-cfe12833edd3"},"vehicle_type_id":"4","last_reported":1685214268,"current_range_meters":11600,"station_id":"ce4bgl12rcd13ifvqbo0","pricing_plan_id":"free"},{"bike_id":"8250b015-3f34-4225-8bdc-ff523cd8efc2","system_id":"levelo_inurba_marseille","lat":43.29601,"lon":5.381084,"is_reserved":false,"is_disabled":false,"rental_uris":{"android":"levelo://app?vid=8250b015-3f34-4225-8bdc-ff523cd8efc2","ios":"levelo://app?vid=8250b015-3f34-4225-8bdc-ff523cd8efc2"},"vehicle_type_id":"4","last_reported":1685214268,"current_range_meters":0,"station_id":"ce4bgl12rcd13ifvqbo0","pricing_plan_id":"free"},{"bike_id":"dec7af14-d4f3-481b-8295-5362f32e0ad3","system_id":"levelo_inurba_marseille","lat":43.29601,"lon":5.381084,"is_reserved":false,"is_disabled":false,"rental_uris":{"android":"levelo://app?vid=dec7af14-d4f3-481b-8295-5362f32e0ad3","ios":"levelo://app?vid=dec7af14-d4f3-481b-8295-5362f32e0ad3"},"vehicle_type_id":"4","last_reported":1685214268,"current_range_meters":21200,"station_id":"ce4bgl12rcd13ifvqbo0","pricing_plan_id":"free"},{"bike_id":"eab01c87-c4a4-4472-9c05-f7473ad155d5","system_id":"levelo_inurba_marseille","lat":43.29306,"lon":5.37188,"is_reserved":false,"is_disabled":false,"rental_uris":{"android":"levelo://app?vid=eab01c87-c4a4-4472-9c05-f7473ad155d5","ios":"levelo://app?vid=eab01c87-c4a4-4472-9c05-f7473ad155d5"},"vehicle_type_id":"4","last_reported":1685214268,"current_range_meters":7200,"station_id":"","pricing_plan_id":"free"},{"bike_id":"8ba93d88-1404-4d37-8f84-11e2b235c6ef","system_id":"levelo_inurba_marseille","lat":43.292749,"lon":5.368398,"is_reserved":false,"is_disabled":false,"rental_uris":{"android":"levelo://app?vid=8ba93d88-1404-4d37-8f84-11e2b235c6ef","ios":"levelo://app?vid=8ba93d88-1404-4d37-8f84-11e2b235c6ef"},"vehicle_type_id":"4","last_reported":1685214268,"current_range_meters":3600,"station_id":"ce4bhbp2rcd13ifvqesg","pricing_plan_id":"free"},{"bike_id":"7d36cb3b-0f39-4fbd-b035-903eb5ead419","system_id":"levelo_inurba_marseille","lat":43.305994,"lon":5.393687,"is_reserved":false,"is_disabled":false,"rental_uris":{"android":"levelo://app?vid=7d36cb3b-0f39-4fbd-b035-903eb5ead419","ios":"levelo://app?vid=7d36cb3b-0f39-4fbd-b035-903eb5ead419"},"vehicle_type_id":"4","last_reported":1685214268,"current_range_meters":1600,"station_id":"ce4bh0p2rcd13ifvqd80","pricing_plan_id":"free"},{"bike_id":"b9237c65-dc89-47c9-a52b-74ec8ac4febe","system_id":"levelo_inurba_marseille","lat":43.2936,"lon":5.37835,"is_reserved":false,"is_disabled":false,"rental_uris":{"android":"levelo://app?vid=b9237c65-dc89-47c9-a52b-74ec8ac4febe","ios":"levelo://app?vid=b9237c65-dc89-47c9-a52b-74ec8ac4febe"},"vehicle_type_id":"4","last_reported":1685214268,"current_range_meters":5200,"station_id":"ce4bgjh2rcd13ifvqbf0","pricing_plan_id":"free"},{"bike_id":"544c9fe6-21eb-4f41-9a8d-0df2c1c3ec5f","system_id":"levelo_inurba_marseille","lat":43.293751,"lon":5.378405,"is_reserved":false,"is_disabled":false,"rental_uris":{"android":"levelo://app?vid=544c9fe6-21eb-4f41-9a8d-0df2c1c3ec5f","ios":"levelo://app?vid=544c9fe6-21eb-4f41-9a8d-0df2c1c3ec5f"},"vehicle_type_id":"4","last_reported":1685214268,"current_range_meters":14000,"station_id":"ce4bh012rcd13ifvqd00","pricing_plan_id":"free"},{"bike_id":"7aeec4f1-4013-40ee-b6bd-004d22fef8b0","system_id":"levelo_inurba_marseille","lat":43.302992,"lon":5.392136,"is_reserved":false,"is_disabled":false,"rental_uris":{"android":"levelo://app?vid=7aeec4f1-4013-40ee-b6bd-004d22fef8b0","ios":"levelo://app?vid=7aeec4f1-4013-40ee-b6bd-004d22fef8b0"},"vehicle_type_id":"4","last_reported":1685214268,"current_range_meters":0,"station_id":"ce4bgkh2rcd13ifvqbk0","pricing_plan_id":"free"},{"bike_id":"a4107eb0-1ff8-4a84-ae2a-4a613ab454ff","system_id":"levelo_inurba_marseille","lat":43.2936,"lon":5.37835,"is_reserved":false,"is_disabled":false,"rental_uris":{"android":"levelo://app?vid=a4107eb0-1ff8-4a84-ae2a-4a613ab454ff","ios":"levelo://app?vid=a4107eb0-1ff8-4a84-ae2a-4a613ab454ff"},"vehicle_type_id":"4","last_reported":1685214268,"current_range_meters":0,"station_id":"ce4bgjh2rcd13ifvqbf0","pricing_plan_id":"free"},{"bike_id":"5870fe32-69d6-44d5-941f-8ff4821c31ca","system_id":"levelo_inurba_marseille","lat":43.2936,"lon":5.37835,"is_reserved":false,"is_disabled":false,"rental_uris":{"android":"levelo://app?vid=5870fe32-69d6-44d5-941f-8ff4821c31ca","ios":"levelo://app?vid=5870fe32-69d6-44d5-941f-8ff4821c31ca"},"vehicle_type_id":"4","last_reported":1685214268,"current_range_meters":800,"station_id":"ce4bgjh2rcd13ifvqbf0","pricing_plan_id":"free"},{"bike_id":"d23be757-deaa-45ba-b160-8e36eb5b560c","system_id":"levelo_inurba_marseille","lat":43.292663,"lon":5.376394,"is_reserved":false,"is_disabled":false,"rental_uris":{"android":"levelo://app?vid=d23be757-deaa-45ba-b160-8e36eb5b560c","ios":"levelo://app?vid=d23be757-deaa-45ba-b160-8e36eb5b560c"},"vehicle_type_id":"4","last_reported":1685214268,"current_range_meters":800,"station_id":"ce4bgi12rcd13ifvqb80","pricing_plan_id":"free"},{"bike_id":"cc8de8b9-bd58-468c-aa1b-263e697b232f","system_id":"levelo_inurba_marseille","lat":43.29529,"lon":5.385581,"is_reserved":false,"is_disabled":false,"rental_uris":{"android":"levelo://app?vid=cc8de8b9-bd58-468c-aa1b-263e697b232f","ios":"levelo://app?vid=cc8de8b9-bd58-468c-aa1b-263e697b232f"},"vehicle_type_id":"4","last_reported":1685214268,"current_range_meters":10400,"station_id":"ce4bgih2rcd13ifvqba0","pricing_plan_id":"free"},{"bike_id":"2800107d-c683-444a-b2bb-a218ae5fb132","system_id":"levelo_inurba_marseille","lat":43.29529,"lon":5.385581,"is_reserved":false,"is_disabled":false,"rental_uris":{"android":"levelo://app?vid=2800107d-c683-444a-b2bb-a218ae5fb132","ios":"levelo://app?vid=2800107d-c683-444a-b2bb-a218ae5fb132"},"vehicle_type_id":"4","last_reported":1685214268,"current_range_meters":1200,"station_id":"ce4bgih2rcd13ifvqba0","pricing_plan_id":"free"},{"bike_id":"920274c0-699a-4dca-b801-4d2de6feb1ec","system_id":"levelo_inurba_marseille","lat":43.29418,"lon":5.38618,"is_reserved":false,"is_disabled":false,"rental_uris":{"android":"levelo://app?vid=920274c0-699a-4dca-b801-4d2de6feb1ec","ios":"levelo://app?vid=920274c0-699a-4dca-b801-4d2de6feb1ec"},"vehicle_type_id":"4","last_reported":1685214268,"current_range_meters":7200,"station_id":"ce4bh2h2rcd13ifvqdh0","pricing_plan_id":"free"},{"bike_id":"bacbe280-aa86-4b0f-abbc-454eab6d3340","system_id":"levelo_inurba_marseille","lat":43.289468,"lon":5.363719,"is_reserved":false,"is_disabled":false,"rental_uris":{"android":"levelo://app?vid=bacbe280-aa86-4b0f-abbc-454eab6d3340","ios":"levelo://app?vid=bacbe280-aa86-4b0f-abbc-454eab6d3340"},"vehicle_type_id":"4","last_reported":1685214268,"current_range_meters":0,"station_id":"ce4bhc92rcd13ifvqetg","pricing_plan_id":"free"},{"bike_id":"877385e5-379a-4a3a-9f86-e54c870f4938","system_id":"levelo_inurba_marseille","lat":43.292644,"lon":5.384257,"is_reserved":false,"is_disabled":false,"rental_uris":{"android":"levelo://app?vid=877385e5-379a-4a3a-9f86-e54c870f4938","ios":"levelo://app?vid=877385e5-379a-4a3a-9f86-e54c870f4938"},"vehicle_type_id":"4","last_reported":1685214268,"current_range_meters":25200,"station_id":"ce4bh692rcd13ifvqea0","pricing_plan_id":"free"},{"bike_id":"f54ec888-e75b-4b2e-95a5-42aaefae706d","system_id":"levelo_inurba_marseille","lat":43.290104,"lon":5.356111,"is_reserved":false,"is_disabled":false,"rental_uris":{"android":"levelo://app?vid=f54ec888-e75b-4b2e-95a5-42aaefae706d","ios":"levelo://app?vid=f54ec888-e75b-4b2e-95a5-42aaefae706d"},"vehicle_type_id":"4","last_reported":1685214268,"current_range_meters":0,"station_id":"ce4bhb92rcd13ifvqen0","pricing_plan_id":"free"},{"bike_id":"7d624e29-8d8f-4f15-963d-f56822348211","system_id":"levelo_inurba_marseille","lat":43.290104,"lon":5.356111,"is_reserved":false,"is_disabled":false,"rental_uris":{"android":"levelo://app?vid=7d624e29-8d8f-4f15-963d-f56822348211","ios":"levelo://app?vid=7d624e29-8d8f-4f15-963d-f56822348211"},"vehicle_type_id":"4","last_reported":1685214268,"current_range_meters":7200,"station_id":"ce4bhb92rcd13ifvqen0","pricing_plan_id":"free"},{"bike_id":"fb79360d-642c-4ff4-ad73-20125707faaa","system_id":"levelo_inurba_marseille","lat":43.290104,"lon":5.356111,"is_reserved":false,"is_disabled":false,"rental_uris":{"android":"levelo://app?vid=fb79360d-642c-4ff4-ad73-20125707faaa","ios":"levelo://app?vid=fb79360d-642c-4ff4-ad73-20125707faaa"},"vehicle_type_id":"4","last_reported":1685214268,"current_range_meters":10400,"station_id":"ce4bhb92rcd13ifvqen0","pricing_plan_id":"free"},{"bike_id":"6b37986e-afd3-4654-b384-87cc3d92ffad","system_id":"levelo_inurba_marseille","lat":43.289741,"lon":5.378306,"is_reserved":false,"is_disabled":false,"rental_uris":{"android":"levelo://app?vid=6b37986e-afd3-4654-b384-87cc3d92ffad","ios":"levelo://app?vid=6b37986e-afd3-4654-b384-87cc3d92ffad"},"vehicle_type_id":"4","last_reported":1685214268,"current_range_meters":0,"station_id":"ce4bh9p2rcd13ifvqed0","pricing_plan_id":"free"},{"bike_id":"18010936-af10-4398-a66b-7413f3f52542","system_id":"levelo_inurba_marseille","lat":43.29006,"lon":5.38137,"is_reserved":false,"is_disabled":false,"rental_uris":{"android":"levelo://app?vid=18010936-af10-4398-a66b-7413f3f52542","ios":"levelo://app?vid=18010936-af10-4398-a66b-7413f3f52542"},"vehicle_type_id":"4","last_reported":1685214268,"current_range_meters":1200,"station_id":"ce4bh4p2rcd13ifvqe1g","pricing_plan_id":"free"},{"bike_id":"493860ce-e063-4684-ab33-c360eaf64153","system_id":"levelo_inurba_marseille","lat":43.33744,"lon":5.37451,"is_reserved":false,"is_disabled":false,"rental_uris":{"android":"levelo://app?vid=493860ce-e063-4684-ab33-c360eaf64153","ios":"levelo://app?vid=493860ce-e063-4684-ab33-c360eaf64153"},"vehicle_type_id":"4","last_reported":1685214268,"current_range_meters":21200,"station_id":"","pricing_plan_id":"free"},{"bike_id":"c67b547c-3fcb-4384-8614-e15f558fec55","system_id":"levelo_inurba_marseille","lat":43.33744,"lon":5.37451,"is_reserved":false,"is_disabled":false,"rental_uris":{"android":"levelo://app?vid=c67b547c-3fcb-4384-8614-e15f558fec55","ios":"levelo://app?vid=c67b547c-3fcb-4384-8614-e15f558fec55"},"vehicle_type_id":"4","last_reported":1685214268,"current_range_meters":30000,"station_id":"","pricing_plan_id":"free"},{"bike_id":"5aaf445f-f097-4041-99e9-0b2edc8a39b1","system_id":"levelo_inurba_marseille","lat":43.33749,"lon":5.37433,"is_reserved":false,"is_disabled":false,"rental_uris":{"android":"levelo://app?vid=5aaf445f-f097-4041-99e9-0b2edc8a39b1","ios":"levelo://app?vid=5aaf445f-f097-4041-99e9-0b2edc8a39b1"},"vehicle_type_id":"4","last_reported":1685214268,"current_range_meters":23600,"station_id":"","pricing_plan_id":"free"},{"bike_id":"556c6db1-2600-4c2b-9521-aae8453517c1","system_id":"levelo_inurba_marseille","lat":43.3375,"lon":5.37443,"is_reserved":false,"is_disabled":false,"rental_uris":{"android":"levelo://app?vid=556c6db1-2600-4c2b-9521-aae8453517c1","ios":"levelo://app?vid=556c6db1-2600-4c2b-9521-aae8453517c1"},"vehicle_type_id":"4","last_reported":1685214268,"current_range_meters":16800,"station_id":"","pricing_plan_id":"free"},{"bike_id":"141c14ea-594b-43ee-894e-8c44af1dcd73","system_id":"levelo_inurba_marseille","lat":43.33753,"lon":5.37435,"is_reserved":false,"is_disabled":false,"rental_uris":{"android":"levelo://app?vid=141c14ea-594b-43ee-894e-8c44af1dcd73","ios":"levelo://app?vid=141c14ea-594b-43ee-894e-8c44af1dcd73"},"vehicle_type_id":"4","last_reported":1685214268,"current_range_meters":10800,"station_id":"","pricing_plan_id":"free"},{"bike_id":"21bebb90-bd37-4351-9ead-f26273aea005","system_id":"levelo_inurba_marseille","lat":43.33757,"lon":5.3744,"is_reserved":false,"is_disabled":false,"rental_uris":{"android":"levelo://app?vid=21bebb90-bd37-4351-9ead-f26273aea005","ios":"levelo://app?vid=21bebb90-bd37-4351-9ead-f26273aea005"},"vehicle_type_id":"4","last_reported":1685214268,"current_range_meters":14800,"station_id":"","pricing_plan_id":"free"},{"bike_id":"9e8ba907-b276-46b3-a0d4-643791b8cf62","system_id":"levelo_inurba_marseille","lat":43.33756,"lon":5.37449,"is_reserved":false,"is_disabled":false,"rental_uris":{"android":"levelo://app?vid=9e8ba907-b276-46b3-a0d4-643791b8cf62","ios":"levelo://app?vid=9e8ba907-b276-46b3-a0d4-643791b8cf62"},"vehicle_type_id":"4","last_reported":1685214268,"current_range_meters":30400,"station_id":"","pricing_plan_id":"free"},{"bike_id":"4a9be2f7-5d74-4d13-b74a-62d2aef957fc","system_id":"levelo_inurba_marseille","lat":43.337564,"lon":5.374517,"is_reserved":false,"is_disabled":false,"rental_uris":{"android":"levelo://app?vid=4a9be2f7-5d74-4d13-b74a-62d2aef957fc","ios":"levelo://app?vid=4a9be2f7-5d74-4d13-b74a-62d2aef957fc"},"vehicle_type_id":"4","last_reported":1685214268,"current_range_meters":30000,"station_id":"","pricing_plan_id":"free"},{"bike_id":"c622c08e-a260-4027-b92a-839107253eb5","system_id":"levelo_inurba_marseille","lat":43.33763,"lon":5.37447,"is_reserved":false,"is_disabled":false,"rental_uris":{"android":"levelo://app?vid=c622c08e-a260-4027-b92a-839107253eb5","ios":"levelo://app?vid=c622c08e-a260-4027-b92a-839107253eb5"},"vehicle_type_id":"4","last_reported":1685214268,"current_range_meters":29200,"station_id":"","pricing_plan_id":"free"},{"bike_id":"118c5396-7edc-4838-ab86-eb6e99a45832","system_id":"levelo_inurba_marseille","lat":43.295196,"lon":5.39397,"is_reserved":false,"is_disabled":false,"rental_uris":{"android":"levelo://app?vid=118c5396-7edc-4838-ab86-eb6e99a45832","ios":"levelo://app?vid=118c5396-7edc-4838-ab86-eb6e99a45832"},"vehicle_type_id":"4","last_reported":1685214268,"current_range_meters":19200,"station_id":"ce4bh292rcd13ifvqdf0","pricing_plan_id":"free"},{"bike_id":"b829aba6-cdc8-4be6-b941-bc59bc9afb17","system_id":"levelo_inurba_marseille","lat":43.28659,"lon":5.36359,"is_reserved":false,"is_disabled":false,"rental_uris":{"android":"levelo://app?vid=b829aba6-cdc8-4be6-b941-bc59bc9afb17","ios":"levelo://app?vid=b829aba6-cdc8-4be6-b941-bc59bc9afb17"},"vehicle_type_id":"4","last_reported":1685214268,"current_range_meters":5200,"station_id":"ce4bhah2rcd13ifvqej0","pricing_plan_id":"free"},{"bike_id":"bebe428a-2d8e-4aae-8981-891934765a27","system_id":"levelo_inurba_marseille","lat":43.286039,"lon":5.370681,"is_reserved":false,"is_disabled":false,"rental_uris":{"android":"levelo://app?vid=bebe428a-2d8e-4aae-8981-891934765a27","ios":"levelo://app?vid=bebe428a-2d8e-4aae-8981-891934765a27"},"vehicle_type_id":"4","last_reported":1685214268,"current_range_meters":0,"station_id":"ce4bht12rcd13ifvqi60","pricing_plan_id":"free"},{"bike_id":"ba74e9e7-9e62-4704-af50-1a42093b51e1","system_id":"levelo_inurba_marseille","lat":43.286039,"lon":5.370681,"is_reserved":false,"is_disabled":false,"rental_uris":{"android":"levelo://app?vid=ba74e9e7-9e62-4704-af50-1a42093b51e1","ios":"levelo://app?vid=ba74e9e7-9e62-4704-af50-1a42093b51e1"},"vehicle_type_id":"4","last_reported":1685214268,"current_range_meters":13600,"station_id":"ce4bht12rcd13ifvqi60","pricing_plan_id":"free"},{"bike_id":"9cb7d630-0e25-4472-b7a5-c6af2cc953db","system_id":"levelo_inurba_marseille","lat":43.286039,"lon":5.370681,"is_reserved":false,"is_disabled":false,"rental_uris":{"android":"levelo://app?vid=9cb7d630-0e25-4472-b7a5-c6af2cc953db","ios":"levelo://app?vid=9cb7d630-0e25-4472-b7a5-c6af2cc953db"},"vehicle_type_id":"4","last_reported":1685214268,"current_range_meters":0,"station_id":"ce4bht12rcd13ifvqi60","pricing_plan_id":"free"},{"bike_id":"4ebe09ea-bbd9-477a-ad27-805daef49ec1","system_id":"levelo_inurba_marseille","lat":43.31649,"lon":5.40437,"is_reserved":false,"is_disabled":false,"rental_uris":{"android":"levelo://app?vid=4ebe09ea-bbd9-477a-ad27-805daef49ec1","ios":"levelo://app?vid=4ebe09ea-bbd9-477a-ad27-805daef49ec1"},"vehicle_type_id":"4","last_reported":1685214268,"current_range_meters":0,"station_id":"ce4bh012rcd13ifvqd00","pricing_plan_id":"free"},{"bike_id":"f3cb914e-9c96-4d86-a26c-2e666e192f5f","system_id":"levelo_inurba_marseille","lat":43.28612,"lon":5.35105,"is_reserved":false,"is_disabled":false,"rental_uris":{"android":"levelo://app?vid=f3cb914e-9c96-4d86-a26c-2e666e192f5f","ios":"levelo://app?vid=f3cb914e-9c96-4d86-a26c-2e666e192f5f"},"vehicle_type_id":"4","last_reported":1685214268,"current_range_meters":23200,"station_id":"","pricing_plan_id":"free"},{"bike_id":"0318e97a-1f01-4f58-9e99-ced96fc46b37","system_id":"levelo_inurba_marseille","lat":43.323464,"lon":5.406297,"is_reserved":false,"is_disabled":false,"rental_uris":{"android":"levelo://app?vid=0318e97a-1f01-4f58-9e99-ced96fc46b37","ios":"levelo://app?vid=0318e97a-1f01-4f58-9e99-ced96fc46b37"},"vehicle_type_id":"4","last_reported":1685214268,"current_range_meters":7200,"station_id":"ce4bhq92rcd13ifvqhjg","pricing_plan_id":"free"},{"bike_id":"313049e2-232c-4f54-9b26-81086cea8884","system_id":"levelo_inurba_marseille","lat":43.33724,"lon":5.39184,"is_reserved":false,"is_disabled":false,"rental_uris":{"android":"levelo://app?vid=313049e2-232c-4f54-9b26-81086cea8884","ios":"levelo://app?vid=313049e2-232c-4f54-9b26-81086cea8884"},"vehicle_type_id":"4","last_reported":1685214268,"current_range_meters":7600,"station_id":"","pricing_plan_id":"free"},{"bike_id":"b6d185d0-3999-4d47-aa38-034f642ac7a3","system_id":"levelo_inurba_marseille","lat":43.283494,"lon":5.380945,"is_reserved":false,"is_disabled":false,"rental_uris":{"android":"levelo://app?vid=b6d185d0-3999-4d47-aa38-034f642ac7a3","ios":"levelo://app?vid=b6d185d0-3999-4d47-aa38-034f642ac7a3"},"vehicle_type_id":"4","last_reported":1685214268,"current_range_meters":0,"station_id":"ce4bh412rcd13ifvqdr0","pricing_plan_id":"free"},{"bike_id":"f44a48fa-75c1-4730-b88a-b13565657622","system_id":"levelo_inurba_marseille","lat":43.283494,"lon":5.380945,"is_reserved":false,"is_disabled":false,"rental_uris":{"android":"levelo://app?vid=f44a48fa-75c1-4730-b88a-b13565657622","ios":"levelo://app?vid=f44a48fa-75c1-4730-b88a-b13565657622"},"vehicle_type_id":"4","last_reported":1685214268,"current_range_meters":2000,"station_id":"ce4bh412rcd13ifvqdr0","pricing_plan_id":"free"},{"bike_id":"c48d8bda-95d0-447b-a67b-d2ef20acb5ac","system_id":"levelo_inurba_marseille","lat":43.283498,"lon":5.380948,"is_reserved":false,"is_disabled":false,"rental_uris":{"android":"levelo://app?vid=c48d8bda-95d0-447b-a67b-d2ef20acb5ac","ios":"levelo://app?vid=c48d8bda-95d0-447b-a67b-d2ef20acb5ac"},"vehicle_type_id":"4","last_reported":1685214268,"current_range_meters":800,"station_id":"ce4bh412rcd13ifvqdr0","pricing_plan_id":"free"},{"bike_id":"7bf8e5d4-78b3-4a7c-b7bb-3c4f1e9a1487","system_id":"levelo_inurba_marseille","lat":43.28358,"lon":5.38612,"is_reserved":false,"is_disabled":false,"rental_uris":{"android":"levelo://app?vid=7bf8e5d4-78b3-4a7c-b7bb-3c4f1e9a1487","ios":"levelo://app?vid=7bf8e5d4-78b3-4a7c-b7bb-3c4f1e9a1487"},"vehicle_type_id":"4","last_reported":1685214268,"current_range_meters":2000,"station_id":"","pricing_plan_id":"free"},{"bike_id":"7a40110c-e19d-4bc6-a907-970e110cfb0f","system_id":"levelo_inurba_marseille","lat":43.28039,"lon":5.369297,"is_reserved":false,"is_disabled":false,"rental_uris":{"android":"levelo://app?vid=7a40110c-e19d-4bc6-a907-970e110cfb0f","ios":"levelo://app?vid=7a40110c-e19d-4bc6-a907-970e110cfb0f"},"vehicle_type_id":"4","last_reported":1685214268,"current_range_meters":14000,"station_id":"ce4bha12rcd13ifvqef0","pricing_plan_id":"free"},{"bike_id":"654149c6-7b9c-4e11-af78-2368f9cb9e1c","system_id":"levelo_inurba_marseille","lat":43.28039,"lon":5.369297,"is_reserved":false,"is_disabled":false,"rental_uris":{"android":"levelo://app?vid=654149c6-7b9c-4e11-af78-2368f9cb9e1c","ios":"levelo://app?vid=654149c6-7b9c-4e11-af78-2368f9cb9e1c"},"vehicle_type_id":"4","last_reported":1685214268,"current_range_meters":5600,"station_id":"ce4bha12rcd13ifvqef0","pricing_plan_id":"free"},{"bike_id":"4e714206-f604-4bc2-9215-bb3aeccde328","system_id":"levelo_inurba_marseille","lat":43.2803,"lon":5.36943,"is_reserved":false,"is_disabled":false,"rental_uris":{"android":"levelo://app?vid=4e714206-f604-4bc2-9215-bb3aeccde328","ios":"levelo://app?vid=4e714206-f604-4bc2-9215-bb3aeccde328"},"vehicle_type_id":"4","last_reported":1685214268,"current_range_meters":800,"station_id":"ce4bha12rcd13ifvqef0","pricing_plan_id":"free"},{"bike_id":"4d86ce40-e406-44d0-9e2e-59dcfae65e59","system_id":"levelo_inurba_marseille","lat":43.29041,"lon":5.39947,"is_reserved":false,"is_disabled":false,"rental_uris":{"android":"levelo://app?vid=4d86ce40-e406-44d0-9e2e-59dcfae65e59","ios":"levelo://app?vid=4d86ce40-e406-44d0-9e2e-59dcfae65e59"},"vehicle_type_id":"4","last_reported":1685214268,"current_range_meters":0,"station_id":"ce4bh392rcd13ifvqdm0","pricing_plan_id":"free"},{"bike_id":"4e90b323-ea04-44fa-a284-cc3ebfa74b2e","system_id":"levelo_inurba_marseille","lat":43.290412,"lon":5.399633,"is_reserved":false,"is_disabled":false,"rental_uris":{"android":"levelo://app?vid=4e90b323-ea04-44fa-a284-cc3ebfa74b2e","ios":"levelo://app?vid=4e90b323-ea04-44fa-a284-cc3ebfa74b2e"},"vehicle_type_id":"4","last_reported":1685214268,"current_range_meters":0,"station_id":"ce4bh392rcd13ifvqdm0","pricing_plan_id":"free"},{"bike_id":"da66dd59-937c-4082-906c-d89323db8e04","system_id":"levelo_inurba_marseille","lat":43.284462,"lon":5.392121,"is_reserved":false,"is_disabled":false,"rental_uris":{"android":"levelo://app?vid=da66dd59-937c-4082-906c-d89323db8e04","ios":"levelo://app?vid=da66dd59-937c-4082-906c-d89323db8e04"},"vehicle_type_id":"4","last_reported":1685214268,"current_range_meters":4800,"station_id":"ce4bhoh2rcd13ifvqh5g","pricing_plan_id":"free"},{"bike_id":"72955f6c-7da2-4149-a2ff-f068449222e2","system_id":"levelo_inurba_marseille","lat":43.304188,"lon":5.412904,"is_reserved":false,"is_disabled":false,"rental_uris":{"android":"levelo://app?vid=72955f6c-7da2-4149-a2ff-f068449222e2","ios":"levelo://app?vid=72955f6c-7da2-4149-a2ff-f068449222e2"},"vehicle_type_id":"4","last_reported":1685214268,"current_range_meters":14000,"station_id":"ce4bhop2rcd13ifvqh8g","pricing_plan_id":"free"},{"bike_id":"84d12069-021b-4680-8bac-2b856acbd98f","system_id":"levelo_inurba_marseille","lat":43.304188,"lon":5.412904,"is_reserved":false,"is_disabled":false,"rental_uris":{"android":"levelo://app?vid=84d12069-021b-4680-8bac-2b856acbd98f","ios":"levelo://app?vid=84d12069-021b-4680-8bac-2b856acbd98f"},"vehicle_type_id":"4","last_reported":1685214268,"current_range_meters":17600,"station_id":"ce4bhop2rcd13ifvqh8g","pricing_plan_id":"free"},{"bike_id":"6f0c4f67-c037-4e70-98cd-ce7868d72ed6","system_id":"levelo_inurba_marseille","lat":43.304188,"lon":5.412904,"is_reserved":false,"is_disabled":false,"rental_uris":{"android":"levelo://app?vid=6f0c4f67-c037-4e70-98cd-ce7868d72ed6","ios":"levelo://app?vid=6f0c4f67-c037-4e70-98cd-ce7868d72ed6"},"vehicle_type_id":"4","last_reported":1685214268,"current_range_meters":11600,"station_id":"ce4bhop2rcd13ifvqh8g","pricing_plan_id":"free"},{"bike_id":"a9a968fd-b975-4740-8e25-714e797abb92","system_id":"levelo_inurba_marseille","lat":43.28086,"lon":5.38644,"is_reserved":false,"is_disabled":false,"rental_uris":{"android":"levelo://app?vid=a9a968fd-b975-4740-8e25-714e797abb92","ios":"levelo://app?vid=a9a968fd-b975-4740-8e25-714e797abb92"},"vehicle_type_id":"4","last_reported":1685214268,"current_range_meters":23200,"station_id":"ce4bh512rcd13ifvqe3g","pricing_plan_id":"free"},{"bike_id":"571c2525-12cf-4e9e-984b-d06f21d0cadb","system_id":"levelo_inurba_marseille","lat":43.27902,"lon":5.38016,"is_reserved":false,"is_disabled":false,"rental_uris":{"android":"levelo://app?vid=571c2525-12cf-4e9e-984b-d06f21d0cadb","ios":"levelo://app?vid=571c2525-12cf-4e9e-984b-d06f21d0cadb"},"vehicle_type_id":"4","last_reported":1685214268,"current_range_meters":4000,"station_id":"","pricing_plan_id":"free"},{"bike_id":"f77e16e4-2f18-463d-87a8-333179ebf4aa","system_id":"levelo_inurba_marseille","lat":43.287154,"lon":5.399979,"is_reserved":false,"is_disabled":false,"rental_uris":{"android":"levelo://app?vid=f77e16e4-2f18-463d-87a8-333179ebf4aa","ios":"levelo://app?vid=f77e16e4-2f18-463d-87a8-333179ebf4aa"},"vehicle_type_id":"4","last_reported":1685214268,"current_range_meters":25200,"station_id":"ce4bho92rcd13ifvqh3g","pricing_plan_id":"free"},{"bike_id":"74bd54d6-a8aa-41c0-9585-c0ca9abae691","system_id":"levelo_inurba_marseille","lat":43.320045,"lon":5.415046,"is_reserved":false,"is_disabled":false,"rental_uris":{"android":"levelo://app?vid=74bd54d6-a8aa-41c0-9585-c0ca9abae691","ios":"levelo://app?vid=74bd54d6-a8aa-41c0-9585-c0ca9abae691"},"vehicle_type_id":"4","last_reported":1685214268,"current_range_meters":18800,"station_id":"ce4bhq92rcd13ifvqhkg","pricing_plan_id":"free"},{"bike_id":"a27fcdd2-fcdc-4d50-8f2f-9ead0c606b3e","system_id":"levelo_inurba_marseille","lat":43.292569,"lon":5.409107,"is_reserved":false,"is_disabled":false,"rental_uris":{"android":"levelo://app?vid=a27fcdd2-fcdc-4d50-8f2f-9ead0c606b3e","ios":"levelo://app?vid=a27fcdd2-fcdc-4d50-8f2f-9ead0c606b3e"},"vehicle_type_id":"4","last_reported":1685214268,"current_range_meters":18400,"station_id":"ce4bh192rcd13ifvqdc0","pricing_plan_id":"free"},{"bike_id":"c0bb5c2e-b50e-45b4-94ec-87e6bf18ad4d","system_id":"levelo_inurba_marseille","lat":43.27618,"lon":5.361009,"is_reserved":false,"is_disabled":false,"rental_uris":{"android":"levelo://app?vid=c0bb5c2e-b50e-45b4-94ec-87e6bf18ad4d","ios":"levelo://app?vid=c0bb5c2e-b50e-45b4-94ec-87e6bf18ad4d"},"vehicle_type_id":"4","last_reported":1685214268,"current_range_meters":8000,"station_id":"ce4bgj92rcd13ifvqbe0","pricing_plan_id":"free"},{"bike_id":"ccc56e41-daf6-4773-9a99-20a05c5bc303","system_id":"levelo_inurba_marseille","lat":43.290104,"lon":5.356111,"is_reserved":false,"is_disabled":false,"rental_uris":{"android":"levelo://app?vid=ccc56e41-daf6-4773-9a99-20a05c5bc303","ios":"levelo://app?vid=ccc56e41-daf6-4773-9a99-20a05c5bc303"},"vehicle_type_id":"4","last_reported":1685214268,"current_range_meters":4400,"station_id":"ce4bhb92rcd13ifvqen0","pricing_plan_id":"free"},{"bike_id":"8483d76c-b641-4f2a-8a0e-96aff460b711","system_id":"levelo_inurba_marseille","lat":43.273609,"lon":5.362708,"is_reserved":false,"is_disabled":false,"rental_uris":{"android":"levelo://app?vid=8483d76c-b641-4f2a-8a0e-96aff460b711","ios":"levelo://app?vid=8483d76c-b641-4f2a-8a0e-96aff460b711"},"vehicle_type_id":"4","last_reported":1685214268,"current_range_meters":2000,"station_id":"ce4bhbh2rcd13ifvqeo0","pricing_plan_id":"free"},{"bike_id":"17ed6cbf-ad09-4349-9b6e-1c2c3d306f4f","system_id":"levelo_inurba_marseille","lat":43.273613,"lon":5.362705,"is_reserved":false,"is_disabled":false,"rental_uris":{"android":"levelo://app?vid=17ed6cbf-ad09-4349-9b6e-1c2c3d306f4f","ios":"levelo://app?vid=17ed6cbf-ad09-4349-9b6e-1c2c3d306f4f"},"vehicle_type_id":"4","last_reported":1685214268,"current_range_meters":7600,"station_id":"ce4bhbh2rcd13ifvqeo0","pricing_plan_id":"free"},{"bike_id":"5c89634b-a694-4dd5-89f5-386d9d86eb5f","system_id":"levelo_inurba_marseille","lat":43.273609,"lon":5.362708,"is_reserved":false,"is_disabled":false,"rental_uris":{"android":"levelo://app?vid=5c89634b-a694-4dd5-89f5-386d9d86eb5f","ios":"levelo://app?vid=5c89634b-a694-4dd5-89f5-386d9d86eb5f"},"vehicle_type_id":"4","last_reported":1685214268,"current_range_meters":15600,"station_id":"ce4bhbh2rcd13ifvqeo0","pricing_plan_id":"free"},{"bike_id":"840d6869-d3b6-44e5-b766-0bae0e459857","system_id":"levelo_inurba_marseille","lat":43.273609,"lon":5.362708,"is_reserved":false,"is_disabled":false,"rental_uris":{"android":"levelo://app?vid=840d6869-d3b6-44e5-b766-0bae0e459857","ios":"levelo://app?vid=840d6869-d3b6-44e5-b766-0bae0e459857"},"vehicle_type_id":"4","last_reported":1685214268,"current_range_meters":1200,"station_id":"ce4bhbh2rcd13ifvqeo0","pricing_plan_id":"free"},{"bike_id":"9446f208-dfd0-4098-ad80-ac5f8c432a7e","system_id":"levelo_inurba_marseille","lat":43.33603,"lon":5.41029,"is_reserved":false,"is_disabled":false,"rental_uris":{"android":"levelo://app?vid=9446f208-dfd0-4098-ad80-ac5f8c432a7e","ios":"levelo://app?vid=9446f208-dfd0-4098-ad80-ac5f8c432a7e"},"vehicle_type_id":"4","last_reported":1685214268,"current_range_meters":13200,"station_id":"ce4bhqh2rcd13ifvqhmg","pricing_plan_id":"free"},{"bike_id":"91b49189-18df-431a-bbbf-f0b2350181de","system_id":"levelo_inurba_marseille","lat":43.28414,"lon":5.40779,"is_reserved":false,"is_disabled":false,"rental_uris":{"android":"levelo://app?vid=91b49189-18df-431a-bbbf-f0b2350181de","ios":"levelo://app?vid=91b49189-18df-431a-bbbf-f0b2350181de"},"vehicle_type_id":"4","last_reported":1685214268,"current_range_meters":10000,"station_id":"","pricing_plan_id":"free"},{"bike_id":"17eb6f0b-d150-4655-a405-57a66c01f898","system_id":"levelo_inurba_marseille","lat":43.273613,"lon":5.362705,"is_reserved":false,"is_disabled":false,"rental_uris":{"android":"levelo://app?vid=17eb6f0b-d150-4655-a405-57a66c01f898","ios":"levelo://app?vid=17eb6f0b-d150-4655-a405-57a66c01f898"},"vehicle_type_id":"4","last_reported":1685214268,"current_range_meters":3600,"station_id":"ce4bhbh2rcd13ifvqeo0","pricing_plan_id":"free"},{"bike_id":"05116d0b-fac6-4492-aa56-8e7f8d3d6d84","system_id":"levelo_inurba_marseille","lat":43.273125,"lon":5.390731,"is_reserved":false,"is_disabled":false,"rental_uris":{"android":"levelo://app?vid=05116d0b-fac6-4492-aa56-8e7f8d3d6d84","ios":"levelo://app?vid=05116d0b-fac6-4492-aa56-8e7f8d3d6d84"},"vehicle_type_id":"4","last_reported":1685214268,"current_range_meters":26400,"station_id":"ce4bhgp2rcd13ifvqfe0","pricing_plan_id":"free"},{"bike_id":"b858ad10-13de-44b8-b3bd-a7bb51ffe5eb","system_id":"levelo_inurba_marseille","lat":43.27426,"lon":5.39419,"is_reserved":false,"is_disabled":false,"rental_uris":{"android":"levelo://app?vid=b858ad10-13de-44b8-b3bd-a7bb51ffe5eb","ios":"levelo://app?vid=b858ad10-13de-44b8-b3bd-a7bb51ffe5eb"},"vehicle_type_id":"4","last_reported":1685214268,"current_range_meters":5200,"station_id":"","pricing_plan_id":"free"},{"bike_id":"435e34fa-0172-4373-af48-8f6ed9e11b82","system_id":"levelo_inurba_marseille","lat":43.2721,"lon":5.39169,"is_reserved":false,"is_disabled":false,"rental_uris":{"android":"levelo://app?vid=435e34fa-0172-4373-af48-8f6ed9e11b82","ios":"levelo://app?vid=435e34fa-0172-4373-af48-8f6ed9e11b82"},"vehicle_type_id":"4","last_reported":1685214268,"current_range_meters":4000,"station_id":"ce4bhhp2rcd13ifvqfm0","pricing_plan_id":"free"},{"bike_id":"9baed839-8cab-4897-9aed-9fd5ea38cd40","system_id":"levelo_inurba_marseille","lat":43.272116,"lon":5.391763,"is_reserved":false,"is_disabled":false,"rental_uris":{"android":"levelo://app?vid=9baed839-8cab-4897-9aed-9fd5ea38cd40","ios":"levelo://app?vid=9baed839-8cab-4897-9aed-9fd5ea38cd40"},"vehicle_type_id":"4","last_reported":1685214268,"current_range_meters":0,"station_id":"ce4bhhp2rcd13ifvqfm0","pricing_plan_id":"free"},{"bike_id":"b375c30a-11db-41d0-bc76-599b5634dc8c","system_id":"levelo_inurba_marseille","lat":43.272116,"lon":5.391747,"is_reserved":false,"is_disabled":false,"rental_uris":{"android":"levelo://app?vid=b375c30a-11db-41d0-bc76-599b5634dc8c","ios":"levelo://app?vid=b375c30a-11db-41d0-bc76-599b5634dc8c"},"vehicle_type_id":"4","last_reported":1685214268,"current_range_meters":0,"station_id":"ce4bhhp2rcd13ifvqfm0","pricing_plan_id":"free"},{"bike_id":"18f3fd58-b601-410c-9128-34aa7e3abc98","system_id":"levelo_inurba_marseille","lat":43.272116,"lon":5.391747,"is_reserved":false,"is_disabled":false,"rental_uris":{"android":"levelo://app?vid=18f3fd58-b601-410c-9128-34aa7e3abc98","ios":"levelo://app?vid=18f3fd58-b601-410c-9128-34aa7e3abc98"},"vehicle_type_id":"4","last_reported":1685214268,"current_range_meters":3600,"station_id":"ce4bhhp2rcd13ifvqfm0","pricing_plan_id":"free"},{"bike_id":"775ba806-ff45-4c22-a194-ff434043c7f9","system_id":"levelo_inurba_marseille","lat":43.272116,"lon":5.391747,"is_reserved":false,"is_disabled":false,"rental_uris":{"android":"levelo://app?vid=775ba806-ff45-4c22-a194-ff434043c7f9","ios":"levelo://app?vid=775ba806-ff45-4c22-a194-ff434043c7f9"},"vehicle_type_id":"4","last_reported":1685214268,"current_range_meters":0,"station_id":"ce4bhhp2rcd13ifvqfm0","pricing_plan_id":"free"},{"bike_id":"f28766bf-bc1f-48dc-b13a-9d2128a1ae70","system_id":"levelo_inurba_marseille","lat":43.272124,"lon":5.391768,"is_reserved":false,"is_disabled":false,"rental_uris":{"android":"levelo://app?vid=f28766bf-bc1f-48dc-b13a-9d2128a1ae70","ios":"levelo://app?vid=f28766bf-bc1f-48dc-b13a-9d2128a1ae70"},"vehicle_type_id":"4","last_reported":1685214268,"current_range_meters":11200,"station_id":"ce4bhhp2rcd13ifvqfm0","pricing_plan_id":"free"},{"bike_id":"72d6a1b4-a94d-4ec5-8393-ce5e4f00ebf6","system_id":"levelo_inurba_marseille","lat":43.272124,"lon":5.391768,"is_reserved":false,"is_disabled":false,"rental_uris":{"android":"levelo://app?vid=72d6a1b4-a94d-4ec5-8393-ce5e4f00ebf6","ios":"levelo://app?vid=72d6a1b4-a94d-4ec5-8393-ce5e4f00ebf6"},"vehicle_type_id":"4","last_reported":1685214268,"current_range_meters":0,"station_id":"ce4bhhp2rcd13ifvqfm0","pricing_plan_id":"free"},{"bike_id":"00aee4cb-dbe7-42a7-af1d-479c2713e68c","system_id":"levelo_inurba_marseille","lat":43.278128,"lon":5.407195,"is_reserved":false,"is_disabled":false,"rental_uris":{"android":"levelo://app?vid=00aee4cb-dbe7-42a7-af1d-479c2713e68c","ios":"levelo://app?vid=00aee4cb-dbe7-42a7-af1d-479c2713e68c"},"vehicle_type_id":"4","last_reported":1685214268,"current_range_meters":28400,"station_id":"ce4bhnh2rcd13ifvqgtg","pricing_plan_id":"free"},{"bike_id":"8b7d02e8-fb7d-4ee5-84f6-bacacdf60f8d","system_id":"levelo_inurba_marseille","lat":43.278128,"lon":5.407195,"is_reserved":false,"is_disabled":false,"rental_uris":{"android":"levelo://app?vid=8b7d02e8-fb7d-4ee5-84f6-bacacdf60f8d","ios":"levelo://app?vid=8b7d02e8-fb7d-4ee5-84f6-bacacdf60f8d"},"vehicle_type_id":"4","last_reported":1685214268,"current_range_meters":12400,"station_id":"ce4bhnh2rcd13ifvqgtg","pricing_plan_id":"free"},{"bike_id":"8123f3a1-05dc-4fe7-a0e0-0e1d2ab74f14","system_id":"levelo_inurba_marseille","lat":43.278128,"lon":5.407195,"is_reserved":false,"is_disabled":false,"rental_uris":{"android":"levelo://app?vid=8123f3a1-05dc-4fe7-a0e0-0e1d2ab74f14","ios":"levelo://app?vid=8123f3a1-05dc-4fe7-a0e0-0e1d2ab74f14"},"vehicle_type_id":"4","last_reported":1685214268,"current_range_meters":16400,"station_id":"ce4bhnh2rcd13ifvqgtg","pricing_plan_id":"free"},{"bike_id":"2f406c2f-8213-4570-98dc-a13409bf06d0","system_id":"levelo_inurba_marseille","lat":43.269467,"lon":5.386439,"is_reserved":false,"is_disabled":false,"rental_uris":{"android":"levelo://app?vid=2f406c2f-8213-4570-98dc-a13409bf06d0","ios":"levelo://app?vid=2f406c2f-8213-4570-98dc-a13409bf06d0"},"vehicle_type_id":"4","last_reported":1685214268,"current_range_meters":0,"station_id":"ce4bhh92rcd13ifvqfh0","pricing_plan_id":"free"},{"bike_id":"97f92444-dc7f-4ac8-885e-43ac50454dc0","system_id":"levelo_inurba_marseille","lat":43.31704,"lon":5.433,"is_reserved":false,"is_disabled":false,"rental_uris":{"android":"levelo://app?vid=97f92444-dc7f-4ac8-885e-43ac50454dc0","ios":"levelo://app?vid=97f92444-dc7f-4ac8-885e-43ac50454dc0"},"vehicle_type_id":"4","last_reported":1685214268,"current_range_meters":0,"station_id":"","pricing_plan_id":"free"},{"bike_id":"797fbfa5-fd5e-4798-ae71-5128ce88ba51","system_id":"levelo_inurba_marseille","lat":43.27996,"lon":5.416624,"is_reserved":false,"is_disabled":false,"rental_uris":{"android":"levelo://app?vid=797fbfa5-fd5e-4798-ae71-5128ce88ba51","ios":"levelo://app?vid=797fbfa5-fd5e-4798-ae71-5128ce88ba51"},"vehicle_type_id":"4","last_reported":1685214268,"current_range_meters":23600,"station_id":"ce4bho12rcd13ifvqh1g","pricing_plan_id":"free"},{"bike_id":"6d2ce819-822d-4f1a-8f15-09307b6a6515","system_id":"levelo_inurba_marseille","lat":43.27996,"lon":5.416624,"is_reserved":false,"is_disabled":false,"rental_uris":{"android":"levelo://app?vid=6d2ce819-822d-4f1a-8f15-09307b6a6515","ios":"levelo://app?vid=6d2ce819-822d-4f1a-8f15-09307b6a6515"},"vehicle_type_id":"4","last_reported":1685214268,"current_range_meters":6000,"station_id":"ce4bho12rcd13ifvqh1g","pricing_plan_id":"free"},{"bike_id":"baf605a9-fc68-40f9-a1d2-d0e0c45e046c","system_id":"levelo_inurba_marseille","lat":43.267966,"lon":5.393976,"is_reserved":false,"is_disabled":false,"rental_uris":{"android":"levelo://app?vid=baf605a9-fc68-40f9-a1d2-d0e0c45e046c","ios":"levelo://app?vid=baf605a9-fc68-40f9-a1d2-d0e0c45e046c"},"vehicle_type_id":"4","last_reported":1685214268,"current_range_meters":13200,"station_id":"ce4bhh12rcd13ifvqfg0","pricing_plan_id":"free"},{"bike_id":"df009b90-48c4-441e-9651-03129d0df1c3","system_id":"levelo_inurba_marseille","lat":43.267966,"lon":5.393976,"is_reserved":false,"is_disabled":false,"rental_uris":{"android":"levelo://app?vid=df009b90-48c4-441e-9651-03129d0df1c3","ios":"levelo://app?vid=df009b90-48c4-441e-9651-03129d0df1c3"},"vehicle_type_id":"4","last_reported":1685214268,"current_range_meters":0,"station_id":"ce4bhh12rcd13ifvqfg0","pricing_plan_id":"free"},{"bike_id":"4940da58-64b1-47e2-be10-02bce608e801","system_id":"levelo_inurba_marseille","lat":43.267966,"lon":5.393976,"is_reserved":false,"is_disabled":false,"rental_uris":{"android":"levelo://app?vid=4940da58-64b1-47e2-be10-02bce608e801","ios":"levelo://app?vid=4940da58-64b1-47e2-be10-02bce608e801"},"vehicle_type_id":"4","last_reported":1685214268,"current_range_meters":11200,"station_id":"ce4bhh12rcd13ifvqfg0","pricing_plan_id":"free"},{"bike_id":"8ab7e391-9348-4ee3-bede-08f3df924cd7","system_id":"levelo_inurba_marseille","lat":43.267966,"lon":5.393976,"is_reserved":false,"is_disabled":false,"rental_uris":{"android":"levelo://app?vid=8ab7e391-9348-4ee3-bede-08f3df924cd7","ios":"levelo://app?vid=8ab7e391-9348-4ee3-bede-08f3df924cd7"},"vehicle_type_id":"4","last_reported":1685214268,"current_range_meters":5200,"station_id":"ce4bhh12rcd13ifvqfg0","pricing_plan_id":"free"},{"bike_id":"75c07ee2-4a95-424c-888d-822816fb3c60","system_id":"levelo_inurba_marseille","lat":43.267966,"lon":5.393976,"is_reserved":false,"is_disabled":false,"rental_uris":{"android":"levelo://app?vid=75c07ee2-4a95-424c-888d-822816fb3c60","ios":"levelo://app?vid=75c07ee2-4a95-424c-888d-822816fb3c60"},"vehicle_type_id":"4","last_reported":1685214268,"current_range_meters":0,"station_id":"ce4bhh12rcd13ifvqfg0","pricing_plan_id":"free"},{"bike_id":"7ac0802f-c0ea-4fdc-bbbd-197b2ba86780","system_id":"levelo_inurba_marseille","lat":43.267966,"lon":5.393976,"is_reserved":false,"is_disabled":false,"rental_uris":{"android":"levelo://app?vid=7ac0802f-c0ea-4fdc-bbbd-197b2ba86780","ios":"levelo://app?vid=7ac0802f-c0ea-4fdc-bbbd-197b2ba86780"},"vehicle_type_id":"4","last_reported":1685214268,"current_range_meters":2400,"station_id":"ce4bhh12rcd13ifvqfg0","pricing_plan_id":"free"},{"bike_id":"9af029fe-a66b-4f7b-95ff-108a83a17cbd","system_id":"levelo_inurba_marseille","lat":43.261782,"lon":5.374515,"is_reserved":false,"is_disabled":false,"rental_uris":{"android":"levelo://app?vid=9af029fe-a66b-4f7b-95ff-108a83a17cbd","ios":"levelo://app?vid=9af029fe-a66b-4f7b-95ff-108a83a17cbd"},"vehicle_type_id":"4","last_reported":1685214268,"current_range_meters":11200,"station_id":"ce4bhgp2rcd13ifvqfc0","pricing_plan_id":"free"},{"bike_id":"a703deb0-7c18-4797-9a49-57b709d1d1b1","system_id":"levelo_inurba_marseille","lat":43.30796,"lon":5.43519,"is_reserved":false,"is_disabled":false,"rental_uris":{"android":"levelo://app?vid=a703deb0-7c18-4797-9a49-57b709d1d1b1","ios":"levelo://app?vid=a703deb0-7c18-4797-9a49-57b709d1d1b1"},"vehicle_type_id":"4","last_reported":1685214268,"current_range_meters":8000,"station_id":"","pricing_plan_id":"free"},{"bike_id":"2d160bfa-cf4e-4726-814c-4950079d52cd","system_id":"levelo_inurba_marseille","lat":43.30802,"lon":5.43525,"is_reserved":false,"is_disabled":false,"rental_uris":{"android":"levelo://app?vid=2d160bfa-cf4e-4726-814c-4950079d52cd","ios":"levelo://app?vid=2d160bfa-cf4e-4726-814c-4950079d52cd"},"vehicle_type_id":"4","last_reported":1685214268,"current_range_meters":20000,"station_id":"","pricing_plan_id":"free"},{"bike_id":"e3ec5939-1376-4397-942a-05af320f4d57","system_id":"levelo_inurba_marseille","lat":43.265569,"lon":5.390047,"is_reserved":false,"is_disabled":false,"rental_uris":{"android":"levelo://app?vid=e3ec5939-1376-4397-942a-05af320f4d57","ios":"levelo://app?vid=e3ec5939-1376-4397-942a-05af320f4d57"},"vehicle_type_id":"4","last_reported":1685214268,"current_range_meters":1600,"station_id":"ce4bhe12rcd13ifvqf30","pricing_plan_id":"free"},{"bike_id":"7d4a471a-97c6-41f2-b153-5767e76caa8d","system_id":"levelo_inurba_marseille","lat":43.261782,"lon":5.374515,"is_reserved":false,"is_disabled":false,"rental_uris":{"android":"levelo://app?vid=7d4a471a-97c6-41f2-b153-5767e76caa8d","ios":"levelo://app?vid=7d4a471a-97c6-41f2-b153-5767e76caa8d"},"vehicle_type_id":"4","last_reported":1685214268,"current_range_meters":30000,"station_id":"ce4bhgp2rcd13ifvqfc0","pricing_plan_id":"free"},{"bike_id":"1b0a1c8b-4356-4b49-93ff-43c6982a47ee","system_id":"levelo_inurba_marseille","lat":43.261782,"lon":5.374515,"is_reserved":false,"is_disabled":false,"rental_uris":{"android":"levelo://app?vid=1b0a1c8b-4356-4b49-93ff-43c6982a47ee","ios":"levelo://app?vid=1b0a1c8b-4356-4b49-93ff-43c6982a47ee"},"vehicle_type_id":"4","last_reported":1685214268,"current_range_meters":17600,"station_id":"ce4bhgp2rcd13ifvqfc0","pricing_plan_id":"free"},{"bike_id":"8574d98f-e833-43cc-94e3-7510894cb53a","system_id":"levelo_inurba_marseille","lat":43.261782,"lon":5.374515,"is_reserved":false,"is_disabled":false,"rental_uris":{"android":"levelo://app?vid=8574d98f-e833-43cc-94e3-7510894cb53a","ios":"levelo://app?vid=8574d98f-e833-43cc-94e3-7510894cb53a"},"vehicle_type_id":"4","last_reported":1685214268,"current_range_meters":800,"station_id":"ce4bhgp2rcd13ifvqfc0","pricing_plan_id":"free"},{"bike_id":"57db47f2-4421-4b19-9bbf-483509d7dabc","system_id":"levelo_inurba_marseille","lat":43.261782,"lon":5.374515,"is_reserved":false,"is_disabled":false,"rental_uris":{"android":"levelo://app?vid=57db47f2-4421-4b19-9bbf-483509d7dabc","ios":"levelo://app?vid=57db47f2-4421-4b19-9bbf-483509d7dabc"},"vehicle_type_id":"4","last_reported":1685214268,"current_range_meters":10400,"station_id":"ce4bhgp2rcd13ifvqfc0","pricing_plan_id":"free"},{"bike_id":"99ad3e8a-6702-4ab2-8bb9-8d6e2c4d8c80","system_id":"levelo_inurba_marseille","lat":43.261782,"lon":5.374515,"is_reserved":false,"is_disabled":false,"rental_uris":{"android":"levelo://app?vid=99ad3e8a-6702-4ab2-8bb9-8d6e2c4d8c80","ios":"levelo://app?vid=99ad3e8a-6702-4ab2-8bb9-8d6e2c4d8c80"},"vehicle_type_id":"4","last_reported":1685214268,"current_range_meters":0,"station_id":"ce4bhgp2rcd13ifvqfc0","pricing_plan_id":"free"},{"bike_id":"e97dad3a-ce26-4800-a37d-391e346d730c","system_id":"levelo_inurba_marseille","lat":43.261782,"lon":5.374515,"is_reserved":false,"is_disabled":false,"rental_uris":{"android":"levelo://app?vid=e97dad3a-ce26-4800-a37d-391e346d730c","ios":"levelo://app?vid=e97dad3a-ce26-4800-a37d-391e346d730c"},"vehicle_type_id":"4","last_reported":1685214268,"current_range_meters":0,"station_id":"ce4bhgp2rcd13ifvqfc0","pricing_plan_id":"free"},{"bike_id":"f2187356-8938-4249-a611-b1eef93cd133","system_id":"levelo_inurba_marseille","lat":43.26185,"lon":5.37441,"is_reserved":false,"is_disabled":false,"rental_uris":{"android":"levelo://app?vid=f2187356-8938-4249-a611-b1eef93cd133","ios":"levelo://app?vid=f2187356-8938-4249-a611-b1eef93cd133"},"vehicle_type_id":"4","last_reported":1685214268,"current_range_meters":0,"station_id":"ce4bhgp2rcd13ifvqfc0","pricing_plan_id":"free"},{"bike_id":"268f716e-746c-49ec-8d81-2d8041e767c6","system_id":"levelo_inurba_marseille","lat":43.261782,"lon":5.374515,"is_reserved":false,"is_disabled":false,"rental_uris":{"android":"levelo://app?vid=268f716e-746c-49ec-8d81-2d8041e767c6","ios":"levelo://app?vid=268f716e-746c-49ec-8d81-2d8041e767c6"},"vehicle_type_id":"4","last_reported":1685214268,"current_range_meters":2400,"station_id":"ce4bhgp2rcd13ifvqfc0","pricing_plan_id":"free"},{"bike_id":"3b493535-121e-4043-9f04-19d31eb5d517","system_id":"levelo_inurba_marseille","lat":43.261782,"lon":5.374515,"is_reserved":false,"is_disabled":false,"rental_uris":{"android":"levelo://app?vid=3b493535-121e-4043-9f04-19d31eb5d517","ios":"levelo://app?vid=3b493535-121e-4043-9f04-19d31eb5d517"},"vehicle_type_id":"4","last_reported":1685214268,"current_range_meters":26000,"station_id":"ce4bhgp2rcd13ifvqfc0","pricing_plan_id":"free"},{"bike_id":"b486c8d6-8583-457d-95ac-0c3b1268f380","system_id":"levelo_inurba_marseille","lat":43.261782,"lon":5.374515,"is_reserved":false,"is_disabled":false,"rental_uris":{"android":"levelo://app?vid=b486c8d6-8583-457d-95ac-0c3b1268f380","ios":"levelo://app?vid=b486c8d6-8583-457d-95ac-0c3b1268f380"},"vehicle_type_id":"4","last_reported":1685214268,"current_range_meters":4800,"station_id":"ce4bhgp2rcd13ifvqfc0","pricing_plan_id":"free"},{"bike_id":"116bcce0-c746-47f2-a70b-649a13fb6b6c","system_id":"levelo_inurba_marseille","lat":43.26805,"lon":5.40267,"is_reserved":false,"is_disabled":false,"rental_uris":{"android":"levelo://app?vid=116bcce0-c746-47f2-a70b-649a13fb6b6c","ios":"levelo://app?vid=116bcce0-c746-47f2-a70b-649a13fb6b6c"},"vehicle_type_id":"4","last_reported":1685214268,"current_range_meters":17200,"station_id":"ce501612rcd8frsf0b60","pricing_plan_id":"free"},{"bike_id":"21e1e67c-4f96-4594-9f77-1ef210d58baa","system_id":"levelo_inurba_marseille","lat":43.26802,"lon":5.40265,"is_reserved":false,"is_disabled":false,"rental_uris":{"android":"levelo://app?vid=21e1e67c-4f96-4594-9f77-1ef210d58baa","ios":"levelo://app?vid=21e1e67c-4f96-4594-9f77-1ef210d58baa"},"vehicle_type_id":"4","last_reported":1685214268,"current_range_meters":23200,"station_id":"ce501612rcd8frsf0b60","pricing_plan_id":"free"},{"bike_id":"b2cc06a2-b661-4cf4-8720-d993a19ff626","system_id":"levelo_inurba_marseille","lat":43.268,"lon":5.40267,"is_reserved":false,"is_disabled":false,"rental_uris":{"android":"levelo://app?vid=b2cc06a2-b661-4cf4-8720-d993a19ff626","ios":"levelo://app?vid=b2cc06a2-b661-4cf4-8720-d993a19ff626"},"vehicle_type_id":"4","last_reported":1685214268,"current_range_meters":10400,"station_id":"ce501612rcd8frsf0b60","pricing_plan_id":"free"},{"bike_id":"ead936e2-c34f-498e-bf77-9adf85a968b2","system_id":"levelo_inurba_marseille","lat":43.267959,"lon":5.402685,"is_reserved":false,"is_disabled":false,"rental_uris":{"android":"levelo://app?vid=ead936e2-c34f-498e-bf77-9adf85a968b2","ios":"levelo://app?vid=ead936e2-c34f-498e-bf77-9adf85a968b2"},"vehicle_type_id":"4","last_reported":1685214268,"current_range_meters":5600,"station_id":"ce501612rcd8frsf0b60","pricing_plan_id":"free"},{"bike_id":"393fb8d7-9c3a-4c26-adde-9c67bba0a82d","system_id":"levelo_inurba_marseille","lat":43.298768,"lon":5.43643,"is_reserved":false,"is_disabled":false,"rental_uris":{"android":"levelo://app?vid=393fb8d7-9c3a-4c26-adde-9c67bba0a82d","ios":"levelo://app?vid=393fb8d7-9c3a-4c26-adde-9c67bba0a82d"},"vehicle_type_id":"4","last_reported":1685214268,"current_range_meters":17200,"station_id":"ce4bhpp2rcd13ifvqhfg","pricing_plan_id":"free"},{"bike_id":"4e1b86b6-b12c-441f-b5c1-ba0a90fca197","system_id":"levelo_inurba_marseille","lat":43.298768,"lon":5.43643,"is_reserved":false,"is_disabled":false,"rental_uris":{"android":"levelo://app?vid=4e1b86b6-b12c-441f-b5c1-ba0a90fca197","ios":"levelo://app?vid=4e1b86b6-b12c-441f-b5c1-ba0a90fca197"},"vehicle_type_id":"4","last_reported":1685214268,"current_range_meters":31200,"station_id":"ce4bhpp2rcd13ifvqhfg","pricing_plan_id":"free"},{"bike_id":"1522e6fe-e66c-4a0c-a606-391cd3d5a93b","system_id":"levelo_inurba_marseille","lat":43.298768,"lon":5.43643,"is_reserved":false,"is_disabled":false,"rental_uris":{"android":"levelo://app?vid=1522e6fe-e66c-4a0c-a606-391cd3d5a93b","ios":"levelo://app?vid=1522e6fe-e66c-4a0c-a606-391cd3d5a93b"},"vehicle_type_id":"4","last_reported":1685214268,"current_range_meters":31200,"station_id":"ce4bhpp2rcd13ifvqhfg","pricing_plan_id":"free"},{"bike_id":"57572c88-3708-4036-891a-204b9f884608","system_id":"levelo_inurba_marseille","lat":43.298768,"lon":5.43643,"is_reserved":false,"is_disabled":false,"rental_uris":{"android":"levelo://app?vid=57572c88-3708-4036-891a-204b9f884608","ios":"levelo://app?vid=57572c88-3708-4036-891a-204b9f884608"},"vehicle_type_id":"4","last_reported":1685214268,"current_range_meters":9200,"station_id":"ce4bhpp2rcd13ifvqhfg","pricing_plan_id":"free"},{"bike_id":"a01b8269-cd6f-432a-9c44-37513ea96cd0","system_id":"levelo_inurba_marseille","lat":43.298768,"lon":5.43643,"is_reserved":false,"is_disabled":false,"rental_uris":{"android":"levelo://app?vid=a01b8269-cd6f-432a-9c44-37513ea96cd0","ios":"levelo://app?vid=a01b8269-cd6f-432a-9c44-37513ea96cd0"},"vehicle_type_id":"4","last_reported":1685214268,"current_range_meters":29600,"station_id":"ce4bhpp2rcd13ifvqhfg","pricing_plan_id":"free"},{"bike_id":"859b48b3-311c-4d5c-b5d1-e39c0858cea0","system_id":"levelo_inurba_marseille","lat":43.260225,"lon":5.375455,"is_reserved":false,"is_disabled":false,"rental_uris":{"android":"levelo://app?vid=859b48b3-311c-4d5c-b5d1-e39c0858cea0","ios":"levelo://app?vid=859b48b3-311c-4d5c-b5d1-e39c0858cea0"},"vehicle_type_id":"4","last_reported":1685214268,"current_range_meters":8400,"station_id":"ce4bhgh2rcd13ifvqfa0","pricing_plan_id":"free"},{"bike_id":"c407d2e9-ce65-44c0-a115-56c9a8bc6026","system_id":"levelo_inurba_marseille","lat":43.260225,"lon":5.375455,"is_reserved":false,"is_disabled":false,"rental_uris":{"android":"levelo://app?vid=c407d2e9-ce65-44c0-a115-56c9a8bc6026","ios":"levelo://app?vid=c407d2e9-ce65-44c0-a115-56c9a8bc6026"},"vehicle_type_id":"4","last_reported":1685214268,"current_range_meters":0,"station_id":"ce4bhgh2rcd13ifvqfa0","pricing_plan_id":"free"},{"bike_id":"9f67ebd8-9381-4ce0-956f-c1ed8618479d","system_id":"levelo_inurba_marseille","lat":43.26031,"lon":5.37545,"is_reserved":false,"is_disabled":false,"rental_uris":{"android":"levelo://app?vid=9f67ebd8-9381-4ce0-956f-c1ed8618479d","ios":"levelo://app?vid=9f67ebd8-9381-4ce0-956f-c1ed8618479d"},"vehicle_type_id":"4","last_reported":1685214268,"current_range_meters":10800,"station_id":"ce4bhgh2rcd13ifvqfa0","pricing_plan_id":"free"},{"bike_id":"6b404443-757b-4b8d-9a78-a03ca59013fb","system_id":"levelo_inurba_marseille","lat":43.2592,"lon":5.37283,"is_reserved":false,"is_disabled":false,"rental_uris":{"android":"levelo://app?vid=6b404443-757b-4b8d-9a78-a03ca59013fb","ios":"levelo://app?vid=6b404443-757b-4b8d-9a78-a03ca59013fb"},"vehicle_type_id":"4","last_reported":1685214268,"current_range_meters":13200,"station_id":"","pricing_plan_id":"free"},{"bike_id":"3679272a-2b25-4ad1-aa1c-de48f932fd3e","system_id":"levelo_inurba_marseille","lat":43.2607,"lon":5.393983,"is_reserved":false,"is_disabled":false,"rental_uris":{"android":"levelo://app?vid=3679272a-2b25-4ad1-aa1c-de48f932fd3e","ios":"levelo://app?vid=3679272a-2b25-4ad1-aa1c-de48f932fd3e"},"vehicle_type_id":"4","last_reported":1685214268,"current_range_meters":13600,"station_id":"ce4bhh92rcd13ifvqfj0","pricing_plan_id":"free"},{"bike_id":"d0bb262b-de9e-4154-b5f4-6ae73f149362","system_id":"levelo_inurba_marseille","lat":43.2607,"lon":5.393983,"is_reserved":false,"is_disabled":false,"rental_uris":{"android":"levelo://app?vid=d0bb262b-de9e-4154-b5f4-6ae73f149362","ios":"levelo://app?vid=d0bb262b-de9e-4154-b5f4-6ae73f149362"},"vehicle_type_id":"4","last_reported":1685214268,"current_range_meters":17200,"station_id":"ce4bhh92rcd13ifvqfj0","pricing_plan_id":"free"},{"bike_id":"a1b4dd43-3e77-492a-9797-1c1ad5be9558","system_id":"levelo_inurba_marseille","lat":43.2607,"lon":5.393983,"is_reserved":false,"is_disabled":false,"rental_uris":{"android":"levelo://app?vid=a1b4dd43-3e77-492a-9797-1c1ad5be9558","ios":"levelo://app?vid=a1b4dd43-3e77-492a-9797-1c1ad5be9558"},"vehicle_type_id":"4","last_reported":1685214268,"current_range_meters":5600,"station_id":"ce4bhh92rcd13ifvqfj0","pricing_plan_id":"free"},{"bike_id":"f072cd81-3b89-40b1-a023-ab01c8f89174","system_id":"levelo_inurba_marseille","lat":43.26082,"lon":5.3977,"is_reserved":false,"is_disabled":false,"rental_uris":{"android":"levelo://app?vid=f072cd81-3b89-40b1-a023-ab01c8f89174","ios":"levelo://app?vid=f072cd81-3b89-40b1-a023-ab01c8f89174"},"vehicle_type_id":"4","last_reported":1685214268,"current_range_meters":13600,"station_id":"ce4bhi12rcd13ifvqfq0","pricing_plan_id":"free"},{"bike_id":"e32cd300-722d-4b89-9763-e960e61395c0","system_id":"levelo_inurba_marseille","lat":43.255756,"lon":5.382303,"is_reserved":false,"is_disabled":false,"rental_uris":{"android":"levelo://app?vid=e32cd300-722d-4b89-9763-e960e61395c0","ios":"levelo://app?vid=e32cd300-722d-4b89-9763-e960e61395c0"},"vehicle_type_id":"4","last_reported":1685214268,"current_range_meters":0,"station_id":"ce4bhih2rcd13ifvqfs0","pricing_plan_id":"free"},{"bike_id":"04c1ccfd-dada-4bfd-9e0c-7e10b9702388","system_id":"levelo_inurba_marseille","lat":43.255756,"lon":5.382303,"is_reserved":false,"is_disabled":false,"rental_uris":{"android":"levelo://app?vid=04c1ccfd-dada-4bfd-9e0c-7e10b9702388","ios":"levelo://app?vid=04c1ccfd-dada-4bfd-9e0c-7e10b9702388"},"vehicle_type_id":"4","last_reported":1685214268,"current_range_meters":8400,"station_id":"ce4bhih2rcd13ifvqfs0","pricing_plan_id":"free"},{"bike_id":"0f8aa5f7-eaa7-4705-a252-63fe5d4d97cd","system_id":"levelo_inurba_marseille","lat":43.255756,"lon":5.382303,"is_reserved":false,"is_disabled":false,"rental_uris":{"android":"levelo://app?vid=0f8aa5f7-eaa7-4705-a252-63fe5d4d97cd","ios":"levelo://app?vid=0f8aa5f7-eaa7-4705-a252-63fe5d4d97cd"},"vehicle_type_id":"4","last_reported":1685214268,"current_range_meters":0,"station_id":"ce4bhih2rcd13ifvqfs0","pricing_plan_id":"free"},{"bike_id":"cfbdf04e-a628-4a53-8e72-5af7826e1cf0","system_id":"levelo_inurba_marseille","lat":43.254945,"lon":5.376454,"is_reserved":false,"is_disabled":false,"rental_uris":{"android":"levelo://app?vid=cfbdf04e-a628-4a53-8e72-5af7826e1cf0","ios":"levelo://app?vid=cfbdf04e-a628-4a53-8e72-5af7826e1cf0"},"vehicle_type_id":"4","last_reported":1685214268,"current_range_meters":5600,"station_id":"ce4bhh12rcd13ifvqff0","pricing_plan_id":"free"},{"bike_id":"21a94e83-2bcf-4902-8a6a-85407ac0d3c9","system_id":"levelo_inurba_marseille","lat":43.254952,"lon":5.376471,"is_reserved":false,"is_disabled":false,"rental_uris":{"android":"levelo://app?vid=21a94e83-2bcf-4902-8a6a-85407ac0d3c9","ios":"levelo://app?vid=21a94e83-2bcf-4902-8a6a-85407ac0d3c9"},"vehicle_type_id":"4","last_reported":1685214268,"current_range_meters":3600,"station_id":"","pricing_plan_id":"free"},{"bike_id":"8705c1f3-7fdd-44d2-9e28-7d4f5178e7f4","system_id":"levelo_inurba_marseille","lat":43.259013,"lon":5.409301,"is_reserved":false,"is_disabled":false,"rental_uris":{"android":"levelo://app?vid=8705c1f3-7fdd-44d2-9e28-7d4f5178e7f4","ios":"levelo://app?vid=8705c1f3-7fdd-44d2-9e28-7d4f5178e7f4"},"vehicle_type_id":"4","last_reported":1685214268,"current_range_meters":8000,"station_id":"ce4bhm92rcd13ifvqglg","pricing_plan_id":"free"},{"bike_id":"36a436a0-aa14-43d6-a56b-0b1454c130d6","system_id":"levelo_inurba_marseille","lat":43.25,"lon":5.3892,"is_reserved":false,"is_disabled":false,"rental_uris":{"android":"levelo://app?vid=36a436a0-aa14-43d6-a56b-0b1454c130d6","ios":"levelo://app?vid=36a436a0-aa14-43d6-a56b-0b1454c130d6"},"vehicle_type_id":"4","last_reported":1685214268,"current_range_meters":24000,"station_id":"ce4bhgp2rcd13ifvqfd0","pricing_plan_id":"free"},{"bike_id":"1a70b689-a1c4-4f5b-b498-9c33a07059ac","system_id":"levelo_inurba_marseille","lat":43.24998,"lon":5.38924,"is_reserved":false,"is_disabled":false,"rental_uris":{"android":"levelo://app?vid=1a70b689-a1c4-4f5b-b498-9c33a07059ac","ios":"levelo://app?vid=1a70b689-a1c4-4f5b-b498-9c33a07059ac"},"vehicle_type_id":"4","last_reported":1685214268,"current_range_meters":31200,"station_id":"ce4bhgp2rcd13ifvqfd0","pricing_plan_id":"free"},{"bike_id":"ff14a504-9e6f-465d-9f7e-759dcf0113dd","system_id":"levelo_inurba_marseille","lat":43.24993,"lon":5.38927,"is_reserved":false,"is_disabled":false,"rental_uris":{"android":"levelo://app?vid=ff14a504-9e6f-465d-9f7e-759dcf0113dd","ios":"levelo://app?vid=ff14a504-9e6f-465d-9f7e-759dcf0113dd"},"vehicle_type_id":"4","last_reported":1685214268,"current_range_meters":20400,"station_id":"ce4bhgp2rcd13ifvqfd0","pricing_plan_id":"free"},{"bike_id":"f1d9ec7d-26c5-415c-ba2f-d624f9f9037c","system_id":"levelo_inurba_marseille","lat":43.24993,"lon":5.38929,"is_reserved":false,"is_disabled":false,"rental_uris":{"android":"levelo://app?vid=f1d9ec7d-26c5-415c-ba2f-d624f9f9037c","ios":"levelo://app?vid=f1d9ec7d-26c5-415c-ba2f-d624f9f9037c"},"vehicle_type_id":"4","last_reported":1685214268,"current_range_meters":31200,"station_id":"ce4bhgp2rcd13ifvqfd0","pricing_plan_id":"free"},{"bike_id":"bbd40af1-71de-4292-9445-207dba3ee5f2","system_id":"levelo_inurba_marseille","lat":43.250023,"lon":5.38919,"is_reserved":false,"is_disabled":false,"rental_uris":{"android":"levelo://app?vid=bbd40af1-71de-4292-9445-207dba3ee5f2","ios":"levelo://app?vid=bbd40af1-71de-4292-9445-207dba3ee5f2"},"vehicle_type_id":"4","last_reported":1685214268,"current_range_meters":24800,"station_id":"ce4bhgp2rcd13ifvqfd0","pricing_plan_id":"free"},{"bike_id":"315f5e0a-a652-486f-858a-3e20bcad95c9","system_id":"levelo_inurba_marseille","lat":43.25087,"lon":5.39508,"is_reserved":false,"is_disabled":false,"rental_uris":{"android":"levelo://app?vid=315f5e0a-a652-486f-858a-3e20bcad95c9","ios":"levelo://app?vid=315f5e0a-a652-486f-858a-3e20bcad95c9"},"vehicle_type_id":"4","last_reported":1685214268,"current_range_meters":0,"station_id":"ce4bhm12rcd13ifvqgkg","pricing_plan_id":"free"},{"bike_id":"65994491-39fe-4e59-b553-acdf89d2203c","system_id":"levelo_inurba_marseille","lat":43.24673,"lon":5.38161,"is_reserved":false,"is_disabled":false,"rental_uris":{"android":"levelo://app?vid=65994491-39fe-4e59-b553-acdf89d2203c","ios":"levelo://app?vid=65994491-39fe-4e59-b553-acdf89d2203c"},"vehicle_type_id":"4","last_reported":1685214268,"current_range_meters":9200,"station_id":"","pricing_plan_id":"free"},{"bike_id":"dfdc8b35-e5aa-4c88-a633-657e4da0d12a","system_id":"levelo_inurba_marseille","lat":43.25102,"lon":5.403214,"is_reserved":false,"is_disabled":false,"rental_uris":{"android":"levelo://app?vid=dfdc8b35-e5aa-4c88-a633-657e4da0d12a","ios":"levelo://app?vid=dfdc8b35-e5aa-4c88-a633-657e4da0d12a"},"vehicle_type_id":"4","last_reported":1685214268,"current_range_meters":23600,"station_id":"ce4bhlh2rcd13ifvqgig","pricing_plan_id":"free"},{"bike_id":"143c5a29-eb13-4644-8285-1b06620036b4","system_id":"levelo_inurba_marseille","lat":43.25102,"lon":5.403214,"is_reserved":false,"is_disabled":false,"rental_uris":{"android":"levelo://app?vid=143c5a29-eb13-4644-8285-1b06620036b4","ios":"levelo://app?vid=143c5a29-eb13-4644-8285-1b06620036b4"},"vehicle_type_id":"4","last_reported":1685214268,"current_range_meters":0,"station_id":"ce4bhlh2rcd13ifvqgig","pricing_plan_id":"free"},{"bike_id":"a0c985a7-319d-477e-b50b-36efe525d81f","system_id":"levelo_inurba_marseille","lat":43.25102,"lon":5.403214,"is_reserved":false,"is_disabled":false,"rental_uris":{"android":"levelo://app?vid=a0c985a7-319d-477e-b50b-36efe525d81f","ios":"levelo://app?vid=a0c985a7-319d-477e-b50b-36efe525d81f"},"vehicle_type_id":"4","last_reported":1685214268,"current_range_meters":3200,"station_id":"ce4bhlh2rcd13ifvqgig","pricing_plan_id":"free"},{"bike_id":"4a8f6fa1-60c4-46a3-9121-adc64f39e2f5","system_id":"levelo_inurba_marseille","lat":43.25102,"lon":5.403214,"is_reserved":false,"is_disabled":false,"rental_uris":{"android":"levelo://app?vid=4a8f6fa1-60c4-46a3-9121-adc64f39e2f5","ios":"levelo://app?vid=4a8f6fa1-60c4-46a3-9121-adc64f39e2f5"},"vehicle_type_id":"4","last_reported":1685214268,"current_range_meters":20400,"station_id":"ce4bhlh2rcd13ifvqgig","pricing_plan_id":"free"},{"bike_id":"28d2c968-67e6-43b3-9211-1441728ae497","system_id":"levelo_inurba_marseille","lat":43.246571,"lon":5.381585,"is_reserved":false,"is_disabled":false,"rental_uris":{"android":"levelo://app?vid=28d2c968-67e6-43b3-9211-1441728ae497","ios":"levelo://app?vid=28d2c968-67e6-43b3-9211-1441728ae497"},"vehicle_type_id":"4","last_reported":1685214268,"current_range_meters":18400,"station_id":"ce4bhih2rcd13ifvqfr0","pricing_plan_id":"free"},{"bike_id":"dfd9e973-4e54-4fa8-8648-8bb61d42f399","system_id":"levelo_inurba_marseille","lat":43.25102,"lon":5.403214,"is_reserved":false,"is_disabled":false,"rental_uris":{"android":"levelo://app?vid=dfd9e973-4e54-4fa8-8648-8bb61d42f399","ios":"levelo://app?vid=dfd9e973-4e54-4fa8-8648-8bb61d42f399"},"vehicle_type_id":"4","last_reported":1685214268,"current_range_meters":0,"station_id":"ce4bhlh2rcd13ifvqgig","pricing_plan_id":"free"},{"bike_id":"cf7896ce-0193-45d2-992d-059d7398c763","system_id":"levelo_inurba_marseille","lat":43.25162,"lon":5.40554,"is_reserved":false,"is_disabled":false,"rental_uris":{"android":"levelo://app?vid=cf7896ce-0193-45d2-992d-059d7398c763","ios":"levelo://app?vid=cf7896ce-0193-45d2-992d-059d7398c763"},"vehicle_type_id":"4","last_reported":1685214268,"current_range_meters":18800,"station_id":"ce4bhlh2rcd13ifvqgig","pricing_plan_id":"free"},{"bike_id":"88b8c53c-f89a-4cb1-bc3e-4e4f21b75499","system_id":"levelo_inurba_marseille","lat":43.246461,"lon":5.389014,"is_reserved":false,"is_disabled":false,"rental_uris":{"android":"levelo://app?vid=88b8c53c-f89a-4cb1-bc3e-4e4f21b75499","ios":"levelo://app?vid=88b8c53c-f89a-4cb1-bc3e-4e4f21b75499"},"vehicle_type_id":"4","last_reported":1685214268,"current_range_meters":19200,"station_id":"ce4bhg12rcd13ifvqf60","pricing_plan_id":"free"},{"bike_id":"33a57e12-eb8c-4b30-a2e4-2dade2611b54","system_id":"levelo_inurba_marseille","lat":43.243884,"lon":5.370737,"is_reserved":false,"is_disabled":false,"rental_uris":{"android":"levelo://app?vid=33a57e12-eb8c-4b30-a2e4-2dade2611b54","ios":"levelo://app?vid=33a57e12-eb8c-4b30-a2e4-2dade2611b54"},"vehicle_type_id":"4","last_reported":1685214268,"current_range_meters":31200,"station_id":"ce4bhhh2rcd13ifvqfk0","pricing_plan_id":"free"},{"bike_id":"ecd2d962-3799-4521-ae04-1a495db24cc9","system_id":"levelo_inurba_marseille","lat":43.243884,"lon":5.370736,"is_reserved":false,"is_disabled":false,"rental_uris":{"android":"levelo://app?vid=ecd2d962-3799-4521-ae04-1a495db24cc9","ios":"levelo://app?vid=ecd2d962-3799-4521-ae04-1a495db24cc9"},"vehicle_type_id":"4","last_reported":1685214268,"current_range_meters":6000,"station_id":"ce4bhhh2rcd13ifvqfk0","pricing_plan_id":"free"},{"bike_id":"581bea13-754f-41a5-bfb4-5f853f99a0d8","system_id":"levelo_inurba_marseille","lat":43.24386,"lon":5.3706,"is_reserved":false,"is_disabled":false,"rental_uris":{"android":"levelo://app?vid=581bea13-754f-41a5-bfb4-5f853f99a0d8","ios":"levelo://app?vid=581bea13-754f-41a5-bfb4-5f853f99a0d8"},"vehicle_type_id":"4","last_reported":1685214268,"current_range_meters":0,"station_id":"ce4bhhh2rcd13ifvqfk0","pricing_plan_id":"free"},{"bike_id":"ce35cd0c-3412-42d2-bc81-38a30e81ce2d","system_id":"levelo_inurba_marseille","lat":43.245581,"lon":5.395069,"is_reserved":false,"is_disabled":false,"rental_uris":{"android":"levelo://app?vid=ce35cd0c-3412-42d2-bc81-38a30e81ce2d","ios":"levelo://app?vid=ce35cd0c-3412-42d2-bc81-38a30e81ce2d"},"vehicle_type_id":"4","last_reported":1685214268,"current_range_meters":27200,"station_id":"ce4bhlp2rcd13ifvqgjg","pricing_plan_id":"free"},{"bike_id":"ca48a4b8-aafe-4d34-bc24-09630ca6a745","system_id":"levelo_inurba_marseille","lat":43.245581,"lon":5.395069,"is_reserved":false,"is_disabled":false,"rental_uris":{"android":"levelo://app?vid=ca48a4b8-aafe-4d34-bc24-09630ca6a745","ios":"levelo://app?vid=ca48a4b8-aafe-4d34-bc24-09630ca6a745"},"vehicle_type_id":"4","last_reported":1685214268,"current_range_meters":13600,"station_id":"ce4bhlp2rcd13ifvqgjg","pricing_plan_id":"free"},{"bike_id":"6216ef1c-8ace-4ecd-ae13-f4b83cb23a4e","system_id":"levelo_inurba_marseille","lat":43.245581,"lon":5.395069,"is_reserved":false,"is_disabled":false,"rental_uris":{"android":"levelo://app?vid=6216ef1c-8ace-4ecd-ae13-f4b83cb23a4e","ios":"levelo://app?vid=6216ef1c-8ace-4ecd-ae13-f4b83cb23a4e"},"vehicle_type_id":"4","last_reported":1685214268,"current_range_meters":800,"station_id":"ce4bhlp2rcd13ifvqgjg","pricing_plan_id":"free"},{"bike_id":"65c9d813-f717-43b6-a0c3-55f47a8bccea","system_id":"levelo_inurba_marseille","lat":43.24082,"lon":5.37749,"is_reserved":false,"is_disabled":false,"rental_uris":{"android":"levelo://app?vid=65c9d813-f717-43b6-a0c3-55f47a8bccea","ios":"levelo://app?vid=65c9d813-f717-43b6-a0c3-55f47a8bccea"},"vehicle_type_id":"4","last_reported":1685214268,"current_range_meters":21200,"station_id":"","pricing_plan_id":"free"},{"bike_id":"4205b949-0c75-4e6e-8f8e-a480afc6af8a","system_id":"levelo_inurba_marseille","lat":43.24081,"lon":5.37755,"is_reserved":false,"is_disabled":false,"rental_uris":{"android":"levelo://app?vid=4205b949-0c75-4e6e-8f8e-a480afc6af8a","ios":"levelo://app?vid=4205b949-0c75-4e6e-8f8e-a480afc6af8a"},"vehicle_type_id":"4","last_reported":1685214268,"current_range_meters":800,"station_id":"","pricing_plan_id":"free"},{"bike_id":"b3ac0f63-1d71-46d2-ba24-5e1165bfbe33","system_id":"levelo_inurba_marseille","lat":43.24078,"lon":5.37747,"is_reserved":false,"is_disabled":false,"rental_uris":{"android":"levelo://app?vid=b3ac0f63-1d71-46d2-ba24-5e1165bfbe33","ios":"levelo://app?vid=b3ac0f63-1d71-46d2-ba24-5e1165bfbe33"},"vehicle_type_id":"4","last_reported":1685214268,"current_range_meters":28400,"station_id":"","pricing_plan_id":"free"},{"bike_id":"9d4dd0e7-1d88-43a1-823a-09028042665b","system_id":"levelo_inurba_marseille","lat":43.239588,"lon":5.366238,"is_reserved":false,"is_disabled":false,"rental_uris":{"android":"levelo://app?vid=9d4dd0e7-1d88-43a1-823a-09028042665b","ios":"levelo://app?vid=9d4dd0e7-1d88-43a1-823a-09028042665b"},"vehicle_type_id":"4","last_reported":1685214268,"current_range_meters":0,"station_id":"ce4bhi12rcd13ifvqfp0","pricing_plan_id":"free"},{"bike_id":"7d512991-0715-434d-b3b5-28a6a1ed3e28","system_id":"levelo_inurba_marseille","lat":43.23962,"lon":5.3663,"is_reserved":false,"is_disabled":false,"rental_uris":{"android":"levelo://app?vid=7d512991-0715-434d-b3b5-28a6a1ed3e28","ios":"levelo://app?vid=7d512991-0715-434d-b3b5-28a6a1ed3e28"},"vehicle_type_id":"4","last_reported":1685214268,"current_range_meters":8000,"station_id":"ce4bhi12rcd13ifvqfp0","pricing_plan_id":"free"},{"bike_id":"e374bf27-2ba6-4d13-bb7f-2ec1f2d35bd9","system_id":"levelo_inurba_marseille","lat":43.23962,"lon":5.3663,"is_reserved":false,"is_disabled":false,"rental_uris":{"android":"levelo://app?vid=e374bf27-2ba6-4d13-bb7f-2ec1f2d35bd9","ios":"levelo://app?vid=e374bf27-2ba6-4d13-bb7f-2ec1f2d35bd9"},"vehicle_type_id":"4","last_reported":1685214268,"current_range_meters":16800,"station_id":"ce4bhi12rcd13ifvqfp0","pricing_plan_id":"free"},{"bike_id":"c889d2a8-cf9f-4219-bbea-a5b1396f9923","system_id":"levelo_inurba_marseille","lat":43.239588,"lon":5.366238,"is_reserved":false,"is_disabled":false,"rental_uris":{"android":"levelo://app?vid=c889d2a8-cf9f-4219-bbea-a5b1396f9923","ios":"levelo://app?vid=c889d2a8-cf9f-4219-bbea-a5b1396f9923"},"vehicle_type_id":"4","last_reported":1685214268,"current_range_meters":30800,"station_id":"ce4bhi12rcd13ifvqfp0","pricing_plan_id":"free"},{"bike_id":"2efba59c-2c4d-4071-8a72-2e54c6726ac2","system_id":"levelo_inurba_marseille","lat":43.241782,"lon":5.397261,"is_reserved":false,"is_disabled":false,"rental_uris":{"android":"levelo://app?vid=2efba59c-2c4d-4071-8a72-2e54c6726ac2","ios":"levelo://app?vid=2efba59c-2c4d-4071-8a72-2e54c6726ac2"},"vehicle_type_id":"4","last_reported":1685214268,"current_range_meters":19200,"station_id":"ce4bhn12rcd13ifvqgpg","pricing_plan_id":"free"},{"bike_id":"a57b8abb-5b93-49e2-afa2-168c81dbc629","system_id":"levelo_inurba_marseille","lat":43.241782,"lon":5.397261,"is_reserved":false,"is_disabled":false,"rental_uris":{"android":"levelo://app?vid=a57b8abb-5b93-49e2-afa2-168c81dbc629","ios":"levelo://app?vid=a57b8abb-5b93-49e2-afa2-168c81dbc629"},"vehicle_type_id":"4","last_reported":1685214268,"current_range_meters":18400,"station_id":"ce4bhn12rcd13ifvqgpg","pricing_plan_id":"free"},{"bike_id":"8c649ba4-225e-4bde-817d-7f09aa852ace","system_id":"levelo_inurba_marseille","lat":43.241782,"lon":5.397261,"is_reserved":false,"is_disabled":false,"rental_uris":{"android":"levelo://app?vid=8c649ba4-225e-4bde-817d-7f09aa852ace","ios":"levelo://app?vid=8c649ba4-225e-4bde-817d-7f09aa852ace"},"vehicle_type_id":"4","last_reported":1685214268,"current_range_meters":14000,"station_id":"ce4bhn12rcd13ifvqgpg","pricing_plan_id":"free"},{"bike_id":"081a581b-2a60-44a9-a09d-152adad4823a","system_id":"levelo_inurba_marseille","lat":43.241782,"lon":5.397261,"is_reserved":false,"is_disabled":false,"rental_uris":{"android":"levelo://app?vid=081a581b-2a60-44a9-a09d-152adad4823a","ios":"levelo://app?vid=081a581b-2a60-44a9-a09d-152adad4823a"},"vehicle_type_id":"4","last_reported":1685214268,"current_range_meters":1200,"station_id":"ce4bhn12rcd13ifvqgpg","pricing_plan_id":"free"},{"bike_id":"4f24d25d-0ea1-4607-918c-bc9cda638969","system_id":"levelo_inurba_marseille","lat":43.241782,"lon":5.397261,"is_reserved":false,"is_disabled":false,"rental_uris":{"android":"levelo://app?vid=4f24d25d-0ea1-4607-918c-bc9cda638969","ios":"levelo://app?vid=4f24d25d-0ea1-4607-918c-bc9cda638969"},"vehicle_type_id":"4","last_reported":1685214268,"current_range_meters":4800,"station_id":"ce4bhn12rcd13ifvqgpg","pricing_plan_id":"free"},{"bike_id":"a0aeba0f-ef2f-445e-823d-d15e567c261d","system_id":"levelo_inurba_marseille","lat":43.231923,"lon":5.355545,"is_reserved":false,"is_disabled":false,"rental_uris":{"android":"levelo://app?vid=a0aeba0f-ef2f-445e-823d-d15e567c261d","ios":"levelo://app?vid=a0aeba0f-ef2f-445e-823d-d15e567c261d"},"vehicle_type_id":"4","last_reported":1685214268,"current_range_meters":31200,"station_id":"ce4bhu92rcd13ifvqi70","pricing_plan_id":"free"},{"bike_id":"44339a84-2cc3-4ad0-b575-463e700b3aa7","system_id":"levelo_inurba_marseille","lat":43.231923,"lon":5.355545,"is_reserved":false,"is_disabled":false,"rental_uris":{"android":"levelo://app?vid=44339a84-2cc3-4ad0-b575-463e700b3aa7","ios":"levelo://app?vid=44339a84-2cc3-4ad0-b575-463e700b3aa7"},"vehicle_type_id":"4","last_reported":1685214268,"current_range_meters":27600,"station_id":"ce4bhu92rcd13ifvqi70","pricing_plan_id":"free"},{"bike_id":"f0cd827f-e4a4-4c97-921a-b28544e45cf3","system_id":"levelo_inurba_marseille","lat":43.231923,"lon":5.355545,"is_reserved":false,"is_disabled":false,"rental_uris":{"android":"levelo://app?vid=f0cd827f-e4a4-4c97-921a-b28544e45cf3","ios":"levelo://app?vid=f0cd827f-e4a4-4c97-921a-b28544e45cf3"},"vehicle_type_id":"4","last_reported":1685214268,"current_range_meters":17200,"station_id":"ce4bhu92rcd13ifvqi70","pricing_plan_id":"free"},{"bike_id":"7fb56237-be3b-4655-a3b9-2504231ec4f2","system_id":"levelo_inurba_marseille","lat":43.231919,"lon":5.355532,"is_reserved":false,"is_disabled":false,"rental_uris":{"android":"levelo://app?vid=7fb56237-be3b-4655-a3b9-2504231ec4f2","ios":"levelo://app?vid=7fb56237-be3b-4655-a3b9-2504231ec4f2"},"vehicle_type_id":"4","last_reported":1685214268,"current_range_meters":31200,"station_id":"ce4bhu92rcd13ifvqi70","pricing_plan_id":"free"},{"bike_id":"5c272820-3a04-409e-a879-87b2d365273d","system_id":"levelo_inurba_marseille","lat":43.23133,"lon":5.3551,"is_reserved":false,"is_disabled":false,"rental_uris":{"android":"levelo://app?vid=5c272820-3a04-409e-a879-87b2d365273d","ios":"levelo://app?vid=5c272820-3a04-409e-a879-87b2d365273d"},"vehicle_type_id":"4","last_reported":1685214268,"current_range_meters":10800,"station_id":"","pricing_plan_id":"free"},{"bike_id":"6bf87b3f-2e5e-484d-9f73-d12a90c06e2e","system_id":"levelo_inurba_marseille","lat":43.231794,"lon":5.400052,"is_reserved":false,"is_disabled":false,"rental_uris":{"android":"levelo://app?vid=6bf87b3f-2e5e-484d-9f73-d12a90c06e2e","ios":"levelo://app?vid=6bf87b3f-2e5e-484d-9f73-d12a90c06e2e"},"vehicle_type_id":"4","last_reported":1685214268,"current_range_meters":31600,"station_id":"ce4bhn12rcd13ifvqgqg","pricing_plan_id":"free"},{"bike_id":"fa025f6b-9b72-4047-81a2-78b1accb1a5e","system_id":"levelo_inurba_marseille","lat":43.231793,"lon":5.400044,"is_reserved":false,"is_disabled":false,"rental_uris":{"android":"levelo://app?vid=fa025f6b-9b72-4047-81a2-78b1accb1a5e","ios":"levelo://app?vid=fa025f6b-9b72-4047-81a2-78b1accb1a5e"},"vehicle_type_id":"4","last_reported":1685214268,"current_range_meters":10800,"station_id":"ce4bhn12rcd13ifvqgqg","pricing_plan_id":"free"},{"bike_id":"67b77559-a903-49c5-9f37-4b2143617b52","system_id":"levelo_inurba_marseille","lat":43.231794,"lon":5.400052,"is_reserved":false,"is_disabled":false,"rental_uris":{"android":"levelo://app?vid=67b77559-a903-49c5-9f37-4b2143617b52","ios":"levelo://app?vid=67b77559-a903-49c5-9f37-4b2143617b52"},"vehicle_type_id":"4","last_reported":1685214268,"current_range_meters":31600,"station_id":"ce4bhn12rcd13ifvqgqg","pricing_plan_id":"free"},{"bike_id":"a7fbfb05-3a72-4dea-b5c9-12ad7997a8ad","system_id":"levelo_inurba_marseille","lat":43.231794,"lon":5.400052,"is_reserved":false,"is_disabled":false,"rental_uris":{"android":"levelo://app?vid=a7fbfb05-3a72-4dea-b5c9-12ad7997a8ad","ios":"levelo://app?vid=a7fbfb05-3a72-4dea-b5c9-12ad7997a8ad"},"vehicle_type_id":"4","last_reported":1685214268,"current_range_meters":29600,"station_id":"ce4bhn12rcd13ifvqgqg","pricing_plan_id":"free"},{"bike_id":"1420567d-5493-4112-adec-f09973b532e9","system_id":"levelo_inurba_marseille","lat":43.231793,"lon":5.400044,"is_reserved":false,"is_disabled":false,"rental_uris":{"android":"levelo://app?vid=1420567d-5493-4112-adec-f09973b532e9","ios":"levelo://app?vid=1420567d-5493-4112-adec-f09973b532e9"},"vehicle_type_id":"4","last_reported":1685214268,"current_range_meters":21200,"station_id":"ce4bhn12rcd13ifvqgqg","pricing_plan_id":"free"},{"bike_id":"e39c0672-1b6c-4e48-943d-c79fd5ce8d4a","system_id":"levelo_inurba_marseille","lat":43.23183,"lon":5.39993,"is_reserved":false,"is_disabled":false,"rental_uris":{"android":"levelo://app?vid=e39c0672-1b6c-4e48-943d-c79fd5ce8d4a","ios":"levelo://app?vid=e39c0672-1b6c-4e48-943d-c79fd5ce8d4a"},"vehicle_type_id":"4","last_reported":1685214268,"current_range_meters":12400,"station_id":"ce4bhn12rcd13ifvqgqg","pricing_plan_id":"free"},{"bike_id":"279132f9-fc26-4eef-a41e-65b19a1b60ea","system_id":"levelo_inurba_marseille","lat":43.231794,"lon":5.400052,"is_reserved":false,"is_disabled":false,"rental_uris":{"android":"levelo://app?vid=279132f9-fc26-4eef-a41e-65b19a1b60ea","ios":"levelo://app?vid=279132f9-fc26-4eef-a41e-65b19a1b60ea"},"vehicle_type_id":"4","last_reported":1685214268,"current_range_meters":24400,"station_id":"ce4bhn12rcd13ifvqgqg","pricing_plan_id":"free"},{"bike_id":"a9afbc4d-e95b-487f-9d6c-175b2546a34b","system_id":"levelo_inurba_marseille","lat":43.231794,"lon":5.400052,"is_reserved":false,"is_disabled":false,"rental_uris":{"android":"levelo://app?vid=a9afbc4d-e95b-487f-9d6c-175b2546a34b","ios":"levelo://app?vid=a9afbc4d-e95b-487f-9d6c-175b2546a34b"},"vehicle_type_id":"4","last_reported":1685214268,"current_range_meters":3600,"station_id":"ce4bhn12rcd13ifvqgqg","pricing_plan_id":"free"}]}}