{"last_updated":1739455739,"ttl":60,"version":"2.2","data":{"bikes":[{"bike_id":"5753a631-bcf5-47c6-a32f-d84924661b65","system_id":"levelo_inurba_marseille","lat":43.31047,"lon":5.38345,"is_reserved":false,"is_disabled":false,"rental_uris":{"android":"levelo://app?vid=5753a631-bcf5-47c6-a32f-d84924661b65","ios":"levelo://app?vid=5753a631-bcf5-47c6-a32f-d84924661b65"},"vehicle_type_id":"4","last_reported":1739455739,"current_range_meters":38800,"station_id":"ce4bgv92rcd13ifvqcr0","pricing_plan_id":"cebpf4jnsgd1na2vs0mg"},{"bike_id":"2a32623e-3d15-4c8d-9a1c-e42b36fff43d","system_id":"levelo_inurba_marseille","lat":43.26886,"lon":5.40289,"is_reserved":false,"is_disabled":false,"rental_uris":{"android":"levelo://app?vid=2a32623e-3d15-4c8d-9a1c-e42b36fff43d","ios":"levelo://app?vid=2a32623e-3d15-4c8d-9a1c-e42b36fff43d"},"vehicle_type_id":"4","last_reported":1739455739,"current_range_meters":18000,"station_id":"","pricing_plan_id":"cebpf4jnsgd1na2vs0mg"},{"bike_id":"fabe0dc0-e9b8-4510-811e-856b5cccb082","system_id":"levelo_inurba_marseille","lat":43.25496,"lon":5.37648,"is_reserved":false,"is_disabled":true,"rental_uris":{"android":"levelo://app?vid=fabe0dc0-e9b8-4510-811e-856b5cccb082","ios":"levelo://app?vid=fabe0dc0-e9b8-4510-811e-856b5cccb082"},"vehicle_type_id":"4","last_reported":1739455739,"current_range_meters":0,"station_id":"ce4bhh12rcd13ifvqff0","pricing_plan_id":"cebpf4jnsgd1na2vs0mg"},{"bike_id":"f38cee81-864e-4a2d-a7b3-79adf8ce0eb9","system_id":"levelo_inurba_marseille","lat":43.28157,"lon":5.42638,"is_reserved":false,"is_disabled":false,"rental_uris":{"android":"levelo://app?vid=f38cee81-864e-4a2d-a7b3-79adf8ce0eb9","ios":"levelo://app?vid=f38cee81-864e-4a2d-a7b3-79adf8ce0eb9"},"vehicle_type_id":"4","last_reported":1739455739,"current_range_meters":22400,"station_id":"ce4bhnh2rcd13ifvqgug","pricing_plan_id":"cebpf4jnsgd1na2vs0mg"},{"bike_id":"35c96b0b-eb3c-4787-a379-c8c27196e8bc","system_id":"levelo_inurba_marseille","lat":43.32485,"lon":5.36568,"is_reserved":false,"is_disabled":false,"rental_uris":{"android":"levelo://app?vid=35c96b0b-eb3c-4787-a379-c8c27196e8bc","ios":"levelo://app?vid=35c96b0b-eb3c-4787-a379-c8c27196e8bc"},"vehicle_type_id":"4","last_reported":1739455739,"current_range_meters":39200,"station_id":"ce4bhs12rcd13ifvqhvg","pricing_plan_id":"cebpf4jnsgd1na2vs0mg"},{"bike_id":"1d4165b9-e8af-42e7-8e88-54a0f84b4f26","system_id":"levelo_inurba_marseille","lat":43.2319,"lon":5.39986,"is_reserved":false,"is_disabled":false,"rental_uris":{"android":"levelo://app?vid=1d4165b9-e8af-42e7-8e88-54a0f84b4f26","ios":"levelo://app?vid=1d4165b9-e8af-42e7-8e88-54a0f84b4f26"},"vehicle_type_id":"4","last_reported":1739455739,"current_range_meters":34800,"station_id":"ce4bhn12rcd13ifvqgqg","pricing_plan_id":"cebpf4jnsgd1na2vs0mg"},{"bike_id":"f6ef4f9a-c914-4d4b-a06e-00485b64285e","system_id":"levelo_inurba_marseille","lat":43.32475,"lon":5.36554,"is_reserved":false,"is_disabled":false,"rental_uris":{"android":"levelo://app?vid=f6ef4f9a-c914-4d4b-a06e-00485b64285e","ios":"levelo://app?vid=f6ef4f9a-c914-4d4b-a06e-00485b64285e"},"vehicle_type_id":"4","last_reported":1739455739,"current_range_meters":39200,"station_id":"ce4bhs12rcd13ifvqhvg","pricing_plan_id":"cebpf4jnsgd1na2vs0mg"},{"bike_id":"83ede974-29b1-46c3-a447-7f441b4324d5","system_id":"levelo_inurba_marseille","lat":43.30955,"lon":5.39043,"is_reserved":false,"is_disabled":false,"rental_uris":{"android":"levelo://app?vid=83ede974-29b1-46c3-a447-7f441b4324d5","ios":"levelo://app?vid=83ede974-29b1-46c3-a447-7f441b4324d5"},"vehicle_type_id":"4","last_reported":1739455739,"current_range_meters":28000,"station_id":"ce4bgup2rcd13ifvqco0","pricing_plan_id":"cebpf4jnsgd1na2vs0mg"},{"bike_id":"bbb2097f-1c15-4581-beb5-ee0c580691bf","system_id":"levelo_inurba_marseille","lat":43.27368,"lon":5.36255,"is_reserved":false,"is_disabled":false,"rental_uris":{"android":"levelo://app?vid=bbb2097f-1c15-4581-beb5-ee0c580691bf","ios":"levelo://app?vid=bbb2097f-1c15-4581-beb5-ee0c580691bf"},"vehicle_type_id":"4","last_reported":1739455739,"current_range_meters":8000,"station_id":"ce4bhbh2rcd13ifvqeo0","pricing_plan_id":"cebpf4jnsgd1na2vs0mg"},{"bike_id":"8390feee-0735-4b8f-90c8-f81c741ca7d5","system_id":"levelo_inurba_marseille","lat":43.24827,"lon":5.37442,"is_reserved":false,"is_disabled":false,"rental_uris":{"android":"levelo://app?vid=8390feee-0735-4b8f-90c8-f81c741ca7d5","ios":"levelo://app?vid=8390feee-0735-4b8f-90c8-f81c741ca7d5"},"vehicle_type_id":"4","last_reported":1739455739,"current_range_meters":38000,"station_id":"ce4bhgh2rcd13ifvqfb0","pricing_plan_id":"cebpf4jnsgd1na2vs0mg"},{"bike_id":"e45b6582-b2f1-401a-9da1-97acaf3c4841","system_id":"levelo_inurba_marseille","lat":43.27679,"lon":5.38908,"is_reserved":false,"is_disabled":false,"rental_uris":{"android":"levelo://app?vid=e45b6582-b2f1-401a-9da1-97acaf3c4841","ios":"levelo://app?vid=e45b6582-b2f1-401a-9da1-97acaf3c4841"},"vehicle_type_id":"4","last_reported":1739455739,"current_range_meters":36400,"station_id":"ce4bhi12rcd13ifvqfo0","pricing_plan_id":"cebpf4jnsgd1na2vs0mg"},{"bike_id":"209607b8-e0db-40be-8468-78df3a2229d7","system_id":"levelo_inurba_marseille","lat":43.29772,"lon":5.37128,"is_reserved":false,"is_disabled":false,"rental_uris":{"android":"levelo://app?vid=209607b8-e0db-40be-8468-78df3a2229d7","ios":"levelo://app?vid=209607b8-e0db-40be-8468-78df3a2229d7"},"vehicle_type_id":"4","last_reported":1739455739,"current_range_meters":30400,"station_id":"ce4bgop2rcd13ifvqc1g","pricing_plan_id":"cebpf4jnsgd1na2vs0mg"},{"bike_id":"f141a4ba-130b-4cbb-b4e3-7e93c5863ed6","system_id":"levelo_inurba_marseille","lat":43.28275,"lon":5.35073,"is_reserved":false,"is_disabled":false,"rental_uris":{"android":"levelo://app?vid=f141a4ba-130b-4cbb-b4e3-7e93c5863ed6","ios":"levelo://app?vid=f141a4ba-130b-4cbb-b4e3-7e93c5863ed6"},"vehicle_type_id":"4","last_reported":1739455739,"current_range_meters":38800,"station_id":"ce4bhbp2rcd13ifvqerg","pricing_plan_id":"cebpf4jnsgd1na2vs0mg"},{"bike_id":"86f7d0b9-8544-492c-b6d6-57e5d854a5db","system_id":"levelo_inurba_marseille","lat":43.30497,"lon":5.38452,"is_reserved":false,"is_disabled":true,"rental_uris":{"android":"levelo://app?vid=86f7d0b9-8544-492c-b6d6-57e5d854a5db","ios":"levelo://app?vid=86f7d0b9-8544-492c-b6d6-57e5d854a5db"},"vehicle_type_id":"4","last_reported":1739455739,"current_range_meters":37600,"station_id":"ce4bgg92rcd13ifvqb30","pricing_plan_id":"cebpf4jnsgd1na2vs0mg"},{"bike_id":"ac2f5c21-615f-4f60-8b2b-9954adc8ad1d","system_id":"levelo_inurba_marseille","lat":43.2985,"lon":5.36288,"is_reserved":false,"is_disabled":false,"rental_uris":{"android":"levelo://app?vid=ac2f5c21-615f-4f60-8b2b-9954adc8ad1d","ios":"levelo://app?vid=ac2f5c21-615f-4f60-8b2b-9954adc8ad1d"},"vehicle_type_id":"4","last_reported":1739455739,"current_range_meters":38800,"station_id":"ce4bgpp2rcd13ifvqc3g","pricing_plan_id":"cebpf4jnsgd1na2vs0mg"},{"bike_id":"f19b3f6f-e3c3-4220-818d-e5482b0b43b6","system_id":"levelo_inurba_marseille","lat":43.24992,"lon":5.38935,"is_reserved":false,"is_disabled":false,"rental_uris":{"android":"levelo://app?vid=f19b3f6f-e3c3-4220-818d-e5482b0b43b6","ios":"levelo://app?vid=f19b3f6f-e3c3-4220-818d-e5482b0b43b6"},"vehicle_type_id":"4","last_reported":1739455739,"current_range_meters":27600,"station_id":"ce4bhgp2rcd13ifvqfd0","pricing_plan_id":"cebpf4jnsgd1na2vs0mg"},{"bike_id":"39e55a90-fe76-4904-bf9c-9841fe168f13","system_id":"levelo_inurba_marseille","lat":43.33719,"lon":5.39173,"is_reserved":false,"is_disabled":false,"rental_uris":{"android":"levelo://app?vid=39e55a90-fe76-4904-bf9c-9841fe168f13","ios":"levelo://app?vid=39e55a90-fe76-4904-bf9c-9841fe168f13"},"vehicle_type_id":"4","last_reported":1739455739,"current_range_meters":38000,"station_id":"ce4bhr92rcd13ifvqhsg","pricing_plan_id":"cebpf4jnsgd1na2vs0mg"},{"bike_id":"9728e9a0-bb2c-471e-b42a-e9db4ba13384","system_id":"levelo_inurba_marseille","lat":43.31366,"lon":5.38486,"is_reserved":false,"is_disabled":false,"rental_uris":{"android":"levelo://app?vid=9728e9a0-bb2c-471e-b42a-e9db4ba13384","ios":"levelo://app?vid=9728e9a0-bb2c-471e-b42a-e9db4ba13384"},"vehicle_type_id":"4","last_reported":1739455739,"current_range_meters":38800,"station_id":"ce4bgt92rcd13ifvqcf0","pricing_plan_id":"cebpf4jnsgd1na2vs0mg"},{"bike_id":"7b830c89-3a1c-4014-a605-109efca81479","system_id":"levelo_inurba_marseille","lat":43.27678,"lon":5.38867,"is_reserved":false,"is_disabled":false,"rental_uris":{"android":"levelo://app?vid=7b830c89-3a1c-4014-a605-109efca81479","ios":"levelo://app?vid=7b830c89-3a1c-4014-a605-109efca81479"},"vehicle_type_id":"4","last_reported":1739455739,"current_range_meters":38800,"station_id":"ce4bhi12rcd13ifvqfo0","pricing_plan_id":"cebpf4jnsgd1na2vs0mg"},{"bike_id":"74eed58f-1fd9-4ea4-a6c5-9ec97791fe06","system_id":"levelo_inurba_marseille","lat":43.28111,"lon":5.37826,"is_reserved":false,"is_disabled":false,"rental_uris":{"android":"levelo://app?vid=74eed58f-1fd9-4ea4-a6c5-9ec97791fe06","ios":"levelo://app?vid=74eed58f-1fd9-4ea4-a6c5-9ec97791fe06"},"vehicle_type_id":"4","last_reported":1739455739,"current_range_meters":39200,"station_id":"ce4bha12rcd13ifvqee0","pricing_plan_id":"cebpf4jnsgd1na2vs0mg"},{"bike_id":"89c62f29-4120-41fc-aa3b-552b62ebf346","system_id":"levelo_inurba_marseille","lat":43.23195,"lon":5.35548,"is_reserved":false,"is_disabled":false,"rental_uris":{"android":"levelo://app?vid=89c62f29-4120-41fc-aa3b-552b62ebf346","ios":"levelo://app?vid=89c62f29-4120-41fc-aa3b-552b62ebf346"},"vehicle_type_id":"4","last_reported":1739455739,"current_range_meters":3200,"station_id":"ce4bhu92rcd13ifvqi70","pricing_plan_id":"cebpf4jnsgd1na2vs0mg"},{"bike_id":"769107d8-d2ec-45b5-95ac-522954bfd4c7","system_id":"levelo_inurba_marseille","lat":43.308877,"lon":5.371906,"is_reserved":false,"is_disabled":false,"rental_uris":{"android":"levelo://app?vid=769107d8-d2ec-45b5-95ac-522954bfd4c7","ios":"levelo://app?vid=769107d8-d2ec-45b5-95ac-522954bfd4c7"},"vehicle_type_id":"4","last_reported":1739455739,"current_range_meters":38400,"station_id":"ce4bguh2rcd13ifvqckg","pricing_plan_id":"cebpf4jnsgd1na2vs0mg"},{"bike_id":"5b3d7282-f9d7-48c3-902e-95c6831b6a1c","system_id":"levelo_inurba_marseille","lat":43.26707,"lon":5.3823,"is_reserved":false,"is_disabled":false,"rental_uris":{"android":"levelo://app?vid=5b3d7282-f9d7-48c3-902e-95c6831b6a1c","ios":"levelo://app?vid=5b3d7282-f9d7-48c3-902e-95c6831b6a1c"},"vehicle_type_id":"4","last_reported":1739455739,"current_range_meters":24800,"station_id":"ce4bhg92rcd13ifvqf90","pricing_plan_id":"cebpf4jnsgd1na2vs0mg"},{"bike_id":"a2fef756-4840-497e-a38a-42c9426c2629","system_id":"levelo_inurba_marseille","lat":43.34162,"lon":5.40905,"is_reserved":false,"is_disabled":false,"rental_uris":{"android":"levelo://app?vid=a2fef756-4840-497e-a38a-42c9426c2629","ios":"levelo://app?vid=a2fef756-4840-497e-a38a-42c9426c2629"},"vehicle_type_id":"4","last_reported":1739455739,"current_range_meters":35200,"station_id":"ce4bhqh2rcd13ifvqhlg","pricing_plan_id":"cebpf4jnsgd1na2vs0mg"},{"bike_id":"8054137f-c573-408f-9225-3700b33ee09c","system_id":"levelo_inurba_marseille","lat":43.30308,"lon":5.36884,"is_reserved":false,"is_disabled":false,"rental_uris":{"android":"levelo://app?vid=8054137f-c573-408f-9225-3700b33ee09c","ios":"levelo://app?vid=8054137f-c573-408f-9225-3700b33ee09c"},"vehicle_type_id":"4","last_reported":1739455739,"current_range_meters":14800,"station_id":"ce4bgqh2rcd13ifvqc5g","pricing_plan_id":"cebpf4jnsgd1na2vs0mg"},{"bike_id":"2aaa0461-0d26-4d11-8e1e-9a504fd159ff","system_id":"levelo_inurba_marseille","lat":43.28713,"lon":5.38507,"is_reserved":false,"is_disabled":false,"rental_uris":{"android":"levelo://app?vid=2aaa0461-0d26-4d11-8e1e-9a504fd159ff","ios":"levelo://app?vid=2aaa0461-0d26-4d11-8e1e-9a504fd159ff"},"vehicle_type_id":"4","last_reported":1739455739,"current_range_meters":25200,"station_id":"","pricing_plan_id":"cebpf4jnsgd1na2vs0mg"},{"bike_id":"9eaf4bc9-e2da-4f06-a5fc-54f6c33a64f4","system_id":"levelo_inurba_marseille","lat":43.30136,"lon":5.38788,"is_reserved":false,"is_disabled":false,"rental_uris":{"android":"levelo://app?vid=9eaf4bc9-e2da-4f06-a5fc-54f6c33a64f4","ios":"levelo://app?vid=9eaf4bc9-e2da-4f06-a5fc-54f6c33a64f4"},"vehicle_type_id":"4","last_reported":1739455739,"current_range_meters":32000,"station_id":"ce4bghh2rcd13ifvqb60","pricing_plan_id":"cebpf4jnsgd1na2vs0mg"},{"bike_id":"7eb1d24d-a52a-4169-93d3-46580de34020","system_id":"levelo_inurba_marseille","lat":43.29757,"lon":5.37633,"is_reserved":false,"is_disabled":false,"rental_uris":{"android":"levelo://app?vid=7eb1d24d-a52a-4169-93d3-46580de34020","ios":"levelo://app?vid=7eb1d24d-a52a-4169-93d3-46580de34020"},"vehicle_type_id":"4","last_reported":1739455739,"current_range_meters":37600,"station_id":"","pricing_plan_id":"cebpf4jnsgd1na2vs0mg"},{"bike_id":"4004e863-e0ca-4122-9424-ab9f70e142e6","system_id":"levelo_inurba_marseille","lat":43.31678,"lon":5.39626,"is_reserved":false,"is_disabled":false,"rental_uris":{"android":"levelo://app?vid=4004e863-e0ca-4122-9424-ab9f70e142e6","ios":"levelo://app?vid=4004e863-e0ca-4122-9424-ab9f70e142e6"},"vehicle_type_id":"4","last_reported":1739455739,"current_range_meters":26800,"station_id":"","pricing_plan_id":"cebpf4jnsgd1na2vs0mg"},{"bike_id":"1d3086d2-c69c-4ad2-b6e6-9b32db5ec44d","system_id":"levelo_inurba_marseille","lat":43.29052,"lon":5.35911,"is_reserved":false,"is_disabled":false,"rental_uris":{"android":"levelo://app?vid=1d3086d2-c69c-4ad2-b6e6-9b32db5ec44d","ios":"levelo://app?vid=1d3086d2-c69c-4ad2-b6e6-9b32db5ec44d"},"vehicle_type_id":"4","last_reported":1739455739,"current_range_meters":23200,"station_id":"ce4bha92rcd13ifvqeg0","pricing_plan_id":"cebpf4jnsgd1na2vs0mg"},{"bike_id":"097c8f12-b2d3-4cd9-b4cd-58f054ea9151","system_id":"levelo_inurba_marseille","lat":43.2797,"lon":5.38744,"is_reserved":false,"is_disabled":false,"rental_uris":{"android":"levelo://app?vid=097c8f12-b2d3-4cd9-b4cd-58f054ea9151","ios":"levelo://app?vid=097c8f12-b2d3-4cd9-b4cd-58f054ea9151"},"vehicle_type_id":"4","last_reported":1739455739,"current_range_meters":6800,"station_id":"ce4bhg12rcd13ifvqf80","pricing_plan_id":"cebpf4jnsgd1na2vs0mg"},{"bike_id":"03b938a7-2b0a-4fec-b780-01e1fd091af6","system_id":"levelo_inurba_marseille","lat":43.29056,"lon":5.37484,"is_reserved":false,"is_disabled":false,"rental_uris":{"android":"levelo://app?vid=03b938a7-2b0a-4fec-b780-01e1fd091af6","ios":"levelo://app?vid=03b938a7-2b0a-4fec-b780-01e1fd091af6"},"vehicle_type_id":"4","last_reported":1739455739,"current_range_meters":26000,"station_id":"","pricing_plan_id":"cebpf4jnsgd1na2vs0mg"},{"bike_id":"2c6d46bc-15d7-408b-8dbb-d8c4ad5bbf49","system_id":"levelo_inurba_marseille","lat":43.29726,"lon":5.37684,"is_reserved":false,"is_disabled":false,"rental_uris":{"android":"levelo://app?vid=2c6d46bc-15d7-408b-8dbb-d8c4ad5bbf49","ios":"levelo://app?vid=2c6d46bc-15d7-408b-8dbb-d8c4ad5bbf49"},"vehicle_type_id":"4","last_reported":1739455739,"current_range_meters":38800,"station_id":"ce4bgkh2rcd13ifvqbl0","pricing_plan_id":"cebpf4jnsgd1na2vs0mg"},{"bike_id":"a8bee56e-f229-423c-86cc-a0dac78a0d2d","system_id":"levelo_inurba_marseille","lat":43.29623,"lon":5.37171,"is_reserved":false,"is_disabled":false,"rental_uris":{"android":"levelo://app?vid=a8bee56e-f229-423c-86cc-a0dac78a0d2d","ios":"levelo://app?vid=a8bee56e-f229-423c-86cc-a0dac78a0d2d"},"vehicle_type_id":"4","last_reported":1739455739,"current_range_meters":35200,"station_id":"ce4bgnh2rcd13ifvqc0g","pricing_plan_id":"cebpf4jnsgd1na2vs0mg"},{"bike_id":"2ddef1d7-c4fd-4c99-b50f-1b938123733f","system_id":"levelo_inurba_marseille","lat":43.27057,"lon":5.40261,"is_reserved":false,"is_disabled":false,"rental_uris":{"android":"levelo://app?vid=2ddef1d7-c4fd-4c99-b50f-1b938123733f","ios":"levelo://app?vid=2ddef1d7-c4fd-4c99-b50f-1b938123733f"},"vehicle_type_id":"4","last_reported":1739455739,"current_range_meters":24800,"station_id":"ce4bhk92rcd13ifvqgc0","pricing_plan_id":"cebpf4jnsgd1na2vs0mg"},{"bike_id":"1f591447-b542-497b-a21e-dfda09c304ae","system_id":"levelo_inurba_marseille","lat":43.29907,"lon":5.37464,"is_reserved":false,"is_disabled":false,"rental_uris":{"android":"levelo://app?vid=1f591447-b542-497b-a21e-dfda09c304ae","ios":"levelo://app?vid=1f591447-b542-497b-a21e-dfda09c304ae"},"vehicle_type_id":"4","last_reported":1739455739,"current_range_meters":17600,"station_id":"ce4bgjh2rcd13ifvqbg0","pricing_plan_id":"cebpf4jnsgd1na2vs0mg"},{"bike_id":"03f1ee11-be7f-45e6-a171-a893130e88b6","system_id":"levelo_inurba_marseille","lat":43.29001,"lon":5.35615,"is_reserved":false,"is_disabled":false,"rental_uris":{"android":"levelo://app?vid=03f1ee11-be7f-45e6-a171-a893130e88b6","ios":"levelo://app?vid=03f1ee11-be7f-45e6-a171-a893130e88b6"},"vehicle_type_id":"4","last_reported":1739455739,"current_range_meters":38800,"station_id":"ce4bhb92rcd13ifvqen0","pricing_plan_id":"cebpf4jnsgd1na2vs0mg"},{"bike_id":"704ec19d-e7c0-4858-a423-dcfa560220a5","system_id":"levelo_inurba_marseille","lat":43.23187,"lon":5.39976,"is_reserved":false,"is_disabled":false,"rental_uris":{"android":"levelo://app?vid=704ec19d-e7c0-4858-a423-dcfa560220a5","ios":"levelo://app?vid=704ec19d-e7c0-4858-a423-dcfa560220a5"},"vehicle_type_id":"4","last_reported":1739455739,"current_range_meters":36800,"station_id":"ce4bhn12rcd13ifvqgqg","pricing_plan_id":"cebpf4jnsgd1na2vs0mg"},{"bike_id":"aa9010f5-ddb8-40ac-92f7-6cf7d13e88ae","system_id":"levelo_inurba_marseille","lat":43.26691,"lon":5.3826,"is_reserved":false,"is_disabled":false,"rental_uris":{"android":"levelo://app?vid=aa9010f5-ddb8-40ac-92f7-6cf7d13e88ae","ios":"levelo://app?vid=aa9010f5-ddb8-40ac-92f7-6cf7d13e88ae"},"vehicle_type_id":"4","last_reported":1739455739,"current_range_meters":38000,"station_id":"ce4bhg92rcd13ifvqf90","pricing_plan_id":"cebpf4jnsgd1na2vs0mg"},{"bike_id":"b0127c8f-801f-46cb-9aba-3ca1f95d16f1","system_id":"levelo_inurba_marseille","lat":43.34142,"lon":5.40899,"is_reserved":false,"is_disabled":false,"rental_uris":{"android":"levelo://app?vid=b0127c8f-801f-46cb-9aba-3ca1f95d16f1","ios":"levelo://app?vid=b0127c8f-801f-46cb-9aba-3ca1f95d16f1"},"vehicle_type_id":"4","last_reported":1739455739,"current_range_meters":38000,"station_id":"ce4bhqh2rcd13ifvqhlg","pricing_plan_id":"cebpf4jnsgd1na2vs0mg"},{"bike_id":"255edc25-18b0-47b6-83a7-442f3b86ac4f","system_id":"levelo_inurba_marseille","lat":43.26049,"lon":5.3939,"is_reserved":false,"is_disabled":false,"rental_uris":{"android":"levelo://app?vid=255edc25-18b0-47b6-83a7-442f3b86ac4f","ios":"levelo://app?vid=255edc25-18b0-47b6-83a7-442f3b86ac4f"},"vehicle_type_id":"4","last_reported":1739455739,"current_range_meters":39200,"station_id":"ce4bhh92rcd13ifvqfj0","pricing_plan_id":"cebpf4jnsgd1na2vs0mg"},{"bike_id":"4b4b9e9e-a597-4764-a284-20c1ac30f713","system_id":"levelo_inurba_marseille","lat":43.281128,"lon":5.378764,"is_reserved":false,"is_disabled":false,"rental_uris":{"android":"levelo://app?vid=4b4b9e9e-a597-4764-a284-20c1ac30f713","ios":"levelo://app?vid=4b4b9e9e-a597-4764-a284-20c1ac30f713"},"vehicle_type_id":"4","last_reported":1739455739,"current_range_meters":27200,"station_id":"ce4bguh2rcd13ifvqckg","pricing_plan_id":"cebpf4jnsgd1na2vs0mg"},{"bike_id":"9cf8e6d9-67b8-441b-8ab4-08ef8560d2b0","system_id":"levelo_inurba_marseille","lat":43.3319,"lon":5.35576,"is_reserved":false,"is_disabled":false,"rental_uris":{"android":"levelo://app?vid=9cf8e6d9-67b8-441b-8ab4-08ef8560d2b0","ios":"levelo://app?vid=9cf8e6d9-67b8-441b-8ab4-08ef8560d2b0"},"vehicle_type_id":"4","last_reported":1739455739,"current_range_meters":4400,"station_id":"","pricing_plan_id":"cebpf4jnsgd1na2vs0mg"},{"bike_id":"23621870-3077-4697-8ecd-892fb1c22ac5","system_id":"levelo_inurba_marseille","lat":43.299284,"lon":5.374717,"is_reserved":false,"is_disabled":true,"rental_uris":{"android":"levelo://app?vid=23621870-3077-4697-8ecd-892fb1c22ac5","ios":"levelo://app?vid=23621870-3077-4697-8ecd-892fb1c22ac5"},"vehicle_type_id":"4","last_reported":1739455739,"current_range_meters":29600,"station_id":"","pricing_plan_id":"cebpf4jnsgd1na2vs0mg"},{"bike_id":"293514b4-33bd-4f1f-b6a1-f48e8a03df35","system_id":"levelo_inurba_marseille","lat":43.2904,"lon":5.39976,"is_reserved":false,"is_disabled":false,"rental_uris":{"android":"levelo://app?vid=293514b4-33bd-4f1f-b6a1-f48e8a03df35","ios":"levelo://app?vid=293514b4-33bd-4f1f-b6a1-f48e8a03df35"},"vehicle_type_id":"4","last_reported":1739455739,"current_range_meters":36400,"station_id":"ce4bh392rcd13ifvqdm0","pricing_plan_id":"cebpf4jnsgd1na2vs0mg"},{"bike_id":"e0c66923-7d46-4dcc-ae11-fcd6bfe86df0","system_id":"levelo_inurba_marseille","lat":43.28939,"lon":5.39623,"is_reserved":false,"is_disabled":false,"rental_uris":{"android":"levelo://app?vid=e0c66923-7d46-4dcc-ae11-fcd6bfe86df0","ios":"levelo://app?vid=e0c66923-7d46-4dcc-ae11-fcd6bfe86df0"},"vehicle_type_id":"4","last_reported":1739455739,"current_range_meters":37600,"station_id":"ce4bh3h2rcd13ifvqdn0","pricing_plan_id":"cebpf4jnsgd1na2vs0mg"},{"bike_id":"b076ea8e-2467-4754-a660-35beb44a3d2f","system_id":"levelo_inurba_marseille","lat":43.23961,"lon":5.36626,"is_reserved":false,"is_disabled":false,"rental_uris":{"android":"levelo://app?vid=b076ea8e-2467-4754-a660-35beb44a3d2f","ios":"levelo://app?vid=b076ea8e-2467-4754-a660-35beb44a3d2f"},"vehicle_type_id":"4","last_reported":1739455739,"current_range_meters":28800,"station_id":"ce4bhi12rcd13ifvqfp0","pricing_plan_id":"cebpf4jnsgd1na2vs0mg"},{"bike_id":"7e4baaff-43df-45ac-ba99-60d4ee3b5a14","system_id":"levelo_inurba_marseille","lat":43.32466,"lon":5.36567,"is_reserved":false,"is_disabled":false,"rental_uris":{"android":"levelo://app?vid=7e4baaff-43df-45ac-ba99-60d4ee3b5a14","ios":"levelo://app?vid=7e4baaff-43df-45ac-ba99-60d4ee3b5a14"},"vehicle_type_id":"4","last_reported":1739455739,"current_range_meters":36800,"station_id":"ce4bhs12rcd13ifvqhvg","pricing_plan_id":"cebpf4jnsgd1na2vs0mg"},{"bike_id":"7e5520a4-2922-4ff8-9b47-91c4e8c21ca4","system_id":"levelo_inurba_marseille","lat":43.246507,"lon":5.388891,"is_reserved":false,"is_disabled":false,"rental_uris":{"android":"levelo://app?vid=7e5520a4-2922-4ff8-9b47-91c4e8c21ca4","ios":"levelo://app?vid=7e5520a4-2922-4ff8-9b47-91c4e8c21ca4"},"vehicle_type_id":"4","last_reported":1739455739,"current_range_meters":39200,"station_id":"ce4bhg12rcd13ifvqf60","pricing_plan_id":"cebpf4jnsgd1na2vs0mg"},{"bike_id":"4478e8d9-882f-472c-82c3-142a4b5b796e","system_id":"levelo_inurba_marseille","lat":43.30307,"lon":5.36875,"is_reserved":false,"is_disabled":false,"rental_uris":{"android":"levelo://app?vid=4478e8d9-882f-472c-82c3-142a4b5b796e","ios":"levelo://app?vid=4478e8d9-882f-472c-82c3-142a4b5b796e"},"vehicle_type_id":"4","last_reported":1739455739,"current_range_meters":28000,"station_id":"ce4bgqh2rcd13ifvqc5g","pricing_plan_id":"cebpf4jnsgd1na2vs0mg"},{"bike_id":"b03fd7e9-5604-4ddf-8507-029c6e1eb1c8","system_id":"levelo_inurba_marseille","lat":43.25941,"lon":5.4086,"is_reserved":false,"is_disabled":false,"rental_uris":{"android":"levelo://app?vid=b03fd7e9-5604-4ddf-8507-029c6e1eb1c8","ios":"levelo://app?vid=b03fd7e9-5604-4ddf-8507-029c6e1eb1c8"},"vehicle_type_id":"4","last_reported":1739455739,"current_range_meters":8400,"station_id":"ce4bhm92rcd13ifvqglg","pricing_plan_id":"cebpf4jnsgd1na2vs0mg"},{"bike_id":"51ab7186-5043-4bed-baca-73708608a302","system_id":"levelo_inurba_marseille","lat":43.29584,"lon":5.37026,"is_reserved":false,"is_disabled":true,"rental_uris":{"android":"levelo://app?vid=51ab7186-5043-4bed-baca-73708608a302","ios":"levelo://app?vid=51ab7186-5043-4bed-baca-73708608a302"},"vehicle_type_id":"4","last_reported":1739455739,"current_range_meters":0,"station_id":"","pricing_plan_id":"cebpf4jnsgd1na2vs0mg"},{"bike_id":"d7b2ef23-530c-4a33-a04e-98a3225de2b0","system_id":"levelo_inurba_marseille","lat":43.30946,"lon":5.39025,"is_reserved":false,"is_disabled":false,"rental_uris":{"android":"levelo://app?vid=d7b2ef23-530c-4a33-a04e-98a3225de2b0","ios":"levelo://app?vid=d7b2ef23-530c-4a33-a04e-98a3225de2b0"},"vehicle_type_id":"4","last_reported":1739455739,"current_range_meters":18000,"station_id":"ce4bgup2rcd13ifvqco0","pricing_plan_id":"cebpf4jnsgd1na2vs0mg"},{"bike_id":"54057932-4e5f-4c62-84e4-114d714b65ec","system_id":"levelo_inurba_marseille","lat":43.28345,"lon":5.38104,"is_reserved":false,"is_disabled":false,"rental_uris":{"android":"levelo://app?vid=54057932-4e5f-4c62-84e4-114d714b65ec","ios":"levelo://app?vid=54057932-4e5f-4c62-84e4-114d714b65ec"},"vehicle_type_id":"4","last_reported":1739455739,"current_range_meters":14000,"station_id":"ce4bh412rcd13ifvqdr0","pricing_plan_id":"cebpf4jnsgd1na2vs0mg"},{"bike_id":"d3fc5f7e-9983-4343-a9af-f36df7d45f29","system_id":"levelo_inurba_marseille","lat":43.2319,"lon":5.399833,"is_reserved":false,"is_disabled":false,"rental_uris":{"android":"levelo://app?vid=d3fc5f7e-9983-4343-a9af-f36df7d45f29","ios":"levelo://app?vid=d3fc5f7e-9983-4343-a9af-f36df7d45f29"},"vehicle_type_id":"4","last_reported":1739455739,"current_range_meters":24400,"station_id":"ce4bhn12rcd13ifvqgqg","pricing_plan_id":"cebpf4jnsgd1na2vs0mg"},{"bike_id":"62bc9e9f-0fb1-417c-bae2-2a6fae8e3f1f","system_id":"levelo_inurba_marseille","lat":43.3372,"lon":5.39182,"is_reserved":false,"is_disabled":false,"rental_uris":{"android":"levelo://app?vid=62bc9e9f-0fb1-417c-bae2-2a6fae8e3f1f","ios":"levelo://app?vid=62bc9e9f-0fb1-417c-bae2-2a6fae8e3f1f"},"vehicle_type_id":"4","last_reported":1739455739,"current_range_meters":17600,"station_id":"ce4bhr92rcd13ifvqhsg","pricing_plan_id":"cebpf4jnsgd1na2vs0mg"},{"bike_id":"f1ce61d2-3af6-4605-842b-d8c62c21c07f","system_id":"levelo_inurba_marseille","lat":43.27809,"lon":5.40717,"is_reserved":false,"is_disabled":false,"rental_uris":{"android":"levelo://app?vid=f1ce61d2-3af6-4605-842b-d8c62c21c07f","ios":"levelo://app?vid=f1ce61d2-3af6-4605-842b-d8c62c21c07f"},"vehicle_type_id":"4","last_reported":1739455739,"current_range_meters":35200,"station_id":"ce4bhnh2rcd13ifvqgtg","pricing_plan_id":"cebpf4jnsgd1na2vs0mg"},{"bike_id":"48b9bfa7-0244-4064-82ca-4997fd164f91","system_id":"levelo_inurba_marseille","lat":43.27316,"lon":5.39106,"is_reserved":false,"is_disabled":false,"rental_uris":{"android":"levelo://app?vid=48b9bfa7-0244-4064-82ca-4997fd164f91","ios":"levelo://app?vid=48b9bfa7-0244-4064-82ca-4997fd164f91"},"vehicle_type_id":"4","last_reported":1739455739,"current_range_meters":8800,"station_id":"ce4bhgp2rcd13ifvqfe0","pricing_plan_id":"cebpf4jnsgd1na2vs0mg"},{"bike_id":"2d925a86-c054-4b27-8b77-90685c11499b","system_id":"levelo_inurba_marseille","lat":43.29525,"lon":5.39042,"is_reserved":false,"is_disabled":false,"rental_uris":{"android":"levelo://app?vid=2d925a86-c054-4b27-8b77-90685c11499b","ios":"levelo://app?vid=2d925a86-c054-4b27-8b77-90685c11499b"},"vehicle_type_id":"4","last_reported":1739455739,"current_range_meters":38800,"station_id":"ce4bh3p2rcd13ifvqdp0","pricing_plan_id":"cebpf4jnsgd1na2vs0mg"},{"bike_id":"dff784b9-040c-429d-b847-08ccef8ffbe4","system_id":"levelo_inurba_marseille","lat":43.24801,"lon":5.37457,"is_reserved":false,"is_disabled":false,"rental_uris":{"android":"levelo://app?vid=dff784b9-040c-429d-b847-08ccef8ffbe4","ios":"levelo://app?vid=dff784b9-040c-429d-b847-08ccef8ffbe4"},"vehicle_type_id":"4","last_reported":1739455739,"current_range_meters":17600,"station_id":"ce4bhgh2rcd13ifvqfb0","pricing_plan_id":"cebpf4jnsgd1na2vs0mg"},{"bike_id":"65379d3b-dc46-4ed5-9335-56799088ab0f","system_id":"levelo_inurba_marseille","lat":43.30462,"lon":5.37908,"is_reserved":false,"is_disabled":false,"rental_uris":{"android":"levelo://app?vid=65379d3b-dc46-4ed5-9335-56799088ab0f","ios":"levelo://app?vid=65379d3b-dc46-4ed5-9335-56799088ab0f"},"vehicle_type_id":"4","last_reported":1739455739,"current_range_meters":35200,"station_id":"ce4bgup2rcd13ifvqcn0","pricing_plan_id":"cebpf4jnsgd1na2vs0mg"},{"bike_id":"cd581355-e62e-434a-af99-6d8847ae5f7f","system_id":"levelo_inurba_marseille","lat":43.26934,"lon":5.38913,"is_reserved":false,"is_disabled":false,"rental_uris":{"android":"levelo://app?vid=cd581355-e62e-434a-af99-6d8847ae5f7f","ios":"levelo://app?vid=cd581355-e62e-434a-af99-6d8847ae5f7f"},"vehicle_type_id":"4","last_reported":1739455739,"current_range_meters":28400,"station_id":"ce4bhhh2rcd13ifvqfl0","pricing_plan_id":"cebpf4jnsgd1na2vs0mg"},{"bike_id":"83ead89d-7307-4fdc-b0ac-67471a6fecef","system_id":"levelo_inurba_marseille","lat":43.30549,"lon":5.36707,"is_reserved":false,"is_disabled":false,"rental_uris":{"android":"levelo://app?vid=83ead89d-7307-4fdc-b0ac-67471a6fecef","ios":"levelo://app?vid=83ead89d-7307-4fdc-b0ac-67471a6fecef"},"vehicle_type_id":"4","last_reported":1739455739,"current_range_meters":28800,"station_id":"ce4bgrp2rcd13ifvqc9g","pricing_plan_id":"cebpf4jnsgd1na2vs0mg"},{"bike_id":"ee079ffa-4416-4a91-bc98-3bd665acea3b","system_id":"levelo_inurba_marseille","lat":43.337331,"lon":5.391906,"is_reserved":false,"is_disabled":false,"rental_uris":{"android":"levelo://app?vid=ee079ffa-4416-4a91-bc98-3bd665acea3b","ios":"levelo://app?vid=ee079ffa-4416-4a91-bc98-3bd665acea3b"},"vehicle_type_id":"4","last_reported":1739455739,"current_range_meters":39200,"station_id":"ce4bhr92rcd13ifvqhsg","pricing_plan_id":"cebpf4jnsgd1na2vs0mg"},{"bike_id":"1fa82dc6-47d4-4356-bbca-393bf4461726","system_id":"levelo_inurba_marseille","lat":43.23963,"lon":5.36616,"is_reserved":false,"is_disabled":false,"rental_uris":{"android":"levelo://app?vid=1fa82dc6-47d4-4356-bbca-393bf4461726","ios":"levelo://app?vid=1fa82dc6-47d4-4356-bbca-393bf4461726"},"vehicle_type_id":"4","last_reported":1739455739,"current_range_meters":38800,"station_id":"ce4bhi12rcd13ifvqfp0","pricing_plan_id":"cebpf4jnsgd1na2vs0mg"},{"bike_id":"2355c6e5-09c3-4950-a7a8-dbebf456e6b5","system_id":"levelo_inurba_marseille","lat":43.30788,"lon":5.36567,"is_reserved":false,"is_disabled":false,"rental_uris":{"android":"levelo://app?vid=2355c6e5-09c3-4950-a7a8-dbebf456e6b5","ios":"levelo://app?vid=2355c6e5-09c3-4950-a7a8-dbebf456e6b5"},"vehicle_type_id":"4","last_reported":1739455739,"current_range_meters":22800,"station_id":"","pricing_plan_id":"cebpf4jnsgd1na2vs0mg"},{"bike_id":"4bf67c4d-acab-4866-ae5c-9d59b391f55d","system_id":"levelo_inurba_marseille","lat":43.2572,"lon":5.41111,"is_reserved":false,"is_disabled":false,"rental_uris":{"android":"levelo://app?vid=4bf67c4d-acab-4866-ae5c-9d59b391f55d","ios":"levelo://app?vid=4bf67c4d-acab-4866-ae5c-9d59b391f55d"},"vehicle_type_id":"4","last_reported":1739455739,"current_range_meters":31200,"station_id":"ce4bhkp2rcd13ifvqgd0","pricing_plan_id":"cebpf4jnsgd1na2vs0mg"},{"bike_id":"1943f6ef-50ff-4e93-bfce-c5799c5e5e0d","system_id":"levelo_inurba_marseille","lat":43.24386,"lon":5.37063,"is_reserved":false,"is_disabled":false,"rental_uris":{"android":"levelo://app?vid=1943f6ef-50ff-4e93-bfce-c5799c5e5e0d","ios":"levelo://app?vid=1943f6ef-50ff-4e93-bfce-c5799c5e5e0d"},"vehicle_type_id":"4","last_reported":1739455739,"current_range_meters":18800,"station_id":"ce4bhhh2rcd13ifvqfk0","pricing_plan_id":"cebpf4jnsgd1na2vs0mg"},{"bike_id":"93cabce3-58dd-4607-8727-b622e6b7f5b9","system_id":"levelo_inurba_marseille","lat":43.24375,"lon":5.37069,"is_reserved":false,"is_disabled":false,"rental_uris":{"android":"levelo://app?vid=93cabce3-58dd-4607-8727-b622e6b7f5b9","ios":"levelo://app?vid=93cabce3-58dd-4607-8727-b622e6b7f5b9"},"vehicle_type_id":"4","last_reported":1739455739,"current_range_meters":39200,"station_id":"ce4bhhh2rcd13ifvqfk0","pricing_plan_id":"cebpf4jnsgd1na2vs0mg"},{"bike_id":"73204b29-ec32-4146-8fea-bcca13682a2a","system_id":"levelo_inurba_marseille","lat":43.24857,"lon":5.37474,"is_reserved":false,"is_disabled":false,"rental_uris":{"android":"levelo://app?vid=73204b29-ec32-4146-8fea-bcca13682a2a","ios":"levelo://app?vid=73204b29-ec32-4146-8fea-bcca13682a2a"},"vehicle_type_id":"4","last_reported":1739455739,"current_range_meters":22000,"station_id":"","pricing_plan_id":"cebpf4jnsgd1na2vs0mg"},{"bike_id":"1c7ef0da-e333-4f96-92cc-fb01eebfaa7a","system_id":"levelo_inurba_marseille","lat":43.29559,"lon":5.42283,"is_reserved":false,"is_disabled":false,"rental_uris":{"android":"levelo://app?vid=1c7ef0da-e333-4f96-92cc-fb01eebfaa7a","ios":"levelo://app?vid=1c7ef0da-e333-4f96-92cc-fb01eebfaa7a"},"vehicle_type_id":"4","last_reported":1739455739,"current_range_meters":38800,"station_id":"ce4bhph2rcd13ifvqhdg","pricing_plan_id":"cebpf4jnsgd1na2vs0mg"},{"bike_id":"b85f089e-bcba-493c-8108-fb98e760e842","system_id":"levelo_inurba_marseille","lat":43.324858,"lon":5.365725,"is_reserved":false,"is_disabled":false,"rental_uris":{"android":"levelo://app?vid=b85f089e-bcba-493c-8108-fb98e760e842","ios":"levelo://app?vid=b85f089e-bcba-493c-8108-fb98e760e842"},"vehicle_type_id":"4","last_reported":1739455739,"current_range_meters":39200,"station_id":"ce4bhs12rcd13ifvqhvg","pricing_plan_id":"cebpf4jnsgd1na2vs0mg"},{"bike_id":"d1e6b517-b6c2-4320-8222-419cb00ef868","system_id":"levelo_inurba_marseille","lat":43.30316,"lon":5.36896,"is_reserved":false,"is_disabled":false,"rental_uris":{"android":"levelo://app?vid=d1e6b517-b6c2-4320-8222-419cb00ef868","ios":"levelo://app?vid=d1e6b517-b6c2-4320-8222-419cb00ef868"},"vehicle_type_id":"4","last_reported":1739455739,"current_range_meters":18800,"station_id":"ce4bgqh2rcd13ifvqc5g","pricing_plan_id":"cebpf4jnsgd1na2vs0mg"},{"bike_id":"1e50abb4-045b-48f5-92b6-0552e964e3dc","system_id":"levelo_inurba_marseille","lat":43.31227,"lon":5.36873,"is_reserved":false,"is_disabled":false,"rental_uris":{"android":"levelo://app?vid=1e50abb4-045b-48f5-92b6-0552e964e3dc","ios":"levelo://app?vid=1e50abb4-045b-48f5-92b6-0552e964e3dc"},"vehicle_type_id":"4","last_reported":1739455739,"current_range_meters":22800,"station_id":"ce4bgl92rcd13ifvqbq0","pricing_plan_id":"cebpf4jnsgd1na2vs0mg"},{"bike_id":"55edab43-6223-4adb-acd0-3ed4fa51563c","system_id":"levelo_inurba_marseille","lat":43.29003,"lon":5.35612,"is_reserved":false,"is_disabled":true,"rental_uris":{"android":"levelo://app?vid=55edab43-6223-4adb-acd0-3ed4fa51563c","ios":"levelo://app?vid=55edab43-6223-4adb-acd0-3ed4fa51563c"},"vehicle_type_id":"4","last_reported":1739455739,"current_range_meters":0,"station_id":"ce4bhb92rcd13ifvqen0","pricing_plan_id":"cebpf4jnsgd1na2vs0mg"},{"bike_id":"d674d394-04ab-4838-a267-bcdd8affd803","system_id":"levelo_inurba_marseille","lat":43.30793,"lon":5.43522,"is_reserved":false,"is_disabled":false,"rental_uris":{"android":"levelo://app?vid=d674d394-04ab-4838-a267-bcdd8affd803","ios":"levelo://app?vid=d674d394-04ab-4838-a267-bcdd8affd803"},"vehicle_type_id":"4","last_reported":1739455739,"current_range_meters":38800,"station_id":"ce4bhph2rcd13ifvqheg","pricing_plan_id":"cebpf4jnsgd1na2vs0mg"},{"bike_id":"65e48e5d-79b2-4508-b3c8-5c7e1949c9db","system_id":"levelo_inurba_marseille","lat":43.25814,"lon":5.39438,"is_reserved":false,"is_disabled":false,"rental_uris":{"android":"levelo://app?vid=65e48e5d-79b2-4508-b3c8-5c7e1949c9db","ios":"levelo://app?vid=65e48e5d-79b2-4508-b3c8-5c7e1949c9db"},"vehicle_type_id":"4","last_reported":1739455739,"current_range_meters":30400,"station_id":"ce4bhip2rcd13ifvqft0","pricing_plan_id":"cebpf4jnsgd1na2vs0mg"},{"bike_id":"3c972bc6-571f-4946-9dde-c7f43d4c71a0","system_id":"levelo_inurba_marseille","lat":43.32488,"lon":5.36555,"is_reserved":false,"is_disabled":false,"rental_uris":{"android":"levelo://app?vid=3c972bc6-571f-4946-9dde-c7f43d4c71a0","ios":"levelo://app?vid=3c972bc6-571f-4946-9dde-c7f43d4c71a0"},"vehicle_type_id":"4","last_reported":1739455739,"current_range_meters":24400,"station_id":"ce4bhs12rcd13ifvqhvg","pricing_plan_id":"cebpf4jnsgd1na2vs0mg"},{"bike_id":"099a1e84-c968-4d02-8d1c-8f9348d7a62d","system_id":"levelo_inurba_marseille","lat":43.27551,"lon":5.38433,"is_reserved":false,"is_disabled":false,"rental_uris":{"android":"levelo://app?vid=099a1e84-c968-4d02-8d1c-8f9348d7a62d","ios":"levelo://app?vid=099a1e84-c968-4d02-8d1c-8f9348d7a62d"},"vehicle_type_id":"4","last_reported":1739455739,"current_range_meters":38400,"station_id":"ce4bhh92rcd13ifvqfi0","pricing_plan_id":"cebpf4jnsgd1na2vs0mg"},{"bike_id":"f862acd9-5bff-4a8b-93e8-8bb7714848e2","system_id":"levelo_inurba_marseille","lat":43.27977,"lon":5.38767,"is_reserved":false,"is_disabled":false,"rental_uris":{"android":"levelo://app?vid=f862acd9-5bff-4a8b-93e8-8bb7714848e2","ios":"levelo://app?vid=f862acd9-5bff-4a8b-93e8-8bb7714848e2"},"vehicle_type_id":"4","last_reported":1739455739,"current_range_meters":38000,"station_id":"ce4bhg12rcd13ifvqf80","pricing_plan_id":"cebpf4jnsgd1na2vs0mg"},{"bike_id":"8397142d-18ae-4dce-b410-f832bf9c44f5","system_id":"levelo_inurba_marseille","lat":43.27315,"lon":5.39081,"is_reserved":false,"is_disabled":false,"rental_uris":{"android":"levelo://app?vid=8397142d-18ae-4dce-b410-f832bf9c44f5","ios":"levelo://app?vid=8397142d-18ae-4dce-b410-f832bf9c44f5"},"vehicle_type_id":"4","last_reported":1739455739,"current_range_meters":38800,"station_id":"ce4bhgp2rcd13ifvqfe0","pricing_plan_id":"cebpf4jnsgd1na2vs0mg"},{"bike_id":"0cd6f2a7-914d-403b-96cc-ea6467287208","system_id":"levelo_inurba_marseille","lat":43.29839,"lon":5.36268,"is_reserved":false,"is_disabled":false,"rental_uris":{"android":"levelo://app?vid=0cd6f2a7-914d-403b-96cc-ea6467287208","ios":"levelo://app?vid=0cd6f2a7-914d-403b-96cc-ea6467287208"},"vehicle_type_id":"4","last_reported":1739455739,"current_range_meters":38800,"station_id":"ce4bgpp2rcd13ifvqc3g","pricing_plan_id":"cebpf4jnsgd1na2vs0mg"},{"bike_id":"08a86ebb-b290-4f14-9520-6a5a716f26bd","system_id":"levelo_inurba_marseille","lat":43.23959,"lon":5.36629,"is_reserved":false,"is_disabled":false,"rental_uris":{"android":"levelo://app?vid=08a86ebb-b290-4f14-9520-6a5a716f26bd","ios":"levelo://app?vid=08a86ebb-b290-4f14-9520-6a5a716f26bd"},"vehicle_type_id":"4","last_reported":1739455739,"current_range_meters":38800,"station_id":"ce4bhi12rcd13ifvqfp0","pricing_plan_id":"cebpf4jnsgd1na2vs0mg"},{"bike_id":"6362738c-ded2-41a5-acbc-a12787f9eefd","system_id":"levelo_inurba_marseille","lat":43.2962,"lon":5.37164,"is_reserved":false,"is_disabled":false,"rental_uris":{"android":"levelo://app?vid=6362738c-ded2-41a5-acbc-a12787f9eefd","ios":"levelo://app?vid=6362738c-ded2-41a5-acbc-a12787f9eefd"},"vehicle_type_id":"4","last_reported":1739455739,"current_range_meters":38800,"station_id":"ce4bgnh2rcd13ifvqc0g","pricing_plan_id":"cebpf4jnsgd1na2vs0mg"},{"bike_id":"95051c2a-9184-4aa4-a8f9-bc4708962167","system_id":"levelo_inurba_marseille","lat":43.28501,"lon":5.38552,"is_reserved":false,"is_disabled":false,"rental_uris":{"android":"levelo://app?vid=95051c2a-9184-4aa4-a8f9-bc4708962167","ios":"levelo://app?vid=95051c2a-9184-4aa4-a8f9-bc4708962167"},"vehicle_type_id":"4","last_reported":1739455739,"current_range_meters":28000,"station_id":"ce4bh8p2rcd13ifvqeb0","pricing_plan_id":"cebpf4jnsgd1na2vs0mg"},{"bike_id":"23849fcd-4bc4-44f6-8337-e9a9a16fe0e7","system_id":"levelo_inurba_marseille","lat":43.29742,"lon":5.47963,"is_reserved":false,"is_disabled":false,"rental_uris":{"android":"levelo://app?vid=23849fcd-4bc4-44f6-8337-e9a9a16fe0e7","ios":"levelo://app?vid=23849fcd-4bc4-44f6-8337-e9a9a16fe0e7"},"vehicle_type_id":"4","last_reported":1739455739,"current_range_meters":8000,"station_id":"","pricing_plan_id":"cebpf4jnsgd1na2vs0mg"},{"bike_id":"faec99e1-d1bc-455a-8ff1-da7e5727f8ae","system_id":"levelo_inurba_marseille","lat":43.24391,"lon":5.37079,"is_reserved":false,"is_disabled":false,"rental_uris":{"android":"levelo://app?vid=faec99e1-d1bc-455a-8ff1-da7e5727f8ae","ios":"levelo://app?vid=faec99e1-d1bc-455a-8ff1-da7e5727f8ae"},"vehicle_type_id":"4","last_reported":1739455739,"current_range_meters":24400,"station_id":"ce4bhhh2rcd13ifvqfk0","pricing_plan_id":"cebpf4jnsgd1na2vs0mg"},{"bike_id":"9fe0dae4-87f2-432a-98e6-67978bbe72a9","system_id":"levelo_inurba_marseille","lat":43.25581,"lon":5.3823,"is_reserved":false,"is_disabled":false,"rental_uris":{"android":"levelo://app?vid=9fe0dae4-87f2-432a-98e6-67978bbe72a9","ios":"levelo://app?vid=9fe0dae4-87f2-432a-98e6-67978bbe72a9"},"vehicle_type_id":"4","last_reported":1739455739,"current_range_meters":30000,"station_id":"ce4bhih2rcd13ifvqfs0","pricing_plan_id":"cebpf4jnsgd1na2vs0mg"},{"bike_id":"16d2405f-70f5-4018-af07-174457bfff8e","system_id":"levelo_inurba_marseille","lat":43.31073,"lon":5.38351,"is_reserved":false,"is_disabled":false,"rental_uris":{"android":"levelo://app?vid=16d2405f-70f5-4018-af07-174457bfff8e","ios":"levelo://app?vid=16d2405f-70f5-4018-af07-174457bfff8e"},"vehicle_type_id":"4","last_reported":1739455739,"current_range_meters":28800,"station_id":"ce4bgv92rcd13ifvqcr0","pricing_plan_id":"cebpf4jnsgd1na2vs0mg"},{"bike_id":"f0195f21-e6c5-42cd-95a8-243cbb17e446","system_id":"levelo_inurba_marseille","lat":43.33615,"lon":5.41022,"is_reserved":false,"is_disabled":false,"rental_uris":{"android":"levelo://app?vid=f0195f21-e6c5-42cd-95a8-243cbb17e446","ios":"levelo://app?vid=f0195f21-e6c5-42cd-95a8-243cbb17e446"},"vehicle_type_id":"4","last_reported":1739455739,"current_range_meters":38800,"station_id":"ce4bhqh2rcd13ifvqhmg","pricing_plan_id":"cebpf4jnsgd1na2vs0mg"},{"bike_id":"6cfbf51a-4ec4-4b50-afa2-a58eb7355bc4","system_id":"levelo_inurba_marseille","lat":43.327273,"lon":5.392367,"is_reserved":false,"is_disabled":false,"rental_uris":{"android":"levelo://app?vid=6cfbf51a-4ec4-4b50-afa2-a58eb7355bc4","ios":"levelo://app?vid=6cfbf51a-4ec4-4b50-afa2-a58eb7355bc4"},"vehicle_type_id":"4","last_reported":1739455739,"current_range_meters":25200,"station_id":"","pricing_plan_id":"cebpf4jnsgd1na2vs0mg"},{"bike_id":"01ecade8-42d0-4557-a2fb-d9f8cac78f27","system_id":"levelo_inurba_marseille","lat":43.23069,"lon":5.35496,"is_reserved":false,"is_disabled":false,"rental_uris":{"android":"levelo://app?vid=01ecade8-42d0-4557-a2fb-d9f8cac78f27","ios":"levelo://app?vid=01ecade8-42d0-4557-a2fb-d9f8cac78f27"},"vehicle_type_id":"4","last_reported":1739455739,"current_range_meters":9200,"station_id":"cpo3342slgdg3j2ifvpg","pricing_plan_id":"cebpf4jnsgd1na2vs0mg"},{"bike_id":"39caa847-b837-4440-a510-689edd01525f","system_id":"levelo_inurba_marseille","lat":43.23963,"lon":5.36632,"is_reserved":false,"is_disabled":false,"rental_uris":{"android":"levelo://app?vid=39caa847-b837-4440-a510-689edd01525f","ios":"levelo://app?vid=39caa847-b837-4440-a510-689edd01525f"},"vehicle_type_id":"4","last_reported":1739455739,"current_range_meters":24800,"station_id":"ce4bhi12rcd13ifvqfp0","pricing_plan_id":"cebpf4jnsgd1na2vs0mg"},{"bike_id":"90069231-8d02-46fd-ba3f-d8e7e83900ee","system_id":"levelo_inurba_marseille","lat":43.28826,"lon":5.43793,"is_reserved":false,"is_disabled":true,"rental_uris":{"android":"levelo://app?vid=90069231-8d02-46fd-ba3f-d8e7e83900ee","ios":"levelo://app?vid=90069231-8d02-46fd-ba3f-d8e7e83900ee"},"vehicle_type_id":"4","last_reported":1739455739,"current_range_meters":0,"station_id":"","pricing_plan_id":"cebpf4jnsgd1na2vs0mg"},{"bike_id":"9d249881-5a15-4231-8a5b-9e0b021f19d2","system_id":"levelo_inurba_marseille","lat":43.27938,"lon":5.38697,"is_reserved":false,"is_disabled":true,"rental_uris":{"android":"levelo://app?vid=9d249881-5a15-4231-8a5b-9e0b021f19d2","ios":"levelo://app?vid=9d249881-5a15-4231-8a5b-9e0b021f19d2"},"vehicle_type_id":"4","last_reported":1739455739,"current_range_meters":36000,"station_id":"","pricing_plan_id":"cebpf4jnsgd1na2vs0mg"},{"bike_id":"4dcc6bf4-8bc3-466d-b727-12cc83d65f02","system_id":"levelo_inurba_marseille","lat":43.27319,"lon":5.39061,"is_reserved":false,"is_disabled":false,"rental_uris":{"android":"levelo://app?vid=4dcc6bf4-8bc3-466d-b727-12cc83d65f02","ios":"levelo://app?vid=4dcc6bf4-8bc3-466d-b727-12cc83d65f02"},"vehicle_type_id":"4","last_reported":1739455739,"current_range_meters":33200,"station_id":"ce4bhgp2rcd13ifvqfe0","pricing_plan_id":"cebpf4jnsgd1na2vs0mg"},{"bike_id":"0f1c233e-5eb8-4b05-9906-ba17cb0f225e","system_id":"levelo_inurba_marseille","lat":43.25935,"lon":5.40917,"is_reserved":false,"is_disabled":false,"rental_uris":{"android":"levelo://app?vid=0f1c233e-5eb8-4b05-9906-ba17cb0f225e","ios":"levelo://app?vid=0f1c233e-5eb8-4b05-9906-ba17cb0f225e"},"vehicle_type_id":"4","last_reported":1739455739,"current_range_meters":12800,"station_id":"ce4bhm92rcd13ifvqglg","pricing_plan_id":"cebpf4jnsgd1na2vs0mg"},{"bike_id":"1197363b-8b66-4a7f-a57b-5c2dad4c9493","system_id":"levelo_inurba_marseille","lat":43.29615,"lon":5.37167,"is_reserved":false,"is_disabled":false,"rental_uris":{"android":"levelo://app?vid=1197363b-8b66-4a7f-a57b-5c2dad4c9493","ios":"levelo://app?vid=1197363b-8b66-4a7f-a57b-5c2dad4c9493"},"vehicle_type_id":"4","last_reported":1739455739,"current_range_meters":27600,"station_id":"ce4bgnh2rcd13ifvqc0g","pricing_plan_id":"cebpf4jnsgd1na2vs0mg"},{"bike_id":"763e4b5b-7113-449d-9a20-46a859b24025","system_id":"levelo_inurba_marseille","lat":43.28438,"lon":5.39202,"is_reserved":false,"is_disabled":false,"rental_uris":{"android":"levelo://app?vid=763e4b5b-7113-449d-9a20-46a859b24025","ios":"levelo://app?vid=763e4b5b-7113-449d-9a20-46a859b24025"},"vehicle_type_id":"4","last_reported":1739455739,"current_range_meters":38800,"station_id":"ce4bhoh2rcd13ifvqh5g","pricing_plan_id":"cebpf4jnsgd1na2vs0mg"},{"bike_id":"e13b346e-16be-4753-8e65-74002c37e2cd","system_id":"levelo_inurba_marseille","lat":43.30905,"lon":5.36831,"is_reserved":false,"is_disabled":false,"rental_uris":{"android":"levelo://app?vid=e13b346e-16be-4753-8e65-74002c37e2cd","ios":"levelo://app?vid=e13b346e-16be-4753-8e65-74002c37e2cd"},"vehicle_type_id":"4","last_reported":1739455739,"current_range_meters":28800,"station_id":"ce4bgn92rcd13ifvqbvg","pricing_plan_id":"cebpf4jnsgd1na2vs0mg"},{"bike_id":"d1de7867-d125-47c8-8a90-8eabb1d25537","system_id":"levelo_inurba_marseille","lat":43.25761,"lon":5.41021,"is_reserved":false,"is_disabled":false,"rental_uris":{"android":"levelo://app?vid=d1de7867-d125-47c8-8a90-8eabb1d25537","ios":"levelo://app?vid=d1de7867-d125-47c8-8a90-8eabb1d25537"},"vehicle_type_id":"4","last_reported":1739455739,"current_range_meters":37600,"station_id":"","pricing_plan_id":"cebpf4jnsgd1na2vs0mg"},{"bike_id":"9aafad7f-9abd-4452-b8c1-10b87cede291","system_id":"levelo_inurba_marseille","lat":43.281,"lon":5.37827,"is_reserved":false,"is_disabled":false,"rental_uris":{"android":"levelo://app?vid=9aafad7f-9abd-4452-b8c1-10b87cede291","ios":"levelo://app?vid=9aafad7f-9abd-4452-b8c1-10b87cede291"},"vehicle_type_id":"4","last_reported":1739455739,"current_range_meters":29600,"station_id":"ce4bha12rcd13ifvqee0","pricing_plan_id":"cebpf4jnsgd1na2vs0mg"},{"bike_id":"a28b8174-0d2e-4fbc-a13c-72ac707973ae","system_id":"levelo_inurba_marseille","lat":43.30916,"lon":5.36857,"is_reserved":false,"is_disabled":false,"rental_uris":{"android":"levelo://app?vid=a28b8174-0d2e-4fbc-a13c-72ac707973ae","ios":"levelo://app?vid=a28b8174-0d2e-4fbc-a13c-72ac707973ae"},"vehicle_type_id":"4","last_reported":1739455739,"current_range_meters":38800,"station_id":"ce4bgn92rcd13ifvqbvg","pricing_plan_id":"cebpf4jnsgd1na2vs0mg"},{"bike_id":"cf5c922b-59a3-4fa2-863e-b1e48304b5b9","system_id":"levelo_inurba_marseille","lat":43.27688,"lon":5.38887,"is_reserved":false,"is_disabled":false,"rental_uris":{"android":"levelo://app?vid=cf5c922b-59a3-4fa2-863e-b1e48304b5b9","ios":"levelo://app?vid=cf5c922b-59a3-4fa2-863e-b1e48304b5b9"},"vehicle_type_id":"4","last_reported":1739455739,"current_range_meters":38800,"station_id":"ce4bhi12rcd13ifvqfo0","pricing_plan_id":"cebpf4jnsgd1na2vs0mg"},{"bike_id":"70617585-289d-477e-b3bd-01213e273ed0","system_id":"levelo_inurba_marseille","lat":43.24796,"lon":5.37453,"is_reserved":false,"is_disabled":false,"rental_uris":{"android":"levelo://app?vid=70617585-289d-477e-b3bd-01213e273ed0","ios":"levelo://app?vid=70617585-289d-477e-b3bd-01213e273ed0"},"vehicle_type_id":"4","last_reported":1739455739,"current_range_meters":36400,"station_id":"ce4bhgh2rcd13ifvqfb0","pricing_plan_id":"cebpf4jnsgd1na2vs0mg"},{"bike_id":"7b35ec91-75d0-476a-8303-ae83c6d3cb50","system_id":"levelo_inurba_marseille","lat":43.24821,"lon":5.3745,"is_reserved":false,"is_disabled":false,"rental_uris":{"android":"levelo://app?vid=7b35ec91-75d0-476a-8303-ae83c6d3cb50","ios":"levelo://app?vid=7b35ec91-75d0-476a-8303-ae83c6d3cb50"},"vehicle_type_id":"4","last_reported":1739455739,"current_range_meters":38800,"station_id":"ce4bhgh2rcd13ifvqfb0","pricing_plan_id":"cebpf4jnsgd1na2vs0mg"},{"bike_id":"5bf63086-ef54-42de-af83-1ab6e2c5ed51","system_id":"levelo_inurba_marseille","lat":43.32082,"lon":5.41498,"is_reserved":false,"is_disabled":false,"rental_uris":{"android":"levelo://app?vid=5bf63086-ef54-42de-af83-1ab6e2c5ed51","ios":"levelo://app?vid=5bf63086-ef54-42de-af83-1ab6e2c5ed51"},"vehicle_type_id":"4","last_reported":1739455739,"current_range_meters":17200,"station_id":"","pricing_plan_id":"cebpf4jnsgd1na2vs0mg"},{"bike_id":"c4859de0-f69a-4df9-8bc7-73be04bead96","system_id":"levelo_inurba_marseille","lat":43.2984,"lon":5.36288,"is_reserved":false,"is_disabled":false,"rental_uris":{"android":"levelo://app?vid=c4859de0-f69a-4df9-8bc7-73be04bead96","ios":"levelo://app?vid=c4859de0-f69a-4df9-8bc7-73be04bead96"},"vehicle_type_id":"4","last_reported":1739455739,"current_range_meters":35200,"station_id":"ce4bgpp2rcd13ifvqc3g","pricing_plan_id":"cebpf4jnsgd1na2vs0mg"},{"bike_id":"04f164ff-9f88-44b7-9c9d-bbcde20843f4","system_id":"levelo_inurba_marseille","lat":43.27029,"lon":5.36421,"is_reserved":false,"is_disabled":true,"rental_uris":{"android":"levelo://app?vid=04f164ff-9f88-44b7-9c9d-bbcde20843f4","ios":"levelo://app?vid=04f164ff-9f88-44b7-9c9d-bbcde20843f4"},"vehicle_type_id":"4","last_reported":1739455739,"current_range_meters":800,"station_id":"","pricing_plan_id":"cebpf4jnsgd1na2vs0mg"},{"bike_id":"c2250f20-2283-4e17-b7ce-382f2f740aa1","system_id":"levelo_inurba_marseille","lat":43.24807,"lon":5.37451,"is_reserved":false,"is_disabled":false,"rental_uris":{"android":"levelo://app?vid=c2250f20-2283-4e17-b7ce-382f2f740aa1","ios":"levelo://app?vid=c2250f20-2283-4e17-b7ce-382f2f740aa1"},"vehicle_type_id":"4","last_reported":1739455739,"current_range_meters":38800,"station_id":"ce4bhgh2rcd13ifvqfb0","pricing_plan_id":"cebpf4jnsgd1na2vs0mg"},{"bike_id":"76fa9d75-f3fd-465c-9e1d-0365dc9c3320","system_id":"levelo_inurba_marseille","lat":43.26785,"lon":5.39417,"is_reserved":false,"is_disabled":false,"rental_uris":{"android":"levelo://app?vid=76fa9d75-f3fd-465c-9e1d-0365dc9c3320","ios":"levelo://app?vid=76fa9d75-f3fd-465c-9e1d-0365dc9c3320"},"vehicle_type_id":"4","last_reported":1739455739,"current_range_meters":32000,"station_id":"ce4bhh12rcd13ifvqfg0","pricing_plan_id":"cebpf4jnsgd1na2vs0mg"},{"bike_id":"3e114765-f0c1-4530-81ec-a96c0b1d8ddd","system_id":"levelo_inurba_marseille","lat":43.29274,"lon":5.36847,"is_reserved":false,"is_disabled":false,"rental_uris":{"android":"levelo://app?vid=3e114765-f0c1-4530-81ec-a96c0b1d8ddd","ios":"levelo://app?vid=3e114765-f0c1-4530-81ec-a96c0b1d8ddd"},"vehicle_type_id":"4","last_reported":1739455739,"current_range_meters":38800,"station_id":"ce4bhbp2rcd13ifvqesg","pricing_plan_id":"cebpf4jnsgd1na2vs0mg"},{"bike_id":"492e558b-0ce5-4984-b6b1-1d33f225a96b","system_id":"levelo_inurba_marseille","lat":43.24171,"lon":5.36399,"is_reserved":false,"is_disabled":false,"rental_uris":{"android":"levelo://app?vid=492e558b-0ce5-4984-b6b1-1d33f225a96b","ios":"levelo://app?vid=492e558b-0ce5-4984-b6b1-1d33f225a96b"},"vehicle_type_id":"4","last_reported":1739455739,"current_range_meters":7200,"station_id":"cpo36qri1sfpv3e86is0","pricing_plan_id":"cebpf4jnsgd1na2vs0mg"},{"bike_id":"6bf99e3e-9f10-4617-93f9-2e16108e33a0","system_id":"levelo_inurba_marseille","lat":43.23164,"lon":5.43705,"is_reserved":false,"is_disabled":true,"rental_uris":{"android":"levelo://app?vid=6bf99e3e-9f10-4617-93f9-2e16108e33a0","ios":"levelo://app?vid=6bf99e3e-9f10-4617-93f9-2e16108e33a0"},"vehicle_type_id":"4","last_reported":1739455739,"current_range_meters":0,"station_id":"ce4bhmp2rcd13ifvqgog","pricing_plan_id":"cebpf4jnsgd1na2vs0mg"},{"bike_id":"50c3bcdd-193c-475f-bdc5-af354fe8f992","system_id":"levelo_inurba_marseille","lat":43.34143,"lon":5.40906,"is_reserved":false,"is_disabled":false,"rental_uris":{"android":"levelo://app?vid=50c3bcdd-193c-475f-bdc5-af354fe8f992","ios":"levelo://app?vid=50c3bcdd-193c-475f-bdc5-af354fe8f992"},"vehicle_type_id":"4","last_reported":1739455739,"current_range_meters":38800,"station_id":"ce4bhqh2rcd13ifvqhlg","pricing_plan_id":"cebpf4jnsgd1na2vs0mg"},{"bike_id":"8fd1e919-8877-456c-a9d6-12a47cc41d2a","system_id":"levelo_inurba_marseille","lat":43.29005,"lon":5.3562,"is_reserved":false,"is_disabled":false,"rental_uris":{"android":"levelo://app?vid=8fd1e919-8877-456c-a9d6-12a47cc41d2a","ios":"levelo://app?vid=8fd1e919-8877-456c-a9d6-12a47cc41d2a"},"vehicle_type_id":"4","last_reported":1739455739,"current_range_meters":29600,"station_id":"ce4bhb92rcd13ifvqen0","pricing_plan_id":"cebpf4jnsgd1na2vs0mg"},{"bike_id":"9355cd59-e1ae-4841-89e0-a1135f03b0e4","system_id":"levelo_inurba_marseille","lat":43.30482,"lon":5.37641,"is_reserved":false,"is_disabled":false,"rental_uris":{"android":"levelo://app?vid=9355cd59-e1ae-4841-89e0-a1135f03b0e4","ios":"levelo://app?vid=9355cd59-e1ae-4841-89e0-a1135f03b0e4"},"vehicle_type_id":"4","last_reported":1739455739,"current_range_meters":38000,"station_id":"","pricing_plan_id":"cebpf4jnsgd1na2vs0mg"},{"bike_id":"0fd79843-6430-493c-a123-50d1d6aef202","system_id":"levelo_inurba_marseille","lat":43.28347,"lon":5.38118,"is_reserved":false,"is_disabled":false,"rental_uris":{"android":"levelo://app?vid=0fd79843-6430-493c-a123-50d1d6aef202","ios":"levelo://app?vid=0fd79843-6430-493c-a123-50d1d6aef202"},"vehicle_type_id":"4","last_reported":1739455739,"current_range_meters":31200,"station_id":"ce4bh412rcd13ifvqdr0","pricing_plan_id":"cebpf4jnsgd1na2vs0mg"},{"bike_id":"ff489825-db76-49d3-aa98-c1c0aaa6bdad","system_id":"levelo_inurba_marseille","lat":43.29233,"lon":5.36663,"is_reserved":false,"is_disabled":false,"rental_uris":{"android":"levelo://app?vid=ff489825-db76-49d3-aa98-c1c0aaa6bdad","ios":"levelo://app?vid=ff489825-db76-49d3-aa98-c1c0aaa6bdad"},"vehicle_type_id":"4","last_reported":1739455739,"current_range_meters":9200,"station_id":"","pricing_plan_id":"cebpf4jnsgd1na2vs0mg"},{"bike_id":"c4f0c323-d00d-4331-b1d1-d8ae86f3dc9d","system_id":"levelo_inurba_marseille","lat":43.29038,"lon":5.39964,"is_reserved":false,"is_disabled":true,"rental_uris":{"android":"levelo://app?vid=c4f0c323-d00d-4331-b1d1-d8ae86f3dc9d","ios":"levelo://app?vid=c4f0c323-d00d-4331-b1d1-d8ae86f3dc9d"},"vehicle_type_id":"4","last_reported":1739455739,"current_range_meters":0,"station_id":"ce4bh392rcd13ifvqdm0","pricing_plan_id":"cebpf4jnsgd1na2vs0mg"},{"bike_id":"cc9c1918-9564-44dd-a7a1-7ee9d429c2e1","system_id":"levelo_inurba_marseille","lat":43.280003,"lon":5.416658,"is_reserved":false,"is_disabled":false,"rental_uris":{"android":"levelo://app?vid=cc9c1918-9564-44dd-a7a1-7ee9d429c2e1","ios":"levelo://app?vid=cc9c1918-9564-44dd-a7a1-7ee9d429c2e1"},"vehicle_type_id":"4","last_reported":1739455739,"current_range_meters":29600,"station_id":"ce4bho12rcd13ifvqh1g","pricing_plan_id":"cebpf4jnsgd1na2vs0mg"},{"bike_id":"786687c7-e4ff-4ff9-8656-9627b4ede65e","system_id":"levelo_inurba_marseille","lat":43.26741,"lon":5.38188,"is_reserved":false,"is_disabled":false,"rental_uris":{"android":"levelo://app?vid=786687c7-e4ff-4ff9-8656-9627b4ede65e","ios":"levelo://app?vid=786687c7-e4ff-4ff9-8656-9627b4ede65e"},"vehicle_type_id":"4","last_reported":1739455739,"current_range_meters":39200,"station_id":"ce4bhg92rcd13ifvqf90","pricing_plan_id":"cebpf4jnsgd1na2vs0mg"},{"bike_id":"0de266b0-8eff-4fb7-92b8-8f2a386a7135","system_id":"levelo_inurba_marseille","lat":43.28476,"lon":5.38434,"is_reserved":false,"is_disabled":false,"rental_uris":{"android":"levelo://app?vid=0de266b0-8eff-4fb7-92b8-8f2a386a7135","ios":"levelo://app?vid=0de266b0-8eff-4fb7-92b8-8f2a386a7135"},"vehicle_type_id":"4","last_reported":1739455739,"current_range_meters":36000,"station_id":"ce4bh512rcd13ifvqe3g","pricing_plan_id":"cebpf4jnsgd1na2vs0mg"},{"bike_id":"47dc7c59-2f79-4ef3-9453-9bcbead0652a","system_id":"levelo_inurba_marseille","lat":43.25579,"lon":5.38233,"is_reserved":false,"is_disabled":false,"rental_uris":{"android":"levelo://app?vid=47dc7c59-2f79-4ef3-9453-9bcbead0652a","ios":"levelo://app?vid=47dc7c59-2f79-4ef3-9453-9bcbead0652a"},"vehicle_type_id":"4","last_reported":1739455739,"current_range_meters":39200,"station_id":"ce4bhih2rcd13ifvqfs0","pricing_plan_id":"cebpf4jnsgd1na2vs0mg"},{"bike_id":"26de5054-7c43-4c9f-977c-5313481d109f","system_id":"levelo_inurba_marseille","lat":43.24163,"lon":5.39728,"is_reserved":false,"is_disabled":false,"rental_uris":{"android":"levelo://app?vid=26de5054-7c43-4c9f-977c-5313481d109f","ios":"levelo://app?vid=26de5054-7c43-4c9f-977c-5313481d109f"},"vehicle_type_id":"4","last_reported":1739455739,"current_range_meters":38800,"station_id":"ce4bhn12rcd13ifvqgpg","pricing_plan_id":"cebpf4jnsgd1na2vs0mg"},{"bike_id":"2a8d5b38-12c7-43ca-969a-fe7b4ef5b359","system_id":"levelo_inurba_marseille","lat":43.317053,"lon":5.377429,"is_reserved":false,"is_disabled":true,"rental_uris":{"android":"levelo://app?vid=2a8d5b38-12c7-43ca-969a-fe7b4ef5b359","ios":"levelo://app?vid=2a8d5b38-12c7-43ca-969a-fe7b4ef5b359"},"vehicle_type_id":"4","last_reported":1739455739,"current_range_meters":2800,"station_id":"ce4bgth2rcd13ifvqch0","pricing_plan_id":"cebpf4jnsgd1na2vs0mg"},{"bike_id":"486df385-f6f5-4ddc-9f12-6fe1627bb4ed","system_id":"levelo_inurba_marseille","lat":43.29894,"lon":5.43671,"is_reserved":false,"is_disabled":false,"rental_uris":{"android":"levelo://app?vid=486df385-f6f5-4ddc-9f12-6fe1627bb4ed","ios":"levelo://app?vid=486df385-f6f5-4ddc-9f12-6fe1627bb4ed"},"vehicle_type_id":"4","last_reported":1739455739,"current_range_meters":38000,"station_id":"ce4bhpp2rcd13ifvqhfg","pricing_plan_id":"cebpf4jnsgd1na2vs0mg"},{"bike_id":"b57ed8e3-61f5-404a-b343-ba4c48a4699e","system_id":"levelo_inurba_marseille","lat":43.27668,"lon":5.38858,"is_reserved":false,"is_disabled":false,"rental_uris":{"android":"levelo://app?vid=b57ed8e3-61f5-404a-b343-ba4c48a4699e","ios":"levelo://app?vid=b57ed8e3-61f5-404a-b343-ba4c48a4699e"},"vehicle_type_id":"4","last_reported":1739455739,"current_range_meters":38800,"station_id":"ce4bhi12rcd13ifvqfo0","pricing_plan_id":"cebpf4jnsgd1na2vs0mg"},{"bike_id":"1c0d306e-1b3e-4ee0-bd4a-c3d119cf8422","system_id":"levelo_inurba_marseille","lat":43.29163,"lon":5.37156,"is_reserved":false,"is_disabled":false,"rental_uris":{"android":"levelo://app?vid=1c0d306e-1b3e-4ee0-bd4a-c3d119cf8422","ios":"levelo://app?vid=1c0d306e-1b3e-4ee0-bd4a-c3d119cf8422"},"vehicle_type_id":"4","last_reported":1739455739,"current_range_meters":23200,"station_id":"ce4bha92rcd13ifvqeh0","pricing_plan_id":"cebpf4jnsgd1na2vs0mg"},{"bike_id":"5429a055-5c17-4863-ac08-ee7234bc7af8","system_id":"levelo_inurba_marseille","lat":43.32345,"lon":5.36746,"is_reserved":false,"is_disabled":false,"rental_uris":{"android":"levelo://app?vid=5429a055-5c17-4863-ac08-ee7234bc7af8","ios":"levelo://app?vid=5429a055-5c17-4863-ac08-ee7234bc7af8"},"vehicle_type_id":"4","last_reported":1739455739,"current_range_meters":11200,"station_id":"ce4bhsh2rcd13ifvqi2g","pricing_plan_id":"cebpf4jnsgd1na2vs0mg"},{"bike_id":"5e5b0f85-8132-4fd1-942d-dcf94c8e0c7d","system_id":"levelo_inurba_marseille","lat":43.29683,"lon":5.37288,"is_reserved":false,"is_disabled":false,"rental_uris":{"android":"levelo://app?vid=5e5b0f85-8132-4fd1-942d-dcf94c8e0c7d","ios":"levelo://app?vid=5e5b0f85-8132-4fd1-942d-dcf94c8e0c7d"},"vehicle_type_id":"4","last_reported":1739455739,"current_range_meters":38800,"station_id":"ce4bgk12rcd13ifvqbj0","pricing_plan_id":"cebpf4jnsgd1na2vs0mg"},{"bike_id":"5fd6eda1-45d7-46bc-be33-7ec597ed69f5","system_id":"levelo_inurba_marseille","lat":43.29626,"lon":5.37162,"is_reserved":false,"is_disabled":false,"rental_uris":{"android":"levelo://app?vid=5fd6eda1-45d7-46bc-be33-7ec597ed69f5","ios":"levelo://app?vid=5fd6eda1-45d7-46bc-be33-7ec597ed69f5"},"vehicle_type_id":"4","last_reported":1739455739,"current_range_meters":9600,"station_id":"ce4bgnh2rcd13ifvqc0g","pricing_plan_id":"cebpf4jnsgd1na2vs0mg"},{"bike_id":"891b5235-d570-4a76-86be-74a0648f4828","system_id":"levelo_inurba_marseille","lat":43.29841,"lon":5.36285,"is_reserved":false,"is_disabled":false,"rental_uris":{"android":"levelo://app?vid=891b5235-d570-4a76-86be-74a0648f4828","ios":"levelo://app?vid=891b5235-d570-4a76-86be-74a0648f4828"},"vehicle_type_id":"4","last_reported":1739455739,"current_range_meters":38800,"station_id":"ce4bgpp2rcd13ifvqc3g","pricing_plan_id":"cebpf4jnsgd1na2vs0mg"},{"bike_id":"7301463a-fb46-4ce0-af43-f19866fc8973","system_id":"levelo_inurba_marseille","lat":43.29787,"lon":5.38093,"is_reserved":false,"is_disabled":false,"rental_uris":{"android":"levelo://app?vid=7301463a-fb46-4ce0-af43-f19866fc8973","ios":"levelo://app?vid=7301463a-fb46-4ce0-af43-f19866fc8973"},"vehicle_type_id":"4","last_reported":1739455739,"current_range_meters":38800,"station_id":"ce4bgip2rcd13ifvqbb0","pricing_plan_id":"cebpf4jnsgd1na2vs0mg"},{"bike_id":"904d6b1e-2782-4aff-8503-3b3350c74c7b","system_id":"levelo_inurba_marseille","lat":43.31485,"lon":5.37305,"is_reserved":false,"is_disabled":false,"rental_uris":{"android":"levelo://app?vid=904d6b1e-2782-4aff-8503-3b3350c74c7b","ios":"levelo://app?vid=904d6b1e-2782-4aff-8503-3b3350c74c7b"},"vehicle_type_id":"4","last_reported":1739455739,"current_range_meters":25200,"station_id":"ce4bgt12rcd13ifvqcd0","pricing_plan_id":"cebpf4jnsgd1na2vs0mg"},{"bike_id":"0d2de369-69c4-4f50-a834-47b2eddaaea3","system_id":"levelo_inurba_marseille","lat":43.24389,"lon":5.37063,"is_reserved":false,"is_disabled":false,"rental_uris":{"android":"levelo://app?vid=0d2de369-69c4-4f50-a834-47b2eddaaea3","ios":"levelo://app?vid=0d2de369-69c4-4f50-a834-47b2eddaaea3"},"vehicle_type_id":"4","last_reported":1739455739,"current_range_meters":4800,"station_id":"ce4bhhh2rcd13ifvqfk0","pricing_plan_id":"cebpf4jnsgd1na2vs0mg"},{"bike_id":"21c6442b-fde6-4984-9769-ad9453b8a84f","system_id":"levelo_inurba_marseille","lat":43.29858,"lon":5.36284,"is_reserved":false,"is_disabled":false,"rental_uris":{"android":"levelo://app?vid=21c6442b-fde6-4984-9769-ad9453b8a84f","ios":"levelo://app?vid=21c6442b-fde6-4984-9769-ad9453b8a84f"},"vehicle_type_id":"4","last_reported":1739455739,"current_range_meters":12400,"station_id":"ce4bgpp2rcd13ifvqc3g","pricing_plan_id":"cebpf4jnsgd1na2vs0mg"},{"bike_id":"4cd12386-d4fc-41c5-92fb-6f9b5ce2f039","system_id":"levelo_inurba_marseille","lat":43.32052,"lon":5.41543,"is_reserved":false,"is_disabled":false,"rental_uris":{"android":"levelo://app?vid=4cd12386-d4fc-41c5-92fb-6f9b5ce2f039","ios":"levelo://app?vid=4cd12386-d4fc-41c5-92fb-6f9b5ce2f039"},"vehicle_type_id":"4","last_reported":1739455739,"current_range_meters":18000,"station_id":"ce4bhq92rcd13ifvqhkg","pricing_plan_id":"cebpf4jnsgd1na2vs0mg"},{"bike_id":"eb29dbc1-74f9-472e-b6da-4842334d1e0a","system_id":"levelo_inurba_marseille","lat":43.29714,"lon":5.37692,"is_reserved":false,"is_disabled":false,"rental_uris":{"android":"levelo://app?vid=eb29dbc1-74f9-472e-b6da-4842334d1e0a","ios":"levelo://app?vid=eb29dbc1-74f9-472e-b6da-4842334d1e0a"},"vehicle_type_id":"4","last_reported":1739455739,"current_range_meters":36400,"station_id":"ce4bgkh2rcd13ifvqbl0","pricing_plan_id":"cebpf4jnsgd1na2vs0mg"},{"bike_id":"971f9951-cad8-4d64-aee1-30948583f711","system_id":"levelo_inurba_marseille","lat":43.32472,"lon":5.36582,"is_reserved":false,"is_disabled":false,"rental_uris":{"android":"levelo://app?vid=971f9951-cad8-4d64-aee1-30948583f711","ios":"levelo://app?vid=971f9951-cad8-4d64-aee1-30948583f711"},"vehicle_type_id":"4","last_reported":1739455739,"current_range_meters":39200,"station_id":"ce4bhs12rcd13ifvqhvg","pricing_plan_id":"cebpf4jnsgd1na2vs0mg"},{"bike_id":"6fb98146-dfb0-4776-8c85-356a107d39f5","system_id":"levelo_inurba_marseille","lat":43.3056,"lon":5.36529,"is_reserved":false,"is_disabled":false,"rental_uris":{"android":"levelo://app?vid=6fb98146-dfb0-4776-8c85-356a107d39f5","ios":"levelo://app?vid=6fb98146-dfb0-4776-8c85-356a107d39f5"},"vehicle_type_id":"4","last_reported":1739455739,"current_range_meters":34800,"station_id":"ce4bgs12rcd13ifvqcag","pricing_plan_id":"cebpf4jnsgd1na2vs0mg"},{"bike_id":"14e02d83-9711-4b76-82e6-b76fa116b167","system_id":"levelo_inurba_marseille","lat":43.23146,"lon":5.4371,"is_reserved":false,"is_disabled":false,"rental_uris":{"android":"levelo://app?vid=14e02d83-9711-4b76-82e6-b76fa116b167","ios":"levelo://app?vid=14e02d83-9711-4b76-82e6-b76fa116b167"},"vehicle_type_id":"4","last_reported":1739455739,"current_range_meters":39200,"station_id":"ce4bhmp2rcd13ifvqgog","pricing_plan_id":"cebpf4jnsgd1na2vs0mg"},{"bike_id":"5c77e241-f61f-441a-adc1-06629ef90749","system_id":"levelo_inurba_marseille","lat":43.2826,"lon":5.35079,"is_reserved":false,"is_disabled":false,"rental_uris":{"android":"levelo://app?vid=5c77e241-f61f-441a-adc1-06629ef90749","ios":"levelo://app?vid=5c77e241-f61f-441a-adc1-06629ef90749"},"vehicle_type_id":"4","last_reported":1739455739,"current_range_meters":26800,"station_id":"ce4bhbp2rcd13ifvqerg","pricing_plan_id":"cebpf4jnsgd1na2vs0mg"},{"bike_id":"64d3e1d3-a93d-48c7-a887-e10f8bc35e68","system_id":"levelo_inurba_marseille","lat":43.29306,"lon":5.36942,"is_reserved":false,"is_disabled":false,"rental_uris":{"android":"levelo://app?vid=64d3e1d3-a93d-48c7-a887-e10f8bc35e68","ios":"levelo://app?vid=64d3e1d3-a93d-48c7-a887-e10f8bc35e68"},"vehicle_type_id":"4","last_reported":1739455739,"current_range_meters":30000,"station_id":"","pricing_plan_id":"cebpf4jnsgd1na2vs0mg"},{"bike_id":"d3eddafd-a306-4e6f-acf7-385a5818cde0","system_id":"levelo_inurba_marseille","lat":43.2835,"lon":5.381033,"is_reserved":false,"is_disabled":false,"rental_uris":{"android":"levelo://app?vid=d3eddafd-a306-4e6f-acf7-385a5818cde0","ios":"levelo://app?vid=d3eddafd-a306-4e6f-acf7-385a5818cde0"},"vehicle_type_id":"4","last_reported":1739455739,"current_range_meters":39200,"station_id":"ce4bh412rcd13ifvqdr0","pricing_plan_id":"cebpf4jnsgd1na2vs0mg"},{"bike_id":"eb74081f-8035-495f-a073-abb8444b5eb2","system_id":"levelo_inurba_marseille","lat":43.23963,"lon":5.36625,"is_reserved":false,"is_disabled":false,"rental_uris":{"android":"levelo://app?vid=eb74081f-8035-495f-a073-abb8444b5eb2","ios":"levelo://app?vid=eb74081f-8035-495f-a073-abb8444b5eb2"},"vehicle_type_id":"4","last_reported":1739455739,"current_range_meters":38800,"station_id":"ce4bhi12rcd13ifvqfp0","pricing_plan_id":"cebpf4jnsgd1na2vs0mg"},{"bike_id":"213e7ed3-b6c6-470c-8e37-ca6ffb58bff8","system_id":"levelo_inurba_marseille","lat":43.2749,"lon":5.42454,"is_reserved":false,"is_disabled":true,"rental_uris":{"android":"levelo://app?vid=213e7ed3-b6c6-470c-8e37-ca6ffb58bff8","ios":"levelo://app?vid=213e7ed3-b6c6-470c-8e37-ca6ffb58bff8"},"vehicle_type_id":"4","last_reported":1739455739,"current_range_meters":27600,"station_id":"ce4bhn92rcd13ifvqgrg","pricing_plan_id":"cebpf4jnsgd1na2vs0mg"},{"bike_id":"787e81a4-817c-4d4e-b469-2f97765b65d9","system_id":"levelo_inurba_marseille","lat":43.26481,"lon":5.39535,"is_reserved":false,"is_disabled":false,"rental_uris":{"android":"levelo://app?vid=787e81a4-817c-4d4e-b469-2f97765b65d9","ios":"levelo://app?vid=787e81a4-817c-4d4e-b469-2f97765b65d9"},"vehicle_type_id":"4","last_reported":1739455739,"current_range_meters":31200,"station_id":"ce4bhi12rcd13ifvqfq0","pricing_plan_id":"cebpf4jnsgd1na2vs0mg"},{"bike_id":"855b369f-358b-4cb1-9a7c-f21e4db4f97e","system_id":"levelo_inurba_marseille","lat":43.28421,"lon":5.349846,"is_reserved":false,"is_disabled":false,"rental_uris":{"android":"levelo://app?vid=855b369f-358b-4cb1-9a7c-f21e4db4f97e","ios":"levelo://app?vid=855b369f-358b-4cb1-9a7c-f21e4db4f97e"},"vehicle_type_id":"4","last_reported":1739455739,"current_range_meters":37600,"station_id":"ce4bhbh2rcd13ifvqepg","pricing_plan_id":"cebpf4jnsgd1na2vs0mg"},{"bike_id":"d4978a7f-4766-4fce-848b-bbc6171b7298","system_id":"levelo_inurba_marseille","lat":43.30885,"lon":5.3965,"is_reserved":false,"is_disabled":false,"rental_uris":{"android":"levelo://app?vid=d4978a7f-4766-4fce-848b-bbc6171b7298","ios":"levelo://app?vid=d4978a7f-4766-4fce-848b-bbc6171b7298"},"vehicle_type_id":"4","last_reported":1739455739,"current_range_meters":30000,"station_id":"ce4bh012rcd13ifvqcv0","pricing_plan_id":"cebpf4jnsgd1na2vs0mg"},{"bike_id":"8d2d4012-ff69-4800-927a-45caff6cd054","system_id":"levelo_inurba_marseille","lat":43.2316,"lon":5.43694,"is_reserved":false,"is_disabled":false,"rental_uris":{"android":"levelo://app?vid=8d2d4012-ff69-4800-927a-45caff6cd054","ios":"levelo://app?vid=8d2d4012-ff69-4800-927a-45caff6cd054"},"vehicle_type_id":"4","last_reported":1739455739,"current_range_meters":38400,"station_id":"ce4bhmp2rcd13ifvqgog","pricing_plan_id":"cebpf4jnsgd1na2vs0mg"},{"bike_id":"1ec14052-2d33-4aa1-9ab8-58cc71db74d1","system_id":"levelo_inurba_marseille","lat":43.2417,"lon":5.36402,"is_reserved":false,"is_disabled":false,"rental_uris":{"android":"levelo://app?vid=1ec14052-2d33-4aa1-9ab8-58cc71db74d1","ios":"levelo://app?vid=1ec14052-2d33-4aa1-9ab8-58cc71db74d1"},"vehicle_type_id":"4","last_reported":1739455739,"current_range_meters":6000,"station_id":"cpo36qri1sfpv3e86is0","pricing_plan_id":"cebpf4jnsgd1na2vs0mg"},{"bike_id":"6e58a69c-2a4e-4c49-840d-6e728a603acb","system_id":"levelo_inurba_marseille","lat":43.23063,"lon":5.35501,"is_reserved":false,"is_disabled":false,"rental_uris":{"android":"levelo://app?vid=6e58a69c-2a4e-4c49-840d-6e728a603acb","ios":"levelo://app?vid=6e58a69c-2a4e-4c49-840d-6e728a603acb"},"vehicle_type_id":"4","last_reported":1739455739,"current_range_meters":5600,"station_id":"cpo3342slgdg3j2ifvpg","pricing_plan_id":"cebpf4jnsgd1na2vs0mg"},{"bike_id":"a9507320-73d3-4f1a-b63d-8f5556d57aaa","system_id":"levelo_inurba_marseille","lat":43.26954,"lon":5.38634,"is_reserved":false,"is_disabled":false,"rental_uris":{"android":"levelo://app?vid=a9507320-73d3-4f1a-b63d-8f5556d57aaa","ios":"levelo://app?vid=a9507320-73d3-4f1a-b63d-8f5556d57aaa"},"vehicle_type_id":"4","last_reported":1739455739,"current_range_meters":38800,"station_id":"ce4bhh92rcd13ifvqfh0","pricing_plan_id":"cebpf4jnsgd1na2vs0mg"},{"bike_id":"ce785872-7f60-4cba-93ea-4ab74cb12d4b","system_id":"levelo_inurba_marseille","lat":43.28715,"lon":5.37944,"is_reserved":false,"is_disabled":false,"rental_uris":{"android":"levelo://app?vid=ce785872-7f60-4cba-93ea-4ab74cb12d4b","ios":"levelo://app?vid=ce785872-7f60-4cba-93ea-4ab74cb12d4b"},"vehicle_type_id":"4","last_reported":1739455739,"current_range_meters":9600,"station_id":"ce4bh9p2rcd13ifvqec0","pricing_plan_id":"cebpf4jnsgd1na2vs0mg"},{"bike_id":"4450d397-c7c4-4c68-aed9-fa811598c082","system_id":"levelo_inurba_marseille","lat":43.32553,"lon":5.3648,"is_reserved":false,"is_disabled":false,"rental_uris":{"android":"levelo://app?vid=4450d397-c7c4-4c68-aed9-fa811598c082","ios":"levelo://app?vid=4450d397-c7c4-4c68-aed9-fa811598c082"},"vehicle_type_id":"4","last_reported":1739455739,"current_range_meters":36800,"station_id":"","pricing_plan_id":"cebpf4jnsgd1na2vs0mg"},{"bike_id":"1baab903-2026-4726-99eb-a9de546ae1ea","system_id":"levelo_inurba_marseille","lat":43.30542,"lon":5.36688,"is_reserved":false,"is_disabled":false,"rental_uris":{"android":"levelo://app?vid=1baab903-2026-4726-99eb-a9de546ae1ea","ios":"levelo://app?vid=1baab903-2026-4726-99eb-a9de546ae1ea"},"vehicle_type_id":"4","last_reported":1739455739,"current_range_meters":38800,"station_id":"ce4bgrp2rcd13ifvqc9g","pricing_plan_id":"cebpf4jnsgd1na2vs0mg"},{"bike_id":"560a096a-69d8-4507-9fa0-36964492c190","system_id":"levelo_inurba_marseille","lat":43.29044,"lon":5.3592,"is_reserved":false,"is_disabled":false,"rental_uris":{"android":"levelo://app?vid=560a096a-69d8-4507-9fa0-36964492c190","ios":"levelo://app?vid=560a096a-69d8-4507-9fa0-36964492c190"},"vehicle_type_id":"4","last_reported":1739455739,"current_range_meters":38800,"station_id":"ce4bha92rcd13ifvqeg0","pricing_plan_id":"cebpf4jnsgd1na2vs0mg"},{"bike_id":"41f3b5dd-2431-443e-ba42-c63be2b0fd93","system_id":"levelo_inurba_marseille","lat":43.27372,"lon":5.36252,"is_reserved":false,"is_disabled":false,"rental_uris":{"android":"levelo://app?vid=41f3b5dd-2431-443e-ba42-c63be2b0fd93","ios":"levelo://app?vid=41f3b5dd-2431-443e-ba42-c63be2b0fd93"},"vehicle_type_id":"4","last_reported":1739455739,"current_range_meters":36400,"station_id":"ce4bhbh2rcd13ifvqeo0","pricing_plan_id":"cebpf4jnsgd1na2vs0mg"},{"bike_id":"04e79b02-26b7-408e-8d07-a04361b8a27a","system_id":"levelo_inurba_marseille","lat":43.23176,"lon":5.39993,"is_reserved":false,"is_disabled":false,"rental_uris":{"android":"levelo://app?vid=04e79b02-26b7-408e-8d07-a04361b8a27a","ios":"levelo://app?vid=04e79b02-26b7-408e-8d07-a04361b8a27a"},"vehicle_type_id":"4","last_reported":1739455739,"current_range_meters":38800,"station_id":"ce4bhn12rcd13ifvqgqg","pricing_plan_id":"cebpf4jnsgd1na2vs0mg"},{"bike_id":"ee56d2db-50d2-4685-83b7-8f29af81bb7b","system_id":"levelo_inurba_marseille","lat":43.29919,"lon":5.37486,"is_reserved":false,"is_disabled":false,"rental_uris":{"android":"levelo://app?vid=ee56d2db-50d2-4685-83b7-8f29af81bb7b","ios":"levelo://app?vid=ee56d2db-50d2-4685-83b7-8f29af81bb7b"},"vehicle_type_id":"4","last_reported":1739455739,"current_range_meters":8800,"station_id":"ce4bgjh2rcd13ifvqbg0","pricing_plan_id":"cebpf4jnsgd1na2vs0mg"},{"bike_id":"f069e427-6164-49b3-a6ab-e71eaa4644e5","system_id":"levelo_inurba_marseille","lat":43.28636,"lon":5.35102,"is_reserved":false,"is_disabled":false,"rental_uris":{"android":"levelo://app?vid=f069e427-6164-49b3-a6ab-e71eaa4644e5","ios":"levelo://app?vid=f069e427-6164-49b3-a6ab-e71eaa4644e5"},"vehicle_type_id":"4","last_reported":1739455739,"current_range_meters":38800,"station_id":"ce4bhch2rcd13ifvqeug","pricing_plan_id":"cebpf4jnsgd1na2vs0mg"},{"bike_id":"361a6e8d-047a-4b8b-81b6-6ac778745881","system_id":"levelo_inurba_marseille","lat":43.30554,"lon":5.36545,"is_reserved":false,"is_disabled":false,"rental_uris":{"android":"levelo://app?vid=361a6e8d-047a-4b8b-81b6-6ac778745881","ios":"levelo://app?vid=361a6e8d-047a-4b8b-81b6-6ac778745881"},"vehicle_type_id":"4","last_reported":1739455739,"current_range_meters":27200,"station_id":"ce4bgs12rcd13ifvqcag","pricing_plan_id":"cebpf4jnsgd1na2vs0mg"},{"bike_id":"7d4c2fd4-95c7-4bbd-b767-d47d40112c4f","system_id":"levelo_inurba_marseille","lat":43.27213,"lon":5.39194,"is_reserved":false,"is_disabled":false,"rental_uris":{"android":"levelo://app?vid=7d4c2fd4-95c7-4bbd-b767-d47d40112c4f","ios":"levelo://app?vid=7d4c2fd4-95c7-4bbd-b767-d47d40112c4f"},"vehicle_type_id":"4","last_reported":1739455739,"current_range_meters":38800,"station_id":"ce4bhhp2rcd13ifvqfm0","pricing_plan_id":"cebpf4jnsgd1na2vs0mg"},{"bike_id":"51c4e3a8-2172-4b7d-8e51-4493ba7214bb","system_id":"levelo_inurba_marseille","lat":43.30909,"lon":5.36864,"is_reserved":false,"is_disabled":false,"rental_uris":{"android":"levelo://app?vid=51c4e3a8-2172-4b7d-8e51-4493ba7214bb","ios":"levelo://app?vid=51c4e3a8-2172-4b7d-8e51-4493ba7214bb"},"vehicle_type_id":"4","last_reported":1739455739,"current_range_meters":39200,"station_id":"ce4bgn92rcd13ifvqbvg","pricing_plan_id":"cebpf4jnsgd1na2vs0mg"},{"bike_id":"7705324e-dd3d-4a92-a560-9ff863a19382","system_id":"levelo_inurba_marseille","lat":43.30128,"lon":5.37433,"is_reserved":false,"is_disabled":false,"rental_uris":{"android":"levelo://app?vid=7705324e-dd3d-4a92-a560-9ff863a19382","ios":"levelo://app?vid=7705324e-dd3d-4a92-a560-9ff863a19382"},"vehicle_type_id":"4","last_reported":1739455739,"current_range_meters":38800,"station_id":"ce4bgs92rcd13ifvqcc0","pricing_plan_id":"cebpf4jnsgd1na2vs0mg"},{"bike_id":"51beaca1-d8dc-4713-b17d-490c01afb764","system_id":"levelo_inurba_marseille","lat":43.26941,"lon":5.40244,"is_reserved":false,"is_disabled":false,"rental_uris":{"android":"levelo://app?vid=51beaca1-d8dc-4713-b17d-490c01afb764","ios":"levelo://app?vid=51beaca1-d8dc-4713-b17d-490c01afb764"},"vehicle_type_id":"4","last_reported":1739455739,"current_range_meters":24800,"station_id":"cjm6bp8fraef2m0cb0m0","pricing_plan_id":"cebpf4jnsgd1na2vs0mg"},{"bike_id":"52591901-7075-4154-8ec9-0dfca05a1446","system_id":"levelo_inurba_marseille","lat":43.32481,"lon":5.36563,"is_reserved":false,"is_disabled":false,"rental_uris":{"android":"levelo://app?vid=52591901-7075-4154-8ec9-0dfca05a1446","ios":"levelo://app?vid=52591901-7075-4154-8ec9-0dfca05a1446"},"vehicle_type_id":"4","last_reported":1739455739,"current_range_meters":38800,"station_id":"ce4bhs12rcd13ifvqhvg","pricing_plan_id":"cebpf4jnsgd1na2vs0mg"},{"bike_id":"c30f1f25-d36c-46b1-8642-9c047b4735bb","system_id":"levelo_inurba_marseille","lat":43.24384,"lon":5.37055,"is_reserved":false,"is_disabled":false,"rental_uris":{"android":"levelo://app?vid=c30f1f25-d36c-46b1-8642-9c047b4735bb","ios":"levelo://app?vid=c30f1f25-d36c-46b1-8642-9c047b4735bb"},"vehicle_type_id":"4","last_reported":1739455739,"current_range_meters":32000,"station_id":"ce4bhhh2rcd13ifvqfk0","pricing_plan_id":"cebpf4jnsgd1na2vs0mg"},{"bike_id":"43b6f948-f371-4215-9253-44a0b7606323","system_id":"levelo_inurba_marseille","lat":43.25114,"lon":5.40322,"is_reserved":false,"is_disabled":false,"rental_uris":{"android":"levelo://app?vid=43b6f948-f371-4215-9253-44a0b7606323","ios":"levelo://app?vid=43b6f948-f371-4215-9253-44a0b7606323"},"vehicle_type_id":"4","last_reported":1739455739,"current_range_meters":38800,"station_id":"ce4bhlh2rcd13ifvqgig","pricing_plan_id":"cebpf4jnsgd1na2vs0mg"},{"bike_id":"72f360d9-d19c-4d29-920b-54b9c1bdf4a5","system_id":"levelo_inurba_marseille","lat":43.30544,"lon":5.36704,"is_reserved":false,"is_disabled":false,"rental_uris":{"android":"levelo://app?vid=72f360d9-d19c-4d29-920b-54b9c1bdf4a5","ios":"levelo://app?vid=72f360d9-d19c-4d29-920b-54b9c1bdf4a5"},"vehicle_type_id":"4","last_reported":1739455739,"current_range_meters":30000,"station_id":"ce4bgrp2rcd13ifvqc9g","pricing_plan_id":"cebpf4jnsgd1na2vs0mg"},{"bike_id":"ca60b2af-cce7-4290-adcc-eaec354c2c93","system_id":"levelo_inurba_marseille","lat":43.24966,"lon":5.38958,"is_reserved":false,"is_disabled":false,"rental_uris":{"android":"levelo://app?vid=ca60b2af-cce7-4290-adcc-eaec354c2c93","ios":"levelo://app?vid=ca60b2af-cce7-4290-adcc-eaec354c2c93"},"vehicle_type_id":"4","last_reported":1739455739,"current_range_meters":22800,"station_id":"ce4bhgp2rcd13ifvqfd0","pricing_plan_id":"cebpf4jnsgd1na2vs0mg"},{"bike_id":"b4a7929d-514f-4aa3-bbef-aaa7a3b2e53b","system_id":"levelo_inurba_marseille","lat":43.23154,"lon":5.43701,"is_reserved":false,"is_disabled":false,"rental_uris":{"android":"levelo://app?vid=b4a7929d-514f-4aa3-bbef-aaa7a3b2e53b","ios":"levelo://app?vid=b4a7929d-514f-4aa3-bbef-aaa7a3b2e53b"},"vehicle_type_id":"4","last_reported":1739455739,"current_range_meters":6400,"station_id":"ce4bhmp2rcd13ifvqgog","pricing_plan_id":"cebpf4jnsgd1na2vs0mg"},{"bike_id":"47361b5e-91a3-49d0-950e-713aec3b5ffe","system_id":"levelo_inurba_marseille","lat":43.31759,"lon":5.39014,"is_reserved":false,"is_disabled":false,"rental_uris":{"android":"levelo://app?vid=47361b5e-91a3-49d0-950e-713aec3b5ffe","ios":"levelo://app?vid=47361b5e-91a3-49d0-950e-713aec3b5ffe"},"vehicle_type_id":"4","last_reported":1739455739,"current_range_meters":15200,"station_id":"ce4bhqp2rcd13ifvqhng","pricing_plan_id":"cebpf4jnsgd1na2vs0mg"},{"bike_id":"54ce597b-1ca1-4d62-923d-d4b29eec04b3","system_id":"levelo_inurba_marseille","lat":43.31131,"lon":5.38261,"is_reserved":false,"is_disabled":false,"rental_uris":{"android":"levelo://app?vid=54ce597b-1ca1-4d62-923d-d4b29eec04b3","ios":"levelo://app?vid=54ce597b-1ca1-4d62-923d-d4b29eec04b3"},"vehicle_type_id":"4","last_reported":1739455739,"current_range_meters":10000,"station_id":"","pricing_plan_id":"cebpf4jnsgd1na2vs0mg"},{"bike_id":"3410c636-1bd9-48e4-988e-2eddafd7cc67","system_id":"levelo_inurba_marseille","lat":43.27921,"lon":5.41081,"is_reserved":false,"is_disabled":false,"rental_uris":{"android":"levelo://app?vid=3410c636-1bd9-48e4-988e-2eddafd7cc67","ios":"levelo://app?vid=3410c636-1bd9-48e4-988e-2eddafd7cc67"},"vehicle_type_id":"4","last_reported":1739455739,"current_range_meters":9600,"station_id":"ce4bhnp2rcd13ifvqh0g","pricing_plan_id":"cebpf4jnsgd1na2vs0mg"},{"bike_id":"82cc7838-4b5a-40fa-9f35-ce1cd1ae67e1","system_id":"levelo_inurba_marseille","lat":43.30009,"lon":5.37285,"is_reserved":false,"is_disabled":false,"rental_uris":{"android":"levelo://app?vid=82cc7838-4b5a-40fa-9f35-ce1cd1ae67e1","ios":"levelo://app?vid=82cc7838-4b5a-40fa-9f35-ce1cd1ae67e1"},"vehicle_type_id":"4","last_reported":1739455739,"current_range_meters":25200,"station_id":"","pricing_plan_id":"cebpf4jnsgd1na2vs0mg"},{"bike_id":"1f552d8b-822c-4dd7-8bde-e3bf1ddaf7f5","system_id":"levelo_inurba_marseille","lat":43.25009,"lon":5.38905,"is_reserved":false,"is_disabled":false,"rental_uris":{"android":"levelo://app?vid=1f552d8b-822c-4dd7-8bde-e3bf1ddaf7f5","ios":"levelo://app?vid=1f552d8b-822c-4dd7-8bde-e3bf1ddaf7f5"},"vehicle_type_id":"4","last_reported":1739455739,"current_range_meters":16400,"station_id":"ce4bhgp2rcd13ifvqfd0","pricing_plan_id":"cebpf4jnsgd1na2vs0mg"},{"bike_id":"1b877c44-e991-4a47-9e7c-61c0d04b91c4","system_id":"levelo_inurba_marseille","lat":43.30137,"lon":5.38777,"is_reserved":false,"is_disabled":false,"rental_uris":{"android":"levelo://app?vid=1b877c44-e991-4a47-9e7c-61c0d04b91c4","ios":"levelo://app?vid=1b877c44-e991-4a47-9e7c-61c0d04b91c4"},"vehicle_type_id":"4","last_reported":1739455739,"current_range_meters":36800,"station_id":"ce4bhoh2rcd13ifvqh6g","pricing_plan_id":"cebpf4jnsgd1na2vs0mg"},{"bike_id":"58a923a1-50e5-4bcc-a5c7-59fd5ea18680","system_id":"levelo_inurba_marseille","lat":43.23144,"lon":5.43704,"is_reserved":false,"is_disabled":false,"rental_uris":{"android":"levelo://app?vid=58a923a1-50e5-4bcc-a5c7-59fd5ea18680","ios":"levelo://app?vid=58a923a1-50e5-4bcc-a5c7-59fd5ea18680"},"vehicle_type_id":"4","last_reported":1739455739,"current_range_meters":14800,"station_id":"ce4bhmp2rcd13ifvqgog","pricing_plan_id":"cebpf4jnsgd1na2vs0mg"},{"bike_id":"ae8861f8-c08f-4f77-8407-d5e8e57c5415","system_id":"levelo_inurba_marseille","lat":43.28927,"lon":5.38405,"is_reserved":false,"is_disabled":false,"rental_uris":{"android":"levelo://app?vid=ae8861f8-c08f-4f77-8407-d5e8e57c5415","ios":"levelo://app?vid=ae8861f8-c08f-4f77-8407-d5e8e57c5415"},"vehicle_type_id":"4","last_reported":1739455739,"current_range_meters":38400,"station_id":"ce4bh612rcd13ifvqe6g","pricing_plan_id":"cebpf4jnsgd1na2vs0mg"},{"bike_id":"3bfafe81-22be-4ef8-830c-9d59c43eb6b0","system_id":"levelo_inurba_marseille","lat":43.28412,"lon":5.34985,"is_reserved":false,"is_disabled":false,"rental_uris":{"android":"levelo://app?vid=3bfafe81-22be-4ef8-830c-9d59c43eb6b0","ios":"levelo://app?vid=3bfafe81-22be-4ef8-830c-9d59c43eb6b0"},"vehicle_type_id":"4","last_reported":1739455739,"current_range_meters":17600,"station_id":"ce4bhbh2rcd13ifvqepg","pricing_plan_id":"cebpf4jnsgd1na2vs0mg"},{"bike_id":"d594772c-f06c-42db-b4eb-8c17a4b3b2bd","system_id":"levelo_inurba_marseille","lat":43.29623,"lon":5.37159,"is_reserved":false,"is_disabled":false,"rental_uris":{"android":"levelo://app?vid=d594772c-f06c-42db-b4eb-8c17a4b3b2bd","ios":"levelo://app?vid=d594772c-f06c-42db-b4eb-8c17a4b3b2bd"},"vehicle_type_id":"4","last_reported":1739455739,"current_range_meters":31200,"station_id":"ce4bgnh2rcd13ifvqc0g","pricing_plan_id":"cebpf4jnsgd1na2vs0mg"},{"bike_id":"5f48bdae-049e-4408-bc07-dbe4fc0e6823","system_id":"levelo_inurba_marseille","lat":43.31223,"lon":5.36886,"is_reserved":false,"is_disabled":false,"rental_uris":{"android":"levelo://app?vid=5f48bdae-049e-4408-bc07-dbe4fc0e6823","ios":"levelo://app?vid=5f48bdae-049e-4408-bc07-dbe4fc0e6823"},"vehicle_type_id":"4","last_reported":1739455739,"current_range_meters":25600,"station_id":"ce4bgl92rcd13ifvqbq0","pricing_plan_id":"cebpf4jnsgd1na2vs0mg"},{"bike_id":"72b5d24e-489a-4b8b-a9ca-23b3954596e6","system_id":"levelo_inurba_marseille","lat":43.27668,"lon":5.38883,"is_reserved":false,"is_disabled":false,"rental_uris":{"android":"levelo://app?vid=72b5d24e-489a-4b8b-a9ca-23b3954596e6","ios":"levelo://app?vid=72b5d24e-489a-4b8b-a9ca-23b3954596e6"},"vehicle_type_id":"4","last_reported":1739455739,"current_range_meters":30000,"station_id":"ce4bhi12rcd13ifvqfo0","pricing_plan_id":"cebpf4jnsgd1na2vs0mg"},{"bike_id":"77aee0d0-bf5a-49cf-8e54-1a0b435677a7","system_id":"levelo_inurba_marseille","lat":43.2952,"lon":5.37511,"is_reserved":false,"is_disabled":true,"rental_uris":{"android":"levelo://app?vid=77aee0d0-bf5a-49cf-8e54-1a0b435677a7","ios":"levelo://app?vid=77aee0d0-bf5a-49cf-8e54-1a0b435677a7"},"vehicle_type_id":"4","last_reported":1739455739,"current_range_meters":0,"station_id":"ce4bgkp2rcd13ifvqbmg","pricing_plan_id":"cebpf4jnsgd1na2vs0mg"},{"bike_id":"5a88579c-17b2-490d-84e1-90b48c9fd073","system_id":"levelo_inurba_marseille","lat":43.30552,"lon":5.3648,"is_reserved":false,"is_disabled":false,"rental_uris":{"android":"levelo://app?vid=5a88579c-17b2-490d-84e1-90b48c9fd073","ios":"levelo://app?vid=5a88579c-17b2-490d-84e1-90b48c9fd073"},"vehicle_type_id":"4","last_reported":1739455739,"current_range_meters":38800,"station_id":"ce4bgs12rcd13ifvqcag","pricing_plan_id":"cebpf4jnsgd1na2vs0mg"},{"bike_id":"58ca8d36-3abf-4f9b-bf3f-e62ed0e7a978","system_id":"levelo_inurba_marseille","lat":43.23962,"lon":5.36618,"is_reserved":false,"is_disabled":false,"rental_uris":{"android":"levelo://app?vid=58ca8d36-3abf-4f9b-bf3f-e62ed0e7a978","ios":"levelo://app?vid=58ca8d36-3abf-4f9b-bf3f-e62ed0e7a978"},"vehicle_type_id":"4","last_reported":1739455739,"current_range_meters":28800,"station_id":"ce4bhi12rcd13ifvqfp0","pricing_plan_id":"cebpf4jnsgd1na2vs0mg"},{"bike_id":"ba41c089-3c4d-43d4-a16f-a7a9a29b9bdd","system_id":"levelo_inurba_marseille","lat":43.25335,"lon":5.37604,"is_reserved":false,"is_disabled":false,"rental_uris":{"android":"levelo://app?vid=ba41c089-3c4d-43d4-a16f-a7a9a29b9bdd","ios":"levelo://app?vid=ba41c089-3c4d-43d4-a16f-a7a9a29b9bdd"},"vehicle_type_id":"4","last_reported":1739455739,"current_range_meters":38000,"station_id":"","pricing_plan_id":"cebpf4jnsgd1na2vs0mg"},{"bike_id":"a5e05657-b076-4d0b-9803-d4951b31ad41","system_id":"levelo_inurba_marseille","lat":43.30144,"lon":5.3742,"is_reserved":false,"is_disabled":false,"rental_uris":{"android":"levelo://app?vid=a5e05657-b076-4d0b-9803-d4951b31ad41","ios":"levelo://app?vid=a5e05657-b076-4d0b-9803-d4951b31ad41"},"vehicle_type_id":"4","last_reported":1739455739,"current_range_meters":37600,"station_id":"ce4bgs92rcd13ifvqcc0","pricing_plan_id":"cebpf4jnsgd1na2vs0mg"},{"bike_id":"d157203c-3a5b-4bbc-9638-6eefce740d5e","system_id":"levelo_inurba_marseille","lat":43.23183,"lon":5.35557,"is_reserved":false,"is_disabled":false,"rental_uris":{"android":"levelo://app?vid=d157203c-3a5b-4bbc-9638-6eefce740d5e","ios":"levelo://app?vid=d157203c-3a5b-4bbc-9638-6eefce740d5e"},"vehicle_type_id":"4","last_reported":1739455739,"current_range_meters":30800,"station_id":"ce4bhu92rcd13ifvqi70","pricing_plan_id":"cebpf4jnsgd1na2vs0mg"},{"bike_id":"9acb5333-5cf1-494e-915f-5f562bae0853","system_id":"levelo_inurba_marseille","lat":43.33726,"lon":5.39177,"is_reserved":false,"is_disabled":false,"rental_uris":{"android":"levelo://app?vid=9acb5333-5cf1-494e-915f-5f562bae0853","ios":"levelo://app?vid=9acb5333-5cf1-494e-915f-5f562bae0853"},"vehicle_type_id":"4","last_reported":1739455739,"current_range_meters":38400,"station_id":"ce4bhr92rcd13ifvqhsg","pricing_plan_id":"cebpf4jnsgd1na2vs0mg"},{"bike_id":"16116ee6-ef49-4a30-8f9a-f8037afa1ea8","system_id":"levelo_inurba_marseille","lat":43.29849,"lon":5.36284,"is_reserved":false,"is_disabled":false,"rental_uris":{"android":"levelo://app?vid=16116ee6-ef49-4a30-8f9a-f8037afa1ea8","ios":"levelo://app?vid=16116ee6-ef49-4a30-8f9a-f8037afa1ea8"},"vehicle_type_id":"4","last_reported":1739455739,"current_range_meters":8800,"station_id":"ce4bgpp2rcd13ifvqc3g","pricing_plan_id":"cebpf4jnsgd1na2vs0mg"},{"bike_id":"937d3cc1-6add-4982-aebd-f6966441a674","system_id":"levelo_inurba_marseille","lat":43.23193,"lon":5.35553,"is_reserved":false,"is_disabled":true,"rental_uris":{"android":"levelo://app?vid=937d3cc1-6add-4982-aebd-f6966441a674","ios":"levelo://app?vid=937d3cc1-6add-4982-aebd-f6966441a674"},"vehicle_type_id":"4","last_reported":1739455739,"current_range_meters":0,"station_id":"ce4bhu92rcd13ifvqi70","pricing_plan_id":"cebpf4jnsgd1na2vs0mg"},{"bike_id":"6b37a3a5-913b-453e-bcdc-94f4c46f0186","system_id":"levelo_inurba_marseille","lat":43.27372,"lon":5.36256,"is_reserved":false,"is_disabled":false,"rental_uris":{"android":"levelo://app?vid=6b37a3a5-913b-453e-bcdc-94f4c46f0186","ios":"levelo://app?vid=6b37a3a5-913b-453e-bcdc-94f4c46f0186"},"vehicle_type_id":"4","last_reported":1739455739,"current_range_meters":32000,"station_id":"ce4bhbh2rcd13ifvqeo0","pricing_plan_id":"cebpf4jnsgd1na2vs0mg"},{"bike_id":"2c18c95b-638f-4a7c-985d-fe31cce71267","system_id":"levelo_inurba_marseille","lat":43.23154,"lon":5.43698,"is_reserved":false,"is_disabled":false,"rental_uris":{"android":"levelo://app?vid=2c18c95b-638f-4a7c-985d-fe31cce71267","ios":"levelo://app?vid=2c18c95b-638f-4a7c-985d-fe31cce71267"},"vehicle_type_id":"4","last_reported":1739455739,"current_range_meters":27600,"station_id":"ce4bhmp2rcd13ifvqgog","pricing_plan_id":"cebpf4jnsgd1na2vs0mg"},{"bike_id":"22357605-22f9-4c7f-a011-3059b1fea57b","system_id":"levelo_inurba_marseille","lat":43.24648,"lon":5.38902,"is_reserved":false,"is_disabled":false,"rental_uris":{"android":"levelo://app?vid=22357605-22f9-4c7f-a011-3059b1fea57b","ios":"levelo://app?vid=22357605-22f9-4c7f-a011-3059b1fea57b"},"vehicle_type_id":"4","last_reported":1739455739,"current_range_meters":39200,"station_id":"ce4bhg12rcd13ifvqf60","pricing_plan_id":"cebpf4jnsgd1na2vs0mg"},{"bike_id":"25622700-94cb-40a3-84b5-b0015e736e5e","system_id":"levelo_inurba_marseille","lat":43.27359,"lon":5.36257,"is_reserved":false,"is_disabled":false,"rental_uris":{"android":"levelo://app?vid=25622700-94cb-40a3-84b5-b0015e736e5e","ios":"levelo://app?vid=25622700-94cb-40a3-84b5-b0015e736e5e"},"vehicle_type_id":"4","last_reported":1739455739,"current_range_meters":9200,"station_id":"ce4bhbh2rcd13ifvqeo0","pricing_plan_id":"cebpf4jnsgd1na2vs0mg"},{"bike_id":"1d80fe1f-e2b5-4fb6-85f1-0ebcb6409a74","system_id":"levelo_inurba_marseille","lat":43.29522,"lon":5.37517,"is_reserved":false,"is_disabled":false,"rental_uris":{"android":"levelo://app?vid=1d80fe1f-e2b5-4fb6-85f1-0ebcb6409a74","ios":"levelo://app?vid=1d80fe1f-e2b5-4fb6-85f1-0ebcb6409a74"},"vehicle_type_id":"4","last_reported":1739455739,"current_range_meters":25200,"station_id":"ce4bgkp2rcd13ifvqbmg","pricing_plan_id":"cebpf4jnsgd1na2vs0mg"},{"bike_id":"31f84ddc-bf3b-4d1c-9d83-4ffb586bc67a","system_id":"levelo_inurba_marseille","lat":43.32104,"lon":5.36751,"is_reserved":false,"is_disabled":false,"rental_uris":{"android":"levelo://app?vid=31f84ddc-bf3b-4d1c-9d83-4ffb586bc67a","ios":"levelo://app?vid=31f84ddc-bf3b-4d1c-9d83-4ffb586bc67a"},"vehicle_type_id":"4","last_reported":1739455739,"current_range_meters":36800,"station_id":"ce4bhrh2rcd13ifvqhug","pricing_plan_id":"cebpf4jnsgd1na2vs0mg"},{"bike_id":"95bea59d-9508-4e5c-9462-a6eb2b05c299","system_id":"levelo_inurba_marseille","lat":43.32808,"lon":5.43378,"is_reserved":false,"is_disabled":false,"rental_uris":{"android":"levelo://app?vid=95bea59d-9508-4e5c-9462-a6eb2b05c299","ios":"levelo://app?vid=95bea59d-9508-4e5c-9462-a6eb2b05c299"},"vehicle_type_id":"4","last_reported":1739455739,"current_range_meters":36400,"station_id":"","pricing_plan_id":"cebpf4jnsgd1na2vs0mg"},{"bike_id":"f2c326c8-4236-4cde-ae4d-16b29e8deb28","system_id":"levelo_inurba_marseille","lat":43.28617,"lon":5.35109,"is_reserved":false,"is_disabled":false,"rental_uris":{"android":"levelo://app?vid=f2c326c8-4236-4cde-ae4d-16b29e8deb28","ios":"levelo://app?vid=f2c326c8-4236-4cde-ae4d-16b29e8deb28"},"vehicle_type_id":"4","last_reported":1739455739,"current_range_meters":4800,"station_id":"ce4bhch2rcd13ifvqeug","pricing_plan_id":"cebpf4jnsgd1na2vs0mg"},{"bike_id":"70fde069-53a0-4187-a50f-31f9650a6680","system_id":"levelo_inurba_marseille","lat":43.29605,"lon":5.38098,"is_reserved":false,"is_disabled":false,"rental_uris":{"android":"levelo://app?vid=70fde069-53a0-4187-a50f-31f9650a6680","ios":"levelo://app?vid=70fde069-53a0-4187-a50f-31f9650a6680"},"vehicle_type_id":"4","last_reported":1739455739,"current_range_meters":26800,"station_id":"ce4bgl12rcd13ifvqbo0","pricing_plan_id":"cebpf4jnsgd1na2vs0mg"},{"bike_id":"c8dd3b09-543d-4272-8d5e-a2fc828a5c68","system_id":"levelo_inurba_marseille","lat":43.26562,"lon":5.37321,"is_reserved":false,"is_disabled":false,"rental_uris":{"android":"levelo://app?vid=c8dd3b09-543d-4272-8d5e-a2fc828a5c68","ios":"levelo://app?vid=c8dd3b09-543d-4272-8d5e-a2fc828a5c68"},"vehicle_type_id":"4","last_reported":1739455739,"current_range_meters":36000,"station_id":"ce4bhg12rcd13ifvqf70","pricing_plan_id":"cebpf4jnsgd1na2vs0mg"},{"bike_id":"b539a748-8199-43e7-83f3-9ebe36862717","system_id":"levelo_inurba_marseille","lat":43.27366,"lon":5.3625,"is_reserved":false,"is_disabled":false,"rental_uris":{"android":"levelo://app?vid=b539a748-8199-43e7-83f3-9ebe36862717","ios":"levelo://app?vid=b539a748-8199-43e7-83f3-9ebe36862717"},"vehicle_type_id":"4","last_reported":1739455739,"current_range_meters":30400,"station_id":"ce4bhbh2rcd13ifvqeo0","pricing_plan_id":"cebpf4jnsgd1na2vs0mg"},{"bike_id":"b927d3b6-dab4-4b7f-ba24-f89832514483","system_id":"levelo_inurba_marseille","lat":43.3172,"lon":5.42395,"is_reserved":false,"is_disabled":false,"rental_uris":{"android":"levelo://app?vid=b927d3b6-dab4-4b7f-ba24-f89832514483","ios":"levelo://app?vid=b927d3b6-dab4-4b7f-ba24-f89832514483"},"vehicle_type_id":"4","last_reported":1739455739,"current_range_meters":12400,"station_id":"ce4bhp92rcd13ifvqhbg","pricing_plan_id":"cebpf4jnsgd1na2vs0mg"},{"bike_id":"a9340757-2713-405e-9bd7-debf3e2d5631","system_id":"levelo_inurba_marseille","lat":43.282873,"lon":5.350707,"is_reserved":false,"is_disabled":false,"rental_uris":{"android":"levelo://app?vid=a9340757-2713-405e-9bd7-debf3e2d5631","ios":"levelo://app?vid=a9340757-2713-405e-9bd7-debf3e2d5631"},"vehicle_type_id":"4","last_reported":1739455739,"current_range_meters":38800,"station_id":"ce4bhbp2rcd13ifvqerg","pricing_plan_id":"cebpf4jnsgd1na2vs0mg"},{"bike_id":"28afc320-c150-4a7a-b456-fa950f10fb4c","system_id":"levelo_inurba_marseille","lat":43.33605,"lon":5.4099,"is_reserved":false,"is_disabled":false,"rental_uris":{"android":"levelo://app?vid=28afc320-c150-4a7a-b456-fa950f10fb4c","ios":"levelo://app?vid=28afc320-c150-4a7a-b456-fa950f10fb4c"},"vehicle_type_id":"4","last_reported":1739455739,"current_range_meters":38000,"station_id":"ce4bhqh2rcd13ifvqhmg","pricing_plan_id":"cebpf4jnsgd1na2vs0mg"},{"bike_id":"211363a9-081b-401f-b0c6-364ac6457ebd","system_id":"levelo_inurba_marseille","lat":43.24385,"lon":5.37043,"is_reserved":false,"is_disabled":false,"rental_uris":{"android":"levelo://app?vid=211363a9-081b-401f-b0c6-364ac6457ebd","ios":"levelo://app?vid=211363a9-081b-401f-b0c6-364ac6457ebd"},"vehicle_type_id":"4","last_reported":1739455739,"current_range_meters":38800,"station_id":"ce4bhhh2rcd13ifvqfk0","pricing_plan_id":"cebpf4jnsgd1na2vs0mg"},{"bike_id":"3841effa-dbb2-472c-b767-13609eee5148","system_id":"levelo_inurba_marseille","lat":43.2465,"lon":5.38891,"is_reserved":false,"is_disabled":false,"rental_uris":{"android":"levelo://app?vid=3841effa-dbb2-472c-b767-13609eee5148","ios":"levelo://app?vid=3841effa-dbb2-472c-b767-13609eee5148"},"vehicle_type_id":"4","last_reported":1739455739,"current_range_meters":36400,"station_id":"ce4bhg12rcd13ifvqf60","pricing_plan_id":"cebpf4jnsgd1na2vs0mg"},{"bike_id":"35bbaeb8-0185-4674-aaf9-868bf4b0801b","system_id":"levelo_inurba_marseille","lat":43.28928,"lon":5.39643,"is_reserved":false,"is_disabled":false,"rental_uris":{"android":"levelo://app?vid=35bbaeb8-0185-4674-aaf9-868bf4b0801b","ios":"levelo://app?vid=35bbaeb8-0185-4674-aaf9-868bf4b0801b"},"vehicle_type_id":"4","last_reported":1739455739,"current_range_meters":27200,"station_id":"ce4bh3h2rcd13ifvqdn0","pricing_plan_id":"cebpf4jnsgd1na2vs0mg"},{"bike_id":"7e0c64f4-000f-4802-a8da-93484b2556f0","system_id":"levelo_inurba_marseille","lat":43.29194,"lon":5.39319,"is_reserved":false,"is_disabled":false,"rental_uris":{"android":"levelo://app?vid=7e0c64f4-000f-4802-a8da-93484b2556f0","ios":"levelo://app?vid=7e0c64f4-000f-4802-a8da-93484b2556f0"},"vehicle_type_id":"4","last_reported":1739455739,"current_range_meters":11600,"station_id":"ce4bh192rcd13ifvqdd0","pricing_plan_id":"cebpf4jnsgd1na2vs0mg"},{"bike_id":"b87420df-fa69-4480-934a-89e1965d4b5d","system_id":"levelo_inurba_marseille","lat":43.26556,"lon":5.39015,"is_reserved":false,"is_disabled":false,"rental_uris":{"android":"levelo://app?vid=b87420df-fa69-4480-934a-89e1965d4b5d","ios":"levelo://app?vid=b87420df-fa69-4480-934a-89e1965d4b5d"},"vehicle_type_id":"4","last_reported":1739455739,"current_range_meters":18800,"station_id":"ce4bhe12rcd13ifvqf30","pricing_plan_id":"cebpf4jnsgd1na2vs0mg"},{"bike_id":"fe09c803-e52a-4b08-a1e6-6c71d9f99b5a","system_id":"levelo_inurba_marseille","lat":43.2962,"lon":5.37163,"is_reserved":false,"is_disabled":false,"rental_uris":{"android":"levelo://app?vid=fe09c803-e52a-4b08-a1e6-6c71d9f99b5a","ios":"levelo://app?vid=fe09c803-e52a-4b08-a1e6-6c71d9f99b5a"},"vehicle_type_id":"4","last_reported":1739455739,"current_range_meters":34000,"station_id":"","pricing_plan_id":"cebpf4jnsgd1na2vs0mg"},{"bike_id":"c6e9a573-dc9e-484a-8ec7-25a4170eb03e","system_id":"levelo_inurba_marseille","lat":43.26191,"lon":5.374475,"is_reserved":false,"is_disabled":true,"rental_uris":{"android":"levelo://app?vid=c6e9a573-dc9e-484a-8ec7-25a4170eb03e","ios":"levelo://app?vid=c6e9a573-dc9e-484a-8ec7-25a4170eb03e"},"vehicle_type_id":"4","last_reported":1739455739,"current_range_meters":0,"station_id":"ce4bhgp2rcd13ifvqfc0","pricing_plan_id":"cebpf4jnsgd1na2vs0mg"},{"bike_id":"61e1386d-22a9-4fd1-bc94-220a8702435b","system_id":"levelo_inurba_marseille","lat":43.28072,"lon":5.37825,"is_reserved":false,"is_disabled":false,"rental_uris":{"android":"levelo://app?vid=61e1386d-22a9-4fd1-bc94-220a8702435b","ios":"levelo://app?vid=61e1386d-22a9-4fd1-bc94-220a8702435b"},"vehicle_type_id":"4","last_reported":1739455739,"current_range_meters":38400,"station_id":"ce4bha12rcd13ifvqee0","pricing_plan_id":"cebpf4jnsgd1na2vs0mg"},{"bike_id":"ce261170-dcbf-468d-99cb-0a298fa2f8b6","system_id":"levelo_inurba_marseille","lat":43.27832,"lon":5.3921,"is_reserved":false,"is_disabled":false,"rental_uris":{"android":"levelo://app?vid=ce261170-dcbf-468d-99cb-0a298fa2f8b6","ios":"levelo://app?vid=ce261170-dcbf-468d-99cb-0a298fa2f8b6"},"vehicle_type_id":"4","last_reported":1739455739,"current_range_meters":28400,"station_id":"ce4bhjp2rcd13ifvqga0","pricing_plan_id":"cebpf4jnsgd1na2vs0mg"},{"bike_id":"e46f54e6-c842-48fb-ad31-702c2f3544bb","system_id":"levelo_inurba_marseille","lat":43.28276,"lon":5.35075,"is_reserved":false,"is_disabled":false,"rental_uris":{"android":"levelo://app?vid=e46f54e6-c842-48fb-ad31-702c2f3544bb","ios":"levelo://app?vid=e46f54e6-c842-48fb-ad31-702c2f3544bb"},"vehicle_type_id":"4","last_reported":1739455739,"current_range_meters":37600,"station_id":"ce4bhbp2rcd13ifvqerg","pricing_plan_id":"cebpf4jnsgd1na2vs0mg"},{"bike_id":"74062f12-3f2c-46ec-9c8b-2e42215a3fd2","system_id":"levelo_inurba_marseille","lat":43.29004,"lon":5.35598,"is_reserved":false,"is_disabled":false,"rental_uris":{"android":"levelo://app?vid=74062f12-3f2c-46ec-9c8b-2e42215a3fd2","ios":"levelo://app?vid=74062f12-3f2c-46ec-9c8b-2e42215a3fd2"},"vehicle_type_id":"4","last_reported":1739455739,"current_range_meters":20400,"station_id":"ce4bhb92rcd13ifvqen0","pricing_plan_id":"cebpf4jnsgd1na2vs0mg"},{"bike_id":"ab250612-9721-4ade-ab92-ed91f967fc27","system_id":"levelo_inurba_marseille","lat":43.23193,"lon":5.35544,"is_reserved":false,"is_disabled":false,"rental_uris":{"android":"levelo://app?vid=ab250612-9721-4ade-ab92-ed91f967fc27","ios":"levelo://app?vid=ab250612-9721-4ade-ab92-ed91f967fc27"},"vehicle_type_id":"4","last_reported":1739455739,"current_range_meters":26800,"station_id":"ce4bhu92rcd13ifvqi70","pricing_plan_id":"cebpf4jnsgd1na2vs0mg"},