{"last_updated":1718460427,"ttl":30,"version":"2.2","data":{"bikes":[{"bike_id":"2c4c519b-880e-4045-b470-672ead85d6ba","system_id":"levelo_inurba_marseille","lat":43.31341,"lon":5.367098,"is_reserved":false,"is_disabled":false,"rental_uris":{"android":"levelo://app?vid=2c4c519b-880e-4045-b470-672ead85d6ba","ios":"levelo://app?vid=2c4c519b-880e-4045-b470-672ead85d6ba"},"vehicle_type_id":"4","last_reported":1718460427,"current_range_meters":4400,"station_id":"ce4bgr92rcd13ifvqc6g","pricing_plan_id":"cebpf4jnsgd1na2vs0mg"},{"bike_id":"3a80e86a-47d7-4700-984d-1b3555cafd6d","system_id":"levelo_inurba_marseille","lat":43.31123,"lon":5.3706,"is_reserved":false,"is_disabled":false,"rental_uris":{"android":"levelo://app?vid=3a80e86a-47d7-4700-984d-1b3555cafd6d","ios":"levelo://app?vid=3a80e86a-47d7-4700-984d-1b3555cafd6d"},"vehicle_type_id":"4","last_reported":1718460427,"current_range_meters":9200,"station_id":"","pricing_plan_id":"cebpf4jnsgd1na2vs0mg"},{"bike_id":"ed934b27-4e66-4ef7-80d0-02b4fb7b7252","system_id":"levelo_inurba_marseille","lat":43.309076,"lon":5.368465,"is_reserved":false,"is_disabled":false,"rental_uris":{"android":"levelo://app?vid=ed934b27-4e66-4ef7-80d0-02b4fb7b7252","ios":"levelo://app?vid=ed934b27-4e66-4ef7-80d0-02b4fb7b7252"},"vehicle_type_id":"4","last_reported":1718460427,"current_range_meters":16800,"station_id":"ce4bgn92rcd13ifvqbvg","pricing_plan_id":"cebpf4jnsgd1na2vs0mg"},{"bike_id":"2f94054f-4c5a-43f2-8b22-764e63622b65","system_id":"levelo_inurba_marseille","lat":43.309076,"lon":5.368465,"is_reserved":false,"is_disabled":false,"rental_uris":{"android":"levelo://app?vid=2f94054f-4c5a-43f2-8b22-764e63622b65","ios":"levelo://app?vid=2f94054f-4c5a-43f2-8b22-764e63622b65"},"vehicle_type_id":"4","last_reported":1718460427,"current_range_meters":26800,"station_id":"ce4bgn92rcd13ifvqbvg","pricing_plan_id":"cebpf4jnsgd1na2vs0mg"},{"bike_id":"001f6bdb-03d5-4f37-a06b-c0484082f961","system_id":"levelo_inurba_marseille","lat":43.314811,"lon":5.373103,"is_reserved":false,"is_disabled":false,"rental_uris":{"android":"levelo://app?vid=001f6bdb-03d5-4f37-a06b-c0484082f961","ios":"levelo://app?vid=001f6bdb-03d5-4f37-a06b-c0484082f961"},"vehicle_type_id":"4","last_reported":1718460427,"current_range_meters":18400,"station_id":"ce4bgt12rcd13ifvqcd0","pricing_plan_id":"cebpf4jnsgd1na2vs0mg"},{"bike_id":"cc0c5f25-1011-42c5-a137-fca7ce40ae09","system_id":"levelo_inurba_marseille","lat":43.314811,"lon":5.373103,"is_reserved":false,"is_disabled":false,"rental_uris":{"android":"levelo://app?vid=cc0c5f25-1011-42c5-a137-fca7ce40ae09","ios":"levelo://app?vid=cc0c5f25-1011-42c5-a137-fca7ce40ae09"},"vehicle_type_id":"4","last_reported":1718460427,"current_range_meters":28800,"station_id":"ce4bgt12rcd13ifvqcd0","pricing_plan_id":"cebpf4jnsgd1na2vs0mg"},{"bike_id":"da493686-9713-4b98-8cae-1865aa4b594d","system_id":"levelo_inurba_marseille","lat":43.309027,"lon":5.37183,"is_reserved":false,"is_disabled":false,"rental_uris":{"android":"levelo://app?vid=da493686-9713-4b98-8cae-1865aa4b594d","ios":"levelo://app?vid=da493686-9713-4b98-8cae-1865aa4b594d"},"vehicle_type_id":"4","last_reported":1718460427,"current_range_meters":20400,"station_id":"ce4bguh2rcd13ifvqckg","pricing_plan_id":"cebpf4jnsgd1na2vs0mg"},{"bike_id":"bb0ca537-3536-4ddb-98db-2750e42a5eb1","system_id":"levelo_inurba_marseille","lat":43.308927,"lon":5.371953,"is_reserved":false,"is_disabled":false,"rental_uris":{"android":"levelo://app?vid=bb0ca537-3536-4ddb-98db-2750e42a5eb1","ios":"levelo://app?vid=bb0ca537-3536-4ddb-98db-2750e42a5eb1"},"vehicle_type_id":"4","last_reported":1718460427,"current_range_meters":15200,"station_id":"ce4bguh2rcd13ifvqckg","pricing_plan_id":"cebpf4jnsgd1na2vs0mg"},{"bike_id":"8cc5483c-a74c-4a73-b9b5-e3ba86f50a74","system_id":"levelo_inurba_marseille","lat":43.309039,"lon":5.371797,"is_reserved":false,"is_disabled":false,"rental_uris":{"android":"levelo://app?vid=8cc5483c-a74c-4a73-b9b5-e3ba86f50a74","ios":"levelo://app?vid=8cc5483c-a74c-4a73-b9b5-e3ba86f50a74"},"vehicle_type_id":"4","last_reported":1718460427,"current_range_meters":13600,"station_id":"ce4bguh2rcd13ifvqckg","pricing_plan_id":"cebpf4jnsgd1na2vs0mg"},{"bike_id":"f5ce8b49-4a4f-4e50-bd78-8a9912621ba0","system_id":"levelo_inurba_marseille","lat":43.305706,"lon":5.365654,"is_reserved":false,"is_disabled":false,"rental_uris":{"android":"levelo://app?vid=f5ce8b49-4a4f-4e50-bd78-8a9912621ba0","ios":"levelo://app?vid=f5ce8b49-4a4f-4e50-bd78-8a9912621ba0"},"vehicle_type_id":"4","last_reported":1718460427,"current_range_meters":400,"station_id":"ce4bgs12rcd13ifvqcag","pricing_plan_id":"cebpf4jnsgd1na2vs0mg"},{"bike_id":"88fff450-7527-4e3a-954f-50f88f179e93","system_id":"levelo_inurba_marseille","lat":43.311131,"lon":5.377651,"is_reserved":false,"is_disabled":false,"rental_uris":{"android":"levelo://app?vid=88fff450-7527-4e3a-954f-50f88f179e93","ios":"levelo://app?vid=88fff450-7527-4e3a-954f-50f88f179e93"},"vehicle_type_id":"4","last_reported":1718460427,"current_range_meters":16000,"station_id":"ce4bgt92rcd13ifvqcg0","pricing_plan_id":"cebpf4jnsgd1na2vs0mg"},{"bike_id":"471b33b5-4a4b-42a8-bdef-dc7846eafa33","system_id":"levelo_inurba_marseille","lat":43.307945,"lon":5.376487,"is_reserved":false,"is_disabled":false,"rental_uris":{"android":"levelo://app?vid=471b33b5-4a4b-42a8-bdef-dc7846eafa33","ios":"levelo://app?vid=471b33b5-4a4b-42a8-bdef-dc7846eafa33"},"vehicle_type_id":"4","last_reported":1718460427,"current_range_meters":2800,"station_id":"ce4bgv92rcd13ifvqcq0","pricing_plan_id":"cebpf4jnsgd1na2vs0mg"},{"bike_id":"1564ebc7-58e5-44bb-8711-01cceb35ce3d","system_id":"levelo_inurba_marseille","lat":43.307945,"lon":5.376487,"is_reserved":false,"is_disabled":false,"rental_uris":{"android":"levelo://app?vid=1564ebc7-58e5-44bb-8711-01cceb35ce3d","ios":"levelo://app?vid=1564ebc7-58e5-44bb-8711-01cceb35ce3d"},"vehicle_type_id":"4","last_reported":1718460427,"current_range_meters":6400,"station_id":"ce4bgv92rcd13ifvqcq0","pricing_plan_id":"cebpf4jnsgd1na2vs0mg"},{"bike_id":"a6e11102-9690-4134-868d-19eafefcad82","system_id":"levelo_inurba_marseille","lat":43.307945,"lon":5.376487,"is_reserved":false,"is_disabled":false,"rental_uris":{"android":"levelo://app?vid=a6e11102-9690-4134-868d-19eafefcad82","ios":"levelo://app?vid=a6e11102-9690-4134-868d-19eafefcad82"},"vehicle_type_id":"4","last_reported":1718460427,"current_range_meters":31200,"station_id":"ce4bgv92rcd13ifvqcq0","pricing_plan_id":"cebpf4jnsgd1na2vs0mg"},{"bike_id":"a0baf31b-7dcc-4e4f-9fd8-a713b00daccc","system_id":"levelo_inurba_marseille","lat":43.317075,"lon":5.377367,"is_reserved":false,"is_disabled":false,"rental_uris":{"android":"levelo://app?vid=a0baf31b-7dcc-4e4f-9fd8-a713b00daccc","ios":"levelo://app?vid=a0baf31b-7dcc-4e4f-9fd8-a713b00daccc"},"vehicle_type_id":"4","last_reported":1718460427,"current_range_meters":28800,"station_id":"ce4bgth2rcd13ifvqch0","pricing_plan_id":"cebpf4jnsgd1na2vs0mg"},{"bike_id":"b061b76a-8ede-4d58-908b-ff6803155dd9","system_id":"levelo_inurba_marseille","lat":43.316964,"lon":5.377496,"is_reserved":false,"is_disabled":false,"rental_uris":{"android":"levelo://app?vid=b061b76a-8ede-4d58-908b-ff6803155dd9","ios":"levelo://app?vid=b061b76a-8ede-4d58-908b-ff6803155dd9"},"vehicle_type_id":"4","last_reported":1718460427,"current_range_meters":15600,"station_id":"ce4bgth2rcd13ifvqch0","pricing_plan_id":"cebpf4jnsgd1na2vs0mg"},{"bike_id":"d58c56da-6c8b-4dfa-a07d-010d6df8bead","system_id":"levelo_inurba_marseille","lat":43.31711,"lon":5.37749,"is_reserved":false,"is_disabled":false,"rental_uris":{"android":"levelo://app?vid=d58c56da-6c8b-4dfa-a07d-010d6df8bead","ios":"levelo://app?vid=d58c56da-6c8b-4dfa-a07d-010d6df8bead"},"vehicle_type_id":"4","last_reported":1718460427,"current_range_meters":16400,"station_id":"ce4bgth2rcd13ifvqch0","pricing_plan_id":"cebpf4jnsgd1na2vs0mg"},{"bike_id":"c4296e5e-9bc9-45d3-8aba-556b3741e5c2","system_id":"levelo_inurba_marseille","lat":43.30313,"lon":5.36902,"is_reserved":false,"is_disabled":false,"rental_uris":{"android":"levelo://app?vid=c4296e5e-9bc9-45d3-8aba-556b3741e5c2","ios":"levelo://app?vid=c4296e5e-9bc9-45d3-8aba-556b3741e5c2"},"vehicle_type_id":"4","last_reported":1718460427,"current_range_meters":0,"station_id":"ce4bgqh2rcd13ifvqc5g","pricing_plan_id":"cebpf4jnsgd1na2vs0mg"},{"bike_id":"ee8159ca-d2f3-426a-b7c2-b832ebc8a70d","system_id":"levelo_inurba_marseille","lat":43.315289,"lon":5.380349,"is_reserved":false,"is_disabled":false,"rental_uris":{"android":"levelo://app?vid=ee8159ca-d2f3-426a-b7c2-b832ebc8a70d","ios":"levelo://app?vid=ee8159ca-d2f3-426a-b7c2-b832ebc8a70d"},"vehicle_type_id":"4","last_reported":1718460427,"current_range_meters":10000,"station_id":"ce4bhsp2rcd13ifvqi50","pricing_plan_id":"cebpf4jnsgd1na2vs0mg"},{"bike_id":"4d6e711c-8f96-4b03-b41b-c7ca92fe0b16","system_id":"levelo_inurba_marseille","lat":43.301939,"lon":5.366286,"is_reserved":false,"is_disabled":false,"rental_uris":{"android":"levelo://app?vid=4d6e711c-8f96-4b03-b41b-c7ca92fe0b16","ios":"levelo://app?vid=4d6e711c-8f96-4b03-b41b-c7ca92fe0b16"},"vehicle_type_id":"4","last_reported":1718460427,"current_range_meters":22000,"station_id":"ce4bgrh2rcd13ifvqc8g","pricing_plan_id":"cebpf4jnsgd1na2vs0mg"},{"bike_id":"41f228a8-e203-42db-954a-bd5c698e1bc4","system_id":"levelo_inurba_marseille","lat":43.308012,"lon":5.381511,"is_reserved":false,"is_disabled":false,"rental_uris":{"android":"levelo://app?vid=41f228a8-e203-42db-954a-bd5c698e1bc4","ios":"levelo://app?vid=41f228a8-e203-42db-954a-bd5c698e1bc4"},"vehicle_type_id":"4","last_reported":1718460427,"current_range_meters":29200,"station_id":"ce4bgt12rcd13ifvqce0","pricing_plan_id":"cebpf4jnsgd1na2vs0mg"},{"bike_id":"342188ef-2960-4de6-90e4-392bd221c251","system_id":"levelo_inurba_marseille","lat":43.301939,"lon":5.366286,"is_reserved":false,"is_disabled":false,"rental_uris":{"android":"levelo://app?vid=342188ef-2960-4de6-90e4-392bd221c251","ios":"levelo://app?vid=342188ef-2960-4de6-90e4-392bd221c251"},"vehicle_type_id":"4","last_reported":1718460427,"current_range_meters":22400,"station_id":"ce4bgrh2rcd13ifvqc8g","pricing_plan_id":"cebpf4jnsgd1na2vs0mg"},{"bike_id":"74bfcefc-eba4-449c-8bc7-8230abcbc9c8","system_id":"levelo_inurba_marseille","lat":43.304606,"lon":5.379026,"is_reserved":false,"is_disabled":false,"rental_uris":{"android":"levelo://app?vid=74bfcefc-eba4-449c-8bc7-8230abcbc9c8","ios":"levelo://app?vid=74bfcefc-eba4-449c-8bc7-8230abcbc9c8"},"vehicle_type_id":"4","last_reported":1718460427,"current_range_meters":0,"station_id":"ce4bgup2rcd13ifvqcn0","pricing_plan_id":"cebpf4jnsgd1na2vs0mg"},{"bike_id":"e967838b-76c9-465b-8903-81a3ad30dd5a","system_id":"levelo_inurba_marseille","lat":43.304606,"lon":5.379026,"is_reserved":false,"is_disabled":false,"rental_uris":{"android":"levelo://app?vid=e967838b-76c9-465b-8903-81a3ad30dd5a","ios":"levelo://app?vid=e967838b-76c9-465b-8903-81a3ad30dd5a"},"vehicle_type_id":"4","last_reported":1718460427,"current_range_meters":5600,"station_id":"ce4bgup2rcd13ifvqcn0","pricing_plan_id":"cebpf4jnsgd1na2vs0mg"},{"bike_id":"25ac5ebc-294d-4867-aeb3-cc466256aea0","system_id":"levelo_inurba_marseille","lat":43.324771,"lon":5.36557,"is_reserved":false,"is_disabled":false,"rental_uris":{"android":"levelo://app?vid=25ac5ebc-294d-4867-aeb3-cc466256aea0","ios":"levelo://app?vid=25ac5ebc-294d-4867-aeb3-cc466256aea0"},"vehicle_type_id":"4","last_reported":1718460427,"current_range_meters":0,"station_id":"ce4bhs12rcd13ifvqhvg","pricing_plan_id":"cebpf4jnsgd1na2vs0mg"},{"bike_id":"38b2c9e1-4c23-45fd-99ed-bbe9e26de9f4","system_id":"levelo_inurba_marseille","lat":43.324771,"lon":5.36557,"is_reserved":false,"is_disabled":false,"rental_uris":{"android":"levelo://app?vid=38b2c9e1-4c23-45fd-99ed-bbe9e26de9f4","ios":"levelo://app?vid=38b2c9e1-4c23-45fd-99ed-bbe9e26de9f4"},"vehicle_type_id":"4","last_reported":1718460427,"current_range_meters":18400,"station_id":"ce4bhs12rcd13ifvqhvg","pricing_plan_id":"cebpf4jnsgd1na2vs0mg"},{"bike_id":"c7e8fe28-5cd1-4781-90de-5a5f7d709beb","system_id":"levelo_inurba_marseille","lat":43.324771,"lon":5.36557,"is_reserved":false,"is_disabled":false,"rental_uris":{"android":"levelo://app?vid=c7e8fe28-5cd1-4781-90de-5a5f7d709beb","ios":"levelo://app?vid=c7e8fe28-5cd1-4781-90de-5a5f7d709beb"},"vehicle_type_id":"4","last_reported":1718460427,"current_range_meters":22800,"station_id":"ce4bhs12rcd13ifvqhvg","pricing_plan_id":"cebpf4jnsgd1na2vs0mg"},{"bike_id":"0bd7e063-1a25-4aae-af49-2f3318c320b1","system_id":"levelo_inurba_marseille","lat":43.324771,"lon":5.36557,"is_reserved":false,"is_disabled":false,"rental_uris":{"android":"levelo://app?vid=0bd7e063-1a25-4aae-af49-2f3318c320b1","ios":"levelo://app?vid=0bd7e063-1a25-4aae-af49-2f3318c320b1"},"vehicle_type_id":"4","last_reported":1718460427,"current_range_meters":16000,"station_id":"ce4bhs12rcd13ifvqhvg","pricing_plan_id":"cebpf4jnsgd1na2vs0mg"},{"bike_id":"8d57e60f-b8f2-4bda-b50f-242895aacf63","system_id":"levelo_inurba_marseille","lat":43.302784,"lon":5.377158,"is_reserved":false,"is_disabled":false,"rental_uris":{"android":"levelo://app?vid=8d57e60f-b8f2-4bda-b50f-242895aacf63","ios":"levelo://app?vid=8d57e60f-b8f2-4bda-b50f-242895aacf63"},"vehicle_type_id":"4","last_reported":1718460427,"current_range_meters":4800,"station_id":"ce4bguh2rcd13ifvqcj0","pricing_plan_id":"cebpf4jnsgd1na2vs0mg"},{"bike_id":"f3e652d0-141a-4850-883f-7913475152a3","system_id":"levelo_inurba_marseille","lat":43.30143,"lon":5.37413,"is_reserved":false,"is_disabled":false,"rental_uris":{"android":"levelo://app?vid=f3e652d0-141a-4850-883f-7913475152a3","ios":"levelo://app?vid=f3e652d0-141a-4850-883f-7913475152a3"},"vehicle_type_id":"4","last_reported":1718460427,"current_range_meters":11600,"station_id":"ce4bgs92rcd13ifvqcc0","pricing_plan_id":"cebpf4jnsgd1na2vs0mg"},{"bike_id":"5326dd92-6ff9-4434-8c3d-0c51d188e8da","system_id":"levelo_inurba_marseille","lat":43.319935,"lon":5.381699,"is_reserved":false,"is_disabled":false,"rental_uris":{"android":"levelo://app?vid=5326dd92-6ff9-4434-8c3d-0c51d188e8da","ios":"levelo://app?vid=5326dd92-6ff9-4434-8c3d-0c51d188e8da"},"vehicle_type_id":"4","last_reported":1718460427,"current_range_meters":28000,"station_id":"ce4bhr12rcd13ifvqhpg","pricing_plan_id":"cebpf4jnsgd1na2vs0mg"},{"bike_id":"9417cb66-7666-436c-bab5-5a7debea70ab","system_id":"levelo_inurba_marseille","lat":43.319935,"lon":5.381699,"is_reserved":false,"is_disabled":false,"rental_uris":{"android":"levelo://app?vid=9417cb66-7666-436c-bab5-5a7debea70ab","ios":"levelo://app?vid=9417cb66-7666-436c-bab5-5a7debea70ab"},"vehicle_type_id":"4","last_reported":1718460427,"current_range_meters":5200,"station_id":"ce4bhr12rcd13ifvqhpg","pricing_plan_id":"cebpf4jnsgd1na2vs0mg"},{"bike_id":"b7d85557-335f-4063-9d70-f7bf5a630580","system_id":"levelo_inurba_marseille","lat":43.301429,"lon":5.37413,"is_reserved":false,"is_disabled":false,"rental_uris":{"android":"levelo://app?vid=b7d85557-335f-4063-9d70-f7bf5a630580","ios":"levelo://app?vid=b7d85557-335f-4063-9d70-f7bf5a630580"},"vehicle_type_id":"4","last_reported":1718460427,"current_range_meters":1200,"station_id":"ce4bgs92rcd13ifvqcc0","pricing_plan_id":"cebpf4jnsgd1na2vs0mg"},{"bike_id":"ec7d34d0-eb60-420c-b722-e18b23ae6e92","system_id":"levelo_inurba_marseille","lat":43.313571,"lon":5.384829,"is_reserved":false,"is_disabled":false,"rental_uris":{"android":"levelo://app?vid=ec7d34d0-eb60-420c-b722-e18b23ae6e92","ios":"levelo://app?vid=ec7d34d0-eb60-420c-b722-e18b23ae6e92"},"vehicle_type_id":"4","last_reported":1718460427,"current_range_meters":7600,"station_id":"ce4bgt92rcd13ifvqcf0","pricing_plan_id":"cebpf4jnsgd1na2vs0mg"},{"bike_id":"de230430-dd5f-40df-8653-8f0b432af58f","system_id":"levelo_inurba_marseille","lat":43.313571,"lon":5.384829,"is_reserved":false,"is_disabled":false,"rental_uris":{"android":"levelo://app?vid=de230430-dd5f-40df-8653-8f0b432af58f","ios":"levelo://app?vid=de230430-dd5f-40df-8653-8f0b432af58f"},"vehicle_type_id":"4","last_reported":1718460427,"current_range_meters":10000,"station_id":"ce4bgt92rcd13ifvqcf0","pricing_plan_id":"cebpf4jnsgd1na2vs0mg"},{"bike_id":"9a853b0d-79d0-4eaf-9c16-08b3c56f18c6","system_id":"levelo_inurba_marseille","lat":43.31366,"lon":5.38498,"is_reserved":false,"is_disabled":false,"rental_uris":{"android":"levelo://app?vid=9a853b0d-79d0-4eaf-9c16-08b3c56f18c6","ios":"levelo://app?vid=9a853b0d-79d0-4eaf-9c16-08b3c56f18c6"},"vehicle_type_id":"4","last_reported":1718460427,"current_range_meters":18000,"station_id":"ce4bgt92rcd13ifvqcf0","pricing_plan_id":"cebpf4jnsgd1na2vs0mg"},{"bike_id":"8e17c214-5d1e-4580-8dff-fbe47f37422c","system_id":"levelo_inurba_marseille","lat":43.299222,"lon":5.365554,"is_reserved":false,"is_disabled":false,"rental_uris":{"android":"levelo://app?vid=8e17c214-5d1e-4580-8dff-fbe47f37422c","ios":"levelo://app?vid=8e17c214-5d1e-4580-8dff-fbe47f37422c"},"vehicle_type_id":"4","last_reported":1718460427,"current_range_meters":0,"station_id":"ce4bgm92rcd13ifvqbr0","pricing_plan_id":"cebpf4jnsgd1na2vs0mg"},{"bike_id":"557acd88-f8a2-4a96-af92-42d393fa4e93","system_id":"levelo_inurba_marseille","lat":43.299724,"lon":5.371829,"is_reserved":false,"is_disabled":false,"rental_uris":{"android":"levelo://app?vid=557acd88-f8a2-4a96-af92-42d393fa4e93","ios":"levelo://app?vid=557acd88-f8a2-4a96-af92-42d393fa4e93"},"vehicle_type_id":"4","last_reported":1718460427,"current_range_meters":0,"station_id":"ce4bgr92rcd13ifvqc7g","pricing_plan_id":"cebpf4jnsgd1na2vs0mg"},{"bike_id":"18a8d334-9d69-4b78-bf05-7ffc1c01fe49","system_id":"levelo_inurba_marseille","lat":43.298433,"lon":5.362774,"is_reserved":false,"is_disabled":false,"rental_uris":{"android":"levelo://app?vid=18a8d334-9d69-4b78-bf05-7ffc1c01fe49","ios":"levelo://app?vid=18a8d334-9d69-4b78-bf05-7ffc1c01fe49"},"vehicle_type_id":"4","last_reported":1718460427,"current_range_meters":3600,"station_id":"ce4bgpp2rcd13ifvqc3g","pricing_plan_id":"cebpf4jnsgd1na2vs0mg"},{"bike_id":"aaadb909-39aa-444d-b011-11cbe1ff6122","system_id":"levelo_inurba_marseille","lat":43.311722,"lon":5.387247,"is_reserved":false,"is_disabled":false,"rental_uris":{"android":"levelo://app?vid=aaadb909-39aa-444d-b011-11cbe1ff6122","ios":"levelo://app?vid=aaadb909-39aa-444d-b011-11cbe1ff6122"},"vehicle_type_id":"4","last_reported":1718460427,"current_range_meters":24000,"station_id":"ce4bgv12rcd13ifvqcp0","pricing_plan_id":"cebpf4jnsgd1na2vs0mg"},{"bike_id":"e0fccfae-bb3f-4eeb-ac3e-b1f59f298c94","system_id":"levelo_inurba_marseille","lat":43.311722,"lon":5.387247,"is_reserved":false,"is_disabled":false,"rental_uris":{"android":"levelo://app?vid=e0fccfae-bb3f-4eeb-ac3e-b1f59f298c94","ios":"levelo://app?vid=e0fccfae-bb3f-4eeb-ac3e-b1f59f298c94"},"vehicle_type_id":"4","last_reported":1718460427,"current_range_meters":26000,"station_id":"ce4bgv12rcd13ifvqcp0","pricing_plan_id":"cebpf4jnsgd1na2vs0mg"},{"bike_id":"09c1eb4c-4f50-4f6a-bbcc-d4c9380133cf","system_id":"levelo_inurba_marseille","lat":43.311722,"lon":5.387247,"is_reserved":false,"is_disabled":false,"rental_uris":{"android":"levelo://app?vid=09c1eb4c-4f50-4f6a-bbcc-d4c9380133cf","ios":"levelo://app?vid=09c1eb4c-4f50-4f6a-bbcc-d4c9380133cf"},"vehicle_type_id":"4","last_reported":1718460427,"current_range_meters":18400,"station_id":"ce4bgv12rcd13ifvqcp0","pricing_plan_id":"cebpf4jnsgd1na2vs0mg"},{"bike_id":"ca938a7c-69d7-4ecf-b69f-5531195afedc","system_id":"levelo_inurba_marseille","lat":43.29904,"lon":5.37485,"is_reserved":false,"is_disabled":false,"rental_uris":{"android":"levelo://app?vid=ca938a7c-69d7-4ecf-b69f-5531195afedc","ios":"levelo://app?vid=ca938a7c-69d7-4ecf-b69f-5531195afedc"},"vehicle_type_id":"4","last_reported":1718460427,"current_range_meters":0,"station_id":"ce4bgjh2rcd13ifvqbg0","pricing_plan_id":"cebpf4jnsgd1na2vs0mg"},{"bike_id":"c98e4a66-3919-417d-a388-f293689c3289","system_id":"levelo_inurba_marseille","lat":43.298048,"lon":5.371245,"is_reserved":false,"is_disabled":false,"rental_uris":{"android":"levelo://app?vid=c98e4a66-3919-417d-a388-f293689c3289","ios":"levelo://app?vid=c98e4a66-3919-417d-a388-f293689c3289"},"vehicle_type_id":"4","last_reported":1718460427,"current_range_meters":7600,"station_id":"ce4bgop2rcd13ifvqc1g","pricing_plan_id":"cebpf4jnsgd1na2vs0mg"},{"bike_id":"e025e930-8f82-4879-b09c-3202c4ca43ad","system_id":"levelo_inurba_marseille","lat":43.32295,"lon":5.3826,"is_reserved":false,"is_disabled":false,"rental_uris":{"android":"levelo://app?vid=e025e930-8f82-4879-b09c-3202c4ca43ad","ios":"levelo://app?vid=e025e930-8f82-4879-b09c-3202c4ca43ad"},"vehicle_type_id":"4","last_reported":1718460427,"current_range_meters":20400,"station_id":"ce4bhr12rcd13ifvqhqg","pricing_plan_id":"cebpf4jnsgd1na2vs0mg"},{"bike_id":"01383fda-e6b3-4a07-9b33-a5992385f3b2","system_id":"levelo_inurba_marseille","lat":43.322872,"lon":5.382756,"is_reserved":false,"is_disabled":false,"rental_uris":{"android":"levelo://app?vid=01383fda-e6b3-4a07-9b33-a5992385f3b2","ios":"levelo://app?vid=01383fda-e6b3-4a07-9b33-a5992385f3b2"},"vehicle_type_id":"4","last_reported":1718460427,"current_range_meters":24800,"station_id":"ce4bhr12rcd13ifvqhqg","pricing_plan_id":"cebpf4jnsgd1na2vs0mg"},{"bike_id":"f740ebf1-9692-478c-9609-c75ab470477d","system_id":"levelo_inurba_marseille","lat":43.322872,"lon":5.382756,"is_reserved":false,"is_disabled":false,"rental_uris":{"android":"levelo://app?vid=f740ebf1-9692-478c-9609-c75ab470477d","ios":"levelo://app?vid=f740ebf1-9692-478c-9609-c75ab470477d"},"vehicle_type_id":"4","last_reported":1718460427,"current_range_meters":23200,"station_id":"ce4bhr12rcd13ifvqhqg","pricing_plan_id":"cebpf4jnsgd1na2vs0mg"},{"bike_id":"56806427-1243-47a6-9ac3-a65afb896bc9","system_id":"levelo_inurba_marseille","lat":43.322872,"lon":5.382756,"is_reserved":false,"is_disabled":false,"rental_uris":{"android":"levelo://app?vid=56806427-1243-47a6-9ac3-a65afb896bc9","ios":"levelo://app?vid=56806427-1243-47a6-9ac3-a65afb896bc9"},"vehicle_type_id":"4","last_reported":1718460427,"current_range_meters":21600,"station_id":"ce4bhr12rcd13ifvqhqg","pricing_plan_id":"cebpf4jnsgd1na2vs0mg"},{"bike_id":"ca3517cf-ff91-4e5f-9053-451a67a6f4da","system_id":"levelo_inurba_marseille","lat":43.32291,"lon":5.38276,"is_reserved":false,"is_disabled":false,"rental_uris":{"android":"levelo://app?vid=ca3517cf-ff91-4e5f-9053-451a67a6f4da","ios":"levelo://app?vid=ca3517cf-ff91-4e5f-9053-451a67a6f4da"},"vehicle_type_id":"4","last_reported":1718460427,"current_range_meters":30800,"station_id":"ce4bhr12rcd13ifvqhqg","pricing_plan_id":"cebpf4jnsgd1na2vs0mg"},{"bike_id":"66d8e73b-4692-46e0-87b0-0547058f1d87","system_id":"levelo_inurba_marseille","lat":43.2968,"lon":5.37291,"is_reserved":false,"is_disabled":false,"rental_uris":{"android":"levelo://app?vid=66d8e73b-4692-46e0-87b0-0547058f1d87","ios":"levelo://app?vid=66d8e73b-4692-46e0-87b0-0547058f1d87"},"vehicle_type_id":"4","last_reported":1718460427,"current_range_meters":27200,"station_id":"ce4bgk12rcd13ifvqbj0","pricing_plan_id":"cebpf4jnsgd1na2vs0mg"},{"bike_id":"37471f4c-741d-4423-ad28-3beb8104ff11","system_id":"levelo_inurba_marseille","lat":43.29791,"lon":5.37717,"is_reserved":false,"is_disabled":false,"rental_uris":{"android":"levelo://app?vid=37471f4c-741d-4423-ad28-3beb8104ff11","ios":"levelo://app?vid=37471f4c-741d-4423-ad28-3beb8104ff11"},"vehicle_type_id":"4","last_reported":1718460427,"current_range_meters":11600,"station_id":"","pricing_plan_id":"cebpf4jnsgd1na2vs0mg"},{"bike_id":"dd68a46f-ba09-4266-ad89-ff92ad27c18b","system_id":"levelo_inurba_marseille","lat":43.29573,"lon":5.367355,"is_reserved":false,"is_disabled":false,"rental_uris":{"android":"levelo://app?vid=dd68a46f-ba09-4266-ad89-ff92ad27c18b","ios":"levelo://app?vid=dd68a46f-ba09-4266-ad89-ff92ad27c18b"},"vehicle_type_id":"4","last_reported":1718460427,"current_range_meters":13200,"station_id":"ce4bgph2rcd13ifvqc2g","pricing_plan_id":"cebpf4jnsgd1na2vs0mg"},{"bike_id":"84f5ce2c-46d0-4bf8-997d-237d6c29c5d5","system_id":"levelo_inurba_marseille","lat":43.309589,"lon":5.390258,"is_reserved":false,"is_disabled":false,"rental_uris":{"android":"levelo://app?vid=84f5ce2c-46d0-4bf8-997d-237d6c29c5d5","ios":"levelo://app?vid=84f5ce2c-46d0-4bf8-997d-237d6c29c5d5"},"vehicle_type_id":"4","last_reported":1718460427,"current_range_meters":3600,"station_id":"ce4bgup2rcd13ifvqco0","pricing_plan_id":"cebpf4jnsgd1na2vs0mg"},{"bike_id":"b83d6710-9ee9-48fd-be27-470dadfa63de","system_id":"levelo_inurba_marseille","lat":43.309589,"lon":5.390258,"is_reserved":false,"is_disabled":false,"rental_uris":{"android":"levelo://app?vid=b83d6710-9ee9-48fd-be27-470dadfa63de","ios":"levelo://app?vid=b83d6710-9ee9-48fd-be27-470dadfa63de"},"vehicle_type_id":"4","last_reported":1718460427,"current_range_meters":28000,"station_id":"ce4bgup2rcd13ifvqco0","pricing_plan_id":"cebpf4jnsgd1na2vs0mg"},{"bike_id":"64be800f-1262-4237-bfbd-52fa0ae69266","system_id":"levelo_inurba_marseille","lat":43.299028,"lon":5.381509,"is_reserved":false,"is_disabled":false,"rental_uris":{"android":"levelo://app?vid=64be800f-1262-4237-bfbd-52fa0ae69266","ios":"levelo://app?vid=64be800f-1262-4237-bfbd-52fa0ae69266"},"vehicle_type_id":"4","last_reported":1718460427,"current_range_meters":8000,"station_id":"ce4bgj12rcd13ifvqbc0","pricing_plan_id":"cebpf4jnsgd1na2vs0mg"},{"bike_id":"01fe3af7-0f84-4510-a5ad-c537176a2db2","system_id":"levelo_inurba_marseille","lat":43.317557,"lon":5.390173,"is_reserved":false,"is_disabled":false,"rental_uris":{"android":"levelo://app?vid=01fe3af7-0f84-4510-a5ad-c537176a2db2","ios":"levelo://app?vid=01fe3af7-0f84-4510-a5ad-c537176a2db2"},"vehicle_type_id":"4","last_reported":1718460427,"current_range_meters":23600,"station_id":"ce4bhqp2rcd13ifvqhng","pricing_plan_id":"cebpf4jnsgd1na2vs0mg"},{"bike_id":"1d530a6d-8b46-419f-9c12-6aa9b8812a56","system_id":"levelo_inurba_marseille","lat":43.296025,"lon":5.37523,"is_reserved":false,"is_disabled":false,"rental_uris":{"android":"levelo://app?vid=1d530a6d-8b46-419f-9c12-6aa9b8812a56","ios":"levelo://app?vid=1d530a6d-8b46-419f-9c12-6aa9b8812a56"},"vehicle_type_id":"4","last_reported":1718460427,"current_range_meters":26800,"station_id":"ce4bgh92rcd13ifvqb50","pricing_plan_id":"cebpf4jnsgd1na2vs0mg"},{"bike_id":"272b991e-d1ee-4133-9cb8-7a3e02fa7515","system_id":"levelo_inurba_marseille","lat":43.29714,"lon":5.3789,"is_reserved":false,"is_disabled":false,"rental_uris":{"android":"levelo://app?vid=272b991e-d1ee-4133-9cb8-7a3e02fa7515","ios":"levelo://app?vid=272b991e-d1ee-4133-9cb8-7a3e02fa7515"},"vehicle_type_id":"4","last_reported":1718460427,"current_range_meters":22000,"station_id":"","pricing_plan_id":"cebpf4jnsgd1na2vs0mg"},{"bike_id":"222df4b6-e5fd-4a3e-8e93-41af85245999","system_id":"levelo_inurba_marseille","lat":43.295748,"lon":5.37522,"is_reserved":false,"is_disabled":false,"rental_uris":{"android":"levelo://app?vid=222df4b6-e5fd-4a3e-8e93-41af85245999","ios":"levelo://app?vid=222df4b6-e5fd-4a3e-8e93-41af85245999"},"vehicle_type_id":"4","last_reported":1718460427,"current_range_meters":17600,"station_id":"ce4bgh92rcd13ifvqb50","pricing_plan_id":"cebpf4jnsgd1na2vs0mg"},{"bike_id":"a5899033-9ad9-4fa6-9e23-d1d65738ad99","system_id":"levelo_inurba_marseille","lat":43.298037,"lon":5.381066,"is_reserved":false,"is_disabled":false,"rental_uris":{"android":"levelo://app?vid=a5899033-9ad9-4fa6-9e23-d1d65738ad99","ios":"levelo://app?vid=a5899033-9ad9-4fa6-9e23-d1d65738ad99"},"vehicle_type_id":"4","last_reported":1718460427,"current_range_meters":0,"station_id":"ce4bgip2rcd13ifvqbb0","pricing_plan_id":"cebpf4jnsgd1na2vs0mg"},{"bike_id":"272e508b-219a-4ebd-a445-1644347c778b","system_id":"levelo_inurba_marseille","lat":43.295748,"lon":5.37522,"is_reserved":false,"is_disabled":false,"rental_uris":{"android":"levelo://app?vid=272e508b-219a-4ebd-a445-1644347c778b","ios":"levelo://app?vid=272e508b-219a-4ebd-a445-1644347c778b"},"vehicle_type_id":"4","last_reported":1718460427,"current_range_meters":20400,"station_id":"ce4bgh92rcd13ifvqb50","pricing_plan_id":"cebpf4jnsgd1na2vs0mg"},{"bike_id":"50eafa7c-8472-4ec3-b4ae-9b363365b5e3","system_id":"levelo_inurba_marseille","lat":43.298037,"lon":5.381066,"is_reserved":false,"is_disabled":false,"rental_uris":{"android":"levelo://app?vid=50eafa7c-8472-4ec3-b4ae-9b363365b5e3","ios":"levelo://app?vid=50eafa7c-8472-4ec3-b4ae-9b363365b5e3"},"vehicle_type_id":"4","last_reported":1718460427,"current_range_meters":21600,"station_id":"ce4bgip2rcd13ifvqbb0","pricing_plan_id":"cebpf4jnsgd1na2vs0mg"},{"bike_id":"ff355245-2198-473f-afa3-aafa1729cf3a","system_id":"levelo_inurba_marseille","lat":43.299707,"lon":5.384859,"is_reserved":false,"is_disabled":false,"rental_uris":{"android":"levelo://app?vid=ff355245-2198-473f-afa3-aafa1729cf3a","ios":"levelo://app?vid=ff355245-2198-473f-afa3-aafa1729cf3a"},"vehicle_type_id":"4","last_reported":1718460427,"current_range_meters":9600,"station_id":"ce4bgj92rcd13ifvqbd0","pricing_plan_id":"cebpf4jnsgd1na2vs0mg"},{"bike_id":"c233a84e-bbf5-4026-8bb7-b28313bad04e","system_id":"levelo_inurba_marseille","lat":43.29596,"lon":5.37698,"is_reserved":false,"is_disabled":false,"rental_uris":{"android":"levelo://app?vid=c233a84e-bbf5-4026-8bb7-b28313bad04e","ios":"levelo://app?vid=c233a84e-bbf5-4026-8bb7-b28313bad04e"},"vehicle_type_id":"4","last_reported":1718460427,"current_range_meters":23200,"station_id":"ce4bgi92rcd13ifvqb90","pricing_plan_id":"cebpf4jnsgd1na2vs0mg"},{"bike_id":"b61045df-6d5a-48fb-9f24-b83f503266ce","system_id":"levelo_inurba_marseille","lat":43.299707,"lon":5.384859,"is_reserved":false,"is_disabled":false,"rental_uris":{"android":"levelo://app?vid=b61045df-6d5a-48fb-9f24-b83f503266ce","ios":"levelo://app?vid=b61045df-6d5a-48fb-9f24-b83f503266ce"},"vehicle_type_id":"4","last_reported":1718460427,"current_range_meters":5200,"station_id":"ce4bgj92rcd13ifvqbd0","pricing_plan_id":"cebpf4jnsgd1na2vs0mg"},{"bike_id":"205fc87c-6c91-4b2c-96b0-c9dc66bc431f","system_id":"levelo_inurba_marseille","lat":43.299724,"lon":5.384848,"is_reserved":false,"is_disabled":false,"rental_uris":{"android":"levelo://app?vid=205fc87c-6c91-4b2c-96b0-c9dc66bc431f","ios":"levelo://app?vid=205fc87c-6c91-4b2c-96b0-c9dc66bc431f"},"vehicle_type_id":"4","last_reported":1718460427,"current_range_meters":20800,"station_id":"ce4bgj92rcd13ifvqbd0","pricing_plan_id":"cebpf4jnsgd1na2vs0mg"},{"bike_id":"d6f23a01-d057-4da5-9a53-5071e57cf888","system_id":"levelo_inurba_marseille","lat":43.29604,"lon":5.380587,"is_reserved":false,"is_disabled":false,"rental_uris":{"android":"levelo://app?vid=d6f23a01-d057-4da5-9a53-5071e57cf888","ios":"levelo://app?vid=d6f23a01-d057-4da5-9a53-5071e57cf888"},"vehicle_type_id":"4","last_reported":1718460427,"current_range_meters":20000,"station_id":"ce4bgl12rcd13ifvqbo0","pricing_plan_id":"cebpf4jnsgd1na2vs0mg"},{"bike_id":"42dc6df4-7c21-465c-97a7-220ce4b0d60d","system_id":"levelo_inurba_marseille","lat":43.29602,"lon":5.381084,"is_reserved":false,"is_disabled":false,"rental_uris":{"android":"levelo://app?vid=42dc6df4-7c21-465c-97a7-220ce4b0d60d","ios":"levelo://app?vid=42dc6df4-7c21-465c-97a7-220ce4b0d60d"},"vehicle_type_id":"4","last_reported":1718460427,"current_range_meters":8800,"station_id":"ce4bgl12rcd13ifvqbo0","pricing_plan_id":"cebpf4jnsgd1na2vs0mg"},{"bike_id":"0e9c4173-e949-4ea9-9e07-d1401150b7dd","system_id":"levelo_inurba_marseille","lat":43.293249,"lon":5.371578,"is_reserved":false,"is_disabled":false,"rental_uris":{"android":"levelo://app?vid=0e9c4173-e949-4ea9-9e07-d1401150b7dd","ios":"levelo://app?vid=0e9c4173-e949-4ea9-9e07-d1401150b7dd"},"vehicle_type_id":"4","last_reported":1718460427,"current_range_meters":31200,"station_id":"ce4bgh92rcd13ifvqb40","pricing_plan_id":"cebpf4jnsgd1na2vs0mg"},{"bike_id":"f2fab300-2e1c-44c7-8fbf-3cc16f406706","system_id":"levelo_inurba_marseille","lat":43.292749,"lon":5.368402,"is_reserved":false,"is_disabled":false,"rental_uris":{"android":"levelo://app?vid=f2fab300-2e1c-44c7-8fbf-3cc16f406706","ios":"levelo://app?vid=f2fab300-2e1c-44c7-8fbf-3cc16f406706"},"vehicle_type_id":"4","last_reported":1718460427,"current_range_meters":0,"station_id":"ce4bhbp2rcd13ifvqesg","pricing_plan_id":"cebpf4jnsgd1na2vs0mg"},{"bike_id":"4fef8d49-b2a9-4ec8-b50c-961c60b7d563","system_id":"levelo_inurba_marseille","lat":43.292749,"lon":5.368402,"is_reserved":false,"is_disabled":false,"rental_uris":{"android":"levelo://app?vid=4fef8d49-b2a9-4ec8-b50c-961c60b7d563","ios":"levelo://app?vid=4fef8d49-b2a9-4ec8-b50c-961c60b7d563"},"vehicle_type_id":"4","last_reported":1718460427,"current_range_meters":25600,"station_id":"ce4bhbp2rcd13ifvqesg","pricing_plan_id":"cebpf4jnsgd1na2vs0mg"},{"bike_id":"1a73d548-1eb7-4ccf-9bfc-c31f710c480f","system_id":"levelo_inurba_marseille","lat":43.293009,"lon":5.374584,"is_reserved":false,"is_disabled":false,"rental_uris":{"android":"levelo://app?vid=1a73d548-1eb7-4ccf-9bfc-c31f710c480f","ios":"levelo://app?vid=1a73d548-1eb7-4ccf-9bfc-c31f710c480f"},"vehicle_type_id":"4","last_reported":1718460427,"current_range_meters":31200,"station_id":"ce4bgi12rcd13ifvqb70","pricing_plan_id":"cebpf4jnsgd1na2vs0mg"},{"bike_id":"3fa3975e-32f1-40b8-9fd0-12919d3ef314","system_id":"levelo_inurba_marseille","lat":43.302992,"lon":5.392136,"is_reserved":false,"is_disabled":false,"rental_uris":{"android":"levelo://app?vid=3fa3975e-32f1-40b8-9fd0-12919d3ef314","ios":"levelo://app?vid=3fa3975e-32f1-40b8-9fd0-12919d3ef314"},"vehicle_type_id":"4","last_reported":1718460427,"current_range_meters":22000,"station_id":"ce4bgkh2rcd13ifvqbk0","pricing_plan_id":"cebpf4jnsgd1na2vs0mg"},{"bike_id":"aa747f7c-8a8f-4b76-bf8c-e3dae81a4a9f","system_id":"levelo_inurba_marseille","lat":43.305994,"lon":5.393687,"is_reserved":false,"is_disabled":false,"rental_uris":{"android":"levelo://app?vid=aa747f7c-8a8f-4b76-bf8c-e3dae81a4a9f","ios":"levelo://app?vid=aa747f7c-8a8f-4b76-bf8c-e3dae81a4a9f"},"vehicle_type_id":"4","last_reported":1718460427,"current_range_meters":30800,"station_id":"ce4bh0p2rcd13ifvqd80","pricing_plan_id":"cebpf4jnsgd1na2vs0mg"},{"bike_id":"5bbb48a6-7cc6-49e9-a933-7688692564d4","system_id":"levelo_inurba_marseille","lat":43.30085,"lon":5.390856,"is_reserved":false,"is_disabled":false,"rental_uris":{"android":"levelo://app?vid=5bbb48a6-7cc6-49e9-a933-7688692564d4","ios":"levelo://app?vid=5bbb48a6-7cc6-49e9-a933-7688692564d4"},"vehicle_type_id":"4","last_reported":1718460427,"current_range_meters":16800,"station_id":"ce4bh192rcd13ifvqdb0","pricing_plan_id":"cebpf4jnsgd1na2vs0mg"},{"bike_id":"96228216-b395-49bb-89aa-f75e478efdb0","system_id":"levelo_inurba_marseille","lat":43.29354,"lon":5.37855,"is_reserved":false,"is_disabled":false,"rental_uris":{"android":"levelo://app?vid=96228216-b395-49bb-89aa-f75e478efdb0","ios":"levelo://app?vid=96228216-b395-49bb-89aa-f75e478efdb0"},"vehicle_type_id":"4","last_reported":1718460427,"current_range_meters":21600,"station_id":"","pricing_plan_id":"cebpf4jnsgd1na2vs0mg"},{"bike_id":"4d25ed20-b48b-47fe-9018-673a4f33e5c3","system_id":"levelo_inurba_marseille","lat":43.292311,"lon":5.360731,"is_reserved":false,"is_disabled":false,"rental_uris":{"android":"levelo://app?vid=4d25ed20-b48b-47fe-9018-673a4f33e5c3","ios":"levelo://app?vid=4d25ed20-b48b-47fe-9018-673a4f33e5c3"},"vehicle_type_id":"4","last_reported":1718460427,"current_range_meters":12000,"station_id":"ce4bhbh2rcd13ifvqeqg","pricing_plan_id":"cebpf4jnsgd1na2vs0mg"},{"bike_id":"e4e270e2-685a-46da-a9ae-ab004178b8df","system_id":"levelo_inurba_marseille","lat":43.292005,"lon":5.357875,"is_reserved":false,"is_disabled":false,"rental_uris":{"android":"levelo://app?vid=e4e270e2-685a-46da-a9ae-ab004178b8df","ios":"levelo://app?vid=e4e270e2-685a-46da-a9ae-ab004178b8df"},"vehicle_type_id":"4","last_reported":1718460427,"current_range_meters":10400,"station_id":"ce4bhb12rcd13ifvqel0","pricing_plan_id":"cebpf4jnsgd1na2vs0mg"},{"bike_id":"18db0f2c-1cc4-4a07-9864-acbf9daf094c","system_id":"levelo_inurba_marseille","lat":43.313291,"lon":5.396838,"is_reserved":false,"is_disabled":false,"rental_uris":{"android":"levelo://app?vid=18db0f2c-1cc4-4a07-9864-acbf9daf094c","ios":"levelo://app?vid=18db0f2c-1cc4-4a07-9864-acbf9daf094c"},"vehicle_type_id":"4","last_reported":1718460427,"current_range_meters":11600,"station_id":"ce4bgvp2rcd13ifvqcu0","pricing_plan_id":"cebpf4jnsgd1na2vs0mg"},{"bike_id":"6dbc9f29-07ac-45ae-af76-fcbccf57cb0a","system_id":"levelo_inurba_marseille","lat":43.291994,"lon":5.357886,"is_reserved":false,"is_disabled":false,"rental_uris":{"android":"levelo://app?vid=6dbc9f29-07ac-45ae-af76-fcbccf57cb0a","ios":"levelo://app?vid=6dbc9f29-07ac-45ae-af76-fcbccf57cb0a"},"vehicle_type_id":"4","last_reported":1718460427,"current_range_meters":7200,"station_id":"ce4bhb12rcd13ifvqel0","pricing_plan_id":"cebpf4jnsgd1na2vs0mg"},{"bike_id":"47de7a48-37ae-4e27-946a-5d10da1c61df","system_id":"levelo_inurba_marseille","lat":43.291994,"lon":5.357886,"is_reserved":false,"is_disabled":false,"rental_uris":{"android":"levelo://app?vid=47de7a48-37ae-4e27-946a-5d10da1c61df","ios":"levelo://app?vid=47de7a48-37ae-4e27-946a-5d10da1c61df"},"vehicle_type_id":"4","last_reported":1718460427,"current_range_meters":12800,"station_id":"ce4bhb12rcd13ifvqel0","pricing_plan_id":"cebpf4jnsgd1na2vs0mg"},{"bike_id":"cbfa5e34-a330-432c-987e-ddc6ab80ab69","system_id":"levelo_inurba_marseille","lat":43.302008,"lon":5.394694,"is_reserved":false,"is_disabled":false,"rental_uris":{"android":"levelo://app?vid=cbfa5e34-a330-432c-987e-ddc6ab80ab69","ios":"levelo://app?vid=cbfa5e34-a330-432c-987e-ddc6ab80ab69"},"vehicle_type_id":"4","last_reported":1718460427,"current_range_meters":2800,"station_id":"ce4bh0p2rcd13ifvqd70","pricing_plan_id":"cebpf4jnsgd1na2vs0mg"},{"bike_id":"731c5608-e6eb-4c0e-b9c6-dca169ea2505","system_id":"levelo_inurba_marseille","lat":43.290631,"lon":5.359244,"is_reserved":false,"is_disabled":false,"rental_uris":{"android":"levelo://app?vid=731c5608-e6eb-4c0e-b9c6-dca169ea2505","ios":"levelo://app?vid=731c5608-e6eb-4c0e-b9c6-dca169ea2505"},"vehicle_type_id":"4","last_reported":1718460427,"current_range_meters":18400,"station_id":"ce4bha92rcd13ifvqeg0","pricing_plan_id":"cebpf4jnsgd1na2vs0mg"},{"bike_id":"a9449a4c-6039-4c7d-930c-13a252f4fee9","system_id":"levelo_inurba_marseille","lat":43.290631,"lon":5.359244,"is_reserved":false,"is_disabled":false,"rental_uris":{"android":"levelo://app?vid=a9449a4c-6039-4c7d-930c-13a252f4fee9","ios":"levelo://app?vid=a9449a4c-6039-4c7d-930c-13a252f4fee9"},"vehicle_type_id":"4","last_reported":1718460427,"current_range_meters":5200,"station_id":"ce4bha92rcd13ifvqeg0","pricing_plan_id":"cebpf4jnsgd1na2vs0mg"},{"bike_id":"e87892ca-4001-4dbd-891f-e34af81b5387","system_id":"levelo_inurba_marseille","lat":43.290624,"lon":5.359245,"is_reserved":false,"is_disabled":false,"rental_uris":{"android":"levelo://app?vid=e87892ca-4001-4dbd-891f-e34af81b5387","ios":"levelo://app?vid=e87892ca-4001-4dbd-891f-e34af81b5387"},"vehicle_type_id":"4","last_reported":1718460427,"current_range_meters":27600,"station_id":"ce4bha92rcd13ifvqeg0","pricing_plan_id":"cebpf4jnsgd1na2vs0mg"},{"bike_id":"c43eaabf-b0fe-4674-9ea7-1fe2da1e1c69","system_id":"levelo_inurba_marseille","lat":43.289184,"lon":5.366408,"is_reserved":false,"is_disabled":false,"rental_uris":{"android":"levelo://app?vid=c43eaabf-b0fe-4674-9ea7-1fe2da1e1c69","ios":"levelo://app?vid=c43eaabf-b0fe-4674-9ea7-1fe2da1e1c69"},"vehicle_type_id":"4","last_reported":1718460427,"current_range_meters":400,"station_id":"ce4bhap2rcd13ifvqek0","pricing_plan_id":"cebpf4jnsgd1na2vs0mg"},{"bike_id":"b9a6ae9d-c684-4731-811c-c1da35d565fe","system_id":"levelo_inurba_marseille","lat":43.289184,"lon":5.366408,"is_reserved":false,"is_disabled":false,"rental_uris":{"android":"levelo://app?vid=b9a6ae9d-c684-4731-811c-c1da35d565fe","ios":"levelo://app?vid=b9a6ae9d-c684-4731-811c-c1da35d565fe"},"vehicle_type_id":"4","last_reported":1718460427,"current_range_meters":14400,"station_id":"ce4bhap2rcd13ifvqek0","pricing_plan_id":"cebpf4jnsgd1na2vs0mg"},{"bike_id":"0c30042a-762e-400c-a9f4-0abda2d644c9","system_id":"levelo_inurba_marseille","lat":43.304274,"lon":5.397513,"is_reserved":false,"is_disabled":false,"rental_uris":{"android":"levelo://app?vid=0c30042a-762e-400c-a9f4-0abda2d644c9","ios":"levelo://app?vid=0c30042a-762e-400c-a9f4-0abda2d644c9"},"vehicle_type_id":"4","last_reported":1718460427,"current_range_meters":18400,"station_id":"ce4bh092rcd13ifvqd20","pricing_plan_id":"cebpf4jnsgd1na2vs0mg"},{"bike_id":"62651f3d-59e2-42e4-a397-116eb18cde10","system_id":"levelo_inurba_marseille","lat":43.292644,"lon":5.384257,"is_reserved":false,"is_disabled":false,"rental_uris":{"android":"levelo://app?vid=62651f3d-59e2-42e4-a397-116eb18cde10","ios":"levelo://app?vid=62651f3d-59e2-42e4-a397-116eb18cde10"},"vehicle_type_id":"4","last_reported":1718460427,"current_range_meters":12000,"station_id":"ce4bh692rcd13ifvqea0","pricing_plan_id":"cebpf4jnsgd1na2vs0mg"},{"bike_id":"24c92e1b-8293-4f40-bbbd-1e1570cb732a","system_id":"levelo_inurba_marseille","lat":43.290103,"lon":5.356114,"is_reserved":false,"is_disabled":false,"rental_uris":{"android":"levelo://app?vid=24c92e1b-8293-4f40-bbbd-1e1570cb732a","ios":"levelo://app?vid=24c92e1b-8293-4f40-bbbd-1e1570cb732a"},"vehicle_type_id":"4","last_reported":1718460427,"current_range_meters":30800,"station_id":"ce4bhb92rcd13ifvqen0","pricing_plan_id":"cebpf4jnsgd1na2vs0mg"},{"bike_id":"71129a89-6436-484b-a348-1a77652a12ab","system_id":"levelo_inurba_marseille","lat":43.292642,"lon":5.384254,"is_reserved":false,"is_disabled":false,"rental_uris":{"android":"levelo://app?vid=71129a89-6436-484b-a348-1a77652a12ab","ios":"levelo://app?vid=71129a89-6436-484b-a348-1a77652a12ab"},"vehicle_type_id":"4","last_reported":1718460427,"current_range_meters":1200,"station_id":"ce4bh692rcd13ifvqea0","pricing_plan_id":"cebpf4jnsgd1na2vs0mg"},{"bike_id":"e3a04638-9744-4582-8ae5-6b158aa1be2d","system_id":"levelo_inurba_marseille","lat":43.304296,"lon":5.397513,"is_reserved":false,"is_disabled":false,"rental_uris":{"android":"levelo://app?vid=e3a04638-9744-4582-8ae5-6b158aa1be2d","ios":"levelo://app?vid=e3a04638-9744-4582-8ae5-6b158aa1be2d"},"vehicle_type_id":"4","last_reported":1718460427,"current_range_meters":14800,"station_id":"ce4bh092rcd13ifvqd20","pricing_plan_id":"cebpf4jnsgd1na2vs0mg"},{"bike_id":"baab1adb-38a4-46dc-940e-66a85d14d77e","system_id":"levelo_inurba_marseille","lat":43.290104,"lon":5.356111,"is_reserved":false,"is_disabled":false,"rental_uris":{"android":"levelo://app?vid=baab1adb-38a4-46dc-940e-66a85d14d77e","ios":"levelo://app?vid=baab1adb-38a4-46dc-940e-66a85d14d77e"},"vehicle_type_id":"4","last_reported":1718460427,"current_range_meters":400,"station_id":"ce4bhb92rcd13ifvqen0","pricing_plan_id":"cebpf4jnsgd1na2vs0mg"},{"bike_id":"e46dec99-c3d4-4024-b9e6-6877df672b2f","system_id":"levelo_inurba_marseille","lat":43.290104,"lon":5.356111,"is_reserved":false,"is_disabled":false,"rental_uris":{"android":"levelo://app?vid=e46dec99-c3d4-4024-b9e6-6877df672b2f","ios":"levelo://app?vid=e46dec99-c3d4-4024-b9e6-6877df672b2f"},"vehicle_type_id":"4","last_reported":1718460427,"current_range_meters":2400,"station_id":"ce4bhb92rcd13ifvqen0","pricing_plan_id":"cebpf4jnsgd1na2vs0mg"},{"bike_id":"c0ee0f62-ad4e-4d12-94f5-fcf6da550078","system_id":"levelo_inurba_marseille","lat":43.290103,"lon":5.356114,"is_reserved":false,"is_disabled":false,"rental_uris":{"android":"levelo://app?vid=c0ee0f62-ad4e-4d12-94f5-fcf6da550078","ios":"levelo://app?vid=c0ee0f62-ad4e-4d12-94f5-fcf6da550078"},"vehicle_type_id":"4","last_reported":1718460427,"current_range_meters":0,"station_id":"ce4bhb92rcd13ifvqen0","pricing_plan_id":"cebpf4jnsgd1na2vs0mg"},{"bike_id":"60bd6584-3430-4335-8fdb-15661973208b","system_id":"levelo_inurba_marseille","lat":43.290104,"lon":5.356111,"is_reserved":false,"is_disabled":false,"rental_uris":{"android":"levelo://app?vid=60bd6584-3430-4335-8fdb-15661973208b","ios":"levelo://app?vid=60bd6584-3430-4335-8fdb-15661973208b"},"vehicle_type_id":"4","last_reported":1718460427,"current_range_meters":23600,"station_id":"ce4bhb92rcd13ifvqen0","pricing_plan_id":"cebpf4jnsgd1na2vs0mg"},{"bike_id":"0816328e-027f-4e11-8020-8f5c1cc68518","system_id":"levelo_inurba_marseille","lat":43.290104,"lon":5.356111,"is_reserved":false,"is_disabled":false,"rental_uris":{"android":"levelo://app?vid=0816328e-027f-4e11-8020-8f5c1cc68518","ios":"levelo://app?vid=0816328e-027f-4e11-8020-8f5c1cc68518"},"vehicle_type_id":"4","last_reported":1718460427,"current_range_meters":27200,"station_id":"ce4bhb92rcd13ifvqen0","pricing_plan_id":"cebpf4jnsgd1na2vs0mg"},{"bike_id":"6efa7e50-9ae1-4785-b950-fafe4b4d8954","system_id":"levelo_inurba_marseille","lat":43.290104,"lon":5.356111,"is_reserved":false,"is_disabled":false,"rental_uris":{"android":"levelo://app?vid=6efa7e50-9ae1-4785-b950-fafe4b4d8954","ios":"levelo://app?vid=6efa7e50-9ae1-4785-b950-fafe4b4d8954"},"vehicle_type_id":"4","last_reported":1718460427,"current_range_meters":3600,"station_id":"ce4bhb92rcd13ifvqen0","pricing_plan_id":"cebpf4jnsgd1na2vs0mg"},{"bike_id":"8d308348-d38c-437a-bc24-00f96f1dc553","system_id":"levelo_inurba_marseille","lat":43.290103,"lon":5.356114,"is_reserved":false,"is_disabled":false,"rental_uris":{"android":"levelo://app?vid=8d308348-d38c-437a-bc24-00f96f1dc553","ios":"levelo://app?vid=8d308348-d38c-437a-bc24-00f96f1dc553"},"vehicle_type_id":"4","last_reported":1718460427,"current_range_meters":1200,"station_id":"ce4bhb92rcd13ifvqen0","pricing_plan_id":"cebpf4jnsgd1na2vs0mg"},{"bike_id":"be83af0b-a3c7-4510-8369-90e465568d98","system_id":"levelo_inurba_marseille","lat":43.330442,"lon":5.389148,"is_reserved":false,"is_disabled":false,"rental_uris":{"android":"levelo://app?vid=be83af0b-a3c7-4510-8369-90e465568d98","ios":"levelo://app?vid=be83af0b-a3c7-4510-8369-90e465568d98"},"vehicle_type_id":"4","last_reported":1718460427,"current_range_meters":13600,"station_id":"ce4bhr92rcd13ifvqhrg","pricing_plan_id":"cebpf4jnsgd1na2vs0mg"},{"bike_id":"02eb425a-752a-437c-be4a-66780e36091b","system_id":"levelo_inurba_marseille","lat":43.290094,"lon":5.381264,"is_reserved":false,"is_disabled":false,"rental_uris":{"android":"levelo://app?vid=02eb425a-752a-437c-be4a-66780e36091b","ios":"levelo://app?vid=02eb425a-752a-437c-be4a-66780e36091b"},"vehicle_type_id":"4","last_reported":1718460427,"current_range_meters":800,"station_id":"ce4bh4p2rcd13ifvqe1g","pricing_plan_id":"cebpf4jnsgd1na2vs0mg"},{"bike_id":"a18cdf68-eced-4e5b-9ae9-cff4917f5bd0","system_id":"levelo_inurba_marseille","lat":43.290094,"lon":5.381264,"is_reserved":false,"is_disabled":false,"rental_uris":{"android":"levelo://app?vid=a18cdf68-eced-4e5b-9ae9-cff4917f5bd0","ios":"levelo://app?vid=a18cdf68-eced-4e5b-9ae9-cff4917f5bd0"},"vehicle_type_id":"4","last_reported":1718460427,"current_range_meters":30800,"station_id":"ce4bh4p2rcd13ifvqe1g","pricing_plan_id":"cebpf4jnsgd1na2vs0mg"},{"bike_id":"5a4892a4-a922-4ee7-a3ac-1daeaea3e759","system_id":"levelo_inurba_marseille","lat":43.28856,"lon":5.358371,"is_reserved":false,"is_disabled":false,"rental_uris":{"android":"levelo://app?vid=5a4892a4-a922-4ee7-a3ac-1daeaea3e759","ios":"levelo://app?vid=5a4892a4-a922-4ee7-a3ac-1daeaea3e759"},"vehicle_type_id":"4","last_reported":1718460427,"current_range_meters":25600,"station_id":"ce4bhb12rcd13ifvqem0","pricing_plan_id":"cebpf4jnsgd1na2vs0mg"},{"bike_id":"facaeca9-a226-4bff-99c2-2e8e8b1676b5","system_id":"levelo_inurba_marseille","lat":43.28856,"lon":5.358371,"is_reserved":false,"is_disabled":false,"rental_uris":{"android":"levelo://app?vid=facaeca9-a226-4bff-99c2-2e8e8b1676b5","ios":"levelo://app?vid=facaeca9-a226-4bff-99c2-2e8e8b1676b5"},"vehicle_type_id":"4","last_reported":1718460427,"current_range_meters":4000,"station_id":"ce4bhb12rcd13ifvqem0","pricing_plan_id":"cebpf4jnsgd1na2vs0mg"},{"bike_id":"a2c344fa-ec2b-4db3-be4e-65b16d6d1a9e","system_id":"levelo_inurba_marseille","lat":43.28856,"lon":5.358371,"is_reserved":false,"is_disabled":false,"rental_uris":{"android":"levelo://app?vid=a2c344fa-ec2b-4db3-be4e-65b16d6d1a9e","ios":"levelo://app?vid=a2c344fa-ec2b-4db3-be4e-65b16d6d1a9e"},"vehicle_type_id":"4","last_reported":1718460427,"current_range_meters":20400,"station_id":"ce4bhb12rcd13ifvqem0","pricing_plan_id":"cebpf4jnsgd1na2vs0mg"},{"bike_id":"744b2ff0-6fe8-419b-a2a5-3b6b9bb7cd08","system_id":"levelo_inurba_marseille","lat":43.33752,"lon":5.37443,"is_reserved":false,"is_disabled":false,"rental_uris":{"android":"levelo://app?vid=744b2ff0-6fe8-419b-a2a5-3b6b9bb7cd08","ios":"levelo://app?vid=744b2ff0-6fe8-419b-a2a5-3b6b9bb7cd08"},"vehicle_type_id":"4","last_reported":1718460427,"current_range_meters":29600,"station_id":"","pricing_plan_id":"cebpf4jnsgd1na2vs0mg"},{"bike_id":"16558da9-2d79-48fb-a4dd-500b865a0ebc","system_id":"levelo_inurba_marseille","lat":43.312609,"lon":5.401662,"is_reserved":false,"is_disabled":false,"rental_uris":{"android":"levelo://app?vid=16558da9-2d79-48fb-a4dd-500b865a0ebc","ios":"levelo://app?vid=16558da9-2d79-48fb-a4dd-500b865a0ebc"},"vehicle_type_id":"4","last_reported":1718460427,"current_range_meters":1200,"station_id":"ce4bh092rcd13ifvqd30","pricing_plan_id":"cebpf4jnsgd1na2vs0mg"},{"bike_id":"e1512863-0927-4702-b249-40d36e19f2c0","system_id":"levelo_inurba_marseille","lat":43.33752,"lon":5.37473,"is_reserved":false,"is_disabled":false,"rental_uris":{"android":"levelo://app?vid=e1512863-0927-4702-b249-40d36e19f2c0","ios":"levelo://app?vid=e1512863-0927-4702-b249-40d36e19f2c0"},"vehicle_type_id":"4","last_reported":1718460427,"current_range_meters":22400,"station_id":"","pricing_plan_id":"cebpf4jnsgd1na2vs0mg"},{"bike_id":"7b478928-a87d-43cc-8658-c28ea33654b8","system_id":"levelo_inurba_marseille","lat":43.33783,"lon":5.37445,"is_reserved":false,"is_disabled":false,"rental_uris":{"android":"levelo://app?vid=7b478928-a87d-43cc-8658-c28ea33654b8","ios":"levelo://app?vid=7b478928-a87d-43cc-8658-c28ea33654b8"},"vehicle_type_id":"4","last_reported":1718460427,"current_range_meters":31200,"station_id":"","pricing_plan_id":"cebpf4jnsgd1na2vs0mg"},{"bike_id":"6cfce73b-1bf0-464c-8653-aabdb8d39b71","system_id":"levelo_inurba_marseille","lat":43.3014,"lon":5.39873,"is_reserved":false,"is_disabled":false,"rental_uris":{"android":"levelo://app?vid=6cfce73b-1bf0-464c-8653-aabdb8d39b71","ios":"levelo://app?vid=6cfce73b-1bf0-464c-8653-aabdb8d39b71"},"vehicle_type_id":"4","last_reported":1718460427,"current_range_meters":0,"station_id":"ce4bh0h2rcd13ifvqd40","pricing_plan_id":"cebpf4jnsgd1na2vs0mg"},{"bike_id":"67a9bfba-276c-41a6-82e6-7008c8fa7ef5","system_id":"levelo_inurba_marseille","lat":43.30122,"lon":5.39861,"is_reserved":false,"is_disabled":false,"rental_uris":{"android":"levelo://app?vid=67a9bfba-276c-41a6-82e6-7008c8fa7ef5","ios":"levelo://app?vid=67a9bfba-276c-41a6-82e6-7008c8fa7ef5"},"vehicle_type_id":"4","last_reported":1718460427,"current_range_meters":0,"station_id":"ce4bh0h2rcd13ifvqd40","pricing_plan_id":"cebpf4jnsgd1na2vs0mg"},{"bike_id":"5148b339-aa3f-48b6-98eb-1e7679d1f53d","system_id":"levelo_inurba_marseille","lat":43.30151,"lon":5.39887,"is_reserved":false,"is_disabled":false,"rental_uris":{"android":"levelo://app?vid=5148b339-aa3f-48b6-98eb-1e7679d1f53d","ios":"levelo://app?vid=5148b339-aa3f-48b6-98eb-1e7679d1f53d"},"vehicle_type_id":"4","last_reported":1718460427,"current_range_meters":0,"station_id":"ce4bh0h2rcd13ifvqd40","pricing_plan_id":"cebpf4jnsgd1na2vs0mg"},{"bike_id":"6ef06cd6-33c5-46bd-b158-782c469289c9","system_id":"levelo_inurba_marseille","lat":43.301117,"lon":5.398795,"is_reserved":false,"is_disabled":false,"rental_uris":{"android":"levelo://app?vid=6ef06cd6-33c5-46bd-b158-782c469289c9","ios":"levelo://app?vid=6ef06cd6-33c5-46bd-b158-782c469289c9"},"vehicle_type_id":"4","last_reported":1718460427,"current_range_meters":25200,"station_id":"ce4bh0h2rcd13ifvqd40","pricing_plan_id":"cebpf4jnsgd1na2vs0mg"},{"bike_id":"36ddba52-e6fe-4be3-b413-cd54db24f8b1","system_id":"levelo_inurba_marseille","lat":43.298681,"lon":5.397225,"is_reserved":false,"is_disabled":false,"rental_uris":{"android":"levelo://app?vid=36ddba52-e6fe-4be3-b413-cd54db24f8b1","ios":"levelo://app?vid=36ddba52-e6fe-4be3-b413-cd54db24f8b1"},"vehicle_type_id":"4","last_reported":1718460427,"current_range_meters":18400,"station_id":"ce4bh0h2rcd13ifvqd50","pricing_plan_id":"cebpf4jnsgd1na2vs0mg"},{"bike_id":"c9dd8dd4-dd21-484e-a651-07218a842880","system_id":"levelo_inurba_marseille","lat":43.286961,"lon":5.373785,"is_reserved":false,"is_disabled":false,"rental_uris":{"android":"levelo://app?vid=c9dd8dd4-dd21-484e-a651-07218a842880","ios":"levelo://app?vid=c9dd8dd4-dd21-484e-a651-07218a842880"},"vehicle_type_id":"4","last_reported":1718460427,"current_range_meters":26400,"station_id":"ce4bh3p2rcd13ifvqdq0","pricing_plan_id":"cebpf4jnsgd1na2vs0mg"},{"bike_id":"8fd17948-d6d2-4858-921a-53947e680931","system_id":"levelo_inurba_marseille","lat":43.286961,"lon":5.373785,"is_reserved":false,"is_disabled":false,"rental_uris":{"android":"levelo://app?vid=8fd17948-d6d2-4858-921a-53947e680931","ios":"levelo://app?vid=8fd17948-d6d2-4858-921a-53947e680931"},"vehicle_type_id":"4","last_reported":1718460427,"current_range_meters":0,"station_id":"ce4bh3p2rcd13ifvqdq0","pricing_plan_id":"cebpf4jnsgd1na2vs0mg"},{"bike_id":"3861f52e-470f-4c9b-9592-baf5a1f35d5d","system_id":"levelo_inurba_marseille","lat":43.298681,"lon":5.397225,"is_reserved":false,"is_disabled":false,"rental_uris":{"android":"levelo://app?vid=3861f52e-470f-4c9b-9592-baf5a1f35d5d","ios":"levelo://app?vid=3861f52e-470f-4c9b-9592-baf5a1f35d5d"},"vehicle_type_id":"4","last_reported":1718460427,"current_range_meters":23200,"station_id":"ce4bh0h2rcd13ifvqd50","pricing_plan_id":"cebpf4jnsgd1na2vs0mg"},{"bike_id":"5b504ff2-315f-4152-80fa-a31959863578","system_id":"levelo_inurba_marseille","lat":43.286961,"lon":5.373785,"is_reserved":false,"is_disabled":false,"rental_uris":{"android":"levelo://app?vid=5b504ff2-315f-4152-80fa-a31959863578","ios":"levelo://app?vid=5b504ff2-315f-4152-80fa-a31959863578"},"vehicle_type_id":"4","last_reported":1718460427,"current_range_meters":4800,"station_id":"ce4bh3p2rcd13ifvqdq0","pricing_plan_id":"cebpf4jnsgd1na2vs0mg"},{"bike_id":"ef072525-ee56-4f77-a770-1457a971d65f","system_id":"levelo_inurba_marseille","lat":43.286961,"lon":5.373785,"is_reserved":false,"is_disabled":false,"rental_uris":{"android":"levelo://app?vid=ef072525-ee56-4f77-a770-1457a971d65f","ios":"levelo://app?vid=ef072525-ee56-4f77-a770-1457a971d65f"},"vehicle_type_id":"4","last_reported":1718460427,"current_range_meters":15200,"station_id":"ce4bh3p2rcd13ifvqdq0","pricing_plan_id":"cebpf4jnsgd1na2vs0mg"},{"bike_id":"302ab188-380a-468b-9618-b006677e5c87","system_id":"levelo_inurba_marseille","lat":43.290345,"lon":5.38646,"is_reserved":false,"is_disabled":false,"rental_uris":{"android":"levelo://app?vid=302ab188-380a-468b-9618-b006677e5c87","ios":"levelo://app?vid=302ab188-380a-468b-9618-b006677e5c87"},"vehicle_type_id":"4","last_reported":1718460427,"current_range_meters":10800,"station_id":"ce4bh4p2rcd13ifvqe0g","pricing_plan_id":"cebpf4jnsgd1na2vs0mg"},{"bike_id":"ec899a2e-f9b7-472d-8d86-0369a597e391","system_id":"levelo_inurba_marseille","lat":43.302759,"lon":5.400793,"is_reserved":false,"is_disabled":false,"rental_uris":{"android":"levelo://app?vid=ec899a2e-f9b7-472d-8d86-0369a597e391","ios":"levelo://app?vid=ec899a2e-f9b7-472d-8d86-0369a597e391"},"vehicle_type_id":"4","last_reported":1718460427,"current_range_meters":2000,"station_id":"ce4bgvh2rcd13ifvqcs0","pricing_plan_id":"cebpf4jnsgd1na2vs0mg"},{"bike_id":"03d75bdf-050e-4054-9592-e9ee97e82dad","system_id":"levelo_inurba_marseille","lat":43.30233,"lon":5.40056,"is_reserved":false,"is_disabled":false,"rental_uris":{"android":"levelo://app?vid=03d75bdf-050e-4054-9592-e9ee97e82dad","ios":"levelo://app?vid=03d75bdf-050e-4054-9592-e9ee97e82dad"},"vehicle_type_id":"4","last_reported":1718460427,"current_range_meters":0,"station_id":"","pricing_plan_id":"cebpf4jnsgd1na2vs0mg"},{"bike_id":"f4962ef8-759b-477d-aa89-ef9648a1bb99","system_id":"levelo_inurba_marseille","lat":43.287185,"lon":5.379373,"is_reserved":false,"is_disabled":false,"rental_uris":{"android":"levelo://app?vid=f4962ef8-759b-477d-aa89-ef9648a1bb99","ios":"levelo://app?vid=f4962ef8-759b-477d-aa89-ef9648a1bb99"},"vehicle_type_id":"4","last_reported":1718460427,"current_range_meters":17600,"station_id":"ce4bh9p2rcd13ifvqec0","pricing_plan_id":"cebpf4jnsgd1na2vs0mg"},{"bike_id":"5bf34eb3-7905-4dae-a80b-1f6152a434b3","system_id":"levelo_inurba_marseille","lat":43.316828,"lon":5.404723,"is_reserved":false,"is_disabled":false,"rental_uris":{"android":"levelo://app?vid=5bf34eb3-7905-4dae-a80b-1f6152a434b3","ios":"levelo://app?vid=5bf34eb3-7905-4dae-a80b-1f6152a434b3"},"vehicle_type_id":"4","last_reported":1718460427,"current_range_meters":2800,"station_id":"ce4bh012rcd13ifvqd00","pricing_plan_id":"cebpf4jnsgd1na2vs0mg"},{"bike_id":"09b1b703-67a7-4088-911e-0ef69509ef08","system_id":"levelo_inurba_marseille","lat":43.316828,"lon":5.404723,"is_reserved":false,"is_disabled":false,"rental_uris":{"android":"levelo://app?vid=09b1b703-67a7-4088-911e-0ef69509ef08","ios":"levelo://app?vid=09b1b703-67a7-4088-911e-0ef69509ef08"},"vehicle_type_id":"4","last_reported":1718460427,"current_range_meters":30000,"station_id":"ce4bh012rcd13ifvqd00","pricing_plan_id":"cebpf4jnsgd1na2vs0mg"},{"bike_id":"61895a8c-78c4-4e5f-b339-034761a5e5f0","system_id":"levelo_inurba_marseille","lat":43.316821,"lon":5.404737,"is_reserved":false,"is_disabled":false,"rental_uris":{"android":"levelo://app?vid=61895a8c-78c4-4e5f-b339-034761a5e5f0","ios":"levelo://app?vid=61895a8c-78c4-4e5f-b339-034761a5e5f0"},"vehicle_type_id":"4","last_reported":1718460427,"current_range_meters":31200,"station_id":"ce4bh012rcd13ifvqd00","pricing_plan_id":"cebpf4jnsgd1na2vs0mg"},{"bike_id":"41b757ec-eca4-42e0-a023-80d6dd9129fe","system_id":"levelo_inurba_marseille","lat":43.316821,"lon":5.404737,"is_reserved":false,"is_disabled":false,"rental_uris":{"android":"levelo://app?vid=41b757ec-eca4-42e0-a023-80d6dd9129fe","ios":"levelo://app?vid=41b757ec-eca4-42e0-a023-80d6dd9129fe"},"vehicle_type_id":"4","last_reported":1718460427,"current_range_meters":31600,"station_id":"ce4bh012rcd13ifvqd00","pricing_plan_id":"cebpf4jnsgd1na2vs0mg"},{"bike_id":"4dc2f32c-f5de-46d8-aa77-1c1978b5ac5c","system_id":"levelo_inurba_marseille","lat":43.316821,"lon":5.404737,"is_reserved":false,"is_disabled":false,"rental_uris":{"android":"levelo://app?vid=4dc2f32c-f5de-46d8-aa77-1c1978b5ac5c","ios":"levelo://app?vid=4dc2f32c-f5de-46d8-aa77-1c1978b5ac5c"},"vehicle_type_id":"4","last_reported":1718460427,"current_range_meters":12000,"station_id":"ce4bh012rcd13ifvqd00","pricing_plan_id":"cebpf4jnsgd1na2vs0mg"},{"bike_id":"6a3294cc-0a66-494c-bcfb-071200783c06","system_id":"levelo_inurba_marseille","lat":43.285848,"lon":5.350787,"is_reserved":false,"is_disabled":false,"rental_uris":{"android":"levelo://app?vid=6a3294cc-0a66-494c-bcfb-071200783c06","ios":"levelo://app?vid=6a3294cc-0a66-494c-bcfb-071200783c06"},"vehicle_type_id":"4","last_reported":1718460427,"current_range_meters":800,"station_id":"ce4bhch2rcd13ifvqeug","pricing_plan_id":"cebpf4jnsgd1na2vs0mg"},{"bike_id":"83f660b8-9c79-461e-bc0f-a6e24cd3591a","system_id":"levelo_inurba_marseille","lat":43.285848,"lon":5.350787,"is_reserved":false,"is_disabled":false,"rental_uris":{"android":"levelo://app?vid=83f660b8-9c79-461e-bc0f-a6e24cd3591a","ios":"levelo://app?vid=83f660b8-9c79-461e-bc0f-a6e24cd3591a"},"vehicle_type_id":"4","last_reported":1718460427,"current_range_meters":3200,"station_id":"ce4bhch2rcd13ifvqeug","pricing_plan_id":"cebpf4jnsgd1na2vs0mg"},{"bike_id":"3a0bdd57-a8e0-42cf-9c55-18043d3ed9fe","system_id":"levelo_inurba_marseille","lat":43.285848,"lon":5.350787,"is_reserved":false,"is_disabled":false,"rental_uris":{"android":"levelo://app?vid=3a0bdd57-a8e0-42cf-9c55-18043d3ed9fe","ios":"levelo://app?vid=3a0bdd57-a8e0-42cf-9c55-18043d3ed9fe"},"vehicle_type_id":"4","last_reported":1718460427,"current_range_meters":21600,"station_id":"ce4bhch2rcd13ifvqeug","pricing_plan_id":"cebpf4jnsgd1na2vs0mg"},{"bike_id":"eeed5671-8b7a-4fda-b524-c72aa41581a2","system_id":"levelo_inurba_marseille","lat":43.285848,"lon":5.350787,"is_reserved":false,"is_disabled":false,"rental_uris":{"android":"levelo://app?vid=eeed5671-8b7a-4fda-b524-c72aa41581a2","ios":"levelo://app?vid=eeed5671-8b7a-4fda-b524-c72aa41581a2"},"vehicle_type_id":"4","last_reported":1718460427,"current_range_meters":2800,"station_id":"ce4bhch2rcd13ifvqeug","pricing_plan_id":"cebpf4jnsgd1na2vs0mg"},{"bike_id":"0ec95d4f-575f-4449-9be7-e7f8e098d870","system_id":"levelo_inurba_marseille","lat":43.285848,"lon":5.350787,"is_reserved":false,"is_disabled":false,"rental_uris":{"android":"levelo://app?vid=0ec95d4f-575f-4449-9be7-e7f8e098d870","ios":"levelo://app?vid=0ec95d4f-575f-4449-9be7-e7f8e098d870"},"vehicle_type_id":"4","last_reported":1718460427,"current_range_meters":16000,"station_id":"ce4bhch2rcd13ifvqeug","pricing_plan_id":"cebpf4jnsgd1na2vs0mg"},{"bike_id":"4b2c11fa-b54e-4ab4-a5ac-c0caa7f803b3","system_id":"levelo_inurba_marseille","lat":43.285848,"lon":5.350787,"is_reserved":false,"is_disabled":false,"rental_uris":{"android":"levelo://app?vid=4b2c11fa-b54e-4ab4-a5ac-c0caa7f803b3","ios":"levelo://app?vid=4b2c11fa-b54e-4ab4-a5ac-c0caa7f803b3"},"vehicle_type_id":"4","last_reported":1718460427,"current_range_meters":27600,"station_id":"ce4bhch2rcd13ifvqeug","pricing_plan_id":"cebpf4jnsgd1na2vs0mg"},{"bike_id":"962abb60-416b-41cb-8620-a9f29aa4a695","system_id":"levelo_inurba_marseille","lat":43.285848,"lon":5.350787,"is_reserved":false,"is_disabled":false,"rental_uris":{"android":"levelo://app?vid=962abb60-416b-41cb-8620-a9f29aa4a695","ios":"levelo://app?vid=962abb60-416b-41cb-8620-a9f29aa4a695"},"vehicle_type_id":"4","last_reported":1718460427,"current_range_meters":20000,"station_id":"ce4bhch2rcd13ifvqeug","pricing_plan_id":"cebpf4jnsgd1na2vs0mg"},{"bike_id":"498d1084-67d2-4743-a6d3-9afc5226d260","system_id":"levelo_inurba_marseille","lat":43.285848,"lon":5.350787,"is_reserved":false,"is_disabled":false,"rental_uris":{"android":"levelo://app?vid=498d1084-67d2-4743-a6d3-9afc5226d260","ios":"levelo://app?vid=498d1084-67d2-4743-a6d3-9afc5226d260"},"vehicle_type_id":"4","last_reported":1718460427,"current_range_meters":23600,"station_id":"ce4bhch2rcd13ifvqeug","pricing_plan_id":"cebpf4jnsgd1na2vs0mg"},{"bike_id":"db4b5efb-acf9-4896-8cfa-921e929f34e9","system_id":"levelo_inurba_marseille","lat":43.28618,"lon":5.35101,"is_reserved":false,"is_disabled":false,"rental_uris":{"android":"levelo://app?vid=db4b5efb-acf9-4896-8cfa-921e929f34e9","ios":"levelo://app?vid=db4b5efb-acf9-4896-8cfa-921e929f34e9"},"vehicle_type_id":"4","last_reported":1718460427,"current_range_meters":400,"station_id":"ce4bhch2rcd13ifvqeug","pricing_plan_id":"cebpf4jnsgd1na2vs0mg"},{"bike_id":"27db9e5d-1786-4c2a-bb8c-20218315de52","system_id":"levelo_inurba_marseille","lat":43.28617,"lon":5.35102,"is_reserved":false,"is_disabled":false,"rental_uris":{"android":"levelo://app?vid=27db9e5d-1786-4c2a-bb8c-20218315de52","ios":"levelo://app?vid=27db9e5d-1786-4c2a-bb8c-20218315de52"},"vehicle_type_id":"4","last_reported":1718460427,"current_range_meters":21200,"station_id":"ce4bhch2rcd13ifvqeug","pricing_plan_id":"cebpf4jnsgd1na2vs0mg"},{"bike_id":"f148dc29-62a1-46bf-9d44-905e9eb55ba9","system_id":"levelo_inurba_marseille","lat":43.285848,"lon":5.350787,"is_reserved":false,"is_disabled":false,"rental_uris":{"android":"levelo://app?vid=f148dc29-62a1-46bf-9d44-905e9eb55ba9","ios":"levelo://app?vid=f148dc29-62a1-46bf-9d44-905e9eb55ba9"},"vehicle_type_id":"4","last_reported":1718460427,"current_range_meters":17600,"station_id":"ce4bhch2rcd13ifvqeug","pricing_plan_id":"cebpf4jnsgd1na2vs0mg"},{"bike_id":"5ef45a37-acac-4484-9f64-64c282105386","system_id":"levelo_inurba_marseille","lat":43.285848,"lon":5.350787,"is_reserved":false,"is_disabled":false,"rental_uris":{"android":"levelo://app?vid=5ef45a37-acac-4484-9f64-64c282105386","ios":"levelo://app?vid=5ef45a37-acac-4484-9f64-64c282105386"},"vehicle_type_id":"4","last_reported":1718460427,"current_range_meters":31200,"station_id":"ce4bhch2rcd13ifvqeug","pricing_plan_id":"cebpf4jnsgd1na2vs0mg"},{"bike_id":"9d5d42cc-2b99-4fba-a444-1fd64251ea7d","system_id":"levelo_inurba_marseille","lat":43.28613,"lon":5.351,"is_reserved":false,"is_disabled":false,"rental_uris":{"android":"levelo://app?vid=9d5d42cc-2b99-4fba-a444-1fd64251ea7d","ios":"levelo://app?vid=9d5d42cc-2b99-4fba-a444-1fd64251ea7d"},"vehicle_type_id":"4","last_reported":1718460427,"current_range_meters":9200,"station_id":"ce4bhch2rcd13ifvqeug","pricing_plan_id":"cebpf4jnsgd1na2vs0mg"},{"bike_id":"901051d8-a5c3-4a98-8f1a-03acc8b253e4","system_id":"levelo_inurba_marseille","lat":43.285848,"lon":5.350787,"is_reserved":false,"is_disabled":false,"rental_uris":{"android":"levelo://app?vid=901051d8-a5c3-4a98-8f1a-03acc8b253e4","ios":"levelo://app?vid=901051d8-a5c3-4a98-8f1a-03acc8b253e4"},"vehicle_type_id":"4","last_reported":1718460427,"current_range_meters":19600,"station_id":"ce4bhch2rcd13ifvqeug","pricing_plan_id":"cebpf4jnsgd1na2vs0mg"},{"bike_id":"5d1ce7f5-02a1-4cc1-8e14-3507494bd753","system_id":"levelo_inurba_marseille","lat":43.283998,"lon":5.375062,"is_reserved":false,"is_disabled":false,"rental_uris":{"android":"levelo://app?vid=5d1ce7f5-02a1-4cc1-8e14-3507494bd753","ios":"levelo://app?vid=5d1ce7f5-02a1-4cc1-8e14-3507494bd753"},"vehicle_type_id":"4","last_reported":1718460427,"current_range_meters":2800,"station_id":"ce4bh412rcd13ifvqds0","pricing_plan_id":"cebpf4jnsgd1na2vs0mg"},{"bike_id":"a7a707da-5591-40a4-b65b-9d0d39b79d6f","system_id":"levelo_inurba_marseille","lat":43.295713,"lon":5.399639,"is_reserved":false,"is_disabled":false,"rental_uris":{"android":"levelo://app?vid=a7a707da-5591-40a4-b65b-9d0d39b79d6f","ios":"levelo://app?vid=a7a707da-5591-40a4-b65b-9d0d39b79d6f"},"vehicle_type_id":"4","last_reported":1718460427,"current_range_meters":21200,"station_id":"ce4bh312rcd13ifvqdj0","pricing_plan_id":"cebpf4jnsgd1na2vs0mg"},{"bike_id":"cae184cc-605f-47d8-8668-abd85cadac46","system_id":"levelo_inurba_marseille","lat":43.285706,"lon":5.383238,"is_reserved":false,"is_disabled":false,"rental_uris":{"android":"levelo://app?vid=cae184cc-605f-47d8-8668-abd85cadac46","ios":"levelo://app?vid=cae184cc-605f-47d8-8668-abd85cadac46"},"vehicle_type_id":"4","last_reported":1718460427,"current_range_meters":0,"station_id":"","pricing_plan_id":"cebpf4jnsgd1na2vs0mg"},{"bike_id":"4eff5abb-1044-4d4c-b313-14464a19327e","system_id":"levelo_inurba_marseille","lat":43.286595,"lon":5.386795,"is_reserved":false,"is_disabled":false,"rental_uris":{"android":"levelo://app?vid=4eff5abb-1044-4d4c-b313-14464a19327e","ios":"levelo://app?vid=4eff5abb-1044-4d4c-b313-14464a19327e"},"vehicle_type_id":"4","last_reported":1718460427,"current_range_meters":22400,"station_id":"ce4bh492rcd13ifvqdug","pricing_plan_id":"cebpf4jnsgd1na2vs0mg"},{"bike_id":"a2a2f780-f3c0-407f-834e-6d94d6f7c2ba","system_id":"levelo_inurba_marseille","lat":43.286595,"lon":5.386795,"is_reserved":false,"is_disabled":false,"rental_uris":{"android":"levelo://app?vid=a2a2f780-f3c0-407f-834e-6d94d6f7c2ba","ios":"levelo://app?vid=a2a2f780-f3c0-407f-834e-6d94d6f7c2ba"},"vehicle_type_id":"4","last_reported":1718460427,"current_range_meters":16800,"station_id":"ce4bh492rcd13ifvqdug","pricing_plan_id":"cebpf4jnsgd1na2vs0mg"},{"bike_id":"19c1bcfd-5450-45ed-8434-88f6859d2852","system_id":"levelo_inurba_marseille","lat":43.319179,"lon":5.407725,"is_reserved":false,"is_disabled":false,"rental_uris":{"android":"levelo://app?vid=19c1bcfd-5450-45ed-8434-88f6859d2852","ios":"levelo://app?vid=19c1bcfd-5450-45ed-8434-88f6859d2852"},"vehicle_type_id":"4","last_reported":1718460427,"current_range_meters":26800,"station_id":"ce4bhq12rcd13ifvqhig","pricing_plan_id":"cebpf4jnsgd1na2vs0mg"},{"bike_id":"24f7cfea-c2fb-472c-b149-83bacf18efd2","system_id":"levelo_inurba_marseille","lat":43.319179,"lon":5.407725,"is_reserved":false,"is_disabled":false,"rental_uris":{"android":"levelo://app?vid=24f7cfea-c2fb-472c-b149-83bacf18efd2","ios":"levelo://app?vid=24f7cfea-c2fb-472c-b149-83bacf18efd2"},"vehicle_type_id":"4","last_reported":1718460427,"current_range_meters":31200,"station_id":"ce4bhq12rcd13ifvqhig","pricing_plan_id":"cebpf4jnsgd1na2vs0mg"},{"bike_id":"e229690f-a312-45ef-b429-442417c9cbc8","system_id":"levelo_inurba_marseille","lat":43.319179,"lon":5.407725,"is_reserved":false,"is_disabled":false,"rental_uris":{"android":"levelo://app?vid=e229690f-a312-45ef-b429-442417c9cbc8","ios":"levelo://app?vid=e229690f-a312-45ef-b429-442417c9cbc8"},"vehicle_type_id":"4","last_reported":1718460427,"current_range_meters":31600,"station_id":"ce4bhq12rcd13ifvqhig","pricing_plan_id":"cebpf4jnsgd1na2vs0mg"},{"bike_id":"9c1a32b7-013b-4b83-a457-a06eaf68c8a9","system_id":"levelo_inurba_marseille","lat":43.319179,"lon":5.407725,"is_reserved":false,"is_disabled":false,"rental_uris":{"android":"levelo://app?vid=9c1a32b7-013b-4b83-a457-a06eaf68c8a9","ios":"levelo://app?vid=9c1a32b7-013b-4b83-a457-a06eaf68c8a9"},"vehicle_type_id":"4","last_reported":1718460427,"current_range_meters":0,"station_id":"ce4bhq12rcd13ifvqhig","pricing_plan_id":"cebpf4jnsgd1na2vs0mg"},{"bike_id":"4a56fdfe-237c-4eb1-9409-668452a8b93b","system_id":"levelo_inurba_marseille","lat":43.319179,"lon":5.407725,"is_reserved":false,"is_disabled":false,"rental_uris":{"android":"levelo://app?vid=4a56fdfe-237c-4eb1-9409-668452a8b93b","ios":"levelo://app?vid=4a56fdfe-237c-4eb1-9409-668452a8b93b"},"vehicle_type_id":"4","last_reported":1718460427,"current_range_meters":27600,"station_id":"ce4bhq12rcd13ifvqhig","pricing_plan_id":"cebpf4jnsgd1na2vs0mg"},{"bike_id":"dd2e9729-e1d5-4267-8edd-c56689a58ba3","system_id":"levelo_inurba_marseille","lat":43.33715,"lon":5.39185,"is_reserved":false,"is_disabled":false,"rental_uris":{"android":"levelo://app?vid=dd2e9729-e1d5-4267-8edd-c56689a58ba3","ios":"levelo://app?vid=dd2e9729-e1d5-4267-8edd-c56689a58ba3"},"vehicle_type_id":"4","last_reported":1718460427,"current_range_meters":4400,"station_id":"ce4bhr92rcd13ifvqhsg","pricing_plan_id":"cebpf4jnsgd1na2vs0mg"},{"bike_id":"44fab20b-b08b-426a-a0cf-b5870d5badb3","system_id":"levelo_inurba_marseille","lat":43.33717,"lon":5.391857,"is_reserved":false,"is_disabled":false,"rental_uris":{"android":"levelo://app?vid=44fab20b-b08b-426a-a0cf-b5870d5badb3","ios":"levelo://app?vid=44fab20b-b08b-426a-a0cf-b5870d5badb3"},"vehicle_type_id":"4","last_reported":1718460427,"current_range_meters":28800,"station_id":"ce4bhr92rcd13ifvqhsg","pricing_plan_id":"cebpf4jnsgd1na2vs0mg"},{"bike_id":"fc12dedb-a964-4c67-88ad-7f79f7904f5d","system_id":"levelo_inurba_marseille","lat":43.33725,"lon":5.39178,"is_reserved":false,"is_disabled":false,"rental_uris":{"android":"levelo://app?vid=fc12dedb-a964-4c67-88ad-7f79f7904f5d","ios":"levelo://app?vid=fc12dedb-a964-4c67-88ad-7f79f7904f5d"},"vehicle_type_id":"4","last_reported":1718460427,"current_range_meters":23600,"station_id":"ce4bhr92rcd13ifvqhsg","pricing_plan_id":"cebpf4jnsgd1na2vs0mg"},{"bike_id":"0bc3788e-2f5b-4806-8904-ccb5b477a1f7","system_id":"levelo_inurba_marseille","lat":43.33725,"lon":5.39179,"is_reserved":false,"is_disabled":false,"rental_uris":{"android":"levelo://app?vid=0bc3788e-2f5b-4806-8904-ccb5b477a1f7","ios":"levelo://app?vid=0bc3788e-2f5b-4806-8904-ccb5b477a1f7"},"vehicle_type_id":"4","last_reported":1718460427,"current_range_meters":800,"station_id":"ce4bhr92rcd13ifvqhsg","pricing_plan_id":"cebpf4jnsgd1na2vs0mg"},{"bike_id":"9e1df774-68d7-4674-81d5-2894b160ede1","system_id":"levelo_inurba_marseille","lat":43.323464,"lon":5.406297,"is_reserved":false,"is_disabled":false,"rental_uris":{"android":"levelo://app?vid=9e1df774-68d7-4674-81d5-2894b160ede1","ios":"levelo://app?vid=9e1df774-68d7-4674-81d5-2894b160ede1"},"vehicle_type_id":"4","last_reported":1718460427,"current_range_meters":20400,"station_id":"ce4bhq92rcd13ifvqhjg","pricing_plan_id":"cebpf4jnsgd1na2vs0mg"},{"bike_id":"f9ee6075-3c88-456c-8aaa-c9e5ee7cde12","system_id":"levelo_inurba_marseille","lat":43.323464,"lon":5.406297,"is_reserved":false,"is_disabled":false,"rental_uris":{"android":"levelo://app?vid=f9ee6075-3c88-456c-8aaa-c9e5ee7cde12","ios":"levelo://app?vid=f9ee6075-3c88-456c-8aaa-c9e5ee7cde12"},"vehicle_type_id":"4","last_reported":1718460427,"current_range_meters":17200,"station_id":"ce4bhq92rcd13ifvqhjg","pricing_plan_id":"cebpf4jnsgd1na2vs0mg"},{"bike_id":"bf341fec-4f2d-464f-a6c6-b0ecb9f4841d","system_id":"levelo_inurba_marseille","lat":43.323464,"lon":5.406297,"is_reserved":false,"is_disabled":false,"rental_uris":{"android":"levelo://app?vid=bf341fec-4f2d-464f-a6c6-b0ecb9f4841d","ios":"levelo://app?vid=bf341fec-4f2d-464f-a6c6-b0ecb9f4841d"},"vehicle_type_id":"4","last_reported":1718460427,"current_range_meters":26800,"station_id":"ce4bhq92rcd13ifvqhjg","pricing_plan_id":"cebpf4jnsgd1na2vs0mg"},{"bike_id":"dd4aa5da-7a0f-44d0-b248-319b25b8bf62","system_id":"levelo_inurba_marseille","lat":43.323464,"lon":5.406297,"is_reserved":false,"is_disabled":false,"rental_uris":{"android":"levelo://app?vid=dd4aa5da-7a0f-44d0-b248-319b25b8bf62","ios":"levelo://app?vid=dd4aa5da-7a0f-44d0-b248-319b25b8bf62"},"vehicle_type_id":"4","last_reported":1718460427,"current_range_meters":16400,"station_id":"ce4bhq92rcd13ifvqhjg","pricing_plan_id":"cebpf4jnsgd1na2vs0mg"},{"bike_id":"989caff8-98fc-493a-ba69-6b6167702fd6","system_id":"levelo_inurba_marseille","lat":43.284793,"lon":5.384119,"is_reserved":false,"is_disabled":false,"rental_uris":{"android":"levelo://app?vid=989caff8-98fc-493a-ba69-6b6167702fd6","ios":"levelo://app?vid=989caff8-98fc-493a-ba69-6b6167702fd6"},"vehicle_type_id":"4","last_reported":1718460427,"current_range_meters":16000,"station_id":"ce4bh512rcd13ifvqe3g","pricing_plan_id":"cebpf4jnsgd1na2vs0mg"},{"bike_id":"e5a79bf6-2ffe-44f3-88bc-775c16aba124","system_id":"levelo_inurba_marseille","lat":43.283494,"lon":5.380945,"is_reserved":false,"is_disabled":false,"rental_uris":{"android":"levelo://app?vid=e5a79bf6-2ffe-44f3-88bc-775c16aba124","ios":"levelo://app?vid=e5a79bf6-2ffe-44f3-88bc-775c16aba124"},"vehicle_type_id":"4","last_reported":1718460427,"current_range_meters":6400,"station_id":"ce4bh412rcd13ifvqdr0","pricing_plan_id":"cebpf4jnsgd1na2vs0mg"},{"bike_id":"67c5b83d-f784-4301-9cc4-2fc5293ec237","system_id":"levelo_inurba_marseille","lat":43.284219,"lon":5.3497,"is_reserved":false,"is_disabled":false,"rental_uris":{"android":"levelo://app?vid=67c5b83d-f784-4301-9cc4-2fc5293ec237","ios":"levelo://app?vid=67c5b83d-f784-4301-9cc4-2fc5293ec237"},"vehicle_type_id":"4","last_reported":1718460427,"current_range_meters":27600,"station_id":"ce4bhbh2rcd13ifvqepg","pricing_plan_id":"cebpf4jnsgd1na2vs0mg"},{"bike_id":"acd8b5df-9b78-48f3-82e6-000bf1b72458","system_id":"levelo_inurba_marseille","lat":43.284219,"lon":5.3497,"is_reserved":false,"is_disabled":false,"rental_uris":{"android":"levelo://app?vid=acd8b5df-9b78-48f3-82e6-000bf1b72458","ios":"levelo://app?vid=acd8b5df-9b78-48f3-82e6-000bf1b72458"},"vehicle_type_id":"4","last_reported":1718460427,"current_range_meters":17600,"station_id":"ce4bhbh2rcd13ifvqepg","pricing_plan_id":"cebpf4jnsgd1na2vs0mg"},{"bike_id":"e6e23ac8-8675-42f1-a439-c49aeec05d4a","system_id":"levelo_inurba_marseille","lat":43.284217,"lon":5.349697,"is_reserved":false,"is_disabled":false,"rental_uris":{"android":"levelo://app?vid=e6e23ac8-8675-42f1-a439-c49aeec05d4a","ios":"levelo://app?vid=e6e23ac8-8675-42f1-a439-c49aeec05d4a"},"vehicle_type_id":"4","last_reported":1718460427,"current_range_meters":24800,"station_id":"ce4bhbh2rcd13ifvqepg","pricing_plan_id":"cebpf4jnsgd1na2vs0mg"},{"bike_id":"b32da819-bc8b-42e5-8208-2d6fbad6b0a4","system_id":"levelo_inurba_marseille","lat":43.284219,"lon":5.3497,"is_reserved":false,"is_disabled":false,"rental_uris":{"android":"levelo://app?vid=b32da819-bc8b-42e5-8208-2d6fbad6b0a4","ios":"levelo://app?vid=b32da819-bc8b-42e5-8208-2d6fbad6b0a4"},"vehicle_type_id":"4","last_reported":1718460427,"current_range_meters":13600,"station_id":"ce4bhbh2rcd13ifvqepg","pricing_plan_id":"cebpf4jnsgd1na2vs0mg"},{"bike_id":"74eefe45-04d9-4b87-8abc-7079bc4ddcb2","system_id":"levelo_inurba_marseille","lat":43.28426,"lon":5.34988,"is_reserved":false,"is_disabled":false,"rental_uris":{"android":"levelo://app?vid=74eefe45-04d9-4b87-8abc-7079bc4ddcb2","ios":"levelo://app?vid=74eefe45-04d9-4b87-8abc-7079bc4ddcb2"},"vehicle_type_id":"4","last_reported":1718460427,"current_range_meters":3200,"station_id":"ce4bhbh2rcd13ifvqepg","pricing_plan_id":"cebpf4jnsgd1na2vs0mg"},{"bike_id":"3274ea65-98ab-4d14-a6fd-a4d96583259e","system_id":"levelo_inurba_marseille","lat":43.284219,"lon":5.3497,"is_reserved":false,"is_disabled":false,"rental_uris":{"android":"levelo://app?vid=3274ea65-98ab-4d14-a6fd-a4d96583259e","ios":"levelo://app?vid=3274ea65-98ab-4d14-a6fd-a4d96583259e"},"vehicle_type_id":"4","last_reported":1718460427,"current_range_meters":24400,"station_id":"ce4bhbh2rcd13ifvqepg","pricing_plan_id":"cebpf4jnsgd1na2vs0mg"},{"bike_id":"7c3dfe8e-2847-4c95-b146-eb3acea82e11","system_id":"levelo_inurba_marseille","lat":43.28425,"lon":5.349873,"is_reserved":false,"is_disabled":false,"rental_uris":{"android":"levelo://app?vid=7c3dfe8e-2847-4c95-b146-eb3acea82e11","ios":"levelo://app?vid=7c3dfe8e-2847-4c95-b146-eb3acea82e11"},"vehicle_type_id":"4","last_reported":1718460427,"current_range_meters":19600,"station_id":"ce4bhbh2rcd13ifvqepg","pricing_plan_id":"cebpf4jnsgd1na2vs0mg"},{"bike_id":"6b798dc7-e873-4421-acfc-80e91c366647","system_id":"levelo_inurba_marseille","lat":43.28424,"lon":5.34988,"is_reserved":false,"is_disabled":false,"rental_uris":{"android":"levelo://app?vid=6b798dc7-e873-4421-acfc-80e91c366647","ios":"levelo://app?vid=6b798dc7-e873-4421-acfc-80e91c366647"},"vehicle_type_id":"4","last_reported":1718460427,"current_range_meters":23200,"station_id":"ce4bhbh2rcd13ifvqepg","pricing_plan_id":"cebpf4jnsgd1na2vs0mg"},{"bike_id":"9ffc71e1-8bc4-4f67-a67a-fdbd24c25131","system_id":"levelo_inurba_marseille","lat":43.28424,"lon":5.34987,"is_reserved":false,"is_disabled":false,"rental_uris":{"android":"levelo://app?vid=9ffc71e1-8bc4-4f67-a67a-fdbd24c25131","ios":"levelo://app?vid=9ffc71e1-8bc4-4f67-a67a-fdbd24c25131"},"vehicle_type_id":"4","last_reported":1718460427,"current_range_meters":5200,"station_id":"ce4bhbh2rcd13ifvqepg","pricing_plan_id":"cebpf4jnsgd1na2vs0mg"},{"bike_id":"a7c7a2fd-9119-485f-ad7a-3990168979e5","system_id":"levelo_inurba_marseille","lat":43.284219,"lon":5.3497,"is_reserved":false,"is_disabled":false,"rental_uris":{"android":"levelo://app?vid=a7c7a2fd-9119-485f-ad7a-3990168979e5","ios":"levelo://app?vid=a7c7a2fd-9119-485f-ad7a-3990168979e5"},"vehicle_type_id":"4","last_reported":1718460427,"current_range_meters":12400,"station_id":"ce4bhbh2rcd13ifvqepg","pricing_plan_id":"cebpf4jnsgd1na2vs0mg"},{"bike_id":"e234040d-556f-4012-b2a4-b40513d0bd95","system_id":"levelo_inurba_marseille","lat":43.284217,"lon":5.349697,"is_reserved":false,"is_disabled":false,"rental_uris":{"android":"levelo://app?vid=e234040d-556f-4012-b2a4-b40513d0bd95","ios":"levelo://app?vid=e234040d-556f-4012-b2a4-b40513d0bd95"},"vehicle_type_id":"4","last_reported":1718460427,"current_range_meters":30400,"station_id":"ce4bhbh2rcd13ifvqepg","pricing_plan_id":"cebpf4jnsgd1na2vs0mg"},{"bike_id":"de1cd8b0-36cb-4f47-bc57-16ae7b4d6004","system_id":"levelo_inurba_marseille","lat":43.28423,"lon":5.34984,"is_reserved":false,"is_disabled":false,"rental_uris":{"android":"levelo://app?vid=de1cd8b0-36cb-4f47-bc57-16ae7b4d6004","ios":"levelo://app?vid=de1cd8b0-36cb-4f47-bc57-16ae7b4d6004"},"vehicle_type_id":"4","last_reported":1718460427,"current_range_meters":31200,"station_id":"ce4bhbh2rcd13ifvqepg","pricing_plan_id":"cebpf4jnsgd1na2vs0mg"},{"bike_id":"265300fe-fa47-4300-b53b-b7c0fc789fea","system_id":"levelo_inurba_marseille","lat":43.284217,"lon":5.349697,"is_reserved":false,"is_disabled":false,"rental_uris":{"android":"levelo://app?vid=265300fe-fa47-4300-b53b-b7c0fc789fea","ios":"levelo://app?vid=265300fe-fa47-4300-b53b-b7c0fc789fea"},"vehicle_type_id":"4","last_reported":1718460427,"current_range_meters":15200,"station_id":"ce4bhbh2rcd13ifvqepg","pricing_plan_id":"cebpf4jnsgd1na2vs0mg"},{"bike_id":"30d7b588-a2db-4d31-9317-154640376d00","system_id":"levelo_inurba_marseille","lat":43.284219,"lon":5.3497,"is_reserved":false,"is_disabled":false,"rental_uris":{"android":"levelo://app?vid=30d7b588-a2db-4d31-9317-154640376d00","ios":"levelo://app?vid=30d7b588-a2db-4d31-9317-154640376d00"},"vehicle_type_id":"4","last_reported":1718460427,"current_range_meters":4800,"station_id":"ce4bhbh2rcd13ifvqepg","pricing_plan_id":"cebpf4jnsgd1na2vs0mg"},{"bike_id":"7280e5ba-8fa7-4523-914d-9f0a5f9df919","system_id":"levelo_inurba_marseille","lat":43.2842,"lon":5.3499,"is_reserved":false,"is_disabled":false,"rental_uris":{"android":"levelo://app?vid=7280e5ba-8fa7-4523-914d-9f0a5f9df919","ios":"levelo://app?vid=7280e5ba-8fa7-4523-914d-9f0a5f9df919"},"vehicle_type_id":"4","last_reported":1718460427,"current_range_meters":20000,"station_id":"ce4bhbh2rcd13ifvqepg","pricing_plan_id":"cebpf4jnsgd1na2vs0mg"},{"bike_id":"a5d7e78b-2029-4c3d-83ff-0a95814b5c2e","system_id":"levelo_inurba_marseille","lat":43.28421,"lon":5.34984,"is_reserved":false,"is_disabled":false,"rental_uris":{"android":"levelo://app?vid=a5d7e78b-2029-4c3d-83ff-0a95814b5c2e","ios":"levelo://app?vid=a5d7e78b-2029-4c3d-83ff-0a95814b5c2e"},"vehicle_type_id":"4","last_reported":1718460427,"current_range_meters":2000,"station_id":"ce4bhbh2rcd13ifvqepg","pricing_plan_id":"cebpf4jnsgd1na2vs0mg"},{"bike_id":"01b16dd5-0e32-488b-8e69-7fd69aacf673","system_id":"levelo_inurba_marseille","lat":43.28419,"lon":5.3499,"is_reserved":false,"is_disabled":false,"rental_uris":{"android":"levelo://app?vid=01b16dd5-0e32-488b-8e69-7fd69aacf673","ios":"levelo://app?vid=01b16dd5-0e32-488b-8e69-7fd69aacf673"},"vehicle_type_id":"4","last_reported":1718460427,"current_range_meters":7200,"station_id":"ce4bhbh2rcd13ifvqepg","pricing_plan_id":"cebpf4jnsgd1na2vs0mg"},{"bike_id":"cf8156ea-c368-495b-9389-57b11965ae63","system_id":"levelo_inurba_marseille","lat":43.28421,"lon":5.34983,"is_reserved":false,"is_disabled":false,"rental_uris":{"android":"levelo://app?vid=cf8156ea-c368-495b-9389-57b11965ae63","ios":"levelo://app?vid=cf8156ea-c368-495b-9389-57b11965ae63"},"vehicle_type_id":"4","last_reported":1718460427,"current_range_meters":20800,"station_id":"ce4bhbh2rcd13ifvqepg","pricing_plan_id":"cebpf4jnsgd1na2vs0mg"},{"bike_id":"c9d8fbcc-fc8b-495a-b057-f439bfff58a7","system_id":"levelo_inurba_marseille","lat":43.284193,"lon":5.34988,"is_reserved":false,"is_disabled":false,"rental_uris":{"android":"levelo://app?vid=c9d8fbcc-fc8b-495a-b057-f439bfff58a7","ios":"levelo://app?vid=c9d8fbcc-fc8b-495a-b057-f439bfff58a7"},"vehicle_type_id":"4","last_reported":1718460427,"current_range_meters":10800,"station_id":"ce4bhbh2rcd13ifvqepg","pricing_plan_id":"cebpf4jnsgd1na2vs0mg"},{"bike_id":"77d324ea-305d-4ea6-8126-ebc908f08224","system_id":"levelo_inurba_marseille","lat":43.284217,"lon":5.349697,"is_reserved":false,"is_disabled":false,"rental_uris":{"android":"levelo://app?vid=77d324ea-305d-4ea6-8126-ebc908f08224","ios":"levelo://app?vid=77d324ea-305d-4ea6-8126-ebc908f08224"},"vehicle_type_id":"4","last_reported":1718460427,"current_range_meters":21600,"station_id":"ce4bhbh2rcd13ifvqepg","pricing_plan_id":"cebpf4jnsgd1na2vs0mg"},{"bike_id":"f7166e5e-eaef-4aab-a211-75a678f5c58e","system_id":"levelo_inurba_marseille","lat":43.284217,"lon":5.349697,"is_reserved":false,"is_disabled":false,"rental_uris":{"android":"levelo://app?vid=f7166e5e-eaef-4aab-a211-75a678f5c58e","ios":"levelo://app?vid=f7166e5e-eaef-4aab-a211-75a678f5c58e"},"vehicle_type_id":"4","last_reported":1718460427,"current_range_meters":15600,"station_id":"ce4bhbh2rcd13ifvqepg","pricing_plan_id":"cebpf4jnsgd1na2vs0mg"},{"bike_id":"a819eba3-e36d-4697-b19e-68dae8c1e6da","system_id":"levelo_inurba_marseille","lat":43.284163,"lon":5.34995,"is_reserved":false,"is_disabled":false,"rental_uris":{"android":"levelo://app?vid=a819eba3-e36d-4697-b19e-68dae8c1e6da","ios":"levelo://app?vid=a819eba3-e36d-4697-b19e-68dae8c1e6da"},"vehicle_type_id":"4","last_reported":1718460427,"current_range_meters":8400,"station_id":"ce4bhbh2rcd13ifvqepg","pricing_plan_id":"cebpf4jnsgd1na2vs0mg"},{"bike_id":"fefca882-52d2-4241-9980-be440aeffba0","system_id":"levelo_inurba_marseille","lat":43.2842,"lon":5.34983,"is_reserved":false,"is_disabled":false,"rental_uris":{"android":"levelo://app?vid=fefca882-52d2-4241-9980-be440aeffba0","ios":"levelo://app?vid=fefca882-52d2-4241-9980-be440aeffba0"},"vehicle_type_id":"4","last_reported":1718460427,"current_range_meters":12000,"station_id":"ce4bhbh2rcd13ifvqepg","pricing_plan_id":"cebpf4jnsgd1na2vs0mg"},{"bike_id":"3099f141-bdf5-4782-8a60-6931023eaf6e","system_id":"levelo_inurba_marseille","lat":43.28418,"lon":5.34988,"is_reserved":false,"is_disabled":false,"rental_uris":{"android":"levelo://app?vid=3099f141-bdf5-4782-8a60-6931023eaf6e","ios":"levelo://app?vid=3099f141-bdf5-4782-8a60-6931023eaf6e"},"vehicle_type_id":"4","last_reported":1718460427,"current_range_meters":10800,"station_id":"ce4bhbh2rcd13ifvqepg","pricing_plan_id":"cebpf4jnsgd1na2vs0mg"},{"bike_id":"212ae4ac-a643-4d82-ad83-84ba0139b2f7","system_id":"levelo_inurba_marseille","lat":43.284217,"lon":5.349697,"is_reserved":false,"is_disabled":false,"rental_uris":{"android":"levelo://app?vid=212ae4ac-a643-4d82-ad83-84ba0139b2f7","ios":"levelo://app?vid=212ae4ac-a643-4d82-ad83-84ba0139b2f7"},"vehicle_type_id":"4","last_reported":1718460427,"current_range_meters":24400,"station_id":"ce4bhbh2rcd13ifvqepg","pricing_plan_id":"cebpf4jnsgd1na2vs0mg"},{"bike_id":"9811819c-ca7f-4b86-8577-3762ef9fa3c0","system_id":"levelo_inurba_marseille","lat":43.284173,"lon":5.349893,"is_reserved":false,"is_disabled":false,"rental_uris":{"android":"levelo://app?vid=9811819c-ca7f-4b86-8577-3762ef9fa3c0","ios":"levelo://app?vid=9811819c-ca7f-4b86-8577-3762ef9fa3c0"},"vehicle_type_id":"4","last_reported":1718460427,"current_range_meters":24800,"station_id":"ce4bhbh2rcd13ifvqepg","pricing_plan_id":"cebpf4jnsgd1na2vs0mg"},{"bike_id":"52444df1-499a-4491-8f8c-c1898a12aa68","system_id":"levelo_inurba_marseille","lat":43.28419,"lon":5.34983,"is_reserved":false,"is_disabled":false,"rental_uris":{"android":"levelo://app?vid=52444df1-499a-4491-8f8c-c1898a12aa68","ios":"levelo://app?vid=52444df1-499a-4491-8f8c-c1898a12aa68"},"vehicle_type_id":"4","last_reported":1718460427,"current_range_meters":16400,"station_id":"ce4bhbh2rcd13ifvqepg","pricing_plan_id":"cebpf4jnsgd1na2vs0mg"},{"bike_id":"e0bd5db5-3bab-43b6-baa9-e07dcc461ea0","system_id":"levelo_inurba_marseille","lat":43.28419,"lon":5.34982,"is_reserved":false,"is_disabled":false,"rental_uris":{"android":"levelo://app?vid=e0bd5db5-3bab-43b6-baa9-e07dcc461ea0","ios":"levelo://app?vid=e0bd5db5-3bab-43b6-baa9-e07dcc461ea0"},"vehicle_type_id":"4","last_reported":1718460427,"current_range_meters":17200,"station_id":"ce4bhbh2rcd13ifvqepg","pricing_plan_id":"cebpf4jnsgd1na2vs0mg"},{"bike_id":"97b866ca-7f92-4f48-b57b-e13aaa117014","system_id":"levelo_inurba_marseille","lat":43.28422,"lon":5.34972,"is_reserved":false,"is_disabled":false,"rental_uris":{"android":"levelo://app?vid=97b866ca-7f92-4f48-b57b-e13aaa117014","ios":"levelo://app?vid=97b866ca-7f92-4f48-b57b-e13aaa117014"},"vehicle_type_id":"4","last_reported":1718460427,"current_range_meters":29600,"station_id":"ce4bhbh2rcd13ifvqepg","pricing_plan_id":"cebpf4jnsgd1na2vs0mg"},{"bike_id":"213e918e-43a4-4138-b4de-6a062aa386a9","system_id":"levelo_inurba_marseille","lat":43.284219,"lon":5.3497,"is_reserved":false,"is_disabled":false,"rental_uris":{"android":"levelo://app?vid=213e918e-43a4-4138-b4de-6a062aa386a9","ios":"levelo://app?vid=213e918e-43a4-4138-b4de-6a062aa386a9"},"vehicle_type_id":"4","last_reported":1718460427,"current_range_meters":31200,"station_id":"ce4bhbh2rcd13ifvqepg","pricing_plan_id":"cebpf4jnsgd1na2vs0mg"},{"bike_id":"4c3a2fc2-9072-4b83-8b0d-9271926c65cd","system_id":"levelo_inurba_marseille","lat":43.28419,"lon":5.34977,"is_reserved":false,"is_disabled":false,"rental_uris":{"android":"levelo://app?vid=4c3a2fc2-9072-4b83-8b0d-9271926c65cd","ios":"levelo://app?vid=4c3a2fc2-9072-4b83-8b0d-9271926c65cd"},"vehicle_type_id":"4","last_reported":1718460427,"current_range_meters":16800,"station_id":"ce4bhbh2rcd13ifvqepg","pricing_plan_id":"cebpf4jnsgd1na2vs0mg"},{"bike_id":"a64bda13-a198-43b1-a7ce-a74284eeb1b2","system_id":"levelo_inurba_marseille","lat":43.284217,"lon":5.349697,"is_reserved":false,"is_disabled":false,"rental_uris":{"android":"levelo://app?vid=a64bda13-a198-43b1-a7ce-a74284eeb1b2","ios":"levelo://app?vid=a64bda13-a198-43b1-a7ce-a74284eeb1b2"},"vehicle_type_id":"4","last_reported":1718460427,"current_range_meters":2800,"station_id":"ce4bhbh2rcd13ifvqepg","pricing_plan_id":"cebpf4jnsgd1na2vs0mg"},{"bike_id":"45f2c304-c82f-4b5f-a689-c7a753a40325","system_id":"levelo_inurba_marseille","lat":43.28414,"lon":5.3499,"is_reserved":false,"is_disabled":false,"rental_uris":{"android":"levelo://app?vid=45f2c304-c82f-4b5f-a689-c7a753a40325","ios":"levelo://app?vid=45f2c304-c82f-4b5f-a689-c7a753a40325"},"vehicle_type_id":"4","last_reported":1718460427,"current_range_meters":4400,"station_id":"ce4bhbh2rcd13ifvqepg","pricing_plan_id":"cebpf4jnsgd1na2vs0mg"},{"bike_id":"ae89693b-1322-4fab-bc13-ad773dc66ee2","system_id":"levelo_inurba_marseille","lat":43.28417,"lon":5.3498,"is_reserved":false,"is_disabled":false,"rental_uris":{"android":"levelo://app?vid=ae89693b-1322-4fab-bc13-ad773dc66ee2","ios":"levelo://app?vid=ae89693b-1322-4fab-bc13-ad773dc66ee2"},"vehicle_type_id":"4","last_reported":1718460427,"current_range_meters":17600,"station_id":"ce4bhbh2rcd13ifvqepg","pricing_plan_id":"cebpf4jnsgd1na2vs0mg"},{"bike_id":"1e6ef7ea-3d65-47b1-81d0-6a293a860fd1","system_id":"levelo_inurba_marseille","lat":43.284217,"lon":5.349697,"is_reserved":false,"is_disabled":false,"rental_uris":{"android":"levelo://app?vid=1e6ef7ea-3d65-47b1-81d0-6a293a860fd1","ios":"levelo://app?vid=1e6ef7ea-3d65-47b1-81d0-6a293a860fd1"},"vehicle_type_id":"4","last_reported":1718460427,"current_range_meters":10400,"station_id":"ce4bhbh2rcd13ifvqepg","pricing_plan_id":"cebpf4jnsgd1na2vs0mg"},{"bike_id":"0c500770-3ac1-4974-9a84-5cbb2762303a","system_id":"levelo_inurba_marseille","lat":43.284217,"lon":5.349697,"is_reserved":false,"is_disabled":false,"rental_uris":{"android":"levelo://app?vid=0c500770-3ac1-4974-9a84-5cbb2762303a","ios":"levelo://app?vid=0c500770-3ac1-4974-9a84-5cbb2762303a"},"vehicle_type_id":"4","last_reported":1718460427,"current_range_meters":18000,"station_id":"ce4bhbh2rcd13ifvqepg","pricing_plan_id":"cebpf4jnsgd1na2vs0mg"},{"bike_id":"37b0edb5-9c74-4e60-8418-a6d231094892","system_id":"levelo_inurba_marseille","lat":43.28418,"lon":5.34969,"is_reserved":false,"is_disabled":false,"rental_uris":{"android":"levelo://app?vid=37b0edb5-9c74-4e60-8418-a6d231094892","ios":"levelo://app?vid=37b0edb5-9c74-4e60-8418-a6d231094892"},"vehicle_type_id":"4","last_reported":1718460427,"current_range_meters":17200,"station_id":"ce4bhbh2rcd13ifvqepg","pricing_plan_id":"cebpf4jnsgd1na2vs0mg"},{"bike_id":"003aeb0e-8458-44c3-9806-ef2a05954497","system_id":"levelo_inurba_marseille","lat":43.284148,"lon":5.349788,"is_reserved":false,"is_disabled":false,"rental_uris":{"android":"levelo://app?vid=003aeb0e-8458-44c3-9806-ef2a05954497","ios":"levelo://app?vid=003aeb0e-8458-44c3-9806-ef2a05954497"},"vehicle_type_id":"4","last_reported":1718460427,"current_range_meters":8800,"station_id":"ce4bhbh2rcd13ifvqepg","pricing_plan_id":"cebpf4jnsgd1na2vs0mg"},{"bike_id":"f89f67c9-9834-4306-975a-f231cd199597","system_id":"levelo_inurba_marseille","lat":43.284214,"lon":5.349706,"is_reserved":false,"is_disabled":false,"rental_uris":{"android":"levelo://app?vid=f89f67c9-9834-4306-975a-f231cd199597","ios":"levelo://app?vid=f89f67c9-9834-4306-975a-f231cd199597"},"vehicle_type_id":"4","last_reported":1718460427,"current_range_meters":22400,"station_id":"ce4bhbh2rcd13ifvqepg","pricing_plan_id":"cebpf4jnsgd1na2vs0mg"},{"bike_id":"10b86524-6c30-412e-89e9-1470bc03e016","system_id":"levelo_inurba_marseille","lat":43.284217,"lon":5.349697,"is_reserved":false,"is_disabled":false,"rental_uris":{"android":"levelo://app?vid=10b86524-6c30-412e-89e9-1470bc03e016","ios":"levelo://app?vid=10b86524-6c30-412e-89e9-1470bc03e016"},"vehicle_type_id":"4","last_reported":1718460427,"current_range_meters":20800,"station_id":"ce4bhbh2rcd13ifvqepg","pricing_plan_id":"cebpf4jnsgd1na2vs0mg"},{"bike_id":"020469b9-0833-4d68-b8a6-bbb10786f4d8","system_id":"levelo_inurba_marseille","lat":43.284214,"lon":5.349706,"is_reserved":false,"is_disabled":false,"rental_uris":{"android":"levelo://app?vid=020469b9-0833-4d68-b8a6-bbb10786f4d8","ios":"levelo://app?vid=020469b9-0833-4d68-b8a6-bbb10786f4d8"},"vehicle_type_id":"4","last_reported":1718460427,"current_range_meters":7200,"station_id":"ce4bhbh2rcd13ifvqepg","pricing_plan_id":"cebpf4jnsgd1na2vs0mg"},{"bike_id":"46d5fd91-cc38-40e2-a54c-ef92659a2eda","system_id":"levelo_inurba_marseille","lat":43.28414,"lon":5.34977,"is_reserved":false,"is_disabled":false,"rental_uris":{"android":"levelo://app?vid=46d5fd91-cc38-40e2-a54c-ef92659a2eda","ios":"levelo://app?vid=46d5fd91-cc38-40e2-a54c-ef92659a2eda"},"vehicle_type_id":"4","last_reported":1718460427,"current_range_meters":19600,"station_id":"ce4bhbh2rcd13ifvqepg","pricing_plan_id":"cebpf4jnsgd1na2vs0mg"},{"bike_id":"6614f05a-ecf6-4044-a416-155fc1aee495","system_id":"levelo_inurba_marseille","lat":43.28408,"lon":5.34982,"is_reserved":false,"is_disabled":false,"rental_uris":{"android":"levelo://app?vid=6614f05a-ecf6-4044-a416-155fc1aee495","ios":"levelo://app?vid=6614f05a-ecf6-4044-a416-155fc1aee495"},"vehicle_type_id":"4","last_reported":1718460427,"current_range_meters":31200,"station_id":"ce4bhbh2rcd13ifvqepg","pricing_plan_id":"cebpf4jnsgd1na2vs0mg"},{"bike_id":"180e5622-8ee0-4016-ad72-8c4c3b1c3652","system_id":"levelo_inurba_marseille","lat":43.28408,"lon":5.34982,"is_reserved":false,"is_disabled":false,"rental_uris":{"android":"levelo://app?vid=180e5622-8ee0-4016-ad72-8c4c3b1c3652","ios":"levelo://app?vid=180e5622-8ee0-4016-ad72-8c4c3b1c3652"},"vehicle_type_id":"4","last_reported":1718460427,"current_range_meters":16000,"station_id":"ce4bhbh2rcd13ifvqepg","pricing_plan_id":"cebpf4jnsgd1na2vs0mg"},{"bike_id":"93147210-c399-436c-9e0c-96a02448021a","system_id":"levelo_inurba_marseille","lat":43.282744,"lon":5.350533,"is_reserved":false,"is_disabled":false,"rental_uris":{"android":"levelo://app?vid=93147210-c399-436c-9e0c-96a02448021a","ios":"levelo://app?vid=93147210-c399-436c-9e0c-96a02448021a"},"vehicle_type_id":"4","last_reported":1718460427,"current_range_meters":31200,"station_id":"ce4bhbp2rcd13ifvqerg","pricing_plan_id":"cebpf4jnsgd1na2vs0mg"},{"bike_id":"590b3cb1-d7bd-4348-9860-496a3a704886","system_id":"levelo_inurba_marseille","lat":43.282754,"lon":5.350519,"is_reserved":false,"is_disabled":false,"rental_uris":{"android":"levelo://app?vid=590b3cb1-d7bd-4348-9860-496a3a704886","ios":"levelo://app?vid=590b3cb1-d7bd-4348-9860-496a3a704886"},"vehicle_type_id":"4","last_reported":1718460427,"current_range_meters":31200,"station_id":"ce4bhbp2rcd13ifvqerg","pricing_plan_id":"cebpf4jnsgd1na2vs0mg"},{"bike_id":"f20c4570-430e-455a-8014-2da93cd05785","system_id":"levelo_inurba_marseille","lat":43.28279,"lon":5.35057,"is_reserved":false,"is_disabled":false,"rental_uris":{"android":"levelo://app?vid=f20c4570-430e-455a-8014-2da93cd05785","ios":"levelo://app?vid=f20c4570-430e-455a-8014-2da93cd05785"},"vehicle_type_id":"4","last_reported":1718460427,"current_range_meters":27200,"station_id":"ce4bhbp2rcd13ifvqerg","pricing_plan_id":"cebpf4jnsgd1na2vs0mg"},{"bike_id":"84edf14c-5948-44a4-b992-74acf66aaf63","system_id":"levelo_inurba_marseille","lat":43.28273,"lon":5.35077,"is_reserved":false,"is_disabled":false,"rental_uris":{"android":"levelo://app?vid=84edf14c-5948-44a4-b992-74acf66aaf63","ios":"levelo://app?vid=84edf14c-5948-44a4-b992-74acf66aaf63"},"vehicle_type_id":"4","last_reported":1718460427,"current_range_meters":7600,"station_id":"ce4bhbp2rcd13ifvqerg","pricing_plan_id":"cebpf4jnsgd1na2vs0mg"},{"bike_id":"54be03c2-ba3c-4981-ad4a-048ec39d910a","system_id":"levelo_inurba_marseille","lat":43.282744,"lon":5.350533,"is_reserved":false,"is_disabled":false,"rental_uris":{"android":"levelo://app?vid=54be03c2-ba3c-4981-ad4a-048ec39d910a","ios":"levelo://app?vid=54be03c2-ba3c-4981-ad4a-048ec39d910a"},"vehicle_type_id":"4","last_reported":1718460427,"current_range_meters":6000,"station_id":"ce4bhbp2rcd13ifvqerg","pricing_plan_id":"cebpf4jnsgd1na2vs0mg"},{"bike_id":"311fa9a4-6ef6-47d2-a54c-9d9c48a17764","system_id":"levelo_inurba_marseille","lat":43.28271,"lon":5.35079,"is_reserved":false,"is_disabled":false,"rental_uris":{"android":"levelo://app?vid=311fa9a4-6ef6-47d2-a54c-9d9c48a17764","ios":"levelo://app?vid=311fa9a4-6ef6-47d2-a54c-9d9c48a17764"},"vehicle_type_id":"4","last_reported":1718460427,"current_range_meters":14800,"station_id":"ce4bhbp2rcd13ifvqerg","pricing_plan_id":"cebpf4jnsgd1na2vs0mg"},{"bike_id":"7d7625f9-296c-44cb-886d-0f6ec89cfbd1","system_id":"levelo_inurba_marseille","lat":43.282754,"lon":5.350519,"is_reserved":false,"is_disabled":false,"rental_uris":{"android":"levelo://app?vid=7d7625f9-296c-44cb-886d-0f6ec89cfbd1","ios":"levelo://app?vid=7d7625f9-296c-44cb-886d-0f6ec89cfbd1"},"vehicle_type_id":"4","last_reported":1718460427,"current_range_meters":16000,"station_id":"ce4bhbp2rcd13ifvqerg","pricing_plan_id":"cebpf4jnsgd1na2vs0mg"},{"bike_id":"89bfdade-3dfe-4f9c-b2ac-e4ef581d94f3","system_id":"levelo_inurba_marseille","lat":43.28272,"lon":5.35071,"is_reserved":false,"is_disabled":false,"rental_uris":{"android":"levelo://app?vid=89bfdade-3dfe-4f9c-b2ac-e4ef581d94f3","ios":"levelo://app?vid=89bfdade-3dfe-4f9c-b2ac-e4ef581d94f3"},"vehicle_type_id":"4","last_reported":1718460427,"current_range_meters":21200,"station_id":"ce4bhbp2rcd13ifvqerg","pricing_plan_id":"cebpf4jnsgd1na2vs0mg"},{"bike_id":"75908762-d714-4732-879e-48db8f93f3b1","system_id":"levelo_inurba_marseille","lat":43.28274,"lon":5.35063,"is_reserved":false,"is_disabled":false,"rental_uris":{"android":"levelo://app?vid=75908762-d714-4732-879e-48db8f93f3b1","ios":"levelo://app?vid=75908762-d714-4732-879e-48db8f93f3b1"},"vehicle_type_id":"4","last_reported":1718460427,"current_range_meters":13200,"station_id":"ce4bhbp2rcd13ifvqerg","pricing_plan_id":"cebpf4jnsgd1na2vs0mg"},{"bike_id":"57616000-dd9f-4d81-82d8-43dad405c36e","system_id":"levelo_inurba_marseille","lat":43.28272,"lon":5.35068,"is_reserved":false,"is_disabled":false,"rental_uris":{"android":"levelo://app?vid=57616000-dd9f-4d81-82d8-43dad405c36e","ios":"levelo://app?vid=57616000-dd9f-4d81-82d8-43dad405c36e"},"vehicle_type_id":"4","last_reported":1718460427,"current_range_meters":0,"station_id":"ce4bhbp2rcd13ifvqerg","pricing_plan_id":"cebpf4jnsgd1na2vs0mg"},{"bike_id":"43185f57-1641-4170-bad5-5a3e4c246236","system_id":"levelo_inurba_marseille","lat":43.282754,"lon":5.350519,"is_reserved":false,"is_disabled":false,"rental_uris":{"android":"levelo://app?vid=43185f57-1641-4170-bad5-5a3e4c246236","ios":"levelo://app?vid=43185f57-1641-4170-bad5-5a3e4c246236"},"vehicle_type_id":"4","last_reported":1718460427,"current_range_meters":24800,"station_id":"ce4bhbp2rcd13ifvqerg","pricing_plan_id":"cebpf4jnsgd1na2vs0mg"},{"bike_id":"deea76f5-b7ef-413a-9158-85528e38c81d","system_id":"levelo_inurba_marseille","lat":43.28272,"lon":5.35067,"is_reserved":false,"is_disabled":false,"rental_uris":{"android":"levelo://app?vid=deea76f5-b7ef-413a-9158-85528e38c81d","ios":"levelo://app?vid=deea76f5-b7ef-413a-9158-85528e38c81d"},"vehicle_type_id":"4","last_reported":1718460427,"current_range_meters":14400,"station_id":"ce4bhbp2rcd13ifvqerg","pricing_plan_id":"cebpf4jnsgd1na2vs0mg"},{"bike_id":"947dfb8a-7537-488f-8212-e744aa008884","system_id":"levelo_inurba_marseille","lat":43.282721,"lon":5.35065,"is_reserved":false,"is_disabled":false,"rental_uris":{"android":"levelo://app?vid=947dfb8a-7537-488f-8212-e744aa008884","ios":"levelo://app?vid=947dfb8a-7537-488f-8212-e744aa008884"},