{"last_updated":1706382362,"ttl":30,"version":"2.2","data":{"bikes":[{"bike_id":"834a79a2-adec-457a-9f4e-60483b9052be","system_id":"levelo_inurba_marseille","lat":43.312239,"lon":5.368562,"is_reserved":false,"is_disabled":false,"rental_uris":{"android":"levelo://app?vid=834a79a2-adec-457a-9f4e-60483b9052be","ios":"levelo://app?vid=834a79a2-adec-457a-9f4e-60483b9052be"},"vehicle_type_id":"4","last_reported":1706382362,"current_range_meters":6400,"station_id":"ce4bgl92rcd13ifvqbq0","pricing_plan_id":"free"},{"bike_id":"a1212a35-f5f9-4ee5-a9da-43a6772d7954","system_id":"levelo_inurba_marseille","lat":43.314811,"lon":5.373103,"is_reserved":false,"is_disabled":false,"rental_uris":{"android":"levelo://app?vid=a1212a35-f5f9-4ee5-a9da-43a6772d7954","ios":"levelo://app?vid=a1212a35-f5f9-4ee5-a9da-43a6772d7954"},"vehicle_type_id":"4","last_reported":1706382362,"current_range_meters":2000,"station_id":"ce4bgt12rcd13ifvqcd0","pricing_plan_id":"free"},{"bike_id":"867ac2ba-8836-4b05-be3c-99ad6ef559b0","system_id":"levelo_inurba_marseille","lat":43.314811,"lon":5.373103,"is_reserved":false,"is_disabled":false,"rental_uris":{"android":"levelo://app?vid=867ac2ba-8836-4b05-be3c-99ad6ef559b0","ios":"levelo://app?vid=867ac2ba-8836-4b05-be3c-99ad6ef559b0"},"vehicle_type_id":"4","last_reported":1706382362,"current_range_meters":2800,"station_id":"ce4bgt12rcd13ifvqcd0","pricing_plan_id":"free"},{"bike_id":"a4dc710d-749e-45de-bdd5-7d3519aee77f","system_id":"levelo_inurba_marseille","lat":43.314811,"lon":5.373103,"is_reserved":false,"is_disabled":false,"rental_uris":{"android":"levelo://app?vid=a4dc710d-749e-45de-bdd5-7d3519aee77f","ios":"levelo://app?vid=a4dc710d-749e-45de-bdd5-7d3519aee77f"},"vehicle_type_id":"4","last_reported":1706382362,"current_range_meters":4000,"station_id":"ce4bgt12rcd13ifvqcd0","pricing_plan_id":"free"},{"bike_id":"f0223e44-7f80-4774-80b9-2bd330cab4a9","system_id":"levelo_inurba_marseille","lat":43.30886,"lon":5.37188,"is_reserved":false,"is_disabled":false,"rental_uris":{"android":"levelo://app?vid=f0223e44-7f80-4774-80b9-2bd330cab4a9","ios":"levelo://app?vid=f0223e44-7f80-4774-80b9-2bd330cab4a9"},"vehicle_type_id":"4","last_reported":1706382362,"current_range_meters":4400,"station_id":"ce4bguh2rcd13ifvqckg","pricing_plan_id":"free"},{"bike_id":"ff6c1c25-8287-4f32-9d54-133fa7cb156b","system_id":"levelo_inurba_marseille","lat":43.309039,"lon":5.371797,"is_reserved":false,"is_disabled":false,"rental_uris":{"android":"levelo://app?vid=ff6c1c25-8287-4f32-9d54-133fa7cb156b","ios":"levelo://app?vid=ff6c1c25-8287-4f32-9d54-133fa7cb156b"},"vehicle_type_id":"4","last_reported":1706382362,"current_range_meters":8400,"station_id":"ce4bguh2rcd13ifvqckg","pricing_plan_id":"free"},{"bike_id":"17464885-f618-494f-96fa-10d0dcc70cd8","system_id":"levelo_inurba_marseille","lat":43.305712,"lon":5.365641,"is_reserved":false,"is_disabled":false,"rental_uris":{"android":"levelo://app?vid=17464885-f618-494f-96fa-10d0dcc70cd8","ios":"levelo://app?vid=17464885-f618-494f-96fa-10d0dcc70cd8"},"vehicle_type_id":"4","last_reported":1706382362,"current_range_meters":6000,"station_id":"ce4bgs12rcd13ifvqcag","pricing_plan_id":"free"},{"bike_id":"b3a4c76c-4b91-4838-bce7-c17a779a0349","system_id":"levelo_inurba_marseille","lat":43.305498,"lon":5.36534,"is_reserved":false,"is_disabled":false,"rental_uris":{"android":"levelo://app?vid=b3a4c76c-4b91-4838-bce7-c17a779a0349","ios":"levelo://app?vid=b3a4c76c-4b91-4838-bce7-c17a779a0349"},"vehicle_type_id":"4","last_reported":1706382362,"current_range_meters":0,"station_id":"ce4bgs12rcd13ifvqcag","pricing_plan_id":"free"},{"bike_id":"484f803a-4af3-47ad-8952-4e334e739a23","system_id":"levelo_inurba_marseille","lat":43.305989,"lon":5.37225,"is_reserved":false,"is_disabled":false,"rental_uris":{"android":"levelo://app?vid=484f803a-4af3-47ad-8952-4e334e739a23","ios":"levelo://app?vid=484f803a-4af3-47ad-8952-4e334e739a23"},"vehicle_type_id":"4","last_reported":1706382362,"current_range_meters":3600,"station_id":"ce4bgqh2rcd13ifvqc4g","pricing_plan_id":"free"},{"bike_id":"8b1427cd-b0b3-4826-9df2-0e71439fbdb6","system_id":"levelo_inurba_marseille","lat":43.311131,"lon":5.377651,"is_reserved":false,"is_disabled":false,"rental_uris":{"android":"levelo://app?vid=8b1427cd-b0b3-4826-9df2-0e71439fbdb6","ios":"levelo://app?vid=8b1427cd-b0b3-4826-9df2-0e71439fbdb6"},"vehicle_type_id":"4","last_reported":1706382362,"current_range_meters":7600,"station_id":"ce4bgt92rcd13ifvqcg0","pricing_plan_id":"free"},{"bike_id":"362bc6a1-b43c-4189-95fe-6b81e56482f0","system_id":"levelo_inurba_marseille","lat":43.311131,"lon":5.377651,"is_reserved":false,"is_disabled":false,"rental_uris":{"android":"levelo://app?vid=362bc6a1-b43c-4189-95fe-6b81e56482f0","ios":"levelo://app?vid=362bc6a1-b43c-4189-95fe-6b81e56482f0"},"vehicle_type_id":"4","last_reported":1706382362,"current_range_meters":5200,"station_id":"ce4bgt92rcd13ifvqcg0","pricing_plan_id":"free"},{"bike_id":"2a5e7ee2-6d3f-4917-8a8f-2f96322ca49d","system_id":"levelo_inurba_marseille","lat":43.311131,"lon":5.377651,"is_reserved":false,"is_disabled":false,"rental_uris":{"android":"levelo://app?vid=2a5e7ee2-6d3f-4917-8a8f-2f96322ca49d","ios":"levelo://app?vid=2a5e7ee2-6d3f-4917-8a8f-2f96322ca49d"},"vehicle_type_id":"4","last_reported":1706382362,"current_range_meters":3600,"station_id":"ce4bgt92rcd13ifvqcg0","pricing_plan_id":"free"},{"bike_id":"c0aca7fd-4281-4ec5-937e-70d16daadeeb","system_id":"levelo_inurba_marseille","lat":43.311131,"lon":5.377651,"is_reserved":false,"is_disabled":false,"rental_uris":{"android":"levelo://app?vid=c0aca7fd-4281-4ec5-937e-70d16daadeeb","ios":"levelo://app?vid=c0aca7fd-4281-4ec5-937e-70d16daadeeb"},"vehicle_type_id":"4","last_reported":1706382362,"current_range_meters":0,"station_id":"ce4bgt92rcd13ifvqcg0","pricing_plan_id":"free"},{"bike_id":"04dfc060-761b-4bab-ac59-b531b2b1ea90","system_id":"levelo_inurba_marseille","lat":43.30936,"lon":5.37877,"is_reserved":false,"is_disabled":false,"rental_uris":{"android":"levelo://app?vid=04dfc060-761b-4bab-ac59-b531b2b1ea90","ios":"levelo://app?vid=04dfc060-761b-4bab-ac59-b531b2b1ea90"},"vehicle_type_id":"4","last_reported":1706382362,"current_range_meters":10800,"station_id":"","pricing_plan_id":"free"},{"bike_id":"760e8431-4505-4e25-89a2-d05baf70ef01","system_id":"levelo_inurba_marseille","lat":43.30306,"lon":5.36896,"is_reserved":false,"is_disabled":false,"rental_uris":{"android":"levelo://app?vid=760e8431-4505-4e25-89a2-d05baf70ef01","ios":"levelo://app?vid=760e8431-4505-4e25-89a2-d05baf70ef01"},"vehicle_type_id":"4","last_reported":1706382362,"current_range_meters":0,"station_id":"ce4bgqh2rcd13ifvqc5g","pricing_plan_id":"free"},{"bike_id":"b83daeb9-a39c-4884-86e2-16a37c651f7f","system_id":"levelo_inurba_marseille","lat":43.31998,"lon":5.376229,"is_reserved":false,"is_disabled":false,"rental_uris":{"android":"levelo://app?vid=b83daeb9-a39c-4884-86e2-16a37c651f7f","ios":"levelo://app?vid=b83daeb9-a39c-4884-86e2-16a37c651f7f"},"vehicle_type_id":"4","last_reported":1706382362,"current_range_meters":9600,"station_id":"","pricing_plan_id":"free"},{"bike_id":"460b056d-dee7-4964-aa33-31d0e24cd268","system_id":"levelo_inurba_marseille","lat":43.308012,"lon":5.381511,"is_reserved":false,"is_disabled":false,"rental_uris":{"android":"levelo://app?vid=460b056d-dee7-4964-aa33-31d0e24cd268","ios":"levelo://app?vid=460b056d-dee7-4964-aa33-31d0e24cd268"},"vehicle_type_id":"4","last_reported":1706382362,"current_range_meters":6800,"station_id":"ce4bgt12rcd13ifvqce0","pricing_plan_id":"free"},{"bike_id":"7f9c6bd7-a1bd-4751-955f-bbdc78090dce","system_id":"levelo_inurba_marseille","lat":43.308107,"lon":5.381604,"is_reserved":false,"is_disabled":false,"rental_uris":{"android":"levelo://app?vid=7f9c6bd7-a1bd-4751-955f-bbdc78090dce","ios":"levelo://app?vid=7f9c6bd7-a1bd-4751-955f-bbdc78090dce"},"vehicle_type_id":"4","last_reported":1706382362,"current_range_meters":0,"station_id":"ce4bgt12rcd13ifvqce0","pricing_plan_id":"free"},{"bike_id":"f256c0b2-36ab-4ce0-bab1-f59755183e03","system_id":"levelo_inurba_marseille","lat":43.308012,"lon":5.381511,"is_reserved":false,"is_disabled":false,"rental_uris":{"android":"levelo://app?vid=f256c0b2-36ab-4ce0-bab1-f59755183e03","ios":"levelo://app?vid=f256c0b2-36ab-4ce0-bab1-f59755183e03"},"vehicle_type_id":"4","last_reported":1706382362,"current_range_meters":0,"station_id":"ce4bgt12rcd13ifvqce0","pricing_plan_id":"free"},{"bike_id":"b564879b-2e67-4507-8f31-3072d59d5ca9","system_id":"levelo_inurba_marseille","lat":43.313571,"lon":5.384829,"is_reserved":false,"is_disabled":false,"rental_uris":{"android":"levelo://app?vid=b564879b-2e67-4507-8f31-3072d59d5ca9","ios":"levelo://app?vid=b564879b-2e67-4507-8f31-3072d59d5ca9"},"vehicle_type_id":"4","last_reported":1706382362,"current_range_meters":11600,"station_id":"ce4bgt92rcd13ifvqcf0","pricing_plan_id":"free"},{"bike_id":"7a95a111-0fe1-44d0-a795-c4315a72ff1e","system_id":"levelo_inurba_marseille","lat":43.302784,"lon":5.377158,"is_reserved":false,"is_disabled":false,"rental_uris":{"android":"levelo://app?vid=7a95a111-0fe1-44d0-a795-c4315a72ff1e","ios":"levelo://app?vid=7a95a111-0fe1-44d0-a795-c4315a72ff1e"},"vehicle_type_id":"4","last_reported":1706382362,"current_range_meters":0,"station_id":"ce4bguh2rcd13ifvqcj0","pricing_plan_id":"free"},{"bike_id":"2afe5e5c-b2ab-4924-ba49-881cbec0451e","system_id":"levelo_inurba_marseille","lat":43.301429,"lon":5.37413,"is_reserved":false,"is_disabled":false,"rental_uris":{"android":"levelo://app?vid=2afe5e5c-b2ab-4924-ba49-881cbec0451e","ios":"levelo://app?vid=2afe5e5c-b2ab-4924-ba49-881cbec0451e"},"vehicle_type_id":"4","last_reported":1706382362,"current_range_meters":12400,"station_id":"ce4bgs92rcd13ifvqcc0","pricing_plan_id":"free"},{"bike_id":"3bf22490-d3ca-4327-b334-3c9e6fc0d4e1","system_id":"levelo_inurba_marseille","lat":43.319935,"lon":5.381699,"is_reserved":false,"is_disabled":false,"rental_uris":{"android":"levelo://app?vid=3bf22490-d3ca-4327-b334-3c9e6fc0d4e1","ios":"levelo://app?vid=3bf22490-d3ca-4327-b334-3c9e6fc0d4e1"},"vehicle_type_id":"4","last_reported":1706382362,"current_range_meters":19600,"station_id":"ce4bhr12rcd13ifvqhpg","pricing_plan_id":"free"},{"bike_id":"ae7ab608-8fac-4c0d-9f43-8ffacb07a49d","system_id":"levelo_inurba_marseille","lat":43.319935,"lon":5.381699,"is_reserved":false,"is_disabled":false,"rental_uris":{"android":"levelo://app?vid=ae7ab608-8fac-4c0d-9f43-8ffacb07a49d","ios":"levelo://app?vid=ae7ab608-8fac-4c0d-9f43-8ffacb07a49d"},"vehicle_type_id":"4","last_reported":1706382362,"current_range_meters":1200,"station_id":"ce4bhr12rcd13ifvqhpg","pricing_plan_id":"free"},{"bike_id":"4e5d2762-6863-42e8-bea1-8bab88213284","system_id":"levelo_inurba_marseille","lat":43.313571,"lon":5.384829,"is_reserved":false,"is_disabled":false,"rental_uris":{"android":"levelo://app?vid=4e5d2762-6863-42e8-bea1-8bab88213284","ios":"levelo://app?vid=4e5d2762-6863-42e8-bea1-8bab88213284"},"vehicle_type_id":"4","last_reported":1706382362,"current_range_meters":24800,"station_id":"ce4bgt92rcd13ifvqcf0","pricing_plan_id":"free"},{"bike_id":"0bfa33c4-998e-4579-8527-ff2c6f626dc0","system_id":"levelo_inurba_marseille","lat":43.299724,"lon":5.371829,"is_reserved":false,"is_disabled":false,"rental_uris":{"android":"levelo://app?vid=0bfa33c4-998e-4579-8527-ff2c6f626dc0","ios":"levelo://app?vid=0bfa33c4-998e-4579-8527-ff2c6f626dc0"},"vehicle_type_id":"4","last_reported":1706382362,"current_range_meters":6000,"station_id":"ce4bgr92rcd13ifvqc7g","pricing_plan_id":"free"},{"bike_id":"f10fa397-31c1-4cf1-82f9-a240e6de7e26","system_id":"levelo_inurba_marseille","lat":43.305364,"lon":5.384119,"is_reserved":false,"is_disabled":false,"rental_uris":{"android":"levelo://app?vid=f10fa397-31c1-4cf1-82f9-a240e6de7e26","ios":"levelo://app?vid=f10fa397-31c1-4cf1-82f9-a240e6de7e26"},"vehicle_type_id":"4","last_reported":1706382362,"current_range_meters":0,"station_id":"ce4bgg92rcd13ifvqb30","pricing_plan_id":"free"},{"bike_id":"126732f4-d1a2-4104-b0fd-e056e343a52d","system_id":"levelo_inurba_marseille","lat":43.305364,"lon":5.384119,"is_reserved":false,"is_disabled":false,"rental_uris":{"android":"levelo://app?vid=126732f4-d1a2-4104-b0fd-e056e343a52d","ios":"levelo://app?vid=126732f4-d1a2-4104-b0fd-e056e343a52d"},"vehicle_type_id":"4","last_reported":1706382362,"current_range_meters":11600,"station_id":"ce4bgg92rcd13ifvqb30","pricing_plan_id":"free"},{"bike_id":"737d3440-4b32-4695-9d9c-3083ced12f85","system_id":"levelo_inurba_marseille","lat":43.305364,"lon":5.384119,"is_reserved":false,"is_disabled":false,"rental_uris":{"android":"levelo://app?vid=737d3440-4b32-4695-9d9c-3083ced12f85","ios":"levelo://app?vid=737d3440-4b32-4695-9d9c-3083ced12f85"},"vehicle_type_id":"4","last_reported":1706382362,"current_range_meters":20400,"station_id":"ce4bgg92rcd13ifvqb30","pricing_plan_id":"free"},{"bike_id":"2ec912a9-8391-4241-9bfc-83df6347baed","system_id":"levelo_inurba_marseille","lat":43.305364,"lon":5.384119,"is_reserved":false,"is_disabled":false,"rental_uris":{"android":"levelo://app?vid=2ec912a9-8391-4241-9bfc-83df6347baed","ios":"levelo://app?vid=2ec912a9-8391-4241-9bfc-83df6347baed"},"vehicle_type_id":"4","last_reported":1706382362,"current_range_meters":6000,"station_id":"ce4bgg92rcd13ifvqb30","pricing_plan_id":"free"},{"bike_id":"41f027f7-e3e9-4a0b-a5c9-7013245c67b9","system_id":"levelo_inurba_marseille","lat":43.297794,"lon":5.370888,"is_reserved":false,"is_disabled":false,"rental_uris":{"android":"levelo://app?vid=41f027f7-e3e9-4a0b-a5c9-7013245c67b9","ios":"levelo://app?vid=41f027f7-e3e9-4a0b-a5c9-7013245c67b9"},"vehicle_type_id":"4","last_reported":1706382362,"current_range_meters":400,"station_id":"ce4bgop2rcd13ifvqc1g","pricing_plan_id":"free"},{"bike_id":"965a5dab-e227-4efc-b518-9780186a9de9","system_id":"levelo_inurba_marseille","lat":43.322872,"lon":5.382756,"is_reserved":false,"is_disabled":false,"rental_uris":{"android":"levelo://app?vid=965a5dab-e227-4efc-b518-9780186a9de9","ios":"levelo://app?vid=965a5dab-e227-4efc-b518-9780186a9de9"},"vehicle_type_id":"4","last_reported":1706382362,"current_range_meters":26400,"station_id":"ce4bhr12rcd13ifvqhqg","pricing_plan_id":"free"},{"bike_id":"5e98879a-df25-42d7-a72e-59c9369b5f46","system_id":"levelo_inurba_marseille","lat":43.322886,"lon":5.382691,"is_reserved":false,"is_disabled":false,"rental_uris":{"android":"levelo://app?vid=5e98879a-df25-42d7-a72e-59c9369b5f46","ios":"levelo://app?vid=5e98879a-df25-42d7-a72e-59c9369b5f46"},"vehicle_type_id":"4","last_reported":1706382362,"current_range_meters":30800,"station_id":"ce4bhr12rcd13ifvqhqg","pricing_plan_id":"free"},{"bike_id":"f333593b-a055-4773-b1bc-9da5ee05312e","system_id":"levelo_inurba_marseille","lat":43.322872,"lon":5.382756,"is_reserved":false,"is_disabled":false,"rental_uris":{"android":"levelo://app?vid=f333593b-a055-4773-b1bc-9da5ee05312e","ios":"levelo://app?vid=f333593b-a055-4773-b1bc-9da5ee05312e"},"vehicle_type_id":"4","last_reported":1706382362,"current_range_meters":20000,"station_id":"ce4bhr12rcd13ifvqhqg","pricing_plan_id":"free"},{"bike_id":"a3b74381-0d58-448f-9a1c-2f1261e3769d","system_id":"levelo_inurba_marseille","lat":43.322872,"lon":5.382756,"is_reserved":false,"is_disabled":false,"rental_uris":{"android":"levelo://app?vid=a3b74381-0d58-448f-9a1c-2f1261e3769d","ios":"levelo://app?vid=a3b74381-0d58-448f-9a1c-2f1261e3769d"},"vehicle_type_id":"4","last_reported":1706382362,"current_range_meters":30000,"station_id":"ce4bhr12rcd13ifvqhqg","pricing_plan_id":"free"},{"bike_id":"f835f26e-9757-4841-a5dc-fa0489ad0e74","system_id":"levelo_inurba_marseille","lat":43.328371,"lon":5.366912,"is_reserved":false,"is_disabled":false,"rental_uris":{"android":"levelo://app?vid=f835f26e-9757-4841-a5dc-fa0489ad0e74","ios":"levelo://app?vid=f835f26e-9757-4841-a5dc-fa0489ad0e74"},"vehicle_type_id":"4","last_reported":1706382362,"current_range_meters":16800,"station_id":"ce4bhs92rcd13ifvqi0g","pricing_plan_id":"free"},{"bike_id":"4eb0ce35-1e01-4f06-bddc-098b367e5edb","system_id":"levelo_inurba_marseille","lat":43.328335,"lon":5.366871,"is_reserved":false,"is_disabled":false,"rental_uris":{"android":"levelo://app?vid=4eb0ce35-1e01-4f06-bddc-098b367e5edb","ios":"levelo://app?vid=4eb0ce35-1e01-4f06-bddc-098b367e5edb"},"vehicle_type_id":"4","last_reported":1706382362,"current_range_meters":3600,"station_id":"","pricing_plan_id":"free"},{"bike_id":"12edd8fe-ac42-424b-86a0-ddbc64b4f114","system_id":"levelo_inurba_marseille","lat":43.32835,"lon":5.36695,"is_reserved":false,"is_disabled":false,"rental_uris":{"android":"levelo://app?vid=12edd8fe-ac42-424b-86a0-ddbc64b4f114","ios":"levelo://app?vid=12edd8fe-ac42-424b-86a0-ddbc64b4f114"},"vehicle_type_id":"4","last_reported":1706382362,"current_range_meters":17200,"station_id":"ce4bhs92rcd13ifvqi0g","pricing_plan_id":"free"},{"bike_id":"54d8abe6-746b-4be6-9341-8f323a368dcf","system_id":"levelo_inurba_marseille","lat":43.297059,"lon":5.366253,"is_reserved":false,"is_disabled":false,"rental_uris":{"android":"levelo://app?vid=54d8abe6-746b-4be6-9341-8f323a368dcf","ios":"levelo://app?vid=54d8abe6-746b-4be6-9341-8f323a368dcf"},"vehicle_type_id":"4","last_reported":1706382362,"current_range_meters":0,"station_id":"ce4bgn12rcd13ifvqbt0","pricing_plan_id":"free"},{"bike_id":"60984494-4e6b-40a3-a860-708c2f5e5e1f","system_id":"levelo_inurba_marseille","lat":43.2968,"lon":5.37291,"is_reserved":false,"is_disabled":false,"rental_uris":{"android":"levelo://app?vid=60984494-4e6b-40a3-a860-708c2f5e5e1f","ios":"levelo://app?vid=60984494-4e6b-40a3-a860-708c2f5e5e1f"},"vehicle_type_id":"4","last_reported":1706382362,"current_range_meters":21200,"station_id":"ce4bgk12rcd13ifvqbj0","pricing_plan_id":"free"},{"bike_id":"319264ad-df21-451b-8dce-4f4a23c284ed","system_id":"levelo_inurba_marseille","lat":43.296131,"lon":5.370791,"is_reserved":false,"is_disabled":false,"rental_uris":{"android":"levelo://app?vid=319264ad-df21-451b-8dce-4f4a23c284ed","ios":"levelo://app?vid=319264ad-df21-451b-8dce-4f4a23c284ed"},"vehicle_type_id":"4","last_reported":1706382362,"current_range_meters":10800,"station_id":"ce4bgnh2rcd13ifvqc0g","pricing_plan_id":"free"},{"bike_id":"419770a0-4a5f-4b49-a4bc-fe1f93efa0b5","system_id":"levelo_inurba_marseille","lat":43.29573,"lon":5.367355,"is_reserved":false,"is_disabled":false,"rental_uris":{"android":"levelo://app?vid=419770a0-4a5f-4b49-a4bc-fe1f93efa0b5","ios":"levelo://app?vid=419770a0-4a5f-4b49-a4bc-fe1f93efa0b5"},"vehicle_type_id":"4","last_reported":1706382362,"current_range_meters":0,"station_id":"ce4bgph2rcd13ifvqc2g","pricing_plan_id":"free"},{"bike_id":"5849c8f1-de07-480c-ab10-c023b55280ba","system_id":"levelo_inurba_marseille","lat":43.32258,"lon":5.38689,"is_reserved":false,"is_disabled":false,"rental_uris":{"android":"levelo://app?vid=5849c8f1-de07-480c-ab10-c023b55280ba","ios":"levelo://app?vid=5849c8f1-de07-480c-ab10-c023b55280ba"},"vehicle_type_id":"4","last_reported":1706382362,"current_range_meters":1200,"station_id":"","pricing_plan_id":"free"},{"bike_id":"1843a16f-5926-4ba5-ab13-d972d3f50e10","system_id":"levelo_inurba_marseille","lat":43.317557,"lon":5.390173,"is_reserved":false,"is_disabled":false,"rental_uris":{"android":"levelo://app?vid=1843a16f-5926-4ba5-ab13-d972d3f50e10","ios":"levelo://app?vid=1843a16f-5926-4ba5-ab13-d972d3f50e10"},"vehicle_type_id":"4","last_reported":1706382362,"current_range_meters":0,"station_id":"ce4bhqp2rcd13ifvqhng","pricing_plan_id":"free"},{"bike_id":"d2a8d229-ac8b-4c46-a10d-53a21cdd21b7","system_id":"levelo_inurba_marseille","lat":43.304274,"lon":5.388873,"is_reserved":false,"is_disabled":false,"rental_uris":{"android":"levelo://app?vid=d2a8d229-ac8b-4c46-a10d-53a21cdd21b7","ios":"levelo://app?vid=d2a8d229-ac8b-4c46-a10d-53a21cdd21b7"},"vehicle_type_id":"4","last_reported":1706382362,"current_range_meters":7600,"station_id":"ce4bgk12rcd13ifvqbi0","pricing_plan_id":"free"},{"bike_id":"9081d735-0656-4334-b72e-9c3dacd60e31","system_id":"levelo_inurba_marseille","lat":43.298037,"lon":5.381066,"is_reserved":false,"is_disabled":false,"rental_uris":{"android":"levelo://app?vid=9081d735-0656-4334-b72e-9c3dacd60e31","ios":"levelo://app?vid=9081d735-0656-4334-b72e-9c3dacd60e31"},"vehicle_type_id":"4","last_reported":1706382362,"current_range_meters":20800,"station_id":"ce4bgip2rcd13ifvqbb0","pricing_plan_id":"free"},{"bike_id":"d4f3327e-0a93-4fe8-b9c6-61bcecb23879","system_id":"levelo_inurba_marseille","lat":43.295748,"lon":5.37522,"is_reserved":false,"is_disabled":false,"rental_uris":{"android":"levelo://app?vid=d4f3327e-0a93-4fe8-b9c6-61bcecb23879","ios":"levelo://app?vid=d4f3327e-0a93-4fe8-b9c6-61bcecb23879"},"vehicle_type_id":"4","last_reported":1706382362,"current_range_meters":5200,"station_id":"ce4bgh92rcd13ifvqb50","pricing_plan_id":"free"},{"bike_id":"33e66869-687a-4121-8200-e16a0d6dd9d8","system_id":"levelo_inurba_marseille","lat":43.295748,"lon":5.37522,"is_reserved":false,"is_disabled":false,"rental_uris":{"android":"levelo://app?vid=33e66869-687a-4121-8200-e16a0d6dd9d8","ios":"levelo://app?vid=33e66869-687a-4121-8200-e16a0d6dd9d8"},"vehicle_type_id":"4","last_reported":1706382362,"current_range_meters":20400,"station_id":"ce4bgh92rcd13ifvqb50","pricing_plan_id":"free"},{"bike_id":"db1ab8dc-ba2d-4c8b-84c7-8d5d3d975039","system_id":"levelo_inurba_marseille","lat":43.295748,"lon":5.37522,"is_reserved":false,"is_disabled":false,"rental_uris":{"android":"levelo://app?vid=db1ab8dc-ba2d-4c8b-84c7-8d5d3d975039","ios":"levelo://app?vid=db1ab8dc-ba2d-4c8b-84c7-8d5d3d975039"},"vehicle_type_id":"4","last_reported":1706382362,"current_range_meters":0,"station_id":"ce4bgh92rcd13ifvqb50","pricing_plan_id":"free"},{"bike_id":"9bb05c35-43b1-4d42-9580-66a73c9feaa9","system_id":"levelo_inurba_marseille","lat":43.296263,"lon":5.377094,"is_reserved":false,"is_disabled":false,"rental_uris":{"android":"levelo://app?vid=9bb05c35-43b1-4d42-9580-66a73c9feaa9","ios":"levelo://app?vid=9bb05c35-43b1-4d42-9580-66a73c9feaa9"},"vehicle_type_id":"4","last_reported":1706382362,"current_range_meters":800,"station_id":"ce4bgi92rcd13ifvqb90","pricing_plan_id":"free"},{"bike_id":"44f363e7-9f4a-4d85-b25e-94004d910714","system_id":"levelo_inurba_marseille","lat":43.296277,"lon":5.377108,"is_reserved":false,"is_disabled":false,"rental_uris":{"android":"levelo://app?vid=44f363e7-9f4a-4d85-b25e-94004d910714","ios":"levelo://app?vid=44f363e7-9f4a-4d85-b25e-94004d910714"},"vehicle_type_id":"4","last_reported":1706382362,"current_range_meters":0,"station_id":"ce4bgi92rcd13ifvqb90","pricing_plan_id":"free"},{"bike_id":"b32572c8-7b18-4901-a89a-64b2caae95c7","system_id":"levelo_inurba_marseille","lat":43.29976,"lon":5.38476,"is_reserved":false,"is_disabled":false,"rental_uris":{"android":"levelo://app?vid=b32572c8-7b18-4901-a89a-64b2caae95c7","ios":"levelo://app?vid=b32572c8-7b18-4901-a89a-64b2caae95c7"},"vehicle_type_id":"4","last_reported":1706382362,"current_range_meters":0,"station_id":"ce4bgj92rcd13ifvqbd0","pricing_plan_id":"free"},{"bike_id":"e7dc9380-d5df-4cf5-afd5-0cd9c53ef57f","system_id":"levelo_inurba_marseille","lat":43.295279,"lon":5.375048,"is_reserved":false,"is_disabled":false,"rental_uris":{"android":"levelo://app?vid=e7dc9380-d5df-4cf5-afd5-0cd9c53ef57f","ios":"levelo://app?vid=e7dc9380-d5df-4cf5-afd5-0cd9c53ef57f"},"vehicle_type_id":"4","last_reported":1706382362,"current_range_meters":0,"station_id":"ce4bgkp2rcd13ifvqbmg","pricing_plan_id":"free"},{"bike_id":"cea50f39-63a9-4167-b945-cb4b64fb4826","system_id":"levelo_inurba_marseille","lat":43.295279,"lon":5.375048,"is_reserved":false,"is_disabled":false,"rental_uris":{"android":"levelo://app?vid=cea50f39-63a9-4167-b945-cb4b64fb4826","ios":"levelo://app?vid=cea50f39-63a9-4167-b945-cb4b64fb4826"},"vehicle_type_id":"4","last_reported":1706382362,"current_range_meters":13200,"station_id":"ce4bgkp2rcd13ifvqbmg","pricing_plan_id":"free"},{"bike_id":"3802b87b-36fb-4991-944a-38232876a682","system_id":"levelo_inurba_marseille","lat":43.299707,"lon":5.384859,"is_reserved":false,"is_disabled":false,"rental_uris":{"android":"levelo://app?vid=3802b87b-36fb-4991-944a-38232876a682","ios":"levelo://app?vid=3802b87b-36fb-4991-944a-38232876a682"},"vehicle_type_id":"4","last_reported":1706382362,"current_range_meters":0,"station_id":"ce4bgj92rcd13ifvqbd0","pricing_plan_id":"free"},{"bike_id":"dee8bb3a-749f-48e8-a3df-6a0afed8607f","system_id":"levelo_inurba_marseille","lat":43.295279,"lon":5.375048,"is_reserved":false,"is_disabled":false,"rental_uris":{"android":"levelo://app?vid=dee8bb3a-749f-48e8-a3df-6a0afed8607f","ios":"levelo://app?vid=dee8bb3a-749f-48e8-a3df-6a0afed8607f"},"vehicle_type_id":"4","last_reported":1706382362,"current_range_meters":25200,"station_id":"ce4bgkp2rcd13ifvqbmg","pricing_plan_id":"free"},{"bike_id":"e08384ee-74ea-4522-a60c-2b901b660024","system_id":"levelo_inurba_marseille","lat":43.29968,"lon":5.384972,"is_reserved":false,"is_disabled":false,"rental_uris":{"android":"levelo://app?vid=e08384ee-74ea-4522-a60c-2b901b660024","ios":"levelo://app?vid=e08384ee-74ea-4522-a60c-2b901b660024"},"vehicle_type_id":"4","last_reported":1706382362,"current_range_meters":0,"station_id":"ce4bgj92rcd13ifvqbd0","pricing_plan_id":"free"},{"bike_id":"2534d1ea-8156-4efd-b14d-44d09e7694ad","system_id":"levelo_inurba_marseille","lat":43.299717,"lon":5.384845,"is_reserved":false,"is_disabled":false,"rental_uris":{"android":"levelo://app?vid=2534d1ea-8156-4efd-b14d-44d09e7694ad","ios":"levelo://app?vid=2534d1ea-8156-4efd-b14d-44d09e7694ad"},"vehicle_type_id":"4","last_reported":1706382362,"current_range_meters":0,"station_id":"ce4bgj92rcd13ifvqbd0","pricing_plan_id":"free"},{"bike_id":"6e9db69a-f3e0-4c76-bdea-db091a0eaa95","system_id":"levelo_inurba_marseille","lat":43.295279,"lon":5.375048,"is_reserved":false,"is_disabled":false,"rental_uris":{"android":"levelo://app?vid=6e9db69a-f3e0-4c76-bdea-db091a0eaa95","ios":"levelo://app?vid=6e9db69a-f3e0-4c76-bdea-db091a0eaa95"},"vehicle_type_id":"4","last_reported":1706382362,"current_range_meters":0,"station_id":"ce4bgkp2rcd13ifvqbmg","pricing_plan_id":"free"},{"bike_id":"02277dd7-030e-4b76-9676-46fb8dbb6609","system_id":"levelo_inurba_marseille","lat":43.299707,"lon":5.384859,"is_reserved":false,"is_disabled":false,"rental_uris":{"android":"levelo://app?vid=02277dd7-030e-4b76-9676-46fb8dbb6609","ios":"levelo://app?vid=02277dd7-030e-4b76-9676-46fb8dbb6609"},"vehicle_type_id":"4","last_reported":1706382362,"current_range_meters":23600,"station_id":"ce4bgj92rcd13ifvqbd0","pricing_plan_id":"free"},{"bike_id":"36fdf3a9-6637-4abe-9106-b80fdb7b6025","system_id":"levelo_inurba_marseille","lat":43.32367,"lon":5.388836,"is_reserved":false,"is_disabled":false,"rental_uris":{"android":"levelo://app?vid=36fdf3a9-6637-4abe-9106-b80fdb7b6025","ios":"levelo://app?vid=36fdf3a9-6637-4abe-9106-b80fdb7b6025"},"vehicle_type_id":"4","last_reported":1706382362,"current_range_meters":16800,"station_id":"ce4bhqp2rcd13ifvqhog","pricing_plan_id":"free"},{"bike_id":"1bcb486c-90af-45fd-a0c3-ddf6f21f3b01","system_id":"levelo_inurba_marseille","lat":43.292749,"lon":5.368402,"is_reserved":false,"is_disabled":false,"rental_uris":{"android":"levelo://app?vid=1bcb486c-90af-45fd-a0c3-ddf6f21f3b01","ios":"levelo://app?vid=1bcb486c-90af-45fd-a0c3-ddf6f21f3b01"},"vehicle_type_id":"4","last_reported":1706382362,"current_range_meters":0,"station_id":"ce4bhbp2rcd13ifvqesg","pricing_plan_id":"free"},{"bike_id":"ae6aa349-8492-41d9-ab85-f47dc0855de0","system_id":"levelo_inurba_marseille","lat":43.292749,"lon":5.368402,"is_reserved":false,"is_disabled":false,"rental_uris":{"android":"levelo://app?vid=ae6aa349-8492-41d9-ab85-f47dc0855de0","ios":"levelo://app?vid=ae6aa349-8492-41d9-ab85-f47dc0855de0"},"vehicle_type_id":"4","last_reported":1706382362,"current_range_meters":0,"station_id":"ce4bhbp2rcd13ifvqesg","pricing_plan_id":"free"},{"bike_id":"a512761d-3a18-41db-9635-6a21ae0ac7d5","system_id":"levelo_inurba_marseille","lat":43.30595,"lon":5.39352,"is_reserved":false,"is_disabled":false,"rental_uris":{"android":"levelo://app?vid=a512761d-3a18-41db-9635-6a21ae0ac7d5","ios":"levelo://app?vid=a512761d-3a18-41db-9635-6a21ae0ac7d5"},"vehicle_type_id":"4","last_reported":1706382362,"current_range_meters":6000,"station_id":"ce4bh0p2rcd13ifvqd80","pricing_plan_id":"free"},{"bike_id":"7dc3879e-b938-4eb1-85e0-555f83be7060","system_id":"levelo_inurba_marseille","lat":43.293009,"lon":5.374584,"is_reserved":false,"is_disabled":false,"rental_uris":{"android":"levelo://app?vid=7dc3879e-b938-4eb1-85e0-555f83be7060","ios":"levelo://app?vid=7dc3879e-b938-4eb1-85e0-555f83be7060"},"vehicle_type_id":"4","last_reported":1706382362,"current_range_meters":24000,"station_id":"ce4bgi12rcd13ifvqb70","pricing_plan_id":"free"},{"bike_id":"8e6557db-8e3e-4cd9-87c3-0a7e161cab7b","system_id":"levelo_inurba_marseille","lat":43.306035,"lon":5.39368,"is_reserved":false,"is_disabled":false,"rental_uris":{"android":"levelo://app?vid=8e6557db-8e3e-4cd9-87c3-0a7e161cab7b","ios":"levelo://app?vid=8e6557db-8e3e-4cd9-87c3-0a7e161cab7b"},"vehicle_type_id":"4","last_reported":1706382362,"current_range_meters":0,"station_id":"ce4bh0p2rcd13ifvqd80","pricing_plan_id":"free"},{"bike_id":"6994fe47-bc44-494c-b8d0-bb6bc7ba1349","system_id":"levelo_inurba_marseille","lat":43.2936,"lon":5.37835,"is_reserved":false,"is_disabled":false,"rental_uris":{"android":"levelo://app?vid=6994fe47-bc44-494c-b8d0-bb6bc7ba1349","ios":"levelo://app?vid=6994fe47-bc44-494c-b8d0-bb6bc7ba1349"},"vehicle_type_id":"4","last_reported":1706382362,"current_range_meters":15600,"station_id":"ce4bgjh2rcd13ifvqbf0","pricing_plan_id":"free"},{"bike_id":"151d538f-88d1-43b5-8190-a42f23d3bf65","system_id":"levelo_inurba_marseille","lat":43.29884,"lon":5.38886,"is_reserved":false,"is_disabled":false,"rental_uris":{"android":"levelo://app?vid=151d538f-88d1-43b5-8190-a42f23d3bf65","ios":"levelo://app?vid=151d538f-88d1-43b5-8190-a42f23d3bf65"},"vehicle_type_id":"4","last_reported":1706382362,"current_range_meters":23200,"station_id":"ce4bh392rcd13ifvqdl0","pricing_plan_id":"free"},{"bike_id":"975ef01c-b90e-42d6-bc9e-a40122bc8b65","system_id":"levelo_inurba_marseille","lat":43.298764,"lon":5.388973,"is_reserved":false,"is_disabled":false,"rental_uris":{"android":"levelo://app?vid=975ef01c-b90e-42d6-bc9e-a40122bc8b65","ios":"levelo://app?vid=975ef01c-b90e-42d6-bc9e-a40122bc8b65"},"vehicle_type_id":"4","last_reported":1706382362,"current_range_meters":4400,"station_id":"ce4bh392rcd13ifvqdl0","pricing_plan_id":"free"},{"bike_id":"147df5a7-5381-4ee6-849d-e7d78bffa282","system_id":"levelo_inurba_marseille","lat":43.301577,"lon":5.392683,"is_reserved":false,"is_disabled":false,"rental_uris":{"android":"levelo://app?vid=147df5a7-5381-4ee6-849d-e7d78bffa282","ios":"levelo://app?vid=147df5a7-5381-4ee6-849d-e7d78bffa282"},"vehicle_type_id":"4","last_reported":1706382362,"current_range_meters":0,"station_id":"","pricing_plan_id":"free"},{"bike_id":"75b7c9f4-66ec-4cbb-a93a-0f97b4f93255","system_id":"levelo_inurba_marseille","lat":43.31331,"lon":5.3969,"is_reserved":false,"is_disabled":false,"rental_uris":{"android":"levelo://app?vid=75b7c9f4-66ec-4cbb-a93a-0f97b4f93255","ios":"levelo://app?vid=75b7c9f4-66ec-4cbb-a93a-0f97b4f93255"},"vehicle_type_id":"4","last_reported":1706382362,"current_range_meters":6800,"station_id":"ce4bgvp2rcd13ifvqcu0","pricing_plan_id":"free"},{"bike_id":"2a1b7630-101a-4bc9-9d11-5540748ddbc9","system_id":"levelo_inurba_marseille","lat":43.313291,"lon":5.396838,"is_reserved":false,"is_disabled":false,"rental_uris":{"android":"levelo://app?vid=2a1b7630-101a-4bc9-9d11-5540748ddbc9","ios":"levelo://app?vid=2a1b7630-101a-4bc9-9d11-5540748ddbc9"},"vehicle_type_id":"4","last_reported":1706382362,"current_range_meters":26400,"station_id":"ce4bgvp2rcd13ifvqcu0","pricing_plan_id":"free"},{"bike_id":"84a91703-1b2b-4f79-a334-6aaa88c6edca","system_id":"levelo_inurba_marseille","lat":43.313291,"lon":5.396838,"is_reserved":false,"is_disabled":false,"rental_uris":{"android":"levelo://app?vid=84a91703-1b2b-4f79-a334-6aaa88c6edca","ios":"levelo://app?vid=84a91703-1b2b-4f79-a334-6aaa88c6edca"},"vehicle_type_id":"4","last_reported":1706382362,"current_range_meters":25600,"station_id":"ce4bgvp2rcd13ifvqcu0","pricing_plan_id":"free"},{"bike_id":"91b6ce03-8d50-4ff9-ab43-eb203913956f","system_id":"levelo_inurba_marseille","lat":43.309038,"lon":5.396546,"is_reserved":false,"is_disabled":false,"rental_uris":{"android":"levelo://app?vid=91b6ce03-8d50-4ff9-ab43-eb203913956f","ios":"levelo://app?vid=91b6ce03-8d50-4ff9-ab43-eb203913956f"},"vehicle_type_id":"4","last_reported":1706382362,"current_range_meters":400,"station_id":"ce4bh012rcd13ifvqcv0","pricing_plan_id":"free"},{"bike_id":"6105534e-bd8a-4558-9738-d39dcb0fe259","system_id":"levelo_inurba_marseille","lat":43.29529,"lon":5.385581,"is_reserved":false,"is_disabled":false,"rental_uris":{"android":"levelo://app?vid=6105534e-bd8a-4558-9738-d39dcb0fe259","ios":"levelo://app?vid=6105534e-bd8a-4558-9738-d39dcb0fe259"},"vehicle_type_id":"4","last_reported":1706382362,"current_range_meters":6400,"station_id":"ce4bgih2rcd13ifvqba0","pricing_plan_id":"free"},{"bike_id":"35a5a8f9-cff3-4876-955f-37d30e34a46e","system_id":"levelo_inurba_marseille","lat":43.295353,"lon":5.385597,"is_reserved":false,"is_disabled":false,"rental_uris":{"android":"levelo://app?vid=35a5a8f9-cff3-4876-955f-37d30e34a46e","ios":"levelo://app?vid=35a5a8f9-cff3-4876-955f-37d30e34a46e"},"vehicle_type_id":"4","last_reported":1706382362,"current_range_meters":0,"station_id":"ce4bgih2rcd13ifvqba0","pricing_plan_id":"free"},{"bike_id":"c1fe4149-8115-4800-b6f0-d3e75d8fc787","system_id":"levelo_inurba_marseille","lat":43.290779,"lon":5.371482,"is_reserved":false,"is_disabled":false,"rental_uris":{"android":"levelo://app?vid=c1fe4149-8115-4800-b6f0-d3e75d8fc787","ios":"levelo://app?vid=c1fe4149-8115-4800-b6f0-d3e75d8fc787"},"vehicle_type_id":"4","last_reported":1706382362,"current_range_meters":18000,"station_id":"ce4bh5p2rcd13ifvqe4g","pricing_plan_id":"free"},{"bike_id":"5aafea1f-72f2-461f-8ff5-4c58096065c3","system_id":"levelo_inurba_marseille","lat":43.30215,"lon":5.39463,"is_reserved":false,"is_disabled":false,"rental_uris":{"android":"levelo://app?vid=5aafea1f-72f2-461f-8ff5-4c58096065c3","ios":"levelo://app?vid=5aafea1f-72f2-461f-8ff5-4c58096065c3"},"vehicle_type_id":"4","last_reported":1706382362,"current_range_meters":12000,"station_id":"ce4bh0p2rcd13ifvqd70","pricing_plan_id":"free"},{"bike_id":"7a88baef-7765-4d21-b7a4-d18b783baf9d","system_id":"levelo_inurba_marseille","lat":43.302008,"lon":5.394694,"is_reserved":false,"is_disabled":false,"rental_uris":{"android":"levelo://app?vid=7a88baef-7765-4d21-b7a4-d18b783baf9d","ios":"levelo://app?vid=7a88baef-7765-4d21-b7a4-d18b783baf9d"},"vehicle_type_id":"4","last_reported":1706382362,"current_range_meters":0,"station_id":"ce4bh0p2rcd13ifvqd70","pricing_plan_id":"free"},{"bike_id":"17ca140e-4917-4167-b27c-941c65672e92","system_id":"levelo_inurba_marseille","lat":43.290441,"lon":5.359123,"is_reserved":false,"is_disabled":false,"rental_uris":{"android":"levelo://app?vid=17ca140e-4917-4167-b27c-941c65672e92","ios":"levelo://app?vid=17ca140e-4917-4167-b27c-941c65672e92"},"vehicle_type_id":"4","last_reported":1706382362,"current_range_meters":28400,"station_id":"","pricing_plan_id":"free"},{"bike_id":"3661d287-6810-42a6-937e-fa80876a9493","system_id":"levelo_inurba_marseille","lat":43.2899,"lon":5.371773,"is_reserved":false,"is_disabled":false,"rental_uris":{"android":"levelo://app?vid=3661d287-6810-42a6-937e-fa80876a9493","ios":"levelo://app?vid=3661d287-6810-42a6-937e-fa80876a9493"},"vehicle_type_id":"4","last_reported":1706382362,"current_range_meters":0,"station_id":"","pricing_plan_id":"free"},{"bike_id":"34352741-92b6-46cb-a96b-05c6fbd86707","system_id":"levelo_inurba_marseille","lat":43.29423,"lon":5.38619,"is_reserved":false,"is_disabled":false,"rental_uris":{"android":"levelo://app?vid=34352741-92b6-46cb-a96b-05c6fbd86707","ios":"levelo://app?vid=34352741-92b6-46cb-a96b-05c6fbd86707"},"vehicle_type_id":"4","last_reported":1706382362,"current_range_meters":0,"station_id":"ce4bh2h2rcd13ifvqdh0","pricing_plan_id":"free"},{"bike_id":"84804f14-ce97-4ad6-ba57-e8decc82559a","system_id":"levelo_inurba_marseille","lat":43.29418,"lon":5.3863,"is_reserved":false,"is_disabled":false,"rental_uris":{"android":"levelo://app?vid=84804f14-ce97-4ad6-ba57-e8decc82559a","ios":"levelo://app?vid=84804f14-ce97-4ad6-ba57-e8decc82559a"},"vehicle_type_id":"4","last_reported":1706382362,"current_range_meters":0,"station_id":"ce4bh2h2rcd13ifvqdh0","pricing_plan_id":"free"},{"bike_id":"0c756119-d121-42e4-8d50-0c6068b299e4","system_id":"levelo_inurba_marseille","lat":43.28942,"lon":5.36624,"is_reserved":false,"is_disabled":false,"rental_uris":{"android":"levelo://app?vid=0c756119-d121-42e4-8d50-0c6068b299e4","ios":"levelo://app?vid=0c756119-d121-42e4-8d50-0c6068b299e4"},"vehicle_type_id":"4","last_reported":1706382362,"current_range_meters":0,"station_id":"ce4bhap2rcd13ifvqek0","pricing_plan_id":"free"},{"bike_id":"4f04df44-114e-460b-8f4a-1a7641243ffa","system_id":"levelo_inurba_marseille","lat":43.290319,"lon":5.375732,"is_reserved":false,"is_disabled":false,"rental_uris":{"android":"levelo://app?vid=4f04df44-114e-460b-8f4a-1a7641243ffa","ios":"levelo://app?vid=4f04df44-114e-460b-8f4a-1a7641243ffa"},"vehicle_type_id":"4","last_reported":1706382362,"current_range_meters":0,"station_id":"ce4bh692rcd13ifvqe90","pricing_plan_id":"free"},{"bike_id":"32c01700-3370-42be-8fbf-841507f94392","system_id":"levelo_inurba_marseille","lat":43.29415,"lon":5.38632,"is_reserved":false,"is_disabled":false,"rental_uris":{"android":"levelo://app?vid=32c01700-3370-42be-8fbf-841507f94392","ios":"levelo://app?vid=32c01700-3370-42be-8fbf-841507f94392"},"vehicle_type_id":"4","last_reported":1706382362,"current_range_meters":0,"station_id":"ce4bh2h2rcd13ifvqdh0","pricing_plan_id":"free"},{"bike_id":"66b62b1c-6607-4ba7-9a48-9605bca84b40","system_id":"levelo_inurba_marseille","lat":43.29027,"lon":5.37564,"is_reserved":false,"is_disabled":false,"rental_uris":{"android":"levelo://app?vid=66b62b1c-6607-4ba7-9a48-9605bca84b40","ios":"levelo://app?vid=66b62b1c-6607-4ba7-9a48-9605bca84b40"},"vehicle_type_id":"4","last_reported":1706382362,"current_range_meters":6000,"station_id":"ce4bh692rcd13ifvqe90","pricing_plan_id":"free"},{"bike_id":"0252f5d7-4f30-4af8-b3b9-a40854b2a88b","system_id":"levelo_inurba_marseille","lat":43.294083,"lon":5.38625,"is_reserved":false,"is_disabled":false,"rental_uris":{"android":"levelo://app?vid=0252f5d7-4f30-4af8-b3b9-a40854b2a88b","ios":"levelo://app?vid=0252f5d7-4f30-4af8-b3b9-a40854b2a88b"},"vehicle_type_id":"4","last_reported":1706382362,"current_range_meters":0,"station_id":"ce4bh2h2rcd13ifvqdh0","pricing_plan_id":"free"},{"bike_id":"8751b3b7-cedc-4091-a510-f929f00a3cc3","system_id":"levelo_inurba_marseille","lat":43.294162,"lon":5.386292,"is_reserved":false,"is_disabled":false,"rental_uris":{"android":"levelo://app?vid=8751b3b7-cedc-4091-a510-f929f00a3cc3","ios":"levelo://app?vid=8751b3b7-cedc-4091-a510-f929f00a3cc3"},"vehicle_type_id":"4","last_reported":1706382362,"current_range_meters":22000,"station_id":"ce4bh2h2rcd13ifvqdh0","pricing_plan_id":"free"},{"bike_id":"b9436fc9-664b-4597-8d2e-ca5a564837e6","system_id":"levelo_inurba_marseille","lat":43.29408,"lon":5.3864,"is_reserved":false,"is_disabled":false,"rental_uris":{"android":"levelo://app?vid=b9436fc9-664b-4597-8d2e-ca5a564837e6","ios":"levelo://app?vid=b9436fc9-664b-4597-8d2e-ca5a564837e6"},"vehicle_type_id":"4","last_reported":1706382362,"current_range_meters":0,"station_id":"ce4bh2h2rcd13ifvqdh0","pricing_plan_id":"free"},{"bike_id":"565fbcd3-237e-4293-bdd4-0efa7a21df99","system_id":"levelo_inurba_marseille","lat":43.29271,"lon":5.38434,"is_reserved":false,"is_disabled":false,"rental_uris":{"android":"levelo://app?vid=565fbcd3-237e-4293-bdd4-0efa7a21df99","ios":"levelo://app?vid=565fbcd3-237e-4293-bdd4-0efa7a21df99"},"vehicle_type_id":"4","last_reported":1706382362,"current_range_meters":0,"station_id":"ce4bh692rcd13ifvqea0","pricing_plan_id":"free"},{"bike_id":"41772e7a-9baa-42cd-8354-92c1640fe8b8","system_id":"levelo_inurba_marseille","lat":43.29272,"lon":5.384407,"is_reserved":false,"is_disabled":false,"rental_uris":{"android":"levelo://app?vid=41772e7a-9baa-42cd-8354-92c1640fe8b8","ios":"levelo://app?vid=41772e7a-9baa-42cd-8354-92c1640fe8b8"},"vehicle_type_id":"4","last_reported":1706382362,"current_range_meters":0,"station_id":"ce4bh692rcd13ifvqea0","pricing_plan_id":"free"},{"bike_id":"2983e0d7-5b4c-4b53-82a1-879c658be75f","system_id":"levelo_inurba_marseille","lat":43.304296,"lon":5.397513,"is_reserved":false,"is_disabled":false,"rental_uris":{"android":"levelo://app?vid=2983e0d7-5b4c-4b53-82a1-879c658be75f","ios":"levelo://app?vid=2983e0d7-5b4c-4b53-82a1-879c658be75f"},"vehicle_type_id":"4","last_reported":1706382362,"current_range_meters":8000,"station_id":"ce4bh092rcd13ifvqd20","pricing_plan_id":"free"},{"bike_id":"f88643e1-bc0a-41dc-a749-d368d0031bc9","system_id":"levelo_inurba_marseille","lat":43.292642,"lon":5.384254,"is_reserved":false,"is_disabled":false,"rental_uris":{"android":"levelo://app?vid=f88643e1-bc0a-41dc-a749-d368d0031bc9","ios":"levelo://app?vid=f88643e1-bc0a-41dc-a749-d368d0031bc9"},"vehicle_type_id":"4","last_reported":1706382362,"current_range_meters":800,"station_id":"ce4bh692rcd13ifvqea0","pricing_plan_id":"free"},{"bike_id":"26d5d9b5-3eea-4b0d-9f4c-eee3f02ffd50","system_id":"levelo_inurba_marseille","lat":43.292583,"lon":5.384406,"is_reserved":false,"is_disabled":false,"rental_uris":{"android":"levelo://app?vid=26d5d9b5-3eea-4b0d-9f4c-eee3f02ffd50","ios":"levelo://app?vid=26d5d9b5-3eea-4b0d-9f4c-eee3f02ffd50"},"vehicle_type_id":"4","last_reported":1706382362,"current_range_meters":11600,"station_id":"ce4bh692rcd13ifvqea0","pricing_plan_id":"free"},{"bike_id":"5511291d-55e7-4695-ab2e-6964e1d10167","system_id":"levelo_inurba_marseille","lat":43.292658,"lon":5.384592,"is_reserved":false,"is_disabled":false,"rental_uris":{"android":"levelo://app?vid=5511291d-55e7-4695-ab2e-6964e1d10167","ios":"levelo://app?vid=5511291d-55e7-4695-ab2e-6964e1d10167"},"vehicle_type_id":"4","last_reported":1706382362,"current_range_meters":4400,"station_id":"ce4bh692rcd13ifvqea0","pricing_plan_id":"free"},{"bike_id":"f884216b-e390-401a-ba5e-f07c46a09d65","system_id":"levelo_inurba_marseille","lat":43.292642,"lon":5.384254,"is_reserved":false,"is_disabled":false,"rental_uris":{"android":"levelo://app?vid=f884216b-e390-401a-ba5e-f07c46a09d65","ios":"levelo://app?vid=f884216b-e390-401a-ba5e-f07c46a09d65"},"vehicle_type_id":"4","last_reported":1706382362,"current_range_meters":4800,"station_id":"ce4bh692rcd13ifvqea0","pricing_plan_id":"free"},{"bike_id":"85ac8a5e-9154-4ec7-a426-c8f7ca9bf0ce","system_id":"levelo_inurba_marseille","lat":43.29259,"lon":5.38446,"is_reserved":false,"is_disabled":false,"rental_uris":{"android":"levelo://app?vid=85ac8a5e-9154-4ec7-a426-c8f7ca9bf0ce","ios":"levelo://app?vid=85ac8a5e-9154-4ec7-a426-c8f7ca9bf0ce"},"vehicle_type_id":"4","last_reported":1706382362,"current_range_meters":400,"station_id":"ce4bh692rcd13ifvqea0","pricing_plan_id":"free"},{"bike_id":"9ba6500d-7e5e-472f-9db2-9a7cbb329718","system_id":"levelo_inurba_marseille","lat":43.292642,"lon":5.384254,"is_reserved":false,"is_disabled":false,"rental_uris":{"android":"levelo://app?vid=9ba6500d-7e5e-472f-9db2-9a7cbb329718","ios":"levelo://app?vid=9ba6500d-7e5e-472f-9db2-9a7cbb329718"},"vehicle_type_id":"4","last_reported":1706382362,"current_range_meters":20000,"station_id":"ce4bh692rcd13ifvqea0","pricing_plan_id":"free"},{"bike_id":"a43b4901-7f7f-4342-bd62-8ea473ba3c66","system_id":"levelo_inurba_marseille","lat":43.292642,"lon":5.384254,"is_reserved":false,"is_disabled":false,"rental_uris":{"android":"levelo://app?vid=a43b4901-7f7f-4342-bd62-8ea473ba3c66","ios":"levelo://app?vid=a43b4901-7f7f-4342-bd62-8ea473ba3c66"},"vehicle_type_id":"4","last_reported":1706382362,"current_range_meters":24400,"station_id":"ce4bh692rcd13ifvqea0","pricing_plan_id":"free"},{"bike_id":"866a925a-4bb5-4ea7-897d-bf105ca0c24b","system_id":"levelo_inurba_marseille","lat":43.290104,"lon":5.356111,"is_reserved":false,"is_disabled":false,"rental_uris":{"android":"levelo://app?vid=866a925a-4bb5-4ea7-897d-bf105ca0c24b","ios":"levelo://app?vid=866a925a-4bb5-4ea7-897d-bf105ca0c24b"},"vehicle_type_id":"4","last_reported":1706382362,"current_range_meters":1600,"station_id":"ce4bhb92rcd13ifvqen0","pricing_plan_id":"free"},{"bike_id":"3e7a8fcb-8eb8-4493-9ae2-6120d6217c84","system_id":"levelo_inurba_marseille","lat":43.290995,"lon":5.381361,"is_reserved":false,"is_disabled":false,"rental_uris":{"android":"levelo://app?vid=3e7a8fcb-8eb8-4493-9ae2-6120d6217c84","ios":"levelo://app?vid=3e7a8fcb-8eb8-4493-9ae2-6120d6217c84"},"vehicle_type_id":"4","last_reported":1706382362,"current_range_meters":14000,"station_id":"ce4bh512rcd13ifvqe2g","pricing_plan_id":"free"},{"bike_id":"5a04ea41-6d8c-4e35-a7b8-d90acba4b572","system_id":"levelo_inurba_marseille","lat":43.271368,"lon":5.40928,"is_reserved":false,"is_disabled":false,"rental_uris":{"android":"levelo://app?vid=5a04ea41-6d8c-4e35-a7b8-d90acba4b572","ios":"levelo://app?vid=5a04ea41-6d8c-4e35-a7b8-d90acba4b572"},"vehicle_type_id":"4","last_reported":1706382362,"current_range_meters":9600,"station_id":"ce4bhl12rcd13ifvqgf0","pricing_plan_id":"free"},{"bike_id":"10ea18e7-3f70-4d86-b186-1c5b934265d8","system_id":"levelo_inurba_marseille","lat":43.290995,"lon":5.381361,"is_reserved":false,"is_disabled":false,"rental_uris":{"android":"levelo://app?vid=10ea18e7-3f70-4d86-b186-1c5b934265d8","ios":"levelo://app?vid=10ea18e7-3f70-4d86-b186-1c5b934265d8"},"vehicle_type_id":"4","last_reported":1706382362,"current_range_meters":2800,"station_id":"ce4bh512rcd13ifvqe2g","pricing_plan_id":"free"},{"bike_id":"c0b7d3ba-9eb0-4c4d-ae9e-f6419ab82359","system_id":"levelo_inurba_marseille","lat":43.29787,"lon":5.39337,"is_reserved":false,"is_disabled":false,"rental_uris":{"android":"levelo://app?vid=c0b7d3ba-9eb0-4c4d-ae9e-f6419ab82359","ios":"levelo://app?vid=c0b7d3ba-9eb0-4c4d-ae9e-f6419ab82359"},"vehicle_type_id":"4","last_reported":1706382362,"current_range_meters":0,"station_id":"chh1huq6cuj3fo74tm60","pricing_plan_id":"free"},{"bike_id":"2affcb62-094b-46a2-a450-ec4f91160600","system_id":"levelo_inurba_marseille","lat":43.297923,"lon":5.39356,"is_reserved":false,"is_disabled":false,"rental_uris":{"android":"levelo://app?vid=2affcb62-094b-46a2-a450-ec4f91160600","ios":"levelo://app?vid=2affcb62-094b-46a2-a450-ec4f91160600"},"vehicle_type_id":"4","last_reported":1706382362,"current_range_meters":0,"station_id":"chh1huq6cuj3fo74tm60","pricing_plan_id":"free"},{"bike_id":"5bccb220-e9a2-4490-bf06-b98f32528009","system_id":"levelo_inurba_marseille","lat":43.330442,"lon":5.389148,"is_reserved":false,"is_disabled":false,"rental_uris":{"android":"levelo://app?vid=5bccb220-e9a2-4490-bf06-b98f32528009","ios":"levelo://app?vid=5bccb220-e9a2-4490-bf06-b98f32528009"},"vehicle_type_id":"4","last_reported":1706382362,"current_range_meters":1600,"station_id":"ce4bhr92rcd13ifvqhrg","pricing_plan_id":"free"},{"bike_id":"f7facd80-871d-4396-82fb-93951d599ac2","system_id":"levelo_inurba_marseille","lat":43.29025,"lon":5.38125,"is_reserved":false,"is_disabled":false,"rental_uris":{"android":"levelo://app?vid=f7facd80-871d-4396-82fb-93951d599ac2","ios":"levelo://app?vid=f7facd80-871d-4396-82fb-93951d599ac2"},"vehicle_type_id":"4","last_reported":1706382362,"current_range_meters":2000,"station_id":"ce4bh4p2rcd13ifvqe1g","pricing_plan_id":"free"},{"bike_id":"1c4bbaa6-a481-4245-9cf8-0d143bcce5ca","system_id":"levelo_inurba_marseille","lat":43.2901,"lon":5.381269,"is_reserved":false,"is_disabled":false,"rental_uris":{"android":"levelo://app?vid=1c4bbaa6-a481-4245-9cf8-0d143bcce5ca","ios":"levelo://app?vid=1c4bbaa6-a481-4245-9cf8-0d143bcce5ca"},"vehicle_type_id":"4","last_reported":1706382362,"current_range_meters":5200,"station_id":"ce4bh4p2rcd13ifvqe1g","pricing_plan_id":"free"},{"bike_id":"c6133f8b-2c33-45aa-a951-6366e2870fd2","system_id":"levelo_inurba_marseille","lat":43.290094,"lon":5.381264,"is_reserved":false,"is_disabled":false,"rental_uris":{"android":"levelo://app?vid=c6133f8b-2c33-45aa-a951-6366e2870fd2","ios":"levelo://app?vid=c6133f8b-2c33-45aa-a951-6366e2870fd2"},"vehicle_type_id":"4","last_reported":1706382362,"current_range_meters":13600,"station_id":"ce4bh4p2rcd13ifvqe1g","pricing_plan_id":"free"},{"bike_id":"07c62e11-e130-4fc6-aab8-eb58ef4b864b","system_id":"levelo_inurba_marseille","lat":43.312609,"lon":5.401662,"is_reserved":false,"is_disabled":false,"rental_uris":{"android":"levelo://app?vid=07c62e11-e130-4fc6-aab8-eb58ef4b864b","ios":"levelo://app?vid=07c62e11-e130-4fc6-aab8-eb58ef4b864b"},"vehicle_type_id":"4","last_reported":1706382362,"current_range_meters":14400,"station_id":"ce4bh092rcd13ifvqd30","pricing_plan_id":"free"},{"bike_id":"a563cdbf-78b8-441c-8dce-8da1c3325b92","system_id":"levelo_inurba_marseille","lat":43.3375,"lon":5.3745,"is_reserved":false,"is_disabled":false,"rental_uris":{"android":"levelo://app?vid=a563cdbf-78b8-441c-8dce-8da1c3325b92","ios":"levelo://app?vid=a563cdbf-78b8-441c-8dce-8da1c3325b92"},"vehicle_type_id":"4","last_reported":1706382362,"current_range_meters":17200,"station_id":"","pricing_plan_id":"free"},{"bike_id":"cd39fc38-471d-4996-974c-5267b6a5742f","system_id":"levelo_inurba_marseille","lat":43.309253,"lon":5.401463,"is_reserved":false,"is_disabled":false,"rental_uris":{"android":"levelo://app?vid=cd39fc38-471d-4996-974c-5267b6a5742f","ios":"levelo://app?vid=cd39fc38-471d-4996-974c-5267b6a5742f"},"vehicle_type_id":"4","last_reported":1706382362,"current_range_meters":0,"station_id":"ce4bgvp2rcd13ifvqct0","pricing_plan_id":"free"},{"bike_id":"1c257a4e-b7db-4ab6-84f1-98e69f52fde9","system_id":"levelo_inurba_marseille","lat":43.312609,"lon":5.401662,"is_reserved":false,"is_disabled":false,"rental_uris":{"android":"levelo://app?vid=1c257a4e-b7db-4ab6-84f1-98e69f52fde9","ios":"levelo://app?vid=1c257a4e-b7db-4ab6-84f1-98e69f52fde9"},"vehicle_type_id":"4","last_reported":1706382362,"current_range_meters":6400,"station_id":"ce4bh092rcd13ifvqd30","pricing_plan_id":"free"},{"bike_id":"02cc1ce4-717f-4b60-a8ae-e32a4e8fb56c","system_id":"levelo_inurba_marseille","lat":43.33754,"lon":5.37496,"is_reserved":false,"is_disabled":false,"rental_uris":{"android":"levelo://app?vid=02cc1ce4-717f-4b60-a8ae-e32a4e8fb56c","ios":"levelo://app?vid=02cc1ce4-717f-4b60-a8ae-e32a4e8fb56c"},"vehicle_type_id":"4","last_reported":1706382362,"current_range_meters":11200,"station_id":"","pricing_plan_id":"free"},{"bike_id":"b7f12eab-e0a6-499e-87ec-2b4381c4602a","system_id":"levelo_inurba_marseille","lat":43.33753,"lon":5.37504,"is_reserved":false,"is_disabled":false,"rental_uris":{"android":"levelo://app?vid=b7f12eab-e0a6-499e-87ec-2b4381c4602a","ios":"levelo://app?vid=b7f12eab-e0a6-499e-87ec-2b4381c4602a"},"vehicle_type_id":"4","last_reported":1706382362,"current_range_meters":23200,"station_id":"","pricing_plan_id":"free"},{"bike_id":"1facbbf3-baac-42f8-85eb-cb1e36f3e4b9","system_id":"levelo_inurba_marseille","lat":43.3376,"lon":5.3749,"is_reserved":false,"is_disabled":false,"rental_uris":{"android":"levelo://app?vid=1facbbf3-baac-42f8-85eb-cb1e36f3e4b9","ios":"levelo://app?vid=1facbbf3-baac-42f8-85eb-cb1e36f3e4b9"},"vehicle_type_id":"4","last_reported":1706382362,"current_range_meters":18000,"station_id":"","pricing_plan_id":"free"},{"bike_id":"b7d3b81d-d85a-44b5-a0c7-8f9c9f74639e","system_id":"levelo_inurba_marseille","lat":43.33765,"lon":5.374672,"is_reserved":false,"is_disabled":false,"rental_uris":{"android":"levelo://app?vid=b7d3b81d-d85a-44b5-a0c7-8f9c9f74639e","ios":"levelo://app?vid=b7d3b81d-d85a-44b5-a0c7-8f9c9f74639e"},"vehicle_type_id":"4","last_reported":1706382362,"current_range_meters":30000,"station_id":"","pricing_plan_id":"free"},{"bike_id":"a9554a78-0f9d-4cdd-9ecd-598bb2d54931","system_id":"levelo_inurba_marseille","lat":43.337657,"lon":5.374839,"is_reserved":false,"is_disabled":false,"rental_uris":{"android":"levelo://app?vid=a9554a78-0f9d-4cdd-9ecd-598bb2d54931","ios":"levelo://app?vid=a9554a78-0f9d-4cdd-9ecd-598bb2d54931"},"vehicle_type_id":"4","last_reported":1706382362,"current_range_meters":30800,"station_id":"","pricing_plan_id":"free"},{"bike_id":"eaeff2f9-be33-4cbc-b315-c230be10dd9b","system_id":"levelo_inurba_marseille","lat":43.33766,"lon":5.37495,"is_reserved":false,"is_disabled":false,"rental_uris":{"android":"levelo://app?vid=eaeff2f9-be33-4cbc-b315-c230be10dd9b","ios":"levelo://app?vid=eaeff2f9-be33-4cbc-b315-c230be10dd9b"},"vehicle_type_id":"4","last_reported":1706382362,"current_range_meters":9200,"station_id":"","pricing_plan_id":"free"},{"bike_id":"bd7c49e0-243f-4049-bc25-2de8f060bb29","system_id":"levelo_inurba_marseille","lat":43.337708,"lon":5.37489,"is_reserved":false,"is_disabled":false,"rental_uris":{"android":"levelo://app?vid=bd7c49e0-243f-4049-bc25-2de8f060bb29","ios":"levelo://app?vid=bd7c49e0-243f-4049-bc25-2de8f060bb29"},"vehicle_type_id":"4","last_reported":1706382362,"current_range_meters":23600,"station_id":"","pricing_plan_id":"free"},{"bike_id":"e2f244c6-f930-4de9-9857-64e97aac5862","system_id":"levelo_inurba_marseille","lat":43.306412,"lon":5.401035,"is_reserved":false,"is_disabled":false,"rental_uris":{"android":"levelo://app?vid=e2f244c6-f930-4de9-9857-64e97aac5862","ios":"levelo://app?vid=e2f244c6-f930-4de9-9857-64e97aac5862"},"vehicle_type_id":"4","last_reported":1706382362,"current_range_meters":4800,"station_id":"ce4bh112rcd13ifvqda0","pricing_plan_id":"free"},{"bike_id":"aa71da33-ba7b-454b-ad61-75b457691db4","system_id":"levelo_inurba_marseille","lat":43.28727,"lon":5.36078,"is_reserved":false,"is_disabled":false,"rental_uris":{"android":"levelo://app?vid=aa71da33-ba7b-454b-ad61-75b457691db4","ios":"levelo://app?vid=aa71da33-ba7b-454b-ad61-75b457691db4"},"vehicle_type_id":"4","last_reported":1706382362,"current_range_meters":3200,"station_id":"cki0cbj6b192h4jlfktg","pricing_plan_id":"free"},{"bike_id":"2645bf1b-208e-45d2-b086-1fd929455296","system_id":"levelo_inurba_marseille","lat":43.287185,"lon":5.379373,"is_reserved":false,"is_disabled":false,"rental_uris":{"android":"levelo://app?vid=2645bf1b-208e-45d2-b086-1fd929455296","ios":"levelo://app?vid=2645bf1b-208e-45d2-b086-1fd929455296"},"vehicle_type_id":"4","last_reported":1706382362,"current_range_meters":17200,"station_id":"ce4bh9p2rcd13ifvqec0","pricing_plan_id":"free"},{"bike_id":"e2551c10-c90f-4a8d-8a80-07ccf79a6411","system_id":"levelo_inurba_marseille","lat":43.29869,"lon":5.39735,"is_reserved":false,"is_disabled":false,"rental_uris":{"android":"levelo://app?vid=e2551c10-c90f-4a8d-8a80-07ccf79a6411","ios":"levelo://app?vid=e2551c10-c90f-4a8d-8a80-07ccf79a6411"},"vehicle_type_id":"4","last_reported":1706382362,"current_range_meters":18400,"station_id":"ce4bh0h2rcd13ifvqd50","pricing_plan_id":"free"},{"bike_id":"c742841b-71dc-4b33-87fe-3539994629f2","system_id":"levelo_inurba_marseille","lat":43.298681,"lon":5.397225,"is_reserved":false,"is_disabled":false,"rental_uris":{"android":"levelo://app?vid=c742841b-71dc-4b33-87fe-3539994629f2","ios":"levelo://app?vid=c742841b-71dc-4b33-87fe-3539994629f2"},"vehicle_type_id":"4","last_reported":1706382362,"current_range_meters":11600,"station_id":"ce4bh0h2rcd13ifvqd50","pricing_plan_id":"free"},{"bike_id":"278e5034-a89d-40ad-a898-19f6e79228d6","system_id":"levelo_inurba_marseille","lat":43.298681,"lon":5.397225,"is_reserved":false,"is_disabled":false,"rental_uris":{"android":"levelo://app?vid=278e5034-a89d-40ad-a898-19f6e79228d6","ios":"levelo://app?vid=278e5034-a89d-40ad-a898-19f6e79228d6"},"vehicle_type_id":"4","last_reported":1706382362,"current_range_meters":30400,"station_id":"ce4bh0h2rcd13ifvqd50","pricing_plan_id":"free"},{"bike_id":"e04bd581-6953-49ff-a3e8-c638d68a6d72","system_id":"levelo_inurba_marseille","lat":43.302759,"lon":5.400793,"is_reserved":false,"is_disabled":false,"rental_uris":{"android":"levelo://app?vid=e04bd581-6953-49ff-a3e8-c638d68a6d72","ios":"levelo://app?vid=e04bd581-6953-49ff-a3e8-c638d68a6d72"},"vehicle_type_id":"4","last_reported":1706382362,"current_range_meters":800,"station_id":"ce4bgvh2rcd13ifvqcs0","pricing_plan_id":"free"},{"bike_id":"e5e50965-e3ae-44e1-a2f4-759c36a557fd","system_id":"levelo_inurba_marseille","lat":43.302759,"lon":5.400793,"is_reserved":false,"is_disabled":false,"rental_uris":{"android":"levelo://app?vid=e5e50965-e3ae-44e1-a2f4-759c36a557fd","ios":"levelo://app?vid=e5e50965-e3ae-44e1-a2f4-759c36a557fd"},"vehicle_type_id":"4","last_reported":1706382362,"current_range_meters":0,"station_id":"ce4bgvh2rcd13ifvqcs0","pricing_plan_id":"free"},{"bike_id":"48db24ee-76df-4faf-8eed-2f3501c8b20a","system_id":"levelo_inurba_marseille","lat":43.290345,"lon":5.38646,"is_reserved":false,"is_disabled":false,"rental_uris":{"android":"levelo://app?vid=48db24ee-76df-4faf-8eed-2f3501c8b20a","ios":"levelo://app?vid=48db24ee-76df-4faf-8eed-2f3501c8b20a"},"vehicle_type_id":"4","last_reported":1706382362,"current_range_meters":12400,"station_id":"ce4bh4p2rcd13ifvqe0g","pricing_plan_id":"free"},{"bike_id":"8edf9ba1-179a-4776-b601-268414822ec5","system_id":"levelo_inurba_marseille","lat":43.302759,"lon":5.400793,"is_reserved":false,"is_disabled":false,"rental_uris":{"android":"levelo://app?vid=8edf9ba1-179a-4776-b601-268414822ec5","ios":"levelo://app?vid=8edf9ba1-179a-4776-b601-268414822ec5"},"vehicle_type_id":"4","last_reported":1706382362,"current_range_meters":18000,"station_id":"ce4bgvh2rcd13ifvqcs0","pricing_plan_id":"free"},{"bike_id":"7cdf7104-5a33-4e06-a795-e6aa86f77f29","system_id":"levelo_inurba_marseille","lat":43.290255,"lon":5.386415,"is_reserved":false,"is_disabled":false,"rental_uris":{"android":"levelo://app?vid=7cdf7104-5a33-4e06-a795-e6aa86f77f29","ios":"levelo://app?vid=7cdf7104-5a33-4e06-a795-e6aa86f77f29"},"vehicle_type_id":"4","last_reported":1706382362,"current_range_meters":0,"station_id":"ce4bh4p2rcd13ifvqe0g","pricing_plan_id":"free"},{"bike_id":"183bb1c1-398f-466c-b05d-327ac4efc436","system_id":"levelo_inurba_marseille","lat":43.302511,"lon":5.400653,"is_reserved":false,"is_disabled":false,"rental_uris":{"android":"levelo://app?vid=183bb1c1-398f-466c-b05d-327ac4efc436","ios":"levelo://app?vid=183bb1c1-398f-466c-b05d-327ac4efc436"},"vehicle_type_id":"4","last_reported":1706382362,"current_range_meters":14000,"station_id":"ce4bgth2rcd13ifvqch0","pricing_plan_id":"free"},{"bike_id":"285c6f92-9402-4605-b497-fc24d4b1f364","system_id":"levelo_inurba_marseille","lat":43.28922,"lon":5.38397,"is_reserved":false,"is_disabled":false,"rental_uris":{"android":"levelo://app?vid=285c6f92-9402-4605-b497-fc24d4b1f364","ios":"levelo://app?vid=285c6f92-9402-4605-b497-fc24d4b1f364"},"vehicle_type_id":"4","last_reported":1706382362,"current_range_meters":400,"station_id":"ce4bh612rcd13ifvqe6g","pricing_plan_id":"free"},{"bike_id":"871d6b1a-c7fb-4318-b9cf-9a87754f1353","system_id":"levelo_inurba_marseille","lat":43.302759,"lon":5.400793,"is_reserved":false,"is_disabled":false,"rental_uris":{"android":"levelo://app?vid=871d6b1a-c7fb-4318-b9cf-9a87754f1353","ios":"levelo://app?vid=871d6b1a-c7fb-4318-b9cf-9a87754f1353"},"vehicle_type_id":"4","last_reported":1706382362,"current_range_meters":17600,"station_id":"ce4bgvh2rcd13ifvqcs0","pricing_plan_id":"free"},{"bike_id":"20dd9e25-504b-4c77-b9fb-32e66f4cb464","system_id":"levelo_inurba_marseille","lat":43.290345,"lon":5.38646,"is_reserved":false,"is_disabled":false,"rental_uris":{"android":"levelo://app?vid=20dd9e25-504b-4c77-b9fb-32e66f4cb464","ios":"levelo://app?vid=20dd9e25-504b-4c77-b9fb-32e66f4cb464"},"vehicle_type_id":"4","last_reported":1706382362,"current_range_meters":6000,"station_id":"ce4bh4p2rcd13ifvqe0g","pricing_plan_id":"free"},{"bike_id":"71ec1944-f8df-4802-9d8b-2c8ffc487a39","system_id":"levelo_inurba_marseille","lat":43.290217,"lon":5.38645,"is_reserved":false,"is_disabled":false,"rental_uris":{"android":"levelo://app?vid=71ec1944-f8df-4802-9d8b-2c8ffc487a39","ios":"levelo://app?vid=71ec1944-f8df-4802-9d8b-2c8ffc487a39"},"vehicle_type_id":"4","last_reported":1706382362,"current_range_meters":2800,"station_id":"ce4bh4p2rcd13ifvqe0g","pricing_plan_id":"free"},{"bike_id":"8a4cb788-3e7a-4c8b-9c51-07daafe47bcc","system_id":"levelo_inurba_marseille","lat":43.302759,"lon":5.400793,"is_reserved":false,"is_disabled":false,"rental_uris":{"android":"levelo://app?vid=8a4cb788-3e7a-4c8b-9c51-07daafe47bcc","ios":"levelo://app?vid=8a4cb788-3e7a-4c8b-9c51-07daafe47bcc"},"vehicle_type_id":"4","last_reported":1706382362,"current_range_meters":8400,"station_id":"ce4bgvh2rcd13ifvqcs0","pricing_plan_id":"free"},{"bike_id":"9ca77934-8be9-4afb-b860-7294569cf8d4","system_id":"levelo_inurba_marseille","lat":43.290336,"lon":5.386425,"is_reserved":false,"is_disabled":false,"rental_uris":{"android":"levelo://app?vid=9ca77934-8be9-4afb-b860-7294569cf8d4","ios":"levelo://app?vid=9ca77934-8be9-4afb-b860-7294569cf8d4"},"vehicle_type_id":"4","last_reported":1706382362,"current_range_meters":21200,"station_id":"ce4bh4p2rcd13ifvqe0g","pricing_plan_id":"free"},{"bike_id":"1b1f88f4-df68-4def-ac35-d4f7f6c8c955","system_id":"levelo_inurba_marseille","lat":43.29023,"lon":5.38657,"is_reserved":false,"is_disabled":false,"rental_uris":{"android":"levelo://app?vid=1b1f88f4-df68-4def-ac35-d4f7f6c8c955","ios":"levelo://app?vid=1b1f88f4-df68-4def-ac35-d4f7f6c8c955"},"vehicle_type_id":"4","last_reported":1706382362,"current_range_meters":0,"station_id":"ce4bh4p2rcd13ifvqe0g","pricing_plan_id":"free"},{"bike_id":"d3dd32f7-d08c-44c7-8d55-b48fdada7b7c","system_id":"levelo_inurba_marseille","lat":43.302759,"lon":5.400793,"is_reserved":false,"is_disabled":false,"rental_uris":{"android":"levelo://app?vid=d3dd32f7-d08c-44c7-8d55-b48fdada7b7c","ios":"levelo://app?vid=d3dd32f7-d08c-44c7-8d55-b48fdada7b7c"},"vehicle_type_id":"4","last_reported":1706382362,"current_range_meters":23600,"station_id":"ce4bgvh2rcd13ifvqcs0","pricing_plan_id":"free"},{"bike_id":"d14eb0c9-239d-4030-8163-38809f7a3453","system_id":"levelo_inurba_marseille","lat":43.286039,"lon":5.370679,"is_reserved":false,"is_disabled":false,"rental_uris":{"android":"levelo://app?vid=d14eb0c9-239d-4030-8163-38809f7a3453","ios":"levelo://app?vid=d14eb0c9-239d-4030-8163-38809f7a3453"},"vehicle_type_id":"4","last_reported":1706382362,"current_range_meters":21200,"station_id":"ce4bht12rcd13ifvqi60","pricing_plan_id":"free"},{"bike_id":"4371ed61-7dcb-4aee-8b59-f6d1ccace2b5","system_id":"levelo_inurba_marseille","lat":43.287184,"lon":5.37937,"is_reserved":false,"is_disabled":false,"rental_uris":{"android":"levelo://app?vid=4371ed61-7dcb-4aee-8b59-f6d1ccace2b5","ios":"levelo://app?vid=4371ed61-7dcb-4aee-8b59-f6d1ccace2b5"},"vehicle_type_id":"4","last_reported":1706382362,"current_range_meters":19200,"station_id":"ce4bh9p2rcd13ifvqec0","pricing_plan_id":"free"},{"bike_id":"e8d870d9-d352-4cbe-b1af-f73e0c69c069","system_id":"levelo_inurba_marseille","lat":43.287185,"lon":5.379373,"is_reserved":false,"is_disabled":false,"rental_uris":{"android":"levelo://app?vid=e8d870d9-d352-4cbe-b1af-f73e0c69c069","ios":"levelo://app?vid=e8d870d9-d352-4cbe-b1af-f73e0c69c069"},"vehicle_type_id":"4","last_reported":1706382362,"current_range_meters":1600,"station_id":"ce4bh9p2rcd13ifvqec0","pricing_plan_id":"free"},{"bike_id":"2fe24097-b1c2-4583-ba1f-cf8501171a4c","system_id":"levelo_inurba_marseille","lat":43.339119,"lon":5.378014,"is_reserved":false,"is_disabled":false,"rental_uris":{"android":"levelo://app?vid=2fe24097-b1c2-4583-ba1f-cf8501171a4c","ios":"levelo://app?vid=2fe24097-b1c2-4583-ba1f-cf8501171a4c"},"vehicle_type_id":"4","last_reported":1706382362,"current_range_meters":15200,"station_id":"","pricing_plan_id":"free"},{"bike_id":"3f902acc-107e-4c90-a395-45f9b66de96c","system_id":"levelo_inurba_marseille","lat":43.316828,"lon":5.404723,"is_reserved":false,"is_disabled":false,"rental_uris":{"android":"levelo://app?vid=3f902acc-107e-4c90-a395-45f9b66de96c","ios":"levelo://app?vid=3f902acc-107e-4c90-a395-45f9b66de96c"},"vehicle_type_id":"4","last_reported":1706382362,"current_range_meters":18000,"station_id":"ce4bh012rcd13ifvqd00","pricing_plan_id":"free"},{"bike_id":"25c3c682-d603-4d9d-96cb-95d79ed2978c","system_id":"levelo_inurba_marseille","lat":43.316828,"lon":5.404723,"is_reserved":false,"is_disabled":false,"rental_uris":{"android":"levelo://app?vid=25c3c682-d603-4d9d-96cb-95d79ed2978c","ios":"levelo://app?vid=25c3c682-d603-4d9d-96cb-95d79ed2978c"},"vehicle_type_id":"4","last_reported":1706382362,"current_range_meters":13600,"station_id":"ce4bh012rcd13ifvqd00","pricing_plan_id":"free"},{"bike_id":"44aaaaf4-39d3-46e5-ab8c-0136d3253bad","system_id":"levelo_inurba_marseille","lat":43.291994,"lon":5.392907,"is_reserved":false,"is_disabled":false,"rental_uris":{"android":"levelo://app?vid=44aaaaf4-39d3-46e5-ab8c-0136d3253bad","ios":"levelo://app?vid=44aaaaf4-39d3-46e5-ab8c-0136d3253bad"},"vehicle_type_id":"4","last_reported":1706382362,"current_range_meters":30800,"station_id":"ce4bh192rcd13ifvqdd0","pricing_plan_id":"free"},{"bike_id":"9ba35093-c40f-4c33-a3d4-8aa413d86846","system_id":"levelo_inurba_marseille","lat":43.2847,"lon":5.35881,"is_reserved":false,"is_disabled":false,"rental_uris":{"android":"levelo://app?vid=9ba35093-c40f-4c33-a3d4-8aa413d86846","ios":"levelo://app?vid=9ba35093-c40f-4c33-a3d4-8aa413d86846"},"vehicle_type_id":"4","last_reported":1706382362,"current_range_meters":2800,"station_id":"ce4bhah2rcd13ifvqei0","pricing_plan_id":"free"},{"bike_id":"d5ad36f4-1365-4cda-9660-2f04755d1815","system_id":"levelo_inurba_marseille","lat":43.294314,"lon":5.397498,"is_reserved":false,"is_disabled":false,"rental_uris":{"android":"levelo://app?vid=d5ad36f4-1365-4cda-9660-2f04755d1815","ios":"levelo://app?vid=d5ad36f4-1365-4cda-9660-2f04755d1815"},"vehicle_type_id":"4","last_reported":1706382362,"current_range_meters":14800,"station_id":"ce4bh3h2rcd13ifvqdo0","pricing_plan_id":"free"},{"bike_id":"c315ccf5-e675-4462-bcc2-fb16d77d90e2","system_id":"levelo_inurba_marseille","lat":43.28614,"lon":5.35099,"is_reserved":false,"is_disabled":false,"rental_uris":{"android":"levelo://app?vid=c315ccf5-e675-4462-bcc2-fb16d77d90e2","ios":"levelo://app?vid=c315ccf5-e675-4462-bcc2-fb16d77d90e2"},"vehicle_type_id":"4","last_reported":1706382362,"current_range_meters":0,"station_id":"ce4bhch2rcd13ifvqeug","pricing_plan_id":"free"},{"bike_id":"8afcc6f9-9fb2-42eb-a06c-b948544d1967","system_id":"levelo_inurba_marseille","lat":43.285848,"lon":5.350787,"is_reserved":false,"is_disabled":false,"rental_uris":{"android":"levelo://app?vid=8afcc6f9-9fb2-42eb-a06c-b948544d1967","ios":"levelo://app?vid=8afcc6f9-9fb2-42eb-a06c-b948544d1967"},"vehicle_type_id":"4","last_reported":1706382362,"current_range_meters":4400,"station_id":"ce4bhch2rcd13ifvqeug","pricing_plan_id":"free"},{"bike_id":"24766a62-ce3d-4dfe-9011-98c7c6be5202","system_id":"levelo_inurba_marseille","lat":43.283998,"lon":5.375062,"is_reserved":false,"is_disabled":false,"rental_uris":{"android":"levelo://app?vid=24766a62-ce3d-4dfe-9011-98c7c6be5202","ios":"levelo://app?vid=24766a62-ce3d-4dfe-9011-98c7c6be5202"},"vehicle_type_id":"4","last_reported":1706382362,"current_range_meters":400,"station_id":"ce4bh412rcd13ifvqds0","pricing_plan_id":"free"},{"bike_id":"d464a807-7e7f-4991-bd28-630bfbfd1e92","system_id":"levelo_inurba_marseille","lat":43.295713,"lon":5.399639,"is_reserved":false,"is_disabled":false,"rental_uris":{"android":"levelo://app?vid=d464a807-7e7f-4991-bd28-630bfbfd1e92","ios":"levelo://app?vid=d464a807-7e7f-4991-bd28-630bfbfd1e92"},"vehicle_type_id":"4","last_reported":1706382362,"current_range_meters":0,"station_id":"ce4bh312rcd13ifvqdj0","pricing_plan_id":"free"},{"bike_id":"9bf2368e-e696-4aad-ba69-b0c528c7bcda","system_id":"levelo_inurba_marseille","lat":43.286595,"lon":5.386795,"is_reserved":false,"is_disabled":false,"rental_uris":{"android":"levelo://app?vid=9bf2368e-e696-4aad-ba69-b0c528c7bcda","ios":"levelo://app?vid=9bf2368e-e696-4aad-ba69-b0c528c7bcda"},"vehicle_type_id":"4","last_reported":1706382362,"current_range_meters":5600,"station_id":"ce4bh492rcd13ifvqdug","pricing_plan_id":"free"},{"bike_id":"6e294124-99ef-4420-9417-8cbdfc6a8d2c","system_id":"levelo_inurba_marseille","lat":43.286595,"lon":5.386795,"is_reserved":false,"is_disabled":false,"rental_uris":{"android":"levelo://app?vid=6e294124-99ef-4420-9417-8cbdfc6a8d2c","ios":"levelo://app?vid=6e294124-99ef-4420-9417-8cbdfc6a8d2c"},"vehicle_type_id":"4","last_reported":1706382362,"current_range_meters":23200,"station_id":"ce4bh492rcd13ifvqdug","pricing_plan_id":"free"},{"bike_id":"a3f30509-feaf-4375-af71-8a441027e5bd","system_id":"levelo_inurba_marseille","lat":43.33717,"lon":5.391857,"is_reserved":false,"is_disabled":false,"rental_uris":{"android":"levelo://app?vid=a3f30509-feaf-4375-af71-8a441027e5bd","ios":"levelo://app?vid=a3f30509-feaf-4375-af71-8a441027e5bd"},"vehicle_type_id":"4","last_reported":1706382362,"current_range_meters":16000,"station_id":"ce4bhr92rcd13ifvqhsg","pricing_plan_id":"free"},{"bike_id":"2bb38835-1a5e-4d01-8935-6396d43e5266","system_id":"levelo_inurba_marseille","lat":43.337168,"lon":5.391825,"is_reserved":false,"is_disabled":false,"rental_uris":{"android":"levelo://app?vid=2bb38835-1a5e-4d01-8935-6396d43e5266","ios":"levelo://app?vid=2bb38835-1a5e-4d01-8935-6396d43e5266"},"vehicle_type_id":"4","last_reported":1706382362,"current_range_meters":22800,"station_id":"ce4bhr92rcd13ifvqhsg","pricing_plan_id":"free"},{"bike_id":"1a6ec7b5-d6d5-4ce9-9d83-b2166715a8cb","system_id":"levelo_inurba_marseille","lat":43.288497,"lon":5.393089,"is_reserved":false,"is_disabled":false,"rental_uris":{"android":"levelo://app?vid=1a6ec7b5-d6d5-4ce9-9d83-b2166715a8cb","ios":"levelo://app?vid=1a6ec7b5-d6d5-4ce9-9d83-b2166715a8cb"},"vehicle_type_id":"4","last_reported":1706382362,"current_range_meters":12000,"station_id":"ce4bh2p2rcd13ifvqdi0","pricing_plan_id":"free"},{"bike_id":"bab5eaab-4e16-4abc-8fb3-38afff0196f3","system_id":"levelo_inurba_marseille","lat":43.298,"lon":5.40412,"is_reserved":false,"is_disabled":false,"rental_uris":{"android":"levelo://app?vid=bab5eaab-4e16-4abc-8fb3-38afff0196f3","ios":"levelo://app?vid=bab5eaab-4e16-4abc-8fb3-38afff0196f3"},"vehicle_type_id":"4","last_reported":1706382362,"current_range_meters":1200,"station_id":"ce4bh112rcd13ifvqd90","pricing_plan_id":"free"},{"bike_id":"d0479f6b-7a39-4671-af03-85e3583902cf","system_id":"levelo_inurba_marseille","lat":43.288497,"lon":5.393089,"is_reserved":false,"is_disabled":false,"rental_uris":{"android":"levelo://app?vid=d0479f6b-7a39-4671-af03-85e3583902cf","ios":"levelo://app?vid=d0479f6b-7a39-4671-af03-85e3583902cf"},"vehicle_type_id":"4","last_reported":1706382362,"current_range_meters":4400,"station_id":"ce4bh2p2rcd13ifvqdi0","pricing_plan_id":"free"},{"bike_id":"b41bcd76-cb12-4b33-95cd-9444d1e23578","system_id":"levelo_inurba_marseille","lat":43.293556,"lon":5.401561,"is_reserved":false,"is_disabled":false,"rental_uris":{"android":"levelo://app?vid=b41bcd76-cb12-4b33-95cd-9444d1e23578","ios":"levelo://app?vid=b41bcd76-cb12-4b33-95cd-9444d1e23578"},"vehicle_type_id":"4","last_reported":1706382362,"current_range_meters":9200,"station_id":"","pricing_plan_id":"free"},{"bike_id":"9c44152c-7d5d-45bd-a809-4c5dec73d8e8","system_id":"levelo_inurba_marseille","lat":43.289363,"lon":5.396322,"is_reserved":false,"is_disabled":false,"rental_uris":{"android":"levelo://app?vid=9c44152c-7d5d-45bd-a809-4c5dec73d8e8","ios":"levelo://app?vid=9c44152c-7d5d-45bd-a809-4c5dec73d8e8"},"vehicle_type_id":"4","last_reported":1706382362,"current_range_meters":0,"station_id":"ce4bh3h2rcd13ifvqdn0","pricing_plan_id":"free"},{"bike_id":"0019cbed-ce46-4586-ae97-7b916bae0c90","system_id":"levelo_inurba_marseille","lat":43.283502,"lon":5.386471,"is_reserved":false,"is_disabled":false,"rental_uris":{"android":"levelo://app?vid=0019cbed-ce46-4586-ae97-7b916bae0c90","ios":"levelo://app?vid=0019cbed-ce46-4586-ae97-7b916bae0c90"},"vehicle_type_id":"4","last_reported":1706382362,"current_range_meters":1200,"station_id":"ce4bh492rcd13ifvqdvg","pricing_plan_id":"free"},{"bike_id":"19338089-c300-4419-ba4f-57af38fb07ad","system_id":"levelo_inurba_marseille","lat":43.283502,"lon":5.386471,"is_reserved":false,"is_disabled":false,"rental_uris":{"android":"levelo://app?vid=19338089-c300-4419-ba4f-57af38fb07ad","ios":"levelo://app?vid=19338089-c300-4419-ba4f-57af38fb07ad"},"vehicle_type_id":"4","last_reported":1706382362,"current_range_meters":7600,"station_id":"ce4bh492rcd13ifvqdvg","pricing_plan_id":"free"},{"bike_id":"666900cd-2b87-4edd-b3b3-13682ff0131a","system_id":"levelo_inurba_marseille","lat":43.281044,"lon":5.378308,"is_reserved":false,"is_disabled":false,"rental_uris":{"android":"levelo://app?vid=666900cd-2b87-4edd-b3b3-13682ff0131a","ios":"levelo://app?vid=666900cd-2b87-4edd-b3b3-13682ff0131a"},"vehicle_type_id":"4","last_reported":1706382362,"current_range_meters":8000,"station_id":"ce4bha12rcd13ifvqee0","pricing_plan_id":"free"},{"bike_id":"4f24a342-badd-46be-a9de-277ae3b0b0eb","system_id":"levelo_inurba_marseille","lat":43.296263,"lon":5.40601,"is_reserved":false,"is_disabled":false,"rental_uris":{"android":"levelo://app?vid=4f24a342-badd-46be-a9de-277ae3b0b0eb","ios":"levelo://app?vid=4f24a342-badd-46be-a9de-277ae3b0b0eb"},"vehicle_type_id":"4","last_reported":1706382362,"current_range_meters":13600,"station_id":"ce4bh0h2rcd13ifvqd60","pricing_plan_id":"free"},{"bike_id":"53e423de-ca58-4fbf-ae63-cd8ba650cff1","system_id":"levelo_inurba_marseille","lat":43.296263,"lon":5.40601,"is_reserved":false,"is_disabled":false,"rental_uris":{"android":"levelo://app?vid=53e423de-ca58-4fbf-ae63-cd8ba650cff1","ios":"levelo://app?vid=53e423de-ca58-4fbf-ae63-cd8ba650cff1"},"vehicle_type_id":"4","last_reported":1706382362,"current_range_meters":0,"station_id":"ce4bh0h2rcd13ifvqd60","pricing_plan_id":"free"},{"bike_id":"27f0713b-6745-465f-86df-8dbdb29fd0ff","system_id":"levelo_inurba_marseille","lat":43.281044,"lon":5.378308,"is_reserved":false,"is_disabled":false,"rental_uris":{"android":"levelo://app?vid=27f0713b-6745-465f-86df-8dbdb29fd0ff","ios":"levelo://app?vid=27f0713b-6745-465f-86df-8dbdb29fd0ff"},"vehicle_type_id":"4","last_reported":1706382362,"current_range_meters":0,"station_id":"ce4bha12rcd13ifvqee0","pricing_plan_id":"free"},{"bike_id":"30fa10b2-4c40-4f45-b55f-7d7fa5ac1ea4","system_id":"levelo_inurba_marseille","lat":43.284462,"lon":5.392121,"is_reserved":false,"is_disabled":false,"rental_uris":{"android":"levelo://app?vid=30fa10b2-4c40-4f45-b55f-7d7fa5ac1ea4","ios":"levelo://app?vid=30fa10b2-4c40-4f45-b55f-7d7fa5ac1ea4"},"vehicle_type_id":"4","last_reported":1706382362,"current_range_meters":4000,"station_id":"ce4bhoh2rcd13ifvqh5g","pricing_plan_id":"free"},{"bike_id":"cd1d3013-db26-4fb2-9471-d3acdfd03948","system_id":"levelo_inurba_marseille","lat":43.284462,"lon":5.392121,"is_reserved":false,"is_disabled":false,"rental_uris":{"android":"levelo://app?vid=cd1d3013-db26-4fb2-9471-d3acdfd03948","ios":"levelo://app?vid=cd1d3013-db26-4fb2-9471-d3acdfd03948"},"vehicle_type_id":"4","last_reported":1706382362,"current_range_meters":20000,"station_id":"ce4bhoh2rcd13ifvqh5g","pricing_plan_id":"free"},{"bike_id":"0b06d2eb-4b86-4521-b262-b5461273decc","system_id":"levelo_inurba_marseille","lat":43.284462,"lon":5.392121,"is_reserved":false,"is_disabled":false,"rental_uris":{"android":"levelo://app?vid=0b06d2eb-4b86-4521-b262-b5461273decc","ios":"levelo://app?vid=0b06d2eb-4b86-4521-b262-b5461273decc"},"vehicle_type_id":"4","last_reported":1706382362,"current_range_meters":8800,"station_id":"ce4bhoh2rcd13ifvqh5g","pricing_plan_id":"free"},{"bike_id":"72ef14e3-872a-4f25-8441-4570313aed12","system_id":"levelo_inurba_marseille","lat":43.28573,"lon":5.394992,"is_reserved":false,"is_disabled":false,"rental_uris":{"android":"levelo://app?vid=72ef14e3-872a-4f25-8441-4570313aed12","ios":"levelo://app?vid=72ef14e3-872a-4f25-8441-4570313aed12"},"vehicle_type_id":"4","last_reported":1706382362,"current_range_meters":12000,"station_id":"ce4bh292rcd13ifvqdg0","pricing_plan_id":"free"},{"bike_id":"7dff6dd5-5549-48c4-b16e-a2e7edc4cbde","system_id":"levelo_inurba_marseille","lat":43.285742,"lon":5.395004,"is_reserved":false,"is_disabled":false,"rental_uris":{"android":"levelo://app?vid=7dff6dd5-5549-48c4-b16e-a2e7edc4cbde","ios":"levelo://app?vid=7dff6dd5-5549-48c4-b16e-a2e7edc4cbde"},"vehicle_type_id":"4","last_reported":1706382362,"current_range_meters":3600,"station_id":"ce4bh292rcd13ifvqdg0","pricing_plan_id":"free"},{"bike_id":"367720ab-cdb0-4059-b7d4-6f3af57c1dca","system_id":"levelo_inurba_marseille","lat":43.285742,"lon":5.395004,"is_reserved":false,"is_disabled":false,"rental_uris":{"android":"levelo://app?vid=367720ab-cdb0-4059-b7d4-6f3af57c1dca","ios":"levelo://app?vid=367720ab-cdb0-4059-b7d4-6f3af57c1dca"},"vehicle_type_id":"4","last_reported":1706382362,"current_range_meters":18800,"station_id":"ce4bh292rcd13ifvqdg0","pricing_plan_id":"free"},{"bike_id":"046406e2-3124-4f65-a46c-e831ec439c33","system_id":"levelo_inurba_marseille","lat":43.326605,"lon":5.409903,"is_reserved":false,"is_disabled":false,"rental_uris":{"android":"levelo://app?vid=046406e2-3124-4f65-a46c-e831ec439c33","ios":"levelo://app?vid=046406e2-3124-4f65-a46c-e831ec439c33"},"vehicle_type_id":"4","last_reported":1706382362,"current_range_meters":10400,"station_id":"ce4bhpp2rcd13ifvqhgg","pricing_plan_id":"free"},{"bike_id":"7b2e6cc4-d84f-4dd1-98b9-fc9f8c3a9992","system_id":"levelo_inurba_marseille","lat":43.282862,"lon":5.391042,"is_reserved":false,"is_disabled":false,"rental_uris":{"android":"levelo://app?vid=7b2e6cc4-d84f-4dd1-98b9-fc9f8c3a9992","ios":"levelo://app?vid=7b2e6cc4-d84f-4dd1-98b9-fc9f8c3a9992"},"vehicle_type_id":"4","last_reported":1706382362,"current_range_meters":0,"station_id":"","pricing_plan_id":"free"},{"bike_id":"557c9b5d-463a-451a-bbed-5cb6ca10ca5c","system_id":"levelo_inurba_marseille","lat":43.323705,"lon":5.41251,"is_reserved":false,"is_disabled":false,"rental_uris":{"android":"levelo://app?vid=557c9b5d-463a-451a-bbed-5cb6ca10ca5c","ios":"levelo://app?vid=557c9b5d-463a-451a-bbed-5cb6ca10ca5c"},"vehicle_type_id":"4","last_reported":1706382362,"current_range_meters":7200,"station_id":"","pricing_plan_id":"free"},{"bike_id":"fa63cc35-a7eb-48f5-bad5-4b33b9521866","system_id":"levelo_inurba_marseille","lat":43.287154,"lon":5.399979,"is_reserved":false,"is_disabled":false,"rental_uris":{"android":"levelo://app?vid=fa63cc35-a7eb-48f5-bad5-4b33b9521866","ios":"levelo://app?vid=fa63cc35-a7eb-48f5-bad5-4b33b9521866"},"vehicle_type_id":"4","last_reported":1706382362,"current_range_meters":8000,"station_id":"ce4bho92rcd13ifvqh3g","pricing_plan_id":"free"},{"bike_id":"9114dfde-63c5-490b-8080-cb1c7a31fe39","system_id":"levelo_inurba_marseille","lat":43.279087,"lon":5.380114,"is_reserved":false,"is_disabled":false,"rental_uris":{"android":"levelo://app?vid=9114dfde-63c5-490b-8080-cb1c7a31fe39","ios":"levelo://app?vid=9114dfde-63c5-490b-8080-cb1c7a31fe39"},"vehicle_type_id":"4","last_reported":1706382362,"current_range_meters":0,"station_id":"ce4bhf92rcd13ifvqf50","pricing_plan_id":"free"},{"bike_id":"2973af37-eb47-4ea4-b919-cd38df4c8fdd","system_id":"levelo_inurba_marseille","lat":43.32037,"lon":5.41534,"is_reserved":false,"is_disabled":false,"rental_uris":{"android":"levelo://app?vid=2973af37-eb47-4ea4-b919-cd38df4c8fdd","ios":"levelo://app?vid=2973af37-eb47-4ea4-b919-cd38df4c8fdd"},"vehicle_type_id":"4","last_reported":1706382362,"current_range_meters":20000,"station_id":"ce4bhq92rcd13ifvqhkg","pricing_plan_id":"free"},{"bike_id":"4cfb52ab-16e2-4328-b836-ae64141dad00","system_id":"levelo_inurba_marseille","lat":43.320633,"lon":5.415268,"is_reserved":false,"is_disabled":false,"rental_uris":{"android":"levelo://app?vid=4cfb52ab-16e2-4328-b836-ae64141dad00","ios":"levelo://app?vid=4cfb52ab-16e2-4328-b836-ae64141dad00"},"vehicle_type_id":"4","last_reported":1706382362,"current_range_meters":17600,"station_id":"","pricing_plan_id":"free"},{"bike_id":"f83a3a7e-1d78-42cc-a2d9-6a1634b4b2ae","system_id":"levelo_inurba_marseille","lat":43.320593,"lon":5.415335,"is_reserved":false,"is_disabled":false,"rental_uris":{"android":"levelo://app?vid=f83a3a7e-1d78-42cc-a2d9-6a1634b4b2ae","ios":"levelo://app?vid=f83a3a7e-1d78-42cc-a2d9-6a1634b4b2ae"},"vehicle_type_id":"4","last_reported":1706382362,"current_range_meters":31200,"station_id":"ce4bhq92rcd13ifvqhkg","pricing_plan_id":"free"},{"bike_id":"09b6ee3e-51fd-4add-b1f5-fb3703f213ce","system_id":"levelo_inurba_marseille","lat":43.320441,"lon":5.415393,"is_reserved":false,"is_disabled":false,"rental_uris":{"android":"levelo://app?vid=09b6ee3e-51fd-4add-b1f5-fb3703f213ce","ios":"levelo://app?vid=09b6ee3e-51fd-4add-b1f5-fb3703f213ce"},"vehicle_type_id":"4","last_reported":1706382362,"current_range_meters":7600,"station_id":"ce4bhq92rcd13ifvqhkg","pricing_plan_id":"free"},{"bike_id":"8264332a-ffe2-4a60-a3c6-09f9b0d858c2","system_id":"levelo_inurba_marseille","lat":43.299579,"lon":5.413255,"is_reserved":false,"is_disabled":false,"rental_uris":{"android":"levelo://app?vid=8264332a-ffe2-4a60-a3c6-09f9b0d858c2","ios":"levelo://app?vid=8264332a-ffe2-4a60-a3c6-09f9b0d858c2"},"vehicle_type_id":"4","last_reported":1706382362,"current_range_meters":5600,"station_id":"ce4bhp12rcd13ifvqh9g","pricing_plan_id":"free"},{"bike_id":"ec389e75-8cea-4be6-8517-e15f0b47835c","system_id":"levelo_inurba_marseille","lat":43.320573,"lon":5.41545,"is_reserved":false,"is_disabled":false,"rental_uris":{"android":"levelo://app?vid=ec389e75-8cea-4be6-8517-e15f0b47835c","ios":"levelo://app?vid=ec389e75-8cea-4be6-8517-e15f0b47835c"},"vehicle_type_id":"4","last_reported":1706382362,"current_range_meters":24000,"station_id":"ce4bhq92rcd13ifvqhkg","pricing_plan_id":"free"},{"bike_id":"05c340a8-3fb3-4e64-814d-fbccf00ba644","system_id":"levelo_inurba_marseille","lat":43.279742,"lon":5.38744,"is_reserved":false,"is_disabled":false,"rental_uris":{"android":"levelo://app?vid=05c340a8-3fb3-4e64-814d-fbccf00ba644","ios":"levelo://app?vid=05c340a8-3fb3-4e64-814d-fbccf00ba644"},"vehicle_type_id":"4","last_reported":1706382362,"current_range_meters":1600,"station_id":"ce4bhg12rcd13ifvqf80","pricing_plan_id":"free"},{"bike_id":"4977dd65-369e-417b-9c52-fe977a945b82","system_id":"levelo_inurba_marseille","lat":43.320045,"lon":5.415048,"is_reserved":false,"is_disabled":false,"rental_uris":{"android":"levelo://app?vid=4977dd65-369e-417b-9c52-fe977a945b82","ios":"levelo://app?vid=4977dd65-369e-417b-9c52-fe977a945b82"},"vehicle_type_id":"4","last_reported":1706382362,"current_range_meters":28800,"station_id":"ce4bhq92rcd13ifvqhkg","pricing_plan_id":"free"},{"bike_id":"722e2165-0e62-4f14-9454-9500daf6ff60","system_id":"levelo_inurba_marseille","lat":43.3204,"lon":5.41555,"is_reserved":false,"is_disabled":false,"rental_uris":{"android":"levelo://app?vid=722e2165-0e62-4f14-9454-9500daf6ff60","ios":"levelo://app?vid=722e2165-0e62-4f14-9454-9500daf6ff60"},"vehicle_type_id":"4","last_reported":1706382362,"current_range_meters":3200,"station_id":"ce4bhq92rcd13ifvqhkg","pricing_plan_id":"free"},{"bike_id":"fcf5ad55-9d29-48f4-b96b-b5827880831a","system_id":"levelo_inurba_marseille","lat":43.32,"lon":5.41579,"is_reserved":false,"is_disabled":false,"rental_uris":{"android":"levelo://app?vid=fcf5ad55-9d29-48f4-b96b-b5827880831a","ios":"levelo://app?vid=fcf5ad55-9d29-48f4-b96b-b5827880831a"},"vehicle_type_id":"4","last_reported":1706382362,"current_range_meters":16800,"station_id":"ce4bhq92rcd13ifvqhkg","pricing_plan_id":"free"},{"bike_id":"6b79cd2d-57dd-4b32-b7ac-19fc7049ba84","system_id":"levelo_inurba_marseille","lat":43.280784,"lon":5.396622,"is_reserved":false,"is_disabled":false,"rental_uris":{"android":"levelo://app?vid=6b79cd2d-57dd-4b32-b7ac-19fc7049ba84","ios":"levelo://app?vid=6b79cd2d-57dd-4b32-b7ac-19fc7049ba84"},"vehicle_type_id":"4","last_reported":1706382362,"current_range_meters":8000,"station_id":"ce4bho12rcd13ifvqh2g","pricing_plan_id":"free"},{"bike_id":"9a417061-d415-48e8-9e5b-cd111674e5c4","system_id":"levelo_inurba_marseille","lat":43.280784,"lon":5.396622,"is_reserved":false,"is_disabled":false,"rental_uris":{"android":"levelo://app?vid=9a417061-d415-48e8-9e5b-cd111674e5c4","ios":"levelo://app?vid=9a417061-d415-48e8-9e5b-cd111674e5c4"},"vehicle_type_id":"4","last_reported":1706382362,"current_range_meters":19200,"station_id":"ce4bho12rcd13ifvqh2g","pricing_plan_id":"free"},{"bike_id":"427ab1a8-ef7b-40e6-9ef0-a21ee9a71fae","system_id":"levelo_inurba_marseille","lat":43.303837,"lon":5.418724,"is_reserved":false,"is_disabled":false,"rental_uris":{"android":"levelo://app?vid=427ab1a8-ef7b-40e6-9ef0-a21ee9a71fae","ios":"levelo://app?vid=427ab1a8-ef7b-40e6-9ef0-a21ee9a71fae"},"vehicle_type_id":"4","last_reported":1706382362,"current_range_meters":14800,"station_id":"ce4bhop2rcd13ifvqh7g","pricing_plan_id":"free"},{"bike_id":"138f96c0-585f-4e2a-bcae-5582b6515b65","system_id":"levelo_inurba_marseille","lat":43.303837,"lon":5.418724,"is_reserved":false,"is_disabled":false,"rental_uris":{"android":"levelo://app?vid=138f96c0-585f-4e2a-bcae-5582b6515b65","ios":"levelo://app?vid=138f96c0-585f-4e2a-bcae-5582b6515b65"},"vehicle_type_id":"4","last_reported":1706382362,"current_range_meters":9200,"station_id":"ce4bhop2rcd13ifvqh7g","pricing_plan_id":"free"},{"bike_id":"219e447c-b35e-46a8-81b5-85429626dfb5","system_id":"levelo_inurba_marseille","lat":43.27835,"lon":5.39196,"is_reserved":false,"is_disabled":false,"rental_uris":{"android":"levelo://app?vid=219e447c-b35e-46a8-81b5-85429626dfb5","ios":"levelo://app?vid=219e447c-b35e-46a8-81b5-85429626dfb5"},"vehicle_type_id":"4","last_reported":1706382362,"current_range_meters":0,"station_id":"ce4bhjp2rcd13ifvqga0","pricing_plan_id":"free"},{"bike_id":"0839d5b6-0fc1-4e96-908a-760ce3495fe5","system_id":"levelo_inurba_marseille","lat":43.278401,"lon":5.392152,"is_reserved":false,"is_disabled":false,"rental_uris":{"android":"levelo://app?vid=0839d5b6-0fc1-4e96-908a-760ce3495fe5","ios":"levelo://app?vid=0839d5b6-0fc1-4e96-908a-760ce3495fe5"},"vehicle_type_id":"4","last_reported":1706382362,"current_range_meters":22000,"station_id":"ce4bhjp2rcd13ifvqga0","pricing_plan_id":"free"},{"bike_id":"3a62dd08-4bc1-4a20-adc8-d422b968856e","system_id":"levelo_inurba_marseille","lat":43.2738,"lon":5.36255,"is_reserved":false,"is_disabled":false,"rental_uris":{"android":"levelo://app?vid=3a62dd08-4bc1-4a20-adc8-d422b968856e","ios":"levelo://app?vid=3a62dd08-4bc1-4a20-adc8-d422b968856e"},"vehicle_type_id":"4","last_reported":1706382362,"current_range_meters":0,"station_id":"ce4bhbh2rcd13ifvqeo0","pricing_plan_id":"free"},{"bike_id":"9db06695-fade-4e5d-be75-140d1a48b855","system_id":"levelo_inurba_marseille","lat":43.278399,"lon":5.392139,"is_reserved":false,"is_disabled":false,"rental_uris":{"android":"levelo://app?vid=9db06695-fade-4e5d-be75-140d1a48b855","ios":"levelo://app?vid=9db06695-fade-4e5d-be75-140d1a48b855"},"vehicle_type_id":"4","last_reported":1706382362,"current_range_meters":10000,"station_id":"ce4bhjp2rcd13ifvqga0","pricing_plan_id":"free"},{"bike_id":"e405ec28-3991-4d6e-be28-ded1ab199d77","system_id":"levelo_inurba_marseille","lat":43.27821,"lon":5.39213,"is_reserved":false,"is_disabled":false,"rental_uris":{"android":"levelo://app?vid=e405ec28-3991-4d6e-be28-ded1ab199d77","ios":"levelo://app?vid=e405ec28-3991-4d6e-be28-ded1ab199d77"},"vehicle_type_id":"4","last_reported":1706382362,"current_range_meters":0,"station_id":"ce4bhjp2rcd13ifvqga0","pricing_plan_id":"free"},{"bike_id":"45face67-2530-4566-b0d1-be2d562282f1","system_id":"levelo_inurba_marseille","lat":43.27999,"lon":5.40015,"is_reserved":false,"is_disabled":false,"rental_uris":{"android":"levelo://app?vid=45face67-2530-4566-b0d1-be2d562282f1","ios":"levelo://app?vid=45face67-2530-4566-b0d1-be2d562282f1"},"vehicle_type_id":"4","last_reported":1706382362,"current_range_meters":400,"station_id":"ce4bho92rcd13ifvqh4g","pricing_plan_id":"free"},{"bike_id":"24964f7f-9da0-4e30-98aa-04e960a72d7f","system_id":"levelo_inurba_marseille","lat":43.279975,"lon":5.40009,"is_reserved":false,"is_disabled":false,"rental_uris":{"android":"levelo://app?vid=24964f7f-9da0-4e30-98aa-04e960a72d7f","ios":"levelo://app?vid=24964f7f-9da0-4e30-98aa-04e960a72d7f"},"vehicle_type_id":"4","last_reported":1706382362,"current_range_meters":6400,"station_id":"ce4bho92rcd13ifvqh4g","pricing_plan_id":"free"},{"bike_id":"595c18ae-0394-434c-8143-a7dfd79bfdf3","system_id":"levelo_inurba_marseille","lat":43.28,"lon":5.40019,"is_reserved":false,"is_disabled":false,"rental_uris":{"android":"levelo://app?vid=595c18ae-0394-434c-8143-a7dfd79bfdf3","ios":"levelo://app?vid=595c18ae-0394-434c-8143-a7dfd79bfdf3"},"vehicle_type_id":"4","last_reported":1706382362,"current_range_meters":2000,"station_id":"ce4bho92rcd13ifvqh4g","pricing_plan_id":"free"},{"bike_id":"6f46a34b-d5d1-4592-8607-98eec5146735","system_id":"levelo_inurba_marseille","lat":43.28373,"lon":5.407079,"is_reserved":false,"is_disabled":false,"rental_uris":{"android":"levelo://app?vid=6f46a34b-d5d1-4592-8607-98eec5146735","ios":"levelo://app?vid=6f46a34b-d5d1-4592-8607-98eec5146735"},"vehicle_type_id":"4","last_reported":1706382362,"current_range_meters":6000,"station_id":"","pricing_plan_id":"free"},{"bike_id":"71d90591-5f7c-490f-af55-6817cf4e60cc","system_id":"levelo_inurba_marseille","lat":43.274987,"lon":5.389693,"is_reserved":false,"is_disabled":false,"rental_uris":{"android":"levelo://app?vid=71d90591-5f7c-490f-af55-6817cf4e60cc","ios":"levelo://app?vid=71d90591-5f7c-490f-af55-6817cf4e60cc"},"vehicle_type_id":"4","last_reported":1706382362,"current_range_meters":0,"station_id":"","pricing_plan_id":"free"},{"bike_id":"ee875769-e8b7-4caa-b3b8-2dad519b3fb1","system_id":"levelo_inurba_marseille","lat":43.31083,"lon":5.42435,"is_reserved":false,"is_disabled":false,"rental_uris":{"android":"levelo://app?vid=ee875769-e8b7-4caa-b3b8-2dad519b3fb1","ios":"levelo://app?vid=ee875769-e8b7-4caa-b3b8-2dad519b3fb1"},"vehicle_type_id":"4","last_reported":1706382362,"current_range_meters":17600,"station_id":"ce4bhp92rcd13ifvqhag","pricing_plan_id":"free"},{"bike_id":"76a1444e-7429-4c72-9ae5-313749a04157","system_id":"levelo_inurba_marseille","lat":43.310804,"lon":5.424354,"is_reserved":false,"is_disabled":false,"rental_uris":{"android":"levelo://app?vid=76a1444e-7429-4c72-9ae5-313749a04157","ios":"levelo://app?vid=76a1444e-7429-4c72-9ae5-313749a04157"},"vehicle_type_id":"4","last_reported":1706382362,"current_range_meters":17200,"station_id":"ce4bhp92rcd13ifvqhag","pricing_plan_id":"free"},{"bike_id":"d5481f7f-462b-4f75-8bb6-e63937c7aded","system_id":"levelo_inurba_marseille","lat":43.340804,"lon":5.410219,"is_reserved":false,"is_disabled":false,"rental_uris":{"android":"levelo://app?vid=d5481f7f-462b-4f75-8bb6-e63937c7aded","ios":"levelo://app?vid=d5481f7f-462b-4f75-8bb6-e63937c7aded"},"vehicle_type_id":"4","last_reported":1706382362,"current_range_meters":0,"station_id":"ce4bhqh2rcd13ifvqhlg","pricing_plan_id":"free"},{"bike_id":"c01a1d46-22b3-4c3b-93f8-10892a23f367","system_id":"levelo_inurba_marseille","lat":43.273125,"lon":5.390731,"is_reserved":false,"is_disabled":false,"rental_uris":{"android":"levelo://app?vid=c01a1d46-22b3-4c3b-93f8-10892a23f367","ios":"levelo://app?vid=c01a1d46-22b3-4c3b-93f8-10892a23f367"},"vehicle_type_id":"4","last_reported":1706382362,"current_range_meters":12000,"station_id":"ce4bhgp2rcd13ifvqfe0","pricing_plan_id":"free"},{"bike_id":"4a5e1778-6c19-4f5d-9c57-1078183dda8a","system_id":"levelo_inurba_marseille","lat":43.274099,"lon":5.394019,"is_reserved":false,"is_disabled":false,"rental_uris":{"android":"levelo://app?vid=4a5e1778-6c19-4f5d-9c57-1078183dda8a","ios":"levelo://app?vid=4a5e1778-6c19-4f5d-9c57-1078183dda8a"},"vehicle_type_id":"4","last_reported":1706382362,"current_range_meters":22800,"station_id":"ce4bhdp2rcd13ifvqf20","pricing_plan_id":"free"},{"bike_id":"33331074-391b-40fa-8e0f-8abeee32e80a","system_id":"levelo_inurba_marseille","lat":43.27435,"lon":5.39409,"is_reserved":false,"is_disabled":false,"rental_uris":{"android":"levelo://app?vid=33331074-391b-40fa-8e0f-8abeee32e80a","ios":"levelo://app?vid=33331074-391b-40fa-8e0f-8abeee32e80a"},"vehicle_type_id":"4","last_reported":1706382362,"current_range_meters":0,"station_id":"ce4bhdp2rcd13ifvqf20","pricing_plan_id":"free"},{"bike_id":"b934a97a-a264-4605-88b8-50a421326973","system_id":"levelo_inurba_marseille","lat":43.274103,"lon":5.394016,"is_reserved":false,"is_disabled":false,"rental_uris":{"android":"levelo://app?vid=b934a97a-a264-4605-88b8-50a421326973","ios":"levelo://app?vid=b934a97a-a264-4605-88b8-50a421326973"},"vehicle_type_id":"4","last_reported":1706382362,"current_range_meters":16000,"station_id":"ce4bhdp2rcd13ifvqf20","pricing_plan_id":"free"},{"bike_id":"b5e52bf3-7a58-4f29-9adc-4051a0ac6e17","system_id":"levelo_inurba_marseille","lat":43.27432,"lon":5.394213,"is_reserved":false,"is_disabled":false,"rental_uris":{"android":"levelo://app?vid=b5e52bf3-7a58-4f29-9adc-4051a0ac6e17","ios":"levelo://app?vid=b5e52bf3-7a58-4f29-9adc-4051a0ac6e17"},"vehicle_type_id":"4","last_reported":1706382362,"current_range_meters":16400,"station_id":"ce4bhdp2rcd13ifvqf20","pricing_plan_id":"free"},{"bike_id":"a67c6a79-5332-45d9-a975-3811e33f2a1f","system_id":"levelo_inurba_marseille","lat":43.273125,"lon":5.390731,"is_reserved":false,"is_disabled":false,"rental_uris":{"android":"levelo://app?vid=a67c6a79-5332-45d9-a975-3811e33f2a1f","ios":"levelo://app?vid=a67c6a79-5332-45d9-a975-3811e33f2a1f"},"vehicle_type_id":"4","last_reported":1706382362,"current_range_meters":1200,"station_id":"ce4bhgp2rcd13ifvqfe0","pricing_plan_id":"free"},{"bike_id":"4b003eeb-c1a0-4da1-b155-3258c2ddbeef","system_id":"levelo_inurba_marseille","lat":43.273125,"lon":5.390731,"is_reserved":false,"is_disabled":false,"rental_uris":{"android":"levelo://app?vid=4b003eeb-c1a0-4da1-b155-3258c2ddbeef","ios":"levelo://app?vid=4b003eeb-c1a0-4da1-b155-3258c2ddbeef"},"vehicle_type_id":"4","last_reported":1706382362,"current_range_meters":0,"station_id":"ce4bhgp2rcd13ifvqfe0","pricing_plan_id":"free"},{"bike_id":"79aba3fd-e7b6-41fe-974b-a11d6cc1ed17","system_id":"levelo_inurba_marseille","lat":43.295203,"lon":5.422662,"is_reserved":false,"is_disabled":false,"rental_uris":{"android":"levelo://app?vid=79aba3fd-e7b6-41fe-974b-a11d6cc1ed17","ios":"levelo://app?vid=79aba3fd-e7b6-41fe-974b-a11d6cc1ed17"},"vehicle_type_id":"4","last_reported":1706382362,"current_range_meters":20800,"station_id":"ce4bhph2rcd13ifvqhdg","pricing_plan_id":"free"},{"bike_id":"05da7b09-5f85-44cb-b065-fd038c18b6ad","system_id":"levelo_inurba_marseille","lat":43.295523,"lon":5.422926,"is_reserved":false,"is_disabled":false,"rental_uris":{"android":"levelo://app?vid=05da7b09-5f85-44cb-b065-fd038c18b6ad","ios":"levelo://app?vid=05da7b09-5f85-44cb-b065-fd038c18b6ad"},"vehicle_type_id":"4","last_reported":1706382362,"current_range_meters":19200,"station_id":"ce4bhph2rcd13ifvqhdg","pricing_plan_id":"free"},{"bike_id":"8c63f70d-c815-4fe9-8862-39d6e9885f77","system_id":"levelo_inurba_marseille","lat":43.27209,"lon":5.39178,"is_reserved":false,"is_disabled":false,"rental_uris":{"android":"levelo://app?vid=8c63f70d-c815-4fe9-8862-39d6e9885f77","ios":"levelo://app?vid=8c63f70d-c815-4fe9-8862-39d6e9885f77"},"vehicle_type_id":"4","last_reported":1706382362,"current_range_meters":400,"station_id":"ce4bhhp2rcd13ifvqfm0","pricing_plan_id":"free"},{"bike_id":"928afb8e-cc1d-4a4d-a860-b284c663d6ce","system_id":"levelo_inurba_marseille","lat":43.27205,"lon":5.39192,"is_reserved":false,"is_disabled":false,"rental_uris":{"android":"levelo://app?vid=928afb8e-cc1d-4a4d-a860-b284c663d6ce","ios":"levelo://app?vid=928afb8e-cc1d-4a4d-a860-b284c663d6ce"},"vehicle_type_id":"4","last_reported":1706382362,"current_range_meters":400,"station_id":"ce4bhhp2rcd13ifvqfm0","pricing_plan_id":"free"},{"bike_id":"554f7bae-e8c8-4e29-9fc0-bf46ba8ae16e","system_id":"levelo_inurba_marseille","lat":43.27202,"lon":5.39185,"is_reserved":false,"is_disabled":false,"rental_uris":{"android":"levelo://app?vid=554f7bae-e8c8-4e29-9fc0-bf46ba8ae16e","ios":"levelo://app?vid=554f7bae-e8c8-4e29-9fc0-bf46ba8ae16e"},"vehicle_type_id":"4","last_reported":1706382362,"current_range_meters":8000,"station_id":"ce4bhhp2rcd13ifvqfm0","pricing_plan_id":"free"},{"bike_id":"ce8546be-7ea0-4f38-904b-567ba5b62295","system_id":"levelo_inurba_marseille","lat":43.27205,"lon":5.392,"is_reserved":false,"is_disabled":false,"rental_uris":{"android":"levelo://app?vid=ce8546be-7ea0-4f38-904b-567ba5b62295","ios":"levelo://app?vid=ce8546be-7ea0-4f38-904b-567ba5b62295"},"vehicle_type_id":"4","last_reported":1706382362,"current_range_meters":0,"station_id":"ce4bhhp2rcd13ifvqfm0","pricing_plan_id":"free"},{"bike_id":"9263ea7e-7f4b-4fbf-8ac1-c0bceb416a31","system_id":"levelo_inurba_marseille","lat":43.269467,"lon":5.386439,"is_reserved":false,"is_disabled":false,"rental_uris":{"android":"levelo://app?vid=9263ea7e-7f4b-4fbf-8ac1-c0bceb416a31","ios":"levelo://app?vid=9263ea7e-7f4b-4fbf-8ac1-c0bceb416a31"},"vehicle_type_id":"4","last_reported":1706382362,"current_range_meters":0,"station_id":"ce4bhh92rcd13ifvqfh0","pricing_plan_id":"free"},{"bike_id":"30960197-f73f-476d-bb41-35ff6f03ade0","system_id":"levelo_inurba_marseille","lat":43.269486,"lon":5.386422,"is_reserved":false,"is_disabled":false,"rental_uris":{"android":"levelo://app?vid=30960197-f73f-476d-bb41-35ff6f03ade0","ios":"levelo://app?vid=30960197-f73f-476d-bb41-35ff6f03ade0"},"vehicle_type_id":"4","last_reported":1706382362,"current_range_meters":0,"station_id":"ce4bhh92rcd13ifvqfh0","pricing_plan_id":"free"},{"bike_id":"0f11d406-7590-44e0-bd8d-cb92808bfe07","system_id":"levelo_inurba_marseille","lat":43.279465,"lon":5.410561,"is_reserved":false,"is_disabled":false,"rental_uris":{"android":"levelo://app?vid=0f11d406-7590-44e0-bd8d-cb92808bfe07","ios":"levelo://app?vid=0f11d406-7590-44e0-bd8d-cb92808bfe07"},"vehicle_type_id":"4","last_reported":1706382362,"current_range_meters":14800,"station_id":"ce4bhnp2rcd13ifvqh0g","pricing_plan_id":"free"},{"bike_id":"32b64e15-81eb-4ca1-83e9-19d1902cdf45","system_id":"levelo_inurba_marseille","lat":43.279465,"lon":5.410561,"is_reserved":false,"is_disabled":false,"rental_uris":{"android":"levelo://app?vid=32b64e15-81eb-4ca1-83e9-19d1902cdf45","ios":"levelo://app?vid=32b64e15-81eb-4ca1-83e9-19d1902cdf45"},"vehicle_type_id":"4","last_reported":1706382362,"current_range_meters":6000,"station_id":"ce4bhnp2rcd13ifvqh0g","pricing_plan_id":"free"},{"bike_id":"b0782314-3536-4e91-bad0-41ed9d871198","system_id":"levelo_inurba_marseille","lat":43.279465,"lon":5.410561,"is_reserved":false,"is_disabled":false,"rental_uris":{"android":"levelo://app?vid=b0782314-3536-4e91-bad0-41ed9d871198","ios":"levelo://app?vid=b0782314-3536-4e91-bad0-41ed9d871198"},"vehicle_type_id":"4","last_reported":1706382362,"current_range_meters":21600,"station_id":"ce4bhnp2rcd13ifvqh0g","pricing_plan_id":"free"},{"bike_id":"30a27a06-0774-4cb9-9899-b8ab3790ab52","system_id":"levelo_inurba_marseille","lat":43.279465,"lon":5.410561,"is_reserved":false,"is_disabled":false,"rental_uris":{"android":"levelo://app?vid=30a27a06-0774-4cb9-9899-b8ab3790ab52","ios":"levelo://app?vid=30a27a06-0774-4cb9-9899-b8ab3790ab52"},"vehicle_type_id":"4","last_reported":1706382362,"current_range_meters":18000,"station_id":"ce4bhnp2rcd13ifvqh0g","pricing_plan_id":"free"},{"bike_id":"fd053e09-c57d-47a0-b849-534f5f62c7de","system_id":"levelo_inurba_marseille","lat":43.269319,"lon":5.389397,"is_reserved":false,"is_disabled":false,"rental_uris":{"android":"levelo://app?vid=fd053e09-c57d-47a0-b849-534f5f62c7de","ios":"levelo://app?vid=fd053e09-c57d-47a0-b849-534f5f62c7de"},"vehicle_type_id":"4","last_reported":1706382362,"current_range_meters":13600,"station_id":"ce4bhhh2rcd13ifvqfl0","pricing_plan_id":"free"},