{"last_updated":1751710213,"ttl":60,"version":"2.2","data":{"bikes":[{"bike_id":"3da29fb8-fc97-44c6-b9ac-31dd456b2fd4","system_id":"levelo_inurba_marseille","lat":43.33771,"lon":5.37424,"is_reserved":false,"is_disabled":true,"rental_uris":{"android":"levelo://app?vid=3da29fb8-fc97-44c6-b9ac-31dd456b2fd4","ios":"levelo://app?vid=3da29fb8-fc97-44c6-b9ac-31dd456b2fd4"},"vehicle_type_id":"4","last_reported":1751710213,"current_range_meters":0,"station_id":"","pricing_plan_id":"cebpf4jnsgd1na2vs0mg"},{"bike_id":"01861ad8-a8d7-4be6-816e-651927c87584","system_id":"levelo_inurba_marseille","lat":43.33751,"lon":5.37456,"is_reserved":false,"is_disabled":true,"rental_uris":{"android":"levelo://app?vid=01861ad8-a8d7-4be6-816e-651927c87584","ios":"levelo://app?vid=01861ad8-a8d7-4be6-816e-651927c87584"},"vehicle_type_id":"4","last_reported":1751710213,"current_range_meters":0,"station_id":"","pricing_plan_id":"cebpf4jnsgd1na2vs0mg"},{"bike_id":"c8885025-0b30-48c0-846f-ea87c2948681","system_id":"levelo_inurba_marseille","lat":43.301503,"lon":5.377393,"is_reserved":false,"is_disabled":true,"rental_uris":{"android":"levelo://app?vid=c8885025-0b30-48c0-846f-ea87c2948681","ios":"levelo://app?vid=c8885025-0b30-48c0-846f-ea87c2948681"},"vehicle_type_id":"4","last_reported":1751710213,"current_range_meters":0,"station_id":"","pricing_plan_id":"cebpf4jnsgd1na2vs0mg"},{"bike_id":"595123d4-015b-4057-9288-aaa46828e2cb","system_id":"levelo_inurba_marseille","lat":43.297974,"lon":5.381058,"is_reserved":false,"is_disabled":false,"rental_uris":{"android":"levelo://app?vid=595123d4-015b-4057-9288-aaa46828e2cb","ios":"levelo://app?vid=595123d4-015b-4057-9288-aaa46828e2cb"},"vehicle_type_id":"4","last_reported":1751710213,"current_range_meters":0,"station_id":"ce4bgip2rcd13ifvqbb0","pricing_plan_id":"cebpf4jnsgd1na2vs0mg"},{"bike_id":"c9c1daf4-a7c2-403a-9448-2d7f40669937","system_id":"levelo_inurba_marseille","lat":43.313658,"lon":5.384954,"is_reserved":false,"is_disabled":true,"rental_uris":{"android":"levelo://app?vid=c9c1daf4-a7c2-403a-9448-2d7f40669937","ios":"levelo://app?vid=c9c1daf4-a7c2-403a-9448-2d7f40669937"},"vehicle_type_id":"4","last_reported":1751710213,"current_range_meters":0,"station_id":"ce4bgt92rcd13ifvqcf0","pricing_plan_id":"cebpf4jnsgd1na2vs0mg"},{"bike_id":"7b59b02f-d11f-4605-98d5-ae20c43c1982","system_id":"levelo_inurba_marseille","lat":43.241713,"lon":5.364399,"is_reserved":false,"is_disabled":true,"rental_uris":{"android":"levelo://app?vid=7b59b02f-d11f-4605-98d5-ae20c43c1982","ios":"levelo://app?vid=7b59b02f-d11f-4605-98d5-ae20c43c1982"},"vehicle_type_id":"4","last_reported":1751710213,"current_range_meters":0,"station_id":"ce4bhbh2rcd13ifvqeqg","pricing_plan_id":"cebpf4jnsgd1na2vs0mg"},{"bike_id":"ebff9f12-af22-4e62-911a-30f3ac94172a","system_id":"levelo_inurba_marseille","lat":43.28271,"lon":5.35058,"is_reserved":false,"is_disabled":true,"rental_uris":{"android":"levelo://app?vid=ebff9f12-af22-4e62-911a-30f3ac94172a","ios":"levelo://app?vid=ebff9f12-af22-4e62-911a-30f3ac94172a"},"vehicle_type_id":"4","last_reported":1751710213,"current_range_meters":0,"station_id":"ce4bhbp2rcd13ifvqerg","pricing_plan_id":"cebpf4jnsgd1na2vs0mg"},{"bike_id":"1e8d53c2-64dd-458d-ae13-56136bcc9b16","system_id":"levelo_inurba_marseille","lat":43.21757,"lon":5.34624,"is_reserved":false,"is_disabled":true,"rental_uris":{"android":"levelo://app?vid=1e8d53c2-64dd-458d-ae13-56136bcc9b16","ios":"levelo://app?vid=1e8d53c2-64dd-458d-ae13-56136bcc9b16"},"vehicle_type_id":"4","last_reported":1751710213,"current_range_meters":0,"station_id":"st_cvj6r9ubvosntc0bgbag","pricing_plan_id":"cebpf4jnsgd1na2vs0mg"},{"bike_id":"fb7eaa34-3090-467a-bc3a-a4c2c7cd510d","system_id":"levelo_inurba_marseille","lat":43.217495,"lon":5.346036,"is_reserved":false,"is_disabled":true,"rental_uris":{"android":"levelo://app?vid=fb7eaa34-3090-467a-bc3a-a4c2c7cd510d","ios":"levelo://app?vid=fb7eaa34-3090-467a-bc3a-a4c2c7cd510d"},"vehicle_type_id":"4","last_reported":1751710213,"current_range_meters":0,"station_id":"st_cvj6r9ubvosntc0bgbag","pricing_plan_id":"cebpf4jnsgd1na2vs0mg"},{"bike_id":"5e8830ec-34e5-4f0f-b607-434b2954d153","system_id":"levelo_inurba_marseille","lat":43.211913,"lon":5.350726,"is_reserved":false,"is_disabled":true,"rental_uris":{"android":"levelo://app?vid=5e8830ec-34e5-4f0f-b607-434b2954d153","ios":"levelo://app?vid=5e8830ec-34e5-4f0f-b607-434b2954d153"},"vehicle_type_id":"4","last_reported":1751710213,"current_range_meters":0,"station_id":"st_cvj6sg6p6f1abm77japg","pricing_plan_id":"cebpf4jnsgd1na2vs0mg"},{"bike_id":"cd2a3af2-854b-4519-92e5-1eaf70ba8a37","system_id":"levelo_inurba_marseille","lat":43.21191,"lon":5.35073,"is_reserved":false,"is_disabled":true,"rental_uris":{"android":"levelo://app?vid=cd2a3af2-854b-4519-92e5-1eaf70ba8a37","ios":"levelo://app?vid=cd2a3af2-854b-4519-92e5-1eaf70ba8a37"},"vehicle_type_id":"4","last_reported":1751710213,"current_range_meters":400,"station_id":"st_cvj6sg6p6f1abm77japg","pricing_plan_id":"cebpf4jnsgd1na2vs0mg"},{"bike_id":"44178d63-6886-4aed-be57-eb71abe0da3d","system_id":"levelo_inurba_marseille","lat":43.29702,"lon":5.37305,"is_reserved":false,"is_disabled":true,"rental_uris":{"android":"levelo://app?vid=44178d63-6886-4aed-be57-eb71abe0da3d","ios":"levelo://app?vid=44178d63-6886-4aed-be57-eb71abe0da3d"},"vehicle_type_id":"4","last_reported":1751710213,"current_range_meters":800,"station_id":"ce4bgk12rcd13ifvqbj0","pricing_plan_id":"cebpf4jnsgd1na2vs0mg"},{"bike_id":"030833f6-f365-4b0a-ab3c-50584a2e4a9a","system_id":"levelo_inurba_marseille","lat":43.31078,"lon":5.38378,"is_reserved":false,"is_disabled":true,"rental_uris":{"android":"levelo://app?vid=030833f6-f365-4b0a-ab3c-50584a2e4a9a","ios":"levelo://app?vid=030833f6-f365-4b0a-ab3c-50584a2e4a9a"},"vehicle_type_id":"4","last_reported":1751710213,"current_range_meters":800,"station_id":"ce4bgv92rcd13ifvqcr0","pricing_plan_id":"cebpf4jnsgd1na2vs0mg"},{"bike_id":"8afa7640-ebe8-4025-983a-c83f3912a2dd","system_id":"levelo_inurba_marseille","lat":43.21207,"lon":5.35067,"is_reserved":false,"is_disabled":true,"rental_uris":{"android":"levelo://app?vid=8afa7640-ebe8-4025-983a-c83f3912a2dd","ios":"levelo://app?vid=8afa7640-ebe8-4025-983a-c83f3912a2dd"},"vehicle_type_id":"4","last_reported":1751710213,"current_range_meters":800,"station_id":"st_cvj6sg6p6f1abm77japg","pricing_plan_id":"cebpf4jnsgd1na2vs0mg"},{"bike_id":"2fbd07fa-3a32-4a5f-b157-79199010b8a7","system_id":"levelo_inurba_marseille","lat":43.24808,"lon":5.37453,"is_reserved":false,"is_disabled":true,"rental_uris":{"android":"levelo://app?vid=2fbd07fa-3a32-4a5f-b157-79199010b8a7","ios":"levelo://app?vid=2fbd07fa-3a32-4a5f-b157-79199010b8a7"},"vehicle_type_id":"4","last_reported":1751710213,"current_range_meters":1200,"station_id":"ce4bhgh2rcd13ifvqfb0","pricing_plan_id":"cebpf4jnsgd1na2vs0mg"},{"bike_id":"e26ba497-efc7-4420-b8c5-9fa5e27f2ce4","system_id":"levelo_inurba_marseille","lat":43.31346,"lon":5.3707,"is_reserved":false,"is_disabled":true,"rental_uris":{"android":"levelo://app?vid=e26ba497-efc7-4420-b8c5-9fa5e27f2ce4","ios":"levelo://app?vid=e26ba497-efc7-4420-b8c5-9fa5e27f2ce4"},"vehicle_type_id":"4","last_reported":1751710213,"current_range_meters":2000,"station_id":"","pricing_plan_id":"cebpf4jnsgd1na2vs0mg"},{"bike_id":"aef5dba8-dff6-417f-b93a-471c87a4986f","system_id":"levelo_inurba_marseille","lat":43.31277,"lon":5.40167,"is_reserved":false,"is_disabled":true,"rental_uris":{"android":"levelo://app?vid=aef5dba8-dff6-417f-b93a-471c87a4986f","ios":"levelo://app?vid=aef5dba8-dff6-417f-b93a-471c87a4986f"},"vehicle_type_id":"4","last_reported":1751710213,"current_range_meters":2000,"station_id":"ce4bh092rcd13ifvqd30","pricing_plan_id":"cebpf4jnsgd1na2vs0mg"},{"bike_id":"c53d88b1-f239-471d-8351-14b701eaf217","system_id":"levelo_inurba_marseille","lat":43.30806,"lon":5.43522,"is_reserved":false,"is_disabled":false,"rental_uris":{"android":"levelo://app?vid=c53d88b1-f239-471d-8351-14b701eaf217","ios":"levelo://app?vid=c53d88b1-f239-471d-8351-14b701eaf217"},"vehicle_type_id":"4","last_reported":1751710213,"current_range_meters":2800,"station_id":"ce4bhph2rcd13ifvqheg","pricing_plan_id":"cebpf4jnsgd1na2vs0mg"},{"bike_id":"d52317ec-9d8e-4e5d-a5ef-563eb0952a26","system_id":"levelo_inurba_marseille","lat":43.3176,"lon":5.39035,"is_reserved":false,"is_disabled":false,"rental_uris":{"android":"levelo://app?vid=d52317ec-9d8e-4e5d-a5ef-563eb0952a26","ios":"levelo://app?vid=d52317ec-9d8e-4e5d-a5ef-563eb0952a26"},"vehicle_type_id":"4","last_reported":1751710213,"current_range_meters":2800,"station_id":"ce4bhqp2rcd13ifvqhng","pricing_plan_id":"cebpf4jnsgd1na2vs0mg"},{"bike_id":"9bfc7d3d-4e60-4f8a-9c32-ef3d0e77ec5b","system_id":"levelo_inurba_marseille","lat":43.21193,"lon":5.35073,"is_reserved":false,"is_disabled":false,"rental_uris":{"android":"levelo://app?vid=9bfc7d3d-4e60-4f8a-9c32-ef3d0e77ec5b","ios":"levelo://app?vid=9bfc7d3d-4e60-4f8a-9c32-ef3d0e77ec5b"},"vehicle_type_id":"4","last_reported":1751710213,"current_range_meters":3200,"station_id":"st_cvj6sg6p6f1abm77japg","pricing_plan_id":"cebpf4jnsgd1na2vs0mg"},{"bike_id":"e9f93152-c103-42e7-8290-70a0dd64d0c1","system_id":"levelo_inurba_marseille","lat":43.24811,"lon":5.37457,"is_reserved":false,"is_disabled":false,"rental_uris":{"android":"levelo://app?vid=e9f93152-c103-42e7-8290-70a0dd64d0c1","ios":"levelo://app?vid=e9f93152-c103-42e7-8290-70a0dd64d0c1"},"vehicle_type_id":"4","last_reported":1751710213,"current_range_meters":3600,"station_id":"","pricing_plan_id":"cebpf4jnsgd1na2vs0mg"},{"bike_id":"f6b09216-3f78-4c6d-ad55-f19b248d42c9","system_id":"levelo_inurba_marseille","lat":43.24389,"lon":5.37058,"is_reserved":false,"is_disabled":false,"rental_uris":{"android":"levelo://app?vid=f6b09216-3f78-4c6d-ad55-f19b248d42c9","ios":"levelo://app?vid=f6b09216-3f78-4c6d-ad55-f19b248d42c9"},"vehicle_type_id":"4","last_reported":1751710213,"current_range_meters":3600,"station_id":"ce4bhhh2rcd13ifvqfk0","pricing_plan_id":"cebpf4jnsgd1na2vs0mg"},{"bike_id":"e6e3ebe5-5d8f-437c-8f99-f6bd243ac5b2","system_id":"levelo_inurba_marseille","lat":43.30472,"lon":5.36973,"is_reserved":false,"is_disabled":false,"rental_uris":{"android":"levelo://app?vid=e6e3ebe5-5d8f-437c-8f99-f6bd243ac5b2","ios":"levelo://app?vid=e6e3ebe5-5d8f-437c-8f99-f6bd243ac5b2"},"vehicle_type_id":"4","last_reported":1751710213,"current_range_meters":4000,"station_id":"","pricing_plan_id":"cebpf4jnsgd1na2vs0mg"},{"bike_id":"be4e2ba2-f83c-4be6-923a-932d435bb5ce","system_id":"levelo_inurba_marseille","lat":43.28228,"lon":5.40474,"is_reserved":false,"is_disabled":false,"rental_uris":{"android":"levelo://app?vid=be4e2ba2-f83c-4be6-923a-932d435bb5ce","ios":"levelo://app?vid=be4e2ba2-f83c-4be6-923a-932d435bb5ce"},"vehicle_type_id":"4","last_reported":1751710213,"current_range_meters":4000,"station_id":"","pricing_plan_id":"cebpf4jnsgd1na2vs0mg"},{"bike_id":"80335fc8-36c8-4c76-b240-2c0da993dff0","system_id":"levelo_inurba_marseille","lat":43.3171,"lon":5.4047,"is_reserved":false,"is_disabled":false,"rental_uris":{"android":"levelo://app?vid=80335fc8-36c8-4c76-b240-2c0da993dff0","ios":"levelo://app?vid=80335fc8-36c8-4c76-b240-2c0da993dff0"},"vehicle_type_id":"4","last_reported":1751710213,"current_range_meters":4000,"station_id":"ce4bh012rcd13ifvqd00","pricing_plan_id":"cebpf4jnsgd1na2vs0mg"},{"bike_id":"cec0ac47-c9ec-4d10-8543-c9a964463c88","system_id":"levelo_inurba_marseille","lat":43.30545,"lon":5.38413,"is_reserved":false,"is_disabled":false,"rental_uris":{"android":"levelo://app?vid=cec0ac47-c9ec-4d10-8543-c9a964463c88","ios":"levelo://app?vid=cec0ac47-c9ec-4d10-8543-c9a964463c88"},"vehicle_type_id":"4","last_reported":1751710213,"current_range_meters":4800,"station_id":"ce4bgg92rcd13ifvqb30","pricing_plan_id":"cebpf4jnsgd1na2vs0mg"},{"bike_id":"f8f0898a-ee56-4ab4-82e9-b9e552d09e2f","system_id":"levelo_inurba_marseille","lat":43.30143,"lon":5.38078,"is_reserved":false,"is_disabled":false,"rental_uris":{"android":"levelo://app?vid=f8f0898a-ee56-4ab4-82e9-b9e552d09e2f","ios":"levelo://app?vid=f8f0898a-ee56-4ab4-82e9-b9e552d09e2f"},"vehicle_type_id":"4","last_reported":1751710213,"current_range_meters":4800,"station_id":"ce4bgjp2rcd13ifvqbh0","pricing_plan_id":"cebpf4jnsgd1na2vs0mg"},{"bike_id":"c0e7dded-90c7-4970-a85f-32c974470704","system_id":"levelo_inurba_marseille","lat":43.24393,"lon":5.37061,"is_reserved":false,"is_disabled":false,"rental_uris":{"android":"levelo://app?vid=c0e7dded-90c7-4970-a85f-32c974470704","ios":"levelo://app?vid=c0e7dded-90c7-4970-a85f-32c974470704"},"vehicle_type_id":"4","last_reported":1751710213,"current_range_meters":4800,"station_id":"ce4bhhh2rcd13ifvqfk0","pricing_plan_id":"cebpf4jnsgd1na2vs0mg"},{"bike_id":"6c2a6d04-4b0d-45c2-99de-4707245db9b8","system_id":"levelo_inurba_marseille","lat":43.31882,"lon":5.40752,"is_reserved":false,"is_disabled":false,"rental_uris":{"android":"levelo://app?vid=6c2a6d04-4b0d-45c2-99de-4707245db9b8","ios":"levelo://app?vid=6c2a6d04-4b0d-45c2-99de-4707245db9b8"},"vehicle_type_id":"4","last_reported":1751710213,"current_range_meters":4800,"station_id":"ce4bhq12rcd13ifvqhig","pricing_plan_id":"cebpf4jnsgd1na2vs0mg"},{"bike_id":"0572482c-9833-492b-a7ad-ee8460cff837","system_id":"levelo_inurba_marseille","lat":43.30184,"lon":5.36619,"is_reserved":false,"is_disabled":false,"rental_uris":{"android":"levelo://app?vid=0572482c-9833-492b-a7ad-ee8460cff837","ios":"levelo://app?vid=0572482c-9833-492b-a7ad-ee8460cff837"},"vehicle_type_id":"4","last_reported":1751710213,"current_range_meters":5600,"station_id":"ce4bgrh2rcd13ifvqc8g","pricing_plan_id":"cebpf4jnsgd1na2vs0mg"},{"bike_id":"a57434b9-cc81-4f0b-ba91-1feeb211115e","system_id":"levelo_inurba_marseille","lat":43.30545,"lon":5.36556,"is_reserved":false,"is_disabled":false,"rental_uris":{"android":"levelo://app?vid=a57434b9-cc81-4f0b-ba91-1feeb211115e","ios":"levelo://app?vid=a57434b9-cc81-4f0b-ba91-1feeb211115e"},"vehicle_type_id":"4","last_reported":1751710213,"current_range_meters":5600,"station_id":"ce4bgs12rcd13ifvqcag","pricing_plan_id":"cebpf4jnsgd1na2vs0mg"},{"bike_id":"f6ac2ca1-a3ac-4f58-b1a1-b74be8a76990","system_id":"levelo_inurba_marseille","lat":43.298959,"lon":5.436403,"is_reserved":false,"is_disabled":false,"rental_uris":{"android":"levelo://app?vid=f6ac2ca1-a3ac-4f58-b1a1-b74be8a76990","ios":"levelo://app?vid=f6ac2ca1-a3ac-4f58-b1a1-b74be8a76990"},"vehicle_type_id":"4","last_reported":1751710213,"current_range_meters":5600,"station_id":"ce4bhpp2rcd13ifvqhfg","pricing_plan_id":"cebpf4jnsgd1na2vs0mg"},{"bike_id":"d799b321-3a7d-4201-b46e-ffe2ad124f19","system_id":"levelo_inurba_marseille","lat":43.329086,"lon":5.384001,"is_reserved":false,"is_disabled":false,"rental_uris":{"android":"levelo://app?vid=d799b321-3a7d-4201-b46e-ffe2ad124f19","ios":"levelo://app?vid=d799b321-3a7d-4201-b46e-ffe2ad124f19"},"vehicle_type_id":"4","last_reported":1751710213,"current_range_meters":6400,"station_id":"","pricing_plan_id":"cebpf4jnsgd1na2vs0mg"},{"bike_id":"2f0ec54c-b663-43fc-afe2-5393fc627954","system_id":"levelo_inurba_marseille","lat":43.295706,"lon":5.399747,"is_reserved":false,"is_disabled":false,"rental_uris":{"android":"levelo://app?vid=2f0ec54c-b663-43fc-afe2-5393fc627954","ios":"levelo://app?vid=2f0ec54c-b663-43fc-afe2-5393fc627954"},"vehicle_type_id":"4","last_reported":1751710213,"current_range_meters":6400,"station_id":"ce4bh312rcd13ifvqdj0","pricing_plan_id":"cebpf4jnsgd1na2vs0mg"},{"bike_id":"e3822c24-4fb4-45b7-8cd2-6e1079eeff65","system_id":"levelo_inurba_marseille","lat":43.31082,"lon":5.42456,"is_reserved":false,"is_disabled":false,"rental_uris":{"android":"levelo://app?vid=e3822c24-4fb4-45b7-8cd2-6e1079eeff65","ios":"levelo://app?vid=e3822c24-4fb4-45b7-8cd2-6e1079eeff65"},"vehicle_type_id":"4","last_reported":1751710213,"current_range_meters":6400,"station_id":"ce4bhp92rcd13ifvqhag","pricing_plan_id":"cebpf4jnsgd1na2vs0mg"},{"bike_id":"ed5e1723-9f1b-44c4-9c56-176da58f98c0","system_id":"levelo_inurba_marseille","lat":43.3128,"lon":5.40174,"is_reserved":false,"is_disabled":false,"rental_uris":{"android":"levelo://app?vid=ed5e1723-9f1b-44c4-9c56-176da58f98c0","ios":"levelo://app?vid=ed5e1723-9f1b-44c4-9c56-176da58f98c0"},"vehicle_type_id":"4","last_reported":1751710213,"current_range_meters":6800,"station_id":"ce4bh092rcd13ifvqd30","pricing_plan_id":"cebpf4jnsgd1na2vs0mg"},{"bike_id":"dbde0d81-068a-4fa4-a92a-5f5e4289de54","system_id":"levelo_inurba_marseille","lat":43.28424,"lon":5.34985,"is_reserved":false,"is_disabled":false,"rental_uris":{"android":"levelo://app?vid=dbde0d81-068a-4fa4-a92a-5f5e4289de54","ios":"levelo://app?vid=dbde0d81-068a-4fa4-a92a-5f5e4289de54"},"vehicle_type_id":"4","last_reported":1751710213,"current_range_meters":7200,"station_id":"","pricing_plan_id":"cebpf4jnsgd1na2vs0mg"},{"bike_id":"149c88ef-b75d-4a6b-b819-11821adadb7b","system_id":"levelo_inurba_marseille","lat":43.2439,"lon":5.37063,"is_reserved":false,"is_disabled":false,"rental_uris":{"android":"levelo://app?vid=149c88ef-b75d-4a6b-b819-11821adadb7b","ios":"levelo://app?vid=149c88ef-b75d-4a6b-b819-11821adadb7b"},"vehicle_type_id":"4","last_reported":1751710213,"current_range_meters":7200,"station_id":"ce4bhhh2rcd13ifvqfk0","pricing_plan_id":"cebpf4jnsgd1na2vs0mg"},{"bike_id":"9f1f6042-7e07-4b00-9dc1-8f0343d9174e","system_id":"levelo_inurba_marseille","lat":43.21206,"lon":5.35065,"is_reserved":false,"is_disabled":false,"rental_uris":{"android":"levelo://app?vid=9f1f6042-7e07-4b00-9dc1-8f0343d9174e","ios":"levelo://app?vid=9f1f6042-7e07-4b00-9dc1-8f0343d9174e"},"vehicle_type_id":"4","last_reported":1751710213,"current_range_meters":7200,"station_id":"st_cvj6sg6p6f1abm77japg","pricing_plan_id":"cebpf4jnsgd1na2vs0mg"},{"bike_id":"ba154a12-11bd-42a5-958a-5992f5d043d1","system_id":"levelo_inurba_marseille","lat":43.30519,"lon":5.37085,"is_reserved":false,"is_disabled":false,"rental_uris":{"android":"levelo://app?vid=ba154a12-11bd-42a5-958a-5992f5d043d1","ios":"levelo://app?vid=ba154a12-11bd-42a5-958a-5992f5d043d1"},"vehicle_type_id":"4","last_reported":1751710213,"current_range_meters":8000,"station_id":"","pricing_plan_id":"cebpf4jnsgd1na2vs0mg"},{"bike_id":"2ffeba7a-8316-4052-8019-91454da58cbe","system_id":"levelo_inurba_marseille","lat":43.269878,"lon":5.420122,"is_reserved":false,"is_disabled":false,"rental_uris":{"android":"levelo://app?vid=2ffeba7a-8316-4052-8019-91454da58cbe","ios":"levelo://app?vid=2ffeba7a-8316-4052-8019-91454da58cbe"},"vehicle_type_id":"4","last_reported":1751710213,"current_range_meters":8400,"station_id":"","pricing_plan_id":"cebpf4jnsgd1na2vs0mg"},{"bike_id":"0c4b7fdb-b39e-49b3-a2b0-ae3d0f43e89d","system_id":"levelo_inurba_marseille","lat":43.329126,"lon":5.406074,"is_reserved":false,"is_disabled":false,"rental_uris":{"android":"levelo://app?vid=0c4b7fdb-b39e-49b3-a2b0-ae3d0f43e89d","ios":"levelo://app?vid=0c4b7fdb-b39e-49b3-a2b0-ae3d0f43e89d"},"vehicle_type_id":"4","last_reported":1751710213,"current_range_meters":8400,"station_id":"","pricing_plan_id":"cebpf4jnsgd1na2vs0mg"},{"bike_id":"571abec9-12fe-4261-907b-5b08f5260cfb","system_id":"levelo_inurba_marseille","lat":43.23151,"lon":5.43711,"is_reserved":false,"is_disabled":false,"rental_uris":{"android":"levelo://app?vid=571abec9-12fe-4261-907b-5b08f5260cfb","ios":"levelo://app?vid=571abec9-12fe-4261-907b-5b08f5260cfb"},"vehicle_type_id":"4","last_reported":1751710213,"current_range_meters":8400,"station_id":"ce4bhmp2rcd13ifvqgog","pricing_plan_id":"cebpf4jnsgd1na2vs0mg"},{"bike_id":"03b7f533-e5ef-456e-92f8-de79b4a06395","system_id":"levelo_inurba_marseille","lat":43.31498,"lon":5.37308,"is_reserved":false,"is_disabled":false,"rental_uris":{"android":"levelo://app?vid=03b7f533-e5ef-456e-92f8-de79b4a06395","ios":"levelo://app?vid=03b7f533-e5ef-456e-92f8-de79b4a06395"},"vehicle_type_id":"4","last_reported":1751710213,"current_range_meters":8800,"station_id":"ce4bgt12rcd13ifvqcd0","pricing_plan_id":"cebpf4jnsgd1na2vs0mg"},{"bike_id":"97de0065-3604-43c2-8c35-f3c481cf0347","system_id":"levelo_inurba_marseille","lat":43.323803,"lon":5.388923,"is_reserved":false,"is_disabled":false,"rental_uris":{"android":"levelo://app?vid=97de0065-3604-43c2-8c35-f3c481cf0347","ios":"levelo://app?vid=97de0065-3604-43c2-8c35-f3c481cf0347"},"vehicle_type_id":"4","last_reported":1751710213,"current_range_meters":8800,"station_id":"ce4bhqp2rcd13ifvqhog","pricing_plan_id":"cebpf4jnsgd1na2vs0mg"},{"bike_id":"6917bed5-c21f-48c3-870d-5408dab99803","system_id":"levelo_inurba_marseille","lat":43.29696,"lon":5.369,"is_reserved":false,"is_disabled":false,"rental_uris":{"android":"levelo://app?vid=6917bed5-c21f-48c3-870d-5408dab99803","ios":"levelo://app?vid=6917bed5-c21f-48c3-870d-5408dab99803"},"vehicle_type_id":"4","last_reported":1751710213,"current_range_meters":9200,"station_id":"","pricing_plan_id":"cebpf4jnsgd1na2vs0mg"},{"bike_id":"95e15d95-cd84-41c1-9d82-5eeba565aaeb","system_id":"levelo_inurba_marseille","lat":43.304626,"lon":5.366333,"is_reserved":false,"is_disabled":false,"rental_uris":{"android":"levelo://app?vid=95e15d95-cd84-41c1-9d82-5eeba565aaeb","ios":"levelo://app?vid=95e15d95-cd84-41c1-9d82-5eeba565aaeb"},"vehicle_type_id":"4","last_reported":1751710213,"current_range_meters":9200,"station_id":"ce4bgrp2rcd13ifvqc9g","pricing_plan_id":"cebpf4jnsgd1na2vs0mg"},{"bike_id":"435efc26-c7b3-4596-81fa-06c06e179c41","system_id":"levelo_inurba_marseille","lat":43.28701,"lon":5.39983,"is_reserved":false,"is_disabled":false,"rental_uris":{"android":"levelo://app?vid=435efc26-c7b3-4596-81fa-06c06e179c41","ios":"levelo://app?vid=435efc26-c7b3-4596-81fa-06c06e179c41"},"vehicle_type_id":"4","last_reported":1751710213,"current_range_meters":9200,"station_id":"ce4bho92rcd13ifvqh3g","pricing_plan_id":"cebpf4jnsgd1na2vs0mg"},{"bike_id":"e517c84a-092c-4857-b2cf-d8d8667e47e1","system_id":"levelo_inurba_marseille","lat":43.29977,"lon":5.37167,"is_reserved":false,"is_disabled":false,"rental_uris":{"android":"levelo://app?vid=e517c84a-092c-4857-b2cf-d8d8667e47e1","ios":"levelo://app?vid=e517c84a-092c-4857-b2cf-d8d8667e47e1"},"vehicle_type_id":"4","last_reported":1751710213,"current_range_meters":9600,"station_id":"ce4bgr92rcd13ifvqc7g","pricing_plan_id":"cebpf4jnsgd1na2vs0mg"},{"bike_id":"1c8ab180-05fd-405f-9922-b2b2c2d5142f","system_id":"levelo_inurba_marseille","lat":43.33783,"lon":5.38093,"is_reserved":false,"is_disabled":false,"rental_uris":{"android":"levelo://app?vid=1c8ab180-05fd-405f-9922-b2b2c2d5142f","ios":"levelo://app?vid=1c8ab180-05fd-405f-9922-b2b2c2d5142f"},"vehicle_type_id":"4","last_reported":1751710213,"current_range_meters":10000,"station_id":"","pricing_plan_id":"cebpf4jnsgd1na2vs0mg"},{"bike_id":"6b0a1fd8-d9c6-42b7-8aee-05d9231cf95a","system_id":"levelo_inurba_marseille","lat":43.29224,"lon":5.39987,"is_reserved":false,"is_disabled":false,"rental_uris":{"android":"levelo://app?vid=6b0a1fd8-d9c6-42b7-8aee-05d9231cf95a","ios":"levelo://app?vid=6b0a1fd8-d9c6-42b7-8aee-05d9231cf95a"},"vehicle_type_id":"4","last_reported":1751710213,"current_range_meters":10000,"station_id":"","pricing_plan_id":"cebpf4jnsgd1na2vs0mg"},{"bike_id":"5c32c0b3-eda8-49f3-854d-7d3cce197eb5","system_id":"levelo_inurba_marseille","lat":43.29602,"lon":5.38107,"is_reserved":false,"is_disabled":false,"rental_uris":{"android":"levelo://app?vid=5c32c0b3-eda8-49f3-854d-7d3cce197eb5","ios":"levelo://app?vid=5c32c0b3-eda8-49f3-854d-7d3cce197eb5"},"vehicle_type_id":"4","last_reported":1751710213,"current_range_meters":10000,"station_id":"ce4bgl12rcd13ifvqbo0","pricing_plan_id":"cebpf4jnsgd1na2vs0mg"},{"bike_id":"1c2f10bb-b624-4465-ab6a-fb47349e5a39","system_id":"levelo_inurba_marseille","lat":43.29635,"lon":5.40596,"is_reserved":false,"is_disabled":false,"rental_uris":{"android":"levelo://app?vid=1c2f10bb-b624-4465-ab6a-fb47349e5a39","ios":"levelo://app?vid=1c2f10bb-b624-4465-ab6a-fb47349e5a39"},"vehicle_type_id":"4","last_reported":1751710213,"current_range_meters":10000,"station_id":"ce4bh0h2rcd13ifvqd60","pricing_plan_id":"cebpf4jnsgd1na2vs0mg"},{"bike_id":"8ae9c32e-94d8-411d-b2a0-91ac5bc77dab","system_id":"levelo_inurba_marseille","lat":43.23965,"lon":5.36637,"is_reserved":false,"is_disabled":false,"rental_uris":{"android":"levelo://app?vid=8ae9c32e-94d8-411d-b2a0-91ac5bc77dab","ios":"levelo://app?vid=8ae9c32e-94d8-411d-b2a0-91ac5bc77dab"},"vehicle_type_id":"4","last_reported":1751710213,"current_range_meters":10000,"station_id":"ce4bhi12rcd13ifvqfp0","pricing_plan_id":"cebpf4jnsgd1na2vs0mg"},{"bike_id":"bf16840f-2e0f-47eb-8d30-3dc4199df254","system_id":"levelo_inurba_marseille","lat":43.31768,"lon":5.39027,"is_reserved":false,"is_disabled":false,"rental_uris":{"android":"levelo://app?vid=bf16840f-2e0f-47eb-8d30-3dc4199df254","ios":"levelo://app?vid=bf16840f-2e0f-47eb-8d30-3dc4199df254"},"vehicle_type_id":"4","last_reported":1751710213,"current_range_meters":10000,"station_id":"ce4bhqp2rcd13ifvqhng","pricing_plan_id":"cebpf4jnsgd1na2vs0mg"},{"bike_id":"76d127a6-3385-47a2-9e3a-490d1d976c59","system_id":"levelo_inurba_marseille","lat":43.31184,"lon":5.38313,"is_reserved":false,"is_disabled":false,"rental_uris":{"android":"levelo://app?vid=76d127a6-3385-47a2-9e3a-490d1d976c59","ios":"levelo://app?vid=76d127a6-3385-47a2-9e3a-490d1d976c59"},"vehicle_type_id":"4","last_reported":1751710213,"current_range_meters":10800,"station_id":"","pricing_plan_id":"cebpf4jnsgd1na2vs0mg"},{"bike_id":"b26fae72-751e-4090-a9c4-76ff5de1ad66","system_id":"levelo_inurba_marseille","lat":43.332543,"lon":5.380397,"is_reserved":false,"is_disabled":false,"rental_uris":{"android":"levelo://app?vid=b26fae72-751e-4090-a9c4-76ff5de1ad66","ios":"levelo://app?vid=b26fae72-751e-4090-a9c4-76ff5de1ad66"},"vehicle_type_id":"4","last_reported":1751710213,"current_range_meters":10800,"station_id":"","pricing_plan_id":"cebpf4jnsgd1na2vs0mg"},{"bike_id":"d1c1d769-91d0-4866-8097-b6e51dd3f87c","system_id":"levelo_inurba_marseille","lat":43.29282,"lon":5.36844,"is_reserved":false,"is_disabled":false,"rental_uris":{"android":"levelo://app?vid=d1c1d769-91d0-4866-8097-b6e51dd3f87c","ios":"levelo://app?vid=d1c1d769-91d0-4866-8097-b6e51dd3f87c"},"vehicle_type_id":"4","last_reported":1751710213,"current_range_meters":10800,"station_id":"ce4bhbp2rcd13ifvqesg","pricing_plan_id":"cebpf4jnsgd1na2vs0mg"},{"bike_id":"bece9738-cbc3-4ef5-ab67-6b44dd69c310","system_id":"levelo_inurba_marseille","lat":43.244932,"lon":5.395364,"is_reserved":false,"is_disabled":false,"rental_uris":{"android":"levelo://app?vid=bece9738-cbc3-4ef5-ab67-6b44dd69c310","ios":"levelo://app?vid=bece9738-cbc3-4ef5-ab67-6b44dd69c310"},"vehicle_type_id":"4","last_reported":1751710213,"current_range_meters":10800,"station_id":"ce4bhn12rcd13ifvqgpg","pricing_plan_id":"cebpf4jnsgd1na2vs0mg"},{"bike_id":"0b528480-d98f-4305-b1b9-d966d45d9050","system_id":"levelo_inurba_marseille","lat":43.21191,"lon":5.35072,"is_reserved":false,"is_disabled":false,"rental_uris":{"android":"levelo://app?vid=0b528480-d98f-4305-b1b9-d966d45d9050","ios":"levelo://app?vid=0b528480-d98f-4305-b1b9-d966d45d9050"},"vehicle_type_id":"4","last_reported":1751710213,"current_range_meters":10800,"station_id":"st_cvj6sg6p6f1abm77japg","pricing_plan_id":"cebpf4jnsgd1na2vs0mg"},{"bike_id":"69c2280d-9883-47db-99f2-c073a6babae6","system_id":"levelo_inurba_marseille","lat":43.30866,"lon":5.37044,"is_reserved":false,"is_disabled":false,"rental_uris":{"android":"levelo://app?vid=69c2280d-9883-47db-99f2-c073a6babae6","ios":"levelo://app?vid=69c2280d-9883-47db-99f2-c073a6babae6"},"vehicle_type_id":"4","last_reported":1751710213,"current_range_meters":11200,"station_id":"","pricing_plan_id":"cebpf4jnsgd1na2vs0mg"},{"bike_id":"b975670b-ab0b-4354-983f-f775440e6bcf","system_id":"levelo_inurba_marseille","lat":43.29786,"lon":5.37102,"is_reserved":false,"is_disabled":false,"rental_uris":{"android":"levelo://app?vid=b975670b-ab0b-4354-983f-f775440e6bcf","ios":"levelo://app?vid=b975670b-ab0b-4354-983f-f775440e6bcf"},"vehicle_type_id":"4","last_reported":1751710213,"current_range_meters":11200,"station_id":"ce4bgop2rcd13ifvqc1g","pricing_plan_id":"cebpf4jnsgd1na2vs0mg"},{"bike_id":"8380f630-45c7-4cdf-9576-f907a486cab1","system_id":"levelo_inurba_marseille","lat":43.30912,"lon":5.37196,"is_reserved":false,"is_disabled":false,"rental_uris":{"android":"levelo://app?vid=8380f630-45c7-4cdf-9576-f907a486cab1","ios":"levelo://app?vid=8380f630-45c7-4cdf-9576-f907a486cab1"},"vehicle_type_id":"4","last_reported":1751710213,"current_range_meters":11200,"station_id":"ce4bguh2rcd13ifvqckg","pricing_plan_id":"cebpf4jnsgd1na2vs0mg"},{"bike_id":"09f8c713-a6df-422f-9da0-933af3e8a4fc","system_id":"levelo_inurba_marseille","lat":43.29283,"lon":5.40113,"is_reserved":false,"is_disabled":false,"rental_uris":{"android":"levelo://app?vid=09f8c713-a6df-422f-9da0-933af3e8a4fc","ios":"levelo://app?vid=09f8c713-a6df-422f-9da0-933af3e8a4fc"},"vehicle_type_id":"4","last_reported":1751710213,"current_range_meters":11200,"station_id":"ce4bh312rcd13ifvqdk0","pricing_plan_id":"cebpf4jnsgd1na2vs0mg"},{"bike_id":"4b8da722-ee9e-48a4-a5e5-3a8a10364708","system_id":"levelo_inurba_marseille","lat":43.31239,"lon":5.37801,"is_reserved":false,"is_disabled":false,"rental_uris":{"android":"levelo://app?vid=4b8da722-ee9e-48a4-a5e5-3a8a10364708","ios":"levelo://app?vid=4b8da722-ee9e-48a4-a5e5-3a8a10364708"},"vehicle_type_id":"4","last_reported":1751710213,"current_range_meters":11600,"station_id":"","pricing_plan_id":"cebpf4jnsgd1na2vs0mg"},{"bike_id":"cb0bd2ec-3a60-494a-8fdb-22be9c734bc1","system_id":"levelo_inurba_marseille","lat":43.30893,"lon":5.39634,"is_reserved":false,"is_disabled":false,"rental_uris":{"android":"levelo://app?vid=cb0bd2ec-3a60-494a-8fdb-22be9c734bc1","ios":"levelo://app?vid=cb0bd2ec-3a60-494a-8fdb-22be9c734bc1"},"vehicle_type_id":"4","last_reported":1751710213,"current_range_meters":11600,"station_id":"ce4bh012rcd13ifvqcv0","pricing_plan_id":"cebpf4jnsgd1na2vs0mg"},{"bike_id":"5526f04c-d1da-45b2-8127-d0f038c148da","system_id":"levelo_inurba_marseille","lat":43.27373,"lon":5.36255,"is_reserved":false,"is_disabled":false,"rental_uris":{"android":"levelo://app?vid=5526f04c-d1da-45b2-8127-d0f038c148da","ios":"levelo://app?vid=5526f04c-d1da-45b2-8127-d0f038c148da"},"vehicle_type_id":"4","last_reported":1751710213,"current_range_meters":11600,"station_id":"ce4bhbh2rcd13ifvqeo0","pricing_plan_id":"cebpf4jnsgd1na2vs0mg"},{"bike_id":"3da7a7a2-9364-4916-b617-f643e3f7d37c","system_id":"levelo_inurba_marseille","lat":43.301474,"lon":5.380822,"is_reserved":false,"is_disabled":false,"rental_uris":{"android":"levelo://app?vid=3da7a7a2-9364-4916-b617-f643e3f7d37c","ios":"levelo://app?vid=3da7a7a2-9364-4916-b617-f643e3f7d37c"},"vehicle_type_id":"4","last_reported":1751710213,"current_range_meters":12000,"station_id":"ce4bgjp2rcd13ifvqbh0","pricing_plan_id":"cebpf4jnsgd1na2vs0mg"},{"bike_id":"a9c82c66-a206-4b61-b2a0-1b7e166648b1","system_id":"levelo_inurba_marseille","lat":43.295785,"lon":5.36746,"is_reserved":false,"is_disabled":false,"rental_uris":{"android":"levelo://app?vid=a9c82c66-a206-4b61-b2a0-1b7e166648b1","ios":"levelo://app?vid=a9c82c66-a206-4b61-b2a0-1b7e166648b1"},"vehicle_type_id":"4","last_reported":1751710213,"current_range_meters":12000,"station_id":"ce4bgph2rcd13ifvqc2g","pricing_plan_id":"cebpf4jnsgd1na2vs0mg"},{"bike_id":"8c7b5457-b790-4ceb-8535-d321af702702","system_id":"levelo_inurba_marseille","lat":43.312763,"lon":5.40163,"is_reserved":false,"is_disabled":false,"rental_uris":{"android":"levelo://app?vid=8c7b5457-b790-4ceb-8535-d321af702702","ios":"levelo://app?vid=8c7b5457-b790-4ceb-8535-d321af702702"},"vehicle_type_id":"4","last_reported":1751710213,"current_range_meters":12000,"station_id":"ce4bh092rcd13ifvqd30","pricing_plan_id":"cebpf4jnsgd1na2vs0mg"},{"bike_id":"f5de7370-6b3b-4819-a8fd-1546035ea2e5","system_id":"levelo_inurba_marseille","lat":43.29822,"lon":5.40422,"is_reserved":false,"is_disabled":false,"rental_uris":{"android":"levelo://app?vid=f5de7370-6b3b-4819-a8fd-1546035ea2e5","ios":"levelo://app?vid=f5de7370-6b3b-4819-a8fd-1546035ea2e5"},"vehicle_type_id":"4","last_reported":1751710213,"current_range_meters":12000,"station_id":"ce4bh112rcd13ifvqd90","pricing_plan_id":"cebpf4jnsgd1na2vs0mg"},{"bike_id":"ef086af5-e34f-4e4b-b345-7e3a952273cd","system_id":"levelo_inurba_marseille","lat":43.2315,"lon":5.43747,"is_reserved":false,"is_disabled":false,"rental_uris":{"android":"levelo://app?vid=ef086af5-e34f-4e4b-b345-7e3a952273cd","ios":"levelo://app?vid=ef086af5-e34f-4e4b-b345-7e3a952273cd"},"vehicle_type_id":"4","last_reported":1751710213,"current_range_meters":12000,"station_id":"ce4bhmp2rcd13ifvqgog","pricing_plan_id":"cebpf4jnsgd1na2vs0mg"},{"bike_id":"8540eae3-ead3-4b83-ba8b-6b7654e615e1","system_id":"levelo_inurba_marseille","lat":43.281588,"lon":5.426112,"is_reserved":false,"is_disabled":false,"rental_uris":{"android":"levelo://app?vid=8540eae3-ead3-4b83-ba8b-6b7654e615e1","ios":"levelo://app?vid=8540eae3-ead3-4b83-ba8b-6b7654e615e1"},"vehicle_type_id":"4","last_reported":1751710213,"current_range_meters":12000,"station_id":"ce4bhnh2rcd13ifvqgug","pricing_plan_id":"cebpf4jnsgd1na2vs0mg"},{"bike_id":"04edf994-7a6f-42bd-bdb9-6db229bd33ae","system_id":"levelo_inurba_marseille","lat":43.29557,"lon":5.42287,"is_reserved":false,"is_disabled":false,"rental_uris":{"android":"levelo://app?vid=04edf994-7a6f-42bd-bdb9-6db229bd33ae","ios":"levelo://app?vid=04edf994-7a6f-42bd-bdb9-6db229bd33ae"},"vehicle_type_id":"4","last_reported":1751710213,"current_range_meters":12000,"station_id":"ce4bhph2rcd13ifvqhdg","pricing_plan_id":"cebpf4jnsgd1na2vs0mg"},{"bike_id":"4db45513-e520-4598-82fa-5809d80d4f3d","system_id":"levelo_inurba_marseille","lat":43.280966,"lon":5.354839,"is_reserved":false,"is_disabled":false,"rental_uris":{"android":"levelo://app?vid=4db45513-e520-4598-82fa-5809d80d4f3d","ios":"levelo://app?vid=4db45513-e520-4598-82fa-5809d80d4f3d"},"vehicle_type_id":"4","last_reported":1751710213,"current_range_meters":12400,"station_id":"","pricing_plan_id":"cebpf4jnsgd1na2vs0mg"},{"bike_id":"c8dba842-ba40-4802-a6e2-e6eb1e5f278f","system_id":"levelo_inurba_marseille","lat":43.28849,"lon":5.35852,"is_reserved":false,"is_disabled":false,"rental_uris":{"android":"levelo://app?vid=c8dba842-ba40-4802-a6e2-e6eb1e5f278f","ios":"levelo://app?vid=c8dba842-ba40-4802-a6e2-e6eb1e5f278f"},"vehicle_type_id":"4","last_reported":1751710213,"current_range_meters":12400,"station_id":"ce4bhb12rcd13ifvqem0","pricing_plan_id":"cebpf4jnsgd1na2vs0mg"},{"bike_id":"768a7991-5867-42aa-a60c-b3924a664480","system_id":"levelo_inurba_marseille","lat":43.30424,"lon":5.41277,"is_reserved":false,"is_disabled":false,"rental_uris":{"android":"levelo://app?vid=768a7991-5867-42aa-a60c-b3924a664480","ios":"levelo://app?vid=768a7991-5867-42aa-a60c-b3924a664480"},"vehicle_type_id":"4","last_reported":1751710213,"current_range_meters":12400,"station_id":"ce4bhop2rcd13ifvqh8g","pricing_plan_id":"cebpf4jnsgd1na2vs0mg"},{"bike_id":"3847022a-5187-4521-af78-80f88fe96595","system_id":"levelo_inurba_marseille","lat":43.21189,"lon":5.3507,"is_reserved":false,"is_disabled":false,"rental_uris":{"android":"levelo://app?vid=3847022a-5187-4521-af78-80f88fe96595","ios":"levelo://app?vid=3847022a-5187-4521-af78-80f88fe96595"},"vehicle_type_id":"4","last_reported":1751710213,"current_range_meters":12400,"station_id":"st_cvj6sg6p6f1abm77japg","pricing_plan_id":"cebpf4jnsgd1na2vs0mg"},{"bike_id":"dcb67fb4-476a-4c5e-8992-0f527c4ef1b0","system_id":"levelo_inurba_marseille","lat":43.28037,"lon":5.36942,"is_reserved":false,"is_disabled":false,"rental_uris":{"android":"levelo://app?vid=dcb67fb4-476a-4c5e-8992-0f527c4ef1b0","ios":"levelo://app?vid=dcb67fb4-476a-4c5e-8992-0f527c4ef1b0"},"vehicle_type_id":"4","last_reported":1751710213,"current_range_meters":12800,"station_id":"ce4bha12rcd13ifvqef0","pricing_plan_id":"cebpf4jnsgd1na2vs0mg"},{"bike_id":"ae16f5e0-7344-47e5-bfdf-f837fbd0da34","system_id":"levelo_inurba_marseille","lat":43.32469,"lon":5.36554,"is_reserved":false,"is_disabled":false,"rental_uris":{"android":"levelo://app?vid=ae16f5e0-7344-47e5-bfdf-f837fbd0da34","ios":"levelo://app?vid=ae16f5e0-7344-47e5-bfdf-f837fbd0da34"},"vehicle_type_id":"4","last_reported":1751710213,"current_range_meters":12800,"station_id":"ce4bhs12rcd13ifvqhvg","pricing_plan_id":"cebpf4jnsgd1na2vs0mg"},{"bike_id":"29b19e99-4845-4ee3-b1ee-35721cd36dc7","system_id":"levelo_inurba_marseille","lat":43.231949,"lon":5.355441,"is_reserved":false,"is_disabled":false,"rental_uris":{"android":"levelo://app?vid=29b19e99-4845-4ee3-b1ee-35721cd36dc7","ios":"levelo://app?vid=29b19e99-4845-4ee3-b1ee-35721cd36dc7"},"vehicle_type_id":"4","last_reported":1751710213,"current_range_meters":12800,"station_id":"ce4bhu92rcd13ifvqi70","pricing_plan_id":"cebpf4jnsgd1na2vs0mg"},{"bike_id":"672fc69a-31c0-4b40-a532-4a811d670207","system_id":"levelo_inurba_marseille","lat":43.2119,"lon":5.35068,"is_reserved":false,"is_disabled":false,"rental_uris":{"android":"levelo://app?vid=672fc69a-31c0-4b40-a532-4a811d670207","ios":"levelo://app?vid=672fc69a-31c0-4b40-a532-4a811d670207"},"vehicle_type_id":"4","last_reported":1751710213,"current_range_meters":12800,"station_id":"st_cvj6sg6p6f1abm77japg","pricing_plan_id":"cebpf4jnsgd1na2vs0mg"},{"bike_id":"5c5bcca8-ce1b-4fb2-ade6-e9b96c84bdd4","system_id":"levelo_inurba_marseille","lat":43.2319,"lon":5.39981,"is_reserved":false,"is_disabled":false,"rental_uris":{"android":"levelo://app?vid=5c5bcca8-ce1b-4fb2-ade6-e9b96c84bdd4","ios":"levelo://app?vid=5c5bcca8-ce1b-4fb2-ade6-e9b96c84bdd4"},"vehicle_type_id":"4","last_reported":1751710213,"current_range_meters":13600,"station_id":"ce4bhn12rcd13ifvqgqg","pricing_plan_id":"cebpf4jnsgd1na2vs0mg"},{"bike_id":"02e49158-7e33-4ff2-aace-c7da50a8e403","system_id":"levelo_inurba_marseille","lat":43.30144,"lon":5.38088,"is_reserved":false,"is_disabled":false,"rental_uris":{"android":"levelo://app?vid=02e49158-7e33-4ff2-aace-c7da50a8e403","ios":"levelo://app?vid=02e49158-7e33-4ff2-aace-c7da50a8e403"},"vehicle_type_id":"4","last_reported":1751710213,"current_range_meters":14000,"station_id":"ce4bgjp2rcd13ifvqbh0","pricing_plan_id":"cebpf4jnsgd1na2vs0mg"},{"bike_id":"f723bf94-914a-4f2c-b522-af3224f00a69","system_id":"levelo_inurba_marseille","lat":43.29792,"lon":5.37112,"is_reserved":false,"is_disabled":false,"rental_uris":{"android":"levelo://app?vid=f723bf94-914a-4f2c-b522-af3224f00a69","ios":"levelo://app?vid=f723bf94-914a-4f2c-b522-af3224f00a69"},"vehicle_type_id":"4","last_reported":1751710213,"current_range_meters":14000,"station_id":"ce4bgop2rcd13ifvqc1g","pricing_plan_id":"cebpf4jnsgd1na2vs0mg"},{"bike_id":"3913ad23-cf89-4f24-8bec-6574be33c73e","system_id":"levelo_inurba_marseille","lat":43.31282,"lon":5.40166,"is_reserved":false,"is_disabled":false,"rental_uris":{"android":"levelo://app?vid=3913ad23-cf89-4f24-8bec-6574be33c73e","ios":"levelo://app?vid=3913ad23-cf89-4f24-8bec-6574be33c73e"},"vehicle_type_id":"4","last_reported":1751710213,"current_range_meters":14000,"station_id":"ce4bh092rcd13ifvqd30","pricing_plan_id":"cebpf4jnsgd1na2vs0mg"},{"bike_id":"c9e016dd-7469-4469-83d4-aae2144382da","system_id":"levelo_inurba_marseille","lat":43.26554,"lon":5.37306,"is_reserved":false,"is_disabled":false,"rental_uris":{"android":"levelo://app?vid=c9e016dd-7469-4469-83d4-aae2144382da","ios":"levelo://app?vid=c9e016dd-7469-4469-83d4-aae2144382da"},"vehicle_type_id":"4","last_reported":1751710213,"current_range_meters":14000,"station_id":"ce4bhg12rcd13ifvqf70","pricing_plan_id":"cebpf4jnsgd1na2vs0mg"},{"bike_id":"13d21a2c-849b-4f21-9b0f-55dc62425cbd","system_id":"levelo_inurba_marseille","lat":43.2319,"lon":5.40003,"is_reserved":false,"is_disabled":false,"rental_uris":{"android":"levelo://app?vid=13d21a2c-849b-4f21-9b0f-55dc62425cbd","ios":"levelo://app?vid=13d21a2c-849b-4f21-9b0f-55dc62425cbd"},"vehicle_type_id":"4","last_reported":1751710213,"current_range_meters":14000,"station_id":"ce4bhn12rcd13ifvqgqg","pricing_plan_id":"cebpf4jnsgd1na2vs0mg"},{"bike_id":"5e811c86-824d-4978-918d-a61aa3a543ea","system_id":"levelo_inurba_marseille","lat":43.30409,"lon":5.4129,"is_reserved":false,"is_disabled":false,"rental_uris":{"android":"levelo://app?vid=5e811c86-824d-4978-918d-a61aa3a543ea","ios":"levelo://app?vid=5e811c86-824d-4978-918d-a61aa3a543ea"},"vehicle_type_id":"4","last_reported":1751710213,"current_range_meters":14000,"station_id":"ce4bhop2rcd13ifvqh8g","pricing_plan_id":"cebpf4jnsgd1na2vs0mg"},{"bike_id":"25d65b54-2483-49ad-9e8c-b4102ded682f","system_id":"levelo_inurba_marseille","lat":43.211949,"lon":5.350719,"is_reserved":false,"is_disabled":false,"rental_uris":{"android":"levelo://app?vid=25d65b54-2483-49ad-9e8c-b4102ded682f","ios":"levelo://app?vid=25d65b54-2483-49ad-9e8c-b4102ded682f"},"vehicle_type_id":"4","last_reported":1751710213,"current_range_meters":14000,"station_id":"st_cvj6sg6p6f1abm77japg","pricing_plan_id":"cebpf4jnsgd1na2vs0mg"},{"bike_id":"5f470112-8139-4343-b082-08a74e0b7074","system_id":"levelo_inurba_marseille","lat":43.21195,"lon":5.35047,"is_reserved":false,"is_disabled":false,"rental_uris":{"android":"levelo://app?vid=5f470112-8139-4343-b082-08a74e0b7074","ios":"levelo://app?vid=5f470112-8139-4343-b082-08a74e0b7074"},"vehicle_type_id":"4","last_reported":1751710213,"current_range_meters":14000,"station_id":"st_cvj6sg6p6f1abm77japg","pricing_plan_id":"cebpf4jnsgd1na2vs0mg"},{"bike_id":"daeee1e5-3b93-44da-8e47-7b24df6d544e","system_id":"levelo_inurba_marseille","lat":43.300016,"lon":5.373583,"is_reserved":false,"is_disabled":false,"rental_uris":{"android":"levelo://app?vid=daeee1e5-3b93-44da-8e47-7b24df6d544e","ios":"levelo://app?vid=daeee1e5-3b93-44da-8e47-7b24df6d544e"},"vehicle_type_id":"4","last_reported":1751710213,"current_range_meters":14400,"station_id":"","pricing_plan_id":"cebpf4jnsgd1na2vs0mg"},{"bike_id":"3ddbba30-83fc-4406-8b51-decfffba50fc","system_id":"levelo_inurba_marseille","lat":43.25728,"lon":5.4111,"is_reserved":false,"is_disabled":false,"rental_uris":{"android":"levelo://app?vid=3ddbba30-83fc-4406-8b51-decfffba50fc","ios":"levelo://app?vid=3ddbba30-83fc-4406-8b51-decfffba50fc"},"vehicle_type_id":"4","last_reported":1751710213,"current_range_meters":14400,"station_id":"ce4bhkp2rcd13ifvqgd0","pricing_plan_id":"cebpf4jnsgd1na2vs0mg"},{"bike_id":"89c4c171-fa34-44ee-8818-b4f1de745083","system_id":"levelo_inurba_marseille","lat":43.23201,"lon":5.35572,"is_reserved":false,"is_disabled":false,"rental_uris":{"android":"levelo://app?vid=89c4c171-fa34-44ee-8818-b4f1de745083","ios":"levelo://app?vid=89c4c171-fa34-44ee-8818-b4f1de745083"},"vehicle_type_id":"4","last_reported":1751710213,"current_range_meters":14400,"station_id":"ce4bhu92rcd13ifvqi70","pricing_plan_id":"cebpf4jnsgd1na2vs0mg"},{"bike_id":"ef26d274-58a7-40bc-9cf0-6287718684d4","system_id":"levelo_inurba_marseille","lat":43.30733,"lon":5.4245,"is_reserved":false,"is_disabled":false,"rental_uris":{"android":"levelo://app?vid=ef26d274-58a7-40bc-9cf0-6287718684d4","ios":"levelo://app?vid=ef26d274-58a7-40bc-9cf0-6287718684d4"},"vehicle_type_id":"4","last_reported":1751710213,"current_range_meters":14400,"station_id":"st_cvj6ca6bvosntc0bfgr0","pricing_plan_id":"cebpf4jnsgd1na2vs0mg"},{"bike_id":"0e5d9ab4-af8f-4fed-bdd4-2e6b146587b0","system_id":"levelo_inurba_marseille","lat":43.29851,"lon":5.36285,"is_reserved":false,"is_disabled":false,"rental_uris":{"android":"levelo://app?vid=0e5d9ab4-af8f-4fed-bdd4-2e6b146587b0","ios":"levelo://app?vid=0e5d9ab4-af8f-4fed-bdd4-2e6b146587b0"},"vehicle_type_id":"4","last_reported":1751710213,"current_range_meters":14800,"station_id":"ce4bgpp2rcd13ifvqc3g","pricing_plan_id":"cebpf4jnsgd1na2vs0mg"},{"bike_id":"27b3b26f-62cb-45ea-a54c-6078366a412e","system_id":"levelo_inurba_marseille","lat":43.31502,"lon":5.37303,"is_reserved":false,"is_disabled":false,"rental_uris":{"android":"levelo://app?vid=27b3b26f-62cb-45ea-a54c-6078366a412e","ios":"levelo://app?vid=27b3b26f-62cb-45ea-a54c-6078366a412e"},"vehicle_type_id":"4","last_reported":1751710213,"current_range_meters":14800,"station_id":"ce4bgt12rcd13ifvqcd0","pricing_plan_id":"cebpf4jnsgd1na2vs0mg"},{"bike_id":"5e71a467-886d-4113-8c6d-c981a2158237","system_id":"levelo_inurba_marseille","lat":43.29006,"lon":5.3561,"is_reserved":false,"is_disabled":false,"rental_uris":{"android":"levelo://app?vid=5e71a467-886d-4113-8c6d-c981a2158237","ios":"levelo://app?vid=5e71a467-886d-4113-8c6d-c981a2158237"},"vehicle_type_id":"4","last_reported":1751710213,"current_range_meters":14800,"station_id":"ce4bhb92rcd13ifvqen0","pricing_plan_id":"cebpf4jnsgd1na2vs0mg"},{"bike_id":"c5b91b0a-5fc4-4165-b464-20e1a4c673fb","system_id":"levelo_inurba_marseille","lat":43.32368,"lon":5.36759,"is_reserved":false,"is_disabled":false,"rental_uris":{"android":"levelo://app?vid=c5b91b0a-5fc4-4165-b464-20e1a4c673fb","ios":"levelo://app?vid=c5b91b0a-5fc4-4165-b464-20e1a4c673fb"},"vehicle_type_id":"4","last_reported":1751710213,"current_range_meters":14800,"station_id":"ce4bhsh2rcd13ifvqi2g","pricing_plan_id":"cebpf4jnsgd1na2vs0mg"},{"bike_id":"e9f184b7-4c52-47df-adfb-be4fdc9c8ed3","system_id":"levelo_inurba_marseille","lat":43.23199,"lon":5.35588,"is_reserved":false,"is_disabled":false,"rental_uris":{"android":"levelo://app?vid=e9f184b7-4c52-47df-adfb-be4fdc9c8ed3","ios":"levelo://app?vid=e9f184b7-4c52-47df-adfb-be4fdc9c8ed3"},"vehicle_type_id":"4","last_reported":1751710213,"current_range_meters":14800,"station_id":"ce4bhu92rcd13ifvqi70","pricing_plan_id":"cebpf4jnsgd1na2vs0mg"},{"bike_id":"1da8e8f3-29d9-453e-9159-6d3ce6a9cd5f","system_id":"levelo_inurba_marseille","lat":43.30524,"lon":5.37908,"is_reserved":false,"is_disabled":false,"rental_uris":{"android":"levelo://app?vid=1da8e8f3-29d9-453e-9159-6d3ce6a9cd5f","ios":"levelo://app?vid=1da8e8f3-29d9-453e-9159-6d3ce6a9cd5f"},"vehicle_type_id":"4","last_reported":1751710213,"current_range_meters":15200,"station_id":"","pricing_plan_id":"cebpf4jnsgd1na2vs0mg"},{"bike_id":"b1d40197-e49c-4962-8cd8-0babe05d31a6","system_id":"levelo_inurba_marseille","lat":43.2127,"lon":5.35305,"is_reserved":false,"is_disabled":false,"rental_uris":{"android":"levelo://app?vid=b1d40197-e49c-4962-8cd8-0babe05d31a6","ios":"levelo://app?vid=b1d40197-e49c-4962-8cd8-0babe05d31a6"},"vehicle_type_id":"4","last_reported":1751710213,"current_range_meters":15200,"station_id":"","pricing_plan_id":"cebpf4jnsgd1na2vs0mg"},{"bike_id":"a386cc26-b1ab-4892-bbb6-2af98b0ba3e0","system_id":"levelo_inurba_marseille","lat":43.27317,"lon":5.39058,"is_reserved":false,"is_disabled":false,"rental_uris":{"android":"levelo://app?vid=a386cc26-b1ab-4892-bbb6-2af98b0ba3e0","ios":"levelo://app?vid=a386cc26-b1ab-4892-bbb6-2af98b0ba3e0"},"vehicle_type_id":"4","last_reported":1751710213,"current_range_meters":15200,"station_id":"ce4bhgp2rcd13ifvqfe0","pricing_plan_id":"cebpf4jnsgd1na2vs0mg"},{"bike_id":"43b433cf-6050-4ea7-8ddd-7b98c73b8e4a","system_id":"levelo_inurba_marseille","lat":43.231522,"lon":5.437078,"is_reserved":false,"is_disabled":false,"rental_uris":{"android":"levelo://app?vid=43b433cf-6050-4ea7-8ddd-7b98c73b8e4a","ios":"levelo://app?vid=43b433cf-6050-4ea7-8ddd-7b98c73b8e4a"},"vehicle_type_id":"4","last_reported":1751710213,"current_range_meters":15200,"station_id":"ce4bhmp2rcd13ifvqgog","pricing_plan_id":"cebpf4jnsgd1na2vs0mg"},{"bike_id":"85e59ae2-b351-4789-8c40-11e04c4e6808","system_id":"levelo_inurba_marseille","lat":43.23205,"lon":5.355538,"is_reserved":false,"is_disabled":false,"rental_uris":{"android":"levelo://app?vid=85e59ae2-b351-4789-8c40-11e04c4e6808","ios":"levelo://app?vid=85e59ae2-b351-4789-8c40-11e04c4e6808"},"vehicle_type_id":"4","last_reported":1751710213,"current_range_meters":15200,"station_id":"ce4bhu92rcd13ifvqi70","pricing_plan_id":"cebpf4jnsgd1na2vs0mg"},{"bike_id":"c04219c1-de03-43f4-ab1b-fcfa9a7dc190","system_id":"levelo_inurba_marseille","lat":43.29787,"lon":5.37097,"is_reserved":false,"is_disabled":false,"rental_uris":{"android":"levelo://app?vid=c04219c1-de03-43f4-ab1b-fcfa9a7dc190","ios":"levelo://app?vid=c04219c1-de03-43f4-ab1b-fcfa9a7dc190"},"vehicle_type_id":"4","last_reported":1751710213,"current_range_meters":16000,"station_id":"ce4bgop2rcd13ifvqc1g","pricing_plan_id":"cebpf4jnsgd1na2vs0mg"},{"bike_id":"a38ba206-27d6-4a0b-bf66-8c154206a0b1","system_id":"levelo_inurba_marseille","lat":43.28662,"lon":5.36353,"is_reserved":false,"is_disabled":false,"rental_uris":{"android":"levelo://app?vid=a38ba206-27d6-4a0b-bf66-8c154206a0b1","ios":"levelo://app?vid=a38ba206-27d6-4a0b-bf66-8c154206a0b1"},"vehicle_type_id":"4","last_reported":1751710213,"current_range_meters":16000,"station_id":"ce4bhah2rcd13ifvqej0","pricing_plan_id":"cebpf4jnsgd1na2vs0mg"},{"bike_id":"fcbb47f0-480f-4647-b620-44d3e4ef9dc8","system_id":"levelo_inurba_marseille","lat":43.25509,"lon":5.37646,"is_reserved":false,"is_disabled":false,"rental_uris":{"android":"levelo://app?vid=fcbb47f0-480f-4647-b620-44d3e4ef9dc8","ios":"levelo://app?vid=fcbb47f0-480f-4647-b620-44d3e4ef9dc8"},"vehicle_type_id":"4","last_reported":1751710213,"current_range_meters":16000,"station_id":"ce4bhh12rcd13ifvqff0","pricing_plan_id":"cebpf4jnsgd1na2vs0mg"},{"bike_id":"c3fae141-3322-46bb-976b-c85803ceeb5f","system_id":"levelo_inurba_marseille","lat":43.295564,"lon":5.422764,"is_reserved":false,"is_disabled":false,"rental_uris":{"android":"levelo://app?vid=c3fae141-3322-46bb-976b-c85803ceeb5f","ios":"levelo://app?vid=c3fae141-3322-46bb-976b-c85803ceeb5f"},"vehicle_type_id":"4","last_reported":1751710213,"current_range_meters":16000,"station_id":"ce4bhph2rcd13ifvqhdg","pricing_plan_id":"cebpf4jnsgd1na2vs0mg"},{"bike_id":"8501c7f1-4540-433a-9226-9677bd87b71a","system_id":"levelo_inurba_marseille","lat":43.21193,"lon":5.35078,"is_reserved":false,"is_disabled":false,"rental_uris":{"android":"levelo://app?vid=8501c7f1-4540-433a-9226-9677bd87b71a","ios":"levelo://app?vid=8501c7f1-4540-433a-9226-9677bd87b71a"},"vehicle_type_id":"4","last_reported":1751710213,"current_range_meters":16000,"station_id":"st_cvj6sg6p6f1abm77japg","pricing_plan_id":"cebpf4jnsgd1na2vs0mg"},{"bike_id":"b42152b4-75b7-4568-a2da-2da7b74ed3c4","system_id":"levelo_inurba_marseille","lat":43.21192,"lon":5.35072,"is_reserved":false,"is_disabled":false,"rental_uris":{"android":"levelo://app?vid=b42152b4-75b7-4568-a2da-2da7b74ed3c4","ios":"levelo://app?vid=b42152b4-75b7-4568-a2da-2da7b74ed3c4"},"vehicle_type_id":"4","last_reported":1751710213,"current_range_meters":16000,"station_id":"st_cvj6sg6p6f1abm77japg","pricing_plan_id":"cebpf4jnsgd1na2vs0mg"},{"bike_id":"adf1d38d-1f03-40cf-9b57-0a8f15f62b2d","system_id":"levelo_inurba_marseille","lat":43.32973,"lon":5.36341,"is_reserved":false,"is_disabled":false,"rental_uris":{"android":"levelo://app?vid=adf1d38d-1f03-40cf-9b57-0a8f15f62b2d","ios":"levelo://app?vid=adf1d38d-1f03-40cf-9b57-0a8f15f62b2d"},"vehicle_type_id":"4","last_reported":1751710213,"current_range_meters":16400,"station_id":"","pricing_plan_id":"cebpf4jnsgd1na2vs0mg"},{"bike_id":"3fc62123-78f7-4bfd-9645-67a7412e0768","system_id":"levelo_inurba_marseille","lat":43.2573,"lon":5.41107,"is_reserved":false,"is_disabled":false,"rental_uris":{"android":"levelo://app?vid=3fc62123-78f7-4bfd-9645-67a7412e0768","ios":"levelo://app?vid=3fc62123-78f7-4bfd-9645-67a7412e0768"},"vehicle_type_id":"4","last_reported":1751710213,"current_range_meters":16400,"station_id":"","pricing_plan_id":"cebpf4jnsgd1na2vs0mg"},{"bike_id":"9c9ee5ce-96a8-4043-8654-8a4e1303348b","system_id":"levelo_inurba_marseille","lat":43.29622,"lon":5.37169,"is_reserved":false,"is_disabled":false,"rental_uris":{"android":"levelo://app?vid=9c9ee5ce-96a8-4043-8654-8a4e1303348b","ios":"levelo://app?vid=9c9ee5ce-96a8-4043-8654-8a4e1303348b"},"vehicle_type_id":"4","last_reported":1751710213,"current_range_meters":16400,"station_id":"ce4bgnh2rcd13ifvqc0g","pricing_plan_id":"cebpf4jnsgd1na2vs0mg"},{"bike_id":"31be0345-8831-4dbb-b622-c244522123c6","system_id":"levelo_inurba_marseille","lat":43.2901,"lon":5.35614,"is_reserved":false,"is_disabled":false,"rental_uris":{"android":"levelo://app?vid=31be0345-8831-4dbb-b622-c244522123c6","ios":"levelo://app?vid=31be0345-8831-4dbb-b622-c244522123c6"},"vehicle_type_id":"4","last_reported":1751710213,"current_range_meters":16400,"station_id":"ce4bhb92rcd13ifvqen0","pricing_plan_id":"cebpf4jnsgd1na2vs0mg"},{"bike_id":"a6fe0581-5daf-4b07-9e14-c0bfec26b1cd","system_id":"levelo_inurba_marseille","lat":43.21759,"lon":5.34603,"is_reserved":false,"is_disabled":false,"rental_uris":{"android":"levelo://app?vid=a6fe0581-5daf-4b07-9e14-c0bfec26b1cd","ios":"levelo://app?vid=a6fe0581-5daf-4b07-9e14-c0bfec26b1cd"},"vehicle_type_id":"4","last_reported":1751710213,"current_range_meters":16400,"station_id":"st_cvj6r9ubvosntc0bgbag","pricing_plan_id":"cebpf4jnsgd1na2vs0mg"},{"bike_id":"cd6f91d4-bdaf-4e38-b4f5-14f6e83055e8","system_id":"levelo_inurba_marseille","lat":43.21194,"lon":5.3507,"is_reserved":false,"is_disabled":false,"rental_uris":{"android":"levelo://app?vid=cd6f91d4-bdaf-4e38-b4f5-14f6e83055e8","ios":"levelo://app?vid=cd6f91d4-bdaf-4e38-b4f5-14f6e83055e8"},"vehicle_type_id":"4","last_reported":1751710213,"current_range_meters":16400,"station_id":"st_cvj6sg6p6f1abm77japg","pricing_plan_id":"cebpf4jnsgd1na2vs0mg"},{"bike_id":"134a6fd1-cb8b-4ade-a0c2-0b22bf7dca76","system_id":"levelo_inurba_marseille","lat":43.21199,"lon":5.35073,"is_reserved":false,"is_disabled":false,"rental_uris":{"android":"levelo://app?vid=134a6fd1-cb8b-4ade-a0c2-0b22bf7dca76","ios":"levelo://app?vid=134a6fd1-cb8b-4ade-a0c2-0b22bf7dca76"},"vehicle_type_id":"4","last_reported":1751710213,"current_range_meters":16400,"station_id":"st_cvj6sg6p6f1abm77japg","pricing_plan_id":"cebpf4jnsgd1na2vs0mg"},{"bike_id":"856c776b-976c-4e7f-97c1-3dc27b8380dd","system_id":"levelo_inurba_marseille","lat":43.3164,"lon":5.38326,"is_reserved":false,"is_disabled":false,"rental_uris":{"android":"levelo://app?vid=856c776b-976c-4e7f-97c1-3dc27b8380dd","ios":"levelo://app?vid=856c776b-976c-4e7f-97c1-3dc27b8380dd"},"vehicle_type_id":"4","last_reported":1751710213,"current_range_meters":16800,"station_id":"","pricing_plan_id":"cebpf4jnsgd1na2vs0mg"},{"bike_id":"fe8ee84c-fdfc-40aa-a1c2-6e36409c0740","system_id":"levelo_inurba_marseille","lat":43.268267,"lon":5.390516,"is_reserved":false,"is_disabled":false,"rental_uris":{"android":"levelo://app?vid=fe8ee84c-fdfc-40aa-a1c2-6e36409c0740","ios":"levelo://app?vid=fe8ee84c-fdfc-40aa-a1c2-6e36409c0740"},"vehicle_type_id":"4","last_reported":1751710213,"current_range_meters":16800,"station_id":"","pricing_plan_id":"cebpf4jnsgd1na2vs0mg"},{"bike_id":"0d08dd55-3a95-4aae-9f80-d704d33d7ed1","system_id":"levelo_inurba_marseille","lat":43.2886,"lon":5.35858,"is_reserved":false,"is_disabled":false,"rental_uris":{"android":"levelo://app?vid=0d08dd55-3a95-4aae-9f80-d704d33d7ed1","ios":"levelo://app?vid=0d08dd55-3a95-4aae-9f80-d704d33d7ed1"},"vehicle_type_id":"4","last_reported":1751710213,"current_range_meters":16800,"station_id":"ce4bhb12rcd13ifvqem0","pricing_plan_id":"cebpf4jnsgd1na2vs0mg"},{"bike_id":"737f2911-fe7a-488c-93f8-4e83d0ff00b6","system_id":"levelo_inurba_marseille","lat":43.23961,"lon":5.3663,"is_reserved":false,"is_disabled":false,"rental_uris":{"android":"levelo://app?vid=737f2911-fe7a-488c-93f8-4e83d0ff00b6","ios":"levelo://app?vid=737f2911-fe7a-488c-93f8-4e83d0ff00b6"},"vehicle_type_id":"4","last_reported":1751710213,"current_range_meters":16800,"station_id":"ce4bhi12rcd13ifvqfp0","pricing_plan_id":"cebpf4jnsgd1na2vs0mg"},{"bike_id":"af366e0c-809f-4ded-8974-a209854fda87","system_id":"levelo_inurba_marseille","lat":43.30425,"lon":5.41291,"is_reserved":false,"is_disabled":false,"rental_uris":{"android":"levelo://app?vid=af366e0c-809f-4ded-8974-a209854fda87","ios":"levelo://app?vid=af366e0c-809f-4ded-8974-a209854fda87"},"vehicle_type_id":"4","last_reported":1751710213,"current_range_meters":16800,"station_id":"ce4bhop2rcd13ifvqh8g","pricing_plan_id":"cebpf4jnsgd1na2vs0mg"},{"bike_id":"7d7ca329-d013-418c-84c4-2b0666103eeb","system_id":"levelo_inurba_marseille","lat":43.29902,"lon":5.43671,"is_reserved":false,"is_disabled":false,"rental_uris":{"android":"levelo://app?vid=7d7ca329-d013-418c-84c4-2b0666103eeb","ios":"levelo://app?vid=7d7ca329-d013-418c-84c4-2b0666103eeb"},"vehicle_type_id":"4","last_reported":1751710213,"current_range_meters":16800,"station_id":"ce4bhpp2rcd13ifvqhfg","pricing_plan_id":"cebpf4jnsgd1na2vs0mg"},{"bike_id":"07ba84a8-f478-421c-96ed-6c0402ece04f","system_id":"levelo_inurba_marseille","lat":43.22937,"lon":5.35377,"is_reserved":false,"is_disabled":false,"rental_uris":{"android":"levelo://app?vid=07ba84a8-f478-421c-96ed-6c0402ece04f","ios":"levelo://app?vid=07ba84a8-f478-421c-96ed-6c0402ece04f"},"vehicle_type_id":"4","last_reported":1751710213,"current_range_meters":16800,"station_id":"cpo3532slgdg3j2ikp40","pricing_plan_id":"cebpf4jnsgd1na2vs0mg"},{"bike_id":"bb4a28ca-bcb8-4241-b0fb-7b24851d517f","system_id":"levelo_inurba_marseille","lat":43.212,"lon":5.35083,"is_reserved":false,"is_disabled":false,"rental_uris":{"android":"levelo://app?vid=bb4a28ca-bcb8-4241-b0fb-7b24851d517f","ios":"levelo://app?vid=bb4a28ca-bcb8-4241-b0fb-7b24851d517f"},"vehicle_type_id":"4","last_reported":1751710213,"current_range_meters":16800,"station_id":"st_cvj6sg6p6f1abm77japg","pricing_plan_id":"cebpf4jnsgd1na2vs0mg"},{"bike_id":"bf24b26e-7f51-4120-9a48-54c87edaa2f7","system_id":"levelo_inurba_marseille","lat":43.211898,"lon":5.350725,"is_reserved":false,"is_disabled":false,"rental_uris":{"android":"levelo://app?vid=bf24b26e-7f51-4120-9a48-54c87edaa2f7","ios":"levelo://app?vid=bf24b26e-7f51-4120-9a48-54c87edaa2f7"},"vehicle_type_id":"4","last_reported":1751710213,"current_range_meters":16800,"station_id":"st_cvj6sg6p6f1abm77japg","pricing_plan_id":"cebpf4jnsgd1na2vs0mg"},{"bike_id":"8a42812b-a6a1-406d-afe6-f3a1f04badd8","system_id":"levelo_inurba_marseille","lat":43.30857,"lon":5.36995,"is_reserved":false,"is_disabled":false,"rental_uris":{"android":"levelo://app?vid=8a42812b-a6a1-406d-afe6-f3a1f04badd8","ios":"levelo://app?vid=8a42812b-a6a1-406d-afe6-f3a1f04badd8"},"vehicle_type_id":"4","last_reported":1751710213,"current_range_meters":17200,"station_id":"","pricing_plan_id":"cebpf4jnsgd1na2vs0mg"},{"bike_id":"fdc30ccc-bb07-48aa-8852-54712696f420","system_id":"levelo_inurba_marseille","lat":43.29693,"lon":5.37297,"is_reserved":false,"is_disabled":false,"rental_uris":{"android":"levelo://app?vid=fdc30ccc-bb07-48aa-8852-54712696f420","ios":"levelo://app?vid=fdc30ccc-bb07-48aa-8852-54712696f420"},"vehicle_type_id":"4","last_reported":1751710213,"current_range_meters":17200,"station_id":"ce4bgk12rcd13ifvqbj0","pricing_plan_id":"cebpf4jnsgd1na2vs0mg"},{"bike_id":"5e4669bd-8536-4919-8da2-15409e182044","system_id":"levelo_inurba_marseille","lat":43.23161,"lon":5.43738,"is_reserved":false,"is_disabled":false,"rental_uris":{"android":"levelo://app?vid=5e4669bd-8536-4919-8da2-15409e182044","ios":"levelo://app?vid=5e4669bd-8536-4919-8da2-15409e182044"},"vehicle_type_id":"4","last_reported":1751710213,"current_range_meters":17200,"station_id":"ce4bhmp2rcd13ifvqgog","pricing_plan_id":"cebpf4jnsgd1na2vs0mg"},{"bike_id":"84303959-8cba-4981-9cd0-d7bbd107feff","system_id":"levelo_inurba_marseille","lat":43.30418,"lon":5.41275,"is_reserved":false,"is_disabled":false,"rental_uris":{"android":"levelo://app?vid=84303959-8cba-4981-9cd0-d7bbd107feff","ios":"levelo://app?vid=84303959-8cba-4981-9cd0-d7bbd107feff"},"vehicle_type_id":"4","last_reported":1751710213,"current_range_meters":17200,"station_id":"ce4bhop2rcd13ifvqh8g","pricing_plan_id":"cebpf4jnsgd1na2vs0mg"},{"bike_id":"c3236216-07d0-4f16-90b4-05a80c7d72b2","system_id":"levelo_inurba_marseille","lat":43.337444,"lon":5.374475,"is_reserved":false,"is_disabled":false,"rental_uris":{"android":"levelo://app?vid=c3236216-07d0-4f16-90b4-05a80c7d72b2","ios":"levelo://app?vid=c3236216-07d0-4f16-90b4-05a80c7d72b2"},"vehicle_type_id":"4","last_reported":1751710213,"current_range_meters":17600,"station_id":"","pricing_plan_id":"cebpf4jnsgd1na2vs0mg"},{"bike_id":"a432562a-30ff-4df9-a4a5-167573d04372","system_id":"levelo_inurba_marseille","lat":43.31716,"lon":5.40453,"is_reserved":false,"is_disabled":false,"rental_uris":{"android":"levelo://app?vid=a432562a-30ff-4df9-a4a5-167573d04372","ios":"levelo://app?vid=a432562a-30ff-4df9-a4a5-167573d04372"},"vehicle_type_id":"4","last_reported":1751710213,"current_range_meters":17600,"station_id":"ce4bh012rcd13ifvqd00","pricing_plan_id":"cebpf4jnsgd1na2vs0mg"},{"bike_id":"a9e86f9b-660c-4eae-9748-1d4e3d8cc7fb","system_id":"levelo_inurba_marseille","lat":43.28706,"lon":5.37398,"is_reserved":false,"is_disabled":false,"rental_uris":{"android":"levelo://app?vid=a9e86f9b-660c-4eae-9748-1d4e3d8cc7fb","ios":"levelo://app?vid=a9e86f9b-660c-4eae-9748-1d4e3d8cc7fb"},"vehicle_type_id":"4","last_reported":1751710213,"current_range_meters":17600,"station_id":"ce4bh3p2rcd13ifvqdq0","pricing_plan_id":"cebpf4jnsgd1na2vs0mg"},{"bike_id":"6982e1d2-a2a2-40f0-9994-1aabc7863f89","system_id":"levelo_inurba_marseille","lat":43.28406,"lon":5.37523,"is_reserved":false,"is_disabled":false,"rental_uris":{"android":"levelo://app?vid=6982e1d2-a2a2-40f0-9994-1aabc7863f89","ios":"levelo://app?vid=6982e1d2-a2a2-40f0-9994-1aabc7863f89"},"vehicle_type_id":"4","last_reported":1751710213,"current_range_meters":17600,"station_id":"ce4bh412rcd13ifvqds0","pricing_plan_id":"cebpf4jnsgd1na2vs0mg"},{"bike_id":"39ef1ebb-a970-46fe-a6aa-3398462b5997","system_id":"levelo_inurba_marseille","lat":43.28425,"lon":5.34975,"is_reserved":false,"is_disabled":false,"rental_uris":{"android":"levelo://app?vid=39ef1ebb-a970-46fe-a6aa-3398462b5997","ios":"levelo://app?vid=39ef1ebb-a970-46fe-a6aa-3398462b5997"},"vehicle_type_id":"4","last_reported":1751710213,"current_range_meters":17600,"station_id":"ce4bhbh2rcd13ifvqepg","pricing_plan_id":"cebpf4jnsgd1na2vs0mg"},{"bike_id":"e449aa29-cae1-4432-9aec-dedc13360b20","system_id":"levelo_inurba_marseille","lat":43.21186,"lon":5.35078,"is_reserved":false,"is_disabled":false,"rental_uris":{"android":"levelo://app?vid=e449aa29-cae1-4432-9aec-dedc13360b20","ios":"levelo://app?vid=e449aa29-cae1-4432-9aec-dedc13360b20"},"vehicle_type_id":"4","last_reported":1751710213,"current_range_meters":17600,"station_id":"st_cvj6sg6p6f1abm77japg","pricing_plan_id":"cebpf4jnsgd1na2vs0mg"},{"bike_id":"d5ef770d-9759-47e3-b3a5-7d2785ef76db","system_id":"levelo_inurba_marseille","lat":43.32968,"lon":5.38979,"is_reserved":false,"is_disabled":false,"rental_uris":{"android":"levelo://app?vid=d5ef770d-9759-47e3-b3a5-7d2785ef76db","ios":"levelo://app?vid=d5ef770d-9759-47e3-b3a5-7d2785ef76db"},"vehicle_type_id":"4","last_reported":1751710213,"current_range_meters":18000,"station_id":"","pricing_plan_id":"cebpf4jnsgd1na2vs0mg"},{"bike_id":"e4dbf1c3-4757-49d4-8af5-21502ec3b4bf","system_id":"levelo_inurba_marseille","lat":43.29223,"lon":5.36323,"is_reserved":false,"is_disabled":false,"rental_uris":{"android":"levelo://app?vid=e4dbf1c3-4757-49d4-8af5-21502ec3b4bf","ios":"levelo://app?vid=e4dbf1c3-4757-49d4-8af5-21502ec3b4bf"},"vehicle_type_id":"4","last_reported":1751710213,"current_range_meters":18000,"station_id":"","pricing_plan_id":"cebpf4jnsgd1na2vs0mg"},{"bike_id":"d15110b4-acbc-404e-acd2-fa9ee6a6835b","system_id":"levelo_inurba_marseille","lat":43.31226,"lon":5.36858,"is_reserved":false,"is_disabled":false,"rental_uris":{"android":"levelo://app?vid=d15110b4-acbc-404e-acd2-fa9ee6a6835b","ios":"levelo://app?vid=d15110b4-acbc-404e-acd2-fa9ee6a6835b"},"vehicle_type_id":"4","last_reported":1751710213,"current_range_meters":18000,"station_id":"ce4bgl92rcd13ifvqbq0","pricing_plan_id":"cebpf4jnsgd1na2vs0mg"},{"bike_id":"d5eb39cd-1ec8-451d-80bb-4bf30f801178","system_id":"levelo_inurba_marseille","lat":43.29203,"lon":5.35798,"is_reserved":false,"is_disabled":false,"rental_uris":{"android":"levelo://app?vid=d5eb39cd-1ec8-451d-80bb-4bf30f801178","ios":"levelo://app?vid=d5eb39cd-1ec8-451d-80bb-4bf30f801178"},"vehicle_type_id":"4","last_reported":1751710213,"current_range_meters":18000,"station_id":"ce4bhb12rcd13ifvqel0","pricing_plan_id":"cebpf4jnsgd1na2vs0mg"},{"bike_id":"96abcd12-174a-40cc-a07f-8c5cd8e18cf8","system_id":"levelo_inurba_marseille","lat":43.28855,"lon":5.35854,"is_reserved":false,"is_disabled":false,"rental_uris":{"android":"levelo://app?vid=96abcd12-174a-40cc-a07f-8c5cd8e18cf8","ios":"levelo://app?vid=96abcd12-174a-40cc-a07f-8c5cd8e18cf8"},"vehicle_type_id":"4","last_reported":1751710213,"current_range_meters":18000,"station_id":"ce4bhb12rcd13ifvqem0","pricing_plan_id":"cebpf4jnsgd1na2vs0mg"},{"bike_id":"222250ab-85fd-42c5-8946-bd9d32b6602e","system_id":"levelo_inurba_marseille","lat":43.26779,"lon":5.39419,"is_reserved":false,"is_disabled":false,"rental_uris":{"android":"levelo://app?vid=222250ab-85fd-42c5-8946-bd9d32b6602e","ios":"levelo://app?vid=222250ab-85fd-42c5-8946-bd9d32b6602e"},"vehicle_type_id":"4","last_reported":1751710213,"current_range_meters":18000,"station_id":"ce4bhh12rcd13ifvqfg0","pricing_plan_id":"cebpf4jnsgd1na2vs0mg"},{"bike_id":"84ecec0c-2f91-42a5-8791-abca74e53738","system_id":"levelo_inurba_marseille","lat":43.262067,"lon":5.379277,"is_reserved":false,"is_disabled":false,"rental_uris":{"android":"levelo://app?vid=84ecec0c-2f91-42a5-8791-abca74e53738","ios":"levelo://app?vid=84ecec0c-2f91-42a5-8791-abca74e53738"},"vehicle_type_id":"4","last_reported":1751710213,"current_range_meters":18000,"station_id":"ce4bhjp2rcd13ifvqg90","pricing_plan_id":"cebpf4jnsgd1na2vs0mg"},{"bike_id":"f4014af3-6f05-416d-9154-ce76f684dda3","system_id":"levelo_inurba_marseille","lat":43.27517,"lon":5.42507,"is_reserved":false,"is_disabled":false,"rental_uris":{"android":"levelo://app?vid=f4014af3-6f05-416d-9154-ce76f684dda3","ios":"levelo://app?vid=f4014af3-6f05-416d-9154-ce76f684dda3"},"vehicle_type_id":"4","last_reported":1751710213,"current_range_meters":18000,"station_id":"ce4bhn92rcd13ifvqgrg","pricing_plan_id":"cebpf4jnsgd1na2vs0mg"},{"bike_id":"0e07b02e-70b9-4d1c-8708-3554fa9b3848","system_id":"levelo_inurba_marseille","lat":43.231899,"lon":5.355564,"is_reserved":false,"is_disabled":false,"rental_uris":{"android":"levelo://app?vid=0e07b02e-70b9-4d1c-8708-3554fa9b3848","ios":"levelo://app?vid=0e07b02e-70b9-4d1c-8708-3554fa9b3848"},"vehicle_type_id":"4","last_reported":1751710213,"current_range_meters":18000,"station_id":"ce4bhu92rcd13ifvqi70","pricing_plan_id":"cebpf4jnsgd1na2vs0mg"},{"bike_id":"452e8211-4f44-45d0-814a-3e9e25b8c44e","system_id":"levelo_inurba_marseille","lat":43.211919,"lon":5.350739,"is_reserved":false,"is_disabled":false,"rental_uris":{"android":"levelo://app?vid=452e8211-4f44-45d0-814a-3e9e25b8c44e","ios":"levelo://app?vid=452e8211-4f44-45d0-814a-3e9e25b8c44e"},"vehicle_type_id":"4","last_reported":1751710213,"current_range_meters":18000,"station_id":"st_cvj6sg6p6f1abm77japg","pricing_plan_id":"cebpf4jnsgd1na2vs0mg"},{"bike_id":"0f7223ee-118a-4e7e-b9de-7d2675177506","system_id":"levelo_inurba_marseille","lat":43.30555,"lon":5.36442,"is_reserved":false,"is_disabled":false,"rental_uris":{"android":"levelo://app?vid=0f7223ee-118a-4e7e-b9de-7d2675177506","ios":"levelo://app?vid=0f7223ee-118a-4e7e-b9de-7d2675177506"},"vehicle_type_id":"4","last_reported":1751710213,"current_range_meters":18800,"station_id":"","pricing_plan_id":"cebpf4jnsgd1na2vs0mg"},{"bike_id":"8b885149-cf7a-4df4-824d-7d686b7d76d4","system_id":"levelo_inurba_marseille","lat":43.280429,"lon":5.408799,"is_reserved":false,"is_disabled":false,"rental_uris":{"android":"levelo://app?vid=8b885149-cf7a-4df4-824d-7d686b7d76d4","ios":"levelo://app?vid=8b885149-cf7a-4df4-824d-7d686b7d76d4"},"vehicle_type_id":"4","last_reported":1751710213,"current_range_meters":18800,"station_id":"","pricing_plan_id":"cebpf4jnsgd1na2vs0mg"},{"bike_id":"fb204c65-a928-4b8b-b309-eab1439f4930","system_id":"levelo_inurba_marseille","lat":43.30185,"lon":5.36591,"is_reserved":false,"is_disabled":false,"rental_uris":{"android":"levelo://app?vid=fb204c65-a928-4b8b-b309-eab1439f4930","ios":"levelo://app?vid=fb204c65-a928-4b8b-b309-eab1439f4930"},"vehicle_type_id":"4","last_reported":1751710213,"current_range_meters":18800,"station_id":"ce4bgrh2rcd13ifvqc8g","pricing_plan_id":"cebpf4jnsgd1na2vs0mg"},{"bike_id":"30c5f82e-69a5-4464-95de-82bfcc1d606a","system_id":"levelo_inurba_marseille","lat":43.28621,"lon":5.35111,"is_reserved":false,"is_disabled":false,"rental_uris":{"android":"levelo://app?vid=30c5f82e-69a5-4464-95de-82bfcc1d606a","ios":"levelo://app?vid=30c5f82e-69a5-4464-95de-82bfcc1d606a"},"vehicle_type_id":"4","last_reported":1751710213,"current_range_meters":18800,"station_id":"ce4bhch2rcd13ifvqeug","pricing_plan_id":"cebpf4jnsgd1na2vs0mg"},{"bike_id":"93231530-e254-490c-b418-f2ae68525929","system_id":"levelo_inurba_marseille","lat":43.32473,"lon":5.36577,"is_reserved":false,"is_disabled":false,"rental_uris":{"android":"levelo://app?vid=93231530-e254-490c-b418-f2ae68525929","ios":"levelo://app?vid=93231530-e254-490c-b418-f2ae68525929"},"vehicle_type_id":"4","last_reported":1751710213,"current_range_meters":18800,"station_id":"ce4bhs12rcd13ifvqhvg","pricing_plan_id":"cebpf4jnsgd1na2vs0mg"},{"bike_id":"98aac28d-b860-4179-8d39-1798550d6dac","system_id":"levelo_inurba_marseille","lat":43.211932,"lon":5.350696,"is_reserved":false,"is_disabled":false,"rental_uris":{"android":"levelo://app?vid=98aac28d-b860-4179-8d39-1798550d6dac","ios":"levelo://app?vid=98aac28d-b860-4179-8d39-1798550d6dac"},"vehicle_type_id":"4","last_reported":1751710213,"current_range_meters":18800,"station_id":"st_cvj6sg6p6f1abm77japg","pricing_plan_id":"cebpf4jnsgd1na2vs0mg"},{"bike_id":"655a110d-474d-43b1-a203-d9e462e1a783","system_id":"levelo_inurba_marseille","lat":43.21184,"lon":5.35088,"is_reserved":false,"is_disabled":false,"rental_uris":{"android":"levelo://app?vid=655a110d-474d-43b1-a203-d9e462e1a783","ios":"levelo://app?vid=655a110d-474d-43b1-a203-d9e462e1a783"},"vehicle_type_id":"4","last_reported":1751710213,"current_range_meters":18800,"station_id":"st_cvj6sg6p6f1abm77japg","pricing_plan_id":"cebpf4jnsgd1na2vs0mg"},{"bike_id":"1608218e-ab67-4f6b-8130-1c59efb738f0","system_id":"levelo_inurba_marseille","lat":43.23962,"lon":5.36629,"is_reserved":false,"is_disabled":false,"rental_uris":{"android":"levelo://app?vid=1608218e-ab67-4f6b-8130-1c59efb738f0","ios":"levelo://app?vid=1608218e-ab67-4f6b-8130-1c59efb738f0"},"vehicle_type_id":"4","last_reported":1751710213,"current_range_meters":19200,"station_id":"ce4bhi12rcd13ifvqfp0","pricing_plan_id":"cebpf4jnsgd1na2vs0mg"},{"bike_id":"09cb21a0-3997-440c-82b7-1c9d4bbfaeb7","system_id":"levelo_inurba_marseille","lat":43.330136,"lon":5.390416,"is_reserved":false,"is_disabled":false,"rental_uris":{"android":"levelo://app?vid=09cb21a0-3997-440c-82b7-1c9d4bbfaeb7","ios":"levelo://app?vid=09cb21a0-3997-440c-82b7-1c9d4bbfaeb7"},"vehicle_type_id":"4","last_reported":1751710213,"current_range_meters":19200,"station_id":"ce4bhr92rcd13ifvqhrg","pricing_plan_id":"cebpf4jnsgd1na2vs0mg"},{"bike_id":"30daf87a-5e7d-42b3-ac97-c9dfd23296b5","system_id":"levelo_inurba_marseille","lat":43.32479,"lon":5.36582,"is_reserved":false,"is_disabled":false,"rental_uris":{"android":"levelo://app?vid=30daf87a-5e7d-42b3-ac97-c9dfd23296b5","ios":"levelo://app?vid=30daf87a-5e7d-42b3-ac97-c9dfd23296b5"},"vehicle_type_id":"4","last_reported":1751710213,"current_range_meters":19200,"station_id":"ce4bhs12rcd13ifvqhvg","pricing_plan_id":"cebpf4jnsgd1na2vs0mg"},{"bike_id":"8bf0d992-d2a0-428e-940a-091ee9b7c2a4","system_id":"levelo_inurba_marseille","lat":43.21193,"lon":5.35075,"is_reserved":false,"is_disabled":false,"rental_uris":{"android":"levelo://app?vid=8bf0d992-d2a0-428e-940a-091ee9b7c2a4","ios":"levelo://app?vid=8bf0d992-d2a0-428e-940a-091ee9b7c2a4"},"vehicle_type_id":"4","last_reported":1751710213,"current_range_meters":19200,"station_id":"st_cvj6sg6p6f1abm77japg","pricing_plan_id":"cebpf4jnsgd1na2vs0mg"},{"bike_id":"dcf20e92-f381-494c-9040-27a039ba03ba","system_id":"levelo_inurba_marseille","lat":43.29954,"lon":5.36565,"is_reserved":false,"is_disabled":false,"rental_uris":{"android":"levelo://app?vid=dcf20e92-f381-494c-9040-27a039ba03ba","ios":"levelo://app?vid=dcf20e92-f381-494c-9040-27a039ba03ba"},"vehicle_type_id":"4","last_reported":1751710213,"current_range_meters":19600,"station_id":"ce4bgm92rcd13ifvqbr0","pricing_plan_id":"cebpf4jnsgd1na2vs0mg"},{"bike_id":"01fb358b-a9b7-4213-934f-01d1f2c27264","system_id":"levelo_inurba_marseille","lat":43.287,"lon":5.37398,"is_reserved":false,"is_disabled":false,"rental_uris":{"android":"levelo://app?vid=01fb358b-a9b7-4213-934f-01d1f2c27264","ios":"levelo://app?vid=01fb358b-a9b7-4213-934f-01d1f2c27264"},"vehicle_type_id":"4","last_reported":1751710213,"current_range_meters":19600,"station_id":"ce4bh3p2rcd13ifvqdq0","pricing_plan_id":"cebpf4jnsgd1na2vs0mg"},{"bike_id":"9524b36a-4113-4f16-9e8a-1ef7930140ae","system_id":"levelo_inurba_marseille","lat":43.28402,"lon":5.37518,"is_reserved":false,"is_disabled":false,"rental_uris":{"android":"levelo://app?vid=9524b36a-4113-4f16-9e8a-1ef7930140ae","ios":"levelo://app?vid=9524b36a-4113-4f16-9e8a-1ef7930140ae"},"vehicle_type_id":"4","last_reported":1751710213,"current_range_meters":19600,"station_id":"ce4bh412rcd13ifvqds0","pricing_plan_id":"cebpf4jnsgd1na2vs0mg"},{"bike_id":"9afd8f8c-1d8d-439b-bb60-e1a1b0fb1c81","system_id":"levelo_inurba_marseille","lat":43.29193,"lon":5.35769,"is_reserved":false,"is_disabled":false,"rental_uris":{"android":"levelo://app?vid=9afd8f8c-1d8d-439b-bb60-e1a1b0fb1c81","ios":"levelo://app?vid=9afd8f8c-1d8d-439b-bb60-e1a1b0fb1c81"},"vehicle_type_id":"4","last_reported":1751710213,"current_range_meters":19600,"station_id":"ce4bhb12rcd13ifvqel0","pricing_plan_id":"cebpf4jnsgd1na2vs0mg"},{"bike_id":"9da73e4f-d9db-443d-bb7d-3321678cea21","system_id":"levelo_inurba_marseille","lat":43.28266,"lon":5.35068,"is_reserved":false,"is_disabled":false,"rental_uris":{"android":"levelo://app?vid=9da73e4f-d9db-443d-bb7d-3321678cea21","ios":"levelo://app?vid=9da73e4f-d9db-443d-bb7d-3321678cea21"},"vehicle_type_id":"4","last_reported":1751710213,"current_range_meters":19600,"station_id":"ce4bhbp2rcd13ifvqerg","pricing_plan_id":"cebpf4jnsgd1na2vs0mg"},{"bike_id":"91ac7b32-4c9f-465d-a2ec-4a0aaa47063b","system_id":"levelo_inurba_marseille","lat":43.26218,"lon":5.37454,"is_reserved":false,"is_disabled":false,"rental_uris":{"android":"levelo://app?vid=91ac7b32-4c9f-465d-a2ec-4a0aaa47063b","ios":"levelo://app?vid=91ac7b32-4c9f-465d-a2ec-4a0aaa47063b"},"vehicle_type_id":"4","last_reported":1751710213,"current_range_meters":19600,"station_id":"ce4bhgp2rcd13ifvqfc0","pricing_plan_id":"cebpf4jnsgd1na2vs0mg"},{"bike_id":"76558ac1-6d67-42d3-99cc-0b13879ac5f0","system_id":"levelo_inurba_marseille","lat":43.25579,"lon":5.38261,"is_reserved":false,"is_disabled":false,"rental_uris":{"android":"levelo://app?vid=76558ac1-6d67-42d3-99cc-0b13879ac5f0","ios":"levelo://app?vid=76558ac1-6d67-42d3-99cc-0b13879ac5f0"},"vehicle_type_id":"4","last_reported":1751710213,"current_range_meters":19600,"station_id":"ce4bhih2rcd13ifvqfs0","pricing_plan_id":"cebpf4jnsgd1na2vs0mg"},{"bike_id":"ed4e39d1-3e16-40d8-a89c-f536b7cba98a","system_id":"levelo_inurba_marseille","lat":43.295589,"lon":5.422853,"is_reserved":false,"is_disabled":false,"rental_uris":{"android":"levelo://app?vid=ed4e39d1-3e16-40d8-a89c-f536b7cba98a","ios":"levelo://app?vid=ed4e39d1-3e16-40d8-a89c-f536b7cba98a"},"vehicle_type_id":"4","last_reported":1751710213,"current_range_meters":19600,"station_id":"ce4bhph2rcd13ifvqhdg","pricing_plan_id":"cebpf4jnsgd1na2vs0mg"},{"bike_id":"2e9ecc0a-afc7-4316-ac0c-3ab173435e83","system_id":"levelo_inurba_marseille","lat":43.232067,"lon":5.35527,"is_reserved":false,"is_disabled":false,"rental_uris":{"android":"levelo://app?vid=2e9ecc0a-afc7-4316-ac0c-3ab173435e83","ios":"levelo://app?vid=2e9ecc0a-afc7-4316-ac0c-3ab173435e83"},"vehicle_type_id":"4","last_reported":1751710213,"current_range_meters":19600,"station_id":"ce4bhu92rcd13ifvqi70","pricing_plan_id":"cebpf4jnsgd1na2vs0mg"},{"bike_id":"8a80cc87-62c0-4341-b180-1e6789396f75","system_id":"levelo_inurba_marseille","lat":43.30547,"lon":5.38417,"is_reserved":false,"is_disabled":false,"rental_uris":{"android":"levelo://app?vid=8a80cc87-62c0-4341-b180-1e6789396f75","ios":"levelo://app?vid=8a80cc87-62c0-4341-b180-1e6789396f75"},"vehicle_type_id":"4","last_reported":1751710213,"current_range_meters":20000,"station_id":"ce4bgg92rcd13ifvqb30","pricing_plan_id":"cebpf4jnsgd1na2vs0mg"},{"bike_id":"3aef5e57-aede-456f-af0d-4d6321d09034","system_id":"levelo_inurba_marseille","lat":43.29541,"lon":5.38545,"is_reserved":false,"is_disabled":false,"rental_uris":{"android":"levelo://app?vid=3aef5e57-aede-456f-af0d-4d6321d09034","ios":"levelo://app?vid=3aef5e57-aede-456f-af0d-4d6321d09034"},"vehicle_type_id":"4","last_reported":1751710213,"current_range_meters":20000,"station_id":"ce4bgih2rcd13ifvqba0","pricing_plan_id":"cebpf4jnsgd1na2vs0mg"},{"bike_id":"797df024-71d5-4fe9-b692-f9217865c24f","system_id":"levelo_inurba_marseille","lat":43.29093,"lon":5.37197,"is_reserved":false,"is_disabled":false,"rental_uris":{"android":"levelo://app?vid=797df024-71d5-4fe9-b692-f9217865c24f","ios":"levelo://app?vid=797df024-71d5-4fe9-b692-f9217865c24f"},"vehicle_type_id":"4","last_reported":1751710213,"current_range_meters":20000,"station_id":"ce4bh5p2rcd13ifvqe4g","pricing_plan_id":"cebpf4jnsgd1na2vs0mg"},{"bike_id":"294c55ac-c8ae-4f49-bc9e-29d799a8277e","system_id":"levelo_inurba_marseille","lat":43.30531,"lon":5.36546,"is_reserved":false,"is_disabled":false,"rental_uris":{"android":"levelo://app?vid=294c55ac-c8ae-4f49-bc9e-29d799a8277e","ios":"levelo://app?vid=294c55ac-c8ae-4f49-bc9e-29d799a8277e"},"vehicle_type_id":"4","last_reported":1751710213,"current_range_meters":20400,"station_id":"ce4bgs12rcd13ifvqcag","pricing_plan_id":"cebpf4jnsgd1na2vs0mg"},{"bike_id":"acf7add9-2b6b-4461-ba13-8befa6900f00","system_id":"levelo_inurba_marseille","lat":43.30139,"lon":5.39849,"is_reserved":false,"is_disabled":false,"rental_uris":{"android":"levelo://app?vid=acf7add9-2b6b-4461-ba13-8befa6900f00","ios":"levelo://app?vid=acf7add9-2b6b-4461-ba13-8befa6900f00"},"vehicle_type_id":"4","last_reported":1751710213,"current_range_meters":20400,"station_id":"ce4bh0h2rcd13ifvqd40","pricing_plan_id":"cebpf4jnsgd1na2vs0mg"},{"bike_id":"19e6ae47-b78e-44e7-bb87-e1a69c82962e","system_id":"levelo_inurba_marseille","lat":43.286164,"lon":5.351039,"is_reserved":false,"is_disabled":false,"rental_uris":{"android":"levelo://app?vid=19e6ae47-b78e-44e7-bb87-e1a69c82962e","ios":"levelo://app?vid=19e6ae47-b78e-44e7-bb87-e1a69c82962e"},"vehicle_type_id":"4","last_reported":1751710213,"current_range_meters":20400,"station_id":"ce4bhbh2rcd13ifvqeqg","pricing_plan_id":"cebpf4jnsgd1na2vs0mg"},{"bike_id":"5b4aa88a-4b12-4a21-b5e3-d5408de94f84","system_id":"levelo_inurba_marseille","lat":43.28616,"lon":5.35129,"is_reserved":false,"is_disabled":false,"rental_uris":{"android":"levelo://app?vid=5b4aa88a-4b12-4a21-b5e3-d5408de94f84","ios":"levelo://app?vid=5b4aa88a-4b12-4a21-b5e3-d5408de94f84"},"vehicle_type_id":"4","last_reported":1751710213,"current_range_meters":20400,"station_id":"ce4bhch2rcd13ifvqeug","pricing_plan_id":"cebpf4jnsgd1na2vs0mg"},{"bike_id":"e6323487-69d3-4f71-b324-18a87c1092c4","system_id":"levelo_inurba_marseille","lat":43.286152,"lon":5.370664,"is_reserved":false,"is_disabled":false,"rental_uris":{"android":"levelo://app?vid=e6323487-69d3-4f71-b324-18a87c1092c4","ios":"levelo://app?vid=e6323487-69d3-4f71-b324-18a87c1092c4"},"vehicle_type_id":"4","last_reported":1751710213,"current_range_meters":20400,"station_id":"ce4bht12rcd13ifvqi60","pricing_plan_id":"cebpf4jnsgd1na2vs0mg"},{"bike_id":"d1f9d37d-b429-4583-912e-805cf3889e65","system_id":"levelo_inurba_marseille","lat":43.23192,"lon":5.35563,"is_reserved":false,"is_disabled":false,"rental_uris":{"android":"levelo://app?vid=d1f9d37d-b429-4583-912e-805cf3889e65","ios":"levelo://app?vid=d1f9d37d-b429-4583-912e-805cf3889e65"},"vehicle_type_id":"4","last_reported":1751710213,"current_range_meters":20400,"station_id":"ce4bhu92rcd13ifvqi70","pricing_plan_id":"cebpf4jnsgd1na2vs0mg"},{"bike_id":"80955d0f-8669-4c02-b90f-c6fe20790c37","system_id":"levelo_inurba_marseille","lat":43.23204,"lon":5.35057,"is_reserved":false,"is_disabled":false,"rental_uris":{"android":"levelo://app?vid=80955d0f-8669-4c02-b90f-c6fe20790c37","ios":"levelo://app?vid=80955d0f-8669-4c02-b90f-c6fe20790c37"},"vehicle_type_id":"4","last_reported":1751710213,"current_range_meters":20800,"station_id":"","pricing_plan_id":"cebpf4jnsgd1na2vs0mg"},{"bike_id":"2f19777e-a4f7-49bc-93f0-d501daf3f86f","system_id":"levelo_inurba_marseille","lat":43.288457,"lon":5.393097,"is_reserved":false,"is_disabled":false,"rental_uris":{"android":"levelo://app?vid=2f19777e-a4f7-49bc-93f0-d501daf3f86f","ios":"levelo://app?vid=2f19777e-a4f7-49bc-93f0-d501daf3f86f"},"vehicle_type_id":"4","last_reported":1751710213,"current_range_meters":20800,"station_id":"ce4bh2p2rcd13ifvqdi0","pricing_plan_id":"cebpf4jnsgd1na2vs0mg"},{"bike_id":"b76d88a9-e9ba-4974-9987-401ff063a439","system_id":"levelo_inurba_marseille","lat":43.2622,"lon":5.3747,"is_reserved":false,"is_disabled":false,"rental_uris":{"android":"levelo://app?vid=b76d88a9-e9ba-4974-9987-401ff063a439","ios":"levelo://app?vid=b76d88a9-e9ba-4974-9987-401ff063a439"},"vehicle_type_id":"4","last_reported":1751710213,"current_range_meters":20800,"station_id":"ce4bhgp2rcd13ifvqfc0","pricing_plan_id":"cebpf4jnsgd1na2vs0mg"},{"bike_id":"a8766dd4-469b-4143-b5b2-4a2608eb46fc","system_id":"levelo_inurba_marseille","lat":43.270077,"lon":5.365854,"is_reserved":false,"is_disabled":false,"rental_uris":{"android":"levelo://app?vid=a8766dd4-469b-4143-b5b2-4a2608eb46fc","ios":"levelo://app?vid=a8766dd4-469b-4143-b5b2-4a2608eb46fc"},"vehicle_type_id":"4","last_reported":1751710213,"current_range_meters":20800,"station_id":"ce4bhh12rcd13ifvqff0","pricing_plan_id":"cebpf4jnsgd1na2vs0mg"},{"bike_id":"84e1c2fa-2460-4466-8768-91aff3d7bbea","system_id":"levelo_inurba_marseille","lat":43.23149,"lon":5.4371,"is_reserved":false,"is_disabled":false,"rental_uris":{"android":"levelo://app?vid=84e1c2fa-2460-4466-8768-91aff3d7bbea","ios":"levelo://app?vid=84e1c2fa-2460-4466-8768-91aff3d7bbea"},"vehicle_type_id":"4","last_reported":1751710213,"current_range_meters":20800,"station_id":"ce4bhmp2rcd13ifvqgog","pricing_plan_id":"cebpf4jnsgd1na2vs0mg"},{"bike_id":"cc77c888-9da2-42df-aab4-55bd18e3864f","system_id":"levelo_inurba_marseille","lat":43.295575,"lon":5.422799,"is_reserved":false,"is_disabled":false,"rental_uris":{"android":"levelo://app?vid=cc77c888-9da2-42df-aab4-55bd18e3864f","ios":"levelo://app?vid=cc77c888-9da2-42df-aab4-55bd18e3864f"},"vehicle_type_id":"4","last_reported":1751710213,"current_range_meters":20800,"station_id":"ce4bhph2rcd13ifvqhdg","pricing_plan_id":"cebpf4jnsgd1na2vs0mg"},{"bike_id":"3b22f952-d0bc-4c00-8fd3-7e27b88aea23","system_id":"levelo_inurba_marseille","lat":43.29659,"lon":5.36245,"is_reserved":false,"is_disabled":false,"rental_uris":{"android":"levelo://app?vid=3b22f952-d0bc-4c00-8fd3-7e27b88aea23","ios":"levelo://app?vid=3b22f952-d0bc-4c00-8fd3-7e27b88aea23"},"vehicle_type_id":"4","last_reported":1751710213,"current_range_meters":21600,"station_id":"","pricing_plan_id":"cebpf4jnsgd1na2vs0mg"},{"bike_id":"320e0afe-82ff-4a1c-8185-217bf4a1cf2a","system_id":"levelo_inurba_marseille","lat":43.298014,"lon":5.404112,"is_reserved":false,"is_disabled":false,"rental_uris":{"android":"levelo://app?vid=320e0afe-82ff-4a1c-8185-217bf4a1cf2a","ios":"levelo://app?vid=320e0afe-82ff-4a1c-8185-217bf4a1cf2a"},"vehicle_type_id":"4","last_reported":1751710213,"current_range_meters":21600,"station_id":"ce4bh112rcd13ifvqd90","pricing_plan_id":"cebpf4jnsgd1na2vs0mg"},{"bike_id":"3a299888-1ae9-4f1c-9d61-8baec94abd76","system_id":"levelo_inurba_marseille","lat":43.28694,"lon":5.37387,"is_reserved":false,"is_disabled":false,"rental_uris":{"android":"levelo://app?vid=3a299888-1ae9-4f1c-9d61-8baec94abd76","ios":"levelo://app?vid=3a299888-1ae9-4f1c-9d61-8baec94abd76"},"vehicle_type_id":"4","last_reported":1751710213,"current_range_meters":21600,"station_id":"ce4bh3p2rcd13ifvqdq0","pricing_plan_id":"cebpf4jnsgd1na2vs0mg"},{"bike_id":"15cdaaab-e2d4-4774-b5e0-5eeaa609d661","system_id":"levelo_inurba_marseille","lat":43.27375,"lon":5.36256,"is_reserved":false,"is_disabled":false,"rental_uris":{"android":"levelo://app?vid=15cdaaab-e2d4-4774-b5e0-5eeaa609d661","ios":"levelo://app?vid=15cdaaab-e2d4-4774-b5e0-5eeaa609d661"},"vehicle_type_id":"4","last_reported":1751710213,"current_range_meters":21600,"station_id":"ce4bhbh2rcd13ifvqeo0","pricing_plan_id":"cebpf4jnsgd1na2vs0mg"},{"bike_id":"37f2becd-23f9-4f13-a711-38b8024eeec7","system_id":"levelo_inurba_marseille","lat":43.33768,"lon":5.37516,"is_reserved":false,"is_disabled":false,"rental_uris":{"android":"levelo://app?vid=37f2becd-23f9-4f13-a711-38b8024eeec7","ios":"levelo://app?vid=37f2becd-23f9-4f13-a711-38b8024eeec7"},"vehicle_type_id":"4","last_reported":1751710213,"current_range_meters":22000,"station_id":"","pricing_plan_id":"cebpf4jnsgd1na2vs0mg"},{"bike_id":"92d0ddd3-3451-40b8-8531-399cc1a2a2c1","system_id":"levelo_inurba_marseille","lat":43.24813,"lon":5.3745,"is_reserved":false,"is_disabled":false,"rental_uris":{"android":"levelo://app?vid=92d0ddd3-3451-40b8-8531-399cc1a2a2c1","ios":"levelo://app?vid=92d0ddd3-3451-40b8-8531-399cc1a2a2c1"},"vehicle_type_id":"4","last_reported":1751710213,"current_range_meters":22000,"station_id":"ce4bhgh2rcd13ifvqfb0","pricing_plan_id":"cebpf4jnsgd1na2vs0mg"},{"bike_id":"ad2680c8-d576-4827-a92d-56a138fac135","system_id":"levelo_inurba_marseille","lat":43.28156,"lon":5.42646,"is_reserved":false,"is_disabled":false,"rental_uris":{"android":"levelo://app?vid=ad2680c8-d576-4827-a92d-56a138fac135","ios":"levelo://app?vid=ad2680c8-d576-4827-a92d-56a138fac135"},"vehicle_type_id":"4","last_reported":1751710213,"current_range_meters":22000,"station_id":"ce4bhnh2rcd13ifvqgug","pricing_plan_id":"cebpf4jnsgd1na2vs0mg"},{"bike_id":"d0e04904-9db2-4424-bdc3-c864c216422c","system_id":"levelo_inurba_marseille","lat":43.23175,"lon":5.35514,"is_reserved":false,"is_disabled":false,"rental_uris":{"android":"levelo://app?vid=d0e04904-9db2-4424-bdc3-c864c216422c","ios":"levelo://app?vid=d0e04904-9db2-4424-bdc3-c864c216422c"},"vehicle_type_id":"4","last_reported":1751710213,"current_range_meters":22000,"station_id":"ce4bhu92rcd13ifvqi70","pricing_plan_id":"cebpf4jnsgd1na2vs0mg"},{"bike_id":"d0f90c24-dd03-411b-9731-55305f76b7c8","system_id":"levelo_inurba_marseille","lat":43.211944,"lon":5.350727,"is_reserved":false,"is_disabled":false,"rental_uris":{"android":"levelo://app?vid=d0f90c24-dd03-411b-9731-55305f76b7c8","ios":"levelo://app?vid=d0f90c24-dd03-411b-9731-55305f76b7c8"},"vehicle_type_id":"4","last_reported":1751710213,"current_range_meters":22000,"station_id":"st_cvj6sg6p6f1abm77japg","pricing_plan_id":"cebpf4jnsgd1na2vs0mg"},{"bike_id":"aef2da19-2977-4eaa-9a1d-cfd2b08ce3a1","system_id":"levelo_inurba_marseille","lat":43.28362,"lon":5.41895,"is_reserved":false,"is_disabled":false,"rental_uris":{"android":"levelo://app?vid=aef2da19-2977-4eaa-9a1d-cfd2b08ce3a1","ios":"levelo://app?vid=aef2da19-2977-4eaa-9a1d-cfd2b08ce3a1"},"vehicle_type_id":"4","last_reported":1751710213,"current_range_meters":22400,"station_id":"","pricing_plan_id":"cebpf4jnsgd1na2vs0mg"},{"bike_id":"7949a3e0-8ec0-4ccd-bef0-8d60ccbb1523","system_id":"levelo_inurba_marseille","lat":43.25005,"lon":5.38927,"is_reserved":false,"is_disabled":false,"rental_uris":{"android":"levelo://app?vid=7949a3e0-8ec0-4ccd-bef0-8d60ccbb1523","ios":"levelo://app?vid=7949a3e0-8ec0-4ccd-bef0-8d60ccbb1523"},"vehicle_type_id":"4","last_reported":1751710213,"current_range_meters":22400,"station_id":"ce4bhgp2rcd13ifvqfd0","pricing_plan_id":"cebpf4jnsgd1na2vs0mg"},{"bike_id":"36d8b0e8-f72d-4afe-a4ec-33151fbaf481","system_id":"levelo_inurba_marseille","lat":43.273103,"lon":5.390755,"is_reserved":false,"is_disabled":false,"rental_uris":{"android":"levelo://app?vid=36d8b0e8-f72d-4afe-a4ec-33151fbaf481","ios":"levelo://app?vid=36d8b0e8-f72d-4afe-a4ec-33151fbaf481"},"vehicle_type_id":"4","last_reported":1751710213,"current_range_meters":22400,"station_id":"ce4bhgp2rcd13ifvqfe0","pricing_plan_id":"cebpf4jnsgd1na2vs0mg"},{"bike_id":"ccf7a193-bfcb-4cdd-8129-01166f6a08b8","system_id":"levelo_inurba_marseille","lat":43.24386,"lon":5.37061,"is_reserved":false,"is_disabled":false,"rental_uris":{"android":"levelo://app?vid=ccf7a193-bfcb-4cdd-8129-01166f6a08b8","ios":"levelo://app?vid=ccf7a193-bfcb-4cdd-8129-01166f6a08b8"},"vehicle_type_id":"4","last_reported":1751710213,"current_range_meters":22400,"station_id":"ce4bhhh2rcd13ifvqfk0","pricing_plan_id":"cebpf4jnsgd1na2vs0mg"},{"bike_id":"8215b68b-980e-4e99-9c84-f7e3774ada4f","system_id":"levelo_inurba_marseille","lat":43.28147,"lon":5.42617,"is_reserved":false,"is_disabled":false,"rental_uris":{"android":"levelo://app?vid=8215b68b-980e-4e99-9c84-f7e3774ada4f","ios":"levelo://app?vid=8215b68b-980e-4e99-9c84-f7e3774ada4f"},"vehicle_type_id":"4","last_reported":1751710213,"current_range_meters":22400,"station_id":"ce4bhnh2rcd13ifvqgug","pricing_plan_id":"cebpf4jnsgd1na2vs0mg"},{"bike_id":"d2bcc1cf-2af1-43c3-9223-1fe477e4c6fa","system_id":"levelo_inurba_marseille","lat":43.295526,"lon":5.422882,"is_reserved":false,"is_disabled":false,"rental_uris":{"android":"levelo://app?vid=d2bcc1cf-2af1-43c3-9223-1fe477e4c6fa","ios":"levelo://app?vid=d2bcc1cf-2af1-43c3-9223-1fe477e4c6fa"},"vehicle_type_id":"4","last_reported":1751710213,"current_range_meters":22400,"station_id":"ce4bhph2rcd13ifvqhdg","pricing_plan_id":"cebpf4jnsgd1na2vs0mg"},{"bike_id":"e8d7fcf5-14a0-430b-a247-ddceafd06b95","system_id":"levelo_inurba_marseille","lat":43.225062,"lon":5.347773,"is_reserved":false,"is_disabled":false,"rental_uris":{"android":"levelo://app?vid=e8d7fcf5-14a0-430b-a247-ddceafd06b95","ios":"levelo://app?vid=e8d7fcf5-14a0-430b-a247-ddceafd06b95"},"vehicle_type_id":"4","last_reported":1751710213,"current_range_meters":22400,"station_id":"st_cvj5dfep6f1abm77gieg","pricing_plan_id":"cebpf4jnsgd1na2vs0mg"},{"bike_id":"9fa5ff7e-7ddc-4710-8fe3-b52a96148877","system_id":"levelo_inurba_marseille","lat":43.294518,"lon":5.378464,"is_reserved":false,"is_disabled":false,"rental_uris":{"android":"levelo://app?vid=9fa5ff7e-7ddc-4710-8fe3-b52a96148877","ios":"levelo://app?vid=9fa5ff7e-7ddc-4710-8fe3-b52a96148877"},"vehicle_type_id":"4","last_reported":1751710213,"current_range_meters":22800,"station_id":"","pricing_plan_id":"cebpf4jnsgd1na2vs0mg"},{"bike_id":"f034bbfb-f1d8-4bb3-948d-607201397813","system_id":"levelo_inurba_marseille","lat":43.29621,"lon":5.37706,"is_reserved":false,"is_disabled":false,"rental_uris":{"android":"levelo://app?vid=f034bbfb-f1d8-4bb3-948d-607201397813","ios":"levelo://app?vid=f034bbfb-f1d8-4bb3-948d-607201397813"},"vehicle_type_id":"4","last_reported":1751710213,"current_range_meters":22800,"station_id":"ce4bgi92rcd13ifvqb90","pricing_plan_id":"cebpf4jnsgd1na2vs0mg"},{"bike_id":"e113175a-26c2-4709-bd2e-8b90ec8dd3ee","system_id":"levelo_inurba_marseille","lat":43.27489,"lon":5.42453,"is_reserved":false,"is_disabled":false,"rental_uris":{"android":"levelo://app?vid=e113175a-26c2-4709-bd2e-8b90ec8dd3ee","ios":"levelo://app?vid=e113175a-26c2-4709-bd2e-8b90ec8dd3ee"},"vehicle_type_id":"4","last_reported":1751710213,"current_range_meters":22800,"station_id":"ce4bhn92rcd13ifvqgrg","pricing_plan_id":"cebpf4jnsgd1na2vs0mg"},{"bike_id":"4d049d54-a43c-4e38-b4de-cff152aadef2","system_id":"levelo_inurba_marseille","lat":43.281538,"lon":5.42639,"is_reserved":false,"is_disabled":false,"rental_uris":{"android":"levelo://app?vid=4d049d54-a43c-4e38-b4de-cff152aadef2","ios":"levelo://app?vid=4d049d54-a43c-4e38-b4de-cff152aadef2"},"vehicle_type_id":"4","last_reported":1751710213,"current_range_meters":22800,"station_id":"ce4bhnh2rcd13ifvqgug","pricing_plan_id":"cebpf4jnsgd1na2vs0mg"},{"bike_id":"bab51b96-21bd-48ba-b6b7-96ba7e7f7bed","system_id":"levelo_inurba_marseille","lat":43.29306,"lon":5.374587,"is_reserved":false,"is_disabled":false,"rental_uris":{"android":"levelo://app?vid=bab51b96-21bd-48ba-b6b7-96ba7e7f7bed","ios":"levelo://app?vid=bab51b96-21bd-48ba-b6b7-96ba7e7f7bed"},"vehicle_type_id":"4","last_reported":1751710213,"current_range_meters":23200,"station_id":"ce4bgi12rcd13ifvqb70","pricing_plan_id":"cebpf4jnsgd1na2vs0mg"},{"bike_id":"45b5753b-2434-4c59-b704-806ab3553129","system_id":"levelo_inurba_marseille","lat":43.28273,"lon":5.35061,"is_reserved":false,"is_disabled":false,"rental_uris":{"android":"levelo://app?vid=45b5753b-2434-4c59-b704-806ab3553129","ios":"levelo://app?vid=45b5753b-2434-4c59-b704-806ab3553129"},"vehicle_type_id":"4","last_reported":1751710213,"current_range_meters":23200,"station_id":"ce4bhbp2rcd13ifvqerg","pricing_plan_id":"cebpf4jnsgd1na2vs0mg"},{"bike_id":"2134036e-1c4c-46ec-9219-ae81108a86e9","system_id":"levelo_inurba_marseille","lat":43.26209,"lon":5.37448,"is_reserved":false,"is_disabled":false,"rental_uris":{"android":"levelo://app?vid=2134036e-1c4c-46ec-9219-ae81108a86e9","ios":"levelo://app?vid=2134036e-1c4c-46ec-9219-ae81108a86e9"},"vehicle_type_id":"4","last_reported":1751710213,"current_range_meters":23200,"station_id":"ce4bhgp2rcd13ifvqfc0","pricing_plan_id":"cebpf4jnsgd1na2vs0mg"},{"bike_id":"b9a2d6aa-67f6-49b4-9fc4-9c98316b6617","system_id":"levelo_inurba_marseille","lat":43.2318,"lon":5.39989,"is_reserved":false,"is_disabled":false,"rental_uris":{"android":"levelo://app?vid=b9a2d6aa-67f6-49b4-9fc4-9c98316b6617","ios":"levelo://app?vid=b9a2d6aa-67f6-49b4-9fc4-9c98316b6617"},"vehicle_type_id":"4","last_reported":1751710213,"current_range_meters":23200,"station_id":"ce4bhn12rcd13ifvqgqg","pricing_plan_id":"cebpf4jnsgd1na2vs0mg"},{"bike_id":"82b7d7e5-b783-4fdc-98ca-20db1531cbe0","system_id":"levelo_inurba_marseille","lat":43.29554,"lon":5.42283,"is_reserved":false,"is_disabled":false,"rental_uris":{"android":"levelo://app?vid=82b7d7e5-b783-4fdc-98ca-20db1531cbe0","ios":"levelo://app?vid=82b7d7e5-b783-4fdc-98ca-20db1531cbe0"},"vehicle_type_id":"4","last_reported":1751710213,"current_range_meters":23200,"station_id":"ce4bhph2rcd13ifvqhdg","pricing_plan_id":"cebpf4jnsgd1na2vs0mg"},{"bike_id":"b0b38266-1a66-4b37-8e7a-2448926918e0","system_id":"levelo_inurba_marseille","lat":43.23194,"lon":5.35566,"is_reserved":false,"is_disabled":false,"rental_uris":{"android":"levelo://app?vid=b0b38266-1a66-4b37-8e7a-2448926918e0","ios":"levelo://app?vid=b0b38266-1a66-4b37-8e7a-2448926918e0"},"vehicle_type_id":"4","last_reported":1751710213,"current_range_meters":23200,"station_id":"ce4bhu92rcd13ifvqi70","pricing_plan_id":"cebpf4jnsgd1na2vs0mg"},{"bike_id":"0cd3cec9-8d2a-4328-8502-fbeb742d7489","system_id":"levelo_inurba_marseille","lat":43.305,"lon":5.36575,"is_reserved":false,"is_disabled":false,"rental_uris":{"android":"levelo://app?vid=0cd3cec9-8d2a-4328-8502-fbeb742d7489","ios":"levelo://app?vid=0cd3cec9-8d2a-4328-8502-fbeb742d7489"},"vehicle_type_id":"4","last_reported":1751710213,"current_range_meters":24000,"station_id":"","pricing_plan_id":"cebpf4jnsgd1na2vs0mg"},{"bike_id":"958c596e-577f-49b9-a8cf-dee616b6b6f1","system_id":"levelo_inurba_marseille","lat":43.229284,"lon":5.35382,"is_reserved":false,"is_disabled":false,"rental_uris":{"android":"levelo://app?vid=958c596e-577f-49b9-a8cf-dee616b6b6f1","ios":"levelo://app?vid=958c596e-577f-49b9-a8cf-dee616b6b6f1"},"vehicle_type_id":"4","last_reported":1751710213,"current_range_meters":24000,"station_id":"","pricing_plan_id":"cebpf4jnsgd1na2vs0mg"},{"bike_id":"721165c1-ef6f-40cc-8d33-af3a7999864b","system_id":"levelo_inurba_marseille","lat":43.326278,"lon":5.378839,"is_reserved":false,"is_disabled":false,"rental_uris":{"android":"levelo://app?vid=721165c1-ef6f-40cc-8d33-af3a7999864b","ios":"levelo://app?vid=721165c1-ef6f-40cc-8d33-af3a7999864b"},"vehicle_type_id":"4","last_reported":1751710213,"current_range_meters":24000,"station_id":"","pricing_plan_id":"cebpf4jnsgd1na2vs0mg"},{"bike_id":"d82f3a35-697a-47a8-aec1-38393fdcc5d1","system_id":"levelo_inurba_marseille","lat":43.30924,"lon":5.40176,"is_reserved":false,"is_disabled":false,"rental_uris":{"android":"levelo://app?vid=d82f3a35-697a-47a8-aec1-38393fdcc5d1","ios":"levelo://app?vid=d82f3a35-697a-47a8-aec1-38393fdcc5d1"},"vehicle_type_id":"4","last_reported":1751710213,"current_range_meters":24000,"station_id":"ce4bgvp2rcd13ifvqct0","pricing_plan_id":"cebpf4jnsgd1na2vs0mg"},{"bike_id":"18718f0e-0691-4d50-b6b7-dc876f2534c0","system_id":"levelo_inurba_marseille","lat":43.30426,"lon":5.397477,"is_reserved":false,"is_disabled":false,"rental_uris":{"android":"levelo://app?vid=18718f0e-0691-4d50-b6b7-dc876f2534c0","ios":"levelo://app?vid=18718f0e-0691-4d50-b6b7-dc876f2534c0"},"vehicle_type_id":"4","last_reported":1751710213,"current_range_meters":24000,"station_id":"ce4bh092rcd13ifvqd20","pricing_plan_id":"cebpf4jnsgd1na2vs0mg"},{"bike_id":"1f2965ab-9f1b-4f2f-8a38-4c2c87d2279d","system_id":"levelo_inurba_marseille","lat":43.289371,"lon":5.396267,"is_reserved":false,"is_disabled":false,"rental_uris":{"android":"levelo://app?vid=1f2965ab-9f1b-4f2f-8a38-4c2c87d2279d","ios":"levelo://app?vid=1f2965ab-9f1b-4f2f-8a38-4c2c87d2279d"},"vehicle_type_id":"4","last_reported":1751710213,"current_range_meters":24000,"station_id":"ce4bh3h2rcd13ifvqdn0","pricing_plan_id":"cebpf4jnsgd1na2vs0mg"},{"bike_id":"583d788c-5eb4-497b-a2e1-995b25d98ece","system_id":"levelo_inurba_marseille","lat":43.2827,"lon":5.35065,"is_reserved":false,"is_disabled":false,"rental_uris":{"android":"levelo://app?vid=583d788c-5eb4-497b-a2e1-995b25d98ece","ios":"levelo://app?vid=583d788c-5eb4-497b-a2e1-995b25d98ece"},"vehicle_type_id":"4","last_reported":1751710213,"current_range_meters":24000,"station_id":"ce4bhbp2rcd13ifvqerg","pricing_plan_id":"cebpf4jnsgd1na2vs0mg"},{"bike_id":"5757ec47-d6bf-4d43-b1a3-6a4a56fdb979","system_id":"levelo_inurba_marseille","lat":43.26215,"lon":5.37443,"is_reserved":false,"is_disabled":false,"rental_uris":{"android":"levelo://app?vid=5757ec47-d6bf-4d43-b1a3-6a4a56fdb979","ios":"levelo://app?vid=5757ec47-d6bf-4d43-b1a3-6a4a56fdb979"},"vehicle_type_id":"4","last_reported":1751710213,"current_range_meters":24000,"station_id":"ce4bhgp2rcd13ifvqfc0","pricing_plan_id":"cebpf4jnsgd1na2vs0mg"},{"bike_id":"881dd2bd-92cd-46ab-8c17-a171e08ed483","system_id":"levelo_inurba_marseille","lat":43.24389,"lon":5.37054,"is_reserved":false,"is_disabled":false,"rental_uris":{"android":"levelo://app?vid=881dd2bd-92cd-46ab-8c17-a171e08ed483","ios":"levelo://app?vid=881dd2bd-92cd-46ab-8c17-a171e08ed483"},"vehicle_type_id":"4","last_reported":1751710213,"current_range_meters":24000,"station_id":"ce4bhhh2rcd13ifvqfk0","pricing_plan_id":"cebpf4jnsgd1na2vs0mg"},{"bike_id":"36edcb6b-29b0-41f9-a1f7-232f5568a2d7","system_id":"levelo_inurba_marseille","lat":43.27849,"lon":5.39223,"is_reserved":false,"is_disabled":false,"rental_uris":{"android":"levelo://app?vid=36edcb6b-29b0-41f9-a1f7-232f5568a2d7","ios":"levelo://app?vid=36edcb6b-29b0-41f9-a1f7-232f5568a2d7"},"vehicle_type_id":"4","last_reported":1751710213,"current_range_meters":24000,"station_id":"ce4bhjp2rcd13ifvqga0","pricing_plan_id":"cebpf4jnsgd1na2vs0mg"},{"bike_id":"01066fa9-5fee-4274-83ec-f1d5fb0b22af","system_id":"levelo_inurba_marseille","lat":43.317564,"lon":5.390147,"is_reserved":false,"is_disabled":false,"rental_uris":{"android":"levelo://app?vid=01066fa9-5fee-4274-83ec-f1d5fb0b22af","ios":"levelo://app?vid=01066fa9-5fee-4274-83ec-f1d5fb0b22af"},"vehicle_type_id":"4","last_reported":1751710213,"current_range_meters":24000,"station_id":"ce4bhqp2rcd13ifvqhng","pricing_plan_id":"cebpf4jnsgd1na2vs0mg"},{"bike_id":"0ac21513-c3a4-4f93-864a-f077867b6d5f","system_id":"levelo_inurba_marseille","lat":43.24168,"lon":5.36399,"is_reserved":false,"is_disabled":false,"rental_uris":{"android":"levelo://app?vid=0ac21513-c3a4-4f93-864a-f077867b6d5f","ios":"levelo://app?vid=0ac21513-c3a4-4f93-864a-f077867b6d5f"},"vehicle_type_id":"4","last_reported":1751710213,"current_range_meters":24000,"station_id":"cpo36qri1sfpv3e86is0","pricing_plan_id":"cebpf4jnsgd1na2vs0mg"},