{"last_updated":1739498999,"ttl":60,"version":"2.2","data":{"bikes":[{"bike_id":"25cbed1d-98ac-4052-a7fd-879f18a4128d","system_id":"levelo_inurba_marseille","lat":43.30152,"lon":5.39861,"is_reserved":false,"is_disabled":false,"rental_uris":{"android":"levelo://app?vid=25cbed1d-98ac-4052-a7fd-879f18a4128d","ios":"levelo://app?vid=25cbed1d-98ac-4052-a7fd-879f18a4128d"},"vehicle_type_id":"4","last_reported":1739498999,"current_range_meters":38800,"station_id":"ce4bh0h2rcd13ifvqd40","pricing_plan_id":"cebpf4jnsgd1na2vs0mg"},{"bike_id":"16a054cf-d220-4a13-8e1c-680ff7bd2a57","system_id":"levelo_inurba_marseille","lat":43.2844,"lon":5.39163,"is_reserved":false,"is_disabled":false,"rental_uris":{"android":"levelo://app?vid=16a054cf-d220-4a13-8e1c-680ff7bd2a57","ios":"levelo://app?vid=16a054cf-d220-4a13-8e1c-680ff7bd2a57"},"vehicle_type_id":"4","last_reported":1739498999,"current_range_meters":38800,"station_id":"ce4bhoh2rcd13ifvqh5g","pricing_plan_id":"cebpf4jnsgd1na2vs0mg"},{"bike_id":"fabe0dc0-e9b8-4510-811e-856b5cccb082","system_id":"levelo_inurba_marseille","lat":43.25523,"lon":5.37684,"is_reserved":false,"is_disabled":true,"rental_uris":{"android":"levelo://app?vid=fabe0dc0-e9b8-4510-811e-856b5cccb082","ios":"levelo://app?vid=fabe0dc0-e9b8-4510-811e-856b5cccb082"},"vehicle_type_id":"4","last_reported":1739498999,"current_range_meters":38000,"station_id":"ce4bhh12rcd13ifvqff0","pricing_plan_id":"cebpf4jnsgd1na2vs0mg"},{"bike_id":"8de44643-9c65-479b-92b5-27d16e23072f","system_id":"levelo_inurba_marseille","lat":43.22931,"lon":5.35385,"is_reserved":false,"is_disabled":false,"rental_uris":{"android":"levelo://app?vid=8de44643-9c65-479b-92b5-27d16e23072f","ios":"levelo://app?vid=8de44643-9c65-479b-92b5-27d16e23072f"},"vehicle_type_id":"4","last_reported":1739498999,"current_range_meters":38000,"station_id":"cpo3532slgdg3j2ikp40","pricing_plan_id":"cebpf4jnsgd1na2vs0mg"},{"bike_id":"cbe1212c-5034-48c9-a46a-1647b28b6c2d","system_id":"levelo_inurba_marseille","lat":43.28334,"lon":5.38112,"is_reserved":false,"is_disabled":true,"rental_uris":{"android":"levelo://app?vid=cbe1212c-5034-48c9-a46a-1647b28b6c2d","ios":"levelo://app?vid=cbe1212c-5034-48c9-a46a-1647b28b6c2d"},"vehicle_type_id":"4","last_reported":1739498999,"current_range_meters":35200,"station_id":"ce4bh412rcd13ifvqdr0","pricing_plan_id":"cebpf4jnsgd1na2vs0mg"},{"bike_id":"74b88b07-23bd-4dcd-aea6-19664a84e9b6","system_id":"levelo_inurba_marseille","lat":43.287005,"lon":5.399925,"is_reserved":false,"is_disabled":false,"rental_uris":{"android":"levelo://app?vid=74b88b07-23bd-4dcd-aea6-19664a84e9b6","ios":"levelo://app?vid=74b88b07-23bd-4dcd-aea6-19664a84e9b6"},"vehicle_type_id":"4","last_reported":1739498999,"current_range_meters":24000,"station_id":"ce4bho92rcd13ifvqh3g","pricing_plan_id":"cebpf4jnsgd1na2vs0mg"},{"bike_id":"2e489d72-7e04-4030-9a1f-b6594b2c2b30","system_id":"levelo_inurba_marseille","lat":43.323616,"lon":5.367572,"is_reserved":false,"is_disabled":false,"rental_uris":{"android":"levelo://app?vid=2e489d72-7e04-4030-9a1f-b6594b2c2b30","ios":"levelo://app?vid=2e489d72-7e04-4030-9a1f-b6594b2c2b30"},"vehicle_type_id":"4","last_reported":1739498999,"current_range_meters":14800,"station_id":"ce4bhsh2rcd13ifvqi2g","pricing_plan_id":"cebpf4jnsgd1na2vs0mg"},{"bike_id":"68226932-c6f0-4ec0-a130-8a216e63b2ce","system_id":"levelo_inurba_marseille","lat":43.28403,"lon":5.37522,"is_reserved":false,"is_disabled":false,"rental_uris":{"android":"levelo://app?vid=68226932-c6f0-4ec0-a130-8a216e63b2ce","ios":"levelo://app?vid=68226932-c6f0-4ec0-a130-8a216e63b2ce"},"vehicle_type_id":"4","last_reported":1739498999,"current_range_meters":30400,"station_id":"ce4bh412rcd13ifvqds0","pricing_plan_id":"cebpf4jnsgd1na2vs0mg"},{"bike_id":"1d4165b9-e8af-42e7-8e88-54a0f84b4f26","system_id":"levelo_inurba_marseille","lat":43.23195,"lon":5.39979,"is_reserved":false,"is_disabled":false,"rental_uris":{"android":"levelo://app?vid=1d4165b9-e8af-42e7-8e88-54a0f84b4f26","ios":"levelo://app?vid=1d4165b9-e8af-42e7-8e88-54a0f84b4f26"},"vehicle_type_id":"4","last_reported":1739498999,"current_range_meters":32000,"station_id":"ce4bhn12rcd13ifvqgqg","pricing_plan_id":"cebpf4jnsgd1na2vs0mg"},{"bike_id":"bf46de10-7c63-4fab-a484-f7df83630723","system_id":"levelo_inurba_marseille","lat":43.25119,"lon":5.40321,"is_reserved":false,"is_disabled":false,"rental_uris":{"android":"levelo://app?vid=bf46de10-7c63-4fab-a484-f7df83630723","ios":"levelo://app?vid=bf46de10-7c63-4fab-a484-f7df83630723"},"vehicle_type_id":"4","last_reported":1739498999,"current_range_meters":19200,"station_id":"ce4bhlh2rcd13ifvqgig","pricing_plan_id":"cebpf4jnsgd1na2vs0mg"},{"bike_id":"e8887aed-fddd-4b96-bc9f-849d198fae08","system_id":"levelo_inurba_marseille","lat":43.255752,"lon":5.382442,"is_reserved":false,"is_disabled":false,"rental_uris":{"android":"levelo://app?vid=e8887aed-fddd-4b96-bc9f-849d198fae08","ios":"levelo://app?vid=e8887aed-fddd-4b96-bc9f-849d198fae08"},"vehicle_type_id":"4","last_reported":1739498999,"current_range_meters":11600,"station_id":"ce4bhih2rcd13ifvqfs0","pricing_plan_id":"cebpf4jnsgd1na2vs0mg"},{"bike_id":"3d55dfbc-79dc-4a16-8c46-cf49fec8982e","system_id":"levelo_inurba_marseille","lat":43.24412,"lon":5.37031,"is_reserved":false,"is_disabled":false,"rental_uris":{"android":"levelo://app?vid=3d55dfbc-79dc-4a16-8c46-cf49fec8982e","ios":"levelo://app?vid=3d55dfbc-79dc-4a16-8c46-cf49fec8982e"},"vehicle_type_id":"4","last_reported":1739498999,"current_range_meters":38000,"station_id":"ce4bhhh2rcd13ifvqfk0","pricing_plan_id":"cebpf4jnsgd1na2vs0mg"},{"bike_id":"518631d8-764a-4efc-bcda-570976b01648","system_id":"levelo_inurba_marseille","lat":43.30355,"lon":5.41872,"is_reserved":false,"is_disabled":false,"rental_uris":{"android":"levelo://app?vid=518631d8-764a-4efc-bcda-570976b01648","ios":"levelo://app?vid=518631d8-764a-4efc-bcda-570976b01648"},"vehicle_type_id":"4","last_reported":1739498999,"current_range_meters":38000,"station_id":"ce4bhop2rcd13ifvqh7g","pricing_plan_id":"cebpf4jnsgd1na2vs0mg"},{"bike_id":"8390feee-0735-4b8f-90c8-f81c741ca7d5","system_id":"levelo_inurba_marseille","lat":43.24816,"lon":5.3747,"is_reserved":false,"is_disabled":false,"rental_uris":{"android":"levelo://app?vid=8390feee-0735-4b8f-90c8-f81c741ca7d5","ios":"levelo://app?vid=8390feee-0735-4b8f-90c8-f81c741ca7d5"},"vehicle_type_id":"4","last_reported":1739498999,"current_range_meters":36800,"station_id":"ce4bhgh2rcd13ifvqfb0","pricing_plan_id":"cebpf4jnsgd1na2vs0mg"},{"bike_id":"d75c0598-f170-4aa3-b916-db7f188f9880","system_id":"levelo_inurba_marseille","lat":43.254348,"lon":5.41684,"is_reserved":false,"is_disabled":false,"rental_uris":{"android":"levelo://app?vid=d75c0598-f170-4aa3-b916-db7f188f9880","ios":"levelo://app?vid=d75c0598-f170-4aa3-b916-db7f188f9880"},"vehicle_type_id":"4","last_reported":1739498999,"current_range_meters":10000,"station_id":"","pricing_plan_id":"cebpf4jnsgd1na2vs0mg"},{"bike_id":"419461ff-c02a-44f5-8ced-15bda10c4fdc","system_id":"levelo_inurba_marseille","lat":43.29784,"lon":5.39355,"is_reserved":false,"is_disabled":false,"rental_uris":{"android":"levelo://app?vid=419461ff-c02a-44f5-8ced-15bda10c4fdc","ios":"levelo://app?vid=419461ff-c02a-44f5-8ced-15bda10c4fdc"},"vehicle_type_id":"4","last_reported":1739498999,"current_range_meters":38000,"station_id":"chh1huq6cuj3fo74tm60","pricing_plan_id":"cebpf4jnsgd1na2vs0mg"},{"bike_id":"6b42f4f1-2360-420a-81a5-fa8f868ac30d","system_id":"levelo_inurba_marseille","lat":43.27179,"lon":5.39011,"is_reserved":false,"is_disabled":false,"rental_uris":{"android":"levelo://app?vid=6b42f4f1-2360-420a-81a5-fa8f868ac30d","ios":"levelo://app?vid=6b42f4f1-2360-420a-81a5-fa8f868ac30d"},"vehicle_type_id":"4","last_reported":1739498999,"current_range_meters":38800,"station_id":"","pricing_plan_id":"cebpf4jnsgd1na2vs0mg"},{"bike_id":"c5d83290-7e41-4747-be49-5a88384d605e","system_id":"levelo_inurba_marseille","lat":43.28442,"lon":5.38522,"is_reserved":false,"is_disabled":true,"rental_uris":{"android":"levelo://app?vid=c5d83290-7e41-4747-be49-5a88384d605e","ios":"levelo://app?vid=c5d83290-7e41-4747-be49-5a88384d605e"},"vehicle_type_id":"4","last_reported":1739498999,"current_range_meters":22000,"station_id":"ce4bh8p2rcd13ifvqeb0","pricing_plan_id":"cebpf4jnsgd1na2vs0mg"},{"bike_id":"56192679-cc8f-4f99-a19c-ed0875b3f321","system_id":"levelo_inurba_marseille","lat":43.31713,"lon":5.42407,"is_reserved":false,"is_disabled":false,"rental_uris":{"android":"levelo://app?vid=56192679-cc8f-4f99-a19c-ed0875b3f321","ios":"levelo://app?vid=56192679-cc8f-4f99-a19c-ed0875b3f321"},"vehicle_type_id":"4","last_reported":1739498999,"current_range_meters":38800,"station_id":"ce4bhp92rcd13ifvqhbg","pricing_plan_id":"cebpf4jnsgd1na2vs0mg"},{"bike_id":"1e93ede2-dad8-4287-ad3b-954fc9b3cf80","system_id":"levelo_inurba_marseille","lat":43.31366,"lon":5.38509,"is_reserved":false,"is_disabled":false,"rental_uris":{"android":"levelo://app?vid=1e93ede2-dad8-4287-ad3b-954fc9b3cf80","ios":"levelo://app?vid=1e93ede2-dad8-4287-ad3b-954fc9b3cf80"},"vehicle_type_id":"4","last_reported":1739498999,"current_range_meters":9600,"station_id":"ce4bgt92rcd13ifvqcf0","pricing_plan_id":"cebpf4jnsgd1na2vs0mg"},{"bike_id":"b09f54a7-16e7-4ffa-b2d1-3540c9a254de","system_id":"levelo_inurba_marseille","lat":43.28877,"lon":5.35838,"is_reserved":false,"is_disabled":false,"rental_uris":{"android":"levelo://app?vid=b09f54a7-16e7-4ffa-b2d1-3540c9a254de","ios":"levelo://app?vid=b09f54a7-16e7-4ffa-b2d1-3540c9a254de"},"vehicle_type_id":"4","last_reported":1739498999,"current_range_meters":36000,"station_id":"ce4bhb12rcd13ifvqem0","pricing_plan_id":"cebpf4jnsgd1na2vs0mg"},{"bike_id":"b34c6303-752a-46a1-93ad-ddbc991e20b6","system_id":"levelo_inurba_marseille","lat":43.23059,"lon":5.35477,"is_reserved":false,"is_disabled":false,"rental_uris":{"android":"levelo://app?vid=b34c6303-752a-46a1-93ad-ddbc991e20b6","ios":"levelo://app?vid=b34c6303-752a-46a1-93ad-ddbc991e20b6"},"vehicle_type_id":"4","last_reported":1739498999,"current_range_meters":6800,"station_id":"cpo3342slgdg3j2ifvpg","pricing_plan_id":"cebpf4jnsgd1na2vs0mg"},{"bike_id":"f4297ec3-a745-470f-8379-4a2b1e421801","system_id":"levelo_inurba_marseille","lat":43.29013,"lon":5.35901,"is_reserved":false,"is_disabled":true,"rental_uris":{"android":"levelo://app?vid=f4297ec3-a745-470f-8379-4a2b1e421801","ios":"levelo://app?vid=f4297ec3-a745-470f-8379-4a2b1e421801"},"vehicle_type_id":"4","last_reported":1739498999,"current_range_meters":39200,"station_id":"ce4bha92rcd13ifvqeg0","pricing_plan_id":"cebpf4jnsgd1na2vs0mg"},{"bike_id":"2fbf87cc-6c39-4692-8e1b-3de7a93f682f","system_id":"levelo_inurba_marseille","lat":43.3107,"lon":5.38355,"is_reserved":false,"is_disabled":false,"rental_uris":{"android":"levelo://app?vid=2fbf87cc-6c39-4692-8e1b-3de7a93f682f","ios":"levelo://app?vid=2fbf87cc-6c39-4692-8e1b-3de7a93f682f"},"vehicle_type_id":"4","last_reported":1739498999,"current_range_meters":9600,"station_id":"ce4bgv92rcd13ifvqcr0","pricing_plan_id":"cebpf4jnsgd1na2vs0mg"},{"bike_id":"5d9be53a-98dc-4ebc-8789-5594b7be7bc7","system_id":"levelo_inurba_marseille","lat":43.31318,"lon":5.39709,"is_reserved":false,"is_disabled":false,"rental_uris":{"android":"levelo://app?vid=5d9be53a-98dc-4ebc-8789-5594b7be7bc7","ios":"levelo://app?vid=5d9be53a-98dc-4ebc-8789-5594b7be7bc7"},"vehicle_type_id":"4","last_reported":1739498999,"current_range_meters":35600,"station_id":"ce4bgvp2rcd13ifvqcu0","pricing_plan_id":"cebpf4jnsgd1na2vs0mg"},{"bike_id":"7e3aa56e-620c-49ba-a222-8b981e930b79","system_id":"levelo_inurba_marseille","lat":43.31497,"lon":5.37297,"is_reserved":false,"is_disabled":false,"rental_uris":{"android":"levelo://app?vid=7e3aa56e-620c-49ba-a222-8b981e930b79","ios":"levelo://app?vid=7e3aa56e-620c-49ba-a222-8b981e930b79"},"vehicle_type_id":"4","last_reported":1739498999,"current_range_meters":38800,"station_id":"ce4bgt12rcd13ifvqcd0","pricing_plan_id":"cebpf4jnsgd1na2vs0mg"},{"bike_id":"6025ad1f-b54a-4adb-b4aa-648d22c7531b","system_id":"levelo_inurba_marseille","lat":43.29816,"lon":5.38058,"is_reserved":false,"is_disabled":false,"rental_uris":{"android":"levelo://app?vid=6025ad1f-b54a-4adb-b4aa-648d22c7531b","ios":"levelo://app?vid=6025ad1f-b54a-4adb-b4aa-648d22c7531b"},"vehicle_type_id":"4","last_reported":1739498999,"current_range_meters":38000,"station_id":"ce4bgip2rcd13ifvqbb0","pricing_plan_id":"cebpf4jnsgd1na2vs0mg"},{"bike_id":"3da25e73-fec0-480a-8081-623a169e9820","system_id":"levelo_inurba_marseille","lat":43.28951,"lon":5.39616,"is_reserved":false,"is_disabled":false,"rental_uris":{"android":"levelo://app?vid=3da25e73-fec0-480a-8081-623a169e9820","ios":"levelo://app?vid=3da25e73-fec0-480a-8081-623a169e9820"},"vehicle_type_id":"4","last_reported":1739498999,"current_range_meters":38400,"station_id":"ce4bh3h2rcd13ifvqdn0","pricing_plan_id":"cebpf4jnsgd1na2vs0mg"},{"bike_id":"ac563615-1c9b-4d54-94c9-bd17fd4a149f","system_id":"levelo_inurba_marseille","lat":43.28438,"lon":5.39202,"is_reserved":false,"is_disabled":false,"rental_uris":{"android":"levelo://app?vid=ac563615-1c9b-4d54-94c9-bd17fd4a149f","ios":"levelo://app?vid=ac563615-1c9b-4d54-94c9-bd17fd4a149f"},"vehicle_type_id":"4","last_reported":1739498999,"current_range_meters":38800,"station_id":"ce4bhoh2rcd13ifvqh5g","pricing_plan_id":"cebpf4jnsgd1na2vs0mg"},{"bike_id":"fe0dec67-db0e-49f0-a93e-10f71e03e351","system_id":"levelo_inurba_marseille","lat":43.28345,"lon":5.38109,"is_reserved":false,"is_disabled":false,"rental_uris":{"android":"levelo://app?vid=fe0dec67-db0e-49f0-a93e-10f71e03e351","ios":"levelo://app?vid=fe0dec67-db0e-49f0-a93e-10f71e03e351"},"vehicle_type_id":"4","last_reported":1739498999,"current_range_meters":28800,"station_id":"ce4bh412rcd13ifvqdr0","pricing_plan_id":"cebpf4jnsgd1na2vs0mg"},{"bike_id":"21d9a2f1-8b2f-4631-b798-402f8341f038","system_id":"levelo_inurba_marseille","lat":43.27987,"lon":5.38744,"is_reserved":false,"is_disabled":false,"rental_uris":{"android":"levelo://app?vid=21d9a2f1-8b2f-4631-b798-402f8341f038","ios":"levelo://app?vid=21d9a2f1-8b2f-4631-b798-402f8341f038"},"vehicle_type_id":"4","last_reported":1739498999,"current_range_meters":24400,"station_id":"ce4bhg12rcd13ifvqf80","pricing_plan_id":"cebpf4jnsgd1na2vs0mg"},{"bike_id":"59e04c5d-7450-424d-848a-3291d09eafff","system_id":"levelo_inurba_marseille","lat":43.29892,"lon":5.39727,"is_reserved":false,"is_disabled":false,"rental_uris":{"android":"levelo://app?vid=59e04c5d-7450-424d-848a-3291d09eafff","ios":"levelo://app?vid=59e04c5d-7450-424d-848a-3291d09eafff"},"vehicle_type_id":"4","last_reported":1739498999,"current_range_meters":33200,"station_id":"ce4bh0h2rcd13ifvqd50","pricing_plan_id":"cebpf4jnsgd1na2vs0mg"},{"bike_id":"50e5a0ed-9431-4dbe-b952-8e5f0c3fa8c6","system_id":"levelo_inurba_marseille","lat":43.29032,"lon":5.35914,"is_reserved":false,"is_disabled":false,"rental_uris":{"android":"levelo://app?vid=50e5a0ed-9431-4dbe-b952-8e5f0c3fa8c6","ios":"levelo://app?vid=50e5a0ed-9431-4dbe-b952-8e5f0c3fa8c6"},"vehicle_type_id":"4","last_reported":1739498999,"current_range_meters":28000,"station_id":"ce4bha92rcd13ifvqeg0","pricing_plan_id":"cebpf4jnsgd1na2vs0mg"},{"bike_id":"2a7fbfda-36d8-455b-955d-63e67c8c1e23","system_id":"levelo_inurba_marseille","lat":43.30878,"lon":5.44046,"is_reserved":false,"is_disabled":false,"rental_uris":{"android":"levelo://app?vid=2a7fbfda-36d8-455b-955d-63e67c8c1e23","ios":"levelo://app?vid=2a7fbfda-36d8-455b-955d-63e67c8c1e23"},"vehicle_type_id":"4","last_reported":1739498999,"current_range_meters":27200,"station_id":"","pricing_plan_id":"cebpf4jnsgd1na2vs0mg"},{"bike_id":"3c94bbd2-975f-4b09-ac6e-8466a000999d","system_id":"levelo_inurba_marseille","lat":43.33601,"lon":5.40979,"is_reserved":false,"is_disabled":false,"rental_uris":{"android":"levelo://app?vid=3c94bbd2-975f-4b09-ac6e-8466a000999d","ios":"levelo://app?vid=3c94bbd2-975f-4b09-ac6e-8466a000999d"},"vehicle_type_id":"4","last_reported":1739498999,"current_range_meters":38400,"station_id":"ce4bhqh2rcd13ifvqhmg","pricing_plan_id":"cebpf4jnsgd1na2vs0mg"},{"bike_id":"eb25e66b-2bb2-4c60-89b0-72c3f5ae819a","system_id":"levelo_inurba_marseille","lat":43.26215,"lon":5.37453,"is_reserved":false,"is_disabled":false,"rental_uris":{"android":"levelo://app?vid=eb25e66b-2bb2-4c60-89b0-72c3f5ae819a","ios":"levelo://app?vid=eb25e66b-2bb2-4c60-89b0-72c3f5ae819a"},"vehicle_type_id":"4","last_reported":1739498999,"current_range_meters":8400,"station_id":"ce4bhgp2rcd13ifvqfc0","pricing_plan_id":"cebpf4jnsgd1na2vs0mg"},{"bike_id":"cd2ade96-d83c-484d-ad63-31dd855266a0","system_id":"levelo_inurba_marseille","lat":43.29866,"lon":5.39725,"is_reserved":false,"is_disabled":false,"rental_uris":{"android":"levelo://app?vid=cd2ade96-d83c-484d-ad63-31dd855266a0","ios":"levelo://app?vid=cd2ade96-d83c-484d-ad63-31dd855266a0"},"vehicle_type_id":"4","last_reported":1739498999,"current_range_meters":38800,"station_id":"ce4bh0h2rcd13ifvqd50","pricing_plan_id":"cebpf4jnsgd1na2vs0mg"},{"bike_id":"670d8b79-cf37-4bf6-9297-ca0919e71705","system_id":"levelo_inurba_marseille","lat":43.30533,"lon":5.38428,"is_reserved":false,"is_disabled":true,"rental_uris":{"android":"levelo://app?vid=670d8b79-cf37-4bf6-9297-ca0919e71705","ios":"levelo://app?vid=670d8b79-cf37-4bf6-9297-ca0919e71705"},"vehicle_type_id":"4","last_reported":1739498999,"current_range_meters":33200,"station_id":"ce4bgg92rcd13ifvqb30","pricing_plan_id":"cebpf4jnsgd1na2vs0mg"},{"bike_id":"4004e863-e0ca-4122-9424-ab9f70e142e6","system_id":"levelo_inurba_marseille","lat":43.31651,"lon":5.39635,"is_reserved":false,"is_disabled":false,"rental_uris":{"android":"levelo://app?vid=4004e863-e0ca-4122-9424-ab9f70e142e6","ios":"levelo://app?vid=4004e863-e0ca-4122-9424-ab9f70e142e6"},"vehicle_type_id":"4","last_reported":1739498999,"current_range_meters":24800,"station_id":"","pricing_plan_id":"cebpf4jnsgd1na2vs0mg"},{"bike_id":"45435c86-c192-430f-878e-efcea7c98935","system_id":"levelo_inurba_marseille","lat":43.31366,"lon":5.38497,"is_reserved":false,"is_disabled":false,"rental_uris":{"android":"levelo://app?vid=45435c86-c192-430f-878e-efcea7c98935","ios":"levelo://app?vid=45435c86-c192-430f-878e-efcea7c98935"},"vehicle_type_id":"4","last_reported":1739498999,"current_range_meters":20800,"station_id":"ce4bgt92rcd13ifvqcf0","pricing_plan_id":"cebpf4jnsgd1na2vs0mg"},{"bike_id":"6251d29e-95fb-4619-ace3-cd2123170b74","system_id":"levelo_inurba_marseille","lat":43.30993,"lon":5.39064,"is_reserved":false,"is_disabled":false,"rental_uris":{"android":"levelo://app?vid=6251d29e-95fb-4619-ace3-cd2123170b74","ios":"levelo://app?vid=6251d29e-95fb-4619-ace3-cd2123170b74"},"vehicle_type_id":"4","last_reported":1739498999,"current_range_meters":38400,"station_id":"ce4bgup2rcd13ifvqco0","pricing_plan_id":"cebpf4jnsgd1na2vs0mg"},{"bike_id":"ad9b5912-f329-4b7c-b1ff-512cdba8e36d","system_id":"levelo_inurba_marseille","lat":43.293,"lon":5.43453,"is_reserved":false,"is_disabled":false,"rental_uris":{"android":"levelo://app?vid=ad9b5912-f329-4b7c-b1ff-512cdba8e36d","ios":"levelo://app?vid=ad9b5912-f329-4b7c-b1ff-512cdba8e36d"},"vehicle_type_id":"4","last_reported":1739498999,"current_range_meters":32000,"station_id":"","pricing_plan_id":"cebpf4jnsgd1na2vs0mg"},{"bike_id":"a976e7ac-6155-4dcb-8d3a-9fd779764b7a","system_id":"levelo_inurba_marseille","lat":43.27825,"lon":5.39245,"is_reserved":false,"is_disabled":false,"rental_uris":{"android":"levelo://app?vid=a976e7ac-6155-4dcb-8d3a-9fd779764b7a","ios":"levelo://app?vid=a976e7ac-6155-4dcb-8d3a-9fd779764b7a"},"vehicle_type_id":"4","last_reported":1739498999,"current_range_meters":39200,"station_id":"ce4bhjp2rcd13ifvqga0","pricing_plan_id":"cebpf4jnsgd1na2vs0mg"},{"bike_id":"f7e93747-a447-433e-9a79-7f59de95b943","system_id":"levelo_inurba_marseille","lat":43.30795,"lon":5.38159,"is_reserved":false,"is_disabled":false,"rental_uris":{"android":"levelo://app?vid=f7e93747-a447-433e-9a79-7f59de95b943","ios":"levelo://app?vid=f7e93747-a447-433e-9a79-7f59de95b943"},"vehicle_type_id":"4","last_reported":1739498999,"current_range_meters":38800,"station_id":"ce4bgt12rcd13ifvqce0","pricing_plan_id":"cebpf4jnsgd1na2vs0mg"},{"bike_id":"e4d14330-222d-46d5-8f26-efec567da29c","system_id":"levelo_inurba_marseille","lat":43.286181,"lon":5.351016,"is_reserved":false,"is_disabled":false,"rental_uris":{"android":"levelo://app?vid=e4d14330-222d-46d5-8f26-efec567da29c","ios":"levelo://app?vid=e4d14330-222d-46d5-8f26-efec567da29c"},"vehicle_type_id":"4","last_reported":1739498999,"current_range_meters":38400,"station_id":"ce4bhch2rcd13ifvqeug","pricing_plan_id":"cebpf4jnsgd1na2vs0mg"},{"bike_id":"6310a93e-f79d-40ca-bc6b-195185b49df7","system_id":"levelo_inurba_marseille","lat":43.28854,"lon":5.39318,"is_reserved":false,"is_disabled":false,"rental_uris":{"android":"levelo://app?vid=6310a93e-f79d-40ca-bc6b-195185b49df7","ios":"levelo://app?vid=6310a93e-f79d-40ca-bc6b-195185b49df7"},"vehicle_type_id":"4","last_reported":1739498999,"current_range_meters":35600,"station_id":"ce4bh2p2rcd13ifvqdi0","pricing_plan_id":"cebpf4jnsgd1na2vs0mg"},{"bike_id":"f92e748a-9f9b-4e54-8084-07e33515f3d5","system_id":"levelo_inurba_marseille","lat":43.2707,"lon":5.39326,"is_reserved":false,"is_disabled":true,"rental_uris":{"android":"levelo://app?vid=f92e748a-9f9b-4e54-8084-07e33515f3d5","ios":"levelo://app?vid=f92e748a-9f9b-4e54-8084-07e33515f3d5"},"vehicle_type_id":"4","last_reported":1739498999,"current_range_meters":0,"station_id":"","pricing_plan_id":"cebpf4jnsgd1na2vs0mg"},{"bike_id":"03f1ee11-be7f-45e6-a171-a893130e88b6","system_id":"levelo_inurba_marseille","lat":43.29003,"lon":5.35618,"is_reserved":false,"is_disabled":true,"rental_uris":{"android":"levelo://app?vid=03f1ee11-be7f-45e6-a171-a893130e88b6","ios":"levelo://app?vid=03f1ee11-be7f-45e6-a171-a893130e88b6"},"vehicle_type_id":"4","last_reported":1739498999,"current_range_meters":37600,"station_id":"ce4bhb92rcd13ifvqen0","pricing_plan_id":"cebpf4jnsgd1na2vs0mg"},{"bike_id":"704ec19d-e7c0-4858-a423-dcfa560220a5","system_id":"levelo_inurba_marseille","lat":43.23183,"lon":5.39988,"is_reserved":false,"is_disabled":false,"rental_uris":{"android":"levelo://app?vid=704ec19d-e7c0-4858-a423-dcfa560220a5","ios":"levelo://app?vid=704ec19d-e7c0-4858-a423-dcfa560220a5"},"vehicle_type_id":"4","last_reported":1739498999,"current_range_meters":35600,"station_id":"ce4bhn12rcd13ifvqgqg","pricing_plan_id":"cebpf4jnsgd1na2vs0mg"},{"bike_id":"d764f846-b7f3-4111-814b-38f6302da530","system_id":"levelo_inurba_marseille","lat":43.29575,"lon":5.39981,"is_reserved":false,"is_disabled":false,"rental_uris":{"android":"levelo://app?vid=d764f846-b7f3-4111-814b-38f6302da530","ios":"levelo://app?vid=d764f846-b7f3-4111-814b-38f6302da530"},"vehicle_type_id":"4","last_reported":1739498999,"current_range_meters":38800,"station_id":"ce4bh312rcd13ifvqdj0","pricing_plan_id":"cebpf4jnsgd1na2vs0mg"},{"bike_id":"3b65282a-f1d0-4275-aeb0-d72b1002d850","system_id":"levelo_inurba_marseille","lat":43.30143,"lon":5.37416,"is_reserved":false,"is_disabled":false,"rental_uris":{"android":"levelo://app?vid=3b65282a-f1d0-4275-aeb0-d72b1002d850","ios":"levelo://app?vid=3b65282a-f1d0-4275-aeb0-d72b1002d850"},"vehicle_type_id":"4","last_reported":1739498999,"current_range_meters":37600,"station_id":"ce4bgs92rcd13ifvqcc0","pricing_plan_id":"cebpf4jnsgd1na2vs0mg"},{"bike_id":"b92e235b-5025-4ad6-90f8-e9d0e35aced9","system_id":"levelo_inurba_marseille","lat":43.31327,"lon":5.39678,"is_reserved":false,"is_disabled":false,"rental_uris":{"android":"levelo://app?vid=b92e235b-5025-4ad6-90f8-e9d0e35aced9","ios":"levelo://app?vid=b92e235b-5025-4ad6-90f8-e9d0e35aced9"},"vehicle_type_id":"4","last_reported":1739498999,"current_range_meters":16000,"station_id":"ce4bgvp2rcd13ifvqcu0","pricing_plan_id":"cebpf4jnsgd1na2vs0mg"},{"bike_id":"9ffe0681-9ede-4d8e-8df5-acca9b5ea6d7","system_id":"levelo_inurba_marseille","lat":43.29242,"lon":5.40901,"is_reserved":false,"is_disabled":false,"rental_uris":{"android":"levelo://app?vid=9ffe0681-9ede-4d8e-8df5-acca9b5ea6d7","ios":"levelo://app?vid=9ffe0681-9ede-4d8e-8df5-acca9b5ea6d7"},"vehicle_type_id":"4","last_reported":1739498999,"current_range_meters":38400,"station_id":"ce4bh192rcd13ifvqdc0","pricing_plan_id":"cebpf4jnsgd1na2vs0mg"},{"bike_id":"5e354ef9-9e17-4f62-b0c6-2b400de36972","system_id":"levelo_inurba_marseille","lat":43.25578,"lon":5.38227,"is_reserved":false,"is_disabled":false,"rental_uris":{"android":"levelo://app?vid=5e354ef9-9e17-4f62-b0c6-2b400de36972","ios":"levelo://app?vid=5e354ef9-9e17-4f62-b0c6-2b400de36972"},"vehicle_type_id":"4","last_reported":1739498999,"current_range_meters":27200,"station_id":"ce4bhih2rcd13ifvqfs0","pricing_plan_id":"cebpf4jnsgd1na2vs0mg"},{"bike_id":"9cf8e6d9-67b8-441b-8ab4-08ef8560d2b0","system_id":"levelo_inurba_marseille","lat":43.33514,"lon":5.35585,"is_reserved":false,"is_disabled":true,"rental_uris":{"android":"levelo://app?vid=9cf8e6d9-67b8-441b-8ab4-08ef8560d2b0","ios":"levelo://app?vid=9cf8e6d9-67b8-441b-8ab4-08ef8560d2b0"},"vehicle_type_id":"4","last_reported":1739498999,"current_range_meters":0,"station_id":"","pricing_plan_id":"cebpf4jnsgd1na2vs0mg"},{"bike_id":"7a3720dd-298c-4d87-91ef-5d83e7db7658","system_id":"levelo_inurba_marseille","lat":43.24065,"lon":5.37745,"is_reserved":false,"is_disabled":false,"rental_uris":{"android":"levelo://app?vid=7a3720dd-298c-4d87-91ef-5d83e7db7658","ios":"levelo://app?vid=7a3720dd-298c-4d87-91ef-5d83e7db7658"},"vehicle_type_id":"4","last_reported":1739498999,"current_range_meters":38800,"station_id":"ce4bhnp2rcd13ifvqgvg","pricing_plan_id":"cebpf4jnsgd1na2vs0mg"},{"bike_id":"6279f888-1d4b-4ebb-b3f2-c7248902b00f","system_id":"levelo_inurba_marseille","lat":43.25492,"lon":5.37649,"is_reserved":false,"is_disabled":false,"rental_uris":{"android":"levelo://app?vid=6279f888-1d4b-4ebb-b3f2-c7248902b00f","ios":"levelo://app?vid=6279f888-1d4b-4ebb-b3f2-c7248902b00f"},"vehicle_type_id":"4","last_reported":1739498999,"current_range_meters":19200,"station_id":"ce4bhh12rcd13ifvqff0","pricing_plan_id":"cebpf4jnsgd1na2vs0mg"},{"bike_id":"ab4c983f-8a50-4c35-9ac5-504956717998","system_id":"levelo_inurba_marseille","lat":43.2894,"lon":5.3641,"is_reserved":false,"is_disabled":false,"rental_uris":{"android":"levelo://app?vid=ab4c983f-8a50-4c35-9ac5-504956717998","ios":"levelo://app?vid=ab4c983f-8a50-4c35-9ac5-504956717998"},"vehicle_type_id":"4","last_reported":1739498999,"current_range_meters":38800,"station_id":"ce4bhc92rcd13ifvqetg","pricing_plan_id":"cebpf4jnsgd1na2vs0mg"},{"bike_id":"3dac6192-3123-4c95-afea-ba492f5c9f4e","system_id":"levelo_inurba_marseille","lat":43.32678,"lon":5.43089,"is_reserved":false,"is_disabled":false,"rental_uris":{"android":"levelo://app?vid=3dac6192-3123-4c95-afea-ba492f5c9f4e","ios":"levelo://app?vid=3dac6192-3123-4c95-afea-ba492f5c9f4e"},"vehicle_type_id":"4","last_reported":1739498999,"current_range_meters":32000,"station_id":"","pricing_plan_id":"cebpf4jnsgd1na2vs0mg"},{"bike_id":"c0c875a4-5c95-4254-a403-0897218cf352","system_id":"levelo_inurba_marseille","lat":43.2827,"lon":5.35081,"is_reserved":false,"is_disabled":false,"rental_uris":{"android":"levelo://app?vid=c0c875a4-5c95-4254-a403-0897218cf352","ios":"levelo://app?vid=c0c875a4-5c95-4254-a403-0897218cf352"},"vehicle_type_id":"4","last_reported":1739498999,"current_range_meters":38000,"station_id":"ce4bhbp2rcd13ifvqerg","pricing_plan_id":"cebpf4jnsgd1na2vs0mg"},{"bike_id":"f0e12fb8-780b-4769-9d44-fec704c87bf5","system_id":"levelo_inurba_marseille","lat":43.31492,"lon":5.37312,"is_reserved":false,"is_disabled":false,"rental_uris":{"android":"levelo://app?vid=f0e12fb8-780b-4769-9d44-fec704c87bf5","ios":"levelo://app?vid=f0e12fb8-780b-4769-9d44-fec704c87bf5"},"vehicle_type_id":"4","last_reported":1739498999,"current_range_meters":34000,"station_id":"ce4bgt12rcd13ifvqcd0","pricing_plan_id":"cebpf4jnsgd1na2vs0mg"},{"bike_id":"4b52c719-bf05-47bb-badd-687e6eb72a19","system_id":"levelo_inurba_marseille","lat":43.24662,"lon":5.38159,"is_reserved":false,"is_disabled":false,"rental_uris":{"android":"levelo://app?vid=4b52c719-bf05-47bb-badd-687e6eb72a19","ios":"levelo://app?vid=4b52c719-bf05-47bb-badd-687e6eb72a19"},"vehicle_type_id":"4","last_reported":1739498999,"current_range_meters":35600,"station_id":"ce4bhih2rcd13ifvqfr0","pricing_plan_id":"cebpf4jnsgd1na2vs0mg"},{"bike_id":"ec8d9d4e-d295-4b31-9d64-b8816510bc68","system_id":"levelo_inurba_marseille","lat":43.28645,"lon":5.35116,"is_reserved":false,"is_disabled":false,"rental_uris":{"android":"levelo://app?vid=ec8d9d4e-d295-4b31-9d64-b8816510bc68","ios":"levelo://app?vid=ec8d9d4e-d295-4b31-9d64-b8816510bc68"},"vehicle_type_id":"4","last_reported":1739498999,"current_range_meters":17200,"station_id":"ce4bhch2rcd13ifvqeug","pricing_plan_id":"cebpf4jnsgd1na2vs0mg"},{"bike_id":"51ab7186-5043-4bed-baca-73708608a302","system_id":"levelo_inurba_marseille","lat":43.29584,"lon":5.37026,"is_reserved":false,"is_disabled":true,"rental_uris":{"android":"levelo://app?vid=51ab7186-5043-4bed-baca-73708608a302","ios":"levelo://app?vid=51ab7186-5043-4bed-baca-73708608a302"},"vehicle_type_id":"4","last_reported":1739498999,"current_range_meters":0,"station_id":"","pricing_plan_id":"cebpf4jnsgd1na2vs0mg"},{"bike_id":"8c6156b5-146a-4d21-86e7-67a95893915c","system_id":"levelo_inurba_marseille","lat":43.29456,"lon":5.39759,"is_reserved":false,"is_disabled":false,"rental_uris":{"android":"levelo://app?vid=8c6156b5-146a-4d21-86e7-67a95893915c","ios":"levelo://app?vid=8c6156b5-146a-4d21-86e7-67a95893915c"},"vehicle_type_id":"4","last_reported":1739498999,"current_range_meters":38000,"station_id":"ce4bh3h2rcd13ifvqdo0","pricing_plan_id":"cebpf4jnsgd1na2vs0mg"},{"bike_id":"0a091e32-861c-4a90-ba8d-79373292393c","system_id":"levelo_inurba_marseille","lat":43.27619,"lon":5.3611,"is_reserved":false,"is_disabled":false,"rental_uris":{"android":"levelo://app?vid=0a091e32-861c-4a90-ba8d-79373292393c","ios":"levelo://app?vid=0a091e32-861c-4a90-ba8d-79373292393c"},"vehicle_type_id":"4","last_reported":1739498999,"current_range_meters":8000,"station_id":"ce4bgj92rcd13ifvqbe0","pricing_plan_id":"cebpf4jnsgd1na2vs0mg"},{"bike_id":"d3fc5f7e-9983-4343-a9af-f36df7d45f29","system_id":"levelo_inurba_marseille","lat":43.2318,"lon":5.3998,"is_reserved":false,"is_disabled":false,"rental_uris":{"android":"levelo://app?vid=d3fc5f7e-9983-4343-a9af-f36df7d45f29","ios":"levelo://app?vid=d3fc5f7e-9983-4343-a9af-f36df7d45f29"},"vehicle_type_id":"4","last_reported":1739498999,"current_range_meters":22800,"station_id":"ce4bhn12rcd13ifvqgqg","pricing_plan_id":"cebpf4jnsgd1na2vs0mg"},{"bike_id":"d01cfddf-7881-4b7c-815e-f570bddc475f","system_id":"levelo_inurba_marseille","lat":43.2795,"lon":5.41064,"is_reserved":false,"is_disabled":false,"rental_uris":{"android":"levelo://app?vid=d01cfddf-7881-4b7c-815e-f570bddc475f","ios":"levelo://app?vid=d01cfddf-7881-4b7c-815e-f570bddc475f"},"vehicle_type_id":"4","last_reported":1739498999,"current_range_meters":38800,"station_id":"ce4bhnp2rcd13ifvqh0g","pricing_plan_id":"cebpf4jnsgd1na2vs0mg"},{"bike_id":"e1a97b63-caf3-40dd-b207-454b1a2022f4","system_id":"levelo_inurba_marseille","lat":43.28467,"lon":5.35906,"is_reserved":false,"is_disabled":false,"rental_uris":{"android":"levelo://app?vid=e1a97b63-caf3-40dd-b207-454b1a2022f4","ios":"levelo://app?vid=e1a97b63-caf3-40dd-b207-454b1a2022f4"},"vehicle_type_id":"4","last_reported":1739498999,"current_range_meters":28000,"station_id":"ce4bhah2rcd13ifvqei0","pricing_plan_id":"cebpf4jnsgd1na2vs0mg"},{"bike_id":"28c5e9aa-452d-4d6e-b50e-dc20a3741ecb","system_id":"levelo_inurba_marseille","lat":43.30332,"lon":5.4043,"is_reserved":false,"is_disabled":false,"rental_uris":{"android":"levelo://app?vid=28c5e9aa-452d-4d6e-b50e-dc20a3741ecb","ios":"levelo://app?vid=28c5e9aa-452d-4d6e-b50e-dc20a3741ecb"},"vehicle_type_id":"4","last_reported":1739498999,"current_range_meters":38800,"station_id":"ce4bh012rcd13ifvqd10","pricing_plan_id":"cebpf4jnsgd1na2vs0mg"},{"bike_id":"b2e906e9-89b3-460c-8ab5-43a6dad1117c","system_id":"levelo_inurba_marseille","lat":43.27056,"lon":5.40265,"is_reserved":false,"is_disabled":false,"rental_uris":{"android":"levelo://app?vid=b2e906e9-89b3-460c-8ab5-43a6dad1117c","ios":"levelo://app?vid=b2e906e9-89b3-460c-8ab5-43a6dad1117c"},"vehicle_type_id":"4","last_reported":1739498999,"current_range_meters":30800,"station_id":"ce4bhk92rcd13ifvqgc0","pricing_plan_id":"cebpf4jnsgd1na2vs0mg"},{"bike_id":"901e7743-b134-43a8-b97a-51df91282196","system_id":"levelo_inurba_marseille","lat":43.29524,"lon":5.39402,"is_reserved":false,"is_disabled":false,"rental_uris":{"android":"levelo://app?vid=901e7743-b134-43a8-b97a-51df91282196","ios":"levelo://app?vid=901e7743-b134-43a8-b97a-51df91282196"},"vehicle_type_id":"4","last_reported":1739498999,"current_range_meters":38800,"station_id":"ce4bh292rcd13ifvqdf0","pricing_plan_id":"cebpf4jnsgd1na2vs0mg"},{"bike_id":"c40e2cb9-b89c-4dbd-956b-535ef79f1d37","system_id":"levelo_inurba_marseille","lat":43.24807,"lon":5.37454,"is_reserved":false,"is_disabled":false,"rental_uris":{"android":"levelo://app?vid=c40e2cb9-b89c-4dbd-956b-535ef79f1d37","ios":"levelo://app?vid=c40e2cb9-b89c-4dbd-956b-535ef79f1d37"},"vehicle_type_id":"4","last_reported":1739498999,"current_range_meters":29600,"station_id":"ce4bhgh2rcd13ifvqfb0","pricing_plan_id":"cebpf4jnsgd1na2vs0mg"},{"bike_id":"7cd0daa1-55ff-4122-a5aa-b2ad843b72ea","system_id":"levelo_inurba_marseille","lat":43.280974,"lon":5.398536,"is_reserved":false,"is_disabled":false,"rental_uris":{"android":"levelo://app?vid=7cd0daa1-55ff-4122-a5aa-b2ad843b72ea","ios":"levelo://app?vid=7cd0daa1-55ff-4122-a5aa-b2ad843b72ea"},"vehicle_type_id":"4","last_reported":1739498999,"current_range_meters":9200,"station_id":"","pricing_plan_id":"cebpf4jnsgd1na2vs0mg"},{"bike_id":"79665ef5-e5c4-4fbd-9a3d-55fc72ed1691","system_id":"levelo_inurba_marseille","lat":43.28685,"lon":5.39999,"is_reserved":false,"is_disabled":false,"rental_uris":{"android":"levelo://app?vid=79665ef5-e5c4-4fbd-9a3d-55fc72ed1691","ios":"levelo://app?vid=79665ef5-e5c4-4fbd-9a3d-55fc72ed1691"},"vehicle_type_id":"4","last_reported":1739498999,"current_range_meters":37600,"station_id":"ce4bho92rcd13ifvqh3g","pricing_plan_id":"cebpf4jnsgd1na2vs0mg"},{"bike_id":"d94ad0a4-4209-47fc-bb1e-86a94e106366","system_id":"levelo_inurba_marseille","lat":43.28846,"lon":5.35857,"is_reserved":false,"is_disabled":false,"rental_uris":{"android":"levelo://app?vid=d94ad0a4-4209-47fc-bb1e-86a94e106366","ios":"levelo://app?vid=d94ad0a4-4209-47fc-bb1e-86a94e106366"},"vehicle_type_id":"4","last_reported":1739498999,"current_range_meters":9600,"station_id":"ce4bhb12rcd13ifvqem0","pricing_plan_id":"cebpf4jnsgd1na2vs0mg"},{"bike_id":"ee079ffa-4416-4a91-bc98-3bd665acea3b","system_id":"levelo_inurba_marseille","lat":43.33726,"lon":5.39177,"is_reserved":false,"is_disabled":false,"rental_uris":{"android":"levelo://app?vid=ee079ffa-4416-4a91-bc98-3bd665acea3b","ios":"levelo://app?vid=ee079ffa-4416-4a91-bc98-3bd665acea3b"},"vehicle_type_id":"4","last_reported":1739498999,"current_range_meters":38800,"station_id":"ce4bhr92rcd13ifvqhsg","pricing_plan_id":"cebpf4jnsgd1na2vs0mg"},{"bike_id":"1fa82dc6-47d4-4356-bbca-393bf4461726","system_id":"levelo_inurba_marseille","lat":43.23935,"lon":5.36634,"is_reserved":false,"is_disabled":false,"rental_uris":{"android":"levelo://app?vid=1fa82dc6-47d4-4356-bbca-393bf4461726","ios":"levelo://app?vid=1fa82dc6-47d4-4356-bbca-393bf4461726"},"vehicle_type_id":"4","last_reported":1739498999,"current_range_meters":38000,"station_id":"ce4bhi12rcd13ifvqfp0","pricing_plan_id":"cebpf4jnsgd1na2vs0mg"},{"bike_id":"eafbb86e-0095-46c0-a2c6-0835e69f8ed6","system_id":"levelo_inurba_marseille","lat":43.305975,"lon":5.372387,"is_reserved":false,"is_disabled":false,"rental_uris":{"android":"levelo://app?vid=eafbb86e-0095-46c0-a2c6-0835e69f8ed6","ios":"levelo://app?vid=eafbb86e-0095-46c0-a2c6-0835e69f8ed6"},"vehicle_type_id":"4","last_reported":1739498999,"current_range_meters":37600,"station_id":"ce4bgqh2rcd13ifvqc4g","pricing_plan_id":"cebpf4jnsgd1na2vs0mg"},{"bike_id":"55851924-ebf6-45cb-af08-d48cd614ee56","system_id":"levelo_inurba_marseille","lat":43.27822,"lon":5.40705,"is_reserved":false,"is_disabled":false,"rental_uris":{"android":"levelo://app?vid=55851924-ebf6-45cb-af08-d48cd614ee56","ios":"levelo://app?vid=55851924-ebf6-45cb-af08-d48cd614ee56"},"vehicle_type_id":"4","last_reported":1739498999,"current_range_meters":38800,"station_id":"ce4bhnh2rcd13ifvqgtg","pricing_plan_id":"cebpf4jnsgd1na2vs0mg"},{"bike_id":"9638b1de-6e65-4723-820d-87a0cd11082b","system_id":"levelo_inurba_marseille","lat":43.29994,"lon":5.38484,"is_reserved":false,"is_disabled":true,"rental_uris":{"android":"levelo://app?vid=9638b1de-6e65-4723-820d-87a0cd11082b","ios":"levelo://app?vid=9638b1de-6e65-4723-820d-87a0cd11082b"},"vehicle_type_id":"4","last_reported":1739498999,"current_range_meters":37600,"station_id":"ce4bgj92rcd13ifvqbd0","pricing_plan_id":"cebpf4jnsgd1na2vs0mg"},{"bike_id":"e9f5cfb2-6a94-46a0-87e5-b878b5581699","system_id":"levelo_inurba_marseille","lat":43.28344,"lon":5.38106,"is_reserved":false,"is_disabled":false,"rental_uris":{"android":"levelo://app?vid=e9f5cfb2-6a94-46a0-87e5-b878b5581699","ios":"levelo://app?vid=e9f5cfb2-6a94-46a0-87e5-b878b5581699"},"vehicle_type_id":"4","last_reported":1739498999,"current_range_meters":32400,"station_id":"ce4bh412rcd13ifvqdr0","pricing_plan_id":"cebpf4jnsgd1na2vs0mg"},{"bike_id":"2a4b9998-a405-4a0e-9257-7329c18e12ae","system_id":"levelo_inurba_marseille","lat":43.24078,"lon":5.37751,"is_reserved":false,"is_disabled":false,"rental_uris":{"android":"levelo://app?vid=2a4b9998-a405-4a0e-9257-7329c18e12ae","ios":"levelo://app?vid=2a4b9998-a405-4a0e-9257-7329c18e12ae"},"vehicle_type_id":"4","last_reported":1739498999,"current_range_meters":17600,"station_id":"ce4bhnp2rcd13ifvqgvg","pricing_plan_id":"cebpf4jnsgd1na2vs0mg"},{"bike_id":"896ec56b-5525-4094-9b48-4e6034904017","system_id":"levelo_inurba_marseille","lat":43.3088,"lon":5.39634,"is_reserved":false,"is_disabled":false,"rental_uris":{"android":"levelo://app?vid=896ec56b-5525-4094-9b48-4e6034904017","ios":"levelo://app?vid=896ec56b-5525-4094-9b48-4e6034904017"},"vehicle_type_id":"4","last_reported":1739498999,"current_range_meters":38800,"station_id":"ce4bh012rcd13ifvqcv0","pricing_plan_id":"cebpf4jnsgd1na2vs0mg"},{"bike_id":"02477417-5146-4207-969a-6bc89988d219","system_id":"levelo_inurba_marseille","lat":43.28675,"lon":5.38645,"is_reserved":false,"is_disabled":false,"rental_uris":{"android":"levelo://app?vid=02477417-5146-4207-969a-6bc89988d219","ios":"levelo://app?vid=02477417-5146-4207-969a-6bc89988d219"},"vehicle_type_id":"4","last_reported":1739498999,"current_range_meters":37600,"station_id":"ce4bh492rcd13ifvqdug","pricing_plan_id":"cebpf4jnsgd1na2vs0mg"},{"bike_id":"83dc17c6-5483-4911-a98e-812dbdb1c9f8","system_id":"levelo_inurba_marseille","lat":43.29572,"lon":5.39961,"is_reserved":false,"is_disabled":false,"rental_uris":{"android":"levelo://app?vid=83dc17c6-5483-4911-a98e-812dbdb1c9f8","ios":"levelo://app?vid=83dc17c6-5483-4911-a98e-812dbdb1c9f8"},"vehicle_type_id":"4","last_reported":1739498999,"current_range_meters":36400,"station_id":"ce4bh312rcd13ifvqdj0","pricing_plan_id":"cebpf4jnsgd1na2vs0mg"},{"bike_id":"45f3f367-7300-440c-8e54-94f7fe66c0ff","system_id":"levelo_inurba_marseille","lat":43.26955,"lon":5.3866,"is_reserved":false,"is_disabled":false,"rental_uris":{"android":"levelo://app?vid=45f3f367-7300-440c-8e54-94f7fe66c0ff","ios":"levelo://app?vid=45f3f367-7300-440c-8e54-94f7fe66c0ff"},"vehicle_type_id":"4","last_reported":1739498999,"current_range_meters":24000,"station_id":"ce4bhh92rcd13ifvqfh0","pricing_plan_id":"cebpf4jnsgd1na2vs0mg"},{"bike_id":"a3c1a4ab-82f6-4315-9ed6-5bac6bafe89a","system_id":"levelo_inurba_marseille","lat":43.28706,"lon":5.36113,"is_reserved":false,"is_disabled":false,"rental_uris":{"android":"levelo://app?vid=a3c1a4ab-82f6-4315-9ed6-5bac6bafe89a","ios":"levelo://app?vid=a3c1a4ab-82f6-4315-9ed6-5bac6bafe89a"},"vehicle_type_id":"4","last_reported":1739498999,"current_range_meters":20000,"station_id":"cki0cbj6b192h4jlfktg","pricing_plan_id":"cebpf4jnsgd1na2vs0mg"},{"bike_id":"3f0d5a9b-ed4b-4d06-952e-029576553500","system_id":"levelo_inurba_marseille","lat":43.26063,"lon":5.39397,"is_reserved":false,"is_disabled":false,"rental_uris":{"android":"levelo://app?vid=3f0d5a9b-ed4b-4d06-952e-029576553500","ios":"levelo://app?vid=3f0d5a9b-ed4b-4d06-952e-029576553500"},"vehicle_type_id":"4","last_reported":1739498999,"current_range_meters":36000,"station_id":"ce4bhh92rcd13ifvqfj0","pricing_plan_id":"cebpf4jnsgd1na2vs0mg"},{"bike_id":"0f2de5cd-c636-4001-ab39-c26b347a3fee","system_id":"levelo_inurba_marseille","lat":43.26069,"lon":5.39393,"is_reserved":false,"is_disabled":false,"rental_uris":{"android":"levelo://app?vid=0f2de5cd-c636-4001-ab39-c26b347a3fee","ios":"levelo://app?vid=0f2de5cd-c636-4001-ab39-c26b347a3fee"},"vehicle_type_id":"4","last_reported":1739498999,"current_range_meters":37600,"station_id":"ce4bhh92rcd13ifvqfj0","pricing_plan_id":"cebpf4jnsgd1na2vs0mg"},{"bike_id":"e4ca1662-d43f-4406-b6e6-8717e14c2cad","system_id":"levelo_inurba_marseille","lat":43.28459,"lon":5.35895,"is_reserved":false,"is_disabled":false,"rental_uris":{"android":"levelo://app?vid=e4ca1662-d43f-4406-b6e6-8717e14c2cad","ios":"levelo://app?vid=e4ca1662-d43f-4406-b6e6-8717e14c2cad"},"vehicle_type_id":"4","last_reported":1739498999,"current_range_meters":13600,"station_id":"ce4bhah2rcd13ifvqei0","pricing_plan_id":"cebpf4jnsgd1na2vs0mg"},{"bike_id":"64c6b46b-656d-4ea4-b38b-769c889a07b3","system_id":"levelo_inurba_marseille","lat":43.26564,"lon":5.39009,"is_reserved":false,"is_disabled":false,"rental_uris":{"android":"levelo://app?vid=64c6b46b-656d-4ea4-b38b-769c889a07b3","ios":"levelo://app?vid=64c6b46b-656d-4ea4-b38b-769c889a07b3"},"vehicle_type_id":"4","last_reported":1739498999,"current_range_meters":38000,"station_id":"ce4bhe12rcd13ifvqf30","pricing_plan_id":"cebpf4jnsgd1na2vs0mg"},{"bike_id":"a9591f57-40b0-4884-aa29-23cc39ec7d64","system_id":"levelo_inurba_marseille","lat":43.26219,"lon":5.37435,"is_reserved":false,"is_disabled":true,"rental_uris":{"android":"levelo://app?vid=a9591f57-40b0-4884-aa29-23cc39ec7d64","ios":"levelo://app?vid=a9591f57-40b0-4884-aa29-23cc39ec7d64"},"vehicle_type_id":"4","last_reported":1739498999,"current_range_meters":0,"station_id":"ce4bhgp2rcd13ifvqfc0","pricing_plan_id":"cebpf4jnsgd1na2vs0mg"},{"bike_id":"341bf852-e4fc-4047-8754-8aa7c092413b","system_id":"levelo_inurba_marseille","lat":43.2952,"lon":5.39416,"is_reserved":false,"is_disabled":false,"rental_uris":{"android":"levelo://app?vid=341bf852-e4fc-4047-8754-8aa7c092413b","ios":"levelo://app?vid=341bf852-e4fc-4047-8754-8aa7c092413b"},"vehicle_type_id":"4","last_reported":1739498999,"current_range_meters":37600,"station_id":"ce4bh292rcd13ifvqdf0","pricing_plan_id":"cebpf4jnsgd1na2vs0mg"},{"bike_id":"977fc67a-ecda-40ac-a28d-323880edbfc1","system_id":"levelo_inurba_marseille","lat":43.303,"lon":5.37714,"is_reserved":false,"is_disabled":false,"rental_uris":{"android":"levelo://app?vid=977fc67a-ecda-40ac-a28d-323880edbfc1","ios":"levelo://app?vid=977fc67a-ecda-40ac-a28d-323880edbfc1"},"vehicle_type_id":"4","last_reported":1739498999,"current_range_meters":38800,"station_id":"ce4bguh2rcd13ifvqcj0","pricing_plan_id":"cebpf4jnsgd1na2vs0mg"},{"bike_id":"3fc76532-94d9-46ce-ac9c-407cd869dfb6","system_id":"levelo_inurba_marseille","lat":43.26569,"lon":5.39014,"is_reserved":false,"is_disabled":false,"rental_uris":{"android":"levelo://app?vid=3fc76532-94d9-46ce-ac9c-407cd869dfb6","ios":"levelo://app?vid=3fc76532-94d9-46ce-ac9c-407cd869dfb6"},"vehicle_type_id":"4","last_reported":1739498999,"current_range_meters":10000,"station_id":"ce4bhe12rcd13ifvqf30","pricing_plan_id":"cebpf4jnsgd1na2vs0mg"},{"bike_id":"10a93606-4322-4b35-acbd-09dfe6dc85e6","system_id":"levelo_inurba_marseille","lat":43.29201,"lon":5.36058,"is_reserved":false,"is_disabled":false,"rental_uris":{"android":"levelo://app?vid=10a93606-4322-4b35-acbd-09dfe6dc85e6","ios":"levelo://app?vid=10a93606-4322-4b35-acbd-09dfe6dc85e6"},"vehicle_type_id":"4","last_reported":1739498999,"current_range_meters":38800,"station_id":"ce4bhbh2rcd13ifvqeqg","pricing_plan_id":"cebpf4jnsgd1na2vs0mg"},{"bike_id":"08a86ebb-b290-4f14-9520-6a5a716f26bd","system_id":"levelo_inurba_marseille","lat":43.23975,"lon":5.36627,"is_reserved":false,"is_disabled":false,"rental_uris":{"android":"levelo://app?vid=08a86ebb-b290-4f14-9520-6a5a716f26bd","ios":"levelo://app?vid=08a86ebb-b290-4f14-9520-6a5a716f26bd"},"vehicle_type_id":"4","last_reported":1739498999,"current_range_meters":38000,"station_id":"ce4bhi12rcd13ifvqfp0","pricing_plan_id":"cebpf4jnsgd1na2vs0mg"},{"bike_id":"b2c8e25e-7296-4575-b1ef-5c3d523d95d3","system_id":"levelo_inurba_marseille","lat":43.33018,"lon":5.39034,"is_reserved":false,"is_disabled":false,"rental_uris":{"android":"levelo://app?vid=b2c8e25e-7296-4575-b1ef-5c3d523d95d3","ios":"levelo://app?vid=b2c8e25e-7296-4575-b1ef-5c3d523d95d3"},"vehicle_type_id":"4","last_reported":1739498999,"current_range_meters":38800,"station_id":"ce4bhr92rcd13ifvqhrg","pricing_plan_id":"cebpf4jnsgd1na2vs0mg"},{"bike_id":"922918fa-fdd9-418e-b214-07399b522abe","system_id":"levelo_inurba_marseille","lat":43.24173,"lon":5.39709,"is_reserved":false,"is_disabled":false,"rental_uris":{"android":"levelo://app?vid=922918fa-fdd9-418e-b214-07399b522abe","ios":"levelo://app?vid=922918fa-fdd9-418e-b214-07399b522abe"},"vehicle_type_id":"4","last_reported":1739498999,"current_range_meters":28000,"station_id":"ce4bhn12rcd13ifvqgpg","pricing_plan_id":"cebpf4jnsgd1na2vs0mg"},{"bike_id":"678d6f34-cd9a-429e-868e-3a5dabab2e1e","system_id":"levelo_inurba_marseille","lat":43.31534,"lon":5.3803,"is_reserved":false,"is_disabled":false,"rental_uris":{"android":"levelo://app?vid=678d6f34-cd9a-429e-868e-3a5dabab2e1e","ios":"levelo://app?vid=678d6f34-cd9a-429e-868e-3a5dabab2e1e"},"vehicle_type_id":"4","last_reported":1739498999,"current_range_meters":32000,"station_id":"ce4bhsp2rcd13ifvqi50","pricing_plan_id":"cebpf4jnsgd1na2vs0mg"},{"bike_id":"23849fcd-4bc4-44f6-8337-e9a9a16fe0e7","system_id":"levelo_inurba_marseille","lat":43.29734,"lon":5.47957,"is_reserved":false,"is_disabled":false,"rental_uris":{"android":"levelo://app?vid=23849fcd-4bc4-44f6-8337-e9a9a16fe0e7","ios":"levelo://app?vid=23849fcd-4bc4-44f6-8337-e9a9a16fe0e7"},"vehicle_type_id":"4","last_reported":1739498999,"current_range_meters":6000,"station_id":"","pricing_plan_id":"cebpf4jnsgd1na2vs0mg"},{"bike_id":"94a02a33-068d-4baf-bb41-2fc56339c18e","system_id":"levelo_inurba_marseille","lat":43.28035,"lon":5.36955,"is_reserved":false,"is_disabled":false,"rental_uris":{"android":"levelo://app?vid=94a02a33-068d-4baf-bb41-2fc56339c18e","ios":"levelo://app?vid=94a02a33-068d-4baf-bb41-2fc56339c18e"},"vehicle_type_id":"4","last_reported":1739498999,"current_range_meters":24000,"station_id":"ce4bha12rcd13ifvqef0","pricing_plan_id":"cebpf4jnsgd1na2vs0mg"},{"bike_id":"b3fd0009-bbb7-4e76-a71a-f46e8625ffa6","system_id":"levelo_inurba_marseille","lat":43.28339,"lon":5.38118,"is_reserved":false,"is_disabled":false,"rental_uris":{"android":"levelo://app?vid=b3fd0009-bbb7-4e76-a71a-f46e8625ffa6","ios":"levelo://app?vid=b3fd0009-bbb7-4e76-a71a-f46e8625ffa6"},"vehicle_type_id":"4","last_reported":1739498999,"current_range_meters":24400,"station_id":"ce4bh412rcd13ifvqdr0","pricing_plan_id":"cebpf4jnsgd1na2vs0mg"},{"bike_id":"978ca430-5806-427e-a6a2-e650f48ff5c5","system_id":"levelo_inurba_marseille","lat":43.27988,"lon":5.4002,"is_reserved":false,"is_disabled":false,"rental_uris":{"android":"levelo://app?vid=978ca430-5806-427e-a6a2-e650f48ff5c5","ios":"levelo://app?vid=978ca430-5806-427e-a6a2-e650f48ff5c5"},"vehicle_type_id":"4","last_reported":1739498999,"current_range_meters":24000,"station_id":"ce4bho92rcd13ifvqh4g","pricing_plan_id":"cebpf4jnsgd1na2vs0mg"},{"bike_id":"bb4d395a-845a-4702-857d-85bf095d5271","system_id":"levelo_inurba_marseille","lat":43.29888,"lon":5.3974,"is_reserved":false,"is_disabled":false,"rental_uris":{"android":"levelo://app?vid=bb4d395a-845a-4702-857d-85bf095d5271","ios":"levelo://app?vid=bb4d395a-845a-4702-857d-85bf095d5271"},"vehicle_type_id":"4","last_reported":1739498999,"current_range_meters":38800,"station_id":"ce4bh0h2rcd13ifvqd50","pricing_plan_id":"cebpf4jnsgd1na2vs0mg"},{"bike_id":"0ab7eec2-6119-4907-ba85-b80b32964c1c","system_id":"levelo_inurba_marseille","lat":43.31179,"lon":5.38703,"is_reserved":false,"is_disabled":false,"rental_uris":{"android":"levelo://app?vid=0ab7eec2-6119-4907-ba85-b80b32964c1c","ios":"levelo://app?vid=0ab7eec2-6119-4907-ba85-b80b32964c1c"},"vehicle_type_id":"4","last_reported":1739498999,"current_range_meters":10000,"station_id":"ce4bgv12rcd13ifvqcp0","pricing_plan_id":"cebpf4jnsgd1na2vs0mg"},{"bike_id":"6cfbf51a-4ec4-4b50-afa2-a58eb7355bc4","system_id":"levelo_inurba_marseille","lat":43.32717,"lon":5.39175,"is_reserved":false,"is_disabled":false,"rental_uris":{"android":"levelo://app?vid=6cfbf51a-4ec4-4b50-afa2-a58eb7355bc4","ios":"levelo://app?vid=6cfbf51a-4ec4-4b50-afa2-a58eb7355bc4"},"vehicle_type_id":"4","last_reported":1739498999,"current_range_meters":25200,"station_id":"","pricing_plan_id":"cebpf4jnsgd1na2vs0mg"},{"bike_id":"2ffed822-7174-41f8-ad36-b592fa66c5a6","system_id":"levelo_inurba_marseille","lat":43.23067,"lon":5.35497,"is_reserved":false,"is_disabled":false,"rental_uris":{"android":"levelo://app?vid=2ffed822-7174-41f8-ad36-b592fa66c5a6","ios":"levelo://app?vid=2ffed822-7174-41f8-ad36-b592fa66c5a6"},"vehicle_type_id":"4","last_reported":1739498999,"current_range_meters":8000,"station_id":"cpo3342slgdg3j2ifvpg","pricing_plan_id":"cebpf4jnsgd1na2vs0mg"},{"bike_id":"1f91cd7a-cebf-4ea0-9a53-a7c89148183a","system_id":"levelo_inurba_marseille","lat":43.24672,"lon":5.38153,"is_reserved":false,"is_disabled":false,"rental_uris":{"android":"levelo://app?vid=1f91cd7a-cebf-4ea0-9a53-a7c89148183a","ios":"levelo://app?vid=1f91cd7a-cebf-4ea0-9a53-a7c89148183a"},"vehicle_type_id":"4","last_reported":1739498999,"current_range_meters":12000,"station_id":"ce4bhih2rcd13ifvqfr0","pricing_plan_id":"cebpf4jnsgd1na2vs0mg"},{"bike_id":"90069231-8d02-46fd-ba3f-d8e7e83900ee","system_id":"levelo_inurba_marseille","lat":43.28831,"lon":5.43789,"is_reserved":false,"is_disabled":true,"rental_uris":{"android":"levelo://app?vid=90069231-8d02-46fd-ba3f-d8e7e83900ee","ios":"levelo://app?vid=90069231-8d02-46fd-ba3f-d8e7e83900ee"},"vehicle_type_id":"4","last_reported":1739498999,"current_range_meters":0,"station_id":"","pricing_plan_id":"cebpf4jnsgd1na2vs0mg"},{"bike_id":"9d249881-5a15-4231-8a5b-9e0b021f19d2","system_id":"levelo_inurba_marseille","lat":43.27964,"lon":5.38731,"is_reserved":false,"is_disabled":true,"rental_uris":{"android":"levelo://app?vid=9d249881-5a15-4231-8a5b-9e0b021f19d2","ios":"levelo://app?vid=9d249881-5a15-4231-8a5b-9e0b021f19d2"},"vehicle_type_id":"4","last_reported":1739498999,"current_range_meters":33600,"station_id":"ce4bhg12rcd13ifvqf80","pricing_plan_id":"cebpf4jnsgd1na2vs0mg"},{"bike_id":"d9a997f1-9b9a-40fb-8842-705205b91da2","system_id":"levelo_inurba_marseille","lat":43.316994,"lon":5.377676,"is_reserved":false,"is_disabled":false,"rental_uris":{"android":"levelo://app?vid=d9a997f1-9b9a-40fb-8842-705205b91da2","ios":"levelo://app?vid=d9a997f1-9b9a-40fb-8842-705205b91da2"},"vehicle_type_id":"4","last_reported":1739498999,"current_range_meters":38800,"station_id":"ce4bgth2rcd13ifvqch0","pricing_plan_id":"cebpf4jnsgd1na2vs0mg"},{"bike_id":"21af4f6e-7ea6-4d16-a6b7-895889e3fb75","system_id":"levelo_inurba_marseille","lat":43.31063,"lon":5.38357,"is_reserved":false,"is_disabled":false,"rental_uris":{"android":"levelo://app?vid=21af4f6e-7ea6-4d16-a6b7-895889e3fb75","ios":"levelo://app?vid=21af4f6e-7ea6-4d16-a6b7-895889e3fb75"},"vehicle_type_id":"4","last_reported":1739498999,"current_range_meters":38800,"station_id":"ce4bgv92rcd13ifvqcr0","pricing_plan_id":"cebpf4jnsgd1na2vs0mg"},{"bike_id":"8878e5e8-e13c-4318-b499-fd415887d7cd","system_id":"levelo_inurba_marseille","lat":43.239641,"lon":5.366414,"is_reserved":false,"is_disabled":false,"rental_uris":{"android":"levelo://app?vid=8878e5e8-e13c-4318-b499-fd415887d7cd","ios":"levelo://app?vid=8878e5e8-e13c-4318-b499-fd415887d7cd"},"vehicle_type_id":"4","last_reported":1739498999,"current_range_meters":5600,"station_id":"ce4bhi12rcd13ifvqfp0","pricing_plan_id":"cebpf4jnsgd1na2vs0mg"},{"bike_id":"d6d61c8e-dde7-465e-9168-1931099a05b8","system_id":"levelo_inurba_marseille","lat":43.28725,"lon":5.36084,"is_reserved":false,"is_disabled":false,"rental_uris":{"android":"levelo://app?vid=d6d61c8e-dde7-465e-9168-1931099a05b8","ios":"levelo://app?vid=d6d61c8e-dde7-465e-9168-1931099a05b8"},"vehicle_type_id":"4","last_reported":1739498999,"current_range_meters":9200,"station_id":"cki0cbj6b192h4jlfktg","pricing_plan_id":"cebpf4jnsgd1na2vs0mg"},{"bike_id":"722c03d4-5f09-4a1d-bb2e-829c66405a32","system_id":"levelo_inurba_marseille","lat":43.27921,"lon":5.39563,"is_reserved":false,"is_disabled":true,"rental_uris":{"android":"levelo://app?vid=722c03d4-5f09-4a1d-bb2e-829c66405a32","ios":"levelo://app?vid=722c03d4-5f09-4a1d-bb2e-829c66405a32"},"vehicle_type_id":"4","last_reported":1739498999,"current_range_meters":37600,"station_id":"ce4bhf92rcd13ifvqf40","pricing_plan_id":"cebpf4jnsgd1na2vs0mg"},{"bike_id":"8f4abdc5-190d-46ac-8bfa-22d4a516235b","system_id":"levelo_inurba_marseille","lat":43.31364,"lon":5.38502,"is_reserved":false,"is_disabled":false,"rental_uris":{"android":"levelo://app?vid=8f4abdc5-190d-46ac-8bfa-22d4a516235b","ios":"levelo://app?vid=8f4abdc5-190d-46ac-8bfa-22d4a516235b"},"vehicle_type_id":"4","last_reported":1739498999,"current_range_meters":24800,"station_id":"ce4bgt92rcd13ifvqcf0","pricing_plan_id":"cebpf4jnsgd1na2vs0mg"},{"bike_id":"2750375a-d37d-4078-9d85-f14af8e90f30","system_id":"levelo_inurba_marseille","lat":43.26479,"lon":5.39581,"is_reserved":false,"is_disabled":false,"rental_uris":{"android":"levelo://app?vid=2750375a-d37d-4078-9d85-f14af8e90f30","ios":"levelo://app?vid=2750375a-d37d-4078-9d85-f14af8e90f30"},"vehicle_type_id":"4","last_reported":1739498999,"current_range_meters":38000,"station_id":"ce4bhi12rcd13ifvqfq0","pricing_plan_id":"cebpf4jnsgd1na2vs0mg"},{"bike_id":"883a41ef-5b2f-4887-a49d-ab0d96979872","system_id":"levelo_inurba_marseille","lat":43.286175,"lon":5.351071,"is_reserved":false,"is_disabled":false,"rental_uris":{"android":"levelo://app?vid=883a41ef-5b2f-4887-a49d-ab0d96979872","ios":"levelo://app?vid=883a41ef-5b2f-4887-a49d-ab0d96979872"},"vehicle_type_id":"4","last_reported":1739498999,"current_range_meters":35200,"station_id":"ce4bhch2rcd13ifvqeug","pricing_plan_id":"cebpf4jnsgd1na2vs0mg"},{"bike_id":"00d56cf1-086d-4634-a590-acaef2a38372","system_id":"levelo_inurba_marseille","lat":43.26053,"lon":5.39392,"is_reserved":false,"is_disabled":false,"rental_uris":{"android":"levelo://app?vid=00d56cf1-086d-4634-a590-acaef2a38372","ios":"levelo://app?vid=00d56cf1-086d-4634-a590-acaef2a38372"},"vehicle_type_id":"4","last_reported":1739498999,"current_range_meters":38800,"station_id":"ce4bhh92rcd13ifvqfj0","pricing_plan_id":"cebpf4jnsgd1na2vs0mg"},{"bike_id":"f502111f-7748-48e8-918b-58ab12805627","system_id":"levelo_inurba_marseille","lat":43.2795,"lon":5.41047,"is_reserved":false,"is_disabled":false,"rental_uris":{"android":"levelo://app?vid=f502111f-7748-48e8-918b-58ab12805627","ios":"levelo://app?vid=f502111f-7748-48e8-918b-58ab12805627"},"vehicle_type_id":"4","last_reported":1739498999,"current_range_meters":38800,"station_id":"ce4bhnp2rcd13ifvqh0g","pricing_plan_id":"cebpf4jnsgd1na2vs0mg"},{"bike_id":"504d882a-c353-4a85-a3a8-b39dc28a857a","system_id":"levelo_inurba_marseille","lat":43.30808,"lon":5.38166,"is_reserved":false,"is_disabled":false,"rental_uris":{"android":"levelo://app?vid=504d882a-c353-4a85-a3a8-b39dc28a857a","ios":"levelo://app?vid=504d882a-c353-4a85-a3a8-b39dc28a857a"},"vehicle_type_id":"4","last_reported":1739498999,"current_range_meters":16000,"station_id":"ce4bgt12rcd13ifvqce0","pricing_plan_id":"cebpf4jnsgd1na2vs0mg"},{"bike_id":"5016e875-414a-41bd-8f00-6a5845e39ba6","system_id":"levelo_inurba_marseille","lat":43.308,"lon":5.43529,"is_reserved":false,"is_disabled":false,"rental_uris":{"android":"levelo://app?vid=5016e875-414a-41bd-8f00-6a5845e39ba6","ios":"levelo://app?vid=5016e875-414a-41bd-8f00-6a5845e39ba6"},"vehicle_type_id":"4","last_reported":1739498999,"current_range_meters":36800,"station_id":"ce4bhph2rcd13ifvqheg","pricing_plan_id":"cebpf4jnsgd1na2vs0mg"},{"bike_id":"26fca7c2-5eb0-4444-b69c-4560b72548ac","system_id":"levelo_inurba_marseille","lat":43.31272,"lon":5.40171,"is_reserved":false,"is_disabled":false,"rental_uris":{"android":"levelo://app?vid=26fca7c2-5eb0-4444-b69c-4560b72548ac","ios":"levelo://app?vid=26fca7c2-5eb0-4444-b69c-4560b72548ac"},"vehicle_type_id":"4","last_reported":1739498999,"current_range_meters":19200,"station_id":"ce4bh092rcd13ifvqd30","pricing_plan_id":"cebpf4jnsgd1na2vs0mg"},{"bike_id":"68563780-e76c-44b3-9559-8353f8de7cb4","system_id":"levelo_inurba_marseille","lat":43.29576,"lon":5.39971,"is_reserved":false,"is_disabled":false,"rental_uris":{"android":"levelo://app?vid=68563780-e76c-44b3-9559-8353f8de7cb4","ios":"levelo://app?vid=68563780-e76c-44b3-9559-8353f8de7cb4"},"vehicle_type_id":"4","last_reported":1739498999,"current_range_meters":38800,"station_id":"ce4bh312rcd13ifvqdj0","pricing_plan_id":"cebpf4jnsgd1na2vs0mg"},{"bike_id":"39d40468-b29c-46fb-aaf9-a1a8071ae0f6","system_id":"levelo_inurba_marseille","lat":43.29968,"lon":5.41309,"is_reserved":false,"is_disabled":false,"rental_uris":{"android":"levelo://app?vid=39d40468-b29c-46fb-aaf9-a1a8071ae0f6","ios":"levelo://app?vid=39d40468-b29c-46fb-aaf9-a1a8071ae0f6"},"vehicle_type_id":"4","last_reported":1739498999,"current_range_meters":37600,"station_id":"ce4bhp12rcd13ifvqh9g","pricing_plan_id":"cebpf4jnsgd1na2vs0mg"},{"bike_id":"cf586230-3e5f-4695-8a1a-0a97e8ca5b40","system_id":"levelo_inurba_marseille","lat":43.31069,"lon":5.38356,"is_reserved":false,"is_disabled":false,"rental_uris":{"android":"levelo://app?vid=cf586230-3e5f-4695-8a1a-0a97e8ca5b40","ios":"levelo://app?vid=cf586230-3e5f-4695-8a1a-0a97e8ca5b40"},"vehicle_type_id":"4","last_reported":1739498999,"current_range_meters":28800,"station_id":"ce4bgv92rcd13ifvqcr0","pricing_plan_id":"cebpf4jnsgd1na2vs0mg"},{"bike_id":"7ab1a7b8-fddf-4296-90cf-919e5783cfe8","system_id":"levelo_inurba_marseille","lat":43.251182,"lon":5.4032,"is_reserved":false,"is_disabled":false,"rental_uris":{"android":"levelo://app?vid=7ab1a7b8-fddf-4296-90cf-919e5783cfe8","ios":"levelo://app?vid=7ab1a7b8-fddf-4296-90cf-919e5783cfe8"},"vehicle_type_id":"4","last_reported":1739498999,"current_range_meters":31200,"station_id":"ce4bhlh2rcd13ifvqgig","pricing_plan_id":"cebpf4jnsgd1na2vs0mg"},{"bike_id":"4d77db09-905c-49b4-96d1-a6c7bd4303b6","system_id":"levelo_inurba_marseille","lat":43.27383,"lon":5.36251,"is_reserved":false,"is_disabled":false,"rental_uris":{"android":"levelo://app?vid=4d77db09-905c-49b4-96d1-a6c7bd4303b6","ios":"levelo://app?vid=4d77db09-905c-49b4-96d1-a6c7bd4303b6"},"vehicle_type_id":"4","last_reported":1739498999,"current_range_meters":32000,"station_id":"ce4bhbh2rcd13ifvqeo0","pricing_plan_id":"cebpf4jnsgd1na2vs0mg"},{"bike_id":"8fd4fd35-b145-4a8c-a6eb-54e222cc3ec4","system_id":"levelo_inurba_marseille","lat":43.29203,"lon":5.35784,"is_reserved":false,"is_disabled":false,"rental_uris":{"android":"levelo://app?vid=8fd4fd35-b145-4a8c-a6eb-54e222cc3ec4","ios":"levelo://app?vid=8fd4fd35-b145-4a8c-a6eb-54e222cc3ec4"},"vehicle_type_id":"4","last_reported":1739498999,"current_range_meters":26000,"station_id":"ce4bhb12rcd13ifvqel0","pricing_plan_id":"cebpf4jnsgd1na2vs0mg"},{"bike_id":"79e5ad63-abd5-4d07-9e51-60dc9e7253cd","system_id":"levelo_inurba_marseille","lat":43.231956,"lon":5.399871,"is_reserved":false,"is_disabled":true,"rental_uris":{"android":"levelo://app?vid=79e5ad63-abd5-4d07-9e51-60dc9e7253cd","ios":"levelo://app?vid=79e5ad63-abd5-4d07-9e51-60dc9e7253cd"},"vehicle_type_id":"4","last_reported":1739498999,"current_range_meters":0,"station_id":"ce4bhn12rcd13ifvqgqg","pricing_plan_id":"cebpf4jnsgd1na2vs0mg"},{"bike_id":"a0bb3239-6312-40a3-8801-e3741eced193","system_id":"levelo_inurba_marseille","lat":43.29549,"lon":5.42252,"is_reserved":false,"is_disabled":false,"rental_uris":{"android":"levelo://app?vid=a0bb3239-6312-40a3-8801-e3741eced193","ios":"levelo://app?vid=a0bb3239-6312-40a3-8801-e3741eced193"},"vehicle_type_id":"4","last_reported":1739498999,"current_range_meters":38000,"station_id":"ce4bhph2rcd13ifvqhdg","pricing_plan_id":"cebpf4jnsgd1na2vs0mg"},{"bike_id":"492e558b-0ce5-4984-b6b1-1d33f225a96b","system_id":"levelo_inurba_marseille","lat":43.24166,"lon":5.36405,"is_reserved":false,"is_disabled":false,"rental_uris":{"android":"levelo://app?vid=492e558b-0ce5-4984-b6b1-1d33f225a96b","ios":"levelo://app?vid=492e558b-0ce5-4984-b6b1-1d33f225a96b"},"vehicle_type_id":"4","last_reported":1739498999,"current_range_meters":38800,"station_id":"cpo36qri1sfpv3e86is0","pricing_plan_id":"cebpf4jnsgd1na2vs0mg"},{"bike_id":"6bf99e3e-9f10-4617-93f9-2e16108e33a0","system_id":"levelo_inurba_marseille","lat":43.23156,"lon":5.43697,"is_reserved":false,"is_disabled":false,"rental_uris":{"android":"levelo://app?vid=6bf99e3e-9f10-4617-93f9-2e16108e33a0","ios":"levelo://app?vid=6bf99e3e-9f10-4617-93f9-2e16108e33a0"},"vehicle_type_id":"4","last_reported":1739498999,"current_range_meters":38800,"station_id":"ce4bhmp2rcd13ifvqgog","pricing_plan_id":"cebpf4jnsgd1na2vs0mg"},{"bike_id":"4e761e9d-2b37-4a5a-9ff0-c8e96e0d42db","system_id":"levelo_inurba_marseille","lat":43.305987,"lon":5.372344,"is_reserved":false,"is_disabled":false,"rental_uris":{"android":"levelo://app?vid=4e761e9d-2b37-4a5a-9ff0-c8e96e0d42db","ios":"levelo://app?vid=4e761e9d-2b37-4a5a-9ff0-c8e96e0d42db"},"vehicle_type_id":"4","last_reported":1739498999,"current_range_meters":16800,"station_id":"ce4bgqh2rcd13ifvqc4g","pricing_plan_id":"cebpf4jnsgd1na2vs0mg"},{"bike_id":"10a6ad69-14c9-4b5c-8857-ff52411cbb31","system_id":"levelo_inurba_marseille","lat":43.28352,"lon":5.38099,"is_reserved":false,"is_disabled":false,"rental_uris":{"android":"levelo://app?vid=10a6ad69-14c9-4b5c-8857-ff52411cbb31","ios":"levelo://app?vid=10a6ad69-14c9-4b5c-8857-ff52411cbb31"},"vehicle_type_id":"4","last_reported":1739498999,"current_range_meters":28400,"station_id":"ce4bh412rcd13ifvqdr0","pricing_plan_id":"cebpf4jnsgd1na2vs0mg"},{"bike_id":"17359da5-754b-4c1f-9974-59fc1ea40a51","system_id":"levelo_inurba_marseille","lat":43.30575,"lon":5.3783,"is_reserved":false,"is_disabled":false,"rental_uris":{"android":"levelo://app?vid=17359da5-754b-4c1f-9974-59fc1ea40a51","ios":"levelo://app?vid=17359da5-754b-4c1f-9974-59fc1ea40a51"},"vehicle_type_id":"4","last_reported":1739498999,"current_range_meters":38000,"station_id":"ce4bgup2rcd13ifvqcn0","pricing_plan_id":"cebpf4jnsgd1na2vs0mg"},{"bike_id":"09eace02-6251-4f80-a76e-6a089392744f","system_id":"levelo_inurba_marseille","lat":43.28696,"lon":5.37409,"is_reserved":false,"is_disabled":false,"rental_uris":{"android":"levelo://app?vid=09eace02-6251-4f80-a76e-6a089392744f","ios":"levelo://app?vid=09eace02-6251-4f80-a76e-6a089392744f"},"vehicle_type_id":"4","last_reported":1739498999,"current_range_meters":30400,"station_id":"ce4bh3p2rcd13ifvqdq0","pricing_plan_id":"cebpf4jnsgd1na2vs0mg"},{"bike_id":"3e364230-e791-4719-a976-7d1bf64b79a1","system_id":"levelo_inurba_marseille","lat":43.31226,"lon":5.36888,"is_reserved":false,"is_disabled":true,"rental_uris":{"android":"levelo://app?vid=3e364230-e791-4719-a976-7d1bf64b79a1","ios":"levelo://app?vid=3e364230-e791-4719-a976-7d1bf64b79a1"},"vehicle_type_id":"4","last_reported":1739498999,"current_range_meters":800,"station_id":"ce4bgl92rcd13ifvqbq0","pricing_plan_id":"cebpf4jnsgd1na2vs0mg"},{"bike_id":"ff489825-db76-49d3-aa98-c1c0aaa6bdad","system_id":"levelo_inurba_marseille","lat":43.2923,"lon":5.36649,"is_reserved":false,"is_disabled":false,"rental_uris":{"android":"levelo://app?vid=ff489825-db76-49d3-aa98-c1c0aaa6bdad","ios":"levelo://app?vid=ff489825-db76-49d3-aa98-c1c0aaa6bdad"},"vehicle_type_id":"4","last_reported":1739498999,"current_range_meters":8000,"station_id":"","pricing_plan_id":"cebpf4jnsgd1na2vs0mg"},{"bike_id":"f0b1a7ef-60c9-49c5-b991-f5ccb4a44997","system_id":"levelo_inurba_marseille","lat":43.2815,"lon":5.426457,"is_reserved":false,"is_disabled":false,"rental_uris":{"android":"levelo://app?vid=f0b1a7ef-60c9-49c5-b991-f5ccb4a44997","ios":"levelo://app?vid=f0b1a7ef-60c9-49c5-b991-f5ccb4a44997"},"vehicle_type_id":"4","last_reported":1739498999,"current_range_meters":25200,"station_id":"ce4bhnh2rcd13ifvqgug","pricing_plan_id":"cebpf4jnsgd1na2vs0mg"},{"bike_id":"b05188c1-c27a-4360-a55b-799ca6e034cf","system_id":"levelo_inurba_marseille","lat":43.28052,"lon":5.36934,"is_reserved":false,"is_disabled":false,"rental_uris":{"android":"levelo://app?vid=b05188c1-c27a-4360-a55b-799ca6e034cf","ios":"levelo://app?vid=b05188c1-c27a-4360-a55b-799ca6e034cf"},"vehicle_type_id":"4","last_reported":1739498999,"current_range_meters":11200,"station_id":"ce4bha12rcd13ifvqef0","pricing_plan_id":"cebpf4jnsgd1na2vs0mg"},{"bike_id":"bace8bf9-f802-4769-a1ab-149feec80afe","system_id":"levelo_inurba_marseille","lat":43.28854,"lon":5.35857,"is_reserved":false,"is_disabled":false,"rental_uris":{"android":"levelo://app?vid=bace8bf9-f802-4769-a1ab-149feec80afe","ios":"levelo://app?vid=bace8bf9-f802-4769-a1ab-149feec80afe"},"vehicle_type_id":"4","last_reported":1739498999,"current_range_meters":37600,"station_id":"ce4bhb12rcd13ifvqem0","pricing_plan_id":"cebpf4jnsgd1na2vs0mg"},{"bike_id":"b5793197-90f8-46f4-812c-bfe71f90f59c","system_id":"levelo_inurba_marseille","lat":43.29627,"lon":5.40604,"is_reserved":false,"is_disabled":false,"rental_uris":{"android":"levelo://app?vid=b5793197-90f8-46f4-812c-bfe71f90f59c","ios":"levelo://app?vid=b5793197-90f8-46f4-812c-bfe71f90f59c"},"vehicle_type_id":"4","last_reported":1739498999,"current_range_meters":38800,"station_id":"ce4bh0h2rcd13ifvqd60","pricing_plan_id":"cebpf4jnsgd1na2vs0mg"},{"bike_id":"12a05f82-38e9-4838-b031-b182163447ac","system_id":"levelo_inurba_marseille","lat":43.30215,"lon":5.39482,"is_reserved":false,"is_disabled":false,"rental_uris":{"android":"levelo://app?vid=12a05f82-38e9-4838-b031-b182163447ac","ios":"levelo://app?vid=12a05f82-38e9-4838-b031-b182163447ac"},"vehicle_type_id":"4","last_reported":1739498999,"current_range_meters":38800,"station_id":"ce4bh0p2rcd13ifvqd70","pricing_plan_id":"cebpf4jnsgd1na2vs0mg"},{"bike_id":"af7ae1e3-87b2-4cd3-9b8f-a973c351af89","system_id":"levelo_inurba_marseille","lat":43.23216,"lon":5.39992,"is_reserved":false,"is_disabled":false,"rental_uris":{"android":"levelo://app?vid=af7ae1e3-87b2-4cd3-9b8f-a973c351af89","ios":"levelo://app?vid=af7ae1e3-87b2-4cd3-9b8f-a973c351af89"},"vehicle_type_id":"4","last_reported":1739498999,"current_range_meters":36400,"station_id":"ce4bhn12rcd13ifvqgqg","pricing_plan_id":"cebpf4jnsgd1na2vs0mg"},{"bike_id":"004dcd9f-fe33-47bd-93fa-19bdccc4b89f","system_id":"levelo_inurba_marseille","lat":43.251181,"lon":5.403092,"is_reserved":false,"is_disabled":false,"rental_uris":{"android":"levelo://app?vid=004dcd9f-fe33-47bd-93fa-19bdccc4b89f","ios":"levelo://app?vid=004dcd9f-fe33-47bd-93fa-19bdccc4b89f"},"vehicle_type_id":"4","last_reported":1739498999,"current_range_meters":38800,"station_id":"ce4bhm12rcd13ifvqgkg","pricing_plan_id":"cebpf4jnsgd1na2vs0mg"},{"bike_id":"4dbc26c6-2a15-45e7-b1cd-4e0586d88b2f","system_id":"levelo_inurba_marseille","lat":43.27378,"lon":5.36249,"is_reserved":false,"is_disabled":true,"rental_uris":{"android":"levelo://app?vid=4dbc26c6-2a15-45e7-b1cd-4e0586d88b2f","ios":"levelo://app?vid=4dbc26c6-2a15-45e7-b1cd-4e0586d88b2f"},"vehicle_type_id":"4","last_reported":1739498999,"current_range_meters":36800,"station_id":"ce4bhbh2rcd13ifvqeo0","pricing_plan_id":"cebpf4jnsgd1na2vs0mg"},{"bike_id":"2a8d5b38-12c7-43ca-969a-fe7b4ef5b359","system_id":"levelo_inurba_marseille","lat":43.316946,"lon":5.377418,"is_reserved":false,"is_disabled":true,"rental_uris":{"android":"levelo://app?vid=2a8d5b38-12c7-43ca-969a-fe7b4ef5b359","ios":"levelo://app?vid=2a8d5b38-12c7-43ca-969a-fe7b4ef5b359"},"vehicle_type_id":"4","last_reported":1739498999,"current_range_meters":400,"station_id":"ce4bgth2rcd13ifvqch0","pricing_plan_id":"cebpf4jnsgd1na2vs0mg"},{"bike_id":"6d5a124a-5ef9-4ef5-9f28-d40c1219dcc1","system_id":"levelo_inurba_marseille","lat":43.32364,"lon":5.38888,"is_reserved":false,"is_disabled":false,"rental_uris":{"android":"levelo://app?vid=6d5a124a-5ef9-4ef5-9f28-d40c1219dcc1","ios":"levelo://app?vid=6d5a124a-5ef9-4ef5-9f28-d40c1219dcc1"},"vehicle_type_id":"4","last_reported":1739498999,"current_range_meters":17200,"station_id":"ce4bhqp2rcd13ifvqhog","pricing_plan_id":"cebpf4jnsgd1na2vs0mg"},{"bike_id":"1f6ba3af-8859-467c-9802-ce9b84441ce9","system_id":"levelo_inurba_marseille","lat":43.278147,"lon":5.407157,"is_reserved":false,"is_disabled":false,"rental_uris":{"android":"levelo://app?vid=1f6ba3af-8859-467c-9802-ce9b84441ce9","ios":"levelo://app?vid=1f6ba3af-8859-467c-9802-ce9b84441ce9"},"vehicle_type_id":"4","last_reported":1739498999,"current_range_meters":3600,"station_id":"ce4bhnh2rcd13ifvqgtg","pricing_plan_id":"cebpf4jnsgd1na2vs0mg"},{"bike_id":"00f8a0ff-c4e3-42da-8103-f17cc4b1ba0d","system_id":"levelo_inurba_marseille","lat":43.28156,"lon":5.42644,"is_reserved":false,"is_disabled":false,"rental_uris":{"android":"levelo://app?vid=00f8a0ff-c4e3-42da-8103-f17cc4b1ba0d","ios":"levelo://app?vid=00f8a0ff-c4e3-42da-8103-f17cc4b1ba0d"},"vehicle_type_id":"4","last_reported":1739498999,"current_range_meters":19200,"station_id":"ce4bhnh2rcd13ifvqgug","pricing_plan_id":"cebpf4jnsgd1na2vs0mg"},{"bike_id":"d7211194-703e-4d7b-b1fc-6a1467a41aa6","system_id":"levelo_inurba_marseille","lat":43.28034,"lon":5.36948,"is_reserved":false,"is_disabled":false,"rental_uris":{"android":"levelo://app?vid=d7211194-703e-4d7b-b1fc-6a1467a41aa6","ios":"levelo://app?vid=d7211194-703e-4d7b-b1fc-6a1467a41aa6"},"vehicle_type_id":"4","last_reported":1739498999,"current_range_meters":38000,"station_id":"ce4bha12rcd13ifvqef0","pricing_plan_id":"cebpf4jnsgd1na2vs0mg"},{"bike_id":"5429a055-5c17-4863-ac08-ee7234bc7af8","system_id":"levelo_inurba_marseille","lat":43.322738,"lon":5.368361,"is_reserved":false,"is_disabled":false,"rental_uris":{"android":"levelo://app?vid=5429a055-5c17-4863-ac08-ee7234bc7af8","ios":"levelo://app?vid=5429a055-5c17-4863-ac08-ee7234bc7af8"},"vehicle_type_id":"4","last_reported":1739498999,"current_range_meters":38400,"station_id":"","pricing_plan_id":"cebpf4jnsgd1na2vs0mg"},{"bike_id":"ea1e8d80-7b87-4a6a-a579-90a34ba4a91e","system_id":"levelo_inurba_marseille","lat":43.27424,"lon":5.39414,"is_reserved":false,"is_disabled":false,"rental_uris":{"android":"levelo://app?vid=ea1e8d80-7b87-4a6a-a579-90a34ba4a91e","ios":"levelo://app?vid=ea1e8d80-7b87-4a6a-a579-90a34ba4a91e"},"vehicle_type_id":"4","last_reported":1739498999,"current_range_meters":37600,"station_id":"ce4bhdp2rcd13ifvqf20","pricing_plan_id":"cebpf4jnsgd1na2vs0mg"},{"bike_id":"9183921d-8e97-4c4b-a98e-67fb34e43b27","system_id":"levelo_inurba_marseille","lat":43.28619,"lon":5.35105,"is_reserved":false,"is_disabled":false,"rental_uris":{"android":"levelo://app?vid=9183921d-8e97-4c4b-a98e-67fb34e43b27","ios":"levelo://app?vid=9183921d-8e97-4c4b-a98e-67fb34e43b27"},"vehicle_type_id":"4","last_reported":1739498999,"current_range_meters":12800,"station_id":"ce4bhch2rcd13ifvqeug","pricing_plan_id":"cebpf4jnsgd1na2vs0mg"},{"bike_id":"e067571b-67a4-4767-99d2-aec18283f7e1","system_id":"levelo_inurba_marseille","lat":43.296207,"lon":5.371523,"is_reserved":false,"is_disabled":true,"rental_uris":{"android":"levelo://app?vid=e067571b-67a4-4767-99d2-aec18283f7e1","ios":"levelo://app?vid=e067571b-67a4-4767-99d2-aec18283f7e1"},"vehicle_type_id":"4","last_reported":1739498999,"current_range_meters":38800,"station_id":"ce4bgnh2rcd13ifvqc0g","pricing_plan_id":"cebpf4jnsgd1na2vs0mg"},{"bike_id":"acc39daa-3a4d-4c95-b5a8-16360a611402","system_id":"levelo_inurba_marseille","lat":43.296215,"lon":5.371532,"is_reserved":false,"is_disabled":true,"rental_uris":{"android":"levelo://app?vid=acc39daa-3a4d-4c95-b5a8-16360a611402","ios":"levelo://app?vid=acc39daa-3a4d-4c95-b5a8-16360a611402"},"vehicle_type_id":"4","last_reported":1739498999,"current_range_meters":37600,"station_id":"ce4bgnh2rcd13ifvqc0g","pricing_plan_id":"cebpf4jnsgd1na2vs0mg"},{"bike_id":"859c79c3-9c5b-47b3-94ad-94355d1f1457","system_id":"levelo_inurba_marseille","lat":43.24389,"lon":5.37048,"is_reserved":false,"is_disabled":false,"rental_uris":{"android":"levelo://app?vid=859c79c3-9c5b-47b3-94ad-94355d1f1457","ios":"levelo://app?vid=859c79c3-9c5b-47b3-94ad-94355d1f1457"},"vehicle_type_id":"4","last_reported":1739498999,"current_range_meters":15200,"station_id":"ce4bhhh2rcd13ifvqfk0","pricing_plan_id":"cebpf4jnsgd1na2vs0mg"},{"bike_id":"6d1bf480-99a1-4bd6-b14e-45dd413efdc1","system_id":"levelo_inurba_marseille","lat":43.31329,"lon":5.39702,"is_reserved":false,"is_disabled":false,"rental_uris":{"android":"levelo://app?vid=6d1bf480-99a1-4bd6-b14e-45dd413efdc1","ios":"levelo://app?vid=6d1bf480-99a1-4bd6-b14e-45dd413efdc1"},"vehicle_type_id":"4","last_reported":1739498999,"current_range_meters":13600,"station_id":"ce4bgvp2rcd13ifvqcu0","pricing_plan_id":"cebpf4jnsgd1na2vs0mg"},{"bike_id":"2f1367e3-87e5-4d8a-973e-ba517aab4bf3","system_id":"levelo_inurba_marseille","lat":43.29845,"lon":5.36296,"is_reserved":false,"is_disabled":false,"rental_uris":{"android":"levelo://app?vid=2f1367e3-87e5-4d8a-973e-ba517aab4bf3","ios":"levelo://app?vid=2f1367e3-87e5-4d8a-973e-ba517aab4bf3"},"vehicle_type_id":"4","last_reported":1739498999,"current_range_meters":9200,"station_id":"ce4bgpp2rcd13ifvqc3g","pricing_plan_id":"cebpf4jnsgd1na2vs0mg"},{"bike_id":"9aa86d99-106a-48d4-956c-f1046f79ed86","system_id":"levelo_inurba_marseille","lat":43.28544,"lon":5.39474,"is_reserved":false,"is_disabled":false,"rental_uris":{"android":"levelo://app?vid=9aa86d99-106a-48d4-956c-f1046f79ed86","ios":"levelo://app?vid=9aa86d99-106a-48d4-956c-f1046f79ed86"},"vehicle_type_id":"4","last_reported":1739498999,"current_range_meters":38000,"station_id":"ce4bh292rcd13ifvqdg0","pricing_plan_id":"cebpf4jnsgd1na2vs0mg"},{"bike_id":"a1505b08-87f3-4069-b8b4-96ee939f9b94","system_id":"levelo_inurba_marseille","lat":43.317562,"lon":5.390182,"is_reserved":false,"is_disabled":false,"rental_uris":{"android":"levelo://app?vid=a1505b08-87f3-4069-b8b4-96ee939f9b94","ios":"levelo://app?vid=a1505b08-87f3-4069-b8b4-96ee939f9b94"},"vehicle_type_id":"4","last_reported":1739498999,"current_range_meters":38400,"station_id":"ce4bhqp2rcd13ifvqhng","pricing_plan_id":"cebpf4jnsgd1na2vs0mg"},{"bike_id":"0d436dcc-3c6b-4c61-819e-65996f2351ea","system_id":"levelo_inurba_marseille","lat":43.30698,"lon":5.39989,"is_reserved":false,"is_disabled":false,"rental_uris":{"android":"levelo://app?vid=0d436dcc-3c6b-4c61-819e-65996f2351ea","ios":"levelo://app?vid=0d436dcc-3c6b-4c61-819e-65996f2351ea"},"vehicle_type_id":"4","last_reported":1739498999,"current_range_meters":28800,"station_id":"ce4bh112rcd13ifvqda0","pricing_plan_id":"cebpf4jnsgd1na2vs0mg"},{"bike_id":"0e7b7964-ea54-42c5-bc2b-8ebf34f8cbe5","system_id":"levelo_inurba_marseille","lat":43.27609,"lon":5.36125,"is_reserved":false,"is_disabled":false,"rental_uris":{"android":"levelo://app?vid=0e7b7964-ea54-42c5-bc2b-8ebf34f8cbe5","ios":"levelo://app?vid=0e7b7964-ea54-42c5-bc2b-8ebf34f8cbe5"},"vehicle_type_id":"4","last_reported":1739498999,"current_range_meters":30400,"station_id":"ce4bgj92rcd13ifvqbe0","pricing_plan_id":"cebpf4jnsgd1na2vs0mg"},{"bike_id":"56ceddda-2aa5-4952-99dc-76f1ccd3c59c","system_id":"levelo_inurba_marseille","lat":43.27921,"lon":5.39584,"is_reserved":false,"is_disabled":false,"rental_uris":{"android":"levelo://app?vid=56ceddda-2aa5-4952-99dc-76f1ccd3c59c","ios":"levelo://app?vid=56ceddda-2aa5-4952-99dc-76f1ccd3c59c"},"vehicle_type_id":"4","last_reported":1739498999,"current_range_meters":19600,"station_id":"ce4bhf92rcd13ifvqf40","pricing_plan_id":"cebpf4jnsgd1na2vs0mg"},{"bike_id":"928597f5-c6f7-4cbb-8f81-082dd6945b78","system_id":"levelo_inurba_marseille","lat":43.28692,"lon":5.3864,"is_reserved":false,"is_disabled":false,"rental_uris":{"android":"levelo://app?vid=928597f5-c6f7-4cbb-8f81-082dd6945b78","ios":"levelo://app?vid=928597f5-c6f7-4cbb-8f81-082dd6945b78"},"vehicle_type_id":"4","last_reported":1739498999,"current_range_meters":25200,"station_id":"ce4bh492rcd13ifvqdug","pricing_plan_id":"cebpf4jnsgd1na2vs0mg"},{"bike_id":"8ed5e03d-cc73-45e1-aae9-7f9468b20f56","system_id":"levelo_inurba_marseille","lat":43.29255,"lon":5.40898,"is_reserved":false,"is_disabled":false,"rental_uris":{"android":"levelo://app?vid=8ed5e03d-cc73-45e1-aae9-7f9468b20f56","ios":"levelo://app?vid=8ed5e03d-cc73-45e1-aae9-7f9468b20f56"},"vehicle_type_id":"4","last_reported":1739498999,"current_range_meters":19600,"station_id":"ce4bh192rcd13ifvqdc0","pricing_plan_id":"cebpf4jnsgd1na2vs0mg"},{"bike_id":"a40e6477-f581-46a3-9649-1a7492848197","system_id":"levelo_inurba_marseille","lat":43.31889,"lon":5.40718,"is_reserved":false,"is_disabled":false,"rental_uris":{"android":"levelo://app?vid=a40e6477-f581-46a3-9649-1a7492848197","ios":"levelo://app?vid=a40e6477-f581-46a3-9649-1a7492848197"},"vehicle_type_id":"4","last_reported":1739498999,"current_range_meters":12800,"station_id":"ce4bhq12rcd13ifvqhig","pricing_plan_id":"cebpf4jnsgd1na2vs0mg"},{"bike_id":"d6f38d8d-bb5a-4b27-b5d4-6029f0946ece","system_id":"levelo_inurba_marseille","lat":43.27465,"lon":5.4351,"is_reserved":false,"is_disabled":false,"rental_uris":{"android":"levelo://app?vid=d6f38d8d-bb5a-4b27-b5d4-6029f0946ece","ios":"levelo://app?vid=d6f38d8d-bb5a-4b27-b5d4-6029f0946ece"},"vehicle_type_id":"4","last_reported":1739498999,"current_range_meters":10000,"station_id":"","pricing_plan_id":"cebpf4jnsgd1na2vs0mg"},{"bike_id":"5d1096d5-7ebd-44e2-a204-0a125d9ed440","system_id":"levelo_inurba_marseille","lat":43.25114,"lon":5.40318,"is_reserved":false,"is_disabled":false,"rental_uris":{"android":"levelo://app?vid=5d1096d5-7ebd-44e2-a204-0a125d9ed440","ios":"levelo://app?vid=5d1096d5-7ebd-44e2-a204-0a125d9ed440"},"vehicle_type_id":"4","last_reported":1739498999,"current_range_meters":32000,"station_id":"ce4bhlh2rcd13ifvqgig","pricing_plan_id":"cebpf4jnsgd1na2vs0mg"},{"bike_id":"9e8fe326-5d76-4691-9e64-acf86b994dab","system_id":"levelo_inurba_marseille","lat":43.2763,"lon":5.36108,"is_reserved":false,"is_disabled":false,"rental_uris":{"android":"levelo://app?vid=9e8fe326-5d76-4691-9e64-acf86b994dab","ios":"levelo://app?vid=9e8fe326-5d76-4691-9e64-acf86b994dab"},"vehicle_type_id":"4","last_reported":1739498999,"current_range_meters":28800,"station_id":"ce4bgj92rcd13ifvqbe0","pricing_plan_id":"cebpf4jnsgd1na2vs0mg"},{"bike_id":"eb74081f-8035-495f-a073-abb8444b5eb2","system_id":"levelo_inurba_marseille","lat":43.23962,"lon":5.36615,"is_reserved":false,"is_disabled":false,"rental_uris":{"android":"levelo://app?vid=eb74081f-8035-495f-a073-abb8444b5eb2","ios":"levelo://app?vid=eb74081f-8035-495f-a073-abb8444b5eb2"},"vehicle_type_id":"4","last_reported":1739498999,"current_range_meters":37600,"station_id":"ce4bhi12rcd13ifvqfp0","pricing_plan_id":"cebpf4jnsgd1na2vs0mg"},{"bike_id":"213e7ed3-b6c6-470c-8e37-ca6ffb58bff8","system_id":"levelo_inurba_marseille","lat":43.27498,"lon":5.42449,"is_reserved":false,"is_disabled":true,"rental_uris":{"android":"levelo://app?vid=213e7ed3-b6c6-470c-8e37-ca6ffb58bff8","ios":"levelo://app?vid=213e7ed3-b6c6-470c-8e37-ca6ffb58bff8"},"vehicle_type_id":"4","last_reported":1739498999,"current_range_meters":26000,"station_id":"ce4bhn92rcd13ifvqgrg","pricing_plan_id":"cebpf4jnsgd1na2vs0mg"},{"bike_id":"9e9a6714-3fc9-40fa-9906-8520375a2b7c","system_id":"levelo_inurba_marseille","lat":43.23134,"lon":5.43707,"is_reserved":false,"is_disabled":false,"rental_uris":{"android":"levelo://app?vid=9e9a6714-3fc9-40fa-9906-8520375a2b7c","ios":"levelo://app?vid=9e9a6714-3fc9-40fa-9906-8520375a2b7c"},"vehicle_type_id":"4","last_reported":1739498999,"current_range_meters":38800,"station_id":"ce4bhmp2rcd13ifvqgog","pricing_plan_id":"cebpf4jnsgd1na2vs0mg"},{"bike_id":"861e94fe-13dc-4381-880a-a34620fe78bc","system_id":"levelo_inurba_marseille","lat":43.31541,"lon":5.38033,"is_reserved":false,"is_disabled":false,"rental_uris":{"android":"levelo://app?vid=861e94fe-13dc-4381-880a-a34620fe78bc","ios":"levelo://app?vid=861e94fe-13dc-4381-880a-a34620fe78bc"},"vehicle_type_id":"4","last_reported":1739498999,"current_range_meters":24800,"station_id":"ce4bhsp2rcd13ifvqi50","pricing_plan_id":"cebpf4jnsgd1na2vs0mg"},{"bike_id":"ca12b362-c3a1-4dd3-88b5-78e5b68250d2","system_id":"levelo_inurba_marseille","lat":43.29566,"lon":5.39974,"is_reserved":false,"is_disabled":false,"rental_uris":{"android":"levelo://app?vid=ca12b362-c3a1-4dd3-88b5-78e5b68250d2","ios":"levelo://app?vid=ca12b362-c3a1-4dd3-88b5-78e5b68250d2"},"vehicle_type_id":"4","last_reported":1739498999,"current_range_meters":38000,"station_id":"ce4bh312rcd13ifvqdj0","pricing_plan_id":"cebpf4jnsgd1na2vs0mg"},{"bike_id":"33515f52-a88f-48b9-8ed0-0519d4673f29","system_id":"levelo_inurba_marseille","lat":43.28598,"lon":5.37057,"is_reserved":false,"is_disabled":false,"rental_uris":{"android":"levelo://app?vid=33515f52-a88f-48b9-8ed0-0519d4673f29","ios":"levelo://app?vid=33515f52-a88f-48b9-8ed0-0519d4673f29"},"vehicle_type_id":"4","last_reported":1739498999,"current_range_meters":14400,"station_id":"ce4bht12rcd13ifvqi60","pricing_plan_id":"cebpf4jnsgd1na2vs0mg"},{"bike_id":"1ec14052-2d33-4aa1-9ab8-58cc71db74d1","system_id":"levelo_inurba_marseille","lat":43.24171,"lon":5.364,"is_reserved":false,"is_disabled":true,"rental_uris":{"android":"levelo://app?vid=1ec14052-2d33-4aa1-9ab8-58cc71db74d1","ios":"levelo://app?vid=1ec14052-2d33-4aa1-9ab8-58cc71db74d1"},"vehicle_type_id":"4","last_reported":1739498999,"current_range_meters":3600,"station_id":"cpo36qri1sfpv3e86is0","pricing_plan_id":"cebpf4jnsgd1na2vs0mg"},{"bike_id":"6e58a69c-2a4e-4c49-840d-6e728a603acb","system_id":"levelo_inurba_marseille","lat":43.23067,"lon":5.35493,"is_reserved":false,"is_disabled":false,"rental_uris":{"android":"levelo://app?vid=6e58a69c-2a4e-4c49-840d-6e728a603acb","ios":"levelo://app?vid=6e58a69c-2a4e-4c49-840d-6e728a603acb"},"vehicle_type_id":"4","last_reported":1739498999,"current_range_meters":38000,"station_id":"cpo3342slgdg3j2ifvpg","pricing_plan_id":"cebpf4jnsgd1na2vs0mg"},{"bike_id":"8e79652b-f379-4f29-a7f9-57a057b2e9f7","system_id":"levelo_inurba_marseille","lat":43.29018,"lon":5.38124,"is_reserved":false,"is_disabled":false,"rental_uris":{"android":"levelo://app?vid=8e79652b-f379-4f29-a7f9-57a057b2e9f7","ios":"levelo://app?vid=8e79652b-f379-4f29-a7f9-57a057b2e9f7"},"vehicle_type_id":"4","last_reported":1739498999,"current_range_meters":38000,"station_id":"ce4bh4p2rcd13ifvqe1g","pricing_plan_id":"cebpf4jnsgd1na2vs0mg"},{"bike_id":"cdd384b0-278a-4f91-b9e6-35c402322f3a","system_id":"levelo_inurba_marseille","lat":43.29501,"lon":5.39435,"is_reserved":false,"is_disabled":false,"rental_uris":{"android":"levelo://app?vid=cdd384b0-278a-4f91-b9e6-35c402322f3a","ios":"levelo://app?vid=cdd384b0-278a-4f91-b9e6-35c402322f3a"},"vehicle_type_id":"4","last_reported":1739498999,"current_range_meters":38800,"station_id":"ce4bh292rcd13ifvqdf0","pricing_plan_id":"cebpf4jnsgd1na2vs0mg"},{"bike_id":"ad8f6ef4-cc35-4977-9039-32a61f9200e5","system_id":"levelo_inurba_marseille","lat":43.28628,"lon":5.35097,"is_reserved":false,"is_disabled":false,"rental_uris":{"android":"levelo://app?vid=ad8f6ef4-cc35-4977-9039-32a61f9200e5","ios":"levelo://app?vid=ad8f6ef4-cc35-4977-9039-32a61f9200e5"},"vehicle_type_id":"4","last_reported":1739498999,"current_range_meters":38800,"station_id":"ce4bhch2rcd13ifvqeug","pricing_plan_id":"cebpf4jnsgd1na2vs0mg"},{"bike_id":"0734d612-ef77-4b2c-aaa6-bce46c2274cc","system_id":"levelo_inurba_marseille","lat":43.29937,"lon":5.36508,"is_reserved":false,"is_disabled":true,"rental_uris":{"android":"levelo://app?vid=0734d612-ef77-4b2c-aaa6-bce46c2274cc","ios":"levelo://app?vid=0734d612-ef77-4b2c-aaa6-bce46c2274cc"},"vehicle_type_id":"4","last_reported":1739498999,"current_range_meters":32000,"station_id":"ce4bgm92rcd13ifvqbr0","pricing_plan_id":"cebpf4jnsgd1na2vs0mg"},{"bike_id":"f50eff07-a8c4-4cc6-b46b-160543be4a0c","system_id":"levelo_inurba_marseille","lat":43.28408,"lon":5.37514,"is_reserved":false,"is_disabled":false,"rental_uris":{"android":"levelo://app?vid=f50eff07-a8c4-4cc6-b46b-160543be4a0c","ios":"levelo://app?vid=f50eff07-a8c4-4cc6-b46b-160543be4a0c"},"vehicle_type_id":"4","last_reported":1739498999,"current_range_meters":16800,"station_id":"ce4bh412rcd13ifvqds0","pricing_plan_id":"cebpf4jnsgd1na2vs0mg"},{"bike_id":"965998f0-c210-4b09-9d43-ec10b618d54c","system_id":"levelo_inurba_marseille","lat":43.29619,"lon":5.38117,"is_reserved":false,"is_disabled":false,"rental_uris":{"android":"levelo://app?vid=965998f0-c210-4b09-9d43-ec10b618d54c","ios":"levelo://app?vid=965998f0-c210-4b09-9d43-ec10b618d54c"},"vehicle_type_id":"4","last_reported":1739498999,"current_range_meters":38400,"station_id":"ce4bgl12rcd13ifvqbo0","pricing_plan_id":"cebpf4jnsgd1na2vs0mg"},{"bike_id":"4450d397-c7c4-4c68-aed9-fa811598c082","system_id":"levelo_inurba_marseille","lat":43.32547,"lon":5.36526,"is_reserved":false,"is_disabled":false,"rental_uris":{"android":"levelo://app?vid=4450d397-c7c4-4c68-aed9-fa811598c082","ios":"levelo://app?vid=4450d397-c7c4-4c68-aed9-fa811598c082"},"vehicle_type_id":"4","last_reported":1739498999,"current_range_meters":33600,"station_id":"","pricing_plan_id":"cebpf4jnsgd1na2vs0mg"},{"bike_id":"c186b7ff-1611-4e5e-b1a9-a47eed5d97f0","system_id":"levelo_inurba_marseille","lat":43.31325,"lon":5.39714,"is_reserved":false,"is_disabled":true,"rental_uris":{"android":"levelo://app?vid=c186b7ff-1611-4e5e-b1a9-a47eed5d97f0","ios":"levelo://app?vid=c186b7ff-1611-4e5e-b1a9-a47eed5d97f0"},"vehicle_type_id":"4","last_reported":1739498999,"current_range_meters":0,"station_id":"ce4bgvp2rcd13ifvqcu0","pricing_plan_id":"cebpf4jnsgd1na2vs0mg"},{"bike_id":"594e0208-5bc9-4531-9131-4c33057d0a38","system_id":"levelo_inurba_marseille","lat":43.29425,"lon":5.3863,"is_reserved":false,"is_disabled":false,"rental_uris":{"android":"levelo://app?vid=594e0208-5bc9-4531-9131-4c33057d0a38","ios":"levelo://app?vid=594e0208-5bc9-4531-9131-4c33057d0a38"},"vehicle_type_id":"4","last_reported":1739498999,"current_range_meters":38800,"station_id":"ce4bh2h2rcd13ifvqdh0","pricing_plan_id":"cebpf4jnsgd1na2vs0mg"},{"bike_id":"825e3936-0631-4092-8751-d678ad3a94bc","system_id":"levelo_inurba_marseille","lat":43.31268,"lon":5.40172,"is_reserved":false,"is_disabled":false,"rental_uris":{"android":"levelo://app?vid=825e3936-0631-4092-8751-d678ad3a94bc","ios":"levelo://app?vid=825e3936-0631-4092-8751-d678ad3a94bc"},"vehicle_type_id":"4","last_reported":1739498999,"current_range_meters":8400,"station_id":"ce4bh092rcd13ifvqd30","pricing_plan_id":"cebpf4jnsgd1na2vs0mg"},{"bike_id":"04e79b02-26b7-408e-8d07-a04361b8a27a","system_id":"levelo_inurba_marseille","lat":43.23184,"lon":5.39989,"is_reserved":false,"is_disabled":false,"rental_uris":{"android":"levelo://app?vid=04e79b02-26b7-408e-8d07-a04361b8a27a","ios":"levelo://app?vid=04e79b02-26b7-408e-8d07-a04361b8a27a"},"vehicle_type_id":"4","last_reported":1739498999,"current_range_meters":38800,"station_id":"ce4bhn12rcd13ifvqgqg","pricing_plan_id":"cebpf4jnsgd1na2vs0mg"},{"bike_id":"6b656e81-a99f-458b-b133-2509327cf097","system_id":"levelo_inurba_marseille","lat":43.28245,"lon":5.36105,"is_reserved":false,"is_disabled":false,"rental_uris":{"android":"levelo://app?vid=6b656e81-a99f-458b-b133-2509327cf097","ios":"levelo://app?vid=6b656e81-a99f-458b-b133-2509327cf097"},"vehicle_type_id":"4","last_reported":1739498999,"current_range_meters":16400,"station_id":"","pricing_plan_id":"cebpf4jnsgd1na2vs0mg"},{"bike_id":"c0989e90-ba39-4cd1-8194-8f2fc40f427c","system_id":"levelo_inurba_marseille","lat":43.25114,"lon":5.4035,"is_reserved":false,"is_disabled":false,"rental_uris":{"android":"levelo://app?vid=c0989e90-ba39-4cd1-8194-8f2fc40f427c","ios":"levelo://app?vid=c0989e90-ba39-4cd1-8194-8f2fc40f427c"},"vehicle_type_id":"4","last_reported":1739498999,"current_range_meters":33600,"station_id":"ce4bhlh2rcd13ifvqgig","pricing_plan_id":"cebpf4jnsgd1na2vs0mg"},{"bike_id":"b64cb318-9a9d-45df-b9e1-d16ce258851f","system_id":"levelo_inurba_marseille","lat":43.28157,"lon":5.4264,"is_reserved":false,"is_disabled":true,"rental_uris":{"android":"levelo://app?vid=b64cb318-9a9d-45df-b9e1-d16ce258851f","ios":"levelo://app?vid=b64cb318-9a9d-45df-b9e1-d16ce258851f"},"vehicle_type_id":"4","last_reported":1739498999,"current_range_meters":4000,"station_id":"ce4bhnh2rcd13ifvqgug","pricing_plan_id":"cebpf4jnsgd1na2vs0mg"},{"bike_id":"152fd37b-faf3-480e-a36f-94e6a745b61a","system_id":"levelo_inurba_marseille","lat":43.29314,"lon":5.37186,"is_reserved":false,"is_disabled":true,"rental_uris":{"android":"levelo://app?vid=152fd37b-faf3-480e-a36f-94e6a745b61a","ios":"levelo://app?vid=152fd37b-faf3-480e-a36f-94e6a745b61a"},"vehicle_type_id":"4","last_reported":1739498999,"current_range_meters":38800,"station_id":"ce4bgh92rcd13ifvqb40","pricing_plan_id":"cebpf4jnsgd1na2vs0mg"},{"bike_id":"6595eddd-5253-4155-97a0-9b0aa4a9ab6c","system_id":"levelo_inurba_marseille","lat":43.30217,"lon":5.39468,"is_reserved":false,"is_disabled":false,"rental_uris":{"android":"levelo://app?vid=6595eddd-5253-4155-97a0-9b0aa4a9ab6c","ios":"levelo://app?vid=6595eddd-5253-4155-97a0-9b0aa4a9ab6c"},"vehicle_type_id":"4","last_reported":1739498999,"current_range_meters":30400,"station_id":"ce4bh0p2rcd13ifvqd70","pricing_plan_id":"cebpf4jnsgd1na2vs0mg"},{"bike_id":"34cb3af6-4a81-4efd-b90d-66e3fcfdb1d2","system_id":"levelo_inurba_marseille","lat":43.28459,"lon":5.35888,"is_reserved":false,"is_disabled":false,"rental_uris":{"android":"levelo://app?vid=34cb3af6-4a81-4efd-b90d-66e3fcfdb1d2","ios":"levelo://app?vid=34cb3af6-4a81-4efd-b90d-66e3fcfdb1d2"},"vehicle_type_id":"4","last_reported":1739498999,"current_range_meters":33600,"station_id":"ce4bhah2rcd13ifvqei0","pricing_plan_id":"cebpf4jnsgd1na2vs0mg"},{"bike_id":"80447043-cc20-4f01-89de-a6705f0695c4","system_id":"levelo_inurba_marseille","lat":43.2824,"lon":5.35086,"is_reserved":false,"is_disabled":false,"rental_uris":{"android":"levelo://app?vid=80447043-cc20-4f01-89de-a6705f0695c4","ios":"levelo://app?vid=80447043-cc20-4f01-89de-a6705f0695c4"},"vehicle_type_id":"4","last_reported":1739498999,"current_range_meters":9200,"station_id":"ce4bhbp2rcd13ifvqerg","pricing_plan_id":"cebpf4jnsgd1na2vs0mg"},{"bike_id":"527fb167-ceff-455e-ae21-9ef95f9ad97b","system_id":"levelo_inurba_marseille","lat":43.28556,"lon":5.39517,"is_reserved":false,"is_disabled":false,"rental_uris":{"android":"levelo://app?vid=527fb167-ceff-455e-ae21-9ef95f9ad97b","ios":"levelo://app?vid=527fb167-ceff-455e-ae21-9ef95f9ad97b"},"vehicle_type_id":"4","last_reported":1739498999,"current_range_meters":35200,"station_id":"ce4bh292rcd13ifvqdg0","pricing_plan_id":"cebpf4jnsgd1na2vs0mg"},{"bike_id":"bbb6f758-ef12-4737-861c-2da510dfe0ae","system_id":"levelo_inurba_marseille","lat":43.3005,"lon":5.37504,"is_reserved":false,"is_disabled":false,"rental_uris":{"android":"levelo://app?vid=bbb6f758-ef12-4737-861c-2da510dfe0ae","ios":"levelo://app?vid=bbb6f758-ef12-4737-861c-2da510dfe0ae"},"vehicle_type_id":"4","last_reported":1739498999,"current_range_meters":22800,"station_id":"","pricing_plan_id":"cebpf4jnsgd1na2vs0mg"},{"bike_id":"33560417-0771-4ee3-9343-88a1a1121fb6","system_id":"levelo_inurba_marseille","lat":43.28409,"lon":5.3752,"is_reserved":false,"is_disabled":false,"rental_uris":{"android":"levelo://app?vid=33560417-0771-4ee3-9343-88a1a1121fb6","ios":"levelo://app?vid=33560417-0771-4ee3-9343-88a1a1121fb6"},"vehicle_type_id":"4","last_reported":1739498999,"current_range_meters":33600,"station_id":"ce4bh412rcd13ifvqds0","pricing_plan_id":"cebpf4jnsgd1na2vs0mg"},{"bike_id":"e4a0b75a-7ee2-4889-a859-c799f9c8e65e","system_id":"levelo_inurba_marseille","lat":43.30295,"lon":5.39208,"is_reserved":false,"is_disabled":false,"rental_uris":{"android":"levelo://app?vid=e4a0b75a-7ee2-4889-a859-c799f9c8e65e","ios":"levelo://app?vid=e4a0b75a-7ee2-4889-a859-c799f9c8e65e"},"vehicle_type_id":"4","last_reported":1739498999,"current_range_meters":30400,"station_id":"ce4bgkh2rcd13ifvqbk0","pricing_plan_id":"cebpf4jnsgd1na2vs0mg"},{"bike_id":"973ad2a7-44d0-4dfc-aabe-779b9eeced18","system_id":"levelo_inurba_marseille","lat":43.30781,"lon":5.37653,"is_reserved":false,"is_disabled":false,"rental_uris":{"android":"levelo://app?vid=973ad2a7-44d0-4dfc-aabe-779b9eeced18","ios":"levelo://app?vid=973ad2a7-44d0-4dfc-aabe-779b9eeced18"},"vehicle_type_id":"4","last_reported":1739498999,"current_range_meters":38800,"station_id":"ce4bgv92rcd13ifvqcq0","pricing_plan_id":"cebpf4jnsgd1na2vs0mg"},{"bike_id":"167a2690-5c77-4992-9449-a82dc4323504","system_id":"levelo_inurba_marseille","lat":43.30883,"lon":5.39646,"is_reserved":false,"is_disabled":false,"rental_uris":{"android":"levelo://app?vid=167a2690-5c77-4992-9449-a82dc4323504","ios":"levelo://app?vid=167a2690-5c77-4992-9449-a82dc4323504"},"vehicle_type_id":"4","last_reported":1739498999,"current_range_meters":30800,"station_id":"ce4bh012rcd13ifvqcv0","pricing_plan_id":"cebpf4jnsgd1na2vs0mg"},{"bike_id":"d38cdbe8-a8af-4066-8a7b-efc3320f9786","system_id":"levelo_inurba_marseille","lat":43.30598,"lon":5.37229,"is_reserved":false,"is_disabled":false,"rental_uris":{"android":"levelo://app?vid=d38cdbe8-a8af-4066-8a7b-efc3320f9786","ios":"levelo://app?vid=d38cdbe8-a8af-4066-8a7b-efc3320f9786"},"vehicle_type_id":"4","last_reported":1739498999,"current_range_meters":28800,"station_id":"ce4bgqh2rcd13ifvqc4g","pricing_plan_id":"cebpf4jnsgd1na2vs0mg"},{"bike_id":"a93f7d49-edc5-45ec-baf3-74ca26311e2c","system_id":"levelo_inurba_marseille","lat":43.26029,"lon":5.37549,"is_reserved":false,"is_disabled":false,"rental_uris":{"android":"levelo://app?vid=a93f7d49-edc5-45ec-baf3-74ca26311e2c","ios":"levelo://app?vid=a93f7d49-edc5-45ec-baf3-74ca26311e2c"},"vehicle_type_id":"4","last_reported":1739498999,"current_range_meters":37600,"station_id":"ce4bhgh2rcd13ifvqfa0","pricing_plan_id":"cebpf4jnsgd1na2vs0mg"},{"bike_id":"7c63fcdc-90c7-409a-ac4b-b5b3c364141a","system_id":"levelo_inurba_marseille","lat":43.30537,"lon":5.38423,"is_reserved":false,"is_disabled":true,"rental_uris":{"android":"levelo://app?vid=7c63fcdc-90c7-409a-ac4b-b5b3c364141a","ios":"levelo://app?vid=7c63fcdc-90c7-409a-ac4b-b5b3c364141a"},"vehicle_type_id":"4","last_reported":1739498999,"current_range_meters":36800,"station_id":"ce4bgg92rcd13ifvqb30","pricing_plan_id":"cebpf4jnsgd1na2vs0mg"},{"bike_id":"3bfb027b-d84e-43d4-b525-dfd6851f7b90","system_id":"levelo_inurba_marseille","lat":43.31273,"lon":5.40165,"is_reserved":false,"is_disabled":false,"rental_uris":{"android":"levelo://app?vid=3bfb027b-d84e-43d4-b525-dfd6851f7b90","ios":"levelo://app?vid=3bfb027b-d84e-43d4-b525-dfd6851f7b90"},"vehicle_type_id":"4","last_reported":1739498999,"current_range_meters":22800,"station_id":"ce4bh092rcd13ifvqd30","pricing_plan_id":"cebpf4jnsgd1na2vs0mg"},{"bike_id":"89bd0d18-1411-4b9e-ac03-27169631b5ac","system_id":"levelo_inurba_marseille","lat":43.2893,"lon":5.39619,"is_reserved":false,"is_disabled":false,"rental_uris":{"android":"levelo://app?vid=89bd0d18-1411-4b9e-ac03-27169631b5ac","ios":"levelo://app?vid=89bd0d18-1411-4b9e-ac03-27169631b5ac"},"vehicle_type_id":"4","last_reported":1739498999,"current_range_meters":36000,"station_id":"ce4bh3h2rcd13ifvqdn0","pricing_plan_id":"cebpf4jnsgd1na2vs0mg"},{"bike_id":"ee566f3d-0e78-4ced-ac1b-e3b33c18e89e","system_id":"levelo_inurba_marseille","lat":43.244,"lon":5.37047,"is_reserved":false,"is_disabled":false,"rental_uris":{"android":"levelo://app?vid=ee566f3d-0e78-4ced-ac1b-e3b33c18e89e","ios":"levelo://app?vid=ee566f3d-0e78-4ced-ac1b-e3b33c18e89e"},"vehicle_type_id":"4","last_reported":1739498999,"current_range_meters":19200,"station_id":"ce4bhhh2rcd13ifvqfk0","pricing_plan_id":"cebpf4jnsgd1na2vs0mg"},{"bike_id":"da7f2fae-5747-45f2-981c-2899a6e7dc68","system_id":"levelo_inurba_marseille","lat":43.25575,"lon":5.38243,"is_reserved":false,"is_disabled":false,"rental_uris":{"android":"levelo://app?vid=da7f2fae-5747-45f2-981c-2899a6e7dc68","ios":"levelo://app?vid=da7f2fae-5747-45f2-981c-2899a6e7dc68"},"vehicle_type_id":"4","last_reported":1739498999,"current_range_meters":27200,"station_id":"ce4bhih2rcd13ifvqfs0","pricing_plan_id":"cebpf4jnsgd1na2vs0mg"},{"bike_id":"0522f794-1232-4c9b-bc22-b0243233d03c","system_id":"levelo_inurba_marseille","lat":43.27939,"lon":5.41048,"is_reserved":false,"is_disabled":false,"rental_uris":{"android":"levelo://app?vid=0522f794-1232-4c9b-bc22-b0243233d03c","ios":"levelo://app?vid=0522f794-1232-4c9b-bc22-b0243233d03c"},"vehicle_type_id":"4","last_reported":1739498999,"current_range_meters":38800,"station_id":"ce4bhnp2rcd13ifvqh0g","pricing_plan_id":"cebpf4jnsgd1na2vs0mg"},{"bike_id":"c21dda3e-d1f3-4914-a585-72ad4740861f","system_id":"levelo_inurba_marseille","lat":43.2707,"lon":5.42271,"is_reserved":false,"is_disabled":false,"rental_uris":{"android":"levelo://app?vid=c21dda3e-d1f3-4914-a585-72ad4740861f","ios":"levelo://app?vid=c21dda3e-d1f3-4914-a585-72ad4740861f"},"vehicle_type_id":"4","last_reported":1739498999,"current_range_meters":24000,"station_id":"ce4bhk92rcd13ifvqgb0","pricing_plan_id":"cebpf4jnsgd1na2vs0mg"},{"bike_id":"7a8a0287-264a-4a19-acda-b1382233fe54","system_id":"levelo_inurba_marseille","lat":43.31332,"lon":5.39691,"is_reserved":false,"is_disabled":false,"rental_uris":{"android":"levelo://app?vid=7a8a0287-264a-4a19-acda-b1382233fe54","ios":"levelo://app?vid=7a8a0287-264a-4a19-acda-b1382233fe54"},"vehicle_type_id":"4","last_reported":1739498999,"current_range_meters":17600,"station_id":"ce4bgvp2rcd13ifvqcu0","pricing_plan_id":"cebpf4jnsgd1na2vs0mg"},{"bike_id":"54ce597b-1ca1-4d62-923d-d4b29eec04b3","system_id":"levelo_inurba_marseille","lat":43.31131,"lon":5.38261,"is_reserved":false,"is_disabled":false,"rental_uris":{"android":"levelo://app?vid=54ce597b-1ca1-4d62-923d-d4b29eec04b3","ios":"levelo://app?vid=54ce597b-1ca1-4d62-923d-d4b29eec04b3"},"vehicle_type_id":"4","last_reported":1739498999,"current_range_meters":8000,"station_id":"","pricing_plan_id":"cebpf4jnsgd1na2vs0mg"},{"bike_id":"5900da6e-6ade-4e81-b9ef-ce2685f5a5b4","system_id":"levelo_inurba_marseille","lat":43.288491,"lon":5.393322,"is_reserved":false,"is_disabled":true,"rental_uris":{"android":"levelo://app?vid=5900da6e-6ade-4e81-b9ef-ce2685f5a5b4","ios":"levelo://app?vid=5900da6e-6ade-4e81-b9ef-ce2685f5a5b4"},"vehicle_type_id":"4","last_reported":1739498999,"current_range_meters":6400,"station_id":"ce4bh2p2rcd13ifvqdi0","pricing_plan_id":"cebpf4jnsgd1na2vs0mg"},{"bike_id":"402369da-661e-404a-928c-d7b4f9814877","system_id":"levelo_inurba_marseille","lat":43.3153,"lon":5.38036,"is_reserved":false,"is_disabled":false,"rental_uris":{"android":"levelo://app?vid=402369da-661e-404a-928c-d7b4f9814877","ios":"levelo://app?vid=402369da-661e-404a-928c-d7b4f9814877"},"vehicle_type_id":"4","last_reported":1739498999,"current_range_meters":28000,"station_id":"ce4bhsp2rcd13ifvqi50","pricing_plan_id":"cebpf4jnsgd1na2vs0mg"},{"bike_id":"1ee49351-a32d-42a5-8df5-b60e302d37e7","system_id":"levelo_inurba_marseille","lat":43.28856,"lon":5.35832,"is_reserved":false,"is_disabled":false,"rental_uris":{"android":"levelo://app?vid=1ee49351-a32d-42a5-8df5-b60e302d37e7","ios":"levelo://app?vid=1ee49351-a32d-42a5-8df5-b60e302d37e7"},"vehicle_type_id":"4","last_reported":1739498999,"current_range_meters":32000,"station_id":"ce4bhb12rcd13ifvqem0","pricing_plan_id":"cebpf4jnsgd1na2vs0mg"},{"bike_id":"54f643f8-f9eb-4652-9c28-270841fdb53c","system_id":"levelo_inurba_marseille","lat":43.3082,"lon":5.38153,"is_reserved":false,"is_disabled":false,"rental_uris":{"android":"levelo://app?vid=54f643f8-f9eb-4652-9c28-270841fdb53c","ios":"levelo://app?vid=54f643f8-f9eb-4652-9c28-270841fdb53c"},