{"last_updated":1761336652,"ttl":60,"version":"2.2","data":{"bikes":[{"bike_id":"5f9bc53b-191e-4118-ae23-fa241f826127","system_id":"levelo_inurba_marseille","lat":43.279929,"lon":5.400072,"is_reserved":false,"is_disabled":false,"rental_uris":{"android":"levelo://app?vid=5f9bc53b-191e-4118-ae23-fa241f826127","ios":"levelo://app?vid=5f9bc53b-191e-4118-ae23-fa241f826127"},"vehicle_type_id":"4","last_reported":1761336653,"current_range_meters":2800,"station_id":"ce4bho92rcd13ifvqh4g","pricing_plan_id":"cebpf4jnsgd1na2vs0mg"},{"bike_id":"37d01fc8-4b4d-4652-a489-1254eb9d4c80","system_id":"levelo_inurba_marseille","lat":43.34076,"lon":5.40411,"is_reserved":false,"is_disabled":false,"rental_uris":{"android":"levelo://app?vid=37d01fc8-4b4d-4652-a489-1254eb9d4c80","ios":"levelo://app?vid=37d01fc8-4b4d-4652-a489-1254eb9d4c80"},"vehicle_type_id":"4","last_reported":1761336653,"current_range_meters":2800,"station_id":"","pricing_plan_id":"cebpf4jnsgd1na2vs0mg"},{"bike_id":"1985daff-98e8-4fcb-8986-921879442da3","system_id":"levelo_inurba_marseille","lat":43.25577,"lon":5.38225,"is_reserved":false,"is_disabled":false,"rental_uris":{"android":"levelo://app?vid=1985daff-98e8-4fcb-8986-921879442da3","ios":"levelo://app?vid=1985daff-98e8-4fcb-8986-921879442da3"},"vehicle_type_id":"4","last_reported":1761336653,"current_range_meters":2800,"station_id":"ce4bhih2rcd13ifvqfs0","pricing_plan_id":"cebpf4jnsgd1na2vs0mg"},{"bike_id":"4802521a-bc53-479e-9c70-316dd2ca0e4c","system_id":"levelo_inurba_marseille","lat":43.25911,"lon":5.40898,"is_reserved":false,"is_disabled":false,"rental_uris":{"android":"levelo://app?vid=4802521a-bc53-479e-9c70-316dd2ca0e4c","ios":"levelo://app?vid=4802521a-bc53-479e-9c70-316dd2ca0e4c"},"vehicle_type_id":"4","last_reported":1761336653,"current_range_meters":2800,"station_id":"ce4bhm92rcd13ifvqglg","pricing_plan_id":"cebpf4jnsgd1na2vs0mg"},{"bike_id":"a6a3643c-771d-4a17-bdac-b0653fbbd341","system_id":"levelo_inurba_marseille","lat":43.28926,"lon":5.38402,"is_reserved":false,"is_disabled":false,"rental_uris":{"android":"levelo://app?vid=a6a3643c-771d-4a17-bdac-b0653fbbd341","ios":"levelo://app?vid=a6a3643c-771d-4a17-bdac-b0653fbbd341"},"vehicle_type_id":"4","last_reported":1761336653,"current_range_meters":3200,"station_id":"ce4bh612rcd13ifvqe6g","pricing_plan_id":"cebpf4jnsgd1na2vs0mg"},{"bike_id":"ab451abc-88c7-4576-a77c-6789969e9dae","system_id":"levelo_inurba_marseille","lat":43.22926,"lon":5.35382,"is_reserved":false,"is_disabled":false,"rental_uris":{"android":"levelo://app?vid=ab451abc-88c7-4576-a77c-6789969e9dae","ios":"levelo://app?vid=ab451abc-88c7-4576-a77c-6789969e9dae"},"vehicle_type_id":"4","last_reported":1761336653,"current_range_meters":3600,"station_id":"","pricing_plan_id":"cebpf4jnsgd1na2vs0mg"},{"bike_id":"e195e307-3b79-4f3f-a51b-3d578db59808","system_id":"levelo_inurba_marseille","lat":43.302511,"lon":5.400855,"is_reserved":false,"is_disabled":false,"rental_uris":{"android":"levelo://app?vid=e195e307-3b79-4f3f-a51b-3d578db59808","ios":"levelo://app?vid=e195e307-3b79-4f3f-a51b-3d578db59808"},"vehicle_type_id":"4","last_reported":1761336653,"current_range_meters":3600,"station_id":"ce4bgvh2rcd13ifvqcs0","pricing_plan_id":"cebpf4jnsgd1na2vs0mg"},{"bike_id":"0955a950-2b96-438e-a08c-625b7e12839d","system_id":"levelo_inurba_marseille","lat":43.31483,"lon":5.37305,"is_reserved":false,"is_disabled":false,"rental_uris":{"android":"levelo://app?vid=0955a950-2b96-438e-a08c-625b7e12839d","ios":"levelo://app?vid=0955a950-2b96-438e-a08c-625b7e12839d"},"vehicle_type_id":"4","last_reported":1761336653,"current_range_meters":4000,"station_id":"ce4bgt12rcd13ifvqcd0","pricing_plan_id":"cebpf4jnsgd1na2vs0mg"},{"bike_id":"c2f6d99c-6741-4f97-adbe-292efb7eff82","system_id":"levelo_inurba_marseille","lat":43.21208,"lon":5.35077,"is_reserved":false,"is_disabled":false,"rental_uris":{"android":"levelo://app?vid=c2f6d99c-6741-4f97-adbe-292efb7eff82","ios":"levelo://app?vid=c2f6d99c-6741-4f97-adbe-292efb7eff82"},"vehicle_type_id":"4","last_reported":1761336653,"current_range_meters":4000,"station_id":"st_cvj6sg6p6f1abm77japg","pricing_plan_id":"cebpf4jnsgd1na2vs0mg"},{"bike_id":"51ea134d-df94-4f50-84a6-099716824d0c","system_id":"levelo_inurba_marseille","lat":43.33719,"lon":5.36285,"is_reserved":false,"is_disabled":false,"rental_uris":{"android":"levelo://app?vid=51ea134d-df94-4f50-84a6-099716824d0c","ios":"levelo://app?vid=51ea134d-df94-4f50-84a6-099716824d0c"},"vehicle_type_id":"4","last_reported":1761336653,"current_range_meters":4000,"station_id":"","pricing_plan_id":"cebpf4jnsgd1na2vs0mg"},{"bike_id":"74c40061-0af3-4da7-a346-2bf1b67d5b8e","system_id":"levelo_inurba_marseille","lat":43.28103,"lon":5.37836,"is_reserved":false,"is_disabled":false,"rental_uris":{"android":"levelo://app?vid=74c40061-0af3-4da7-a346-2bf1b67d5b8e","ios":"levelo://app?vid=74c40061-0af3-4da7-a346-2bf1b67d5b8e"},"vehicle_type_id":"4","last_reported":1761336653,"current_range_meters":4000,"station_id":"ce4bha12rcd13ifvqee0","pricing_plan_id":"cebpf4jnsgd1na2vs0mg"},{"bike_id":"7546f470-e2c9-46ad-b638-733b3092a9dc","system_id":"levelo_inurba_marseille","lat":43.2254,"lon":5.3482,"is_reserved":false,"is_disabled":false,"rental_uris":{"android":"levelo://app?vid=7546f470-e2c9-46ad-b638-733b3092a9dc","ios":"levelo://app?vid=7546f470-e2c9-46ad-b638-733b3092a9dc"},"vehicle_type_id":"4","last_reported":1761336653,"current_range_meters":4400,"station_id":"","pricing_plan_id":"cebpf4jnsgd1na2vs0mg"},{"bike_id":"ad9a8166-85b3-49b6-88c7-1c6bdf69b632","system_id":"levelo_inurba_marseille","lat":43.311107,"lon":5.377624,"is_reserved":false,"is_disabled":false,"rental_uris":{"android":"levelo://app?vid=ad9a8166-85b3-49b6-88c7-1c6bdf69b632","ios":"levelo://app?vid=ad9a8166-85b3-49b6-88c7-1c6bdf69b632"},"vehicle_type_id":"4","last_reported":1761336653,"current_range_meters":4800,"station_id":"","pricing_plan_id":"cebpf4jnsgd1na2vs0mg"},{"bike_id":"c21b3611-9c87-4ee4-82e8-ce01f8e21e69","system_id":"levelo_inurba_marseille","lat":43.30182,"lon":5.40181,"is_reserved":false,"is_disabled":false,"rental_uris":{"android":"levelo://app?vid=c21b3611-9c87-4ee4-82e8-ce01f8e21e69","ios":"levelo://app?vid=c21b3611-9c87-4ee4-82e8-ce01f8e21e69"},"vehicle_type_id":"4","last_reported":1761336653,"current_range_meters":4800,"station_id":"","pricing_plan_id":"cebpf4jnsgd1na2vs0mg"},{"bike_id":"2d94fef5-4464-4f6f-b35a-91fb778bc9e4","system_id":"levelo_inurba_marseille","lat":43.29895,"lon":5.43666,"is_reserved":false,"is_disabled":false,"rental_uris":{"android":"levelo://app?vid=2d94fef5-4464-4f6f-b35a-91fb778bc9e4","ios":"levelo://app?vid=2d94fef5-4464-4f6f-b35a-91fb778bc9e4"},"vehicle_type_id":"4","last_reported":1761336653,"current_range_meters":5600,"station_id":"ce4bhpp2rcd13ifvqhfg","pricing_plan_id":"cebpf4jnsgd1na2vs0mg"},{"bike_id":"adb093b1-a277-4298-bbca-f4324a2ec098","system_id":"levelo_inurba_marseille","lat":43.30311,"lon":5.36897,"is_reserved":false,"is_disabled":false,"rental_uris":{"android":"levelo://app?vid=adb093b1-a277-4298-bbca-f4324a2ec098","ios":"levelo://app?vid=adb093b1-a277-4298-bbca-f4324a2ec098"},"vehicle_type_id":"4","last_reported":1761336653,"current_range_meters":5600,"station_id":"ce4bgqh2rcd13ifvqc5g","pricing_plan_id":"cebpf4jnsgd1na2vs0mg"},{"bike_id":"1cf570c7-1724-4b95-9963-1b39dfb32ee3","system_id":"levelo_inurba_marseille","lat":43.26375,"lon":5.38744,"is_reserved":false,"is_disabled":false,"rental_uris":{"android":"levelo://app?vid=1cf570c7-1724-4b95-9963-1b39dfb32ee3","ios":"levelo://app?vid=1cf570c7-1724-4b95-9963-1b39dfb32ee3"},"vehicle_type_id":"4","last_reported":1761336653,"current_range_meters":6000,"station_id":"","pricing_plan_id":"cebpf4jnsgd1na2vs0mg"},{"bike_id":"fd4f1d03-2045-4a0e-b6f1-69b47ef382ad","system_id":"levelo_inurba_marseille","lat":43.29801,"lon":5.40402,"is_reserved":false,"is_disabled":false,"rental_uris":{"android":"levelo://app?vid=fd4f1d03-2045-4a0e-b6f1-69b47ef382ad","ios":"levelo://app?vid=fd4f1d03-2045-4a0e-b6f1-69b47ef382ad"},"vehicle_type_id":"4","last_reported":1761336653,"current_range_meters":6000,"station_id":"ce4bh112rcd13ifvqd90","pricing_plan_id":"cebpf4jnsgd1na2vs0mg"},{"bike_id":"9f76cbe5-3061-4afa-bbf1-51a8033a52bb","system_id":"levelo_inurba_marseille","lat":43.29282,"lon":5.40122,"is_reserved":false,"is_disabled":false,"rental_uris":{"android":"levelo://app?vid=9f76cbe5-3061-4afa-bbf1-51a8033a52bb","ios":"levelo://app?vid=9f76cbe5-3061-4afa-bbf1-51a8033a52bb"},"vehicle_type_id":"4","last_reported":1761336653,"current_range_meters":6000,"station_id":"ce4bh312rcd13ifvqdk0","pricing_plan_id":"cebpf4jnsgd1na2vs0mg"},{"bike_id":"765adebf-7752-4542-8280-0e0811c5eae9","system_id":"levelo_inurba_marseille","lat":43.292572,"lon":5.384422,"is_reserved":false,"is_disabled":false,"rental_uris":{"android":"levelo://app?vid=765adebf-7752-4542-8280-0e0811c5eae9","ios":"levelo://app?vid=765adebf-7752-4542-8280-0e0811c5eae9"},"vehicle_type_id":"4","last_reported":1761336653,"current_range_meters":6000,"station_id":"ce4bhmh2rcd13ifvqgmg","pricing_plan_id":"cebpf4jnsgd1na2vs0mg"},{"bike_id":"64bbc288-46b6-4a63-a6b4-4146f1e2b52a","system_id":"levelo_inurba_marseille","lat":43.31323,"lon":5.39687,"is_reserved":false,"is_disabled":false,"rental_uris":{"android":"levelo://app?vid=64bbc288-46b6-4a63-a6b4-4146f1e2b52a","ios":"levelo://app?vid=64bbc288-46b6-4a63-a6b4-4146f1e2b52a"},"vehicle_type_id":"4","last_reported":1761336653,"current_range_meters":6000,"station_id":"ce4bgvp2rcd13ifvqcu0","pricing_plan_id":"cebpf4jnsgd1na2vs0mg"},{"bike_id":"32e7919e-26d8-4f7d-b229-086147816fa4","system_id":"levelo_inurba_marseille","lat":43.301286,"lon":5.38775,"is_reserved":false,"is_disabled":false,"rental_uris":{"android":"levelo://app?vid=32e7919e-26d8-4f7d-b229-086147816fa4","ios":"levelo://app?vid=32e7919e-26d8-4f7d-b229-086147816fa4"},"vehicle_type_id":"4","last_reported":1761336653,"current_range_meters":6400,"station_id":"","pricing_plan_id":"cebpf4jnsgd1na2vs0mg"},{"bike_id":"ef14bf68-f7cf-4c09-901f-b6d6971f7ed2","system_id":"levelo_inurba_marseille","lat":43.29174,"lon":5.37164,"is_reserved":false,"is_disabled":false,"rental_uris":{"android":"levelo://app?vid=ef14bf68-f7cf-4c09-901f-b6d6971f7ed2","ios":"levelo://app?vid=ef14bf68-f7cf-4c09-901f-b6d6971f7ed2"},"vehicle_type_id":"4","last_reported":1761336653,"current_range_meters":6400,"station_id":"ce4bha92rcd13ifvqeh0","pricing_plan_id":"cebpf4jnsgd1na2vs0mg"},{"bike_id":"9aedca60-728c-44fd-8e1d-6b6dfe0a2f29","system_id":"levelo_inurba_marseille","lat":43.29529,"lon":5.38552,"is_reserved":false,"is_disabled":false,"rental_uris":{"android":"levelo://app?vid=9aedca60-728c-44fd-8e1d-6b6dfe0a2f29","ios":"levelo://app?vid=9aedca60-728c-44fd-8e1d-6b6dfe0a2f29"},"vehicle_type_id":"4","last_reported":1761336653,"current_range_meters":6400,"station_id":"ce4bgih2rcd13ifvqba0","pricing_plan_id":"cebpf4jnsgd1na2vs0mg"},{"bike_id":"3167c122-43fa-497a-bf85-d0a6522abe7a","system_id":"levelo_inurba_marseille","lat":43.32792,"lon":5.3755,"is_reserved":false,"is_disabled":false,"rental_uris":{"android":"levelo://app?vid=3167c122-43fa-497a-bf85-d0a6522abe7a","ios":"levelo://app?vid=3167c122-43fa-497a-bf85-d0a6522abe7a"},"vehicle_type_id":"4","last_reported":1761336653,"current_range_meters":6800,"station_id":"","pricing_plan_id":"cebpf4jnsgd1na2vs0mg"},{"bike_id":"00fd3c6a-780c-49dc-9993-d4de69c9b57a","system_id":"levelo_inurba_marseille","lat":43.31072,"lon":5.37459,"is_reserved":false,"is_disabled":false,"rental_uris":{"android":"levelo://app?vid=00fd3c6a-780c-49dc-9993-d4de69c9b57a","ios":"levelo://app?vid=00fd3c6a-780c-49dc-9993-d4de69c9b57a"},"vehicle_type_id":"4","last_reported":1761336653,"current_range_meters":6800,"station_id":"","pricing_plan_id":"cebpf4jnsgd1na2vs0mg"},{"bike_id":"916425e1-27eb-4449-893a-9bfb6de56c2a","system_id":"levelo_inurba_marseille","lat":43.29928,"lon":5.36547,"is_reserved":false,"is_disabled":false,"rental_uris":{"android":"levelo://app?vid=916425e1-27eb-4449-893a-9bfb6de56c2a","ios":"levelo://app?vid=916425e1-27eb-4449-893a-9bfb6de56c2a"},"vehicle_type_id":"4","last_reported":1761336653,"current_range_meters":6800,"station_id":"ce4bgm92rcd13ifvqbr0","pricing_plan_id":"cebpf4jnsgd1na2vs0mg"},{"bike_id":"ed5592f6-738f-424e-b1c7-4090ab91b445","system_id":"levelo_inurba_marseille","lat":43.21192,"lon":5.35073,"is_reserved":false,"is_disabled":false,"rental_uris":{"android":"levelo://app?vid=ed5592f6-738f-424e-b1c7-4090ab91b445","ios":"levelo://app?vid=ed5592f6-738f-424e-b1c7-4090ab91b445"},"vehicle_type_id":"4","last_reported":1761336653,"current_range_meters":7200,"station_id":"st_cvj6sg6p6f1abm77japg","pricing_plan_id":"cebpf4jnsgd1na2vs0mg"},{"bike_id":"ec9665a2-32ab-42b2-9bdf-cf94d158a9c2","system_id":"levelo_inurba_marseille","lat":43.30116,"lon":5.37071,"is_reserved":false,"is_disabled":false,"rental_uris":{"android":"levelo://app?vid=ec9665a2-32ab-42b2-9bdf-cf94d158a9c2","ios":"levelo://app?vid=ec9665a2-32ab-42b2-9bdf-cf94d158a9c2"},"vehicle_type_id":"4","last_reported":1761336653,"current_range_meters":7200,"station_id":"","pricing_plan_id":"cebpf4jnsgd1na2vs0mg"},{"bike_id":"60ee768e-a80f-4185-bb91-1d0a89831466","system_id":"levelo_inurba_marseille","lat":43.270638,"lon":5.383118,"is_reserved":false,"is_disabled":false,"rental_uris":{"android":"levelo://app?vid=60ee768e-a80f-4185-bb91-1d0a89831466","ios":"levelo://app?vid=60ee768e-a80f-4185-bb91-1d0a89831466"},"vehicle_type_id":"4","last_reported":1761336653,"current_range_meters":7200,"station_id":"st_d3n2fo6cfp8s73cte1j0","pricing_plan_id":"cebpf4jnsgd1na2vs0mg"},{"bike_id":"3930e88f-37af-4a47-bc5c-32ea36e2d300","system_id":"levelo_inurba_marseille","lat":43.310651,"lon":5.383553,"is_reserved":false,"is_disabled":false,"rental_uris":{"android":"levelo://app?vid=3930e88f-37af-4a47-bc5c-32ea36e2d300","ios":"levelo://app?vid=3930e88f-37af-4a47-bc5c-32ea36e2d300"},"vehicle_type_id":"4","last_reported":1761336653,"current_range_meters":7200,"station_id":"","pricing_plan_id":"cebpf4jnsgd1na2vs0mg"},{"bike_id":"2307fc55-a864-4bde-b733-ac380156d5e6","system_id":"levelo_inurba_marseille","lat":43.28479,"lon":5.38565,"is_reserved":false,"is_disabled":false,"rental_uris":{"android":"levelo://app?vid=2307fc55-a864-4bde-b733-ac380156d5e6","ios":"levelo://app?vid=2307fc55-a864-4bde-b733-ac380156d5e6"},"vehicle_type_id":"4","last_reported":1761336653,"current_range_meters":8000,"station_id":"ce4bh8p2rcd13ifvqeb0","pricing_plan_id":"cebpf4jnsgd1na2vs0mg"},{"bike_id":"e2643a29-e0e7-4535-8045-f2ad01f9eac0","system_id":"levelo_inurba_marseille","lat":43.2925,"lon":5.38435,"is_reserved":false,"is_disabled":false,"rental_uris":{"android":"levelo://app?vid=e2643a29-e0e7-4535-8045-f2ad01f9eac0","ios":"levelo://app?vid=e2643a29-e0e7-4535-8045-f2ad01f9eac0"},"vehicle_type_id":"4","last_reported":1761336653,"current_range_meters":8000,"station_id":"ce4bh692rcd13ifvqea0","pricing_plan_id":"cebpf4jnsgd1na2vs0mg"},{"bike_id":"b0009c4e-f685-402b-83b6-38201cd32ae7","system_id":"levelo_inurba_marseille","lat":43.29277,"lon":5.39053,"is_reserved":false,"is_disabled":false,"rental_uris":{"android":"levelo://app?vid=b0009c4e-f685-402b-83b6-38201cd32ae7","ios":"levelo://app?vid=b0009c4e-f685-402b-83b6-38201cd32ae7"},"vehicle_type_id":"4","last_reported":1761336653,"current_range_meters":8000,"station_id":"","pricing_plan_id":"cebpf4jnsgd1na2vs0mg"},{"bike_id":"4b39174c-5820-4cb8-8ed4-e74eb97f33a6","system_id":"levelo_inurba_marseille","lat":43.217464,"lon":5.346031,"is_reserved":false,"is_disabled":false,"rental_uris":{"android":"levelo://app?vid=4b39174c-5820-4cb8-8ed4-e74eb97f33a6","ios":"levelo://app?vid=4b39174c-5820-4cb8-8ed4-e74eb97f33a6"},"vehicle_type_id":"4","last_reported":1761336653,"current_range_meters":8400,"station_id":"","pricing_plan_id":"cebpf4jnsgd1na2vs0mg"},{"bike_id":"e96035ce-3f75-42c7-bc07-32e4ba0bd41a","system_id":"levelo_inurba_marseille","lat":43.30501,"lon":5.36916,"is_reserved":false,"is_disabled":false,"rental_uris":{"android":"levelo://app?vid=e96035ce-3f75-42c7-bc07-32e4ba0bd41a","ios":"levelo://app?vid=e96035ce-3f75-42c7-bc07-32e4ba0bd41a"},"vehicle_type_id":"4","last_reported":1761336653,"current_range_meters":8400,"station_id":"","pricing_plan_id":"cebpf4jnsgd1na2vs0mg"},{"bike_id":"3e4783b6-28d8-4737-a4ef-6a1b0da02476","system_id":"levelo_inurba_marseille","lat":43.29481,"lon":5.40728,"is_reserved":false,"is_disabled":false,"rental_uris":{"android":"levelo://app?vid=3e4783b6-28d8-4737-a4ef-6a1b0da02476","ios":"levelo://app?vid=3e4783b6-28d8-4737-a4ef-6a1b0da02476"},"vehicle_type_id":"4","last_reported":1761336653,"current_range_meters":8400,"station_id":"","pricing_plan_id":"cebpf4jnsgd1na2vs0mg"},{"bike_id":"637f6b79-7671-4fc4-9126-dce7ed1f3cac","system_id":"levelo_inurba_marseille","lat":43.29277,"lon":5.38425,"is_reserved":false,"is_disabled":false,"rental_uris":{"android":"levelo://app?vid=637f6b79-7671-4fc4-9126-dce7ed1f3cac","ios":"levelo://app?vid=637f6b79-7671-4fc4-9126-dce7ed1f3cac"},"vehicle_type_id":"4","last_reported":1761336653,"current_range_meters":8400,"station_id":"ce4bh692rcd13ifvqea0","pricing_plan_id":"cebpf4jnsgd1na2vs0mg"},{"bike_id":"33d3b426-3e29-4fb7-9498-913f48affad7","system_id":"levelo_inurba_marseille","lat":43.31325,"lon":5.39692,"is_reserved":false,"is_disabled":false,"rental_uris":{"android":"levelo://app?vid=33d3b426-3e29-4fb7-9498-913f48affad7","ios":"levelo://app?vid=33d3b426-3e29-4fb7-9498-913f48affad7"},"vehicle_type_id":"4","last_reported":1761336653,"current_range_meters":8400,"station_id":"ce4bgvp2rcd13ifvqcu0","pricing_plan_id":"cebpf4jnsgd1na2vs0mg"},{"bike_id":"323bf2de-3bb4-4b4c-b330-b19ea807dbf5","system_id":"levelo_inurba_marseille","lat":43.33028,"lon":5.42939,"is_reserved":false,"is_disabled":false,"rental_uris":{"android":"levelo://app?vid=323bf2de-3bb4-4b4c-b330-b19ea807dbf5","ios":"levelo://app?vid=323bf2de-3bb4-4b4c-b330-b19ea807dbf5"},"vehicle_type_id":"4","last_reported":1761336653,"current_range_meters":8400,"station_id":"","pricing_plan_id":"cebpf4jnsgd1na2vs0mg"},{"bike_id":"17bd9fff-f8a7-45af-8120-cab272292f42","system_id":"levelo_inurba_marseille","lat":43.28488,"lon":5.48401,"is_reserved":false,"is_disabled":false,"rental_uris":{"android":"levelo://app?vid=17bd9fff-f8a7-45af-8120-cab272292f42","ios":"levelo://app?vid=17bd9fff-f8a7-45af-8120-cab272292f42"},"vehicle_type_id":"4","last_reported":1761336653,"current_range_meters":8400,"station_id":"st_d3svhcjqgbts73a3dn0g","pricing_plan_id":"cebpf4jnsgd1na2vs0mg"},{"bike_id":"bf52d227-e2e6-4e46-bfde-44cbb96d7d45","system_id":"levelo_inurba_marseille","lat":43.21188,"lon":5.35067,"is_reserved":false,"is_disabled":false,"rental_uris":{"android":"levelo://app?vid=bf52d227-e2e6-4e46-bfde-44cbb96d7d45","ios":"levelo://app?vid=bf52d227-e2e6-4e46-bfde-44cbb96d7d45"},"vehicle_type_id":"4","last_reported":1761336653,"current_range_meters":8800,"station_id":"st_cvj6sg6p6f1abm77japg","pricing_plan_id":"cebpf4jnsgd1na2vs0mg"},{"bike_id":"9bfed83c-4a67-448a-b6b2-0cdeb6d04c62","system_id":"levelo_inurba_marseille","lat":43.211941,"lon":5.350709,"is_reserved":false,"is_disabled":false,"rental_uris":{"android":"levelo://app?vid=9bfed83c-4a67-448a-b6b2-0cdeb6d04c62","ios":"levelo://app?vid=9bfed83c-4a67-448a-b6b2-0cdeb6d04c62"},"vehicle_type_id":"4","last_reported":1761336653,"current_range_meters":8800,"station_id":"","pricing_plan_id":"cebpf4jnsgd1na2vs0mg"},{"bike_id":"18df7d7e-5c22-4e8f-8de7-2f9e21f3521d","system_id":"levelo_inurba_marseille","lat":43.29573,"lon":5.39559,"is_reserved":false,"is_disabled":false,"rental_uris":{"android":"levelo://app?vid=18df7d7e-5c22-4e8f-8de7-2f9e21f3521d","ios":"levelo://app?vid=18df7d7e-5c22-4e8f-8de7-2f9e21f3521d"},"vehicle_type_id":"4","last_reported":1761336653,"current_range_meters":8800,"station_id":"","pricing_plan_id":"cebpf4jnsgd1na2vs0mg"},{"bike_id":"1d5bea88-4327-4dc5-9ee4-4d9c250fc35f","system_id":"levelo_inurba_marseille","lat":43.2867,"lon":5.38675,"is_reserved":false,"is_disabled":false,"rental_uris":{"android":"levelo://app?vid=1d5bea88-4327-4dc5-9ee4-4d9c250fc35f","ios":"levelo://app?vid=1d5bea88-4327-4dc5-9ee4-4d9c250fc35f"},"vehicle_type_id":"4","last_reported":1761336653,"current_range_meters":8800,"station_id":"ce4bh492rcd13ifvqdug","pricing_plan_id":"cebpf4jnsgd1na2vs0mg"},{"bike_id":"535d00a5-d3a4-45af-83d7-2f45159abec9","system_id":"levelo_inurba_marseille","lat":43.23781,"lon":5.36636,"is_reserved":false,"is_disabled":false,"rental_uris":{"android":"levelo://app?vid=535d00a5-d3a4-45af-83d7-2f45159abec9","ios":"levelo://app?vid=535d00a5-d3a4-45af-83d7-2f45159abec9"},"vehicle_type_id":"4","last_reported":1761336653,"current_range_meters":9200,"station_id":"st_d3nk18o9ro0c73en2l3g","pricing_plan_id":"cebpf4jnsgd1na2vs0mg"},{"bike_id":"3848ff18-aa4c-4e48-857b-c9ae6b3d4bef","system_id":"levelo_inurba_marseille","lat":43.28729,"lon":5.36077,"is_reserved":false,"is_disabled":false,"rental_uris":{"android":"levelo://app?vid=3848ff18-aa4c-4e48-857b-c9ae6b3d4bef","ios":"levelo://app?vid=3848ff18-aa4c-4e48-857b-c9ae6b3d4bef"},"vehicle_type_id":"4","last_reported":1761336653,"current_range_meters":9200,"station_id":"cki0cbj6b192h4jlfktg","pricing_plan_id":"cebpf4jnsgd1na2vs0mg"},{"bike_id":"ae5a339b-5ed8-4ed1-bdcc-bd278201f699","system_id":"levelo_inurba_marseille","lat":43.29483,"lon":5.43306,"is_reserved":false,"is_disabled":false,"rental_uris":{"android":"levelo://app?vid=ae5a339b-5ed8-4ed1-bdcc-bd278201f699","ios":"levelo://app?vid=ae5a339b-5ed8-4ed1-bdcc-bd278201f699"},"vehicle_type_id":"4","last_reported":1761336653,"current_range_meters":9200,"station_id":"st_d3j5ugp08ojc73fj9d10","pricing_plan_id":"cebpf4jnsgd1na2vs0mg"},{"bike_id":"84d04309-b2c1-4028-9572-2203d0ce6dc1","system_id":"levelo_inurba_marseille","lat":43.29524,"lon":5.38543,"is_reserved":false,"is_disabled":false,"rental_uris":{"android":"levelo://app?vid=84d04309-b2c1-4028-9572-2203d0ce6dc1","ios":"levelo://app?vid=84d04309-b2c1-4028-9572-2203d0ce6dc1"},"vehicle_type_id":"4","last_reported":1761336653,"current_range_meters":9200,"station_id":"ce4bgih2rcd13ifvqba0","pricing_plan_id":"cebpf4jnsgd1na2vs0mg"},{"bike_id":"8bcacd78-80de-4026-af75-b37ebe3030fe","system_id":"levelo_inurba_marseille","lat":43.334756,"lon":5.404255,"is_reserved":false,"is_disabled":false,"rental_uris":{"android":"levelo://app?vid=8bcacd78-80de-4026-af75-b37ebe3030fe","ios":"levelo://app?vid=8bcacd78-80de-4026-af75-b37ebe3030fe"},"vehicle_type_id":"4","last_reported":1761336653,"current_range_meters":9600,"station_id":"","pricing_plan_id":"cebpf4jnsgd1na2vs0mg"},{"bike_id":"3d2c2cc7-df1d-420f-925b-aa2f5f268531","system_id":"levelo_inurba_marseille","lat":43.29265,"lon":5.38421,"is_reserved":false,"is_disabled":false,"rental_uris":{"android":"levelo://app?vid=3d2c2cc7-df1d-420f-925b-aa2f5f268531","ios":"levelo://app?vid=3d2c2cc7-df1d-420f-925b-aa2f5f268531"},"vehicle_type_id":"4","last_reported":1761336653,"current_range_meters":9600,"station_id":"ce4bh692rcd13ifvqea0","pricing_plan_id":"cebpf4jnsgd1na2vs0mg"},{"bike_id":"9881c788-42a8-46f5-8ccc-580a73583155","system_id":"levelo_inurba_marseille","lat":43.320943,"lon":5.409367,"is_reserved":false,"is_disabled":true,"rental_uris":{"android":"levelo://app?vid=9881c788-42a8-46f5-8ccc-580a73583155","ios":"levelo://app?vid=9881c788-42a8-46f5-8ccc-580a73583155"},"vehicle_type_id":"4","last_reported":1761336653,"current_range_meters":9600,"station_id":"","pricing_plan_id":"cebpf4jnsgd1na2vs0mg"},{"bike_id":"37b5a415-50bb-4ba6-9326-87a325359629","system_id":"levelo_inurba_marseille","lat":43.29255,"lon":5.38437,"is_reserved":false,"is_disabled":false,"rental_uris":{"android":"levelo://app?vid=37b5a415-50bb-4ba6-9326-87a325359629","ios":"levelo://app?vid=37b5a415-50bb-4ba6-9326-87a325359629"},"vehicle_type_id":"4","last_reported":1761336653,"current_range_meters":9600,"station_id":"ce4bh692rcd13ifvqea0","pricing_plan_id":"cebpf4jnsgd1na2vs0mg"},{"bike_id":"69a6abc5-0f21-4944-bd4e-39fd9ca77f1d","system_id":"levelo_inurba_marseille","lat":43.29279,"lon":5.38436,"is_reserved":false,"is_disabled":false,"rental_uris":{"android":"levelo://app?vid=69a6abc5-0f21-4944-bd4e-39fd9ca77f1d","ios":"levelo://app?vid=69a6abc5-0f21-4944-bd4e-39fd9ca77f1d"},"vehicle_type_id":"4","last_reported":1761336653,"current_range_meters":10000,"station_id":"ce4bh692rcd13ifvqea0","pricing_plan_id":"cebpf4jnsgd1na2vs0mg"},{"bike_id":"acb64288-af8f-4088-b9f7-eb4b13f0dd53","system_id":"levelo_inurba_marseille","lat":43.23178,"lon":5.39963,"is_reserved":false,"is_disabled":false,"rental_uris":{"android":"levelo://app?vid=acb64288-af8f-4088-b9f7-eb4b13f0dd53","ios":"levelo://app?vid=acb64288-af8f-4088-b9f7-eb4b13f0dd53"},"vehicle_type_id":"4","last_reported":1761336653,"current_range_meters":10000,"station_id":"ce4bhn12rcd13ifvqgqg","pricing_plan_id":"cebpf4jnsgd1na2vs0mg"},{"bike_id":"b9764ed2-f91a-421e-b54e-d7527bd8af22","system_id":"levelo_inurba_marseille","lat":43.29811,"lon":5.36588,"is_reserved":false,"is_disabled":false,"rental_uris":{"android":"levelo://app?vid=b9764ed2-f91a-421e-b54e-d7527bd8af22","ios":"levelo://app?vid=b9764ed2-f91a-421e-b54e-d7527bd8af22"},"vehicle_type_id":"4","last_reported":1761336653,"current_range_meters":10000,"station_id":"","pricing_plan_id":"cebpf4jnsgd1na2vs0mg"},{"bike_id":"99fb31d5-fcd0-4c93-973a-3f1d1d5176c9","system_id":"levelo_inurba_marseille","lat":43.29256,"lon":5.37616,"is_reserved":false,"is_disabled":false,"rental_uris":{"android":"levelo://app?vid=99fb31d5-fcd0-4c93-973a-3f1d1d5176c9","ios":"levelo://app?vid=99fb31d5-fcd0-4c93-973a-3f1d1d5176c9"},"vehicle_type_id":"4","last_reported":1761336653,"current_range_meters":10000,"station_id":"ce4bgi12rcd13ifvqb80","pricing_plan_id":"cebpf4jnsgd1na2vs0mg"},{"bike_id":"2842f5fd-7b05-4b47-909c-5ee54d7d3bc5","system_id":"levelo_inurba_marseille","lat":43.32452,"lon":5.42835,"is_reserved":false,"is_disabled":false,"rental_uris":{"android":"levelo://app?vid=2842f5fd-7b05-4b47-909c-5ee54d7d3bc5","ios":"levelo://app?vid=2842f5fd-7b05-4b47-909c-5ee54d7d3bc5"},"vehicle_type_id":"4","last_reported":1761336653,"current_range_meters":10000,"station_id":"","pricing_plan_id":"cebpf4jnsgd1na2vs0mg"},{"bike_id":"41d1e9c8-193a-4e64-a1f0-b7037202749b","system_id":"levelo_inurba_marseille","lat":43.3014,"lon":5.37391,"is_reserved":false,"is_disabled":true,"rental_uris":{"android":"levelo://app?vid=41d1e9c8-193a-4e64-a1f0-b7037202749b","ios":"levelo://app?vid=41d1e9c8-193a-4e64-a1f0-b7037202749b"},"vehicle_type_id":"4","last_reported":1761336653,"current_range_meters":10000,"station_id":"ce4bgs92rcd13ifvqcc0","pricing_plan_id":"cebpf4jnsgd1na2vs0mg"},{"bike_id":"2ac3d72d-b3cf-4758-852c-381c795881ea","system_id":"levelo_inurba_marseille","lat":43.30086,"lon":5.39079,"is_reserved":false,"is_disabled":false,"rental_uris":{"android":"levelo://app?vid=2ac3d72d-b3cf-4758-852c-381c795881ea","ios":"levelo://app?vid=2ac3d72d-b3cf-4758-852c-381c795881ea"},"vehicle_type_id":"4","last_reported":1761336653,"current_range_meters":10000,"station_id":"ce4bh192rcd13ifvqdb0","pricing_plan_id":"cebpf4jnsgd1na2vs0mg"},{"bike_id":"5c9381a6-9f30-4d34-b8ab-4c4377defbb3","system_id":"levelo_inurba_marseille","lat":43.28999,"lon":5.35618,"is_reserved":false,"is_disabled":false,"rental_uris":{"android":"levelo://app?vid=5c9381a6-9f30-4d34-b8ab-4c4377defbb3","ios":"levelo://app?vid=5c9381a6-9f30-4d34-b8ab-4c4377defbb3"},"vehicle_type_id":"4","last_reported":1761336653,"current_range_meters":10800,"station_id":"ce4bhb92rcd13ifvqen0","pricing_plan_id":"cebpf4jnsgd1na2vs0mg"},{"bike_id":"6b2eca7d-8d33-4236-b0be-3f41af17feb2","system_id":"levelo_inurba_marseille","lat":43.275648,"lon":5.384268,"is_reserved":false,"is_disabled":false,"rental_uris":{"android":"levelo://app?vid=6b2eca7d-8d33-4236-b0be-3f41af17feb2","ios":"levelo://app?vid=6b2eca7d-8d33-4236-b0be-3f41af17feb2"},"vehicle_type_id":"4","last_reported":1761336653,"current_range_meters":10800,"station_id":"ce4bhh92rcd13ifvqfi0","pricing_plan_id":"cebpf4jnsgd1na2vs0mg"},{"bike_id":"29448dbe-84ba-4ac7-96e4-2886eeb60aff","system_id":"levelo_inurba_marseille","lat":43.29258,"lon":5.3844,"is_reserved":false,"is_disabled":false,"rental_uris":{"android":"levelo://app?vid=29448dbe-84ba-4ac7-96e4-2886eeb60aff","ios":"levelo://app?vid=29448dbe-84ba-4ac7-96e4-2886eeb60aff"},"vehicle_type_id":"4","last_reported":1761336653,"current_range_meters":10800,"station_id":"ce4bh692rcd13ifvqea0","pricing_plan_id":"cebpf4jnsgd1na2vs0mg"},{"bike_id":"981efc3b-4ead-4b0b-8056-94e558a0dc6e","system_id":"levelo_inurba_marseille","lat":43.26193,"lon":5.3792,"is_reserved":false,"is_disabled":false,"rental_uris":{"android":"levelo://app?vid=981efc3b-4ead-4b0b-8056-94e558a0dc6e","ios":"levelo://app?vid=981efc3b-4ead-4b0b-8056-94e558a0dc6e"},"vehicle_type_id":"4","last_reported":1761336653,"current_range_meters":10800,"station_id":"ce4bhjp2rcd13ifvqg90","pricing_plan_id":"cebpf4jnsgd1na2vs0mg"},{"bike_id":"f94e76c3-55d5-4347-b4f4-0f2f159c90e1","system_id":"levelo_inurba_marseille","lat":43.29333,"lon":5.37175,"is_reserved":false,"is_disabled":false,"rental_uris":{"android":"levelo://app?vid=f94e76c3-55d5-4347-b4f4-0f2f159c90e1","ios":"levelo://app?vid=f94e76c3-55d5-4347-b4f4-0f2f159c90e1"},"vehicle_type_id":"4","last_reported":1761336653,"current_range_meters":11200,"station_id":"ce4bgh92rcd13ifvqb40","pricing_plan_id":"cebpf4jnsgd1na2vs0mg"},{"bike_id":"f2ab01da-7947-498b-ac8b-e966b8116c3e","system_id":"levelo_inurba_marseille","lat":43.295266,"lon":5.390021,"is_reserved":false,"is_disabled":false,"rental_uris":{"android":"levelo://app?vid=f2ab01da-7947-498b-ac8b-e966b8116c3e","ios":"levelo://app?vid=f2ab01da-7947-498b-ac8b-e966b8116c3e"},"vehicle_type_id":"4","last_reported":1761336653,"current_range_meters":11200,"station_id":"ce4bh3p2rcd13ifvqdp0","pricing_plan_id":"cebpf4jnsgd1na2vs0mg"},{"bike_id":"3ea860b0-bcc7-4174-8003-dcebcf1c1d38","system_id":"levelo_inurba_marseille","lat":43.28118,"lon":5.43213,"is_reserved":false,"is_disabled":false,"rental_uris":{"android":"levelo://app?vid=3ea860b0-bcc7-4174-8003-dcebcf1c1d38","ios":"levelo://app?vid=3ea860b0-bcc7-4174-8003-dcebcf1c1d38"},"vehicle_type_id":"4","last_reported":1761336653,"current_range_meters":11200,"station_id":"","pricing_plan_id":"cebpf4jnsgd1na2vs0mg"},{"bike_id":"48bb085f-8c91-495e-8c77-d28ff708cdad","system_id":"levelo_inurba_marseille","lat":43.28144,"lon":5.42631,"is_reserved":false,"is_disabled":false,"rental_uris":{"android":"levelo://app?vid=48bb085f-8c91-495e-8c77-d28ff708cdad","ios":"levelo://app?vid=48bb085f-8c91-495e-8c77-d28ff708cdad"},"vehicle_type_id":"4","last_reported":1761336653,"current_range_meters":11200,"station_id":"ce4bhnh2rcd13ifvqgug","pricing_plan_id":"cebpf4jnsgd1na2vs0mg"},{"bike_id":"db94d1e3-d6ad-4bc0-b456-0d49f128a641","system_id":"levelo_inurba_marseille","lat":43.302086,"lon":5.371265,"is_reserved":false,"is_disabled":false,"rental_uris":{"android":"levelo://app?vid=db94d1e3-d6ad-4bc0-b456-0d49f128a641","ios":"levelo://app?vid=db94d1e3-d6ad-4bc0-b456-0d49f128a641"},"vehicle_type_id":"4","last_reported":1761336653,"current_range_meters":11200,"station_id":"","pricing_plan_id":"cebpf4jnsgd1na2vs0mg"},{"bike_id":"9e856cdd-8612-46ff-8f1c-6dfb624f8dc8","system_id":"levelo_inurba_marseille","lat":43.27943,"lon":5.41035,"is_reserved":false,"is_disabled":false,"rental_uris":{"android":"levelo://app?vid=9e856cdd-8612-46ff-8f1c-6dfb624f8dc8","ios":"levelo://app?vid=9e856cdd-8612-46ff-8f1c-6dfb624f8dc8"},"vehicle_type_id":"4","last_reported":1761336653,"current_range_meters":11200,"station_id":"ce4bhnp2rcd13ifvqh0g","pricing_plan_id":"cebpf4jnsgd1na2vs0mg"},{"bike_id":"e35e1247-2ec0-4206-a360-6aaa534a130f","system_id":"levelo_inurba_marseille","lat":43.2849,"lon":5.48396,"is_reserved":false,"is_disabled":false,"rental_uris":{"android":"levelo://app?vid=e35e1247-2ec0-4206-a360-6aaa534a130f","ios":"levelo://app?vid=e35e1247-2ec0-4206-a360-6aaa534a130f"},"vehicle_type_id":"4","last_reported":1761336653,"current_range_meters":11200,"station_id":"st_d3svhcjqgbts73a3dn0g","pricing_plan_id":"cebpf4jnsgd1na2vs0mg"},{"bike_id":"4567cde9-b580-4553-8859-eda87cbd791e","system_id":"levelo_inurba_marseille","lat":43.30242,"lon":5.40044,"is_reserved":false,"is_disabled":false,"rental_uris":{"android":"levelo://app?vid=4567cde9-b580-4553-8859-eda87cbd791e","ios":"levelo://app?vid=4567cde9-b580-4553-8859-eda87cbd791e"},"vehicle_type_id":"4","last_reported":1761336653,"current_range_meters":11200,"station_id":"ce4bgvh2rcd13ifvqcs0","pricing_plan_id":"cebpf4jnsgd1na2vs0mg"},{"bike_id":"a2666ccb-a48d-4bb6-9479-2612685cac3b","system_id":"levelo_inurba_marseille","lat":43.24405,"lon":5.37054,"is_reserved":false,"is_disabled":false,"rental_uris":{"android":"levelo://app?vid=a2666ccb-a48d-4bb6-9479-2612685cac3b","ios":"levelo://app?vid=a2666ccb-a48d-4bb6-9479-2612685cac3b"},"vehicle_type_id":"4","last_reported":1761336653,"current_range_meters":11600,"station_id":"ce4bhhh2rcd13ifvqfk0","pricing_plan_id":"cebpf4jnsgd1na2vs0mg"},{"bike_id":"ccb140cc-61af-460c-9c74-9b118e13b00f","system_id":"levelo_inurba_marseille","lat":43.25346,"lon":5.42165,"is_reserved":false,"is_disabled":false,"rental_uris":{"android":"levelo://app?vid=ccb140cc-61af-460c-9c74-9b118e13b00f","ios":"levelo://app?vid=ccb140cc-61af-460c-9c74-9b118e13b00f"},"vehicle_type_id":"4","last_reported":1761336653,"current_range_meters":11600,"station_id":"st_d2m65c5bi1j21697t3ng","pricing_plan_id":"cebpf4jnsgd1na2vs0mg"},{"bike_id":"cb0d1ca2-50fa-4e0c-8a36-443c5a3930bb","system_id":"levelo_inurba_marseille","lat":43.287185,"lon":5.379273,"is_reserved":false,"is_disabled":true,"rental_uris":{"android":"levelo://app?vid=cb0d1ca2-50fa-4e0c-8a36-443c5a3930bb","ios":"levelo://app?vid=cb0d1ca2-50fa-4e0c-8a36-443c5a3930bb"},"vehicle_type_id":"4","last_reported":1761336653,"current_range_meters":11600,"station_id":"ce4bh9p2rcd13ifvqec0","pricing_plan_id":"cebpf4jnsgd1na2vs0mg"},{"bike_id":"0e9f5962-02c7-4f98-9226-48a9874138c8","system_id":"levelo_inurba_marseille","lat":43.29503,"lon":5.39032,"is_reserved":false,"is_disabled":false,"rental_uris":{"android":"levelo://app?vid=0e9f5962-02c7-4f98-9226-48a9874138c8","ios":"levelo://app?vid=0e9f5962-02c7-4f98-9226-48a9874138c8"},"vehicle_type_id":"4","last_reported":1761336653,"current_range_meters":11600,"station_id":"ce4bh3p2rcd13ifvqdp0","pricing_plan_id":"cebpf4jnsgd1na2vs0mg"},{"bike_id":"5a753e64-b9ab-4258-baac-3e5dbb098814","system_id":"levelo_inurba_marseille","lat":43.2695,"lon":5.38631,"is_reserved":false,"is_disabled":false,"rental_uris":{"android":"levelo://app?vid=5a753e64-b9ab-4258-baac-3e5dbb098814","ios":"levelo://app?vid=5a753e64-b9ab-4258-baac-3e5dbb098814"},"vehicle_type_id":"4","last_reported":1761336653,"current_range_meters":11600,"station_id":"ce4bhh92rcd13ifvqfh0","pricing_plan_id":"cebpf4jnsgd1na2vs0mg"},{"bike_id":"f964c413-33aa-4638-bd97-c061924cd063","system_id":"levelo_inurba_marseille","lat":43.296829,"lon":5.372959,"is_reserved":false,"is_disabled":false,"rental_uris":{"android":"levelo://app?vid=f964c413-33aa-4638-bd97-c061924cd063","ios":"levelo://app?vid=f964c413-33aa-4638-bd97-c061924cd063"},"vehicle_type_id":"4","last_reported":1761336653,"current_range_meters":12000,"station_id":"ce4bgk12rcd13ifvqbj0","pricing_plan_id":"cebpf4jnsgd1na2vs0mg"},{"bike_id":"de4b8ab5-285e-474a-b521-72ccb626a9fe","system_id":"levelo_inurba_marseille","lat":43.32246,"lon":5.38357,"is_reserved":false,"is_disabled":false,"rental_uris":{"android":"levelo://app?vid=de4b8ab5-285e-474a-b521-72ccb626a9fe","ios":"levelo://app?vid=de4b8ab5-285e-474a-b521-72ccb626a9fe"},"vehicle_type_id":"4","last_reported":1761336653,"current_range_meters":12000,"station_id":"ce4bhr12rcd13ifvqhqg","pricing_plan_id":"cebpf4jnsgd1na2vs0mg"},{"bike_id":"dc32c902-0e78-43e9-86e5-99ce7ac82a0d","system_id":"levelo_inurba_marseille","lat":43.27904,"lon":5.39584,"is_reserved":false,"is_disabled":false,"rental_uris":{"android":"levelo://app?vid=dc32c902-0e78-43e9-86e5-99ce7ac82a0d","ios":"levelo://app?vid=dc32c902-0e78-43e9-86e5-99ce7ac82a0d"},"vehicle_type_id":"4","last_reported":1761336653,"current_range_meters":12000,"station_id":"ce4bhf92rcd13ifvqf40","pricing_plan_id":"cebpf4jnsgd1na2vs0mg"},{"bike_id":"fac8629b-093b-4311-af2a-2a2e64adacb0","system_id":"levelo_inurba_marseille","lat":43.30459,"lon":5.37904,"is_reserved":false,"is_disabled":false,"rental_uris":{"android":"levelo://app?vid=fac8629b-093b-4311-af2a-2a2e64adacb0","ios":"levelo://app?vid=fac8629b-093b-4311-af2a-2a2e64adacb0"},"vehicle_type_id":"4","last_reported":1761336653,"current_range_meters":12000,"station_id":"ce4bgup2rcd13ifvqcn0","pricing_plan_id":"cebpf4jnsgd1na2vs0mg"},{"bike_id":"3ce143eb-b285-40ae-a41f-1a7d6206d959","system_id":"levelo_inurba_marseille","lat":43.29531,"lon":5.38541,"is_reserved":false,"is_disabled":false,"rental_uris":{"android":"levelo://app?vid=3ce143eb-b285-40ae-a41f-1a7d6206d959","ios":"levelo://app?vid=3ce143eb-b285-40ae-a41f-1a7d6206d959"},"vehicle_type_id":"4","last_reported":1761336653,"current_range_meters":12400,"station_id":"ce4bgih2rcd13ifvqba0","pricing_plan_id":"cebpf4jnsgd1na2vs0mg"},{"bike_id":"43f50f69-f408-40ea-a2b1-4b086cce6fab","system_id":"levelo_inurba_marseille","lat":43.310699,"lon":5.383571,"is_reserved":false,"is_disabled":false,"rental_uris":{"android":"levelo://app?vid=43f50f69-f408-40ea-a2b1-4b086cce6fab","ios":"levelo://app?vid=43f50f69-f408-40ea-a2b1-4b086cce6fab"},"vehicle_type_id":"4","last_reported":1761336653,"current_range_meters":12400,"station_id":"ce4bgv92rcd13ifvqcr0","pricing_plan_id":"cebpf4jnsgd1na2vs0mg"},{"bike_id":"20ed8898-129d-47a9-8640-6e442dec20cd","system_id":"levelo_inurba_marseille","lat":43.28419,"lon":5.37526,"is_reserved":false,"is_disabled":false,"rental_uris":{"android":"levelo://app?vid=20ed8898-129d-47a9-8640-6e442dec20cd","ios":"levelo://app?vid=20ed8898-129d-47a9-8640-6e442dec20cd"},"vehicle_type_id":"4","last_reported":1761336653,"current_range_meters":12400,"station_id":"ce4bh412rcd13ifvqds0","pricing_plan_id":"cebpf4jnsgd1na2vs0mg"},{"bike_id":"6b307c52-f33b-4885-85a6-9bac6592bb3d","system_id":"levelo_inurba_marseille","lat":43.21231,"lon":5.35095,"is_reserved":false,"is_disabled":false,"rental_uris":{"android":"levelo://app?vid=6b307c52-f33b-4885-85a6-9bac6592bb3d","ios":"levelo://app?vid=6b307c52-f33b-4885-85a6-9bac6592bb3d"},"vehicle_type_id":"4","last_reported":1761336653,"current_range_meters":12400,"station_id":"","pricing_plan_id":"cebpf4jnsgd1na2vs0mg"},{"bike_id":"45cf7000-f8d7-4cef-a789-47fdd7bb07f2","system_id":"levelo_inurba_marseille","lat":43.33004,"lon":5.39029,"is_reserved":false,"is_disabled":false,"rental_uris":{"android":"levelo://app?vid=45cf7000-f8d7-4cef-a789-47fdd7bb07f2","ios":"levelo://app?vid=45cf7000-f8d7-4cef-a789-47fdd7bb07f2"},"vehicle_type_id":"4","last_reported":1761336653,"current_range_meters":12400,"station_id":"ce4bhr92rcd13ifvqhrg","pricing_plan_id":"cebpf4jnsgd1na2vs0mg"},{"bike_id":"a28b6a76-dcce-4c6b-b202-44f168b38072","system_id":"levelo_inurba_marseille","lat":43.29685,"lon":5.38636,"is_reserved":false,"is_disabled":false,"rental_uris":{"android":"levelo://app?vid=a28b6a76-dcce-4c6b-b202-44f168b38072","ios":"levelo://app?vid=a28b6a76-dcce-4c6b-b202-44f168b38072"},"vehicle_type_id":"4","last_reported":1761336653,"current_range_meters":12800,"station_id":"","pricing_plan_id":"cebpf4jnsgd1na2vs0mg"},{"bike_id":"6398fd05-47e5-41f8-95bf-116d17d1d757","system_id":"levelo_inurba_marseille","lat":43.292603,"lon":5.384447,"is_reserved":false,"is_disabled":false,"rental_uris":{"android":"levelo://app?vid=6398fd05-47e5-41f8-95bf-116d17d1d757","ios":"levelo://app?vid=6398fd05-47e5-41f8-95bf-116d17d1d757"},"vehicle_type_id":"4","last_reported":1761336653,"current_range_meters":12800,"station_id":"","pricing_plan_id":"cebpf4jnsgd1na2vs0mg"},{"bike_id":"fbffb965-9a25-44bd-9ec7-e8c34323f834","system_id":"levelo_inurba_marseille","lat":43.29513,"lon":5.39047,"is_reserved":false,"is_disabled":false,"rental_uris":{"android":"levelo://app?vid=fbffb965-9a25-44bd-9ec7-e8c34323f834","ios":"levelo://app?vid=fbffb965-9a25-44bd-9ec7-e8c34323f834"},"vehicle_type_id":"4","last_reported":1761336653,"current_range_meters":12800,"station_id":"ce4bh3p2rcd13ifvqdp0","pricing_plan_id":"cebpf4jnsgd1na2vs0mg"},{"bike_id":"5ed040cd-a83b-4624-aa09-8c66d4769469","system_id":"levelo_inurba_marseille","lat":43.237839,"lon":5.366356,"is_reserved":false,"is_disabled":false,"rental_uris":{"android":"levelo://app?vid=5ed040cd-a83b-4624-aa09-8c66d4769469","ios":"levelo://app?vid=5ed040cd-a83b-4624-aa09-8c66d4769469"},"vehicle_type_id":"4","last_reported":1761336653,"current_range_meters":12800,"station_id":"st_d3nk18o9ro0c73en2l3g","pricing_plan_id":"cebpf4jnsgd1na2vs0mg"},{"bike_id":"e1f0a671-9be4-4e0b-a3c5-31f7920bac07","system_id":"levelo_inurba_marseille","lat":43.295359,"lon":5.391348,"is_reserved":false,"is_disabled":false,"rental_uris":{"android":"levelo://app?vid=e1f0a671-9be4-4e0b-a3c5-31f7920bac07","ios":"levelo://app?vid=e1f0a671-9be4-4e0b-a3c5-31f7920bac07"},"vehicle_type_id":"4","last_reported":1761336653,"current_range_meters":12800,"station_id":"ce4bh3p2rcd13ifvqdp0","pricing_plan_id":"cebpf4jnsgd1na2vs0mg"},{"bike_id":"73019415-679c-46df-bd2d-1b42534d9724","system_id":"levelo_inurba_marseille","lat":43.26412,"lon":5.37398,"is_reserved":false,"is_disabled":false,"rental_uris":{"android":"levelo://app?vid=73019415-679c-46df-bd2d-1b42534d9724","ios":"levelo://app?vid=73019415-679c-46df-bd2d-1b42534d9724"},"vehicle_type_id":"4","last_reported":1761336653,"current_range_meters":12800,"station_id":"","pricing_plan_id":"cebpf4jnsgd1na2vs0mg"},{"bike_id":"d3bd720c-09b0-4a9e-84f0-e27dda860bdc","system_id":"levelo_inurba_marseille","lat":43.27212,"lon":5.39178,"is_reserved":false,"is_disabled":false,"rental_uris":{"android":"levelo://app?vid=d3bd720c-09b0-4a9e-84f0-e27dda860bdc","ios":"levelo://app?vid=d3bd720c-09b0-4a9e-84f0-e27dda860bdc"},"vehicle_type_id":"4","last_reported":1761336653,"current_range_meters":12800,"station_id":"ce4bhhp2rcd13ifvqfm0","pricing_plan_id":"cebpf4jnsgd1na2vs0mg"},{"bike_id":"55e2ef02-344e-48b6-8e3a-b74ca1a37aea","system_id":"levelo_inurba_marseille","lat":43.289409,"lon":5.396219,"is_reserved":false,"is_disabled":false,"rental_uris":{"android":"levelo://app?vid=55e2ef02-344e-48b6-8e3a-b74ca1a37aea","ios":"levelo://app?vid=55e2ef02-344e-48b6-8e3a-b74ca1a37aea"},"vehicle_type_id":"4","last_reported":1761336653,"current_range_meters":12800,"station_id":"ce4bh3h2rcd13ifvqdn0","pricing_plan_id":"cebpf4jnsgd1na2vs0mg"},{"bike_id":"05d5a1e1-643b-4c28-b320-38e9d16d3095","system_id":"levelo_inurba_marseille","lat":43.2791,"lon":5.40946,"is_reserved":false,"is_disabled":false,"rental_uris":{"android":"levelo://app?vid=05d5a1e1-643b-4c28-b320-38e9d16d3095","ios":"levelo://app?vid=05d5a1e1-643b-4c28-b320-38e9d16d3095"},"vehicle_type_id":"4","last_reported":1761336653,"current_range_meters":13600,"station_id":"","pricing_plan_id":"cebpf4jnsgd1na2vs0mg"},{"bike_id":"32ce9492-4637-4d6e-a292-cd351db28377","system_id":"levelo_inurba_marseille","lat":43.311368,"lon":5.370336,"is_reserved":false,"is_disabled":false,"rental_uris":{"android":"levelo://app?vid=32ce9492-4637-4d6e-a292-cd351db28377","ios":"levelo://app?vid=32ce9492-4637-4d6e-a292-cd351db28377"},"vehicle_type_id":"4","last_reported":1761336653,"current_range_meters":13600,"station_id":"","pricing_plan_id":"cebpf4jnsgd1na2vs0mg"},{"bike_id":"249615da-bae2-4bb3-9506-b338b9fb85b7","system_id":"levelo_inurba_marseille","lat":43.29697,"lon":5.37679,"is_reserved":false,"is_disabled":true,"rental_uris":{"android":"levelo://app?vid=249615da-bae2-4bb3-9506-b338b9fb85b7","ios":"levelo://app?vid=249615da-bae2-4bb3-9506-b338b9fb85b7"},"vehicle_type_id":"4","last_reported":1761336653,"current_range_meters":13600,"station_id":"ce4bgkh2rcd13ifvqbl0","pricing_plan_id":"cebpf4jnsgd1na2vs0mg"},{"bike_id":"9da4abfe-e1e2-41ee-b9dd-dfcf8c2e122f","system_id":"levelo_inurba_marseille","lat":43.2953,"lon":5.38541,"is_reserved":false,"is_disabled":false,"rental_uris":{"android":"levelo://app?vid=9da4abfe-e1e2-41ee-b9dd-dfcf8c2e122f","ios":"levelo://app?vid=9da4abfe-e1e2-41ee-b9dd-dfcf8c2e122f"},"vehicle_type_id":"4","last_reported":1761336653,"current_range_meters":13600,"station_id":"ce4bgih2rcd13ifvqba0","pricing_plan_id":"cebpf4jnsgd1na2vs0mg"},{"bike_id":"ad50cdc6-14ac-4ee0-8fca-5cde66c278a9","system_id":"levelo_inurba_marseille","lat":43.24052,"lon":5.37742,"is_reserved":false,"is_disabled":false,"rental_uris":{"android":"levelo://app?vid=ad50cdc6-14ac-4ee0-8fca-5cde66c278a9","ios":"levelo://app?vid=ad50cdc6-14ac-4ee0-8fca-5cde66c278a9"},"vehicle_type_id":"4","last_reported":1761336653,"current_range_meters":13600,"station_id":"ce4bhnp2rcd13ifvqgvg","pricing_plan_id":"cebpf4jnsgd1na2vs0mg"},{"bike_id":"4362eff2-d099-4efd-8ba2-9ea2abd70a75","system_id":"levelo_inurba_marseille","lat":43.29528,"lon":5.38545,"is_reserved":false,"is_disabled":false,"rental_uris":{"android":"levelo://app?vid=4362eff2-d099-4efd-8ba2-9ea2abd70a75","ios":"levelo://app?vid=4362eff2-d099-4efd-8ba2-9ea2abd70a75"},"vehicle_type_id":"4","last_reported":1761336653,"current_range_meters":14000,"station_id":"ce4bgih2rcd13ifvqba0","pricing_plan_id":"cebpf4jnsgd1na2vs0mg"},{"bike_id":"01dac0b0-7d70-4597-9908-fa71c2889819","system_id":"levelo_inurba_marseille","lat":43.28106,"lon":5.3784,"is_reserved":false,"is_disabled":false,"rental_uris":{"android":"levelo://app?vid=01dac0b0-7d70-4597-9908-fa71c2889819","ios":"levelo://app?vid=01dac0b0-7d70-4597-9908-fa71c2889819"},"vehicle_type_id":"4","last_reported":1761336653,"current_range_meters":14000,"station_id":"ce4bha12rcd13ifvqee0","pricing_plan_id":"cebpf4jnsgd1na2vs0mg"},{"bike_id":"faa9e64a-426c-4d0c-8cdb-396ea27458d0","system_id":"levelo_inurba_marseille","lat":43.28089,"lon":5.39644,"is_reserved":false,"is_disabled":false,"rental_uris":{"android":"levelo://app?vid=faa9e64a-426c-4d0c-8cdb-396ea27458d0","ios":"levelo://app?vid=faa9e64a-426c-4d0c-8cdb-396ea27458d0"},"vehicle_type_id":"4","last_reported":1761336653,"current_range_meters":14000,"station_id":"ce4bho12rcd13ifvqh2g","pricing_plan_id":"cebpf4jnsgd1na2vs0mg"},{"bike_id":"76876e20-93e4-4cbc-be16-cc560ce15fdb","system_id":"levelo_inurba_marseille","lat":43.29269,"lon":5.38442,"is_reserved":false,"is_disabled":false,"rental_uris":{"android":"levelo://app?vid=76876e20-93e4-4cbc-be16-cc560ce15fdb","ios":"levelo://app?vid=76876e20-93e4-4cbc-be16-cc560ce15fdb"},"vehicle_type_id":"4","last_reported":1761336653,"current_range_meters":14000,"station_id":"ce4bh692rcd13ifvqea0","pricing_plan_id":"cebpf4jnsgd1na2vs0mg"},{"bike_id":"add05dd7-ed04-429d-8939-b22edbf56d72","system_id":"levelo_inurba_marseille","lat":43.2954,"lon":5.38561,"is_reserved":false,"is_disabled":false,"rental_uris":{"android":"levelo://app?vid=add05dd7-ed04-429d-8939-b22edbf56d72","ios":"levelo://app?vid=add05dd7-ed04-429d-8939-b22edbf56d72"},"vehicle_type_id":"4","last_reported":1761336653,"current_range_meters":14000,"station_id":"ce4bgih2rcd13ifvqba0","pricing_plan_id":"cebpf4jnsgd1na2vs0mg"},{"bike_id":"e94f57f2-601c-4cad-a187-6e953770aa25","system_id":"levelo_inurba_marseille","lat":43.31236,"lon":5.37882,"is_reserved":false,"is_disabled":false,"rental_uris":{"android":"levelo://app?vid=e94f57f2-601c-4cad-a187-6e953770aa25","ios":"levelo://app?vid=e94f57f2-601c-4cad-a187-6e953770aa25"},"vehicle_type_id":"4","last_reported":1761336653,"current_range_meters":14000,"station_id":"","pricing_plan_id":"cebpf4jnsgd1na2vs0mg"},{"bike_id":"2716a070-eb77-456b-b9d4-a81c43215342","system_id":"levelo_inurba_marseille","lat":43.2931,"lon":5.405287,"is_reserved":false,"is_disabled":false,"rental_uris":{"android":"levelo://app?vid=2716a070-eb77-456b-b9d4-a81c43215342","ios":"levelo://app?vid=2716a070-eb77-456b-b9d4-a81c43215342"},"vehicle_type_id":"4","last_reported":1761336653,"current_range_meters":14000,"station_id":"ce4bh192rcd13ifvqdc0","pricing_plan_id":"cebpf4jnsgd1na2vs0mg"},{"bike_id":"b27d77c7-cb64-4204-9ade-986c14c57cb9","system_id":"levelo_inurba_marseille","lat":43.28611,"lon":5.35095,"is_reserved":false,"is_disabled":false,"rental_uris":{"android":"levelo://app?vid=b27d77c7-cb64-4204-9ade-986c14c57cb9","ios":"levelo://app?vid=b27d77c7-cb64-4204-9ade-986c14c57cb9"},"vehicle_type_id":"4","last_reported":1761336653,"current_range_meters":14400,"station_id":"ce4bhch2rcd13ifvqeug","pricing_plan_id":"cebpf4jnsgd1na2vs0mg"},{"bike_id":"4f5c5045-2f2c-4ab7-ad8b-eeba1d52fe66","system_id":"levelo_inurba_marseille","lat":43.31075,"lon":5.37456,"is_reserved":false,"is_disabled":false,"rental_uris":{"android":"levelo://app?vid=4f5c5045-2f2c-4ab7-ad8b-eeba1d52fe66","ios":"levelo://app?vid=4f5c5045-2f2c-4ab7-ad8b-eeba1d52fe66"},"vehicle_type_id":"4","last_reported":1761336653,"current_range_meters":14400,"station_id":"","pricing_plan_id":"cebpf4jnsgd1na2vs0mg"},{"bike_id":"99d8ad13-b3e2-486c-a4da-6416dad63dfd","system_id":"levelo_inurba_marseille","lat":43.30596,"lon":5.39365,"is_reserved":false,"is_disabled":false,"rental_uris":{"android":"levelo://app?vid=99d8ad13-b3e2-486c-a4da-6416dad63dfd","ios":"levelo://app?vid=99d8ad13-b3e2-486c-a4da-6416dad63dfd"},"vehicle_type_id":"4","last_reported":1761336653,"current_range_meters":14400,"station_id":"ce4bh0p2rcd13ifvqd80","pricing_plan_id":"cebpf4jnsgd1na2vs0mg"},{"bike_id":"abd2f139-a59d-460b-a028-0b87293686b1","system_id":"levelo_inurba_marseille","lat":43.29525,"lon":5.38535,"is_reserved":false,"is_disabled":false,"rental_uris":{"android":"levelo://app?vid=abd2f139-a59d-460b-a028-0b87293686b1","ios":"levelo://app?vid=abd2f139-a59d-460b-a028-0b87293686b1"},"vehicle_type_id":"4","last_reported":1761336653,"current_range_meters":14400,"station_id":"ce4bgih2rcd13ifvqba0","pricing_plan_id":"cebpf4jnsgd1na2vs0mg"},{"bike_id":"20280dd5-845b-4043-9b48-028211795bac","system_id":"levelo_inurba_marseille","lat":43.29266,"lon":5.38425,"is_reserved":false,"is_disabled":false,"rental_uris":{"android":"levelo://app?vid=20280dd5-845b-4043-9b48-028211795bac","ios":"levelo://app?vid=20280dd5-845b-4043-9b48-028211795bac"},"vehicle_type_id":"4","last_reported":1761336653,"current_range_meters":14400,"station_id":"ce4bh692rcd13ifvqea0","pricing_plan_id":"cebpf4jnsgd1na2vs0mg"},{"bike_id":"b9d9859a-08d8-4883-9698-e5965c5b2806","system_id":"levelo_inurba_marseille","lat":43.256742,"lon":5.409788,"is_reserved":false,"is_disabled":false,"rental_uris":{"android":"levelo://app?vid=b9d9859a-08d8-4883-9698-e5965c5b2806","ios":"levelo://app?vid=b9d9859a-08d8-4883-9698-e5965c5b2806"},"vehicle_type_id":"4","last_reported":1761336653,"current_range_meters":14400,"station_id":"ce4bhkp2rcd13ifvqgd0","pricing_plan_id":"cebpf4jnsgd1na2vs0mg"},{"bike_id":"05f559a3-5da7-4e74-8bce-f659c1346206","system_id":"levelo_inurba_marseille","lat":43.29895,"lon":5.38272,"is_reserved":false,"is_disabled":false,"rental_uris":{"android":"levelo://app?vid=05f559a3-5da7-4e74-8bce-f659c1346206","ios":"levelo://app?vid=05f559a3-5da7-4e74-8bce-f659c1346206"},"vehicle_type_id":"4","last_reported":1761336653,"current_range_meters":14400,"station_id":"","pricing_plan_id":"cebpf4jnsgd1na2vs0mg"},{"bike_id":"ad62d495-6a4e-4fbd-9d5d-34c5de7132c9","system_id":"levelo_inurba_marseille","lat":43.29064,"lon":5.37153,"is_reserved":false,"is_disabled":false,"rental_uris":{"android":"levelo://app?vid=ad62d495-6a4e-4fbd-9d5d-34c5de7132c9","ios":"levelo://app?vid=ad62d495-6a4e-4fbd-9d5d-34c5de7132c9"},"vehicle_type_id":"4","last_reported":1761336653,"current_range_meters":14800,"station_id":"ce4bh5p2rcd13ifvqe4g","pricing_plan_id":"cebpf4jnsgd1na2vs0mg"},{"bike_id":"353c32f0-715d-400e-9949-bcac114e53d9","system_id":"levelo_inurba_marseille","lat":43.23199,"lon":5.35552,"is_reserved":false,"is_disabled":false,"rental_uris":{"android":"levelo://app?vid=353c32f0-715d-400e-9949-bcac114e53d9","ios":"levelo://app?vid=353c32f0-715d-400e-9949-bcac114e53d9"},"vehicle_type_id":"4","last_reported":1761336653,"current_range_meters":14800,"station_id":"ce4bhu92rcd13ifvqi70","pricing_plan_id":"cebpf4jnsgd1na2vs0mg"},{"bike_id":"b9c8ced1-4ad2-4529-8b78-c6503294316b","system_id":"levelo_inurba_marseille","lat":43.302179,"lon":5.394717,"is_reserved":false,"is_disabled":false,"rental_uris":{"android":"levelo://app?vid=b9c8ced1-4ad2-4529-8b78-c6503294316b","ios":"levelo://app?vid=b9c8ced1-4ad2-4529-8b78-c6503294316b"},"vehicle_type_id":"4","last_reported":1761336653,"current_range_meters":14800,"station_id":"","pricing_plan_id":"cebpf4jnsgd1na2vs0mg"},{"bike_id":"3fc8d962-56a6-440c-ab7e-5645cd83e46c","system_id":"levelo_inurba_marseille","lat":43.24387,"lon":5.37061,"is_reserved":false,"is_disabled":false,"rental_uris":{"android":"levelo://app?vid=3fc8d962-56a6-440c-ab7e-5645cd83e46c","ios":"levelo://app?vid=3fc8d962-56a6-440c-ab7e-5645cd83e46c"},"vehicle_type_id":"4","last_reported":1761336653,"current_range_meters":14800,"station_id":"ce4bhhh2rcd13ifvqfk0","pricing_plan_id":"cebpf4jnsgd1na2vs0mg"},{"bike_id":"b3a2666e-fc1c-40b5-b985-91453d146c86","system_id":"levelo_inurba_marseille","lat":43.24628,"lon":5.43154,"is_reserved":false,"is_disabled":false,"rental_uris":{"android":"levelo://app?vid=b3a2666e-fc1c-40b5-b985-91453d146c86","ios":"levelo://app?vid=b3a2666e-fc1c-40b5-b985-91453d146c86"},"vehicle_type_id":"4","last_reported":1761336653,"current_range_meters":14800,"station_id":"st_d2m6c4gdas8pm72e190g","pricing_plan_id":"cebpf4jnsgd1na2vs0mg"},{"bike_id":"a7f11d08-358d-4175-ae4c-11718eec7509","system_id":"levelo_inurba_marseille","lat":43.24435,"lon":5.37094,"is_reserved":false,"is_disabled":false,"rental_uris":{"android":"levelo://app?vid=a7f11d08-358d-4175-ae4c-11718eec7509","ios":"levelo://app?vid=a7f11d08-358d-4175-ae4c-11718eec7509"},"vehicle_type_id":"4","last_reported":1761336653,"current_range_meters":15200,"station_id":"","pricing_plan_id":"cebpf4jnsgd1na2vs0mg"},{"bike_id":"73edc1b3-46fe-45a3-a6d9-70825c49e591","system_id":"levelo_inurba_marseille","lat":43.29508,"lon":5.37819,"is_reserved":false,"is_disabled":false,"rental_uris":{"android":"levelo://app?vid=73edc1b3-46fe-45a3-a6d9-70825c49e591","ios":"levelo://app?vid=73edc1b3-46fe-45a3-a6d9-70825c49e591"},"vehicle_type_id":"4","last_reported":1761336653,"current_range_meters":15200,"station_id":"","pricing_plan_id":"cebpf4jnsgd1na2vs0mg"},{"bike_id":"69599b97-b573-4868-ae16-9bda40c9248f","system_id":"levelo_inurba_marseille","lat":43.21224,"lon":5.3505,"is_reserved":false,"is_disabled":false,"rental_uris":{"android":"levelo://app?vid=69599b97-b573-4868-ae16-9bda40c9248f","ios":"levelo://app?vid=69599b97-b573-4868-ae16-9bda40c9248f"},"vehicle_type_id":"4","last_reported":1761336653,"current_range_meters":15200,"station_id":"","pricing_plan_id":"cebpf4jnsgd1na2vs0mg"},{"bike_id":"e1af5d25-d82d-4a75-935e-1b803b9790c9","system_id":"levelo_inurba_marseille","lat":43.29268,"lon":5.38436,"is_reserved":false,"is_disabled":false,"rental_uris":{"android":"levelo://app?vid=e1af5d25-d82d-4a75-935e-1b803b9790c9","ios":"levelo://app?vid=e1af5d25-d82d-4a75-935e-1b803b9790c9"},"vehicle_type_id":"4","last_reported":1761336653,"current_range_meters":15200,"station_id":"ce4bh692rcd13ifvqea0","pricing_plan_id":"cebpf4jnsgd1na2vs0mg"},{"bike_id":"fc90123b-afa1-45ab-a734-54370984c90e","system_id":"levelo_inurba_marseille","lat":43.299696,"lon":5.384924,"is_reserved":false,"is_disabled":false,"rental_uris":{"android":"levelo://app?vid=fc90123b-afa1-45ab-a734-54370984c90e","ios":"levelo://app?vid=fc90123b-afa1-45ab-a734-54370984c90e"},"vehicle_type_id":"4","last_reported":1761336653,"current_range_meters":15200,"station_id":"ce4bgj92rcd13ifvqbd0","pricing_plan_id":"cebpf4jnsgd1na2vs0mg"},{"bike_id":"db538fcf-3842-41b6-a98e-d8b4a6da20a0","system_id":"levelo_inurba_marseille","lat":43.2803,"lon":5.36946,"is_reserved":false,"is_disabled":false,"rental_uris":{"android":"levelo://app?vid=db538fcf-3842-41b6-a98e-d8b4a6da20a0","ios":"levelo://app?vid=db538fcf-3842-41b6-a98e-d8b4a6da20a0"},"vehicle_type_id":"4","last_reported":1761336653,"current_range_meters":15200,"station_id":"ce4bha12rcd13ifvqef0","pricing_plan_id":"cebpf4jnsgd1na2vs0mg"},{"bike_id":"d03f3636-16e3-4275-8b6e-75e5a75cfef1","system_id":"levelo_inurba_marseille","lat":43.26551,"lon":5.37286,"is_reserved":false,"is_disabled":false,"rental_uris":{"android":"levelo://app?vid=d03f3636-16e3-4275-8b6e-75e5a75cfef1","ios":"levelo://app?vid=d03f3636-16e3-4275-8b6e-75e5a75cfef1"},"vehicle_type_id":"4","last_reported":1761336653,"current_range_meters":15200,"station_id":"ce4bhg12rcd13ifvqf70","pricing_plan_id":"cebpf4jnsgd1na2vs0mg"},{"bike_id":"6c53345d-26f0-467f-bdf3-2b922c99cbb7","system_id":"levelo_inurba_marseille","lat":43.29538,"lon":5.38553,"is_reserved":false,"is_disabled":false,"rental_uris":{"android":"levelo://app?vid=6c53345d-26f0-467f-bdf3-2b922c99cbb7","ios":"levelo://app?vid=6c53345d-26f0-467f-bdf3-2b922c99cbb7"},"vehicle_type_id":"4","last_reported":1761336653,"current_range_meters":15200,"station_id":"ce4bgih2rcd13ifvqba0","pricing_plan_id":"cebpf4jnsgd1na2vs0mg"},{"bike_id":"44d07967-bf4d-4c2d-89c5-40d47bc63089","system_id":"levelo_inurba_marseille","lat":43.30786,"lon":5.37645,"is_reserved":false,"is_disabled":false,"rental_uris":{"android":"levelo://app?vid=44d07967-bf4d-4c2d-89c5-40d47bc63089","ios":"levelo://app?vid=44d07967-bf4d-4c2d-89c5-40d47bc63089"},"vehicle_type_id":"4","last_reported":1761336653,"current_range_meters":15200,"station_id":"ce4bgv92rcd13ifvqcq0","pricing_plan_id":"cebpf4jnsgd1na2vs0mg"},{"bike_id":"aadbd845-2a71-4eef-8f22-930b38cc907c","system_id":"levelo_inurba_marseille","lat":43.29239,"lon":5.38435,"is_reserved":false,"is_disabled":false,"rental_uris":{"android":"levelo://app?vid=aadbd845-2a71-4eef-8f22-930b38cc907c","ios":"levelo://app?vid=aadbd845-2a71-4eef-8f22-930b38cc907c"},"vehicle_type_id":"4","last_reported":1761336653,"current_range_meters":15200,"station_id":"ce4bh692rcd13ifvqea0","pricing_plan_id":"cebpf4jnsgd1na2vs0mg"},{"bike_id":"ce3f5657-4611-43f1-9f1f-839a5631b971","system_id":"levelo_inurba_marseille","lat":43.29535,"lon":5.38558,"is_reserved":false,"is_disabled":false,"rental_uris":{"android":"levelo://app?vid=ce3f5657-4611-43f1-9f1f-839a5631b971","ios":"levelo://app?vid=ce3f5657-4611-43f1-9f1f-839a5631b971"},"vehicle_type_id":"4","last_reported":1761336653,"current_range_meters":15200,"station_id":"ce4bgih2rcd13ifvqba0","pricing_plan_id":"cebpf4jnsgd1na2vs0mg"},{"bike_id":"1f80a556-1605-48e2-ab7b-62e4ef545bfb","system_id":"levelo_inurba_marseille","lat":43.29541,"lon":5.38544,"is_reserved":false,"is_disabled":false,"rental_uris":{"android":"levelo://app?vid=1f80a556-1605-48e2-ab7b-62e4ef545bfb","ios":"levelo://app?vid=1f80a556-1605-48e2-ab7b-62e4ef545bfb"},"vehicle_type_id":"4","last_reported":1761336653,"current_range_meters":15200,"station_id":"ce4bgih2rcd13ifvqba0","pricing_plan_id":"cebpf4jnsgd1na2vs0mg"},{"bike_id":"5c0e1fad-1092-45f4-930f-73335d46d836","system_id":"levelo_inurba_marseille","lat":43.29799,"lon":5.38092,"is_reserved":false,"is_disabled":true,"rental_uris":{"android":"levelo://app?vid=5c0e1fad-1092-45f4-930f-73335d46d836","ios":"levelo://app?vid=5c0e1fad-1092-45f4-930f-73335d46d836"},"vehicle_type_id":"4","last_reported":1761336653,"current_range_meters":16000,"station_id":"ce4bgip2rcd13ifvqbb0","pricing_plan_id":"cebpf4jnsgd1na2vs0mg"},{"bike_id":"8be6a47c-9542-4fed-8109-f6d91a0f2b3f","system_id":"levelo_inurba_marseille","lat":43.29174,"lon":5.37161,"is_reserved":false,"is_disabled":false,"rental_uris":{"android":"levelo://app?vid=8be6a47c-9542-4fed-8109-f6d91a0f2b3f","ios":"levelo://app?vid=8be6a47c-9542-4fed-8109-f6d91a0f2b3f"},"vehicle_type_id":"4","last_reported":1761336653,"current_range_meters":16000,"station_id":"ce4bha92rcd13ifvqeh0","pricing_plan_id":"cebpf4jnsgd1na2vs0mg"},{"bike_id":"4a2047d2-d10b-4687-aeb9-416f71689c62","system_id":"levelo_inurba_marseille","lat":43.2954,"lon":5.38542,"is_reserved":false,"is_disabled":false,"rental_uris":{"android":"levelo://app?vid=4a2047d2-d10b-4687-aeb9-416f71689c62","ios":"levelo://app?vid=4a2047d2-d10b-4687-aeb9-416f71689c62"},"vehicle_type_id":"4","last_reported":1761336653,"current_range_meters":16000,"station_id":"ce4bgih2rcd13ifvqba0","pricing_plan_id":"cebpf4jnsgd1na2vs0mg"},{"bike_id":"75eebb0f-2447-4bf8-b846-45b5b359059b","system_id":"levelo_inurba_marseille","lat":43.33769,"lon":5.37496,"is_reserved":false,"is_disabled":false,"rental_uris":{"android":"levelo://app?vid=75eebb0f-2447-4bf8-b846-45b5b359059b","ios":"levelo://app?vid=75eebb0f-2447-4bf8-b846-45b5b359059b"},"vehicle_type_id":"4","last_reported":1761336653,"current_range_meters":16000,"station_id":"","pricing_plan_id":"cebpf4jnsgd1na2vs0mg"},{"bike_id":"98a2710a-32e8-483a-9203-8353567f3ee0","system_id":"levelo_inurba_marseille","lat":43.29521,"lon":5.38529,"is_reserved":false,"is_disabled":false,"rental_uris":{"android":"levelo://app?vid=98a2710a-32e8-483a-9203-8353567f3ee0","ios":"levelo://app?vid=98a2710a-32e8-483a-9203-8353567f3ee0"},"vehicle_type_id":"4","last_reported":1761336653,"current_range_meters":16000,"station_id":"ce4bgih2rcd13ifvqba0","pricing_plan_id":"cebpf4jnsgd1na2vs0mg"},{"bike_id":"47a85555-7527-41fb-854d-83fcda82579d","system_id":"levelo_inurba_marseille","lat":43.30916,"lon":5.36845,"is_reserved":false,"is_disabled":false,"rental_uris":{"android":"levelo://app?vid=47a85555-7527-41fb-854d-83fcda82579d","ios":"levelo://app?vid=47a85555-7527-41fb-854d-83fcda82579d"},"vehicle_type_id":"4","last_reported":1761336653,"current_range_meters":16000,"station_id":"ce4bgn92rcd13ifvqbvg","pricing_plan_id":"cebpf4jnsgd1na2vs0mg"},{"bike_id":"ce4dbf6f-9a86-4f0c-a522-ea903fce8f51","system_id":"levelo_inurba_marseille","lat":43.29283,"lon":5.4016,"is_reserved":false,"is_disabled":false,"rental_uris":{"android":"levelo://app?vid=ce4dbf6f-9a86-4f0c-a522-ea903fce8f51","ios":"levelo://app?vid=ce4dbf6f-9a86-4f0c-a522-ea903fce8f51"},"vehicle_type_id":"4","last_reported":1761336653,"current_range_meters":16400,"station_id":"ce4bh312rcd13ifvqdk0","pricing_plan_id":"cebpf4jnsgd1na2vs0mg"},{"bike_id":"39945455-7607-42f3-a1e5-fb85cd37c391","system_id":"levelo_inurba_marseille","lat":43.286711,"lon":5.386704,"is_reserved":false,"is_disabled":false,"rental_uris":{"android":"levelo://app?vid=39945455-7607-42f3-a1e5-fb85cd37c391","ios":"levelo://app?vid=39945455-7607-42f3-a1e5-fb85cd37c391"},"vehicle_type_id":"4","last_reported":1761336653,"current_range_meters":16400,"station_id":"ce4bh492rcd13ifvqdug","pricing_plan_id":"cebpf4jnsgd1na2vs0mg"},{"bike_id":"6861ce85-77a9-4d2e-a905-a525940c7a22","system_id":"levelo_inurba_marseille","lat":43.24663,"lon":5.38151,"is_reserved":false,"is_disabled":false,"rental_uris":{"android":"levelo://app?vid=6861ce85-77a9-4d2e-a905-a525940c7a22","ios":"levelo://app?vid=6861ce85-77a9-4d2e-a905-a525940c7a22"},"vehicle_type_id":"4","last_reported":1761336653,"current_range_meters":16400,"station_id":"ce4bhih2rcd13ifvqfr0","pricing_plan_id":"cebpf4jnsgd1na2vs0mg"},{"bike_id":"72595d14-8f84-4de5-a9ab-f8151c131960","system_id":"levelo_inurba_marseille","lat":43.22904,"lon":5.35334,"is_reserved":false,"is_disabled":false,"rental_uris":{"android":"levelo://app?vid=72595d14-8f84-4de5-a9ab-f8151c131960","ios":"levelo://app?vid=72595d14-8f84-4de5-a9ab-f8151c131960"},"vehicle_type_id":"4","last_reported":1761336653,"current_range_meters":16400,"station_id":"cpo3532slgdg3j2ikp40","pricing_plan_id":"cebpf4jnsgd1na2vs0mg"},{"bike_id":"85831b0c-ac03-4a31-ad4b-6acd383c62ca","system_id":"levelo_inurba_marseille","lat":43.2772,"lon":5.38846,"is_reserved":false,"is_disabled":false,"rental_uris":{"android":"levelo://app?vid=85831b0c-ac03-4a31-ad4b-6acd383c62ca","ios":"levelo://app?vid=85831b0c-ac03-4a31-ad4b-6acd383c62ca"},"vehicle_type_id":"4","last_reported":1761336653,"current_range_meters":16400,"station_id":"","pricing_plan_id":"cebpf4jnsgd1na2vs0mg"},{"bike_id":"aa7263f2-bfeb-4e58-8c4c-6004ce12817b","system_id":"levelo_inurba_marseille","lat":43.24379,"lon":5.37051,"is_reserved":false,"is_disabled":false,"rental_uris":{"android":"levelo://app?vid=aa7263f2-bfeb-4e58-8c4c-6004ce12817b","ios":"levelo://app?vid=aa7263f2-bfeb-4e58-8c4c-6004ce12817b"},"vehicle_type_id":"4","last_reported":1761336653,"current_range_meters":16400,"station_id":"ce4bhhh2rcd13ifvqfk0","pricing_plan_id":"cebpf4jnsgd1na2vs0mg"},{"bike_id":"fef40594-8de0-44aa-a3c1-2116955da244","system_id":"levelo_inurba_marseille","lat":43.26187,"lon":5.41682,"is_reserved":false,"is_disabled":false,"rental_uris":{"android":"levelo://app?vid=fef40594-8de0-44aa-a3c1-2116955da244","ios":"levelo://app?vid=fef40594-8de0-44aa-a3c1-2116955da244"},"vehicle_type_id":"4","last_reported":1761336653,"current_range_meters":16400,"station_id":"","pricing_plan_id":"cebpf4jnsgd1na2vs0mg"},{"bike_id":"9d964ec4-c537-4f1d-b21c-451d3f46b1bf","system_id":"levelo_inurba_marseille","lat":43.29917,"lon":5.37836,"is_reserved":false,"is_disabled":false,"rental_uris":{"android":"levelo://app?vid=9d964ec4-c537-4f1d-b21c-451d3f46b1bf","ios":"levelo://app?vid=9d964ec4-c537-4f1d-b21c-451d3f46b1bf"},"vehicle_type_id":"4","last_reported":1761336653,"current_range_meters":16400,"station_id":"","pricing_plan_id":"cebpf4jnsgd1na2vs0mg"},{"bike_id":"ab5d0adc-94b1-4617-8b51-eb2f8c4091b8","system_id":"levelo_inurba_marseille","lat":43.3078,"lon":5.37649,"is_reserved":false,"is_disabled":false,"rental_uris":{"android":"levelo://app?vid=ab5d0adc-94b1-4617-8b51-eb2f8c4091b8","ios":"levelo://app?vid=ab5d0adc-94b1-4617-8b51-eb2f8c4091b8"},"vehicle_type_id":"4","last_reported":1761336653,"current_range_meters":16400,"station_id":"ce4bgv92rcd13ifvqcq0","pricing_plan_id":"cebpf4jnsgd1na2vs0mg"},{"bike_id":"f1c5b48c-0aa6-44f5-8b5a-49d33b7a6d05","system_id":"levelo_inurba_marseille","lat":43.25589,"lon":5.38237,"is_reserved":false,"is_disabled":false,"rental_uris":{"android":"levelo://app?vid=f1c5b48c-0aa6-44f5-8b5a-49d33b7a6d05","ios":"levelo://app?vid=f1c5b48c-0aa6-44f5-8b5a-49d33b7a6d05"},"vehicle_type_id":"4","last_reported":1761336653,"current_range_meters":16400,"station_id":"ce4bhih2rcd13ifvqfs0","pricing_plan_id":"cebpf4jnsgd1na2vs0mg"},{"bike_id":"0880e8cb-1ccb-49fb-a467-074da0bfe754","system_id":"levelo_inurba_marseille","lat":43.30777,"lon":5.37647,"is_reserved":false,"is_disabled":false,"rental_uris":{"android":"levelo://app?vid=0880e8cb-1ccb-49fb-a467-074da0bfe754","ios":"levelo://app?vid=0880e8cb-1ccb-49fb-a467-074da0bfe754"},"vehicle_type_id":"4","last_reported":1761336653,"current_range_meters":16400,"station_id":"ce4bgv92rcd13ifvqcq0","pricing_plan_id":"cebpf4jnsgd1na2vs0mg"},{"bike_id":"8bb9b9b2-ef61-4380-9454-94dba01fa5e4","system_id":"levelo_inurba_marseille","lat":43.30132,"lon":5.38791,"is_reserved":false,"is_disabled":true,"rental_uris":{"android":"levelo://app?vid=8bb9b9b2-ef61-4380-9454-94dba01fa5e4","ios":"levelo://app?vid=8bb9b9b2-ef61-4380-9454-94dba01fa5e4"},"vehicle_type_id":"4","last_reported":1761336653,"current_range_meters":16800,"station_id":"ce4bghh2rcd13ifvqb60","pricing_plan_id":"cebpf4jnsgd1na2vs0mg"},{"bike_id":"e6b15546-854e-45b0-af7e-dc587dec4dec","system_id":"levelo_inurba_marseille","lat":43.29265,"lon":5.38431,"is_reserved":false,"is_disabled":false,"rental_uris":{"android":"levelo://app?vid=e6b15546-854e-45b0-af7e-dc587dec4dec","ios":"levelo://app?vid=e6b15546-854e-45b0-af7e-dc587dec4dec"},"vehicle_type_id":"4","last_reported":1761336653,"current_range_meters":16800,"station_id":"ce4bh692rcd13ifvqea0","pricing_plan_id":"cebpf4jnsgd1na2vs0mg"},{"bike_id":"9a8863dc-9661-4b1b-a54c-df3ea878c924","system_id":"levelo_inurba_marseille","lat":43.29803,"lon":5.37897,"is_reserved":false,"is_disabled":false,"rental_uris":{"android":"levelo://app?vid=9a8863dc-9661-4b1b-a54c-df3ea878c924","ios":"levelo://app?vid=9a8863dc-9661-4b1b-a54c-df3ea878c924"},"vehicle_type_id":"4","last_reported":1761336653,"current_range_meters":16800,"station_id":"","pricing_plan_id":"cebpf4jnsgd1na2vs0mg"},{"bike_id":"321eb2f7-65bf-4314-a19c-f403da9eacce","system_id":"levelo_inurba_marseille","lat":43.29924,"lon":5.3651,"is_reserved":false,"is_disabled":false,"rental_uris":{"android":"levelo://app?vid=321eb2f7-65bf-4314-a19c-f403da9eacce","ios":"levelo://app?vid=321eb2f7-65bf-4314-a19c-f403da9eacce"},"vehicle_type_id":"4","last_reported":1761336653,"current_range_meters":16800,"station_id":"ce4bgm92rcd13ifvqbr0","pricing_plan_id":"cebpf4jnsgd1na2vs0mg"},{"bike_id":"f9c2e31f-ab00-4168-805d-8fde30062da0","system_id":"levelo_inurba_marseille","lat":43.29604,"lon":5.38097,"is_reserved":false,"is_disabled":false,"rental_uris":{"android":"levelo://app?vid=f9c2e31f-ab00-4168-805d-8fde30062da0","ios":"levelo://app?vid=f9c2e31f-ab00-4168-805d-8fde30062da0"},"vehicle_type_id":"4","last_reported":1761336653,"current_range_meters":16800,"station_id":"ce4bgl12rcd13ifvqbo0","pricing_plan_id":"cebpf4jnsgd1na2vs0mg"},{"bike_id":"fc89f734-81cc-4172-87b4-aeeb6b9ffa3a","system_id":"levelo_inurba_marseille","lat":43.29612,"lon":5.38095,"is_reserved":false,"is_disabled":false,"rental_uris":{"android":"levelo://app?vid=fc89f734-81cc-4172-87b4-aeeb6b9ffa3a","ios":"levelo://app?vid=fc89f734-81cc-4172-87b4-aeeb6b9ffa3a"},"vehicle_type_id":"4","last_reported":1761336653,"current_range_meters":16800,"station_id":"ce4bgl12rcd13ifvqbo0","pricing_plan_id":"cebpf4jnsgd1na2vs0mg"},{"bike_id":"cbb53ea8-ecc6-4601-9225-bfb82ba8b303","system_id":"levelo_inurba_marseille","lat":43.29565,"lon":5.38521,"is_reserved":false,"is_disabled":false,"rental_uris":{"android":"levelo://app?vid=cbb53ea8-ecc6-4601-9225-bfb82ba8b303","ios":"levelo://app?vid=cbb53ea8-ecc6-4601-9225-bfb82ba8b303"},"vehicle_type_id":"4","last_reported":1761336653,"current_range_meters":17200,"station_id":"","pricing_plan_id":"cebpf4jnsgd1na2vs0mg"},{"bike_id":"24cfc436-45dc-46a2-985d-807a2fe4f4af","system_id":"levelo_inurba_marseille","lat":43.29602,"lon":5.38101,"is_reserved":false,"is_disabled":false,"rental_uris":{"android":"levelo://app?vid=24cfc436-45dc-46a2-985d-807a2fe4f4af","ios":"levelo://app?vid=24cfc436-45dc-46a2-985d-807a2fe4f4af"},"vehicle_type_id":"4","last_reported":1761336653,"current_range_meters":17200,"station_id":"ce4bgl12rcd13ifvqbo0","pricing_plan_id":"cebpf4jnsgd1na2vs0mg"},{"bike_id":"b6559af0-e31e-415b-92a3-0988f7fc43ef","system_id":"levelo_inurba_marseille","lat":43.284141,"lon":5.375172,"is_reserved":false,"is_disabled":true,"rental_uris":{"android":"levelo://app?vid=b6559af0-e31e-415b-92a3-0988f7fc43ef","ios":"levelo://app?vid=b6559af0-e31e-415b-92a3-0988f7fc43ef"},"vehicle_type_id":"4","last_reported":1761336653,"current_range_meters":17200,"station_id":"","pricing_plan_id":"cebpf4jnsgd1na2vs0mg"},{"bike_id":"cd510e37-9078-40a8-91e5-9a2c8d62ac8a","system_id":"levelo_inurba_marseille","lat":43.29024,"lon":5.38623,"is_reserved":false,"is_disabled":true,"rental_uris":{"android":"levelo://app?vid=cd510e37-9078-40a8-91e5-9a2c8d62ac8a","ios":"levelo://app?vid=cd510e37-9078-40a8-91e5-9a2c8d62ac8a"},"vehicle_type_id":"4","last_reported":1761336653,"current_range_meters":17200,"station_id":"ce4bh4p2rcd13ifvqe0g","pricing_plan_id":"cebpf4jnsgd1na2vs0mg"},{"bike_id":"d4f34596-cd96-4004-af96-068144e0795b","system_id":"levelo_inurba_marseille","lat":43.30689,"lon":5.42219,"is_reserved":false,"is_disabled":false,"rental_uris":{"android":"levelo://app?vid=d4f34596-cd96-4004-af96-068144e0795b","ios":"levelo://app?vid=d4f34596-cd96-4004-af96-068144e0795b"},"vehicle_type_id":"4","last_reported":1761336653,"current_range_meters":17200,"station_id":"","pricing_plan_id":"cebpf4jnsgd1na2vs0mg"},{"bike_id":"86ccf30d-b0d9-4b12-9a3f-af50a6dfc731","system_id":"levelo_inurba_marseille","lat":43.31558,"lon":5.38786,"is_reserved":false,"is_disabled":false,"rental_uris":{"android":"levelo://app?vid=86ccf30d-b0d9-4b12-9a3f-af50a6dfc731","ios":"levelo://app?vid=86ccf30d-b0d9-4b12-9a3f-af50a6dfc731"},"vehicle_type_id":"4","last_reported":1761336653,"current_range_meters":17200,"station_id":"","pricing_plan_id":"cebpf4jnsgd1na2vs0mg"},{"bike_id":"4cd0979c-c5b2-4383-8c2e-510a4e7fcc39","system_id":"levelo_inurba_marseille","lat":43.299048,"lon":5.37627,"is_reserved":false,"is_disabled":false,"rental_uris":{"android":"levelo://app?vid=4cd0979c-c5b2-4383-8c2e-510a4e7fcc39","ios":"levelo://app?vid=4cd0979c-c5b2-4383-8c2e-510a4e7fcc39"},"vehicle_type_id":"4","last_reported":1761336653,"current_range_meters":17200,"station_id":"ce4bgjh2rcd13ifvqbg0","pricing_plan_id":"cebpf4jnsgd1na2vs0mg"},{"bike_id":"51d9e225-6bf4-4cb5-9328-b8a3b72bdac2","system_id":"levelo_inurba_marseille","lat":43.33033,"lon":5.39041,"is_reserved":false,"is_disabled":false,"rental_uris":{"android":"levelo://app?vid=51d9e225-6bf4-4cb5-9328-b8a3b72bdac2","ios":"levelo://app?vid=51d9e225-6bf4-4cb5-9328-b8a3b72bdac2"},"vehicle_type_id":"4","last_reported":1761336653,"current_range_meters":17200,"station_id":"ce4bhr92rcd13ifvqhrg","pricing_plan_id":"cebpf4jnsgd1na2vs0mg"},{"bike_id":"30d30fef-2a6e-44cf-a214-11588b5cacd1","system_id":"levelo_inurba_marseille","lat":43.24652,"lon":5.38889,"is_reserved":false,"is_disabled":false,"rental_uris":{"android":"levelo://app?vid=30d30fef-2a6e-44cf-a214-11588b5cacd1","ios":"levelo://app?vid=30d30fef-2a6e-44cf-a214-11588b5cacd1"},"vehicle_type_id":"4","last_reported":1761336653,"current_range_meters":17200,"station_id":"ce4bhg12rcd13ifvqf60","pricing_plan_id":"cebpf4jnsgd1na2vs0mg"},{"bike_id":"43117888-69d1-4bc6-a73a-697554e4a08e","system_id":"levelo_inurba_marseille","lat":43.25239,"lon":5.37752,"is_reserved":false,"is_disabled":false,"rental_uris":{"android":"levelo://app?vid=43117888-69d1-4bc6-a73a-697554e4a08e","ios":"levelo://app?vid=43117888-69d1-4bc6-a73a-697554e4a08e"},"vehicle_type_id":"4","last_reported":1761336653,"current_range_meters":17600,"station_id":"","pricing_plan_id":"cebpf4jnsgd1na2vs0mg"},{"bike_id":"bfaea6f8-ccc6-44a7-83a6-9d7d9a7e60cc","system_id":"levelo_inurba_marseille","lat":43.26375,"lon":5.39775,"is_reserved":false,"is_disabled":false,"rental_uris":{"android":"levelo://app?vid=bfaea6f8-ccc6-44a7-83a6-9d7d9a7e60cc","ios":"levelo://app?vid=bfaea6f8-ccc6-44a7-83a6-9d7d9a7e60cc"},"vehicle_type_id":"4","last_reported":1761336653,"current_range_meters":17600,"station_id":"","pricing_plan_id":"cebpf4jnsgd1na2vs0mg"},{"bike_id":"5e51b837-4cd9-49b3-b363-642e818f61a9","system_id":"levelo_inurba_marseille","lat":43.29963,"lon":5.38499,"is_reserved":false,"is_disabled":true,"rental_uris":{"android":"levelo://app?vid=5e51b837-4cd9-49b3-b363-642e818f61a9","ios":"levelo://app?vid=5e51b837-4cd9-49b3-b363-642e818f61a9"},"vehicle_type_id":"4","last_reported":1761336653,"current_range_meters":17600,"station_id":"ce4bgj92rcd13ifvqbd0","pricing_plan_id":"cebpf4jnsgd1na2vs0mg"},{"bike_id":"386a9c87-6707-4c56-9410-3952ef242f20","system_id":"levelo_inurba_marseille","lat":43.24075,"lon":5.37774,"is_reserved":false,"is_disabled":false,"rental_uris":{"android":"levelo://app?vid=386a9c87-6707-4c56-9410-3952ef242f20","ios":"levelo://app?vid=386a9c87-6707-4c56-9410-3952ef242f20"},"vehicle_type_id":"4","last_reported":1761336653,"current_range_meters":17600,"station_id":"ce4bhnp2rcd13ifvqgvg","pricing_plan_id":"cebpf4jnsgd1na2vs0mg"},{"bike_id":"4b9ea996-45d6-4c99-b9ff-af19c6118599","system_id":"levelo_inurba_marseille","lat":43.30568,"lon":5.36546,"is_reserved":false,"is_disabled":true,"rental_uris":{"android":"levelo://app?vid=4b9ea996-45d6-4c99-b9ff-af19c6118599","ios":"levelo://app?vid=4b9ea996-45d6-4c99-b9ff-af19c6118599"},"vehicle_type_id":"4","last_reported":1761336653,"current_range_meters":17600,"station_id":"ce4bgs12rcd13ifvqcag","pricing_plan_id":"cebpf4jnsgd1na2vs0mg"},{"bike_id":"67692805-3ef5-44e9-8294-bf5b73d5fff3","system_id":"levelo_inurba_marseille","lat":43.29259,"lon":5.38439,"is_reserved":false,"is_disabled":false,"rental_uris":{"android":"levelo://app?vid=67692805-3ef5-44e9-8294-bf5b73d5fff3","ios":"levelo://app?vid=67692805-3ef5-44e9-8294-bf5b73d5fff3"},"vehicle_type_id":"4","last_reported":1761336653,"current_range_meters":17600,"station_id":"ce4bh692rcd13ifvqea0","pricing_plan_id":"cebpf4jnsgd1na2vs0mg"},{"bike_id":"8e92164c-deff-4fbd-9f4e-43ff81933572","system_id":"levelo_inurba_marseille","lat":43.29833,"lon":5.42005,"is_reserved":false,"is_disabled":false,"rental_uris":{"android":"levelo://app?vid=8e92164c-deff-4fbd-9f4e-43ff81933572","ios":"levelo://app?vid=8e92164c-deff-4fbd-9f4e-43ff81933572"},"vehicle_type_id":"4","last_reported":1761336653,"current_range_meters":17600,"station_id":"","pricing_plan_id":"cebpf4jnsgd1na2vs0mg"},{"bike_id":"939d2a7d-787e-4d9f-9435-6c2fa9dc0c8e","system_id":"levelo_inurba_marseille","lat":43.29512,"lon":5.39031,"is_reserved":false,"is_disabled":true,"rental_uris":{"android":"levelo://app?vid=939d2a7d-787e-4d9f-9435-6c2fa9dc0c8e","ios":"levelo://app?vid=939d2a7d-787e-4d9f-9435-6c2fa9dc0c8e"},"vehicle_type_id":"4","last_reported":1761336653,"current_range_meters":18000,"station_id":"ce4bh3p2rcd13ifvqdp0","pricing_plan_id":"cebpf4jnsgd1na2vs0mg"},{"bike_id":"c6bf17a2-1cba-4131-b0bf-7246c45f1814","system_id":"levelo_inurba_marseille","lat":43.2953,"lon":5.38544,"is_reserved":false,"is_disabled":false,"rental_uris":{"android":"levelo://app?vid=c6bf17a2-1cba-4131-b0bf-7246c45f1814","ios":"levelo://app?vid=c6bf17a2-1cba-4131-b0bf-7246c45f1814"},"vehicle_type_id":"4","last_reported":1761336653,"current_range_meters":18000,"station_id":"ce4bgih2rcd13ifvqba0","pricing_plan_id":"cebpf4jnsgd1na2vs0mg"},{"bike_id":"c91491a6-50b3-4a5f-8e6b-63afb7874f1f","system_id":"levelo_inurba_marseille","lat":43.28047,"lon":5.36938,"is_reserved":false,"is_disabled":false,"rental_uris":{"android":"levelo://app?vid=c91491a6-50b3-4a5f-8e6b-63afb7874f1f","ios":"levelo://app?vid=c91491a6-50b3-4a5f-8e6b-63afb7874f1f"},"vehicle_type_id":"4","last_reported":1761336653,"current_range_meters":18000,"station_id":"ce4bha12rcd13ifvqef0","pricing_plan_id":"cebpf4jnsgd1na2vs0mg"},{"bike_id":"657454be-e67b-48c7-a17b-78c06eb8fc40","system_id":"levelo_inurba_marseille","lat":43.29251,"lon":5.3844,"is_reserved":false,"is_disabled":false,"rental_uris":{"android":"levelo://app?vid=657454be-e67b-48c7-a17b-78c06eb8fc40","ios":"levelo://app?vid=657454be-e67b-48c7-a17b-78c06eb8fc40"},"vehicle_type_id":"4","last_reported":1761336653,"current_range_meters":18000,"station_id":"ce4bh692rcd13ifvqea0","pricing_plan_id":"cebpf4jnsgd1na2vs0mg"},{"bike_id":"699d97a3-4568-4fad-8b3e-50df6f3f23c9","system_id":"levelo_inurba_marseille","lat":43.288734,"lon":5.399574,"is_reserved":false,"is_disabled":false,"rental_uris":{"android":"levelo://app?vid=699d97a3-4568-4fad-8b3e-50df6f3f23c9","ios":"levelo://app?vid=699d97a3-4568-4fad-8b3e-50df6f3f23c9"},"vehicle_type_id":"4","last_reported":1761336653,"current_range_meters":18000,"station_id":"ce4bho92rcd13ifvqh3g","pricing_plan_id":"cebpf4jnsgd1na2vs0mg"},{"bike_id":"3cfa595b-cff3-48e4-9ef0-78ef1b9568f9","system_id":"levelo_inurba_marseille","lat":43.29028,"lon":5.38135,"is_reserved":false,"is_disabled":true,"rental_uris":{"android":"levelo://app?vid=3cfa595b-cff3-48e4-9ef0-78ef1b9568f9","ios":"levelo://app?vid=3cfa595b-cff3-48e4-9ef0-78ef1b9568f9"},"vehicle_type_id":"4","last_reported":1761336653,"current_range_meters":18000,"station_id":"ce4bh4p2rcd13ifvqe1g","pricing_plan_id":"cebpf4jnsgd1na2vs0mg"},{"bike_id":"9489737c-7c2c-4f83-bc76-e520af4d2990","system_id":"levelo_inurba_marseille","lat":43.32375,"lon":5.38861,"is_reserved":false,"is_disabled":false,"rental_uris":{"android":"levelo://app?vid=9489737c-7c2c-4f83-bc76-e520af4d2990","ios":"levelo://app?vid=9489737c-7c2c-4f83-bc76-e520af4d2990"},"vehicle_type_id":"4","last_reported":1761336653,"current_range_meters":18000,"station_id":"ce4bhqp2rcd13ifvqhog","pricing_plan_id":"cebpf4jnsgd1na2vs0mg"},{"bike_id":"8989dd73-ccfa-4a41-b947-81cdc33b1a19","system_id":"levelo_inurba_marseille","lat":43.29281,"lon":5.4012,"is_reserved":false,"is_disabled":false,"rental_uris":{"android":"levelo://app?vid=8989dd73-ccfa-4a41-b947-81cdc33b1a19","ios":"levelo://app?vid=8989dd73-ccfa-4a41-b947-81cdc33b1a19"},"vehicle_type_id":"4","last_reported":1761336653,"current_range_meters":18000,"station_id":"ce4bh312rcd13ifvqdk0","pricing_plan_id":"cebpf4jnsgd1na2vs0mg"},{"bike_id":"8c35a7e4-8378-4fdf-b42f-02e88b6199ca","system_id":"levelo_inurba_marseille","lat":43.32113,"lon":5.36748,"is_reserved":false,"is_disabled":false,"rental_uris":{"android":"levelo://app?vid=8c35a7e4-8378-4fdf-b42f-02e88b6199ca","ios":"levelo://app?vid=8c35a7e4-8378-4fdf-b42f-02e88b6199ca"},"vehicle_type_id":"4","last_reported":1761336653,"current_range_meters":18000,"station_id":"ce4bhrh2rcd13ifvqhug","pricing_plan_id":"cebpf4jnsgd1na2vs0mg"},{"bike_id":"253fe837-d85b-478c-8780-c0052a67b9be","system_id":"levelo_inurba_marseille","lat":43.28412,"lon":5.34978,"is_reserved":false,"is_disabled":false,"rental_uris":{"android":"levelo://app?vid=253fe837-d85b-478c-8780-c0052a67b9be","ios":"levelo://app?vid=253fe837-d85b-478c-8780-c0052a67b9be"},"vehicle_type_id":"4","last_reported":1761336653,"current_range_meters":18000,"station_id":"ce4bhbh2rcd13ifvqepg","pricing_plan_id":"cebpf4jnsgd1na2vs0mg"},{"bike_id":"bcfaacdb-2f1d-40da-bc33-8750a91b397f","system_id":"levelo_inurba_marseille","lat":43.29871,"lon":5.38898,"is_reserved":false,"is_disabled":false,"rental_uris":{"android":"levelo://app?vid=bcfaacdb-2f1d-40da-bc33-8750a91b397f","ios":"levelo://app?vid=bcfaacdb-2f1d-40da-bc33-8750a91b397f"},"vehicle_type_id":"4","last_reported":1761336653,"current_range_meters":18000,"station_id":"ce4bh392rcd13ifvqdl0","pricing_plan_id":"cebpf4jnsgd1na2vs0mg"},{"bike_id":"27eb85a3-43a1-4018-8f2e-26f3576f8576","system_id":"levelo_inurba_marseille","lat":43.29528,"lon":5.38531,"is_reserved":false,"is_disabled":false,"rental_uris":{"android":"levelo://app?vid=27eb85a3-43a1-4018-8f2e-26f3576f8576","ios":"levelo://app?vid=27eb85a3-43a1-4018-8f2e-26f3576f8576"},"vehicle_type_id":"4","last_reported":1761336653,"current_range_meters":18800,"station_id":"ce4bgih2rcd13ifvqba0","pricing_plan_id":"cebpf4jnsgd1na2vs0mg"},{"bike_id":"e26f2cda-126a-4962-ac35-03c35c292a15","system_id":"levelo_inurba_marseille","lat":43.25725,"lon":5.41108,"is_reserved":false,"is_disabled":false,"rental_uris":{"android":"levelo://app?vid=e26f2cda-126a-4962-ac35-03c35c292a15","ios":"levelo://app?vid=e26f2cda-126a-4962-ac35-03c35c292a15"},"vehicle_type_id":"4","last_reported":1761336653,"current_range_meters":18800,"station_id":"ce4bhkp2rcd13ifvqgd0","pricing_plan_id":"cebpf4jnsgd1na2vs0mg"},{"bike_id":"68baa3d6-ffba-469a-881f-91767715a2a8","system_id":"levelo_inurba_marseille","lat":43.29267,"lon":5.38442,"is_reserved":false,"is_disabled":false,"rental_uris":{"android":"levelo://app?vid=68baa3d6-ffba-469a-881f-91767715a2a8","ios":"levelo://app?vid=68baa3d6-ffba-469a-881f-91767715a2a8"},"vehicle_type_id":"4","last_reported":1761336653,"current_range_meters":18800,"station_id":"ce4bh692rcd13ifvqea0","pricing_plan_id":"cebpf4jnsgd1na2vs0mg"},{"bike_id":"b2185bb6-dc61-4cbd-8aba-6f9bef7391c2","system_id":"levelo_inurba_marseille","lat":43.28449,"lon":5.39169,"is_reserved":false,"is_disabled":false,"rental_uris":{"android":"levelo://app?vid=b2185bb6-dc61-4cbd-8aba-6f9bef7391c2","ios":"levelo://app?vid=b2185bb6-dc61-4cbd-8aba-6f9bef7391c2"},"vehicle_type_id":"4","last_reported":1761336653,"current_range_meters":18800,"station_id":"ce4bhoh2rcd13ifvqh5g","pricing_plan_id":"cebpf4jnsgd1na2vs0mg"},{"bike_id":"562562f5-466a-4553-a712-f6b3b7cb9c7a","system_id":"levelo_inurba_marseille","lat":43.29296,"lon":5.37157,"is_reserved":false,"is_disabled":false,"rental_uris":{"android":"levelo://app?vid=562562f5-466a-4553-a712-f6b3b7cb9c7a","ios":"levelo://app?vid=562562f5-466a-4553-a712-f6b3b7cb9c7a"},"vehicle_type_id":"4","last_reported":1761336653,"current_range_meters":18800,"station_id":"ce4bgh92rcd13ifvqb40","pricing_plan_id":"cebpf4jnsgd1na2vs0mg"},{"bike_id":"770b9891-d91e-466d-96d6-8ee93310baa6","system_id":"levelo_inurba_marseille","lat":43.28744,"lon":5.36073,"is_reserved":false,"is_disabled":false,"rental_uris":{"android":"levelo://app?vid=770b9891-d91e-466d-96d6-8ee93310baa6","ios":"levelo://app?vid=770b9891-d91e-466d-96d6-8ee93310baa6"},"vehicle_type_id":"4","last_reported":1761336653,"current_range_meters":18800,"station_id":"cki0cbj6b192h4jlfktg","pricing_plan_id":"cebpf4jnsgd1na2vs0mg"},{"bike_id":"bc805b80-3097-410f-b503-9e60f016e0de","system_id":"levelo_inurba_marseille","lat":43.27221,"lon":5.392,"is_reserved":false,"is_disabled":true,"rental_uris":{"android":"levelo://app?vid=bc805b80-3097-410f-b503-9e60f016e0de","ios":"levelo://app?vid=bc805b80-3097-410f-b503-9e60f016e0de"},"vehicle_type_id":"4","last_reported":1761336653,"current_range_meters":18800,"station_id":"ce4bhhp2rcd13ifvqfm0","pricing_plan_id":"cebpf4jnsgd1na2vs0mg"},{"bike_id":"6400292e-f981-47a8-8608-5f7c16575dac","system_id":"levelo_inurba_marseille","lat":43.29531,"lon":5.38545,"is_reserved":false,"is_disabled":false,"rental_uris":{"android":"levelo://app?vid=6400292e-f981-47a8-8608-5f7c16575dac","ios":"levelo://app?vid=6400292e-f981-47a8-8608-5f7c16575dac"},"vehicle_type_id":"4","last_reported":1761336653,"current_range_meters":18800,"station_id":"ce4bgih2rcd13ifvqba0","pricing_plan_id":"cebpf4jnsgd1na2vs0mg"},{"bike_id":"f37cdf44-8c92-4de6-b1c5-47c1c1719b37","system_id":"levelo_inurba_marseille","lat":43.29268,"lon":5.38441,"is_reserved":false,"is_disabled":false,"rental_uris":{"android":"levelo://app?vid=f37cdf44-8c92-4de6-b1c5-47c1c1719b37","ios":"levelo://app?vid=f37cdf44-8c92-4de6-b1c5-47c1c1719b37"},"vehicle_type_id":"4","last_reported":1761336653,"current_range_meters":18800,"station_id":"ce4bh692rcd13ifvqea0","pricing_plan_id":"cebpf4jnsgd1na2vs0mg"},{"bike_id":"fbc51a66-9f5b-4793-bf47-376ff7c8c289","system_id":"levelo_inurba_marseille","lat":43.21196,"lon":5.35132,"is_reserved":false,"is_disabled":false,"rental_uris":{"android":"levelo://app?vid=fbc51a66-9f5b-4793-bf47-376ff7c8c289","ios":"levelo://app?vid=fbc51a66-9f5b-4793-bf47-376ff7c8c289"},"vehicle_type_id":"4","last_reported":1761336653,"current_range_meters":18800,"station_id":"st_cvj6sg6p6f1abm77japg","pricing_plan_id":"cebpf4jnsgd1na2vs0mg"},{"bike_id":"458107a7-53d2-4726-8b93-21f76aa76884","system_id":"levelo_inurba_marseille","lat":43.27806,"lon":5.3957,"is_reserved":false,"is_disabled":false,"rental_uris":{"android":"levelo://app?vid=458107a7-53d2-4726-8b93-21f76aa76884","ios":"levelo://app?vid=458107a7-53d2-4726-8b93-21f76aa76884"},"vehicle_type_id":"4","last_reported":1761336653,"current_range_meters":18800,"station_id":"","pricing_plan_id":"cebpf4jnsgd1na2vs0mg"},{"bike_id":"dab36927-4328-48fa-bffb-145a737de07e","system_id":"levelo_inurba_marseille","lat":43.30793,"lon":5.43529,"is_reserved":false,"is_disabled":true,"rental_uris":{"android":"levelo://app?vid=dab36927-4328-48fa-bffb-145a737de07e","ios":"levelo://app?vid=dab36927-4328-48fa-bffb-145a737de07e"},"vehicle_type_id":"4","last_reported":1761336653,"current_range_meters":19200,"station_id":"ce4bhph2rcd13ifvqheg","pricing_plan_id":"cebpf4jnsgd1na2vs0mg"},{"bike_id":"36ef565d-595c-4fe5-832e-9069968fcd08","system_id":"levelo_inurba_marseille","lat":43.32529,"lon":5.41423,"is_reserved":false,"is_disabled":true,"rental_uris":{"android":"levelo://app?vid=36ef565d-595c-4fe5-832e-9069968fcd08","ios":"levelo://app?vid=36ef565d-595c-4fe5-832e-9069968fcd08"},"vehicle_type_id":"4","last_reported":1761336653,"current_range_meters":19200,"station_id":"ce4bhq12rcd13ifvqhhg","pricing_plan_id":"cebpf4jnsgd1na2vs0mg"},{"bike_id":"e2dd7fca-b333-42e6-82a9-4c1360e6ef7d","system_id":"levelo_inurba_marseille","lat":43.2808,"lon":5.39632,"is_reserved":false,"is_disabled":false,"rental_uris":{"android":"levelo://app?vid=e2dd7fca-b333-42e6-82a9-4c1360e6ef7d","ios":"levelo://app?vid=e2dd7fca-b333-42e6-82a9-4c1360e6ef7d"},"vehicle_type_id":"4","last_reported":1761336653,"current_range_meters":19200,"station_id":"ce4bho12rcd13ifvqh2g","pricing_plan_id":"cebpf4jnsgd1na2vs0mg"},{"bike_id":"71787e4e-d3cf-499c-936d-7a403f4f2fac","system_id":"levelo_inurba_marseille","lat":43.28378,"lon":5.37488,"is_reserved":false,"is_disabled":false,"rental_uris":{"android":"levelo://app?vid=71787e4e-d3cf-499c-936d-7a403f4f2fac","ios":"levelo://app?vid=71787e4e-d3cf-499c-936d-7a403f4f2fac"},"vehicle_type_id":"4","last_reported":1761336653,"current_range_meters":19200,"station_id":"ce4bh412rcd13ifvqds0","pricing_plan_id":"cebpf4jnsgd1na2vs0mg"},{"bike_id":"2d5419ca-8955-4cc2-bf16-13223323293b","system_id":"levelo_inurba_marseille","lat":43.26219,"lon":5.37446,"is_reserved":false,"is_disabled":true,"rental_uris":{"android":"levelo://app?vid=2d5419ca-8955-4cc2-bf16-13223323293b","ios":"levelo://app?vid=2d5419ca-8955-4cc2-bf16-13223323293b"},"vehicle_type_id":"4","last_reported":1761336653,"current_range_meters":19200,"station_id":"ce4bhgp2rcd13ifvqfc0","pricing_plan_id":"cebpf4jnsgd1na2vs0mg"},{"bike_id":"df5ec3d4-628b-4528-b4f2-644052f2e389","system_id":"levelo_inurba_marseille","lat":43.27993,"lon":5.41667,"is_reserved":false,"is_disabled":false,"rental_uris":{"android":"levelo://app?vid=df5ec3d4-628b-4528-b4f2-644052f2e389","ios":"levelo://app?vid=df5ec3d4-628b-4528-b4f2-644052f2e389"},"vehicle_type_id":"4","last_reported":1761336653,"current_range_meters":19200,"station_id":"ce4bho12rcd13ifvqh1g","pricing_plan_id":"cebpf4jnsgd1na2vs0mg"},{"bike_id":"4d17307e-ffa9-4139-8e7e-63d6bc2fcfd6","system_id":"levelo_inurba_marseille","lat":43.29971,"lon":5.3849,"is_reserved":false,"is_disabled":false,"rental_uris":{"android":"levelo://app?vid=4d17307e-ffa9-4139-8e7e-63d6bc2fcfd6","ios":"levelo://app?vid=4d17307e-ffa9-4139-8e7e-63d6bc2fcfd6"},"vehicle_type_id":"4","last_reported":1761336653,"current_range_meters":19200,"station_id":"ce4bgj92rcd13ifvqbd0","pricing_plan_id":"cebpf4jnsgd1na2vs0mg"},{"bike_id":"17aaae71-2293-4638-bf4b-4847e1bbd10a","system_id":"levelo_inurba_marseille","lat":43.29521,"lon":5.38541,"is_reserved":false,"is_disabled":false,"rental_uris":{"android":"levelo://app?vid=17aaae71-2293-4638-bf4b-4847e1bbd10a","ios":"levelo://app?vid=17aaae71-2293-4638-bf4b-4847e1bbd10a"},"vehicle_type_id":"4","last_reported":1761336653,"current_range_meters":19200,"station_id":"ce4bgih2rcd13ifvqba0","pricing_plan_id":"cebpf4jnsgd1na2vs0mg"},{"bike_id":"8c4ade53-28b6-421a-8b0a-4b851571fed4","system_id":"levelo_inurba_marseille","lat":43.25338,"lon":5.42171,"is_reserved":false,"is_disabled":false,"rental_uris":{"android":"levelo://app?vid=8c4ade53-28b6-421a-8b0a-4b851571fed4","ios":"levelo://app?vid=8c4ade53-28b6-421a-8b0a-4b851571fed4"},"vehicle_type_id":"4","last_reported":1761336653,"current_range_meters":19200,"station_id":"st_d2m65c5bi1j21697t3ng","pricing_plan_id":"cebpf4jnsgd1na2vs0mg"},{"bike_id":"98c9a1d4-3302-45dd-8d7b-b8b0ba0bf540","system_id":"levelo_inurba_marseille","lat":43.30592,"lon":5.39356,"is_reserved":false,"is_disabled":false,"rental_uris":{"android":"levelo://app?vid=98c9a1d4-3302-45dd-8d7b-b8b0ba0bf540","ios":"levelo://app?vid=98c9a1d4-3302-45dd-8d7b-b8b0ba0bf540"},"vehicle_type_id":"4","last_reported":1761336653,"current_range_meters":19200,"station_id":"ce4bh0p2rcd13ifvqd80","pricing_plan_id":"cebpf4jnsgd1na2vs0mg"},{"bike_id":"4593cb47-3639-430c-93cf-7769f096daab","system_id":"levelo_inurba_marseille","lat":43.306418,"lon":5.40099,"is_reserved":false,"is_disabled":false,"rental_uris":{"android":"levelo://app?vid=4593cb47-3639-430c-93cf-7769f096daab","ios":"levelo://app?vid=4593cb47-3639-430c-93cf-7769f096daab"},"vehicle_type_id":"4","last_reported":1761336653,"current_range_meters":19200,"station_id":"ce4bgj92rcd13ifvqbd0","pricing_plan_id":"cebpf4jnsgd1na2vs0mg"},{"bike_id":"1eed06ed-d862-424b-b8ca-0bd49091cb0f","system_id":"levelo_inurba_marseille","lat":43.29518,"lon":5.38539,"is_reserved":false,"is_disabled":false,"rental_uris":{"android":"levelo://app?vid=1eed06ed-d862-424b-b8ca-0bd49091cb0f","ios":"levelo://app?vid=1eed06ed-d862-424b-b8ca-0bd49091cb0f"},"vehicle_type_id":"4","last_reported":1761336653,"current_range_meters":19200,"station_id":"ce4bgih2rcd13ifvqba0","pricing_plan_id":"cebpf4jnsgd1na2vs0mg"},{"bike_id":"62a7f333-0ec4-47cd-a1c4-b6b795e0aa93","system_id":"levelo_inurba_marseille","lat":43.30605,"lon":5.39365,"is_reserved":false,"is_disabled":false,"rental_uris":{"android":"levelo://app?vid=62a7f333-0ec4-47cd-a1c4-b6b795e0aa93","ios":"levelo://app?vid=62a7f333-0ec4-47cd-a1c4-b6b795e0aa93"},"vehicle_type_id":"4","last_reported":1761336653,"current_range_meters":19200,"station_id":"ce4bh0p2rcd13ifvqd80","pricing_plan_id":"cebpf4jnsgd1na2vs0mg"},{"bike_id":"12259ce3-7ad1-4e55-a69f-3f733da7e9bc","system_id":"levelo_inurba_marseille","lat":43.28733,"lon":5.36082,"is_reserved":false,"is_disabled":false,"rental_uris":{"android":"levelo://app?vid=12259ce3-7ad1-4e55-a69f-3f733da7e9bc","ios":"levelo://app?vid=12259ce3-7ad1-4e55-a69f-3f733da7e9bc"},"vehicle_type_id":"4","last_reported":1761336653,"current_range_meters":19600,"station_id":"cki0cbj6b192h4jlfktg","pricing_plan_id":"cebpf4jnsgd1na2vs0mg"},{"bike_id":"edd2c541-eaf2-4a50-a0de-142f364b01dc","system_id":"levelo_inurba_marseille","lat":43.31258,"lon":5.37736,"is_reserved":false,"is_disabled":false,"rental_uris":{"android":"levelo://app?vid=edd2c541-eaf2-4a50-a0de-142f364b01dc","ios":"levelo://app?vid=edd2c541-eaf2-4a50-a0de-142f364b01dc"},"vehicle_type_id":"4","last_reported":1761336653,"current_range_meters":19600,"station_id":"","pricing_plan_id":"cebpf4jnsgd1na2vs0mg"},{"bike_id":"51f6b392-8d0d-41b5-9bf6-76a949608beb","system_id":"levelo_inurba_marseille","lat":43.25339,"lon":5.42173,"is_reserved":false,"is_disabled":false,"rental_uris":{"android":"levelo://app?vid=51f6b392-8d0d-41b5-9bf6-76a949608beb","ios":"levelo://app?vid=51f6b392-8d0d-41b5-9bf6-76a949608beb"},"vehicle_type_id":"4","last_reported":1761336653,"current_range_meters":19600,"station_id":"st_d2m65c5bi1j21697t3ng","pricing_plan_id":"cebpf4jnsgd1na2vs0mg"},{"bike_id":"eea83aba-5f2f-40d4-9307-fa632a8482f7","system_id":"levelo_inurba_marseille","lat":43.2748,"lon":5.42329,"is_reserved":false,"is_disabled":false,"rental_uris":{"android":"levelo://app?vid=eea83aba-5f2f-40d4-9307-fa632a8482f7","ios":"levelo://app?vid=eea83aba-5f2f-40d4-9307-fa632a8482f7"},"vehicle_type_id":"4","last_reported":1761336653,"current_range_meters":19600,"station_id":"","pricing_plan_id":"cebpf4jnsgd1na2vs0mg"},{"bike_id":"6cf2b315-d1ee-4e24-a665-250fae4ab05f","system_id":"levelo_inurba_marseille","lat":43.31301,"lon":5.37535,"is_reserved":false,"is_disabled":true,"rental_uris":{"android":"levelo://app?vid=6cf2b315-d1ee-4e24-a665-250fae4ab05f","ios":"levelo://app?vid=6cf2b315-d1ee-4e24-a665-250fae4ab05f"},"vehicle_type_id":"4","last_reported":1761336653,"current_range_meters":19600,"station_id":"","pricing_plan_id":"cebpf4jnsgd1na2vs0mg"},{"bike_id":"89a2c262-cb67-4114-9a64-4c4617598bdf","system_id":"levelo_inurba_marseille","lat":43.28863,"lon":5.35859,"is_reserved":false,"is_disabled":false,"rental_uris":{"android":"levelo://app?vid=89a2c262-cb67-4114-9a64-4c4617598bdf","ios":"levelo://app?vid=89a2c262-cb67-4114-9a64-4c4617598bdf"},"vehicle_type_id":"4","last_reported":1761336653,"current_range_meters":19600,"station_id":"ce4bhb12rcd13ifvqem0","pricing_plan_id":"cebpf4jnsgd1na2vs0mg"},{"bike_id":"34331bef-530b-4764-b035-e9b7e1ab5752","system_id":"levelo_inurba_marseille","lat":43.2953,"lon":5.38547,"is_reserved":false,"is_disabled":false,"rental_uris":{"android":"levelo://app?vid=34331bef-530b-4764-b035-e9b7e1ab5752","ios":"levelo://app?vid=34331bef-530b-4764-b035-e9b7e1ab5752"},"vehicle_type_id":"4","last_reported":1761336653,"current_range_meters":19600,"station_id":"ce4bgih2rcd13ifvqba0","pricing_plan_id":"cebpf4jnsgd1na2vs0mg"},{"bike_id":"3aaf4d05-5057-4dfb-93ba-e36ac62b7d97","system_id":"levelo_inurba_marseille","lat":43.299079,"lon":5.381501,"is_reserved":false,"is_disabled":false,"rental_uris":{"android":"levelo://app?vid=3aaf4d05-5057-4dfb-93ba-e36ac62b7d97","ios":"levelo://app?vid=3aaf4d05-5057-4dfb-93ba-e36ac62b7d97"},"vehicle_type_id":"4","last_reported":1761336653,"current_range_meters":20000,"station_id":"ce4bgj12rcd13ifvqbc0","pricing_plan_id":"cebpf4jnsgd1na2vs0mg"},{"bike_id":"aab78db1-2336-4bba-bf75-1fc90cd2bec5","system_id":"levelo_inurba_marseille","lat":43.29018,"lon":5.38623,"is_reserved":false,"is_disabled":false,"rental_uris":{"android":"levelo://app?vid=aab78db1-2336-4bba-bf75-1fc90cd2bec5","ios":"levelo://app?vid=aab78db1-2336-4bba-bf75-1fc90cd2bec5"},"vehicle_type_id":"4","last_reported":1761336653,"current_range_meters":20000,"station_id":"ce4bh4p2rcd13ifvqe0g","pricing_plan_id":"cebpf4jnsgd1na2vs0mg"},{"bike_id":"f93c77c5-dfca-45e6-bfe1-dd9056d0e034","system_id":"levelo_inurba_marseille","lat":43.29273,"lon":5.38423,"is_reserved":false,"is_disabled":false,"rental_uris":{"android":"levelo://app?vid=f93c77c5-dfca-45e6-bfe1-dd9056d0e034","ios":"levelo://app?vid=f93c77c5-dfca-45e6-bfe1-dd9056d0e034"},"vehicle_type_id":"4","last_reported":1761336653,"current_range_meters":20000,"station_id":"ce4bh692rcd13ifvqea0","pricing_plan_id":"cebpf4jnsgd1na2vs0mg"},{"bike_id":"62f0a2f8-d352-4580-a096-e8ce56ffccdb","system_id":"levelo_inurba_marseille","lat":43.32111,"lon":5.36746,"is_reserved":false,"is_disabled":false,"rental_uris":{"android":"levelo://app?vid=62f0a2f8-d352-4580-a096-e8ce56ffccdb","ios":"levelo://app?vid=62f0a2f8-d352-4580-a096-e8ce56ffccdb"},"vehicle_type_id":"4","last_reported":1761336653,"current_range_meters":20000,"station_id":"ce4bhrh2rcd13ifvqhug","pricing_plan_id":"cebpf4jnsgd1na2vs0mg"},{"bike_id":"0144bdf2-84a6-45ad-976a-ea6fd3101d41","system_id":"levelo_inurba_marseille","lat":43.32121,"lon":5.36785,"is_reserved":false,"is_disabled":false,"rental_uris":{"android":"levelo://app?vid=0144bdf2-84a6-45ad-976a-ea6fd3101d41","ios":"levelo://app?vid=0144bdf2-84a6-45ad-976a-ea6fd3101d41"},"vehicle_type_id":"4","last_reported":1761336653,"current_range_meters":20000,"station_id":"ce4bhrh2rcd13ifvqhug","pricing_plan_id":"cebpf4jnsgd1na2vs0mg"},{"bike_id":"8dfd96cb-4e16-436b-8416-07a0420efc2f","system_id":"levelo_inurba_marseille","lat":43.29821,"lon":5.38085,"is_reserved":false,"is_disabled":false,"rental_uris":{"android":"levelo://app?vid=8dfd96cb-4e16-436b-8416-07a0420efc2f","ios":"levelo://app?vid=8dfd96cb-4e16-436b-8416-07a0420efc2f"},"vehicle_type_id":"4","last_reported":1761336653,"current_range_meters":20000,"station_id":"ce4bgip2rcd13ifvqbb0","pricing_plan_id":"cebpf4jnsgd1na2vs0mg"},{"bike_id":"294a3f34-361b-4c46-9333-ce2708bba8b2","system_id":"levelo_inurba_marseille","lat":43.31708,"lon":5.36956,"is_reserved":false,"is_disabled":false,"rental_uris":{"android":"levelo://app?vid=294a3f34-361b-4c46-9333-ce2708bba8b2","ios":"levelo://app?vid=294a3f34-361b-4c46-9333-ce2708bba8b2"},"vehicle_type_id":"4","last_reported":1761336653,"current_range_meters":20000,"station_id":"","pricing_plan_id":"cebpf4jnsgd1na2vs0mg"},{"bike_id":"de4c9d67-aa03-439a-a821-c7b9a613d790","system_id":"levelo_inurba_marseille","lat":43.21194,"lon":5.35079,"is_reserved":false,"is_disabled":false,"rental_uris":{"android":"levelo://app?vid=de4c9d67-aa03-439a-a821-c7b9a613d790","ios":"levelo://app?vid=de4c9d67-aa03-439a-a821-c7b9a613d790"},"vehicle_type_id":"4","last_reported":1761336653,"current_range_meters":20000,"station_id":"st_cvj6sg6p6f1abm77japg","pricing_plan_id":"cebpf4jnsgd1na2vs0mg"},{"bike_id":"8f1252a1-0cd7-4051-a586-a73c94ed50d3","system_id":"levelo_inurba_marseille","lat":43.30291,"lon":5.36894,"is_reserved":false,"is_disabled":false,"rental_uris":{"android":"levelo://app?vid=8f1252a1-0cd7-4051-a586-a73c94ed50d3","ios":"levelo://app?vid=8f1252a1-0cd7-4051-a586-a73c94ed50d3"},"vehicle_type_id":"4","last_reported":1761336653,"current_range_meters":20000,"station_id":"ce4bgqh2rcd13ifvqc5g","pricing_plan_id":"cebpf4jnsgd1na2vs0mg"},{"bike_id":"9954bda2-9a3e-4624-8ac6-92a7c32d4e24","system_id":"levelo_inurba_marseille","lat":43.25719,"lon":5.41123,"is_reserved":false,"is_disabled":false,"rental_uris":{"android":"levelo://app?vid=9954bda2-9a3e-4624-8ac6-92a7c32d4e24","ios":"levelo://app?vid=9954bda2-9a3e-4624-8ac6-92a7c32d4e24"},"vehicle_type_id":"4","last_reported":1761336653,"current_range_meters":20000,"station_id":"ce4bhkp2rcd13ifvqgd0","pricing_plan_id":"cebpf4jnsgd1na2vs0mg"},