{"last_updated":1730981817,"ttl":60,"version":"2.2","data":{"bikes":[{"bike_id":"18b52b52-58a9-4e3f-a683-6068b12d8fc8","system_id":"levelo_inurba_marseille","lat":43.28848,"lon":5.3586,"is_reserved":false,"is_disabled":false,"rental_uris":{"android":"levelo://app?vid=18b52b52-58a9-4e3f-a683-6068b12d8fc8","ios":"levelo://app?vid=18b52b52-58a9-4e3f-a683-6068b12d8fc8"},"vehicle_type_id":"4","last_reported":1730981818,"current_range_meters":9200,"station_id":"ce4bhb12rcd13ifvqem0","pricing_plan_id":"cebpf4jnsgd1na2vs0mg"},{"bike_id":"02a8dd32-39a9-4ef4-a051-9faa0f6afeaa","system_id":"levelo_inurba_marseille","lat":43.28717,"lon":5.37936,"is_reserved":false,"is_disabled":false,"rental_uris":{"android":"levelo://app?vid=02a8dd32-39a9-4ef4-a051-9faa0f6afeaa","ios":"levelo://app?vid=02a8dd32-39a9-4ef4-a051-9faa0f6afeaa"},"vehicle_type_id":"4","last_reported":1730981818,"current_range_meters":32000,"station_id":"ce4bh9p2rcd13ifvqec0","pricing_plan_id":"cebpf4jnsgd1na2vs0mg"},{"bike_id":"36da81ad-0e02-4ae5-aa74-842712164d86","system_id":"levelo_inurba_marseille","lat":43.23154,"lon":5.43702,"is_reserved":false,"is_disabled":false,"rental_uris":{"android":"levelo://app?vid=36da81ad-0e02-4ae5-aa74-842712164d86","ios":"levelo://app?vid=36da81ad-0e02-4ae5-aa74-842712164d86"},"vehicle_type_id":"4","last_reported":1730981818,"current_range_meters":24800,"station_id":"ce4bhmp2rcd13ifvqgog","pricing_plan_id":"cebpf4jnsgd1na2vs0mg"},{"bike_id":"e8bcca23-42a0-4423-8a65-a75ab12e9cb1","system_id":"levelo_inurba_marseille","lat":43.2959,"lon":5.36752,"is_reserved":false,"is_disabled":false,"rental_uris":{"android":"levelo://app?vid=e8bcca23-42a0-4423-8a65-a75ab12e9cb1","ios":"levelo://app?vid=e8bcca23-42a0-4423-8a65-a75ab12e9cb1"},"vehicle_type_id":"4","last_reported":1730981818,"current_range_meters":35600,"station_id":"ce4bgph2rcd13ifvqc2g","pricing_plan_id":"cebpf4jnsgd1na2vs0mg"},{"bike_id":"ad7b79d4-2c87-48ed-ab36-42dfcf6a772a","system_id":"levelo_inurba_marseille","lat":43.2898,"lon":5.37827,"is_reserved":false,"is_disabled":false,"rental_uris":{"android":"levelo://app?vid=ad7b79d4-2c87-48ed-ab36-42dfcf6a772a","ios":"levelo://app?vid=ad7b79d4-2c87-48ed-ab36-42dfcf6a772a"},"vehicle_type_id":"4","last_reported":1730981818,"current_range_meters":28800,"station_id":"ce4bh9p2rcd13ifvqed0","pricing_plan_id":"cebpf4jnsgd1na2vs0mg"},{"bike_id":"689fd00c-4110-46b2-b64d-bd800026f8be","system_id":"levelo_inurba_marseille","lat":43.292,"lon":5.39328,"is_reserved":false,"is_disabled":false,"rental_uris":{"android":"levelo://app?vid=689fd00c-4110-46b2-b64d-bd800026f8be","ios":"levelo://app?vid=689fd00c-4110-46b2-b64d-bd800026f8be"},"vehicle_type_id":"4","last_reported":1730981818,"current_range_meters":14800,"station_id":"ce4bh192rcd13ifvqdd0","pricing_plan_id":"cebpf4jnsgd1na2vs0mg"},{"bike_id":"afa69de3-617f-4d4b-8089-87f08a88dff5","system_id":"levelo_inurba_marseille","lat":43.30145,"lon":5.38083,"is_reserved":false,"is_disabled":false,"rental_uris":{"android":"levelo://app?vid=afa69de3-617f-4d4b-8089-87f08a88dff5","ios":"levelo://app?vid=afa69de3-617f-4d4b-8089-87f08a88dff5"},"vehicle_type_id":"4","last_reported":1730981818,"current_range_meters":35200,"station_id":"ce4bgjp2rcd13ifvqbh0","pricing_plan_id":"cebpf4jnsgd1na2vs0mg"},{"bike_id":"f41627c1-fcc8-4793-8368-4df88e3dcab7","system_id":"levelo_inurba_marseille","lat":43.29193,"lon":5.39327,"is_reserved":false,"is_disabled":false,"rental_uris":{"android":"levelo://app?vid=f41627c1-fcc8-4793-8368-4df88e3dcab7","ios":"levelo://app?vid=f41627c1-fcc8-4793-8368-4df88e3dcab7"},"vehicle_type_id":"4","last_reported":1730981818,"current_range_meters":19200,"station_id":"ce4bh192rcd13ifvqdd0","pricing_plan_id":"cebpf4jnsgd1na2vs0mg"},{"bike_id":"a63ffd1f-6bff-4a01-9065-15d9971fceb1","system_id":"levelo_inurba_marseille","lat":43.3092,"lon":5.40144,"is_reserved":false,"is_disabled":false,"rental_uris":{"android":"levelo://app?vid=a63ffd1f-6bff-4a01-9065-15d9971fceb1","ios":"levelo://app?vid=a63ffd1f-6bff-4a01-9065-15d9971fceb1"},"vehicle_type_id":"4","last_reported":1730981818,"current_range_meters":38000,"station_id":"ce4bgvp2rcd13ifvqct0","pricing_plan_id":"cebpf4jnsgd1na2vs0mg"},{"bike_id":"f9db6b6d-ff20-4440-b42c-79a5d979a022","system_id":"levelo_inurba_marseille","lat":43.30531,"lon":5.36731,"is_reserved":false,"is_disabled":false,"rental_uris":{"android":"levelo://app?vid=f9db6b6d-ff20-4440-b42c-79a5d979a022","ios":"levelo://app?vid=f9db6b6d-ff20-4440-b42c-79a5d979a022"},"vehicle_type_id":"4","last_reported":1730981818,"current_range_meters":12000,"station_id":"ce4bgrp2rcd13ifvqc9g","pricing_plan_id":"cebpf4jnsgd1na2vs0mg"},{"bike_id":"b2116663-67b9-426e-a75d-ed0e97e6dcbc","system_id":"levelo_inurba_marseille","lat":43.29624,"lon":5.37151,"is_reserved":false,"is_disabled":false,"rental_uris":{"android":"levelo://app?vid=b2116663-67b9-426e-a75d-ed0e97e6dcbc","ios":"levelo://app?vid=b2116663-67b9-426e-a75d-ed0e97e6dcbc"},"vehicle_type_id":"4","last_reported":1730981818,"current_range_meters":40000,"station_id":"ce4bgnh2rcd13ifvqc0g","pricing_plan_id":"cebpf4jnsgd1na2vs0mg"},{"bike_id":"3db0a72d-f8b2-45f9-b2fc-3bfb4d4d25ae","system_id":"levelo_inurba_marseille","lat":43.30259,"lon":5.40072,"is_reserved":false,"is_disabled":false,"rental_uris":{"android":"levelo://app?vid=3db0a72d-f8b2-45f9-b2fc-3bfb4d4d25ae","ios":"levelo://app?vid=3db0a72d-f8b2-45f9-b2fc-3bfb4d4d25ae"},"vehicle_type_id":"4","last_reported":1730981818,"current_range_meters":30000,"station_id":"ce4bgvh2rcd13ifvqcs0","pricing_plan_id":"cebpf4jnsgd1na2vs0mg"},{"bike_id":"1510aaa8-e4b4-4ded-be09-698b6b03d511","system_id":"levelo_inurba_marseille","lat":43.2315,"lon":5.43714,"is_reserved":false,"is_disabled":false,"rental_uris":{"android":"levelo://app?vid=1510aaa8-e4b4-4ded-be09-698b6b03d511","ios":"levelo://app?vid=1510aaa8-e4b4-4ded-be09-698b6b03d511"},"vehicle_type_id":"4","last_reported":1730981818,"current_range_meters":9200,"station_id":"ce4bhmp2rcd13ifvqgog","pricing_plan_id":"cebpf4jnsgd1na2vs0mg"},{"bike_id":"434fe81b-9da2-49ed-aaee-dc29ee107415","system_id":"levelo_inurba_marseille","lat":43.23966,"lon":5.36641,"is_reserved":false,"is_disabled":false,"rental_uris":{"android":"levelo://app?vid=434fe81b-9da2-49ed-aaee-dc29ee107415","ios":"levelo://app?vid=434fe81b-9da2-49ed-aaee-dc29ee107415"},"vehicle_type_id":"4","last_reported":1730981818,"current_range_meters":33600,"station_id":"ce4bhi12rcd13ifvqfp0","pricing_plan_id":"cebpf4jnsgd1na2vs0mg"},{"bike_id":"52025ec2-dc31-45fe-aa08-67835bc3a87a","system_id":"levelo_inurba_marseille","lat":43.34133,"lon":5.40901,"is_reserved":false,"is_disabled":false,"rental_uris":{"android":"levelo://app?vid=52025ec2-dc31-45fe-aa08-67835bc3a87a","ios":"levelo://app?vid=52025ec2-dc31-45fe-aa08-67835bc3a87a"},"vehicle_type_id":"4","last_reported":1730981818,"current_range_meters":39200,"station_id":"ce4bhqh2rcd13ifvqhlg","pricing_plan_id":"cebpf4jnsgd1na2vs0mg"},{"bike_id":"534ec5db-c85d-4da0-927b-63206fb3f75b","system_id":"levelo_inurba_marseille","lat":43.27493,"lon":5.42449,"is_reserved":false,"is_disabled":false,"rental_uris":{"android":"levelo://app?vid=534ec5db-c85d-4da0-927b-63206fb3f75b","ios":"levelo://app?vid=534ec5db-c85d-4da0-927b-63206fb3f75b"},"vehicle_type_id":"4","last_reported":1730981818,"current_range_meters":25200,"station_id":"ce4bhn92rcd13ifvqgrg","pricing_plan_id":"cebpf4jnsgd1na2vs0mg"},{"bike_id":"bcf5dad1-721a-4f4e-82b2-15a9cc44926f","system_id":"levelo_inurba_marseille","lat":43.33753,"lon":5.3745,"is_reserved":false,"is_disabled":false,"rental_uris":{"android":"levelo://app?vid=bcf5dad1-721a-4f4e-82b2-15a9cc44926f","ios":"levelo://app?vid=bcf5dad1-721a-4f4e-82b2-15a9cc44926f"},"vehicle_type_id":"4","last_reported":1730981818,"current_range_meters":38000,"station_id":"","pricing_plan_id":"cebpf4jnsgd1na2vs0mg"},{"bike_id":"e6651dee-d5b7-4fbe-8406-c8f60d3e07be","system_id":"levelo_inurba_marseille","lat":43.2827,"lon":5.35067,"is_reserved":false,"is_disabled":false,"rental_uris":{"android":"levelo://app?vid=e6651dee-d5b7-4fbe-8406-c8f60d3e07be","ios":"levelo://app?vid=e6651dee-d5b7-4fbe-8406-c8f60d3e07be"},"vehicle_type_id":"4","last_reported":1730981818,"current_range_meters":38800,"station_id":"ce4bhbp2rcd13ifvqerg","pricing_plan_id":"cebpf4jnsgd1na2vs0mg"},{"bike_id":"8fcca26e-9b9e-465f-bbfd-abe811e5c9d0","system_id":"levelo_inurba_marseille","lat":43.28421,"lon":5.37507,"is_reserved":false,"is_disabled":false,"rental_uris":{"android":"levelo://app?vid=8fcca26e-9b9e-465f-bbfd-abe811e5c9d0","ios":"levelo://app?vid=8fcca26e-9b9e-465f-bbfd-abe811e5c9d0"},"vehicle_type_id":"4","last_reported":1730981818,"current_range_meters":8000,"station_id":"ce4bh412rcd13ifvqds0","pricing_plan_id":"cebpf4jnsgd1na2vs0mg"},{"bike_id":"a13f35d7-f4ed-4dbe-a408-136689149f8e","system_id":"levelo_inurba_marseille","lat":43.22923,"lon":5.35382,"is_reserved":false,"is_disabled":false,"rental_uris":{"android":"levelo://app?vid=a13f35d7-f4ed-4dbe-a408-136689149f8e","ios":"levelo://app?vid=a13f35d7-f4ed-4dbe-a408-136689149f8e"},"vehicle_type_id":"4","last_reported":1730981818,"current_range_meters":36400,"station_id":"cpo3532slgdg3j2ikp40","pricing_plan_id":"cebpf4jnsgd1na2vs0mg"},{"bike_id":"81a73e1e-df8e-4923-a10d-61f139a542d3","system_id":"levelo_inurba_marseille","lat":43.28028,"lon":5.36948,"is_reserved":false,"is_disabled":false,"rental_uris":{"android":"levelo://app?vid=81a73e1e-df8e-4923-a10d-61f139a542d3","ios":"levelo://app?vid=81a73e1e-df8e-4923-a10d-61f139a542d3"},"vehicle_type_id":"4","last_reported":1730981818,"current_range_meters":13600,"station_id":"ce4bha12rcd13ifvqef0","pricing_plan_id":"cebpf4jnsgd1na2vs0mg"},{"bike_id":"35c658cd-6772-420c-87ce-ba3ed9431cb0","system_id":"levelo_inurba_marseille","lat":43.3053,"lon":5.3653,"is_reserved":false,"is_disabled":false,"rental_uris":{"android":"levelo://app?vid=35c658cd-6772-420c-87ce-ba3ed9431cb0","ios":"levelo://app?vid=35c658cd-6772-420c-87ce-ba3ed9431cb0"},"vehicle_type_id":"4","last_reported":1730981818,"current_range_meters":28400,"station_id":"ce4bgs12rcd13ifvqcag","pricing_plan_id":"cebpf4jnsgd1na2vs0mg"},{"bike_id":"a7eee489-66d7-4ebf-b428-e9b65c2a6210","system_id":"levelo_inurba_marseille","lat":43.2695,"lon":5.38631,"is_reserved":false,"is_disabled":false,"rental_uris":{"android":"levelo://app?vid=a7eee489-66d7-4ebf-b428-e9b65c2a6210","ios":"levelo://app?vid=a7eee489-66d7-4ebf-b428-e9b65c2a6210"},"vehicle_type_id":"4","last_reported":1730981818,"current_range_meters":35200,"station_id":"ce4bhh92rcd13ifvqfh0","pricing_plan_id":"cebpf4jnsgd1na2vs0mg"},{"bike_id":"8c894b72-68ed-4925-b417-f67a0bb96441","system_id":"levelo_inurba_marseille","lat":43.3361,"lon":5.41024,"is_reserved":false,"is_disabled":false,"rental_uris":{"android":"levelo://app?vid=8c894b72-68ed-4925-b417-f67a0bb96441","ios":"levelo://app?vid=8c894b72-68ed-4925-b417-f67a0bb96441"},"vehicle_type_id":"4","last_reported":1730981818,"current_range_meters":19600,"station_id":"ce4bhqh2rcd13ifvqhmg","pricing_plan_id":"cebpf4jnsgd1na2vs0mg"},{"bike_id":"7019b025-03be-45d4-ad87-b5ab6250e2c6","system_id":"levelo_inurba_marseille","lat":43.31224,"lon":5.36859,"is_reserved":false,"is_disabled":false,"rental_uris":{"android":"levelo://app?vid=7019b025-03be-45d4-ad87-b5ab6250e2c6","ios":"levelo://app?vid=7019b025-03be-45d4-ad87-b5ab6250e2c6"},"vehicle_type_id":"4","last_reported":1730981818,"current_range_meters":28000,"station_id":"ce4bgl92rcd13ifvqbq0","pricing_plan_id":"cebpf4jnsgd1na2vs0mg"},{"bike_id":"4dd540dc-74c3-464f-8e6c-eeabac73222b","system_id":"levelo_inurba_marseille","lat":43.29626,"lon":5.37722,"is_reserved":false,"is_disabled":false,"rental_uris":{"android":"levelo://app?vid=4dd540dc-74c3-464f-8e6c-eeabac73222b","ios":"levelo://app?vid=4dd540dc-74c3-464f-8e6c-eeabac73222b"},"vehicle_type_id":"4","last_reported":1730981818,"current_range_meters":8400,"station_id":"ce4bgi92rcd13ifvqb90","pricing_plan_id":"cebpf4jnsgd1na2vs0mg"},{"bike_id":"8a401a8a-30f9-4643-ad63-74116d1b600f","system_id":"levelo_inurba_marseille","lat":43.32473,"lon":5.36566,"is_reserved":false,"is_disabled":false,"rental_uris":{"android":"levelo://app?vid=8a401a8a-30f9-4643-ad63-74116d1b600f","ios":"levelo://app?vid=8a401a8a-30f9-4643-ad63-74116d1b600f"},"vehicle_type_id":"4","last_reported":1730981818,"current_range_meters":36800,"station_id":"ce4bhs12rcd13ifvqhvg","pricing_plan_id":"cebpf4jnsgd1na2vs0mg"},{"bike_id":"495f6f48-9fc5-45d2-86e8-54e8461f238a","system_id":"levelo_inurba_marseille","lat":43.24801,"lon":5.3745,"is_reserved":false,"is_disabled":false,"rental_uris":{"android":"levelo://app?vid=495f6f48-9fc5-45d2-86e8-54e8461f238a","ios":"levelo://app?vid=495f6f48-9fc5-45d2-86e8-54e8461f238a"},"vehicle_type_id":"4","last_reported":1730981818,"current_range_meters":30400,"station_id":"ce4bhgh2rcd13ifvqfb0","pricing_plan_id":"cebpf4jnsgd1na2vs0mg"},{"bike_id":"2539aa0b-7bf0-4b7f-8708-9064f01479d5","system_id":"levelo_inurba_marseille","lat":43.31081,"lon":5.4243,"is_reserved":false,"is_disabled":false,"rental_uris":{"android":"levelo://app?vid=2539aa0b-7bf0-4b7f-8708-9064f01479d5","ios":"levelo://app?vid=2539aa0b-7bf0-4b7f-8708-9064f01479d5"},"vehicle_type_id":"4","last_reported":1730981818,"current_range_meters":15200,"station_id":"ce4bhp92rcd13ifvqhag","pricing_plan_id":"cebpf4jnsgd1na2vs0mg"},{"bike_id":"60bb8ba5-396a-42c6-a39d-ec6237392067","system_id":"levelo_inurba_marseille","lat":43.22928,"lon":5.35377,"is_reserved":false,"is_disabled":false,"rental_uris":{"android":"levelo://app?vid=60bb8ba5-396a-42c6-a39d-ec6237392067","ios":"levelo://app?vid=60bb8ba5-396a-42c6-a39d-ec6237392067"},"vehicle_type_id":"4","last_reported":1730981818,"current_range_meters":36400,"station_id":"cpo3532slgdg3j2ikp40","pricing_plan_id":"cebpf4jnsgd1na2vs0mg"},{"bike_id":"b53b4e52-8fec-41fa-9875-1f17de3309b6","system_id":"levelo_inurba_marseille","lat":43.30599,"lon":5.3722,"is_reserved":false,"is_disabled":false,"rental_uris":{"android":"levelo://app?vid=b53b4e52-8fec-41fa-9875-1f17de3309b6","ios":"levelo://app?vid=b53b4e52-8fec-41fa-9875-1f17de3309b6"},"vehicle_type_id":"4","last_reported":1730981818,"current_range_meters":21600,"station_id":"ce4bgqh2rcd13ifvqc4g","pricing_plan_id":"cebpf4jnsgd1na2vs0mg"},{"bike_id":"c40b294e-5bc0-411a-af24-e0675d161212","system_id":"levelo_inurba_marseille","lat":43.31496,"lon":5.37303,"is_reserved":false,"is_disabled":false,"rental_uris":{"android":"levelo://app?vid=c40b294e-5bc0-411a-af24-e0675d161212","ios":"levelo://app?vid=c40b294e-5bc0-411a-af24-e0675d161212"},"vehicle_type_id":"4","last_reported":1730981818,"current_range_meters":26000,"station_id":"ce4bgt12rcd13ifvqcd0","pricing_plan_id":"cebpf4jnsgd1na2vs0mg"},{"bike_id":"794c21bb-2dc9-433c-bf5d-8d6b934201ad","system_id":"levelo_inurba_marseille","lat":43.2408,"lon":5.37754,"is_reserved":false,"is_disabled":false,"rental_uris":{"android":"levelo://app?vid=794c21bb-2dc9-433c-bf5d-8d6b934201ad","ios":"levelo://app?vid=794c21bb-2dc9-433c-bf5d-8d6b934201ad"},"vehicle_type_id":"4","last_reported":1730981818,"current_range_meters":25200,"station_id":"ce4bhnp2rcd13ifvqgvg","pricing_plan_id":"cebpf4jnsgd1na2vs0mg"},{"bike_id":"44f25fbd-5119-4440-bd4c-c4253caacb2c","system_id":"levelo_inurba_marseille","lat":43.3014,"lon":5.381,"is_reserved":false,"is_disabled":false,"rental_uris":{"android":"levelo://app?vid=44f25fbd-5119-4440-bd4c-c4253caacb2c","ios":"levelo://app?vid=44f25fbd-5119-4440-bd4c-c4253caacb2c"},"vehicle_type_id":"4","last_reported":1730981818,"current_range_meters":17200,"station_id":"ce4bgjp2rcd13ifvqbh0","pricing_plan_id":"cebpf4jnsgd1na2vs0mg"},{"bike_id":"2980a31f-a1dd-48be-9110-67be48ef088b","system_id":"levelo_inurba_marseille","lat":43.29509,"lon":5.37501,"is_reserved":false,"is_disabled":false,"rental_uris":{"android":"levelo://app?vid=2980a31f-a1dd-48be-9110-67be48ef088b","ios":"levelo://app?vid=2980a31f-a1dd-48be-9110-67be48ef088b"},"vehicle_type_id":"4","last_reported":1730981818,"current_range_meters":20400,"station_id":"ce4bgkp2rcd13ifvqbmg","pricing_plan_id":"cebpf4jnsgd1na2vs0mg"},{"bike_id":"63d2488a-8edf-44e1-adcb-884c796c10cc","system_id":"levelo_inurba_marseille","lat":43.25938,"lon":5.40898,"is_reserved":false,"is_disabled":false,"rental_uris":{"android":"levelo://app?vid=63d2488a-8edf-44e1-adcb-884c796c10cc","ios":"levelo://app?vid=63d2488a-8edf-44e1-adcb-884c796c10cc"},"vehicle_type_id":"4","last_reported":1730981818,"current_range_meters":35200,"station_id":"ce4bhm92rcd13ifvqglg","pricing_plan_id":"cebpf4jnsgd1na2vs0mg"},{"bike_id":"ec6f1adc-74d8-4c9f-9550-e78d534293f2","system_id":"levelo_inurba_marseille","lat":43.31004,"lon":5.39891,"is_reserved":false,"is_disabled":false,"rental_uris":{"android":"levelo://app?vid=ec6f1adc-74d8-4c9f-9550-e78d534293f2","ios":"levelo://app?vid=ec6f1adc-74d8-4c9f-9550-e78d534293f2"},"vehicle_type_id":"4","last_reported":1730981818,"current_range_meters":21600,"station_id":"ce4bh0p2rcd13ifvqd80","pricing_plan_id":"cebpf4jnsgd1na2vs0mg"},{"bike_id":"1b1668d2-cf50-497f-b1ce-d7014621387d","system_id":"levelo_inurba_marseille","lat":43.31116,"lon":5.37782,"is_reserved":false,"is_disabled":false,"rental_uris":{"android":"levelo://app?vid=1b1668d2-cf50-497f-b1ce-d7014621387d","ios":"levelo://app?vid=1b1668d2-cf50-497f-b1ce-d7014621387d"},"vehicle_type_id":"4","last_reported":1730981818,"current_range_meters":38800,"station_id":"ce4bgt92rcd13ifvqcg0","pricing_plan_id":"cebpf4jnsgd1na2vs0mg"},{"bike_id":"e8f3891c-e6ae-4dc8-bb8b-e520dc3d40f3","system_id":"levelo_inurba_marseille","lat":43.24391,"lon":5.3707,"is_reserved":false,"is_disabled":false,"rental_uris":{"android":"levelo://app?vid=e8f3891c-e6ae-4dc8-bb8b-e520dc3d40f3","ios":"levelo://app?vid=e8f3891c-e6ae-4dc8-bb8b-e520dc3d40f3"},"vehicle_type_id":"4","last_reported":1730981818,"current_range_meters":22400,"station_id":"ce4bhhh2rcd13ifvqfk0","pricing_plan_id":"cebpf4jnsgd1na2vs0mg"},{"bike_id":"148a05b0-5e9b-4a2d-af89-c42d1ba92550","system_id":"levelo_inurba_marseille","lat":43.28032,"lon":5.36939,"is_reserved":false,"is_disabled":false,"rental_uris":{"android":"levelo://app?vid=148a05b0-5e9b-4a2d-af89-c42d1ba92550","ios":"levelo://app?vid=148a05b0-5e9b-4a2d-af89-c42d1ba92550"},"vehicle_type_id":"4","last_reported":1730981818,"current_range_meters":28400,"station_id":"ce4bha12rcd13ifvqef0","pricing_plan_id":"cebpf4jnsgd1na2vs0mg"},{"bike_id":"d4e0285e-bfa0-467f-8b5e-2b2a39d0a451","system_id":"levelo_inurba_marseille","lat":43.292171,"lon":5.39427,"is_reserved":false,"is_disabled":false,"rental_uris":{"android":"levelo://app?vid=d4e0285e-bfa0-467f-8b5e-2b2a39d0a451","ios":"levelo://app?vid=d4e0285e-bfa0-467f-8b5e-2b2a39d0a451"},"vehicle_type_id":"4","last_reported":1730981818,"current_range_meters":16400,"station_id":"ce4bh192rcd13ifvqdd0","pricing_plan_id":"cebpf4jnsgd1na2vs0mg"},{"bike_id":"70d67e8b-cf90-41d7-a359-ddc74e8f5edf","system_id":"levelo_inurba_marseille","lat":43.25933,"lon":5.40908,"is_reserved":false,"is_disabled":false,"rental_uris":{"android":"levelo://app?vid=70d67e8b-cf90-41d7-a359-ddc74e8f5edf","ios":"levelo://app?vid=70d67e8b-cf90-41d7-a359-ddc74e8f5edf"},"vehicle_type_id":"4","last_reported":1730981818,"current_range_meters":16400,"station_id":"ce4bhm92rcd13ifvqglg","pricing_plan_id":"cebpf4jnsgd1na2vs0mg"},{"bike_id":"76af8b3d-9a84-4e55-b4f5-30a2c29789a2","system_id":"levelo_inurba_marseille","lat":43.24085,"lon":5.37742,"is_reserved":false,"is_disabled":false,"rental_uris":{"android":"levelo://app?vid=76af8b3d-9a84-4e55-b4f5-30a2c29789a2","ios":"levelo://app?vid=76af8b3d-9a84-4e55-b4f5-30a2c29789a2"},"vehicle_type_id":"4","last_reported":1730981818,"current_range_meters":27600,"station_id":"ce4bhnp2rcd13ifvqgvg","pricing_plan_id":"cebpf4jnsgd1na2vs0mg"},{"bike_id":"d6012cce-4213-4913-a5ff-a23b071f00be","system_id":"levelo_inurba_marseille","lat":43.29618,"lon":5.37149,"is_reserved":false,"is_disabled":false,"rental_uris":{"android":"levelo://app?vid=d6012cce-4213-4913-a5ff-a23b071f00be","ios":"levelo://app?vid=d6012cce-4213-4913-a5ff-a23b071f00be"},"vehicle_type_id":"4","last_reported":1730981818,"current_range_meters":10000,"station_id":"ce4bgnh2rcd13ifvqc0g","pricing_plan_id":"cebpf4jnsgd1na2vs0mg"},{"bike_id":"7148e5a3-e345-4df8-9602-6c428d6f2779","system_id":"levelo_inurba_marseille","lat":43.2667,"lon":5.40289,"is_reserved":false,"is_disabled":false,"rental_uris":{"android":"levelo://app?vid=7148e5a3-e345-4df8-9602-6c428d6f2779","ios":"levelo://app?vid=7148e5a3-e345-4df8-9602-6c428d6f2779"},"vehicle_type_id":"4","last_reported":1730981818,"current_range_meters":16400,"station_id":"","pricing_plan_id":"cebpf4jnsgd1na2vs0mg"},{"bike_id":"efe92105-4d2a-4aaa-bfb1-ef29a0ae18f6","system_id":"levelo_inurba_marseille","lat":43.29514,"lon":5.37509,"is_reserved":false,"is_disabled":false,"rental_uris":{"android":"levelo://app?vid=efe92105-4d2a-4aaa-bfb1-ef29a0ae18f6","ios":"levelo://app?vid=efe92105-4d2a-4aaa-bfb1-ef29a0ae18f6"},"vehicle_type_id":"4","last_reported":1730981818,"current_range_meters":39200,"station_id":"ce4bgkp2rcd13ifvqbmg","pricing_plan_id":"cebpf4jnsgd1na2vs0mg"},{"bike_id":"bbde159d-771c-477e-9cb9-0b5767d2e088","system_id":"levelo_inurba_marseille","lat":43.31487,"lon":5.37309,"is_reserved":false,"is_disabled":false,"rental_uris":{"android":"levelo://app?vid=bbde159d-771c-477e-9cb9-0b5767d2e088","ios":"levelo://app?vid=bbde159d-771c-477e-9cb9-0b5767d2e088"},"vehicle_type_id":"4","last_reported":1730981818,"current_range_meters":12000,"station_id":"ce4bgt12rcd13ifvqcd0","pricing_plan_id":"cebpf4jnsgd1na2vs0mg"},{"bike_id":"be381f3f-5dc1-4e1c-823e-89aac21b78e7","system_id":"levelo_inurba_marseille","lat":43.30093,"lon":5.39068,"is_reserved":false,"is_disabled":false,"rental_uris":{"android":"levelo://app?vid=be381f3f-5dc1-4e1c-823e-89aac21b78e7","ios":"levelo://app?vid=be381f3f-5dc1-4e1c-823e-89aac21b78e7"},"vehicle_type_id":"4","last_reported":1730981818,"current_range_meters":28400,"station_id":"ce4bh192rcd13ifvqdb0","pricing_plan_id":"cebpf4jnsgd1na2vs0mg"},{"bike_id":"fa0b7a65-cee1-4d2a-a04c-01c31bf50672","system_id":"levelo_inurba_marseille","lat":43.24162,"lon":5.36395,"is_reserved":false,"is_disabled":false,"rental_uris":{"android":"levelo://app?vid=fa0b7a65-cee1-4d2a-a04c-01c31bf50672","ios":"levelo://app?vid=fa0b7a65-cee1-4d2a-a04c-01c31bf50672"},"vehicle_type_id":"4","last_reported":1730981818,"current_range_meters":24000,"station_id":"cpo36qri1sfpv3e86is0","pricing_plan_id":"cebpf4jnsgd1na2vs0mg"},{"bike_id":"ebe24ed0-22ef-4108-8346-d144ddd06aac","system_id":"levelo_inurba_marseille","lat":43.33718,"lon":5.39187,"is_reserved":false,"is_disabled":false,"rental_uris":{"android":"levelo://app?vid=ebe24ed0-22ef-4108-8346-d144ddd06aac","ios":"levelo://app?vid=ebe24ed0-22ef-4108-8346-d144ddd06aac"},"vehicle_type_id":"4","last_reported":1730981818,"current_range_meters":34000,"station_id":"ce4bhr92rcd13ifvqhsg","pricing_plan_id":"cebpf4jnsgd1na2vs0mg"},{"bike_id":"1206c29e-122d-4731-b507-d36c07bc80de","system_id":"levelo_inurba_marseille","lat":43.29277,"lon":5.40138,"is_reserved":false,"is_disabled":false,"rental_uris":{"android":"levelo://app?vid=1206c29e-122d-4731-b507-d36c07bc80de","ios":"levelo://app?vid=1206c29e-122d-4731-b507-d36c07bc80de"},"vehicle_type_id":"4","last_reported":1730981818,"current_range_meters":38800,"station_id":"ce4bh312rcd13ifvqdk0","pricing_plan_id":"cebpf4jnsgd1na2vs0mg"},{"bike_id":"16b1fd7a-7af0-411b-b5ae-74197c30e12f","system_id":"levelo_inurba_marseille","lat":43.29903,"lon":5.38151,"is_reserved":false,"is_disabled":false,"rental_uris":{"android":"levelo://app?vid=16b1fd7a-7af0-411b-b5ae-74197c30e12f","ios":"levelo://app?vid=16b1fd7a-7af0-411b-b5ae-74197c30e12f"},"vehicle_type_id":"4","last_reported":1730981818,"current_range_meters":28800,"station_id":"ce4bgj12rcd13ifvqbc0","pricing_plan_id":"cebpf4jnsgd1na2vs0mg"},{"bike_id":"5205fbf7-8d59-4be8-bf69-1e6422de7447","system_id":"levelo_inurba_marseille","lat":43.30906,"lon":5.3685,"is_reserved":false,"is_disabled":false,"rental_uris":{"android":"levelo://app?vid=5205fbf7-8d59-4be8-bf69-1e6422de7447","ios":"levelo://app?vid=5205fbf7-8d59-4be8-bf69-1e6422de7447"},"vehicle_type_id":"4","last_reported":1730981818,"current_range_meters":7200,"station_id":"ce4bgn92rcd13ifvqbvg","pricing_plan_id":"cebpf4jnsgd1na2vs0mg"},{"bike_id":"cb0ff2cc-ff1a-49a6-b8fb-f55be74a223d","system_id":"levelo_inurba_marseille","lat":43.30553,"lon":5.36524,"is_reserved":false,"is_disabled":false,"rental_uris":{"android":"levelo://app?vid=cb0ff2cc-ff1a-49a6-b8fb-f55be74a223d","ios":"levelo://app?vid=cb0ff2cc-ff1a-49a6-b8fb-f55be74a223d"},"vehicle_type_id":"4","last_reported":1730981818,"current_range_meters":31200,"station_id":"ce4bgs12rcd13ifvqcag","pricing_plan_id":"cebpf4jnsgd1na2vs0mg"},{"bike_id":"b72c4c69-2898-4c3d-aeef-f3da571569d0","system_id":"levelo_inurba_marseille","lat":43.26712,"lon":5.382625,"is_reserved":false,"is_disabled":false,"rental_uris":{"android":"levelo://app?vid=b72c4c69-2898-4c3d-aeef-f3da571569d0","ios":"levelo://app?vid=b72c4c69-2898-4c3d-aeef-f3da571569d0"},"vehicle_type_id":"4","last_reported":1730981818,"current_range_meters":27600,"station_id":"ce4bhg92rcd13ifvqf90","pricing_plan_id":"cebpf4jnsgd1na2vs0mg"},{"bike_id":"060723a7-aad1-48e4-9f62-8dd127ec4a6c","system_id":"levelo_inurba_marseille","lat":43.29355,"lon":5.37866,"is_reserved":false,"is_disabled":false,"rental_uris":{"android":"levelo://app?vid=060723a7-aad1-48e4-9f62-8dd127ec4a6c","ios":"levelo://app?vid=060723a7-aad1-48e4-9f62-8dd127ec4a6c"},"vehicle_type_id":"4","last_reported":1730981818,"current_range_meters":39200,"station_id":"ce4bgjh2rcd13ifvqbf0","pricing_plan_id":"cebpf4jnsgd1na2vs0mg"},{"bike_id":"def2c055-3c93-44a3-ab5f-0192fddff446","system_id":"levelo_inurba_marseille","lat":43.28928,"lon":5.38385,"is_reserved":false,"is_disabled":false,"rental_uris":{"android":"levelo://app?vid=def2c055-3c93-44a3-ab5f-0192fddff446","ios":"levelo://app?vid=def2c055-3c93-44a3-ab5f-0192fddff446"},"vehicle_type_id":"4","last_reported":1730981818,"current_range_meters":4800,"station_id":"ce4bhq12rcd13ifvqhhg","pricing_plan_id":"cebpf4jnsgd1na2vs0mg"},{"bike_id":"73ddab19-f3bf-49d8-9a14-da51e0ed8f6c","system_id":"levelo_inurba_marseille","lat":43.23144,"lon":5.4372,"is_reserved":false,"is_disabled":false,"rental_uris":{"android":"levelo://app?vid=73ddab19-f3bf-49d8-9a14-da51e0ed8f6c","ios":"levelo://app?vid=73ddab19-f3bf-49d8-9a14-da51e0ed8f6c"},"vehicle_type_id":"4","last_reported":1730981818,"current_range_meters":39200,"station_id":"ce4bhmp2rcd13ifvqgog","pricing_plan_id":"cebpf4jnsgd1na2vs0mg"},{"bike_id":"d1eef8ed-8492-4f33-b593-cbb9c4965d77","system_id":"levelo_inurba_marseille","lat":43.27493,"lon":5.42458,"is_reserved":false,"is_disabled":false,"rental_uris":{"android":"levelo://app?vid=d1eef8ed-8492-4f33-b593-cbb9c4965d77","ios":"levelo://app?vid=d1eef8ed-8492-4f33-b593-cbb9c4965d77"},"vehicle_type_id":"4","last_reported":1730981818,"current_range_meters":30400,"station_id":"ce4bhn92rcd13ifvqgrg","pricing_plan_id":"cebpf4jnsgd1na2vs0mg"},{"bike_id":"f4c9a353-b8df-4e25-a8dc-b8756d83db91","system_id":"levelo_inurba_marseille","lat":43.25498,"lon":5.37652,"is_reserved":false,"is_disabled":false,"rental_uris":{"android":"levelo://app?vid=f4c9a353-b8df-4e25-a8dc-b8756d83db91","ios":"levelo://app?vid=f4c9a353-b8df-4e25-a8dc-b8756d83db91"},"vehicle_type_id":"4","last_reported":1730981818,"current_range_meters":33200,"station_id":"ce4bhh12rcd13ifvqff0","pricing_plan_id":"cebpf4jnsgd1na2vs0mg"},{"bike_id":"3373b931-f968-4d34-8166-8e9d80fd9a4e","system_id":"levelo_inurba_marseille","lat":43.30176,"lon":5.36608,"is_reserved":false,"is_disabled":false,"rental_uris":{"android":"levelo://app?vid=3373b931-f968-4d34-8166-8e9d80fd9a4e","ios":"levelo://app?vid=3373b931-f968-4d34-8166-8e9d80fd9a4e"},"vehicle_type_id":"4","last_reported":1730981818,"current_range_meters":3600,"station_id":"ce4bgrh2rcd13ifvqc8g","pricing_plan_id":"cebpf4jnsgd1na2vs0mg"},{"bike_id":"9d696f74-b98f-4b00-9f07-06ed4abe3915","system_id":"levelo_inurba_marseille","lat":43.24081,"lon":5.37748,"is_reserved":false,"is_disabled":false,"rental_uris":{"android":"levelo://app?vid=9d696f74-b98f-4b00-9f07-06ed4abe3915","ios":"levelo://app?vid=9d696f74-b98f-4b00-9f07-06ed4abe3915"},"vehicle_type_id":"4","last_reported":1730981818,"current_range_meters":32000,"station_id":"ce4bhnp2rcd13ifvqgvg","pricing_plan_id":"cebpf4jnsgd1na2vs0mg"},{"bike_id":"f653ebca-ff32-4f7c-9fdc-b2ad9381391e","system_id":"levelo_inurba_marseille","lat":43.24077,"lon":5.37752,"is_reserved":false,"is_disabled":false,"rental_uris":{"android":"levelo://app?vid=f653ebca-ff32-4f7c-9fdc-b2ad9381391e","ios":"levelo://app?vid=f653ebca-ff32-4f7c-9fdc-b2ad9381391e"},"vehicle_type_id":"4","last_reported":1730981818,"current_range_meters":28800,"station_id":"ce4bhnp2rcd13ifvqgvg","pricing_plan_id":"cebpf4jnsgd1na2vs0mg"},{"bike_id":"2e20f2a1-b564-48ea-877a-8fba77b4c953","system_id":"levelo_inurba_marseille","lat":43.22922,"lon":5.3538,"is_reserved":false,"is_disabled":false,"rental_uris":{"android":"levelo://app?vid=2e20f2a1-b564-48ea-877a-8fba77b4c953","ios":"levelo://app?vid=2e20f2a1-b564-48ea-877a-8fba77b4c953"},"vehicle_type_id":"4","last_reported":1730981818,"current_range_meters":36800,"station_id":"cpo3532slgdg3j2ikp40","pricing_plan_id":"cebpf4jnsgd1na2vs0mg"},{"bike_id":"9342832e-6047-4f36-9373-29dcda21db05","system_id":"levelo_inurba_marseille","lat":43.24168,"lon":5.36395,"is_reserved":false,"is_disabled":false,"rental_uris":{"android":"levelo://app?vid=9342832e-6047-4f36-9373-29dcda21db05","ios":"levelo://app?vid=9342832e-6047-4f36-9373-29dcda21db05"},"vehicle_type_id":"4","last_reported":1730981818,"current_range_meters":8400,"station_id":"cpo36qri1sfpv3e86is0","pricing_plan_id":"cebpf4jnsgd1na2vs0mg"},{"bike_id":"2c943a5b-2683-45f2-a740-258d4646045b","system_id":"levelo_inurba_marseille","lat":43.29714,"lon":5.37685,"is_reserved":false,"is_disabled":false,"rental_uris":{"android":"levelo://app?vid=2c943a5b-2683-45f2-a740-258d4646045b","ios":"levelo://app?vid=2c943a5b-2683-45f2-a740-258d4646045b"},"vehicle_type_id":"4","last_reported":1730981818,"current_range_meters":36400,"station_id":"ce4bgkh2rcd13ifvqbl0","pricing_plan_id":"cebpf4jnsgd1na2vs0mg"},{"bike_id":"4df686f7-8cdc-4be1-bac7-404bbaea22b8","system_id":"levelo_inurba_marseille","lat":43.23968,"lon":5.36631,"is_reserved":false,"is_disabled":false,"rental_uris":{"android":"levelo://app?vid=4df686f7-8cdc-4be1-bac7-404bbaea22b8","ios":"levelo://app?vid=4df686f7-8cdc-4be1-bac7-404bbaea22b8"},"vehicle_type_id":"4","last_reported":1730981818,"current_range_meters":22800,"station_id":"ce4bhi12rcd13ifvqfp0","pricing_plan_id":"cebpf4jnsgd1na2vs0mg"},{"bike_id":"ac86fbff-3a3d-4013-99ce-4d18308341f2","system_id":"levelo_inurba_marseille","lat":43.24082,"lon":5.37741,"is_reserved":false,"is_disabled":false,"rental_uris":{"android":"levelo://app?vid=ac86fbff-3a3d-4013-99ce-4d18308341f2","ios":"levelo://app?vid=ac86fbff-3a3d-4013-99ce-4d18308341f2"},"vehicle_type_id":"4","last_reported":1730981818,"current_range_meters":2000,"station_id":"ce4bhnp2rcd13ifvqgvg","pricing_plan_id":"cebpf4jnsgd1na2vs0mg"},{"bike_id":"e2f62a7a-4a87-4252-a97d-2b736d23e924","system_id":"levelo_inurba_marseille","lat":43.29905,"lon":5.3747,"is_reserved":false,"is_disabled":false,"rental_uris":{"android":"levelo://app?vid=e2f62a7a-4a87-4252-a97d-2b736d23e924","ios":"levelo://app?vid=e2f62a7a-4a87-4252-a97d-2b736d23e924"},"vehicle_type_id":"4","last_reported":1730981818,"current_range_meters":28400,"station_id":"ce4bgjh2rcd13ifvqbg0","pricing_plan_id":"cebpf4jnsgd1na2vs0mg"},{"bike_id":"e3ee10fb-8b83-41c1-b250-bb9136e88156","system_id":"levelo_inurba_marseille","lat":43.24081,"lon":5.3774,"is_reserved":false,"is_disabled":false,"rental_uris":{"android":"levelo://app?vid=e3ee10fb-8b83-41c1-b250-bb9136e88156","ios":"levelo://app?vid=e3ee10fb-8b83-41c1-b250-bb9136e88156"},"vehicle_type_id":"4","last_reported":1730981818,"current_range_meters":20800,"station_id":"ce4bhnp2rcd13ifvqgvg","pricing_plan_id":"cebpf4jnsgd1na2vs0mg"},{"bike_id":"84c10ecf-fd70-42a4-91a9-a3bf7b0dfb61","system_id":"levelo_inurba_marseille","lat":43.29777,"lon":5.38114,"is_reserved":false,"is_disabled":false,"rental_uris":{"android":"levelo://app?vid=84c10ecf-fd70-42a4-91a9-a3bf7b0dfb61","ios":"levelo://app?vid=84c10ecf-fd70-42a4-91a9-a3bf7b0dfb61"},"vehicle_type_id":"4","last_reported":1730981818,"current_range_meters":13600,"station_id":"ce4bgip2rcd13ifvqbb0","pricing_plan_id":"cebpf4jnsgd1na2vs0mg"},{"bike_id":"388767b1-5454-4e5e-a6db-bfc2b5f2116d","system_id":"levelo_inurba_marseille","lat":43.30462,"lon":5.37914,"is_reserved":false,"is_disabled":false,"rental_uris":{"android":"levelo://app?vid=388767b1-5454-4e5e-a6db-bfc2b5f2116d","ios":"levelo://app?vid=388767b1-5454-4e5e-a6db-bfc2b5f2116d"},"vehicle_type_id":"4","last_reported":1730981818,"current_range_meters":8400,"station_id":"ce4bgup2rcd13ifvqcn0","pricing_plan_id":"cebpf4jnsgd1na2vs0mg"},{"bike_id":"f419084f-b7ce-4829-b2d2-2fcdddfe1315","system_id":"levelo_inurba_marseille","lat":43.24068,"lon":5.37763,"is_reserved":false,"is_disabled":false,"rental_uris":{"android":"levelo://app?vid=f419084f-b7ce-4829-b2d2-2fcdddfe1315","ios":"levelo://app?vid=f419084f-b7ce-4829-b2d2-2fcdddfe1315"},"vehicle_type_id":"4","last_reported":1730981818,"current_range_meters":22800,"station_id":"ce4bhnp2rcd13ifvqgvg","pricing_plan_id":"cebpf4jnsgd1na2vs0mg"},{"bike_id":"d9268651-4032-4fe1-908d-18172a14678b","system_id":"levelo_inurba_marseille","lat":43.29004,"lon":5.35607,"is_reserved":false,"is_disabled":false,"rental_uris":{"android":"levelo://app?vid=d9268651-4032-4fe1-908d-18172a14678b","ios":"levelo://app?vid=d9268651-4032-4fe1-908d-18172a14678b"},"vehicle_type_id":"4","last_reported":1730981818,"current_range_meters":38800,"station_id":"ce4bhb92rcd13ifvqen0","pricing_plan_id":"cebpf4jnsgd1na2vs0mg"},{"bike_id":"34db35d6-c534-453f-8026-9ad1841046bc","system_id":"levelo_inurba_marseille","lat":43.24163,"lon":5.36397,"is_reserved":false,"is_disabled":false,"rental_uris":{"android":"levelo://app?vid=34db35d6-c534-453f-8026-9ad1841046bc","ios":"levelo://app?vid=34db35d6-c534-453f-8026-9ad1841046bc"},"vehicle_type_id":"4","last_reported":1730981818,"current_range_meters":14400,"station_id":"cpo36qri1sfpv3e86is0","pricing_plan_id":"cebpf4jnsgd1na2vs0mg"},{"bike_id":"9601fdc1-87fc-4a56-962a-98df35ff45d9","system_id":"levelo_inurba_marseille","lat":43.31121,"lon":5.37773,"is_reserved":false,"is_disabled":false,"rental_uris":{"android":"levelo://app?vid=9601fdc1-87fc-4a56-962a-98df35ff45d9","ios":"levelo://app?vid=9601fdc1-87fc-4a56-962a-98df35ff45d9"},"vehicle_type_id":"4","last_reported":1730981818,"current_range_meters":37600,"station_id":"ce4bgt92rcd13ifvqcg0","pricing_plan_id":"cebpf4jnsgd1na2vs0mg"},{"bike_id":"3abaa40a-e468-4195-8a23-8b8fcf30ab1b","system_id":"levelo_inurba_marseille","lat":43.28347,"lon":5.38093,"is_reserved":false,"is_disabled":false,"rental_uris":{"android":"levelo://app?vid=3abaa40a-e468-4195-8a23-8b8fcf30ab1b","ios":"levelo://app?vid=3abaa40a-e468-4195-8a23-8b8fcf30ab1b"},"vehicle_type_id":"4","last_reported":1730981818,"current_range_meters":22000,"station_id":"ce4bh412rcd13ifvqdr0","pricing_plan_id":"cebpf4jnsgd1na2vs0mg"},{"bike_id":"7d4e8a8d-3659-4d3a-924f-ced17c814af1","system_id":"levelo_inurba_marseille","lat":43.30595,"lon":5.39346,"is_reserved":false,"is_disabled":false,"rental_uris":{"android":"levelo://app?vid=7d4e8a8d-3659-4d3a-924f-ced17c814af1","ios":"levelo://app?vid=7d4e8a8d-3659-4d3a-924f-ced17c814af1"},"vehicle_type_id":"4","last_reported":1730981818,"current_range_meters":38800,"station_id":"ce4bh0p2rcd13ifvqd80","pricing_plan_id":"cebpf4jnsgd1na2vs0mg"},{"bike_id":"e41e5be4-c508-4d61-b847-98292c01416f","system_id":"levelo_inurba_marseille","lat":43.24086,"lon":5.37741,"is_reserved":false,"is_disabled":false,"rental_uris":{"android":"levelo://app?vid=e41e5be4-c508-4d61-b847-98292c01416f","ios":"levelo://app?vid=e41e5be4-c508-4d61-b847-98292c01416f"},"vehicle_type_id":"4","last_reported":1730981818,"current_range_meters":33600,"station_id":"ce4bhnp2rcd13ifvqgvg","pricing_plan_id":"cebpf4jnsgd1na2vs0mg"},{"bike_id":"096d07ba-afa8-4872-a323-1ccdf8a7831a","system_id":"levelo_inurba_marseille","lat":43.28705,"lon":5.39991,"is_reserved":false,"is_disabled":false,"rental_uris":{"android":"levelo://app?vid=096d07ba-afa8-4872-a323-1ccdf8a7831a","ios":"levelo://app?vid=096d07ba-afa8-4872-a323-1ccdf8a7831a"},"vehicle_type_id":"4","last_reported":1730981818,"current_range_meters":11200,"station_id":"ce4bho92rcd13ifvqh3g","pricing_plan_id":"cebpf4jnsgd1na2vs0mg"},{"bike_id":"25e53efb-5f4f-419c-85a4-112e0c35a0f6","system_id":"levelo_inurba_marseille","lat":43.279507,"lon":5.387121,"is_reserved":false,"is_disabled":false,"rental_uris":{"android":"levelo://app?vid=25e53efb-5f4f-419c-85a4-112e0c35a0f6","ios":"levelo://app?vid=25e53efb-5f4f-419c-85a4-112e0c35a0f6"},"vehicle_type_id":"4","last_reported":1730981818,"current_range_meters":36000,"station_id":"ce4bhg12rcd13ifvqf80","pricing_plan_id":"cebpf4jnsgd1na2vs0mg"},{"bike_id":"56724e01-9843-478f-9957-90072d770c6c","system_id":"levelo_inurba_marseille","lat":43.23188,"lon":5.35551,"is_reserved":false,"is_disabled":false,"rental_uris":{"android":"levelo://app?vid=56724e01-9843-478f-9957-90072d770c6c","ios":"levelo://app?vid=56724e01-9843-478f-9957-90072d770c6c"},"vehicle_type_id":"4","last_reported":1730981818,"current_range_meters":10000,"station_id":"ce4bhu92rcd13ifvqi70","pricing_plan_id":"cebpf4jnsgd1na2vs0mg"},{"bike_id":"c9d92832-3dd5-44ae-8bc1-80fa950b155f","system_id":"levelo_inurba_marseille","lat":43.29522,"lon":5.37497,"is_reserved":false,"is_disabled":false,"rental_uris":{"android":"levelo://app?vid=c9d92832-3dd5-44ae-8bc1-80fa950b155f","ios":"levelo://app?vid=c9d92832-3dd5-44ae-8bc1-80fa950b155f"},"vehicle_type_id":"4","last_reported":1730981818,"current_range_meters":8800,"station_id":"ce4bgkp2rcd13ifvqbmg","pricing_plan_id":"cebpf4jnsgd1na2vs0mg"},{"bike_id":"2133dfbe-49e8-4189-a0e7-2637129ed1cc","system_id":"levelo_inurba_marseille","lat":43.30153,"lon":5.38084,"is_reserved":false,"is_disabled":false,"rental_uris":{"android":"levelo://app?vid=2133dfbe-49e8-4189-a0e7-2637129ed1cc","ios":"levelo://app?vid=2133dfbe-49e8-4189-a0e7-2637129ed1cc"},"vehicle_type_id":"4","last_reported":1730981818,"current_range_meters":12800,"station_id":"ce4bgjp2rcd13ifvqbh0","pricing_plan_id":"cebpf4jnsgd1na2vs0mg"},{"bike_id":"cde33d01-4fdf-4588-9993-50576e545d63","system_id":"levelo_inurba_marseille","lat":43.29899,"lon":5.43668,"is_reserved":false,"is_disabled":false,"rental_uris":{"android":"levelo://app?vid=cde33d01-4fdf-4588-9993-50576e545d63","ios":"levelo://app?vid=cde33d01-4fdf-4588-9993-50576e545d63"},"vehicle_type_id":"4","last_reported":1730981818,"current_range_meters":34000,"station_id":"ce4bhpp2rcd13ifvqhfg","pricing_plan_id":"cebpf4jnsgd1na2vs0mg"},{"bike_id":"9705d72a-643d-4150-bd42-e3b5c9b4f98f","system_id":"levelo_inurba_marseille","lat":43.288727,"lon":5.387757,"is_reserved":false,"is_disabled":false,"rental_uris":{"android":"levelo://app?vid=9705d72a-643d-4150-bd42-e3b5c9b4f98f","ios":"levelo://app?vid=9705d72a-643d-4150-bd42-e3b5c9b4f98f"},"vehicle_type_id":"4","last_reported":1730981818,"current_range_meters":38400,"station_id":"ce4bh4p2rcd13ifvqe0g","pricing_plan_id":"cebpf4jnsgd1na2vs0mg"},{"bike_id":"84d60574-e97d-416a-bb69-40e9fb469182","system_id":"levelo_inurba_marseille","lat":43.22928,"lon":5.35377,"is_reserved":false,"is_disabled":false,"rental_uris":{"android":"levelo://app?vid=84d60574-e97d-416a-bb69-40e9fb469182","ios":"levelo://app?vid=84d60574-e97d-416a-bb69-40e9fb469182"},"vehicle_type_id":"4","last_reported":1730981818,"current_range_meters":40000,"station_id":"cpo3532slgdg3j2ikp40","pricing_plan_id":"cebpf4jnsgd1na2vs0mg"},{"bike_id":"6677c91d-3e85-4d69-93bd-16eddf6f0c93","system_id":"levelo_inurba_marseille","lat":43.25866,"lon":5.39895,"is_reserved":false,"is_disabled":false,"rental_uris":{"android":"levelo://app?vid=6677c91d-3e85-4d69-93bd-16eddf6f0c93","ios":"levelo://app?vid=6677c91d-3e85-4d69-93bd-16eddf6f0c93"},"vehicle_type_id":"4","last_reported":1730981818,"current_range_meters":36800,"station_id":"ce4bhl92rcd13ifvqghg","pricing_plan_id":"cebpf4jnsgd1na2vs0mg"},{"bike_id":"34634ce2-f8c9-4afd-9d91-a815c55201fd","system_id":"levelo_inurba_marseille","lat":43.28393,"lon":5.40918,"is_reserved":false,"is_disabled":false,"rental_uris":{"android":"levelo://app?vid=34634ce2-f8c9-4afd-9d91-a815c55201fd","ios":"levelo://app?vid=34634ce2-f8c9-4afd-9d91-a815c55201fd"},"vehicle_type_id":"4","last_reported":1730981818,"current_range_meters":25600,"station_id":"","pricing_plan_id":"cebpf4jnsgd1na2vs0mg"},{"bike_id":"5eed7c4f-166a-423f-b11f-87a3edace396","system_id":"levelo_inurba_marseille","lat":43.25941,"lon":5.40902,"is_reserved":false,"is_disabled":false,"rental_uris":{"android":"levelo://app?vid=5eed7c4f-166a-423f-b11f-87a3edace396","ios":"levelo://app?vid=5eed7c4f-166a-423f-b11f-87a3edace396"},"vehicle_type_id":"4","last_reported":1730981818,"current_range_meters":6000,"station_id":"ce4bhm92rcd13ifvqglg","pricing_plan_id":"cebpf4jnsgd1na2vs0mg"},{"bike_id":"bfdd89d3-afe7-4069-81c1-9b6edfb549d7","system_id":"levelo_inurba_marseille","lat":43.29199,"lon":5.39315,"is_reserved":false,"is_disabled":false,"rental_uris":{"android":"levelo://app?vid=bfdd89d3-afe7-4069-81c1-9b6edfb549d7","ios":"levelo://app?vid=bfdd89d3-afe7-4069-81c1-9b6edfb549d7"},"vehicle_type_id":"4","last_reported":1730981818,"current_range_meters":9600,"station_id":"ce4bh192rcd13ifvqdd0","pricing_plan_id":"cebpf4jnsgd1na2vs0mg"},{"bike_id":"22407d56-9066-4258-a714-f13fe7eb454a","system_id":"levelo_inurba_marseille","lat":43.29191,"lon":5.39328,"is_reserved":false,"is_disabled":false,"rental_uris":{"android":"levelo://app?vid=22407d56-9066-4258-a714-f13fe7eb454a","ios":"levelo://app?vid=22407d56-9066-4258-a714-f13fe7eb454a"},"vehicle_type_id":"4","last_reported":1730981818,"current_range_meters":39200,"station_id":"ce4bh192rcd13ifvqdd0","pricing_plan_id":"cebpf4jnsgd1na2vs0mg"},{"bike_id":"5174ae6b-73b7-4eb9-b82e-9c61c1f78ce8","system_id":"levelo_inurba_marseille","lat":43.31228,"lon":5.40607,"is_reserved":false,"is_disabled":false,"rental_uris":{"android":"levelo://app?vid=5174ae6b-73b7-4eb9-b82e-9c61c1f78ce8","ios":"levelo://app?vid=5174ae6b-73b7-4eb9-b82e-9c61c1f78ce8"},"vehicle_type_id":"4","last_reported":1730981818,"current_range_meters":17200,"station_id":"","pricing_plan_id":"cebpf4jnsgd1na2vs0mg"},{"bike_id":"63e2c238-4362-42f9-b3e2-f038c4a1d015","system_id":"levelo_inurba_marseille","lat":43.32474,"lon":5.36552,"is_reserved":false,"is_disabled":false,"rental_uris":{"android":"levelo://app?vid=63e2c238-4362-42f9-b3e2-f038c4a1d015","ios":"levelo://app?vid=63e2c238-4362-42f9-b3e2-f038c4a1d015"},"vehicle_type_id":"4","last_reported":1730981818,"current_range_meters":32400,"station_id":"ce4bhs12rcd13ifvqhvg","pricing_plan_id":"cebpf4jnsgd1na2vs0mg"},{"bike_id":"dbdda8d4-cf10-4eef-99cc-0af832233252","system_id":"levelo_inurba_marseille","lat":43.34141,"lon":5.40907,"is_reserved":false,"is_disabled":false,"rental_uris":{"android":"levelo://app?vid=dbdda8d4-cf10-4eef-99cc-0af832233252","ios":"levelo://app?vid=dbdda8d4-cf10-4eef-99cc-0af832233252"},"vehicle_type_id":"4","last_reported":1730981818,"current_range_meters":7200,"station_id":"ce4bhqh2rcd13ifvqhlg","pricing_plan_id":"cebpf4jnsgd1na2vs0mg"},{"bike_id":"c3e27800-3ee3-4406-99ec-fa9ce1dee0ca","system_id":"levelo_inurba_marseille","lat":43.30532,"lon":5.36532,"is_reserved":false,"is_disabled":false,"rental_uris":{"android":"levelo://app?vid=c3e27800-3ee3-4406-99ec-fa9ce1dee0ca","ios":"levelo://app?vid=c3e27800-3ee3-4406-99ec-fa9ce1dee0ca"},"vehicle_type_id":"4","last_reported":1730981818,"current_range_meters":40000,"station_id":"ce4bgs12rcd13ifvqcag","pricing_plan_id":"cebpf4jnsgd1na2vs0mg"},{"bike_id":"e4514b24-38be-4b78-b84b-e2df015203eb","system_id":"levelo_inurba_marseille","lat":43.30082,"lon":5.39079,"is_reserved":false,"is_disabled":false,"rental_uris":{"android":"levelo://app?vid=e4514b24-38be-4b78-b84b-e2df015203eb","ios":"levelo://app?vid=e4514b24-38be-4b78-b84b-e2df015203eb"},"vehicle_type_id":"4","last_reported":1730981818,"current_range_meters":38800,"station_id":"","pricing_plan_id":"cebpf4jnsgd1na2vs0mg"},{"bike_id":"76733292-6685-4127-a6aa-dc0a61b373d8","system_id":"levelo_inurba_marseille","lat":43.23155,"lon":5.43711,"is_reserved":false,"is_disabled":false,"rental_uris":{"android":"levelo://app?vid=76733292-6685-4127-a6aa-dc0a61b373d8","ios":"levelo://app?vid=76733292-6685-4127-a6aa-dc0a61b373d8"},"vehicle_type_id":"4","last_reported":1730981818,"current_range_meters":36800,"station_id":"ce4bhmp2rcd13ifvqgog","pricing_plan_id":"cebpf4jnsgd1na2vs0mg"},{"bike_id":"ff236e09-c54b-4390-9920-00abb3380b02","system_id":"levelo_inurba_marseille","lat":43.30595,"lon":5.39356,"is_reserved":false,"is_disabled":false,"rental_uris":{"android":"levelo://app?vid=ff236e09-c54b-4390-9920-00abb3380b02","ios":"levelo://app?vid=ff236e09-c54b-4390-9920-00abb3380b02"},"vehicle_type_id":"4","last_reported":1730981818,"current_range_meters":39200,"station_id":"ce4bh0p2rcd13ifvqd80","pricing_plan_id":"cebpf4jnsgd1na2vs0mg"},{"bike_id":"4425573e-d73c-4468-ae36-c95cd2911915","system_id":"levelo_inurba_marseille","lat":43.30152,"lon":5.38078,"is_reserved":false,"is_disabled":false,"rental_uris":{"android":"levelo://app?vid=4425573e-d73c-4468-ae36-c95cd2911915","ios":"levelo://app?vid=4425573e-d73c-4468-ae36-c95cd2911915"},"vehicle_type_id":"4","last_reported":1730981818,"current_range_meters":30800,"station_id":"ce4bgjp2rcd13ifvqbh0","pricing_plan_id":"cebpf4jnsgd1na2vs0mg"},{"bike_id":"8583ccaf-fd13-4c53-aff9-38823b46349a","system_id":"levelo_inurba_marseille","lat":43.25579,"lon":5.38224,"is_reserved":false,"is_disabled":false,"rental_uris":{"android":"levelo://app?vid=8583ccaf-fd13-4c53-aff9-38823b46349a","ios":"levelo://app?vid=8583ccaf-fd13-4c53-aff9-38823b46349a"},"vehicle_type_id":"4","last_reported":1730981818,"current_range_meters":18800,"station_id":"ce4bhih2rcd13ifvqfs0","pricing_plan_id":"cebpf4jnsgd1na2vs0mg"},{"bike_id":"70236238-bb08-4f56-b4f3-c512cf7b30cd","system_id":"levelo_inurba_marseille","lat":43.24664,"lon":5.3817,"is_reserved":false,"is_disabled":false,"rental_uris":{"android":"levelo://app?vid=70236238-bb08-4f56-b4f3-c512cf7b30cd","ios":"levelo://app?vid=70236238-bb08-4f56-b4f3-c512cf7b30cd"},"vehicle_type_id":"4","last_reported":1730981818,"current_range_meters":15200,"station_id":"ce4bhih2rcd13ifvqfr0","pricing_plan_id":"cebpf4jnsgd1na2vs0mg"},{"bike_id":"cfd548a9-9751-45d5-a460-727fd76218c9","system_id":"levelo_inurba_marseille","lat":43.260651,"lon":5.393942,"is_reserved":false,"is_disabled":false,"rental_uris":{"android":"levelo://app?vid=cfd548a9-9751-45d5-a460-727fd76218c9","ios":"levelo://app?vid=cfd548a9-9751-45d5-a460-727fd76218c9"},"vehicle_type_id":"4","last_reported":1730981818,"current_range_meters":39200,"station_id":"ce4bhh92rcd13ifvqfj0","pricing_plan_id":"cebpf4jnsgd1na2vs0mg"},{"bike_id":"4248773d-10f9-4702-b039-01f222f6e57d","system_id":"levelo_inurba_marseille","lat":43.30331,"lon":5.40438,"is_reserved":false,"is_disabled":false,"rental_uris":{"android":"levelo://app?vid=4248773d-10f9-4702-b039-01f222f6e57d","ios":"levelo://app?vid=4248773d-10f9-4702-b039-01f222f6e57d"},"vehicle_type_id":"4","last_reported":1730981818,"current_range_meters":33200,"station_id":"ce4bh012rcd13ifvqd10","pricing_plan_id":"cebpf4jnsgd1na2vs0mg"},{"bike_id":"528d84ce-5dda-4a61-b7bd-1b3ee493d7f9","system_id":"levelo_inurba_marseille","lat":43.28472,"lon":5.38414,"is_reserved":false,"is_disabled":false,"rental_uris":{"android":"levelo://app?vid=528d84ce-5dda-4a61-b7bd-1b3ee493d7f9","ios":"levelo://app?vid=528d84ce-5dda-4a61-b7bd-1b3ee493d7f9"},"vehicle_type_id":"4","last_reported":1730981818,"current_range_meters":22800,"station_id":"ce4bh512rcd13ifvqe3g","pricing_plan_id":"cebpf4jnsgd1na2vs0mg"},{"bike_id":"167213ef-1f2e-4c37-90a6-0a3b5e442073","system_id":"levelo_inurba_marseille","lat":43.30144,"lon":5.38081,"is_reserved":false,"is_disabled":false,"rental_uris":{"android":"levelo://app?vid=167213ef-1f2e-4c37-90a6-0a3b5e442073","ios":"levelo://app?vid=167213ef-1f2e-4c37-90a6-0a3b5e442073"},"vehicle_type_id":"4","last_reported":1730981818,"current_range_meters":35200,"station_id":"ce4bgjp2rcd13ifvqbh0","pricing_plan_id":"cebpf4jnsgd1na2vs0mg"},{"bike_id":"15938eab-a2a7-4cb2-aa40-88822f3377ce","system_id":"levelo_inurba_marseille","lat":43.3151,"lon":5.37307,"is_reserved":false,"is_disabled":false,"rental_uris":{"android":"levelo://app?vid=15938eab-a2a7-4cb2-aa40-88822f3377ce","ios":"levelo://app?vid=15938eab-a2a7-4cb2-aa40-88822f3377ce"},"vehicle_type_id":"4","last_reported":1730981818,"current_range_meters":28800,"station_id":"ce4bgt12rcd13ifvqcd0","pricing_plan_id":"cebpf4jnsgd1na2vs0mg"},{"bike_id":"d619c91b-880c-4c6b-8f5a-fdbd568603fe","system_id":"levelo_inurba_marseille","lat":43.30602,"lon":5.37224,"is_reserved":false,"is_disabled":false,"rental_uris":{"android":"levelo://app?vid=d619c91b-880c-4c6b-8f5a-fdbd568603fe","ios":"levelo://app?vid=d619c91b-880c-4c6b-8f5a-fdbd568603fe"},"vehicle_type_id":"4","last_reported":1730981818,"current_range_meters":28400,"station_id":"ce4bgqh2rcd13ifvqc4g","pricing_plan_id":"cebpf4jnsgd1na2vs0mg"},{"bike_id":"b4f91c3a-3fb4-4ef3-b0f7-beb6b0860fe9","system_id":"levelo_inurba_marseille","lat":43.24057,"lon":5.37774,"is_reserved":false,"is_disabled":false,"rental_uris":{"android":"levelo://app?vid=b4f91c3a-3fb4-4ef3-b0f7-beb6b0860fe9","ios":"levelo://app?vid=b4f91c3a-3fb4-4ef3-b0f7-beb6b0860fe9"},"vehicle_type_id":"4","last_reported":1730981818,"current_range_meters":8400,"station_id":"ce4bhnp2rcd13ifvqgvg","pricing_plan_id":"cebpf4jnsgd1na2vs0mg"},{"bike_id":"f9b51361-1f59-4e32-8790-218894731a9c","system_id":"levelo_inurba_marseille","lat":43.23966,"lon":5.36625,"is_reserved":false,"is_disabled":false,"rental_uris":{"android":"levelo://app?vid=f9b51361-1f59-4e32-8790-218894731a9c","ios":"levelo://app?vid=f9b51361-1f59-4e32-8790-218894731a9c"},"vehicle_type_id":"4","last_reported":1730981818,"current_range_meters":32400,"station_id":"ce4bhi12rcd13ifvqfp0","pricing_plan_id":"cebpf4jnsgd1na2vs0mg"},{"bike_id":"48419d1f-1dd4-49d9-8576-fc4693112d3c","system_id":"levelo_inurba_marseille","lat":43.30587,"lon":5.39356,"is_reserved":false,"is_disabled":false,"rental_uris":{"android":"levelo://app?vid=48419d1f-1dd4-49d9-8576-fc4693112d3c","ios":"levelo://app?vid=48419d1f-1dd4-49d9-8576-fc4693112d3c"},"vehicle_type_id":"4","last_reported":1730981818,"current_range_meters":21600,"station_id":"ce4bh0p2rcd13ifvqd80","pricing_plan_id":"cebpf4jnsgd1na2vs0mg"},{"bike_id":"6c397028-147e-424f-9c74-f458b3eeeb06","system_id":"levelo_inurba_marseille","lat":43.31486,"lon":5.37309,"is_reserved":false,"is_disabled":false,"rental_uris":{"android":"levelo://app?vid=6c397028-147e-424f-9c74-f458b3eeeb06","ios":"levelo://app?vid=6c397028-147e-424f-9c74-f458b3eeeb06"},"vehicle_type_id":"4","last_reported":1730981818,"current_range_meters":26000,"station_id":"ce4bgt12rcd13ifvqcd0","pricing_plan_id":"cebpf4jnsgd1na2vs0mg"},{"bike_id":"859daa0a-3f11-49ca-8a62-8245f080da82","system_id":"levelo_inurba_marseille","lat":43.27494,"lon":5.42452,"is_reserved":false,"is_disabled":false,"rental_uris":{"android":"levelo://app?vid=859daa0a-3f11-49ca-8a62-8245f080da82","ios":"levelo://app?vid=859daa0a-3f11-49ca-8a62-8245f080da82"},"vehicle_type_id":"4","last_reported":1730981818,"current_range_meters":12400,"station_id":"ce4bhn92rcd13ifvqgrg","pricing_plan_id":"cebpf4jnsgd1na2vs0mg"},{"bike_id":"6db28662-ce69-418c-bf18-91733453ace9","system_id":"levelo_inurba_marseille","lat":43.2396,"lon":5.36634,"is_reserved":false,"is_disabled":false,"rental_uris":{"android":"levelo://app?vid=6db28662-ce69-418c-bf18-91733453ace9","ios":"levelo://app?vid=6db28662-ce69-418c-bf18-91733453ace9"},"vehicle_type_id":"4","last_reported":1730981818,"current_range_meters":3200,"station_id":"ce4bhi12rcd13ifvqfp0","pricing_plan_id":"cebpf4jnsgd1na2vs0mg"},{"bike_id":"73579928-e2e7-4f6c-b2ab-d967c3bfe602","system_id":"levelo_inurba_marseille","lat":43.30526,"lon":5.36533,"is_reserved":false,"is_disabled":false,"rental_uris":{"android":"levelo://app?vid=73579928-e2e7-4f6c-b2ab-d967c3bfe602","ios":"levelo://app?vid=73579928-e2e7-4f6c-b2ab-d967c3bfe602"},"vehicle_type_id":"4","last_reported":1730981818,"current_range_meters":7200,"station_id":"ce4bgs12rcd13ifvqcag","pricing_plan_id":"cebpf4jnsgd1na2vs0mg"},{"bike_id":"0d7114f2-4e4d-47ef-a69c-acdd5c771288","system_id":"levelo_inurba_marseille","lat":43.31487,"lon":5.37305,"is_reserved":false,"is_disabled":false,"rental_uris":{"android":"levelo://app?vid=0d7114f2-4e4d-47ef-a69c-acdd5c771288","ios":"levelo://app?vid=0d7114f2-4e4d-47ef-a69c-acdd5c771288"},"vehicle_type_id":"4","last_reported":1730981818,"current_range_meters":36800,"station_id":"ce4bgt12rcd13ifvqcd0","pricing_plan_id":"cebpf4jnsgd1na2vs0mg"},{"bike_id":"21b37299-84e4-4b5b-8bf6-49ee4ecf921e","system_id":"levelo_inurba_marseille","lat":43.23969,"lon":5.3664,"is_reserved":false,"is_disabled":false,"rental_uris":{"android":"levelo://app?vid=21b37299-84e4-4b5b-8bf6-49ee4ecf921e","ios":"levelo://app?vid=21b37299-84e4-4b5b-8bf6-49ee4ecf921e"},"vehicle_type_id":"4","last_reported":1730981818,"current_range_meters":39200,"station_id":"ce4bhi12rcd13ifvqfp0","pricing_plan_id":"cebpf4jnsgd1na2vs0mg"},{"bike_id":"4b67932a-96ea-49e1-9ff9-d70abe287a8e","system_id":"levelo_inurba_marseille","lat":43.29914,"lon":5.37467,"is_reserved":false,"is_disabled":false,"rental_uris":{"android":"levelo://app?vid=4b67932a-96ea-49e1-9ff9-d70abe287a8e","ios":"levelo://app?vid=4b67932a-96ea-49e1-9ff9-d70abe287a8e"},"vehicle_type_id":"4","last_reported":1730981818,"current_range_meters":28000,"station_id":"ce4bgjh2rcd13ifvqbg0","pricing_plan_id":"cebpf4jnsgd1na2vs0mg"},{"bike_id":"001b7c42-40a7-47a9-927f-6c03197892aa","system_id":"levelo_inurba_marseille","lat":43.33711,"lon":5.39178,"is_reserved":false,"is_disabled":false,"rental_uris":{"android":"levelo://app?vid=001b7c42-40a7-47a9-927f-6c03197892aa","ios":"levelo://app?vid=001b7c42-40a7-47a9-927f-6c03197892aa"},"vehicle_type_id":"4","last_reported":1730981818,"current_range_meters":40000,"station_id":"ce4bhr92rcd13ifvqhsg","pricing_plan_id":"cebpf4jnsgd1na2vs0mg"},{"bike_id":"32ff2f1f-9373-4020-8971-6f51bb3a3e91","system_id":"levelo_inurba_marseille","lat":43.24069,"lon":5.37762,"is_reserved":false,"is_disabled":false,"rental_uris":{"android":"levelo://app?vid=32ff2f1f-9373-4020-8971-6f51bb3a3e91","ios":"levelo://app?vid=32ff2f1f-9373-4020-8971-6f51bb3a3e91"},"vehicle_type_id":"4","last_reported":1730981818,"current_range_meters":12400,"station_id":"ce4bhnp2rcd13ifvqgvg","pricing_plan_id":"cebpf4jnsgd1na2vs0mg"},{"bike_id":"ae5e7c48-00ee-4540-871c-deef9d8b7181","system_id":"levelo_inurba_marseille","lat":43.30604,"lon":5.37221,"is_reserved":false,"is_disabled":false,"rental_uris":{"android":"levelo://app?vid=ae5e7c48-00ee-4540-871c-deef9d8b7181","ios":"levelo://app?vid=ae5e7c48-00ee-4540-871c-deef9d8b7181"},"vehicle_type_id":"4","last_reported":1730981818,"current_range_meters":24800,"station_id":"ce4bgqh2rcd13ifvqc4g","pricing_plan_id":"cebpf4jnsgd1na2vs0mg"},{"bike_id":"1a734c82-dcc8-4d3d-a318-7fd63d2ec81e","system_id":"levelo_inurba_marseille","lat":43.3228,"lon":5.38266,"is_reserved":false,"is_disabled":false,"rental_uris":{"android":"levelo://app?vid=1a734c82-dcc8-4d3d-a318-7fd63d2ec81e","ios":"levelo://app?vid=1a734c82-dcc8-4d3d-a318-7fd63d2ec81e"},"vehicle_type_id":"4","last_reported":1730981818,"current_range_meters":37600,"station_id":"ce4bhr12rcd13ifvqhqg","pricing_plan_id":"cebpf4jnsgd1na2vs0mg"},{"bike_id":"c4bce0dd-7e2e-4384-a9ee-7c09d20eead7","system_id":"levelo_inurba_marseille","lat":43.2408,"lon":5.37744,"is_reserved":false,"is_disabled":false,"rental_uris":{"android":"levelo://app?vid=c4bce0dd-7e2e-4384-a9ee-7c09d20eead7","ios":"levelo://app?vid=c4bce0dd-7e2e-4384-a9ee-7c09d20eead7"},"vehicle_type_id":"4","last_reported":1730981818,"current_range_meters":27200,"station_id":"ce4bhnp2rcd13ifvqgvg","pricing_plan_id":"cebpf4jnsgd1na2vs0mg"},{"bike_id":"e0cbbe96-7ef4-4be2-8ea3-2a371d9a6f14","system_id":"levelo_inurba_marseille","lat":43.292389,"lon":5.365924,"is_reserved":false,"is_disabled":false,"rental_uris":{"android":"levelo://app?vid=e0cbbe96-7ef4-4be2-8ea3-2a371d9a6f14","ios":"levelo://app?vid=e0cbbe96-7ef4-4be2-8ea3-2a371d9a6f14"},"vehicle_type_id":"4","last_reported":1730981818,"current_range_meters":15200,"station_id":"ce4bha92rcd13ifvqeg0","pricing_plan_id":"cebpf4jnsgd1na2vs0mg"},{"bike_id":"b7435ef5-727b-4311-8cc4-4dc5c2bf23c3","system_id":"levelo_inurba_marseille","lat":43.2407,"lon":5.37748,"is_reserved":false,"is_disabled":false,"rental_uris":{"android":"levelo://app?vid=b7435ef5-727b-4311-8cc4-4dc5c2bf23c3","ios":"levelo://app?vid=b7435ef5-727b-4311-8cc4-4dc5c2bf23c3"},"vehicle_type_id":"4","last_reported":1730981818,"current_range_meters":39200,"station_id":"ce4bhnp2rcd13ifvqgvg","pricing_plan_id":"cebpf4jnsgd1na2vs0mg"},{"bike_id":"26924467-28a2-4224-8e1c-253d61a86f51","system_id":"levelo_inurba_marseille","lat":43.3375,"lon":5.37466,"is_reserved":false,"is_disabled":false,"rental_uris":{"android":"levelo://app?vid=26924467-28a2-4224-8e1c-253d61a86f51","ios":"levelo://app?vid=26924467-28a2-4224-8e1c-253d61a86f51"},"vehicle_type_id":"4","last_reported":1730981818,"current_range_meters":38000,"station_id":"","pricing_plan_id":"cebpf4jnsgd1na2vs0mg"},{"bike_id":"b727744b-d032-4576-9b28-52f7ced5c1bf","system_id":"levelo_inurba_marseille","lat":43.325357,"lon":5.375765,"is_reserved":false,"is_disabled":false,"rental_uris":{"android":"levelo://app?vid=b727744b-d032-4576-9b28-52f7ced5c1bf","ios":"levelo://app?vid=b727744b-d032-4576-9b28-52f7ced5c1bf"},"vehicle_type_id":"4","last_reported":1730981818,"current_range_meters":24000,"station_id":"ce4bhq12rcd13ifvqhhg","pricing_plan_id":"cebpf4jnsgd1na2vs0mg"},{"bike_id":"38f7f91d-e209-47ff-86c1-f7ed0840cdbf","system_id":"levelo_inurba_marseille","lat":43.29276,"lon":5.40113,"is_reserved":false,"is_disabled":false,"rental_uris":{"android":"levelo://app?vid=38f7f91d-e209-47ff-86c1-f7ed0840cdbf","ios":"levelo://app?vid=38f7f91d-e209-47ff-86c1-f7ed0840cdbf"},"vehicle_type_id":"4","last_reported":1730981818,"current_range_meters":24000,"station_id":"ce4bh312rcd13ifvqdk0","pricing_plan_id":"cebpf4jnsgd1na2vs0mg"},{"bike_id":"e831571d-8c71-447f-8264-0d693a5bfc98","system_id":"levelo_inurba_marseille","lat":43.30147,"lon":5.38081,"is_reserved":false,"is_disabled":false,"rental_uris":{"android":"levelo://app?vid=e831571d-8c71-447f-8264-0d693a5bfc98","ios":"levelo://app?vid=e831571d-8c71-447f-8264-0d693a5bfc98"},"vehicle_type_id":"4","last_reported":1730981818,"current_range_meters":35600,"station_id":"ce4bgjp2rcd13ifvqbh0","pricing_plan_id":"cebpf4jnsgd1na2vs0mg"},{"bike_id":"b3efa261-435a-4d71-be02-67992b1c969c","system_id":"levelo_inurba_marseille","lat":43.30147,"lon":5.38077,"is_reserved":false,"is_disabled":false,"rental_uris":{"android":"levelo://app?vid=b3efa261-435a-4d71-be02-67992b1c969c","ios":"levelo://app?vid=b3efa261-435a-4d71-be02-67992b1c969c"},"vehicle_type_id":"4","last_reported":1730981818,"current_range_meters":12000,"station_id":"ce4bgjp2rcd13ifvqbh0","pricing_plan_id":"cebpf4jnsgd1na2vs0mg"},{"bike_id":"96bbe4b9-c3df-4eb3-8e8f-0dd163426af7","system_id":"levelo_inurba_marseille","lat":43.27486,"lon":5.42454,"is_reserved":false,"is_disabled":false,"rental_uris":{"android":"levelo://app?vid=96bbe4b9-c3df-4eb3-8e8f-0dd163426af7","ios":"levelo://app?vid=96bbe4b9-c3df-4eb3-8e8f-0dd163426af7"},"vehicle_type_id":"4","last_reported":1730981818,"current_range_meters":30800,"station_id":"ce4bhn92rcd13ifvqgrg","pricing_plan_id":"cebpf4jnsgd1na2vs0mg"},{"bike_id":"52af7a3b-ddda-465a-a3b9-5cc6f08e1552","system_id":"levelo_inurba_marseille","lat":43.24161,"lon":5.36397,"is_reserved":false,"is_disabled":false,"rental_uris":{"android":"levelo://app?vid=52af7a3b-ddda-465a-a3b9-5cc6f08e1552","ios":"levelo://app?vid=52af7a3b-ddda-465a-a3b9-5cc6f08e1552"},"vehicle_type_id":"4","last_reported":1730981818,"current_range_meters":14800,"station_id":"cpo36qri1sfpv3e86is0","pricing_plan_id":"cebpf4jnsgd1na2vs0mg"},{"bike_id":"8a76bcd1-0f5e-4170-8a69-1f04e611da97","system_id":"levelo_inurba_marseille","lat":43.32483,"lon":5.36565,"is_reserved":false,"is_disabled":false,"rental_uris":{"android":"levelo://app?vid=8a76bcd1-0f5e-4170-8a69-1f04e611da97","ios":"levelo://app?vid=8a76bcd1-0f5e-4170-8a69-1f04e611da97"},"vehicle_type_id":"4","last_reported":1730981818,"current_range_meters":11600,"station_id":"ce4bhs12rcd13ifvqhvg","pricing_plan_id":"cebpf4jnsgd1na2vs0mg"},{"bike_id":"186d9995-4644-4dc9-ab30-10648929078f","system_id":"levelo_inurba_marseille","lat":43.30537,"lon":5.38409,"is_reserved":false,"is_disabled":false,"rental_uris":{"android":"levelo://app?vid=186d9995-4644-4dc9-ab30-10648929078f","ios":"levelo://app?vid=186d9995-4644-4dc9-ab30-10648929078f"},"vehicle_type_id":"4","last_reported":1730981818,"current_range_meters":40000,"station_id":"ce4bgg92rcd13ifvqb30","pricing_plan_id":"cebpf4jnsgd1na2vs0mg"},{"bike_id":"c85b7568-8bdf-4c8d-9e39-8c322a011a63","system_id":"levelo_inurba_marseille","lat":43.28702,"lon":5.39987,"is_reserved":false,"is_disabled":false,"rental_uris":{"android":"levelo://app?vid=c85b7568-8bdf-4c8d-9e39-8c322a011a63","ios":"levelo://app?vid=c85b7568-8bdf-4c8d-9e39-8c322a011a63"},"vehicle_type_id":"4","last_reported":1730981818,"current_range_meters":2800,"station_id":"ce4bho92rcd13ifvqh3g","pricing_plan_id":"cebpf4jnsgd1na2vs0mg"},{"bike_id":"3f4fc512-c09e-425c-8600-f50abb41362b","system_id":"levelo_inurba_marseille","lat":43.27494,"lon":5.42452,"is_reserved":false,"is_disabled":false,"rental_uris":{"android":"levelo://app?vid=3f4fc512-c09e-425c-8600-f50abb41362b","ios":"levelo://app?vid=3f4fc512-c09e-425c-8600-f50abb41362b"},"vehicle_type_id":"4","last_reported":1730981818,"current_range_meters":32000,"station_id":"ce4bhn92rcd13ifvqgrg","pricing_plan_id":"cebpf4jnsgd1na2vs0mg"},{"bike_id":"a673c9d4-402f-4020-9d6e-4fcbb6a92127","system_id":"levelo_inurba_marseille","lat":43.29965,"lon":5.38489,"is_reserved":false,"is_disabled":false,"rental_uris":{"android":"levelo://app?vid=a673c9d4-402f-4020-9d6e-4fcbb6a92127","ios":"levelo://app?vid=a673c9d4-402f-4020-9d6e-4fcbb6a92127"},"vehicle_type_id":"4","last_reported":1730981818,"current_range_meters":35200,"station_id":"ce4bgj92rcd13ifvqbd0","pricing_plan_id":"cebpf4jnsgd1na2vs0mg"},{"bike_id":"caaaa4a1-06c0-4b85-817c-42c384330249","system_id":"levelo_inurba_marseille","lat":43.34146,"lon":5.40899,"is_reserved":false,"is_disabled":false,"rental_uris":{"android":"levelo://app?vid=caaaa4a1-06c0-4b85-817c-42c384330249","ios":"levelo://app?vid=caaaa4a1-06c0-4b85-817c-42c384330249"},"vehicle_type_id":"4","last_reported":1730981818,"current_range_meters":17200,"station_id":"ce4bhqh2rcd13ifvqhlg","pricing_plan_id":"cebpf4jnsgd1na2vs0mg"},{"bike_id":"bed4004a-21ef-45fd-9bd7-62af360c69bf","system_id":"levelo_inurba_marseille","lat":43.24079,"lon":5.37738,"is_reserved":false,"is_disabled":false,"rental_uris":{"android":"levelo://app?vid=bed4004a-21ef-45fd-9bd7-62af360c69bf","ios":"levelo://app?vid=bed4004a-21ef-45fd-9bd7-62af360c69bf"},"vehicle_type_id":"4","last_reported":1730981818,"current_range_meters":28800,"station_id":"ce4bhnp2rcd13ifvqgvg","pricing_plan_id":"cebpf4jnsgd1na2vs0mg"},{"bike_id":"1471260f-3ca4-4822-b303-9e17b1b61439","system_id":"levelo_inurba_marseille","lat":43.24661,"lon":5.38162,"is_reserved":false,"is_disabled":false,"rental_uris":{"android":"levelo://app?vid=1471260f-3ca4-4822-b303-9e17b1b61439","ios":"levelo://app?vid=1471260f-3ca4-4822-b303-9e17b1b61439"},"vehicle_type_id":"4","last_reported":1730981818,"current_range_meters":27600,"station_id":"ce4bhih2rcd13ifvqfr0","pricing_plan_id":"cebpf4jnsgd1na2vs0mg"},{"bike_id":"cdd64da5-123d-44db-8157-5473e1626676","system_id":"levelo_inurba_marseille","lat":43.29586,"lon":5.36743,"is_reserved":false,"is_disabled":false,"rental_uris":{"android":"levelo://app?vid=cdd64da5-123d-44db-8157-5473e1626676","ios":"levelo://app?vid=cdd64da5-123d-44db-8157-5473e1626676"},"vehicle_type_id":"4","last_reported":1730981818,"current_range_meters":35200,"station_id":"ce4bgph2rcd13ifvqc2g","pricing_plan_id":"cebpf4jnsgd1na2vs0mg"},{"bike_id":"6ca21a9b-f313-4e77-9203-0e84675abc78","system_id":"levelo_inurba_marseille","lat":43.31705,"lon":5.37762,"is_reserved":false,"is_disabled":false,"rental_uris":{"android":"levelo://app?vid=6ca21a9b-f313-4e77-9203-0e84675abc78","ios":"levelo://app?vid=6ca21a9b-f313-4e77-9203-0e84675abc78"},"vehicle_type_id":"4","last_reported":1730981818,"current_range_meters":38400,"station_id":"ce4bgth2rcd13ifvqch0","pricing_plan_id":"cebpf4jnsgd1na2vs0mg"},{"bike_id":"b7af5fe1-1ffc-4983-a28e-5e881777edc3","system_id":"levelo_inurba_marseille","lat":43.25929,"lon":5.40909,"is_reserved":false,"is_disabled":false,"rental_uris":{"android":"levelo://app?vid=b7af5fe1-1ffc-4983-a28e-5e881777edc3","ios":"levelo://app?vid=b7af5fe1-1ffc-4983-a28e-5e881777edc3"},"vehicle_type_id":"4","last_reported":1730981818,"current_range_meters":16400,"station_id":"ce4bhm92rcd13ifvqglg","pricing_plan_id":"cebpf4jnsgd1na2vs0mg"},{"bike_id":"31370be7-bd9c-4a97-a16e-8d6a5ceded68","system_id":"levelo_inurba_marseille","lat":43.31345,"lon":5.36705,"is_reserved":false,"is_disabled":false,"rental_uris":{"android":"levelo://app?vid=31370be7-bd9c-4a97-a16e-8d6a5ceded68","ios":"levelo://app?vid=31370be7-bd9c-4a97-a16e-8d6a5ceded68"},"vehicle_type_id":"4","last_reported":1730981818,"current_range_meters":30400,"station_id":"ce4bgr92rcd13ifvqc6g","pricing_plan_id":"cebpf4jnsgd1na2vs0mg"},{"bike_id":"26ee007d-c521-4271-a726-fe0c9aeca07e","system_id":"levelo_inurba_marseille","lat":43.33109,"lon":5.38214,"is_reserved":false,"is_disabled":false,"rental_uris":{"android":"levelo://app?vid=26ee007d-c521-4271-a726-fe0c9aeca07e","ios":"levelo://app?vid=26ee007d-c521-4271-a726-fe0c9aeca07e"},"vehicle_type_id":"4","last_reported":1730981818,"current_range_meters":8400,"station_id":"","pricing_plan_id":"cebpf4jnsgd1na2vs0mg"},{"bike_id":"653db6b1-fa22-45c6-bbd7-c64f6da0dac7","system_id":"levelo_inurba_marseille","lat":43.28722,"lon":5.37937,"is_reserved":false,"is_disabled":false,"rental_uris":{"android":"levelo://app?vid=653db6b1-fa22-45c6-bbd7-c64f6da0dac7","ios":"levelo://app?vid=653db6b1-fa22-45c6-bbd7-c64f6da0dac7"},"vehicle_type_id":"4","last_reported":1730981818,"current_range_meters":18000,"station_id":"ce4bh9p2rcd13ifvqec0","pricing_plan_id":"cebpf4jnsgd1na2vs0mg"},{"bike_id":"46c465ff-dd17-41d5-b0c5-79c771cf82ee","system_id":"levelo_inurba_marseille","lat":43.301422,"lon":5.380847,"is_reserved":false,"is_disabled":false,"rental_uris":{"android":"levelo://app?vid=46c465ff-dd17-41d5-b0c5-79c771cf82ee","ios":"levelo://app?vid=46c465ff-dd17-41d5-b0c5-79c771cf82ee"},"vehicle_type_id":"4","last_reported":1730981818,"current_range_meters":35600,"station_id":"ce4bhah2rcd13ifvqei0","pricing_plan_id":"cebpf4jnsgd1na2vs0mg"},{"bike_id":"a942de77-8407-4cfd-b1fe-9f4d3f1d7985","system_id":"levelo_inurba_marseille","lat":43.30582,"lon":5.39353,"is_reserved":false,"is_disabled":false,"rental_uris":{"android":"levelo://app?vid=a942de77-8407-4cfd-b1fe-9f4d3f1d7985","ios":"levelo://app?vid=a942de77-8407-4cfd-b1fe-9f4d3f1d7985"},"vehicle_type_id":"4","last_reported":1730981818,"current_range_meters":30000,"station_id":"ce4bh0p2rcd13ifvqd80","pricing_plan_id":"cebpf4jnsgd1na2vs0mg"},{"bike_id":"f2a5f36c-6089-4a5c-96f3-00a46163f75b","system_id":"levelo_inurba_marseille","lat":43.28942,"lon":5.36401,"is_reserved":false,"is_disabled":false,"rental_uris":{"android":"levelo://app?vid=f2a5f36c-6089-4a5c-96f3-00a46163f75b","ios":"levelo://app?vid=f2a5f36c-6089-4a5c-96f3-00a46163f75b"},"vehicle_type_id":"4","last_reported":1730981818,"current_range_meters":15200,"station_id":"ce4bhc92rcd13ifvqetg","pricing_plan_id":"cebpf4jnsgd1na2vs0mg"},{"bike_id":"278e0d2f-d5f1-4d9c-927e-215ce3f34a28","system_id":"levelo_inurba_marseille","lat":43.2872,"lon":5.37933,"is_reserved":false,"is_disabled":false,"rental_uris":{"android":"levelo://app?vid=278e0d2f-d5f1-4d9c-927e-215ce3f34a28","ios":"levelo://app?vid=278e0d2f-d5f1-4d9c-927e-215ce3f34a28"},"vehicle_type_id":"4","last_reported":1730981818,"current_range_meters":9600,"station_id":"ce4bh9p2rcd13ifvqec0","pricing_plan_id":"cebpf4jnsgd1na2vs0mg"},{"bike_id":"63679012-d0a0-44a9-a805-20815a46a99d","system_id":"levelo_inurba_marseille","lat":43.30791,"lon":5.400264,"is_reserved":false,"is_disabled":false,"rental_uris":{"android":"levelo://app?vid=63679012-d0a0-44a9-a805-20815a46a99d","ios":"levelo://app?vid=63679012-d0a0-44a9-a805-20815a46a99d"},"vehicle_type_id":"4","last_reported":1730981818,"current_range_meters":8000,"station_id":"","pricing_plan_id":"cebpf4jnsgd1na2vs0mg"},{"bike_id":"641f2b17-95bc-47d2-9497-15037a737bd1","system_id":"levelo_inurba_marseille","lat":43.25583,"lon":5.38232,"is_reserved":false,"is_disabled":false,"rental_uris":{"android":"levelo://app?vid=641f2b17-95bc-47d2-9497-15037a737bd1","ios":"levelo://app?vid=641f2b17-95bc-47d2-9497-15037a737bd1"},"vehicle_type_id":"4","last_reported":1730981818,"current_range_meters":25200,"station_id":"ce4bhih2rcd13ifvqfs0","pricing_plan_id":"cebpf4jnsgd1na2vs0mg"},{"bike_id":"f19e21fc-3fb8-4be5-8aae-3b3f9019566c","system_id":"levelo_inurba_marseille","lat":43.30545,"lon":5.36525,"is_reserved":false,"is_disabled":false,"rental_uris":{"android":"levelo://app?vid=f19e21fc-3fb8-4be5-8aae-3b3f9019566c","ios":"levelo://app?vid=f19e21fc-3fb8-4be5-8aae-3b3f9019566c"},"vehicle_type_id":"4","last_reported":1730981818,"current_range_meters":38000,"station_id":"ce4bgs12rcd13ifvqcag","pricing_plan_id":"cebpf4jnsgd1na2vs0mg"},{"bike_id":"0562544a-b79d-473e-a168-4b06e39e4c5b","system_id":"levelo_inurba_marseille","lat":43.32482,"lon":5.36563,"is_reserved":false,"is_disabled":false,"rental_uris":{"android":"levelo://app?vid=0562544a-b79d-473e-a168-4b06e39e4c5b","ios":"levelo://app?vid=0562544a-b79d-473e-a168-4b06e39e4c5b"},"vehicle_type_id":"4","last_reported":1730981818,"current_range_meters":31200,"station_id":"ce4bhs12rcd13ifvqhvg","pricing_plan_id":"cebpf4jnsgd1na2vs0mg"},{"bike_id":"1c86f8f8-9aa3-4252-8784-54d8e9a6bf42","system_id":"levelo_inurba_marseille","lat":43.2918,"lon":5.39327,"is_reserved":false,"is_disabled":false,"rental_uris":{"android":"levelo://app?vid=1c86f8f8-9aa3-4252-8784-54d8e9a6bf42","ios":"levelo://app?vid=1c86f8f8-9aa3-4252-8784-54d8e9a6bf42"},"vehicle_type_id":"4","last_reported":1730981818,"current_range_meters":33600,"station_id":"ce4bh192rcd13ifvqdd0","pricing_plan_id":"cebpf4jnsgd1na2vs0mg"},{"bike_id":"0df07d6f-3731-4658-8f4f-c613542b3c1d","system_id":"levelo_inurba_marseille","lat":43.28933,"lon":5.36396,"is_reserved":false,"is_disabled":false,"rental_uris":{"android":"levelo://app?vid=0df07d6f-3731-4658-8f4f-c613542b3c1d","ios":"levelo://app?vid=0df07d6f-3731-4658-8f4f-c613542b3c1d"},"vehicle_type_id":"4","last_reported":1730981818,"current_range_meters":38800,"station_id":"ce4bhc92rcd13ifvqetg","pricing_plan_id":"cebpf4jnsgd1na2vs0mg"},{"bike_id":"f4c05e09-e3f7-4300-bfdc-1a70bedeb6ed","system_id":"levelo_inurba_marseille","lat":43.2318,"lon":5.39996,"is_reserved":false,"is_disabled":false,"rental_uris":{"android":"levelo://app?vid=f4c05e09-e3f7-4300-bfdc-1a70bedeb6ed","ios":"levelo://app?vid=f4c05e09-e3f7-4300-bfdc-1a70bedeb6ed"},"vehicle_type_id":"4","last_reported":1730981818,"current_range_meters":3200,"station_id":"ce4bhn12rcd13ifvqgqg","pricing_plan_id":"cebpf4jnsgd1na2vs0mg"},{"bike_id":"036644b3-4035-4b02-b63a-112d8ddce538","system_id":"levelo_inurba_marseille","lat":43.30277,"lon":5.37704,"is_reserved":false,"is_disabled":false,"rental_uris":{"android":"levelo://app?vid=036644b3-4035-4b02-b63a-112d8ddce538","ios":"levelo://app?vid=036644b3-4035-4b02-b63a-112d8ddce538"},"vehicle_type_id":"4","last_reported":1730981818,"current_range_meters":26000,"station_id":"ce4bguh2rcd13ifvqcj0","pricing_plan_id":"cebpf4jnsgd1na2vs0mg"},{"bike_id":"692c5516-804f-4484-905e-e2361d8db851","system_id":"levelo_inurba_marseille","lat":43.24078,"lon":5.37753,"is_reserved":false,"is_disabled":false,"rental_uris":{"android":"levelo://app?vid=692c5516-804f-4484-905e-e2361d8db851","ios":"levelo://app?vid=692c5516-804f-4484-905e-e2361d8db851"},"vehicle_type_id":"4","last_reported":1730981818,"current_range_meters":38000,"station_id":"ce4bhnp2rcd13ifvqgvg","pricing_plan_id":"cebpf4jnsgd1na2vs0mg"},{"bike_id":"71c07c65-7635-45f1-b69e-3f839c6f33cd","system_id":"levelo_inurba_marseille","lat":43.29283,"lon":5.37442,"is_reserved":false,"is_disabled":false,"rental_uris":{"android":"levelo://app?vid=71c07c65-7635-45f1-b69e-3f839c6f33cd","ios":"levelo://app?vid=71c07c65-7635-45f1-b69e-3f839c6f33cd"},"vehicle_type_id":"4","last_reported":1730981818,"current_range_meters":1600,"station_id":"ce4bgi12rcd13ifvqb70","pricing_plan_id":"cebpf4jnsgd1na2vs0mg"},{"bike_id":"a5df532e-10e3-446a-adac-0a1d77087d3d","system_id":"levelo_inurba_marseille","lat":43.23148,"lon":5.43704,"is_reserved":false,"is_disabled":false,"rental_uris":{"android":"levelo://app?vid=a5df532e-10e3-446a-adac-0a1d77087d3d","ios":"levelo://app?vid=a5df532e-10e3-446a-adac-0a1d77087d3d"},"vehicle_type_id":"4","last_reported":1730981818,"current_range_meters":16400,"station_id":"ce4bhmp2rcd13ifvqgog","pricing_plan_id":"cebpf4jnsgd1na2vs0mg"},{"bike_id":"d6fc863a-15cc-43a6-ac33-232998020e08","system_id":"levelo_inurba_marseille","lat":43.30465,"lon":5.37908,"is_reserved":false,"is_disabled":false,"rental_uris":{"android":"levelo://app?vid=d6fc863a-15cc-43a6-ac33-232998020e08","ios":"levelo://app?vid=d6fc863a-15cc-43a6-ac33-232998020e08"},"vehicle_type_id":"4","last_reported":1730981818,"current_range_meters":9600,"station_id":"ce4bgup2rcd13ifvqcn0","pricing_plan_id":"cebpf4jnsgd1na2vs0mg"},{"bike_id":"12f83d46-5599-4659-bee2-8d96df1e73dc","system_id":"levelo_inurba_marseille","lat":43.309182,"lon":5.368483,"is_reserved":false,"is_disabled":false,"rental_uris":{"android":"levelo://app?vid=12f83d46-5599-4659-bee2-8d96df1e73dc","ios":"levelo://app?vid=12f83d46-5599-4659-bee2-8d96df1e73dc"},"vehicle_type_id":"4","last_reported":1730981818,"current_range_meters":32800,"station_id":"ce4bgn92rcd13ifvqbvg","pricing_plan_id":"cebpf4jnsgd1na2vs0mg"},{"bike_id":"9c3169c5-7306-4ddc-9f15-d6bb8c9cdea4","system_id":"levelo_inurba_marseille","lat":43.27488,"lon":5.42459,"is_reserved":false,"is_disabled":false,"rental_uris":{"android":"levelo://app?vid=9c3169c5-7306-4ddc-9f15-d6bb8c9cdea4","ios":"levelo://app?vid=9c3169c5-7306-4ddc-9f15-d6bb8c9cdea4"},"vehicle_type_id":"4","last_reported":1730981818,"current_range_meters":28400,"station_id":"ce4bhn92rcd13ifvqgrg","pricing_plan_id":"cebpf4jnsgd1na2vs0mg"},{"bike_id":"745864c2-39c8-45dd-8b55-da9cbe50a5d3","system_id":"levelo_inurba_marseille","lat":43.2951,"lon":5.37499,"is_reserved":false,"is_disabled":false,"rental_uris":{"android":"levelo://app?vid=745864c2-39c8-45dd-8b55-da9cbe50a5d3","ios":"levelo://app?vid=745864c2-39c8-45dd-8b55-da9cbe50a5d3"},"vehicle_type_id":"4","last_reported":1730981818,"current_range_meters":30400,"station_id":"ce4bgkp2rcd13ifvqbmg","pricing_plan_id":"cebpf4jnsgd1na2vs0mg"},{"bike_id":"24aa7e6d-34a6-4011-a91e-bc2844bcb9c7","system_id":"levelo_inurba_marseille","lat":43.29887,"lon":5.38895,"is_reserved":false,"is_disabled":false,"rental_uris":{"android":"levelo://app?vid=24aa7e6d-34a6-4011-a91e-bc2844bcb9c7","ios":"levelo://app?vid=24aa7e6d-34a6-4011-a91e-bc2844bcb9c7"},"vehicle_type_id":"4","last_reported":1730981818,"current_range_meters":11200,"station_id":"ce4bh392rcd13ifvqdl0","pricing_plan_id":"cebpf4jnsgd1na2vs0mg"},{"bike_id":"36153b14-6899-4dc9-bb07-6cb848f80ec1","system_id":"levelo_inurba_marseille","lat":43.27312,"lon":5.39056,"is_reserved":false,"is_disabled":false,"rental_uris":{"android":"levelo://app?vid=36153b14-6899-4dc9-bb07-6cb848f80ec1","ios":"levelo://app?vid=36153b14-6899-4dc9-bb07-6cb848f80ec1"},"vehicle_type_id":"4","last_reported":1730981818,"current_range_meters":35600,"station_id":"ce4bhgp2rcd13ifvqfe0","pricing_plan_id":"cebpf4jnsgd1na2vs0mg"},{"bike_id":"f0af1873-117f-4176-988b-7bbf7d14df74","system_id":"levelo_inurba_marseille","lat":43.22928,"lon":5.35377,"is_reserved":false,"is_disabled":false,"rental_uris":{"android":"levelo://app?vid=f0af1873-117f-4176-988b-7bbf7d14df74","ios":"levelo://app?vid=f0af1873-117f-4176-988b-7bbf7d14df74"},"vehicle_type_id":"4","last_reported":1730981818,"current_range_meters":38000,"station_id":"cpo3532slgdg3j2ikp40","pricing_plan_id":"cebpf4jnsgd1na2vs0mg"},{"bike_id":"60fb57d6-a26b-4273-9359-8da07cdc0e17","system_id":"levelo_inurba_marseille","lat":43.23156,"lon":5.43709,"is_reserved":false,"is_disabled":false,"rental_uris":{"android":"levelo://app?vid=60fb57d6-a26b-4273-9359-8da07cdc0e17","ios":"levelo://app?vid=60fb57d6-a26b-4273-9359-8da07cdc0e17"},"vehicle_type_id":"4","last_reported":1730981818,"current_range_meters":24800,"station_id":"ce4bhmp2rcd13ifvqgog","pricing_plan_id":"cebpf4jnsgd1na2vs0mg"},{"bike_id":"e9586f1a-0237-4fe9-9d55-9d787de95400","system_id":"levelo_inurba_marseille","lat":43.24993,"lon":5.38931,"is_reserved":false,"is_disabled":false,"rental_uris":{"android":"levelo://app?vid=e9586f1a-0237-4fe9-9d55-9d787de95400","ios":"levelo://app?vid=e9586f1a-0237-4fe9-9d55-9d787de95400"},"vehicle_type_id":"4","last_reported":1730981818,"current_range_meters":11200,"station_id":"ce4bhgp2rcd13ifvqfd0","pricing_plan_id":"cebpf4jnsgd1na2vs0mg"},{"bike_id":"52442fe4-4d17-4468-94b8-0d97e7a99030","system_id":"levelo_inurba_marseille","lat":43.28841,"lon":5.39312,"is_reserved":false,"is_disabled":false,"rental_uris":{"android":"levelo://app?vid=52442fe4-4d17-4468-94b8-0d97e7a99030","ios":"levelo://app?vid=52442fe4-4d17-4468-94b8-0d97e7a99030"},"vehicle_type_id":"4","last_reported":1730981818,"current_range_meters":28400,"station_id":"ce4bh2p2rcd13ifvqdi0","pricing_plan_id":"cebpf4jnsgd1na2vs0mg"},{"bike_id":"da60e988-e0d1-434c-b1ac-919b0ec7d294","system_id":"levelo_inurba_marseille","lat":43.32534,"lon":5.41443,"is_reserved":false,"is_disabled":false,"rental_uris":{"android":"levelo://app?vid=da60e988-e0d1-434c-b1ac-919b0ec7d294","ios":"levelo://app?vid=da60e988-e0d1-434c-b1ac-919b0ec7d294"},"vehicle_type_id":"4","last_reported":1730981818,"current_range_meters":2000,"station_id":"ce4bhq12rcd13ifvqhhg","pricing_plan_id":"cebpf4jnsgd1na2vs0mg"},{"bike_id":"25dda5d7-22dc-4151-8886-a67dab9c9fd4","system_id":"levelo_inurba_marseille","lat":43.292908,"lon":5.374549,"is_reserved":false,"is_disabled":false,"rental_uris":{"android":"levelo://app?vid=25dda5d7-22dc-4151-8886-a67dab9c9fd4","ios":"levelo://app?vid=25dda5d7-22dc-4151-8886-a67dab9c9fd4"},"vehicle_type_id":"4","last_reported":1730981818,"current_range_meters":23200,"station_id":"ce4bgi12rcd13ifvqb70","pricing_plan_id":"cebpf4jnsgd1na2vs0mg"},{"bike_id":"0b7c393e-3b98-4a06-8c76-43fa84cb4664","system_id":"levelo_inurba_marseille","lat":43.29569,"lon":5.37525,"is_reserved":false,"is_disabled":false,"rental_uris":{"android":"levelo://app?vid=0b7c393e-3b98-4a06-8c76-43fa84cb4664","ios":"levelo://app?vid=0b7c393e-3b98-4a06-8c76-43fa84cb4664"},"vehicle_type_id":"4","last_reported":1730981818,"current_range_meters":9600,"station_id":"ce4bgh92rcd13ifvqb50","pricing_plan_id":"cebpf4jnsgd1na2vs0mg"},{"bike_id":"2a1c1d39-a3ee-45b7-8182-d06c16353596","system_id":"levelo_inurba_marseille","lat":43.30306,"lon":5.36894,"is_reserved":false,"is_disabled":false,"rental_uris":{"android":"levelo://app?vid=2a1c1d39-a3ee-45b7-8182-d06c16353596","ios":"levelo://app?vid=2a1c1d39-a3ee-45b7-8182-d06c16353596"},"vehicle_type_id":"4","last_reported":1730981818,"current_range_meters":24000,"station_id":"ce4bgqh2rcd13ifvqc5g","pricing_plan_id":"cebpf4jnsgd1na2vs0mg"},{"bike_id":"1ed4b874-bdae-43c6-98a8-b3cf65705ae8","system_id":"levelo_inurba_marseille","lat":43.23151,"lon":5.43724,"is_reserved":false,"is_disabled":false,"rental_uris":{"android":"levelo://app?vid=1ed4b874-bdae-43c6-98a8-b3cf65705ae8","ios":"levelo://app?vid=1ed4b874-bdae-43c6-98a8-b3cf65705ae8"},"vehicle_type_id":"4","last_reported":1730981818,"current_range_meters":16400,"station_id":"ce4bhmp2rcd13ifvqgog","pricing_plan_id":"cebpf4jnsgd1na2vs0mg"},{"bike_id":"653bd506-89ea-4aae-a372-d9a18724a019","system_id":"levelo_inurba_marseille","lat":43.29375,"lon":5.37863,"is_reserved":false,"is_disabled":false,"rental_uris":{"android":"levelo://app?vid=653bd506-89ea-4aae-a372-d9a18724a019","ios":"levelo://app?vid=653bd506-89ea-4aae-a372-d9a18724a019"},"vehicle_type_id":"4","last_reported":1730981818,"current_range_meters":31200,"station_id":"ce4bgjh2rcd13ifvqbf0","pricing_plan_id":"cebpf4jnsgd1na2vs0mg"},{"bike_id":"e3c6ccd1-b086-495e-b13c-5270e2cd4d10","system_id":"levelo_inurba_marseille","lat":43.28084,"lon":5.39659,"is_reserved":false,"is_disabled":false,"rental_uris":{"android":"levelo://app?vid=e3c6ccd1-b086-495e-b13c-5270e2cd4d10","ios":"levelo://app?vid=e3c6ccd1-b086-495e-b13c-5270e2cd4d10"},"vehicle_type_id":"4","last_reported":1730981818,"current_range_meters":26800,"station_id":"ce4bho12rcd13ifvqh2g","pricing_plan_id":"cebpf4jnsgd1na2vs0mg"},{"bike_id":"54a8a8ed-3d6a-419f-bc5c-d9876d2adfd4","system_id":"levelo_inurba_marseille","lat":43.29567,"lon":5.375345,"is_reserved":false,"is_disabled":false,"rental_uris":{"android":"levelo://app?vid=54a8a8ed-3d6a-419f-bc5c-d9876d2adfd4","ios":"levelo://app?vid=54a8a8ed-3d6a-419f-bc5c-d9876d2adfd4"},"vehicle_type_id":"4","last_reported":1730981818,"current_range_meters":34800,"station_id":"ce4bgh92rcd13ifvqb50","pricing_plan_id":"cebpf4jnsgd1na2vs0mg"},{"bike_id":"51f5af72-6eaf-43d5-9904-c1c190736eb9","system_id":"levelo_inurba_marseille","lat":43.31359,"lon":5.36705,"is_reserved":false,"is_disabled":false,"rental_uris":{"android":"levelo://app?vid=51f5af72-6eaf-43d5-9904-c1c190736eb9","ios":"levelo://app?vid=51f5af72-6eaf-43d5-9904-c1c190736eb9"},"vehicle_type_id":"4","last_reported":1730981818,"current_range_meters":25600,"station_id":"ce4bgr92rcd13ifvqc6g","pricing_plan_id":"cebpf4jnsgd1na2vs0mg"},{"bike_id":"f3618dde-db99-40c6-9fce-dee9a0bce454","system_id":"levelo_inurba_marseille","lat":43.30913,"lon":5.36857,"is_reserved":false,"is_disabled":false,"rental_uris":{"android":"levelo://app?vid=f3618dde-db99-40c6-9fce-dee9a0bce454","ios":"levelo://app?vid=f3618dde-db99-40c6-9fce-dee9a0bce454"},"vehicle_type_id":"4","last_reported":1730981818,"current_range_meters":39200,"station_id":"ce4bgn92rcd13ifvqbvg","pricing_plan_id":"cebpf4jnsgd1na2vs0mg"},{"bike_id":"d3e54780-ddfb-432e-bfd3-55d19e8c43c8","system_id":"levelo_inurba_marseille","lat":43.31756,"lon":5.39021,"is_reserved":false,"is_disabled":false,"rental_uris":{"android":"levelo://app?vid=d3e54780-ddfb-432e-bfd3-55d19e8c43c8","ios":"levelo://app?vid=d3e54780-ddfb-432e-bfd3-55d19e8c43c8"},"vehicle_type_id":"4","last_reported":1730981818,"current_range_meters":31200,"station_id":"ce4bhqp2rcd13ifvqhng","pricing_plan_id":"cebpf4jnsgd1na2vs0mg"},{"bike_id":"9c1cae5d-1e19-41ab-a284-42410761399c","system_id":"levelo_inurba_marseille","lat":43.31712,"lon":5.43705,"is_reserved":false,"is_disabled":false,"rental_uris":{"android":"levelo://app?vid=9c1cae5d-1e19-41ab-a284-42410761399c","ios":"levelo://app?vid=9c1cae5d-1e19-41ab-a284-42410761399c"},"vehicle_type_id":"4","last_reported":1730981818,"current_range_meters":36400,"station_id":"ce4bhp92rcd13ifvqhcg","pricing_plan_id":"cebpf4jnsgd1na2vs0mg"},{"bike_id":"15e2b137-219c-4828-8403-8cb725204d32","system_id":"levelo_inurba_marseille","lat":43.24082,"lon":5.37757,"is_reserved":false,"is_disabled":false,"rental_uris":{"android":"levelo://app?vid=15e2b137-219c-4828-8403-8cb725204d32","ios":"levelo://app?vid=15e2b137-219c-4828-8403-8cb725204d32"},"vehicle_type_id":"4","last_reported":1730981818,"current_range_meters":22000,"station_id":"ce4bhnp2rcd13ifvqgvg","pricing_plan_id":"cebpf4jnsgd1na2vs0mg"},{"bike_id":"b809693d-5e93-4889-96f7-97e66eba1db1","system_id":"levelo_inurba_marseille","lat":43.30801,"lon":5.38162,"is_reserved":false,"is_disabled":false,"rental_uris":{"android":"levelo://app?vid=b809693d-5e93-4889-96f7-97e66eba1db1","ios":"levelo://app?vid=b809693d-5e93-4889-96f7-97e66eba1db1"},"vehicle_type_id":"4","last_reported":1730981818,"current_range_meters":11600,"station_id":"ce4bgt12rcd13ifvqce0","pricing_plan_id":"cebpf4jnsgd1na2vs0mg"},{"bike_id":"e11f2957-c866-431f-b50b-d0178644b09f","system_id":"levelo_inurba_marseille","lat":43.2318,"lon":5.3999,"is_reserved":false,"is_disabled":false,"rental_uris":{"android":"levelo://app?vid=e11f2957-c866-431f-b50b-d0178644b09f","ios":"levelo://app?vid=e11f2957-c866-431f-b50b-d0178644b09f"},"vehicle_type_id":"4","last_reported":1730981818,"current_range_meters":16000,"station_id":"ce4bhn12rcd13ifvqgqg","pricing_plan_id":"cebpf4jnsgd1na2vs0mg"},{"bike_id":"16011c9c-19c1-4efc-a082-96549931df21","system_id":"levelo_inurba_marseille","lat":43.30206,"lon":5.39469,"is_reserved":false,"is_disabled":false,"rental_uris":{"android":"levelo://app?vid=16011c9c-19c1-4efc-a082-96549931df21","ios":"levelo://app?vid=16011c9c-19c1-4efc-a082-96549931df21"},"vehicle_type_id":"4","last_reported":1730981818,"current_range_meters":35200,"station_id":"ce4bh0p2rcd13ifvqd70","pricing_plan_id":"cebpf4jnsgd1na2vs0mg"},{"bike_id":"1c22f66d-906c-4647-9cec-30e0993f7b15","system_id":"levelo_inurba_marseille","lat":43.287,"lon":5.3739,"is_reserved":false,"is_disabled":false,"rental_uris":{"android":"levelo://app?vid=1c22f66d-906c-4647-9cec-30e0993f7b15","ios":"levelo://app?vid=1c22f66d-906c-4647-9cec-30e0993f7b15"},"vehicle_type_id":"4","last_reported":1730981818,"current_range_meters":12000,"station_id":"ce4bh3p2rcd13ifvqdq0","pricing_plan_id":"cebpf4jnsgd1na2vs0mg"},{"bike_id":"92bfdb81-1ac2-4e23-9e47-9d5b1f837dde","system_id":"levelo_inurba_marseille","lat":43.30534,"lon":5.36532,"is_reserved":false,"is_disabled":false,"rental_uris":{"android":"levelo://app?vid=92bfdb81-1ac2-4e23-9e47-9d5b1f837dde","ios":"levelo://app?vid=92bfdb81-1ac2-4e23-9e47-9d5b1f837dde"},"vehicle_type_id":"4","last_reported":1730981818,"current_range_meters":17600,"station_id":"ce4bgs12rcd13ifvqcag","pricing_plan_id":"cebpf4jnsgd1na2vs0mg"},{"bike_id":"8befa393-3872-493a-9a5d-6005d6827670","system_id":"levelo_inurba_marseille","lat":43.33714,"lon":5.39181,"is_reserved":false,"is_disabled":false,"rental_uris":{"android":"levelo://app?vid=8befa393-3872-493a-9a5d-6005d6827670","ios":"levelo://app?vid=8befa393-3872-493a-9a5d-6005d6827670"},"vehicle_type_id":"4","last_reported":1730981818,"current_range_meters":28800,"station_id":"ce4bhr92rcd13ifvqhsg","pricing_plan_id":"cebpf4jnsgd1na2vs0mg"},{"bike_id":"9fc49755-493e-4943-ba82-79480e8185c0","system_id":"levelo_inurba_marseille","lat":43.25498,"lon":5.37652,"is_reserved":false,"is_disabled":false,"rental_uris":{"android":"levelo://app?vid=9fc49755-493e-4943-ba82-79480e8185c0","ios":"levelo://app?vid=9fc49755-493e-4943-ba82-79480e8185c0"},"vehicle_type_id":"4","last_reported":1730981818,"current_range_meters":25200,"station_id":"ce4bhh12rcd13ifvqff0","pricing_plan_id":"cebpf4jnsgd1na2vs0mg"},{"bike_id":"a101278a-32b1-40a9-b8fe-b9423f97a586","system_id":"levelo_inurba_marseille","lat":43.30595,"lon":5.39355,"is_reserved":false,"is_disabled":false,"rental_uris":{"android":"levelo://app?vid=a101278a-32b1-40a9-b8fe-b9423f97a586","ios":"levelo://app?vid=a101278a-32b1-40a9-b8fe-b9423f97a586"},"vehicle_type_id":"4","last_reported":1730981818,"current_range_meters":30800,"station_id":"ce4bh0p2rcd13ifvqd80","pricing_plan_id":"cebpf4jnsgd1na2vs0mg"},{"bike_id":"3849e2c7-006f-4b98-8d2e-5ac2da9bb9e2","system_id":"levelo_inurba_marseille","lat":43.2621,"lon":5.37443,"is_reserved":false,"is_disabled":false,"rental_uris":{"android":"levelo://app?vid=3849e2c7-006f-4b98-8d2e-5ac2da9bb9e2","ios":"levelo://app?vid=3849e2c7-006f-4b98-8d2e-5ac2da9bb9e2"},"vehicle_type_id":"4","last_reported":1730981818,"current_range_meters":14800,"station_id":"ce4bhgp2rcd13ifvqfc0","pricing_plan_id":"cebpf4jnsgd1na2vs0mg"},{"bike_id":"17b0ebe5-6819-4c3e-90c1-a0f12344346a","system_id":"levelo_inurba_marseille","lat":43.336,"lon":5.41028,"is_reserved":false,"is_disabled":false,"rental_uris":{"android":"levelo://app?vid=17b0ebe5-6819-4c3e-90c1-a0f12344346a","ios":"levelo://app?vid=17b0ebe5-6819-4c3e-90c1-a0f12344346a"},"vehicle_type_id":"4","last_reported":1730981818,"current_range_meters":31200,"station_id":"ce4bhqh2rcd13ifvqhmg","pricing_plan_id":"cebpf4jnsgd1na2vs0mg"},{"bike_id":"c5aff4f4-4452-4f7b-9855-a52a5e05b4ad","system_id":"levelo_inurba_marseille","lat":43.27984,"lon":5.41663,"is_reserved":false,"is_disabled":false,"rental_uris":{"android":"levelo://app?vid=c5aff4f4-4452-4f7b-9855-a52a5e05b4ad","ios":"levelo://app?vid=c5aff4f4-4452-4f7b-9855-a52a5e05b4ad"},"vehicle_type_id":"4","last_reported":1730981818,"current_range_meters":38400,"station_id":"ce4bho12rcd13ifvqh1g","pricing_plan_id":"cebpf4jnsgd1na2vs0mg"},{"bike_id":"244d278e-9b84-4e27-8b1c-6b536eb0d7a5","system_id":"levelo_inurba_marseille","lat":43.2844,"lon":5.39198,"is_reserved":false,"is_disabled":false,"rental_uris":{"android":"levelo://app?vid=244d278e-9b84-4e27-8b1c-6b536eb0d7a5","ios":"levelo://app?vid=244d278e-9b84-4e27-8b1c-6b536eb0d7a5"},"vehicle_type_id":"4","last_reported":1730981818,"current_range_meters":6800,"station_id":"ce4bhoh2rcd13ifvqh5g","pricing_plan_id":"cebpf4jnsgd1na2vs0mg"},{"bike_id":"3ae6c5b4-d28a-4257-ab2c-a82f1d337382","system_id":"levelo_inurba_marseille","lat":43.29807,"lon":5.40403,"is_reserved":false,"is_disabled":false,"rental_uris":{"android":"levelo://app?vid=3ae6c5b4-d28a-4257-ab2c-a82f1d337382","ios":"levelo://app?vid=3ae6c5b4-d28a-4257-ab2c-a82f1d337382"},"vehicle_type_id":"4","last_reported":1730981818,"current_range_meters":39200,"station_id":"ce4bh112rcd13ifvqd90","pricing_plan_id":"cebpf4jnsgd1na2vs0mg"},{"bike_id":"0e0aa953-ce04-478d-bf26-e5f223f30f5e","system_id":"levelo_inurba_marseille","lat":43.30541,"lon":5.36527,"is_reserved":false,"is_disabled":false,"rental_uris":{"android":"levelo://app?vid=0e0aa953-ce04-478d-bf26-e5f223f30f5e","ios":"levelo://app?vid=0e0aa953-ce04-478d-bf26-e5f223f30f5e"},"vehicle_type_id":"4","last_reported":1730981818,"current_range_meters":39200,"station_id":"ce4bgs12rcd13ifvqcag","pricing_plan_id":"cebpf4jnsgd1na2vs0mg"},{"bike_id":"6c864888-cc4b-4c09-9c4d-a22b735eedd4","system_id":"levelo_inurba_marseille","lat":43.27898,"lon":5.38017,"is_reserved":false,"is_disabled":false,"rental_uris":{"android":"levelo://app?vid=6c864888-cc4b-4c09-9c4d-a22b735eedd4","ios":"levelo://app?vid=6c864888-cc4b-4c09-9c4d-a22b735eedd4"},"vehicle_type_id":"4","last_reported":1730981818,"current_range_meters":24000,"station_id":"ce4bhf92rcd13ifvqf50","pricing_plan_id":"cebpf4jnsgd1na2vs0mg"},{"bike_id":"461f3a00-2bfe-4b15-9c5c-6e827d85c3ee","system_id":"levelo_inurba_marseille","lat":43.30155,"lon":5.38088,"is_reserved":false,"is_disabled":false,"rental_uris":{"android":"levelo://app?vid=461f3a00-2bfe-4b15-9c5c-6e827d85c3ee","ios":"levelo://app?vid=461f3a00-2bfe-4b15-9c5c-6e827d85c3ee"},"vehicle_type_id":"4","last_reported":1730981818,"current_range_meters":25600,"station_id":"ce4bgjp2rcd13ifvqbh0","pricing_plan_id":"cebpf4jnsgd1na2vs0mg"},{"bike_id":"7340dc7b-1164-4293-8938-58d52cecc69f","system_id":"levelo_inurba_marseille","lat":43.31339,"lon":5.36719,"is_reserved":false,"is_disabled":false,"rental_uris":{"android":"levelo://app?vid=7340dc7b-1164-4293-8938-58d52cecc69f","ios":"levelo://app?vid=7340dc7b-1164-4293-8938-58d52cecc69f"},"vehicle_type_id":"4","last_reported":1730981818,"current_range_meters":37600,"station_id":"ce4bgr92rcd13ifvqc6g","pricing_plan_id":"cebpf4jnsgd1na2vs0mg"},{"bike_id":"95c020f9-4a35-4276-a883-560e7edfd205","system_id":"levelo_inurba_marseille","lat":43.2582,"lon":5.39429,"is_reserved":false,"is_disabled":false,"rental_uris":{"android":"levelo://app?vid=95c020f9-4a35-4276-a883-560e7edfd205","ios":"levelo://app?vid=95c020f9-4a35-4276-a883-560e7edfd205"},"vehicle_type_id":"4","last_reported":1730981818,"current_range_meters":28400,"station_id":"ce4bhip2rcd13ifvqft0","pricing_plan_id":"cebpf4jnsgd1na2vs0mg"},{"bike_id":"cba4c28f-9e74-4eed-81f0-b916ed4416ed","system_id":"levelo_inurba_marseille","lat":43.32542,"lon":5.41432,"is_reserved":false,"is_disabled":false,"rental_uris":{"android":"levelo://app?vid=cba4c28f-9e74-4eed-81f0-b916ed4416ed","ios":"levelo://app?vid=cba4c28f-9e74-4eed-81f0-b916ed4416ed"},"vehicle_type_id":"4","last_reported":1730981818,"current_range_meters":24000,"station_id":"ce4bhq12rcd13ifvqhhg","pricing_plan_id":"cebpf4jnsgd1na2vs0mg"},{"bike_id":"ffee93b5-1428-4932-9f2d-50e9ae62f258","system_id":"levelo_inurba_marseille","lat":43.29219,"lon":5.36069,"is_reserved":false,"is_disabled":false,"rental_uris":{"android":"levelo://app?vid=ffee93b5-1428-4932-9f2d-50e9ae62f258","ios":"levelo://app?vid=ffee93b5-1428-4932-9f2d-50e9ae62f258"},"vehicle_type_id":"4","last_reported":1730981818,"current_range_meters":33200,"station_id":"ce4bhbh2rcd13ifvqeqg","pricing_plan_id":"cebpf4jnsgd1na2vs0mg"},{"bike_id":"491370d4-bab3-4193-ad52-cbe6a5d83b39","system_id":"levelo_inurba_marseille","lat":43.30135,"lon":5.37424,"is_reserved":false,"is_disabled":false,"rental_uris":{"android":"levelo://app?vid=491370d4-bab3-4193-ad52-cbe6a5d83b39","ios":"levelo://app?vid=491370d4-bab3-4193-ad52-cbe6a5d83b39"},"vehicle_type_id":"4","last_reported":1730981818,"current_range_meters":25200,"station_id":"ce4bgs92rcd13ifvqcc0","pricing_plan_id":"cebpf4jnsgd1na2vs0mg"},{"bike_id":"b1e37371-f357-4e70-9fb4-e5866f3d4a0a","system_id":"levelo_inurba_marseille","lat":43.31717,"lon":5.37752,"is_reserved":false,"is_disabled":false,"rental_uris":{"android":"levelo://app?vid=b1e37371-f357-4e70-9fb4-e5866f3d4a0a","ios":"levelo://app?vid=b1e37371-f357-4e70-9fb4-e5866f3d4a0a"},"vehicle_type_id":"4","last_reported":1730981818,"current_range_meters":19200,"station_id":"ce4bgth2rcd13ifvqch0","pricing_plan_id":"cebpf4jnsgd1na2vs0mg"},{"bike_id":"5781a8a0-9309-4d44-bd8b-8068aee8be31","system_id":"levelo_inurba_marseille","lat":43.23152,"lon":5.43722,"is_reserved":false,"is_disabled":false,"rental_uris":{"android":"levelo://app?vid=5781a8a0-9309-4d44-bd8b-8068aee8be31","ios":"levelo://app?vid=5781a8a0-9309-4d44-bd8b-8068aee8be31"},"vehicle_type_id":"4","last_reported":1730981818,"current_range_meters":40000,"station_id":"ce4bhmp2rcd13ifvqgog","pricing_plan_id":"cebpf4jnsgd1na2vs0mg"},{"bike_id":"5eafa96a-40ea-4751-a828-481793e67bf1","system_id":"levelo_inurba_marseille","lat":43.2594,"lon":5.40897,"is_reserved":false,"is_disabled":false,"rental_uris":{"android":"levelo://app?vid=5eafa96a-40ea-4751-a828-481793e67bf1","ios":"levelo://app?vid=5eafa96a-40ea-4751-a828-481793e67bf1"},"vehicle_type_id":"4","last_reported":1730981818,"current_range_meters":29600,"station_id":"ce4bhm92rcd13ifvqglg","pricing_plan_id":"cebpf4jnsgd1na2vs0mg"},{"bike_id":"218807ae-f5df-491c-9f28-1ec913b0f7b5","system_id":"levelo_inurba_marseille","lat":43.24077,"lon":5.37755,"is_reserved":false,"is_disabled":false,"rental_uris":{"android":"levelo://app?vid=218807ae-f5df-491c-9f28-1ec913b0f7b5","ios":"levelo://app?vid=218807ae-f5df-491c-9f28-1ec913b0f7b5"},"vehicle_type_id":"4","last_reported":1730981818,"current_range_meters":30400,"station_id":"ce4bhnp2rcd13ifvqgvg","pricing_plan_id":"cebpf4jnsgd1na2vs0mg"},{"bike_id":"4451018b-3d8f-4ce8-bea2-57b8c7a1ebe3","system_id":"levelo_inurba_marseille","lat":43.29095,"lon":5.38139,"is_reserved":false,"is_disabled":false,"rental_uris":{"android":"levelo://app?vid=4451018b-3d8f-4ce8-bea2-57b8c7a1ebe3","ios":"levelo://app?vid=4451018b-3d8f-4ce8-bea2-57b8c7a1ebe3"},"vehicle_type_id":"4","last_reported":1730981818,"current_range_meters":15200,"station_id":"ce4bh512rcd13ifvqe2g","pricing_plan_id":"cebpf4jnsgd1na2vs0mg"},{"bike_id":"71427739-679e-4b65-96de-b3700df6018d","system_id":"levelo_inurba_marseille","lat":43.28104,"lon":5.37829,"is_reserved":false,"is_disabled":false,"rental_uris":{"android":"levelo://app?vid=71427739-679e-4b65-96de-b3700df6018d","ios":"levelo://app?vid=71427739-679e-4b65-96de-b3700df6018d"},"vehicle_type_id":"4","last_reported":1730981818,"current_range_meters":38800,"station_id":"ce4bha12rcd13ifvqee0","pricing_plan_id":"cebpf4jnsgd1na2vs0mg"},{"bike_id":"6621c4ea-85c9-4a06-ad9b-27d50c1df37c","system_id":"levelo_inurba_marseille","lat":43.26955,"lon":5.38637,"is_reserved":false,"is_disabled":false,"rental_uris":{"android":"levelo://app?vid=6621c4ea-85c9-4a06-ad9b-27d50c1df37c","ios":"levelo://app?vid=6621c4ea-85c9-4a06-ad9b-27d50c1df37c"},"vehicle_type_id":"4","last_reported":1730981818,"current_range_meters":31200,"station_id":"ce4bhh92rcd13ifvqfh0","pricing_plan_id":"cebpf4jnsgd1na2vs0mg"},{"bike_id":"d3c92b8f-ec67-4a80-ad5c-e6d6e264890d","system_id":"levelo_inurba_marseille","lat":43.31334,"lon":5.36719,"is_reserved":false,"is_disabled":false,"rental_uris":{"android":"levelo://app?vid=d3c92b8f-ec67-4a80-ad5c-e6d6e264890d","ios":"levelo://app?vid=d3c92b8f-ec67-4a80-ad5c-e6d6e264890d"},"vehicle_type_id":"4","last_reported":1730981818,"current_range_meters":32000,"station_id":"ce4bgr92rcd13ifvqc6g","pricing_plan_id":"cebpf4jnsgd1na2vs0mg"},{"bike_id":"f5e82e96-5888-44ff-bf29-895ee3b63413","system_id":"levelo_inurba_marseille","lat":43.29042,"lon":5.39982,"is_reserved":false,"is_disabled":false,"rental_uris":{"android":"levelo://app?vid=f5e82e96-5888-44ff-bf29-895ee3b63413","ios":"levelo://app?vid=f5e82e96-5888-44ff-bf29-895ee3b63413"},"vehicle_type_id":"4","last_reported":1730981818,"current_range_meters":20800,"station_id":"ce4bh392rcd13ifvqdm0","pricing_plan_id":"cebpf4jnsgd1na2vs0mg"},{"bike_id":"b1597d41-ee1c-4fcb-9540-dfee08579753","system_id":"levelo_inurba_marseille","lat":43.2917,"lon":5.37157,"is_reserved":false,"is_disabled":false,"rental_uris":{"android":"levelo://app?vid=b1597d41-ee1c-4fcb-9540-dfee08579753","ios":"levelo://app?vid=b1597d41-ee1c-4fcb-9540-dfee08579753"},"vehicle_type_id":"4","last_reported":1730981818,"current_range_meters":19200,"station_id":"ce4bha92rcd13ifvqeh0","pricing_plan_id":"cebpf4jnsgd1na2vs0mg"},{"bike_id":"5b10f8e3-b352-4ea7-9dd2-b90bc47031b1","system_id":"levelo_inurba_marseille","lat":43.28363,"lon":5.386412,"is_reserved":false,"is_disabled":false,"rental_uris":{"android":"levelo://app?vid=5b10f8e3-b352-4ea7-9dd2-b90bc47031b1","ios":"levelo://app?vid=5b10f8e3-b352-4ea7-9dd2-b90bc47031b1"},"vehicle_type_id":"4","last_reported":1730981818,"current_range_meters":38400,"station_id":"ce4bh492rcd13ifvqdvg","pricing_plan_id":"cebpf4jnsgd1na2vs0mg"},{"bike_id":"9c418d7d-30b3-4a12-9deb-8676b02d26f9","system_id":"levelo_inurba_marseille","lat":43.28418,"lon":5.37503,"is_reserved":false,"is_disabled":false,"rental_uris":{"android":"levelo://app?vid=9c418d7d-30b3-4a12-9deb-8676b02d26f9","ios":"levelo://app?vid=9c418d7d-30b3-4a12-9deb-8676b02d26f9"},"vehicle_type_id":"4","last_reported":1730981818,"current_range_meters":28400,"station_id":"ce4bh412rcd13ifvqds0","pricing_plan_id":"cebpf4jnsgd1na2vs0mg"},{"bike_id":"25ca19ae-9768-483c-9fb5-0d0567f7ea75","system_id":"levelo_inurba_marseille","lat":43.30216,"lon":5.39464,"is_reserved":false,"is_disabled":false,"rental_uris":{"android":"levelo://app?vid=25ca19ae-9768-483c-9fb5-0d0567f7ea75","ios":"levelo://app?vid=25ca19ae-9768-483c-9fb5-0d0567f7ea75"},"vehicle_type_id":"4","last_reported":1730981818,"current_range_meters":22800,"station_id":"ce4bh0p2rcd13ifvqd70","pricing_plan_id":"cebpf4jnsgd1na2vs0mg"},{"bike_id":"bf8a3665-ed66-406f-add8-79f0a75f333a","system_id":"levelo_inurba_marseille","lat":43.3043,"lon":5.38884,"is_reserved":false,"is_disabled":false,"rental_uris":{"android":"levelo://app?vid=bf8a3665-ed66-406f-add8-79f0a75f333a","ios":"levelo://app?vid=bf8a3665-ed66-406f-add8-79f0a75f333a"},"vehicle_type_id":"4","last_reported":1730981818,"current_range_meters":26000,"station_id":"ce4bgj92rcd13ifvqbd0","pricing_plan_id":"cebpf4jnsgd1na2vs0mg"},