{"last_updated":1726935054,"ttl":30,"version":"2.2","data":{"bikes":[{"bike_id":"c7620b2f-8b59-4c3b-b115-a311f1044a3a","system_id":"levelo_inurba_marseille","lat":43.28003,"lon":5.40011,"is_reserved":false,"is_disabled":false,"rental_uris":{"android":"levelo://app?vid=c7620b2f-8b59-4c3b-b115-a311f1044a3a","ios":"levelo://app?vid=c7620b2f-8b59-4c3b-b115-a311f1044a3a"},"vehicle_type_id":"4","last_reported":1726935054,"current_range_meters":38800,"station_id":"ce4bho92rcd13ifvqh4g","pricing_plan_id":"cebpf4jnsgd1na2vs0mg"},{"bike_id":"80211d98-7415-4915-859e-97b385c0a4d6","system_id":"levelo_inurba_marseille","lat":43.2439,"lon":5.37061,"is_reserved":false,"is_disabled":false,"rental_uris":{"android":"levelo://app?vid=80211d98-7415-4915-859e-97b385c0a4d6","ios":"levelo://app?vid=80211d98-7415-4915-859e-97b385c0a4d6"},"vehicle_type_id":"4","last_reported":1726935054,"current_range_meters":25600,"station_id":"ce4bhhh2rcd13ifvqfk0","pricing_plan_id":"cebpf4jnsgd1na2vs0mg"},{"bike_id":"42f84108-e1c9-43fc-bcb7-976612672875","system_id":"levelo_inurba_marseille","lat":43.295753,"lon":5.399752,"is_reserved":false,"is_disabled":false,"rental_uris":{"android":"levelo://app?vid=42f84108-e1c9-43fc-bcb7-976612672875","ios":"levelo://app?vid=42f84108-e1c9-43fc-bcb7-976612672875"},"vehicle_type_id":"4","last_reported":1726935054,"current_range_meters":38400,"station_id":"ce4bh312rcd13ifvqdj0","pricing_plan_id":"cebpf4jnsgd1na2vs0mg"},{"bike_id":"3f2e6373-a5ce-4ff7-95c1-722d21fed03d","system_id":"levelo_inurba_marseille","lat":43.26194,"lon":5.37936,"is_reserved":false,"is_disabled":false,"rental_uris":{"android":"levelo://app?vid=3f2e6373-a5ce-4ff7-95c1-722d21fed03d","ios":"levelo://app?vid=3f2e6373-a5ce-4ff7-95c1-722d21fed03d"},"vehicle_type_id":"4","last_reported":1726935054,"current_range_meters":38400,"station_id":"ce4bhjp2rcd13ifvqg90","pricing_plan_id":"cebpf4jnsgd1na2vs0mg"},{"bike_id":"b657b1c7-5510-4c47-abb7-e756725f1cf9","system_id":"levelo_inurba_marseille","lat":43.28433,"lon":5.34989,"is_reserved":false,"is_disabled":false,"rental_uris":{"android":"levelo://app?vid=b657b1c7-5510-4c47-abb7-e756725f1cf9","ios":"levelo://app?vid=b657b1c7-5510-4c47-abb7-e756725f1cf9"},"vehicle_type_id":"4","last_reported":1726935054,"current_range_meters":17200,"station_id":"ce4bhbh2rcd13ifvqepg","pricing_plan_id":"cebpf4jnsgd1na2vs0mg"},{"bike_id":"71651ac6-0b76-4019-b34f-072820ef1ca3","system_id":"levelo_inurba_marseille","lat":43.26031,"lon":5.37548,"is_reserved":false,"is_disabled":false,"rental_uris":{"android":"levelo://app?vid=71651ac6-0b76-4019-b34f-072820ef1ca3","ios":"levelo://app?vid=71651ac6-0b76-4019-b34f-072820ef1ca3"},"vehicle_type_id":"4","last_reported":1726935054,"current_range_meters":34800,"station_id":"ce4bhgh2rcd13ifvqfa0","pricing_plan_id":"cebpf4jnsgd1na2vs0mg"},{"bike_id":"02da28b3-168b-452e-bc21-d003a68a271f","system_id":"levelo_inurba_marseille","lat":43.29264,"lon":5.38454,"is_reserved":false,"is_disabled":false,"rental_uris":{"android":"levelo://app?vid=02da28b3-168b-452e-bc21-d003a68a271f","ios":"levelo://app?vid=02da28b3-168b-452e-bc21-d003a68a271f"},"vehicle_type_id":"4","last_reported":1726935054,"current_range_meters":1600,"station_id":"ce4bh692rcd13ifvqea0","pricing_plan_id":"cebpf4jnsgd1na2vs0mg"},{"bike_id":"47d29320-832a-41e4-b85e-54db7f7bb694","system_id":"levelo_inurba_marseille","lat":43.29196,"lon":5.39319,"is_reserved":false,"is_disabled":false,"rental_uris":{"android":"levelo://app?vid=47d29320-832a-41e4-b85e-54db7f7bb694","ios":"levelo://app?vid=47d29320-832a-41e4-b85e-54db7f7bb694"},"vehicle_type_id":"4","last_reported":1726935054,"current_range_meters":4000,"station_id":"ce4bh192rcd13ifvqdd0","pricing_plan_id":"cebpf4jnsgd1na2vs0mg"},{"bike_id":"2f86184e-6cf5-4a2c-bcdf-6f262742aefd","system_id":"levelo_inurba_marseille","lat":43.24804,"lon":5.37468,"is_reserved":false,"is_disabled":false,"rental_uris":{"android":"levelo://app?vid=2f86184e-6cf5-4a2c-bcdf-6f262742aefd","ios":"levelo://app?vid=2f86184e-6cf5-4a2c-bcdf-6f262742aefd"},"vehicle_type_id":"4","last_reported":1726935054,"current_range_meters":38800,"station_id":"ce4bhgh2rcd13ifvqfb0","pricing_plan_id":"cebpf4jnsgd1na2vs0mg"},{"bike_id":"6720de65-2b3f-4686-97bc-3637da984dc2","system_id":"levelo_inurba_marseille","lat":43.25494,"lon":5.37647,"is_reserved":false,"is_disabled":false,"rental_uris":{"android":"levelo://app?vid=6720de65-2b3f-4686-97bc-3637da984dc2","ios":"levelo://app?vid=6720de65-2b3f-4686-97bc-3637da984dc2"},"vehicle_type_id":"4","last_reported":1726935054,"current_range_meters":22400,"station_id":"ce4bhh12rcd13ifvqff0","pricing_plan_id":"cebpf4jnsgd1na2vs0mg"},{"bike_id":"c9e21436-caec-41cf-8484-be6be98df0ff","system_id":"levelo_inurba_marseille","lat":43.26041,"lon":5.37546,"is_reserved":false,"is_disabled":false,"rental_uris":{"android":"levelo://app?vid=c9e21436-caec-41cf-8484-be6be98df0ff","ios":"levelo://app?vid=c9e21436-caec-41cf-8484-be6be98df0ff"},"vehicle_type_id":"4","last_reported":1726935054,"current_range_meters":6800,"station_id":"ce4bhgh2rcd13ifvqfa0","pricing_plan_id":"cebpf4jnsgd1na2vs0mg"},{"bike_id":"df63e28f-cd57-48d1-89d0-dbc144c9c1f9","system_id":"levelo_inurba_marseille","lat":43.23187,"lon":5.39985,"is_reserved":false,"is_disabled":false,"rental_uris":{"android":"levelo://app?vid=df63e28f-cd57-48d1-89d0-dbc144c9c1f9","ios":"levelo://app?vid=df63e28f-cd57-48d1-89d0-dbc144c9c1f9"},"vehicle_type_id":"4","last_reported":1726935054,"current_range_meters":17200,"station_id":"ce4bhn12rcd13ifvqgqg","pricing_plan_id":"cebpf4jnsgd1na2vs0mg"},{"bike_id":"8f37e0ad-2f01-4b15-98c7-c4edf7e1ff2c","system_id":"levelo_inurba_marseille","lat":43.27674,"lon":5.3888,"is_reserved":false,"is_disabled":false,"rental_uris":{"android":"levelo://app?vid=8f37e0ad-2f01-4b15-98c7-c4edf7e1ff2c","ios":"levelo://app?vid=8f37e0ad-2f01-4b15-98c7-c4edf7e1ff2c"},"vehicle_type_id":"4","last_reported":1726935054,"current_range_meters":10800,"station_id":"ce4bhi12rcd13ifvqfo0","pricing_plan_id":"cebpf4jnsgd1na2vs0mg"},{"bike_id":"60e09664-51c0-4c23-b147-24490149f3a6","system_id":"levelo_inurba_marseille","lat":43.299726,"lon":5.371839,"is_reserved":false,"is_disabled":false,"rental_uris":{"android":"levelo://app?vid=60e09664-51c0-4c23-b147-24490149f3a6","ios":"levelo://app?vid=60e09664-51c0-4c23-b147-24490149f3a6"},"vehicle_type_id":"4","last_reported":1726935054,"current_range_meters":33600,"station_id":"ce4bgr92rcd13ifvqc7g","pricing_plan_id":"cebpf4jnsgd1na2vs0mg"},{"bike_id":"f7799aa3-45ee-4987-a997-9d3e2d59c3ac","system_id":"levelo_inurba_marseille","lat":43.3136,"lon":5.36696,"is_reserved":false,"is_disabled":false,"rental_uris":{"android":"levelo://app?vid=f7799aa3-45ee-4987-a997-9d3e2d59c3ac","ios":"levelo://app?vid=f7799aa3-45ee-4987-a997-9d3e2d59c3ac"},"vehicle_type_id":"4","last_reported":1726935054,"current_range_meters":32000,"station_id":"ce4bgr92rcd13ifvqc6g","pricing_plan_id":"cebpf4jnsgd1na2vs0mg"},{"bike_id":"feef65fd-70ed-4c2a-ab1c-62060f564852","system_id":"levelo_inurba_marseille","lat":43.26689,"lon":5.38277,"is_reserved":false,"is_disabled":false,"rental_uris":{"android":"levelo://app?vid=feef65fd-70ed-4c2a-ab1c-62060f564852","ios":"levelo://app?vid=feef65fd-70ed-4c2a-ab1c-62060f564852"},"vehicle_type_id":"4","last_reported":1726935054,"current_range_meters":24800,"station_id":"ce4bhg92rcd13ifvqf90","pricing_plan_id":"cebpf4jnsgd1na2vs0mg"},{"bike_id":"8a560686-3aea-4fa1-bbe0-6975d94b57b6","system_id":"levelo_inurba_marseille","lat":43.28449,"lon":5.39202,"is_reserved":false,"is_disabled":false,"rental_uris":{"android":"levelo://app?vid=8a560686-3aea-4fa1-bbe0-6975d94b57b6","ios":"levelo://app?vid=8a560686-3aea-4fa1-bbe0-6975d94b57b6"},"vehicle_type_id":"4","last_reported":1726935054,"current_range_meters":19200,"station_id":"ce4bhoh2rcd13ifvqh5g","pricing_plan_id":"cebpf4jnsgd1na2vs0mg"},{"bike_id":"3a57bee2-a35e-44db-b7f0-9d4b41dd8db9","system_id":"levelo_inurba_marseille","lat":43.28339,"lon":5.38106,"is_reserved":false,"is_disabled":false,"rental_uris":{"android":"levelo://app?vid=3a57bee2-a35e-44db-b7f0-9d4b41dd8db9","ios":"levelo://app?vid=3a57bee2-a35e-44db-b7f0-9d4b41dd8db9"},"vehicle_type_id":"4","last_reported":1726935054,"current_range_meters":24400,"station_id":"ce4bh412rcd13ifvqdr0","pricing_plan_id":"cebpf4jnsgd1na2vs0mg"},{"bike_id":"edfb1ff5-b81b-4225-8da9-100a9115b1e3","system_id":"levelo_inurba_marseille","lat":43.29735,"lon":5.36561,"is_reserved":false,"is_disabled":false,"rental_uris":{"android":"levelo://app?vid=edfb1ff5-b81b-4225-8da9-100a9115b1e3","ios":"levelo://app?vid=edfb1ff5-b81b-4225-8da9-100a9115b1e3"},"vehicle_type_id":"4","last_reported":1726935054,"current_range_meters":8000,"station_id":"","pricing_plan_id":"cebpf4jnsgd1na2vs0mg"},{"bike_id":"b1fbdaab-565e-4aa6-b9fb-ac5bbb182770","system_id":"levelo_inurba_marseille","lat":43.29307,"lon":5.37452,"is_reserved":false,"is_disabled":false,"rental_uris":{"android":"levelo://app?vid=b1fbdaab-565e-4aa6-b9fb-ac5bbb182770","ios":"levelo://app?vid=b1fbdaab-565e-4aa6-b9fb-ac5bbb182770"},"vehicle_type_id":"4","last_reported":1726935054,"current_range_meters":2000,"station_id":"ce4bgi12rcd13ifvqb70","pricing_plan_id":"cebpf4jnsgd1na2vs0mg"},{"bike_id":"904530d1-9140-46c1-9194-d357f0363deb","system_id":"levelo_inurba_marseille","lat":43.30601,"lon":5.39361,"is_reserved":false,"is_disabled":false,"rental_uris":{"android":"levelo://app?vid=904530d1-9140-46c1-9194-d357f0363deb","ios":"levelo://app?vid=904530d1-9140-46c1-9194-d357f0363deb"},"vehicle_type_id":"4","last_reported":1726935054,"current_range_meters":16800,"station_id":"ce4bh0p2rcd13ifvqd80","pricing_plan_id":"cebpf4jnsgd1na2vs0mg"},{"bike_id":"a7d03958-5ec1-4d31-bade-7bd89044d680","system_id":"levelo_inurba_marseille","lat":43.30276,"lon":5.37699,"is_reserved":false,"is_disabled":false,"rental_uris":{"android":"levelo://app?vid=a7d03958-5ec1-4d31-bade-7bd89044d680","ios":"levelo://app?vid=a7d03958-5ec1-4d31-bade-7bd89044d680"},"vehicle_type_id":"4","last_reported":1726935054,"current_range_meters":20800,"station_id":"ce4bguh2rcd13ifvqcj0","pricing_plan_id":"cebpf4jnsgd1na2vs0mg"},{"bike_id":"65937d89-5b6a-4a79-8678-437145db9bcd","system_id":"levelo_inurba_marseille","lat":43.30643,"lon":5.40103,"is_reserved":false,"is_disabled":false,"rental_uris":{"android":"levelo://app?vid=65937d89-5b6a-4a79-8678-437145db9bcd","ios":"levelo://app?vid=65937d89-5b6a-4a79-8678-437145db9bcd"},"vehicle_type_id":"4","last_reported":1726935054,"current_range_meters":16000,"station_id":"ce4bh112rcd13ifvqda0","pricing_plan_id":"cebpf4jnsgd1na2vs0mg"},{"bike_id":"ce61d7bb-c34a-442a-8d18-5688950ba79a","system_id":"levelo_inurba_marseille","lat":43.27616,"lon":5.36112,"is_reserved":false,"is_disabled":false,"rental_uris":{"android":"levelo://app?vid=ce61d7bb-c34a-442a-8d18-5688950ba79a","ios":"levelo://app?vid=ce61d7bb-c34a-442a-8d18-5688950ba79a"},"vehicle_type_id":"4","last_reported":1726935054,"current_range_meters":38800,"station_id":"ce4bgj92rcd13ifvqbe0","pricing_plan_id":"cebpf4jnsgd1na2vs0mg"},{"bike_id":"5fbb98dc-a168-4cf5-95a8-8a89603443bd","system_id":"levelo_inurba_marseille","lat":43.23144,"lon":5.35519,"is_reserved":false,"is_disabled":false,"rental_uris":{"android":"levelo://app?vid=5fbb98dc-a168-4cf5-95a8-8a89603443bd","ios":"levelo://app?vid=5fbb98dc-a168-4cf5-95a8-8a89603443bd"},"vehicle_type_id":"4","last_reported":1726935054,"current_range_meters":8000,"station_id":"ce4bhu92rcd13ifvqi70","pricing_plan_id":"cebpf4jnsgd1na2vs0mg"},{"bike_id":"af8bbe16-1b49-4d87-a8cd-bae30dcb31f0","system_id":"levelo_inurba_marseille","lat":43.23963,"lon":5.36635,"is_reserved":false,"is_disabled":false,"rental_uris":{"android":"levelo://app?vid=af8bbe16-1b49-4d87-a8cd-bae30dcb31f0","ios":"levelo://app?vid=af8bbe16-1b49-4d87-a8cd-bae30dcb31f0"},"vehicle_type_id":"4","last_reported":1726935054,"current_range_meters":11600,"station_id":"ce4bhi12rcd13ifvqfp0","pricing_plan_id":"cebpf4jnsgd1na2vs0mg"},{"bike_id":"f13231ee-e8c8-4917-a790-f974edff49fc","system_id":"levelo_inurba_marseille","lat":43.29579,"lon":5.39982,"is_reserved":false,"is_disabled":false,"rental_uris":{"android":"levelo://app?vid=f13231ee-e8c8-4917-a790-f974edff49fc","ios":"levelo://app?vid=f13231ee-e8c8-4917-a790-f974edff49fc"},"vehicle_type_id":"4","last_reported":1726935054,"current_range_meters":4800,"station_id":"ce4bh312rcd13ifvqdj0","pricing_plan_id":"cebpf4jnsgd1na2vs0mg"},{"bike_id":"5e835ff5-9807-4d9a-92d0-cf118d0ab18e","system_id":"levelo_inurba_marseille","lat":43.28611,"lon":5.35102,"is_reserved":false,"is_disabled":false,"rental_uris":{"android":"levelo://app?vid=5e835ff5-9807-4d9a-92d0-cf118d0ab18e","ios":"levelo://app?vid=5e835ff5-9807-4d9a-92d0-cf118d0ab18e"},"vehicle_type_id":"4","last_reported":1726935054,"current_range_meters":38400,"station_id":"ce4bhch2rcd13ifvqeug","pricing_plan_id":"cebpf4jnsgd1na2vs0mg"},{"bike_id":"8e28bdf2-f175-4296-99cd-61b1d15a7247","system_id":"levelo_inurba_marseille","lat":43.28447,"lon":5.38058,"is_reserved":false,"is_disabled":false,"rental_uris":{"android":"levelo://app?vid=8e28bdf2-f175-4296-99cd-61b1d15a7247","ios":"levelo://app?vid=8e28bdf2-f175-4296-99cd-61b1d15a7247"},"vehicle_type_id":"4","last_reported":1726935054,"current_range_meters":22000,"station_id":"ce4bh412rcd13ifvqdr0","pricing_plan_id":"cebpf4jnsgd1na2vs0mg"},{"bike_id":"f3a0a1c9-d723-4282-b9a3-32f6dcf89946","system_id":"levelo_inurba_marseille","lat":43.293,"lon":5.3746,"is_reserved":false,"is_disabled":false,"rental_uris":{"android":"levelo://app?vid=f3a0a1c9-d723-4282-b9a3-32f6dcf89946","ios":"levelo://app?vid=f3a0a1c9-d723-4282-b9a3-32f6dcf89946"},"vehicle_type_id":"4","last_reported":1726935054,"current_range_meters":3200,"station_id":"ce4bgi12rcd13ifvqb70","pricing_plan_id":"cebpf4jnsgd1na2vs0mg"},{"bike_id":"fd9db1e8-091c-4d3b-996f-0cbdf93f5ce7","system_id":"levelo_inurba_marseille","lat":43.310716,"lon":5.378533,"is_reserved":false,"is_disabled":false,"rental_uris":{"android":"levelo://app?vid=fd9db1e8-091c-4d3b-996f-0cbdf93f5ce7","ios":"levelo://app?vid=fd9db1e8-091c-4d3b-996f-0cbdf93f5ce7"},"vehicle_type_id":"4","last_reported":1726935054,"current_range_meters":37600,"station_id":"ce4bgqh2rcd13ifvqc4g","pricing_plan_id":"cebpf4jnsgd1na2vs0mg"},{"bike_id":"5a906720-3d1e-4fcf-80e0-d3d05a7e7f77","system_id":"levelo_inurba_marseille","lat":43.31714,"lon":5.43709,"is_reserved":false,"is_disabled":false,"rental_uris":{"android":"levelo://app?vid=5a906720-3d1e-4fcf-80e0-d3d05a7e7f77","ios":"levelo://app?vid=5a906720-3d1e-4fcf-80e0-d3d05a7e7f77"},"vehicle_type_id":"4","last_reported":1726935054,"current_range_meters":6400,"station_id":"ce4bhp92rcd13ifvqhcg","pricing_plan_id":"cebpf4jnsgd1na2vs0mg"},{"bike_id":"31a5bb6c-e9e4-4e32-9543-71cced6fe63e","system_id":"levelo_inurba_marseille","lat":43.27568,"lon":5.3841,"is_reserved":false,"is_disabled":false,"rental_uris":{"android":"levelo://app?vid=31a5bb6c-e9e4-4e32-9543-71cced6fe63e","ios":"levelo://app?vid=31a5bb6c-e9e4-4e32-9543-71cced6fe63e"},"vehicle_type_id":"4","last_reported":1726935054,"current_range_meters":9200,"station_id":"ce4bhh92rcd13ifvqfi0","pricing_plan_id":"cebpf4jnsgd1na2vs0mg"},{"bike_id":"cf1ee679-df26-4444-bb84-39632230c825","system_id":"levelo_inurba_marseille","lat":43.33608,"lon":5.41021,"is_reserved":false,"is_disabled":false,"rental_uris":{"android":"levelo://app?vid=cf1ee679-df26-4444-bb84-39632230c825","ios":"levelo://app?vid=cf1ee679-df26-4444-bb84-39632230c825"},"vehicle_type_id":"4","last_reported":1726935054,"current_range_meters":2800,"station_id":"ce4bhqh2rcd13ifvqhlg","pricing_plan_id":"cebpf4jnsgd1na2vs0mg"},{"bike_id":"d4ad8b4a-6e01-46f6-9818-6872eb2be148","system_id":"levelo_inurba_marseille","lat":43.260284,"lon":5.375492,"is_reserved":false,"is_disabled":false,"rental_uris":{"android":"levelo://app?vid=d4ad8b4a-6e01-46f6-9818-6872eb2be148","ios":"levelo://app?vid=d4ad8b4a-6e01-46f6-9818-6872eb2be148"},"vehicle_type_id":"4","last_reported":1726935054,"current_range_meters":19600,"station_id":"ce4bhgh2rcd13ifvqfa0","pricing_plan_id":"cebpf4jnsgd1na2vs0mg"},{"bike_id":"386d7d39-d9a0-4f2f-9dfa-7b382234f940","system_id":"levelo_inurba_marseille","lat":43.23197,"lon":5.35559,"is_reserved":false,"is_disabled":false,"rental_uris":{"android":"levelo://app?vid=386d7d39-d9a0-4f2f-9dfa-7b382234f940","ios":"levelo://app?vid=386d7d39-d9a0-4f2f-9dfa-7b382234f940"},"vehicle_type_id":"4","last_reported":1726935054,"current_range_meters":19600,"station_id":"ce4bhu92rcd13ifvqi70","pricing_plan_id":"cebpf4jnsgd1na2vs0mg"},{"bike_id":"5419b1bf-d37c-4076-a34c-52ede101758e","system_id":"levelo_inurba_marseille","lat":43.337444,"lon":5.374475,"is_reserved":false,"is_disabled":false,"rental_uris":{"android":"levelo://app?vid=5419b1bf-d37c-4076-a34c-52ede101758e","ios":"levelo://app?vid=5419b1bf-d37c-4076-a34c-52ede101758e"},"vehicle_type_id":"4","last_reported":1726935054,"current_range_meters":32000,"station_id":"","pricing_plan_id":"cebpf4jnsgd1na2vs0mg"},{"bike_id":"684ff367-75a4-4fd5-b811-60e82a73a4ff","system_id":"levelo_inurba_marseille","lat":43.26551,"lon":5.37288,"is_reserved":false,"is_disabled":false,"rental_uris":{"android":"levelo://app?vid=684ff367-75a4-4fd5-b811-60e82a73a4ff","ios":"levelo://app?vid=684ff367-75a4-4fd5-b811-60e82a73a4ff"},"vehicle_type_id":"4","last_reported":1726935054,"current_range_meters":33600,"station_id":"ce4bhg12rcd13ifvqf70","pricing_plan_id":"cebpf4jnsgd1na2vs0mg"},{"bike_id":"a99bc3a8-2030-48a9-9f64-048956f56ffe","system_id":"levelo_inurba_marseille","lat":43.29971,"lon":5.38492,"is_reserved":false,"is_disabled":false,"rental_uris":{"android":"levelo://app?vid=a99bc3a8-2030-48a9-9f64-048956f56ffe","ios":"levelo://app?vid=a99bc3a8-2030-48a9-9f64-048956f56ffe"},"vehicle_type_id":"4","last_reported":1726935054,"current_range_meters":23200,"station_id":"ce4bgj92rcd13ifvqbd0","pricing_plan_id":"cebpf4jnsgd1na2vs0mg"},{"bike_id":"953c5b11-6943-4797-927c-b0fa9e5f690a","system_id":"levelo_inurba_marseille","lat":43.25933,"lon":5.40916,"is_reserved":false,"is_disabled":false,"rental_uris":{"android":"levelo://app?vid=953c5b11-6943-4797-927c-b0fa9e5f690a","ios":"levelo://app?vid=953c5b11-6943-4797-927c-b0fa9e5f690a"},"vehicle_type_id":"4","last_reported":1726935054,"current_range_meters":20000,"station_id":"ce4bhm92rcd13ifvqglg","pricing_plan_id":"cebpf4jnsgd1na2vs0mg"},{"bike_id":"d15f1532-e642-4ce5-babf-fb28b14b2c8c","system_id":"levelo_inurba_marseille","lat":43.23188,"lon":5.39987,"is_reserved":false,"is_disabled":false,"rental_uris":{"android":"levelo://app?vid=d15f1532-e642-4ce5-babf-fb28b14b2c8c","ios":"levelo://app?vid=d15f1532-e642-4ce5-babf-fb28b14b2c8c"},"vehicle_type_id":"4","last_reported":1726935054,"current_range_meters":7200,"station_id":"ce4bhn12rcd13ifvqgqg","pricing_plan_id":"cebpf4jnsgd1na2vs0mg"},{"bike_id":"2ffb0845-df77-40dd-9343-1dc0810c2d8e","system_id":"levelo_inurba_marseille","lat":43.31714,"lon":5.37755,"is_reserved":false,"is_disabled":false,"rental_uris":{"android":"levelo://app?vid=2ffb0845-df77-40dd-9343-1dc0810c2d8e","ios":"levelo://app?vid=2ffb0845-df77-40dd-9343-1dc0810c2d8e"},"vehicle_type_id":"4","last_reported":1726935054,"current_range_meters":18000,"station_id":"ce4bgth2rcd13ifvqch0","pricing_plan_id":"cebpf4jnsgd1na2vs0mg"},{"bike_id":"6e2fd8fb-799c-468d-a60b-38d2bf81aa37","system_id":"levelo_inurba_marseille","lat":43.23962,"lon":5.3662,"is_reserved":false,"is_disabled":false,"rental_uris":{"android":"levelo://app?vid=6e2fd8fb-799c-468d-a60b-38d2bf81aa37","ios":"levelo://app?vid=6e2fd8fb-799c-468d-a60b-38d2bf81aa37"},"vehicle_type_id":"4","last_reported":1726935054,"current_range_meters":38800,"station_id":"ce4bhi12rcd13ifvqfp0","pricing_plan_id":"cebpf4jnsgd1na2vs0mg"},{"bike_id":"7ccc499f-63f1-4a72-b7c8-4b3b2437d268","system_id":"levelo_inurba_marseille","lat":43.25005,"lon":5.38916,"is_reserved":false,"is_disabled":false,"rental_uris":{"android":"levelo://app?vid=7ccc499f-63f1-4a72-b7c8-4b3b2437d268","ios":"levelo://app?vid=7ccc499f-63f1-4a72-b7c8-4b3b2437d268"},"vehicle_type_id":"4","last_reported":1726935054,"current_range_meters":27600,"station_id":"ce4bhgp2rcd13ifvqfd0","pricing_plan_id":"cebpf4jnsgd1na2vs0mg"},{"bike_id":"6dfa6590-6063-4622-bcfd-b3f97b703e1d","system_id":"levelo_inurba_marseille","lat":43.29611,"lon":5.37699,"is_reserved":false,"is_disabled":false,"rental_uris":{"android":"levelo://app?vid=6dfa6590-6063-4622-bcfd-b3f97b703e1d","ios":"levelo://app?vid=6dfa6590-6063-4622-bcfd-b3f97b703e1d"},"vehicle_type_id":"4","last_reported":1726935054,"current_range_meters":12800,"station_id":"ce4bgip2rcd13ifvqbb0","pricing_plan_id":"cebpf4jnsgd1na2vs0mg"},{"bike_id":"149779fc-bc45-458a-857f-33707eedaf6a","system_id":"levelo_inurba_marseille","lat":43.23195,"lon":5.35547,"is_reserved":false,"is_disabled":false,"rental_uris":{"android":"levelo://app?vid=149779fc-bc45-458a-857f-33707eedaf6a","ios":"levelo://app?vid=149779fc-bc45-458a-857f-33707eedaf6a"},"vehicle_type_id":"4","last_reported":1726935054,"current_range_meters":20000,"station_id":"ce4bhu92rcd13ifvqi70","pricing_plan_id":"cebpf4jnsgd1na2vs0mg"},{"bike_id":"153f45ce-432f-473b-a68b-e72dfdf83a63","system_id":"levelo_inurba_marseille","lat":43.26215,"lon":5.37441,"is_reserved":false,"is_disabled":false,"rental_uris":{"android":"levelo://app?vid=153f45ce-432f-473b-a68b-e72dfdf83a63","ios":"levelo://app?vid=153f45ce-432f-473b-a68b-e72dfdf83a63"},"vehicle_type_id":"4","last_reported":1726935054,"current_range_meters":36800,"station_id":"ce4bhgp2rcd13ifvqfc0","pricing_plan_id":"cebpf4jnsgd1na2vs0mg"},{"bike_id":"79ba5c5a-ff36-4091-b6e4-9ebd1b9d9038","system_id":"levelo_inurba_marseille","lat":43.28712,"lon":5.37392,"is_reserved":false,"is_disabled":false,"rental_uris":{"android":"levelo://app?vid=79ba5c5a-ff36-4091-b6e4-9ebd1b9d9038","ios":"levelo://app?vid=79ba5c5a-ff36-4091-b6e4-9ebd1b9d9038"},"vehicle_type_id":"4","last_reported":1726935054,"current_range_meters":14000,"station_id":"ce4bh3p2rcd13ifvqdq0","pricing_plan_id":"cebpf4jnsgd1na2vs0mg"},{"bike_id":"0dbcf194-1506-46a7-8956-af738107e2e9","system_id":"levelo_inurba_marseille","lat":43.24168,"lon":5.36394,"is_reserved":false,"is_disabled":false,"rental_uris":{"android":"levelo://app?vid=0dbcf194-1506-46a7-8956-af738107e2e9","ios":"levelo://app?vid=0dbcf194-1506-46a7-8956-af738107e2e9"},"vehicle_type_id":"4","last_reported":1726935054,"current_range_meters":30000,"station_id":"cpo36qri1sfpv3e86is0","pricing_plan_id":"cebpf4jnsgd1na2vs0mg"},{"bike_id":"c65cd37b-6d5f-46c3-bd09-32144226ed27","system_id":"levelo_inurba_marseille","lat":43.31223,"lon":5.36853,"is_reserved":false,"is_disabled":false,"rental_uris":{"android":"levelo://app?vid=c65cd37b-6d5f-46c3-bd09-32144226ed27","ios":"levelo://app?vid=c65cd37b-6d5f-46c3-bd09-32144226ed27"},"vehicle_type_id":"4","last_reported":1726935054,"current_range_meters":38400,"station_id":"ce4bgl92rcd13ifvqbq0","pricing_plan_id":"cebpf4jnsgd1na2vs0mg"},{"bike_id":"604c9531-be4f-4974-bfe2-bd7828d7386f","system_id":"levelo_inurba_marseille","lat":43.29897,"lon":5.43673,"is_reserved":false,"is_disabled":false,"rental_uris":{"android":"levelo://app?vid=604c9531-be4f-4974-bfe2-bd7828d7386f","ios":"levelo://app?vid=604c9531-be4f-4974-bfe2-bd7828d7386f"},"vehicle_type_id":"4","last_reported":1726935054,"current_range_meters":23200,"station_id":"ce4bhpp2rcd13ifvqhfg","pricing_plan_id":"cebpf4jnsgd1na2vs0mg"},{"bike_id":"2bf1f680-1763-42e3-9455-38159113886d","system_id":"levelo_inurba_marseille","lat":43.3248,"lon":5.36569,"is_reserved":false,"is_disabled":false,"rental_uris":{"android":"levelo://app?vid=2bf1f680-1763-42e3-9455-38159113886d","ios":"levelo://app?vid=2bf1f680-1763-42e3-9455-38159113886d"},"vehicle_type_id":"4","last_reported":1726935054,"current_range_meters":16400,"station_id":"ce4bhs12rcd13ifvqhvg","pricing_plan_id":"cebpf4jnsgd1na2vs0mg"},{"bike_id":"d414398a-c2f5-4147-98fd-421b864558c6","system_id":"levelo_inurba_marseille","lat":43.23964,"lon":5.36624,"is_reserved":false,"is_disabled":false,"rental_uris":{"android":"levelo://app?vid=d414398a-c2f5-4147-98fd-421b864558c6","ios":"levelo://app?vid=d414398a-c2f5-4147-98fd-421b864558c6"},"vehicle_type_id":"4","last_reported":1726935054,"current_range_meters":17600,"station_id":"ce4bhi12rcd13ifvqfp0","pricing_plan_id":"cebpf4jnsgd1na2vs0mg"},{"bike_id":"06dc1616-88b1-4a33-b456-f8c1d46a741e","system_id":"levelo_inurba_marseille","lat":43.27989,"lon":5.41659,"is_reserved":false,"is_disabled":false,"rental_uris":{"android":"levelo://app?vid=06dc1616-88b1-4a33-b456-f8c1d46a741e","ios":"levelo://app?vid=06dc1616-88b1-4a33-b456-f8c1d46a741e"},"vehicle_type_id":"4","last_reported":1726935054,"current_range_meters":24400,"station_id":"ce4bho12rcd13ifvqh1g","pricing_plan_id":"cebpf4jnsgd1na2vs0mg"},{"bike_id":"1dd89fef-b4f3-4766-a082-11ecd0129c7e","system_id":"levelo_inurba_marseille","lat":43.28462,"lon":5.35889,"is_reserved":false,"is_disabled":false,"rental_uris":{"android":"levelo://app?vid=1dd89fef-b4f3-4766-a082-11ecd0129c7e","ios":"levelo://app?vid=1dd89fef-b4f3-4766-a082-11ecd0129c7e"},"vehicle_type_id":"4","last_reported":1726935054,"current_range_meters":6400,"station_id":"ce4bhah2rcd13ifvqei0","pricing_plan_id":"cebpf4jnsgd1na2vs0mg"},{"bike_id":"a8d42cf3-65fd-4e73-93d7-47142c435399","system_id":"levelo_inurba_marseille","lat":43.34387,"lon":5.40841,"is_reserved":false,"is_disabled":false,"rental_uris":{"android":"levelo://app?vid=a8d42cf3-65fd-4e73-93d7-47142c435399","ios":"levelo://app?vid=a8d42cf3-65fd-4e73-93d7-47142c435399"},"vehicle_type_id":"4","last_reported":1726935054,"current_range_meters":26000,"station_id":"","pricing_plan_id":"cebpf4jnsgd1na2vs0mg"},{"bike_id":"5a23204f-e056-42c5-9ac8-9dcbfeca4bad","system_id":"levelo_inurba_marseille","lat":43.26033,"lon":5.37549,"is_reserved":false,"is_disabled":false,"rental_uris":{"android":"levelo://app?vid=5a23204f-e056-42c5-9ac8-9dcbfeca4bad","ios":"levelo://app?vid=5a23204f-e056-42c5-9ac8-9dcbfeca4bad"},"vehicle_type_id":"4","last_reported":1726935054,"current_range_meters":16800,"station_id":"ce4bhgh2rcd13ifvqfa0","pricing_plan_id":"cebpf4jnsgd1na2vs0mg"},{"bike_id":"b6de1763-6873-4b03-b73c-30e5ef78ee11","system_id":"levelo_inurba_marseille","lat":43.282593,"lon":5.350673,"is_reserved":false,"is_disabled":false,"rental_uris":{"android":"levelo://app?vid=b6de1763-6873-4b03-b73c-30e5ef78ee11","ios":"levelo://app?vid=b6de1763-6873-4b03-b73c-30e5ef78ee11"},"vehicle_type_id":"4","last_reported":1726935054,"current_range_meters":14400,"station_id":"ce4bhbp2rcd13ifvqerg","pricing_plan_id":"cebpf4jnsgd1na2vs0mg"},{"bike_id":"c47de26f-a490-4dcf-9869-c24bd11d6408","system_id":"levelo_inurba_marseille","lat":43.2587,"lon":5.39891,"is_reserved":false,"is_disabled":false,"rental_uris":{"android":"levelo://app?vid=c47de26f-a490-4dcf-9869-c24bd11d6408","ios":"levelo://app?vid=c47de26f-a490-4dcf-9869-c24bd11d6408"},"vehicle_type_id":"4","last_reported":1726935054,"current_range_meters":9600,"station_id":"ce4bhl92rcd13ifvqghg","pricing_plan_id":"cebpf4jnsgd1na2vs0mg"},{"bike_id":"c7d293b7-e518-4b2d-bfd0-80dd3b1731cf","system_id":"levelo_inurba_marseille","lat":43.299065,"lon":5.374682,"is_reserved":false,"is_disabled":false,"rental_uris":{"android":"levelo://app?vid=c7d293b7-e518-4b2d-bfd0-80dd3b1731cf","ios":"levelo://app?vid=c7d293b7-e518-4b2d-bfd0-80dd3b1731cf"},"vehicle_type_id":"4","last_reported":1726935054,"current_range_meters":4800,"station_id":"ce4bgjh2rcd13ifvqbg0","pricing_plan_id":"cebpf4jnsgd1na2vs0mg"},{"bike_id":"5e903e58-e7c6-4a1f-ba2d-b0133061666d","system_id":"levelo_inurba_marseille","lat":43.25938,"lon":5.40911,"is_reserved":false,"is_disabled":false,"rental_uris":{"android":"levelo://app?vid=5e903e58-e7c6-4a1f-ba2d-b0133061666d","ios":"levelo://app?vid=5e903e58-e7c6-4a1f-ba2d-b0133061666d"},"vehicle_type_id":"4","last_reported":1726935054,"current_range_meters":8800,"station_id":"ce4bhm92rcd13ifvqglg","pricing_plan_id":"cebpf4jnsgd1na2vs0mg"},{"bike_id":"fb46bdfd-bbf2-415b-bfd9-3dcd9e8bdeb2","system_id":"levelo_inurba_marseille","lat":43.26931,"lon":5.38913,"is_reserved":false,"is_disabled":false,"rental_uris":{"android":"levelo://app?vid=fb46bdfd-bbf2-415b-bfd9-3dcd9e8bdeb2","ios":"levelo://app?vid=fb46bdfd-bbf2-415b-bfd9-3dcd9e8bdeb2"},"vehicle_type_id":"4","last_reported":1726935054,"current_range_meters":22400,"station_id":"ce4bhhh2rcd13ifvqfl0","pricing_plan_id":"cebpf4jnsgd1na2vs0mg"},{"bike_id":"6b6e184b-adb2-487d-91cb-eed6734f3704","system_id":"levelo_inurba_marseille","lat":43.32538,"lon":5.41429,"is_reserved":false,"is_disabled":false,"rental_uris":{"android":"levelo://app?vid=6b6e184b-adb2-487d-91cb-eed6734f3704","ios":"levelo://app?vid=6b6e184b-adb2-487d-91cb-eed6734f3704"},"vehicle_type_id":"4","last_reported":1726935054,"current_range_meters":10800,"station_id":"ce4bhq12rcd13ifvqhhg","pricing_plan_id":"cebpf4jnsgd1na2vs0mg"},{"bike_id":"ec36355b-dfd4-4ae0-afa5-be75d5d82a02","system_id":"levelo_inurba_marseille","lat":43.2466,"lon":5.38168,"is_reserved":false,"is_disabled":false,"rental_uris":{"android":"levelo://app?vid=ec36355b-dfd4-4ae0-afa5-be75d5d82a02","ios":"levelo://app?vid=ec36355b-dfd4-4ae0-afa5-be75d5d82a02"},"vehicle_type_id":"4","last_reported":1726935054,"current_range_meters":3200,"station_id":"ce4bhih2rcd13ifvqfr0","pricing_plan_id":"cebpf4jnsgd1na2vs0mg"},{"bike_id":"146ac5f2-7c1e-46d5-9347-54e9005d3585","system_id":"levelo_inurba_marseille","lat":43.26938,"lon":5.40249,"is_reserved":false,"is_disabled":false,"rental_uris":{"android":"levelo://app?vid=146ac5f2-7c1e-46d5-9347-54e9005d3585","ios":"levelo://app?vid=146ac5f2-7c1e-46d5-9347-54e9005d3585"},"vehicle_type_id":"4","last_reported":1726935054,"current_range_meters":38800,"station_id":"cjm6bp8fraef2m0cb0m0","pricing_plan_id":"cebpf4jnsgd1na2vs0mg"},{"bike_id":"7b9dd459-340b-4978-bfb0-6c163a5263e8","system_id":"levelo_inurba_marseille","lat":43.23189,"lon":5.35543,"is_reserved":false,"is_disabled":false,"rental_uris":{"android":"levelo://app?vid=7b9dd459-340b-4978-bfb0-6c163a5263e8","ios":"levelo://app?vid=7b9dd459-340b-4978-bfb0-6c163a5263e8"},"vehicle_type_id":"4","last_reported":1726935054,"current_range_meters":38800,"station_id":"ce4bhu92rcd13ifvqi70","pricing_plan_id":"cebpf4jnsgd1na2vs0mg"},{"bike_id":"b1159055-801d-4416-90f4-1e6725770e4a","system_id":"levelo_inurba_marseille","lat":43.27382,"lon":5.36258,"is_reserved":false,"is_disabled":false,"rental_uris":{"android":"levelo://app?vid=b1159055-801d-4416-90f4-1e6725770e4a","ios":"levelo://app?vid=b1159055-801d-4416-90f4-1e6725770e4a"},"vehicle_type_id":"4","last_reported":1726935054,"current_range_meters":2000,"station_id":"ce4bhbh2rcd13ifvqeo0","pricing_plan_id":"cebpf4jnsgd1na2vs0mg"},{"bike_id":"10947507-5989-4804-a5ab-6fbd20ac3b9f","system_id":"levelo_inurba_marseille","lat":43.30946,"lon":5.39029,"is_reserved":false,"is_disabled":false,"rental_uris":{"android":"levelo://app?vid=10947507-5989-4804-a5ab-6fbd20ac3b9f","ios":"levelo://app?vid=10947507-5989-4804-a5ab-6fbd20ac3b9f"},"vehicle_type_id":"4","last_reported":1726935054,"current_range_meters":26800,"station_id":"ce4bgup2rcd13ifvqco0","pricing_plan_id":"cebpf4jnsgd1na2vs0mg"},{"bike_id":"7b838af5-fb46-4844-a9f5-9a622a0326a3","system_id":"levelo_inurba_marseille","lat":43.3136,"lon":5.36707,"is_reserved":false,"is_disabled":false,"rental_uris":{"android":"levelo://app?vid=7b838af5-fb46-4844-a9f5-9a622a0326a3","ios":"levelo://app?vid=7b838af5-fb46-4844-a9f5-9a622a0326a3"},"vehicle_type_id":"4","last_reported":1726935054,"current_range_meters":38800,"station_id":"ce4bgr92rcd13ifvqc6g","pricing_plan_id":"cebpf4jnsgd1na2vs0mg"},{"bike_id":"cdb0e5e5-5e79-4bc4-82b6-78e88d421bc6","system_id":"levelo_inurba_marseille","lat":43.298823,"lon":5.397375,"is_reserved":false,"is_disabled":false,"rental_uris":{"android":"levelo://app?vid=cdb0e5e5-5e79-4bc4-82b6-78e88d421bc6","ios":"levelo://app?vid=cdb0e5e5-5e79-4bc4-82b6-78e88d421bc6"},"vehicle_type_id":"4","last_reported":1726935054,"current_range_meters":13600,"station_id":"ce4bh0h2rcd13ifvqd50","pricing_plan_id":"cebpf4jnsgd1na2vs0mg"},{"bike_id":"71aa8592-ddf7-4343-aed4-c00d3433340f","system_id":"levelo_inurba_marseille","lat":43.337444,"lon":5.374475,"is_reserved":false,"is_disabled":false,"rental_uris":{"android":"levelo://app?vid=71aa8592-ddf7-4343-aed4-c00d3433340f","ios":"levelo://app?vid=71aa8592-ddf7-4343-aed4-c00d3433340f"},"vehicle_type_id":"4","last_reported":1726935054,"current_range_meters":35600,"station_id":"","pricing_plan_id":"cebpf4jnsgd1na2vs0mg"},{"bike_id":"3740c6df-06cd-419b-9ae6-b8d9e5eff548","system_id":"levelo_inurba_marseille","lat":43.2753,"lon":5.40935,"is_reserved":false,"is_disabled":false,"rental_uris":{"android":"levelo://app?vid=3740c6df-06cd-419b-9ae6-b8d9e5eff548","ios":"levelo://app?vid=3740c6df-06cd-419b-9ae6-b8d9e5eff548"},"vehicle_type_id":"4","last_reported":1726935054,"current_range_meters":17200,"station_id":"","pricing_plan_id":"cebpf4jnsgd1na2vs0mg"},{"bike_id":"a08a71e6-1112-4c78-8fb8-2363fc0af058","system_id":"levelo_inurba_marseille","lat":43.2621,"lon":5.37443,"is_reserved":false,"is_disabled":false,"rental_uris":{"android":"levelo://app?vid=a08a71e6-1112-4c78-8fb8-2363fc0af058","ios":"levelo://app?vid=a08a71e6-1112-4c78-8fb8-2363fc0af058"},"vehicle_type_id":"4","last_reported":1726935054,"current_range_meters":18000,"station_id":"ce4bhgp2rcd13ifvqfc0","pricing_plan_id":"cebpf4jnsgd1na2vs0mg"},{"bike_id":"031c7f84-a43a-4deb-9b43-a573dd4a878e","system_id":"levelo_inurba_marseille","lat":43.30536,"lon":5.36649,"is_reserved":false,"is_disabled":false,"rental_uris":{"android":"levelo://app?vid=031c7f84-a43a-4deb-9b43-a573dd4a878e","ios":"levelo://app?vid=031c7f84-a43a-4deb-9b43-a573dd4a878e"},"vehicle_type_id":"4","last_reported":1726935054,"current_range_meters":30400,"station_id":"","pricing_plan_id":"cebpf4jnsgd1na2vs0mg"},{"bike_id":"a5cf0247-0ab9-43f8-95d6-80c707bc393d","system_id":"levelo_inurba_marseille","lat":43.26209,"lon":5.37445,"is_reserved":false,"is_disabled":false,"rental_uris":{"android":"levelo://app?vid=a5cf0247-0ab9-43f8-95d6-80c707bc393d","ios":"levelo://app?vid=a5cf0247-0ab9-43f8-95d6-80c707bc393d"},"vehicle_type_id":"4","last_reported":1726935054,"current_range_meters":38800,"station_id":"ce4bhgp2rcd13ifvqfc0","pricing_plan_id":"cebpf4jnsgd1na2vs0mg"},{"bike_id":"53a580e2-e76b-439b-8305-6be63b4cd5da","system_id":"levelo_inurba_marseille","lat":43.28432,"lon":5.34982,"is_reserved":false,"is_disabled":false,"rental_uris":{"android":"levelo://app?vid=53a580e2-e76b-439b-8305-6be63b4cd5da","ios":"levelo://app?vid=53a580e2-e76b-439b-8305-6be63b4cd5da"},"vehicle_type_id":"4","last_reported":1726935054,"current_range_meters":25200,"station_id":"ce4bhbh2rcd13ifvqepg","pricing_plan_id":"cebpf4jnsgd1na2vs0mg"},{"bike_id":"81f49656-1212-4c2f-8787-abf6b8307f6d","system_id":"levelo_inurba_marseille","lat":43.25864,"lon":5.39902,"is_reserved":false,"is_disabled":false,"rental_uris":{"android":"levelo://app?vid=81f49656-1212-4c2f-8787-abf6b8307f6d","ios":"levelo://app?vid=81f49656-1212-4c2f-8787-abf6b8307f6d"},"vehicle_type_id":"4","last_reported":1726935054,"current_range_meters":7200,"station_id":"ce4bhl92rcd13ifvqghg","pricing_plan_id":"cebpf4jnsgd1na2vs0mg"},{"bike_id":"898778d9-c263-458e-b5a8-d706ae799ca4","system_id":"levelo_inurba_marseille","lat":43.264465,"lon":5.39552,"is_reserved":false,"is_disabled":false,"rental_uris":{"android":"levelo://app?vid=898778d9-c263-458e-b5a8-d706ae799ca4","ios":"levelo://app?vid=898778d9-c263-458e-b5a8-d706ae799ca4"},"vehicle_type_id":"4","last_reported":1726935054,"current_range_meters":36800,"station_id":"ce4bhi12rcd13ifvqfq0","pricing_plan_id":"cebpf4jnsgd1na2vs0mg"},{"bike_id":"cb7a75d8-5b66-4e78-8184-e4777e3c1db3","system_id":"levelo_inurba_marseille","lat":43.30144,"lon":5.39873,"is_reserved":false,"is_disabled":false,"rental_uris":{"android":"levelo://app?vid=cb7a75d8-5b66-4e78-8184-e4777e3c1db3","ios":"levelo://app?vid=cb7a75d8-5b66-4e78-8184-e4777e3c1db3"},"vehicle_type_id":"4","last_reported":1726935054,"current_range_meters":29600,"station_id":"ce4bh0h2rcd13ifvqd40","pricing_plan_id":"cebpf4jnsgd1na2vs0mg"},{"bike_id":"1867c7a2-fa7d-49f1-a901-aa71ffba7dcb","system_id":"levelo_inurba_marseille","lat":43.262068,"lon":5.374412,"is_reserved":false,"is_disabled":false,"rental_uris":{"android":"levelo://app?vid=1867c7a2-fa7d-49f1-a901-aa71ffba7dcb","ios":"levelo://app?vid=1867c7a2-fa7d-49f1-a901-aa71ffba7dcb"},"vehicle_type_id":"4","last_reported":1726935054,"current_range_meters":6400,"station_id":"ce4bhgp2rcd13ifvqfc0","pricing_plan_id":"cebpf4jnsgd1na2vs0mg"},{"bike_id":"cde0423d-03ea-4bec-b45a-1235fe1f1a75","system_id":"levelo_inurba_marseille","lat":43.29874,"lon":5.39728,"is_reserved":false,"is_disabled":false,"rental_uris":{"android":"levelo://app?vid=cde0423d-03ea-4bec-b45a-1235fe1f1a75","ios":"levelo://app?vid=cde0423d-03ea-4bec-b45a-1235fe1f1a75"},"vehicle_type_id":"4","last_reported":1726935054,"current_range_meters":38400,"station_id":"ce4bh0h2rcd13ifvqd50","pricing_plan_id":"cebpf4jnsgd1na2vs0mg"},{"bike_id":"7b2a601f-ebb1-4687-bb17-1a8bcfc71357","system_id":"levelo_inurba_marseille","lat":43.28364,"lon":5.38633,"is_reserved":false,"is_disabled":false,"rental_uris":{"android":"levelo://app?vid=7b2a601f-ebb1-4687-bb17-1a8bcfc71357","ios":"levelo://app?vid=7b2a601f-ebb1-4687-bb17-1a8bcfc71357"},"vehicle_type_id":"4","last_reported":1726935054,"current_range_meters":16400,"station_id":"ce4bh492rcd13ifvqdvg","pricing_plan_id":"cebpf4jnsgd1na2vs0mg"},{"bike_id":"a5df9384-5997-41c3-bd09-91d634a2f44e","system_id":"levelo_inurba_marseille","lat":43.30558,"lon":5.36521,"is_reserved":false,"is_disabled":false,"rental_uris":{"android":"levelo://app?vid=a5df9384-5997-41c3-bd09-91d634a2f44e","ios":"levelo://app?vid=a5df9384-5997-41c3-bd09-91d634a2f44e"},"vehicle_type_id":"4","last_reported":1726935054,"current_range_meters":28400,"station_id":"ce4bgs12rcd13ifvqcag","pricing_plan_id":"cebpf4jnsgd1na2vs0mg"},{"bike_id":"e9d8eb60-61c2-4a2b-ae70-6578f9160657","system_id":"levelo_inurba_marseille","lat":43.26802,"lon":5.40274,"is_reserved":false,"is_disabled":false,"rental_uris":{"android":"levelo://app?vid=e9d8eb60-61c2-4a2b-ae70-6578f9160657","ios":"levelo://app?vid=e9d8eb60-61c2-4a2b-ae70-6578f9160657"},"vehicle_type_id":"4","last_reported":1726935054,"current_range_meters":26800,"station_id":"ce501612rcd8frsf0b60","pricing_plan_id":"cebpf4jnsgd1na2vs0mg"},{"bike_id":"ceb57baa-30b0-4abf-8371-52133a3396a0","system_id":"levelo_inurba_marseille","lat":43.281,"lon":5.3785,"is_reserved":false,"is_disabled":false,"rental_uris":{"android":"levelo://app?vid=ceb57baa-30b0-4abf-8371-52133a3396a0","ios":"levelo://app?vid=ceb57baa-30b0-4abf-8371-52133a3396a0"},"vehicle_type_id":"4","last_reported":1726935054,"current_range_meters":27200,"station_id":"ce4bha12rcd13ifvqee0","pricing_plan_id":"cebpf4jnsgd1na2vs0mg"},{"bike_id":"4f6cd953-65f5-4d4f-a052-70118d864e1d","system_id":"levelo_inurba_marseille","lat":43.29897,"lon":5.43671,"is_reserved":false,"is_disabled":false,"rental_uris":{"android":"levelo://app?vid=4f6cd953-65f5-4d4f-a052-70118d864e1d","ios":"levelo://app?vid=4f6cd953-65f5-4d4f-a052-70118d864e1d"},"vehicle_type_id":"4","last_reported":1726935054,"current_range_meters":8000,"station_id":"ce4bhpp2rcd13ifvqhfg","pricing_plan_id":"cebpf4jnsgd1na2vs0mg"},{"bike_id":"96160ea6-05cb-4339-915c-f628a85d4511","system_id":"levelo_inurba_marseille","lat":43.26568,"lon":5.39017,"is_reserved":false,"is_disabled":false,"rental_uris":{"android":"levelo://app?vid=96160ea6-05cb-4339-915c-f628a85d4511","ios":"levelo://app?vid=96160ea6-05cb-4339-915c-f628a85d4511"},"vehicle_type_id":"4","last_reported":1726935054,"current_range_meters":17200,"station_id":"ce4bhe12rcd13ifvqf30","pricing_plan_id":"cebpf4jnsgd1na2vs0mg"},{"bike_id":"c599e68f-f395-4c20-ab40-d9fde8ce1aa3","system_id":"levelo_inurba_marseille","lat":43.34143,"lon":5.40913,"is_reserved":false,"is_disabled":false,"rental_uris":{"android":"levelo://app?vid=c599e68f-f395-4c20-ab40-d9fde8ce1aa3","ios":"levelo://app?vid=c599e68f-f395-4c20-ab40-d9fde8ce1aa3"},"vehicle_type_id":"4","last_reported":1726935054,"current_range_meters":9600,"station_id":"ce4bhqh2rcd13ifvqhlg","pricing_plan_id":"cebpf4jnsgd1na2vs0mg"},{"bike_id":"0ac10341-5dea-48cf-bb5e-efd4629ba2a8","system_id":"levelo_inurba_marseille","lat":43.29627,"lon":5.37728,"is_reserved":false,"is_disabled":false,"rental_uris":{"android":"levelo://app?vid=0ac10341-5dea-48cf-bb5e-efd4629ba2a8","ios":"levelo://app?vid=0ac10341-5dea-48cf-bb5e-efd4629ba2a8"},"vehicle_type_id":"4","last_reported":1726935054,"current_range_meters":16400,"station_id":"ce4bgi92rcd13ifvqb90","pricing_plan_id":"cebpf4jnsgd1na2vs0mg"},{"bike_id":"0dd06d00-7e66-4af1-82fa-9451fd1d28f2","system_id":"levelo_inurba_marseille","lat":43.27624,"lon":5.36101,"is_reserved":false,"is_disabled":false,"rental_uris":{"android":"levelo://app?vid=0dd06d00-7e66-4af1-82fa-9451fd1d28f2","ios":"levelo://app?vid=0dd06d00-7e66-4af1-82fa-9451fd1d28f2"},"vehicle_type_id":"4","last_reported":1726935054,"current_range_meters":16800,"station_id":"ce4bgj92rcd13ifvqbe0","pricing_plan_id":"cebpf4jnsgd1na2vs0mg"},{"bike_id":"fefc7cd1-4aeb-4b0d-99c0-ff17a5d06ab3","system_id":"levelo_inurba_marseille","lat":43.27917,"lon":5.39587,"is_reserved":false,"is_disabled":false,"rental_uris":{"android":"levelo://app?vid=fefc7cd1-4aeb-4b0d-99c0-ff17a5d06ab3","ios":"levelo://app?vid=fefc7cd1-4aeb-4b0d-99c0-ff17a5d06ab3"},"vehicle_type_id":"4","last_reported":1726935054,"current_range_meters":3600,"station_id":"ce4bhf92rcd13ifvqf40","pricing_plan_id":"cebpf4jnsgd1na2vs0mg"},{"bike_id":"20a81a5e-70bd-4240-b436-bb6c48d6b799","system_id":"levelo_inurba_marseille","lat":43.295807,"lon":5.375185,"is_reserved":false,"is_disabled":false,"rental_uris":{"android":"levelo://app?vid=20a81a5e-70bd-4240-b436-bb6c48d6b799","ios":"levelo://app?vid=20a81a5e-70bd-4240-b436-bb6c48d6b799"},"vehicle_type_id":"4","last_reported":1726935054,"current_range_meters":5600,"station_id":"ce4bgh92rcd13ifvqb50","pricing_plan_id":"cebpf4jnsgd1na2vs0mg"},{"bike_id":"efc28c84-7039-42dd-96d1-45098361ab93","system_id":"levelo_inurba_marseille","lat":43.29917,"lon":5.37456,"is_reserved":false,"is_disabled":false,"rental_uris":{"android":"levelo://app?vid=efc28c84-7039-42dd-96d1-45098361ab93","ios":"levelo://app?vid=efc28c84-7039-42dd-96d1-45098361ab93"},"vehicle_type_id":"4","last_reported":1726935054,"current_range_meters":8800,"station_id":"ce4bgjh2rcd13ifvqbg0","pricing_plan_id":"cebpf4jnsgd1na2vs0mg"},{"bike_id":"e288bc3c-56ab-4816-95f0-52cf97eb86ec","system_id":"levelo_inurba_marseille","lat":43.26028,"lon":5.37552,"is_reserved":false,"is_disabled":false,"rental_uris":{"android":"levelo://app?vid=e288bc3c-56ab-4816-95f0-52cf97eb86ec","ios":"levelo://app?vid=e288bc3c-56ab-4816-95f0-52cf97eb86ec"},"vehicle_type_id":"4","last_reported":1726935054,"current_range_meters":6800,"station_id":"ce4bhgh2rcd13ifvqfa0","pricing_plan_id":"cebpf4jnsgd1na2vs0mg"},{"bike_id":"2d553b21-1e19-4586-8836-376b6b638be6","system_id":"levelo_inurba_marseille","lat":43.302649,"lon":5.377127,"is_reserved":false,"is_disabled":false,"rental_uris":{"android":"levelo://app?vid=2d553b21-1e19-4586-8836-376b6b638be6","ios":"levelo://app?vid=2d553b21-1e19-4586-8836-376b6b638be6"},"vehicle_type_id":"4","last_reported":1726935054,"current_range_meters":2000,"station_id":"ce4bguh2rcd13ifvqcj0","pricing_plan_id":"cebpf4jnsgd1na2vs0mg"},{"bike_id":"612f8825-af75-4595-a617-6107af8196ae","system_id":"levelo_inurba_marseille","lat":43.23145,"lon":5.43711,"is_reserved":false,"is_disabled":false,"rental_uris":{"android":"levelo://app?vid=612f8825-af75-4595-a617-6107af8196ae","ios":"levelo://app?vid=612f8825-af75-4595-a617-6107af8196ae"},"vehicle_type_id":"4","last_reported":1726935054,"current_range_meters":21600,"station_id":"ce4bhmp2rcd13ifvqgog","pricing_plan_id":"cebpf4jnsgd1na2vs0mg"},{"bike_id":"bfca37a8-1861-48eb-beca-7fc4d57fd476","system_id":"levelo_inurba_marseille","lat":43.312635,"lon":5.401677,"is_reserved":false,"is_disabled":false,"rental_uris":{"android":"levelo://app?vid=bfca37a8-1861-48eb-beca-7fc4d57fd476","ios":"levelo://app?vid=bfca37a8-1861-48eb-beca-7fc4d57fd476"},"vehicle_type_id":"4","last_reported":1726935054,"current_range_meters":9600,"station_id":"ce4bh092rcd13ifvqd30","pricing_plan_id":"cebpf4jnsgd1na2vs0mg"},{"bike_id":"29058ff5-4d24-4c57-9c80-3c616b905bac","system_id":"levelo_inurba_marseille","lat":43.29547,"lon":5.42282,"is_reserved":false,"is_disabled":false,"rental_uris":{"android":"levelo://app?vid=29058ff5-4d24-4c57-9c80-3c616b905bac","ios":"levelo://app?vid=29058ff5-4d24-4c57-9c80-3c616b905bac"},"vehicle_type_id":"4","last_reported":1726935054,"current_range_meters":37600,"station_id":"ce4bhph2rcd13ifvqhdg","pricing_plan_id":"cebpf4jnsgd1na2vs0mg"},{"bike_id":"f4388989-92c8-4da8-b340-ccf19390c443","system_id":"levelo_inurba_marseille","lat":43.31119,"lon":5.37769,"is_reserved":false,"is_disabled":false,"rental_uris":{"android":"levelo://app?vid=f4388989-92c8-4da8-b340-ccf19390c443","ios":"levelo://app?vid=f4388989-92c8-4da8-b340-ccf19390c443"},"vehicle_type_id":"4","last_reported":1726935054,"current_range_meters":35600,"station_id":"ce4bgt92rcd13ifvqcg0","pricing_plan_id":"cebpf4jnsgd1na2vs0mg"},{"bike_id":"bce83964-771d-421d-a795-c2b376c5b9dc","system_id":"levelo_inurba_marseille","lat":43.23199,"lon":5.35551,"is_reserved":false,"is_disabled":false,"rental_uris":{"android":"levelo://app?vid=bce83964-771d-421d-a795-c2b376c5b9dc","ios":"levelo://app?vid=bce83964-771d-421d-a795-c2b376c5b9dc"},"vehicle_type_id":"4","last_reported":1726935054,"current_range_meters":18000,"station_id":"ce4bhu92rcd13ifvqi70","pricing_plan_id":"cebpf4jnsgd1na2vs0mg"},{"bike_id":"25617aa1-c895-4bb6-8fe2-ab45c098ecc0","system_id":"levelo_inurba_marseille","lat":43.271179,"lon":5.389094,"is_reserved":false,"is_disabled":false,"rental_uris":{"android":"levelo://app?vid=25617aa1-c895-4bb6-8fe2-ab45c098ecc0","ios":"levelo://app?vid=25617aa1-c895-4bb6-8fe2-ab45c098ecc0"},"vehicle_type_id":"4","last_reported":1726935054,"current_range_meters":25600,"station_id":"ce4bhgh2rcd13ifvqfb0","pricing_plan_id":"cebpf4jnsgd1na2vs0mg"},{"bike_id":"ddce8960-8650-4f32-bd3a-292e27e340da","system_id":"levelo_inurba_marseille","lat":43.31225,"lon":5.36866,"is_reserved":false,"is_disabled":false,"rental_uris":{"android":"levelo://app?vid=ddce8960-8650-4f32-bd3a-292e27e340da","ios":"levelo://app?vid=ddce8960-8650-4f32-bd3a-292e27e340da"},"vehicle_type_id":"4","last_reported":1726935054,"current_range_meters":4400,"station_id":"ce4bgl92rcd13ifvqbq0","pricing_plan_id":"cebpf4jnsgd1na2vs0mg"},{"bike_id":"974d43ad-bdb3-463b-8bd6-64a5650ca00c","system_id":"levelo_inurba_marseille","lat":43.29871,"lon":5.39736,"is_reserved":false,"is_disabled":false,"rental_uris":{"android":"levelo://app?vid=974d43ad-bdb3-463b-8bd6-64a5650ca00c","ios":"levelo://app?vid=974d43ad-bdb3-463b-8bd6-64a5650ca00c"},"vehicle_type_id":"4","last_reported":1726935054,"current_range_meters":32000,"station_id":"ce4bh0h2rcd13ifvqd50","pricing_plan_id":"cebpf4jnsgd1na2vs0mg"},{"bike_id":"4f0cea71-20d5-4d25-9732-1e2eae6daeb1","system_id":"levelo_inurba_marseille","lat":43.27567,"lon":5.38418,"is_reserved":false,"is_disabled":false,"rental_uris":{"android":"levelo://app?vid=4f0cea71-20d5-4d25-9732-1e2eae6daeb1","ios":"levelo://app?vid=4f0cea71-20d5-4d25-9732-1e2eae6daeb1"},"vehicle_type_id":"4","last_reported":1726935054,"current_range_meters":9600,"station_id":"ce4bhh92rcd13ifvqfi0","pricing_plan_id":"cebpf4jnsgd1na2vs0mg"},{"bike_id":"f72a91e3-9830-4f72-be57-370f9792a305","system_id":"levelo_inurba_marseille","lat":43.29787,"lon":5.37105,"is_reserved":false,"is_disabled":false,"rental_uris":{"android":"levelo://app?vid=f72a91e3-9830-4f72-be57-370f9792a305","ios":"levelo://app?vid=f72a91e3-9830-4f72-be57-370f9792a305"},"vehicle_type_id":"4","last_reported":1726935054,"current_range_meters":36400,"station_id":"ce4bgop2rcd13ifvqc1g","pricing_plan_id":"cebpf4jnsgd1na2vs0mg"},{"bike_id":"859a24bf-4051-43e9-997f-28be83d59cc4","system_id":"levelo_inurba_marseille","lat":43.29272,"lon":5.3684,"is_reserved":false,"is_disabled":false,"rental_uris":{"android":"levelo://app?vid=859a24bf-4051-43e9-997f-28be83d59cc4","ios":"levelo://app?vid=859a24bf-4051-43e9-997f-28be83d59cc4"},"vehicle_type_id":"4","last_reported":1726935054,"current_range_meters":30000,"station_id":"ce4bhbp2rcd13ifvqesg","pricing_plan_id":"cebpf4jnsgd1na2vs0mg"},{"bike_id":"e58a60e4-da3a-477f-9494-86d01468265e","system_id":"levelo_inurba_marseille","lat":43.28732,"lon":5.37932,"is_reserved":false,"is_disabled":false,"rental_uris":{"android":"levelo://app?vid=e58a60e4-da3a-477f-9494-86d01468265e","ios":"levelo://app?vid=e58a60e4-da3a-477f-9494-86d01468265e"},"vehicle_type_id":"4","last_reported":1726935054,"current_range_meters":20000,"station_id":"ce4bh9p2rcd13ifvqec0","pricing_plan_id":"cebpf4jnsgd1na2vs0mg"},{"bike_id":"4b79aeac-06b9-4e13-919e-ed46d13f9248","system_id":"levelo_inurba_marseille","lat":43.270721,"lon":5.422831,"is_reserved":false,"is_disabled":false,"rental_uris":{"android":"levelo://app?vid=4b79aeac-06b9-4e13-919e-ed46d13f9248","ios":"levelo://app?vid=4b79aeac-06b9-4e13-919e-ed46d13f9248"},"vehicle_type_id":"4","last_reported":1726935054,"current_range_meters":6800,"station_id":"ce4bhk92rcd13ifvqgb0","pricing_plan_id":"cebpf4jnsgd1na2vs0mg"},{"bike_id":"fb2b63d9-4a26-4602-9a57-d2caab531ee7","system_id":"levelo_inurba_marseille","lat":43.33726,"lon":5.39184,"is_reserved":false,"is_disabled":false,"rental_uris":{"android":"levelo://app?vid=fb2b63d9-4a26-4602-9a57-d2caab531ee7","ios":"levelo://app?vid=fb2b63d9-4a26-4602-9a57-d2caab531ee7"},"vehicle_type_id":"4","last_reported":1726935054,"current_range_meters":38000,"station_id":"ce4bhr92rcd13ifvqhsg","pricing_plan_id":"cebpf4jnsgd1na2vs0mg"},{"bike_id":"83a9c4b9-1207-41cf-b063-ee79a33a8955","system_id":"levelo_inurba_marseille","lat":43.304596,"lon":5.379009,"is_reserved":false,"is_disabled":false,"rental_uris":{"android":"levelo://app?vid=83a9c4b9-1207-41cf-b063-ee79a33a8955","ios":"levelo://app?vid=83a9c4b9-1207-41cf-b063-ee79a33a8955"},"vehicle_type_id":"4","last_reported":1726935054,"current_range_meters":9200,"station_id":"ce4bgup2rcd13ifvqcn0","pricing_plan_id":"cebpf4jnsgd1na2vs0mg"},{"bike_id":"a5fbc1af-244d-49b6-974c-70aee098bd32","system_id":"levelo_inurba_marseille","lat":43.309366,"lon":5.390375,"is_reserved":false,"is_disabled":false,"rental_uris":{"android":"levelo://app?vid=a5fbc1af-244d-49b6-974c-70aee098bd32","ios":"levelo://app?vid=a5fbc1af-244d-49b6-974c-70aee098bd32"},"vehicle_type_id":"4","last_reported":1726935054,"current_range_meters":22800,"station_id":"ce4bgup2rcd13ifvqco0","pricing_plan_id":"cebpf4jnsgd1na2vs0mg"},{"bike_id":"bc08376a-82e9-4ff2-bfc9-3c20a1e75b8e","system_id":"levelo_inurba_marseille","lat":43.29227,"lon":5.36225,"is_reserved":false,"is_disabled":false,"rental_uris":{"android":"levelo://app?vid=bc08376a-82e9-4ff2-bfc9-3c20a1e75b8e","ios":"levelo://app?vid=bc08376a-82e9-4ff2-bfc9-3c20a1e75b8e"},"vehicle_type_id":"4","last_reported":1726935054,"current_range_meters":5600,"station_id":"","pricing_plan_id":"cebpf4jnsgd1na2vs0mg"},{"bike_id":"eedc8845-3dd8-40fb-8b7f-bdb15376dafc","system_id":"levelo_inurba_marseille","lat":43.24806,"lon":5.37457,"is_reserved":false,"is_disabled":false,"rental_uris":{"android":"levelo://app?vid=eedc8845-3dd8-40fb-8b7f-bdb15376dafc","ios":"levelo://app?vid=eedc8845-3dd8-40fb-8b7f-bdb15376dafc"},"vehicle_type_id":"4","last_reported":1726935054,"current_range_meters":38800,"station_id":"ce4bhgh2rcd13ifvqfb0","pricing_plan_id":"cebpf4jnsgd1na2vs0mg"},{"bike_id":"d6758936-57ee-46a4-99e0-3c970c8a9737","system_id":"levelo_inurba_marseille","lat":43.305436,"lon":5.384217,"is_reserved":false,"is_disabled":false,"rental_uris":{"android":"levelo://app?vid=d6758936-57ee-46a4-99e0-3c970c8a9737","ios":"levelo://app?vid=d6758936-57ee-46a4-99e0-3c970c8a9737"},"vehicle_type_id":"4","last_reported":1726935054,"current_range_meters":14000,"station_id":"ce4bgg92rcd13ifvqb30","pricing_plan_id":"cebpf4jnsgd1na2vs0mg"},{"bike_id":"b869f1ae-f37d-464a-8d18-0fd8cd3f314c","system_id":"levelo_inurba_marseille","lat":43.29148,"lon":5.40621,"is_reserved":false,"is_disabled":false,"rental_uris":{"android":"levelo://app?vid=b869f1ae-f37d-464a-8d18-0fd8cd3f314c","ios":"levelo://app?vid=b869f1ae-f37d-464a-8d18-0fd8cd3f314c"},"vehicle_type_id":"4","last_reported":1726935054,"current_range_meters":2800,"station_id":"","pricing_plan_id":"cebpf4jnsgd1na2vs0mg"},{"bike_id":"539bd5a5-aa1f-4c89-aece-7e8702123915","system_id":"levelo_inurba_marseille","lat":43.27573,"lon":5.38417,"is_reserved":false,"is_disabled":false,"rental_uris":{"android":"levelo://app?vid=539bd5a5-aa1f-4c89-aece-7e8702123915","ios":"levelo://app?vid=539bd5a5-aa1f-4c89-aece-7e8702123915"},"vehicle_type_id":"4","last_reported":1726935054,"current_range_meters":29600,"station_id":"ce4bhh92rcd13ifvqfi0","pricing_plan_id":"cebpf4jnsgd1na2vs0mg"},{"bike_id":"fa690805-233a-4a70-a9f3-33f1b67cdb1f","system_id":"levelo_inurba_marseille","lat":43.32288,"lon":5.38256,"is_reserved":false,"is_disabled":false,"rental_uris":{"android":"levelo://app?vid=fa690805-233a-4a70-a9f3-33f1b67cdb1f","ios":"levelo://app?vid=fa690805-233a-4a70-a9f3-33f1b67cdb1f"},"vehicle_type_id":"4","last_reported":1726935054,"current_range_meters":11200,"station_id":"ce4bhr12rcd13ifvqhqg","pricing_plan_id":"cebpf4jnsgd1na2vs0mg"},{"bike_id":"897f19b8-7bd8-4a46-b9b4-dbafaea756fb","system_id":"levelo_inurba_marseille","lat":43.24815,"lon":5.3746,"is_reserved":false,"is_disabled":false,"rental_uris":{"android":"levelo://app?vid=897f19b8-7bd8-4a46-b9b4-dbafaea756fb","ios":"levelo://app?vid=897f19b8-7bd8-4a46-b9b4-dbafaea756fb"},"vehicle_type_id":"4","last_reported":1726935054,"current_range_meters":38800,"station_id":"ce4bhgh2rcd13ifvqfb0","pricing_plan_id":"cebpf4jnsgd1na2vs0mg"},{"bike_id":"5538791c-46ef-4dd6-bb61-9569d67885c3","system_id":"levelo_inurba_marseille","lat":43.28429,"lon":5.34993,"is_reserved":false,"is_disabled":false,"rental_uris":{"android":"levelo://app?vid=5538791c-46ef-4dd6-bb61-9569d67885c3","ios":"levelo://app?vid=5538791c-46ef-4dd6-bb61-9569d67885c3"},"vehicle_type_id":"4","last_reported":1726935054,"current_range_meters":18000,"station_id":"ce4bhbh2rcd13ifvqepg","pricing_plan_id":"cebpf4jnsgd1na2vs0mg"},{"bike_id":"26ebbe2b-4772-4296-80de-5c6ca9527003","system_id":"levelo_inurba_marseille","lat":43.33609,"lon":5.41037,"is_reserved":false,"is_disabled":false,"rental_uris":{"android":"levelo://app?vid=26ebbe2b-4772-4296-80de-5c6ca9527003","ios":"levelo://app?vid=26ebbe2b-4772-4296-80de-5c6ca9527003"},"vehicle_type_id":"4","last_reported":1726935054,"current_range_meters":21600,"station_id":"ce4bhqh2rcd13ifvqhmg","pricing_plan_id":"cebpf4jnsgd1na2vs0mg"},{"bike_id":"5670ce8b-d9ab-44c9-8aee-107d95f09d16","system_id":"levelo_inurba_marseille","lat":43.3054,"lon":5.36552,"is_reserved":false,"is_disabled":false,"rental_uris":{"android":"levelo://app?vid=5670ce8b-d9ab-44c9-8aee-107d95f09d16","ios":"levelo://app?vid=5670ce8b-d9ab-44c9-8aee-107d95f09d16"},"vehicle_type_id":"4","last_reported":1726935054,"current_range_meters":28800,"station_id":"ce4bgs12rcd13ifvqcag","pricing_plan_id":"cebpf4jnsgd1na2vs0mg"},{"bike_id":"b2763354-ec6c-4733-8de6-6c4493759ae9","system_id":"levelo_inurba_marseille","lat":43.29065,"lon":5.40157,"is_reserved":false,"is_disabled":false,"rental_uris":{"android":"levelo://app?vid=b2763354-ec6c-4733-8de6-6c4493759ae9","ios":"levelo://app?vid=b2763354-ec6c-4733-8de6-6c4493759ae9"},"vehicle_type_id":"4","last_reported":1726935054,"current_range_meters":13600,"station_id":"","pricing_plan_id":"cebpf4jnsgd1na2vs0mg"},{"bike_id":"560f19b2-c70c-425f-b17d-64397a9e5e8b","system_id":"levelo_inurba_marseille","lat":43.295868,"lon":5.380984,"is_reserved":false,"is_disabled":false,"rental_uris":{"android":"levelo://app?vid=560f19b2-c70c-425f-b17d-64397a9e5e8b","ios":"levelo://app?vid=560f19b2-c70c-425f-b17d-64397a9e5e8b"},"vehicle_type_id":"4","last_reported":1726935054,"current_range_meters":2000,"station_id":"ce4bgl12rcd13ifvqbo0","pricing_plan_id":"cebpf4jnsgd1na2vs0mg"},{"bike_id":"9fac4a1f-47d0-4ac6-baa3-fc85bb34d5b4","system_id":"levelo_inurba_marseille","lat":43.30545,"lon":5.36701,"is_reserved":false,"is_disabled":false,"rental_uris":{"android":"levelo://app?vid=9fac4a1f-47d0-4ac6-baa3-fc85bb34d5b4","ios":"levelo://app?vid=9fac4a1f-47d0-4ac6-baa3-fc85bb34d5b4"},"vehicle_type_id":"4","last_reported":1726935054,"current_range_meters":39200,"station_id":"ce4bgrp2rcd13ifvqc9g","pricing_plan_id":"cebpf4jnsgd1na2vs0mg"},{"bike_id":"c8eacdbb-fb54-4fc9-8131-7c326f584aa3","system_id":"levelo_inurba_marseille","lat":43.287079,"lon":5.399942,"is_reserved":false,"is_disabled":false,"rental_uris":{"android":"levelo://app?vid=c8eacdbb-fb54-4fc9-8131-7c326f584aa3","ios":"levelo://app?vid=c8eacdbb-fb54-4fc9-8131-7c326f584aa3"},"vehicle_type_id":"4","last_reported":1726935054,"current_range_meters":30800,"station_id":"ce4bho92rcd13ifvqh3g","pricing_plan_id":"cebpf4jnsgd1na2vs0mg"},{"bike_id":"704c2eb2-ead0-4aa2-8a15-aef347b5703b","system_id":"levelo_inurba_marseille","lat":43.299706,"lon":5.384866,"is_reserved":false,"is_disabled":false,"rental_uris":{"android":"levelo://app?vid=704c2eb2-ead0-4aa2-8a15-aef347b5703b","ios":"levelo://app?vid=704c2eb2-ead0-4aa2-8a15-aef347b5703b"},"vehicle_type_id":"4","last_reported":1726935054,"current_range_meters":14400,"station_id":"","pricing_plan_id":"cebpf4jnsgd1na2vs0mg"},{"bike_id":"01d24e26-0b29-41ce-a5d3-3b08d979185b","system_id":"levelo_inurba_marseille","lat":43.260675,"lon":5.393962,"is_reserved":false,"is_disabled":false,"rental_uris":{"android":"levelo://app?vid=01d24e26-0b29-41ce-a5d3-3b08d979185b","ios":"levelo://app?vid=01d24e26-0b29-41ce-a5d3-3b08d979185b"},"vehicle_type_id":"4","last_reported":1726935054,"current_range_meters":17200,"station_id":"ce4bhh92rcd13ifvqfj0","pricing_plan_id":"cebpf4jnsgd1na2vs0mg"},{"bike_id":"c2c9a555-6ec8-4b92-b33e-073571605c93","system_id":"levelo_inurba_marseille","lat":43.23194,"lon":5.3555,"is_reserved":false,"is_disabled":false,"rental_uris":{"android":"levelo://app?vid=c2c9a555-6ec8-4b92-b33e-073571605c93","ios":"levelo://app?vid=c2c9a555-6ec8-4b92-b33e-073571605c93"},"vehicle_type_id":"4","last_reported":1726935054,"current_range_meters":20000,"station_id":"ce4bhu92rcd13ifvqi70","pricing_plan_id":"cebpf4jnsgd1na2vs0mg"},{"bike_id":"55825df2-7169-40c3-b34a-148fef6ebe50","system_id":"levelo_inurba_marseille","lat":43.23959,"lon":5.36621,"is_reserved":false,"is_disabled":false,"rental_uris":{"android":"levelo://app?vid=55825df2-7169-40c3-b34a-148fef6ebe50","ios":"levelo://app?vid=55825df2-7169-40c3-b34a-148fef6ebe50"},"vehicle_type_id":"4","last_reported":1726935054,"current_range_meters":9600,"station_id":"ce4bhi12rcd13ifvqfp0","pricing_plan_id":"cebpf4jnsgd1na2vs0mg"},{"bike_id":"aaa5c187-dedb-40a2-a249-8f2117fe26cf","system_id":"levelo_inurba_marseille","lat":43.23195,"lon":5.35558,"is_reserved":false,"is_disabled":false,"rental_uris":{"android":"levelo://app?vid=aaa5c187-dedb-40a2-a249-8f2117fe26cf","ios":"levelo://app?vid=aaa5c187-dedb-40a2-a249-8f2117fe26cf"},"vehicle_type_id":"4","last_reported":1726935054,"current_range_meters":37600,"station_id":"ce4bhu92rcd13ifvqi70","pricing_plan_id":"cebpf4jnsgd1na2vs0mg"},{"bike_id":"ecee3ef6-6351-4e0e-9e8c-d941697fb0f6","system_id":"levelo_inurba_marseille","lat":43.26557,"lon":5.3728,"is_reserved":false,"is_disabled":false,"rental_uris":{"android":"levelo://app?vid=ecee3ef6-6351-4e0e-9e8c-d941697fb0f6","ios":"levelo://app?vid=ecee3ef6-6351-4e0e-9e8c-d941697fb0f6"},"vehicle_type_id":"4","last_reported":1726935054,"current_range_meters":18000,"station_id":"ce4bhg12rcd13ifvqf70","pricing_plan_id":"cebpf4jnsgd1na2vs0mg"},{"bike_id":"fd025459-cfa4-427d-9f90-7216a1a41593","system_id":"levelo_inurba_marseille","lat":43.25004,"lon":5.38923,"is_reserved":false,"is_disabled":false,"rental_uris":{"android":"levelo://app?vid=fd025459-cfa4-427d-9f90-7216a1a41593","ios":"levelo://app?vid=fd025459-cfa4-427d-9f90-7216a1a41593"},"vehicle_type_id":"4","last_reported":1726935054,"current_range_meters":34000,"station_id":"ce4bhgp2rcd13ifvqfd0","pricing_plan_id":"cebpf4jnsgd1na2vs0mg"},{"bike_id":"d82e943b-b342-4592-aaad-417ce53adf79","system_id":"levelo_inurba_marseille","lat":43.261907,"lon":5.374514,"is_reserved":false,"is_disabled":false,"rental_uris":{"android":"levelo://app?vid=d82e943b-b342-4592-aaad-417ce53adf79","ios":"levelo://app?vid=d82e943b-b342-4592-aaad-417ce53adf79"},"vehicle_type_id":"4","last_reported":1726935054,"current_range_meters":36800,"station_id":"ce4bhgp2rcd13ifvqfc0","pricing_plan_id":"cebpf4jnsgd1na2vs0mg"},{"bike_id":"c2df6ef3-5ec0-44d6-8e3d-912f9f9f5072","system_id":"levelo_inurba_marseille","lat":43.288168,"lon":5.391973,"is_reserved":false,"is_disabled":false,"rental_uris":{"android":"levelo://app?vid=c2df6ef3-5ec0-44d6-8e3d-912f9f9f5072","ios":"levelo://app?vid=c2df6ef3-5ec0-44d6-8e3d-912f9f9f5072"},"vehicle_type_id":"4","last_reported":1726935054,"current_range_meters":6800,"station_id":"ce4bh2p2rcd13ifvqdi0","pricing_plan_id":"cebpf4jnsgd1na2vs0mg"},{"bike_id":"7f2dc8a6-c367-4027-85cf-6ce78cc9a358","system_id":"levelo_inurba_marseille","lat":43.28933,"lon":5.38384,"is_reserved":false,"is_disabled":false,"rental_uris":{"android":"levelo://app?vid=7f2dc8a6-c367-4027-85cf-6ce78cc9a358","ios":"levelo://app?vid=7f2dc8a6-c367-4027-85cf-6ce78cc9a358"},"vehicle_type_id":"4","last_reported":1726935054,"current_range_meters":13600,"station_id":"ce4bh612rcd13ifvqe6g","pricing_plan_id":"cebpf4jnsgd1na2vs0mg"},{"bike_id":"33b65e4f-aab6-44dd-8953-f748d2d7a4a5","system_id":"levelo_inurba_marseille","lat":43.24808,"lon":5.37458,"is_reserved":false,"is_disabled":false,"rental_uris":{"android":"levelo://app?vid=33b65e4f-aab6-44dd-8953-f748d2d7a4a5","ios":"levelo://app?vid=33b65e4f-aab6-44dd-8953-f748d2d7a4a5"},"vehicle_type_id":"4","last_reported":1726935054,"current_range_meters":9200,"station_id":"ce4bhgh2rcd13ifvqfb0","pricing_plan_id":"cebpf4jnsgd1na2vs0mg"},{"bike_id":"bb161a2c-0991-4e14-999a-cc9dfc93b01d","system_id":"levelo_inurba_marseille","lat":43.29034,"lon":5.37562,"is_reserved":false,"is_disabled":false,"rental_uris":{"android":"levelo://app?vid=bb161a2c-0991-4e14-999a-cc9dfc93b01d","ios":"levelo://app?vid=bb161a2c-0991-4e14-999a-cc9dfc93b01d"},"vehicle_type_id":"4","last_reported":1726935054,"current_range_meters":38800,"station_id":"ce4bh692rcd13ifvqe90","pricing_plan_id":"cebpf4jnsgd1na2vs0mg"},{"bike_id":"0ee9b5f0-5a46-4190-83cc-5d6d4f1d37a1","system_id":"levelo_inurba_marseille","lat":43.27609,"lon":5.36116,"is_reserved":false,"is_disabled":false,"rental_uris":{"android":"levelo://app?vid=0ee9b5f0-5a46-4190-83cc-5d6d4f1d37a1","ios":"levelo://app?vid=0ee9b5f0-5a46-4190-83cc-5d6d4f1d37a1"},"vehicle_type_id":"4","last_reported":1726935054,"current_range_meters":19600,"station_id":"ce4bgj92rcd13ifvqbe0","pricing_plan_id":"cebpf4jnsgd1na2vs0mg"},{"bike_id":"598539f9-f8b2-4ce4-bc29-852a23adc8f1","system_id":"levelo_inurba_marseille","lat":43.23192,"lon":5.35556,"is_reserved":false,"is_disabled":false,"rental_uris":{"android":"levelo://app?vid=598539f9-f8b2-4ce4-bc29-852a23adc8f1","ios":"levelo://app?vid=598539f9-f8b2-4ce4-bc29-852a23adc8f1"},"vehicle_type_id":"4","last_reported":1726935054,"current_range_meters":7200,"station_id":"ce4bhu92rcd13ifvqi70","pricing_plan_id":"cebpf4jnsgd1na2vs0mg"},{"bike_id":"a8302b1e-b411-453e-9b11-b5824b54de4f","system_id":"levelo_inurba_marseille","lat":43.302583,"lon":5.400689,"is_reserved":false,"is_disabled":false,"rental_uris":{"android":"levelo://app?vid=a8302b1e-b411-453e-9b11-b5824b54de4f","ios":"levelo://app?vid=a8302b1e-b411-453e-9b11-b5824b54de4f"},"vehicle_type_id":"4","last_reported":1726935054,"current_range_meters":18800,"station_id":"ce4bgvh2rcd13ifvqcs0","pricing_plan_id":"cebpf4jnsgd1na2vs0mg"},{"bike_id":"2b35edc0-f969-4162-8d5c-3d9b3e70e5c1","system_id":"levelo_inurba_marseille","lat":43.26212,"lon":5.37444,"is_reserved":false,"is_disabled":false,"rental_uris":{"android":"levelo://app?vid=2b35edc0-f969-4162-8d5c-3d9b3e70e5c1","ios":"levelo://app?vid=2b35edc0-f969-4162-8d5c-3d9b3e70e5c1"},"vehicle_type_id":"4","last_reported":1726935054,"current_range_meters":11200,"station_id":"ce4bhgp2rcd13ifvqfc0","pricing_plan_id":"cebpf4jnsgd1na2vs0mg"},{"bike_id":"31444d97-ada7-4c14-9ccc-e8d8f546def7","system_id":"levelo_inurba_marseille","lat":43.26937,"lon":5.36663,"is_reserved":false,"is_disabled":false,"rental_uris":{"android":"levelo://app?vid=31444d97-ada7-4c14-9ccc-e8d8f546def7","ios":"levelo://app?vid=31444d97-ada7-4c14-9ccc-e8d8f546def7"},"vehicle_type_id":"4","last_reported":1726935054,"current_range_meters":8800,"station_id":"","pricing_plan_id":"cebpf4jnsgd1na2vs0mg"},{"bike_id":"941c2be7-38c9-4594-8d09-931cf3867569","system_id":"levelo_inurba_marseille","lat":43.26552,"lon":5.373,"is_reserved":false,"is_disabled":false,"rental_uris":{"android":"levelo://app?vid=941c2be7-38c9-4594-8d09-931cf3867569","ios":"levelo://app?vid=941c2be7-38c9-4594-8d09-931cf3867569"},"vehicle_type_id":"4","last_reported":1726935054,"current_range_meters":25600,"station_id":"ce4bhg12rcd13ifvqf70","pricing_plan_id":"cebpf4jnsgd1na2vs0mg"},{"bike_id":"a7728853-e936-4d51-a877-e04a44953cd3","system_id":"levelo_inurba_marseille","lat":43.30132,"lon":5.39869,"is_reserved":false,"is_disabled":false,"rental_uris":{"android":"levelo://app?vid=a7728853-e936-4d51-a877-e04a44953cd3","ios":"levelo://app?vid=a7728853-e936-4d51-a877-e04a44953cd3"},"vehicle_type_id":"4","last_reported":1726935054,"current_range_meters":26800,"station_id":"ce4bh3p2rcd13ifvqdp0","pricing_plan_id":"cebpf4jnsgd1na2vs0mg"},{"bike_id":"71450835-ec7c-4b5c-b22d-7e1668bf42fe","system_id":"levelo_inurba_marseille","lat":43.25069,"lon":5.39735,"is_reserved":false,"is_disabled":false,"rental_uris":{"android":"levelo://app?vid=71450835-ec7c-4b5c-b22d-7e1668bf42fe","ios":"levelo://app?vid=71450835-ec7c-4b5c-b22d-7e1668bf42fe"},"vehicle_type_id":"4","last_reported":1726935054,"current_range_meters":29600,"station_id":"","pricing_plan_id":"cebpf4jnsgd1na2vs0mg"},{"bike_id":"5630df25-5a58-4805-96bc-93cbe8a61bee","system_id":"levelo_inurba_marseille","lat":43.29964,"lon":5.41317,"is_reserved":false,"is_disabled":false,"rental_uris":{"android":"levelo://app?vid=5630df25-5a58-4805-96bc-93cbe8a61bee","ios":"levelo://app?vid=5630df25-5a58-4805-96bc-93cbe8a61bee"},"vehicle_type_id":"4","last_reported":1726935054,"current_range_meters":3200,"station_id":"ce4bhp12rcd13ifvqh9g","pricing_plan_id":"cebpf4jnsgd1na2vs0mg"},{"bike_id":"d323bc23-4105-4d98-87ab-fb3899c88f8a","system_id":"levelo_inurba_marseille","lat":43.23197,"lon":5.35559,"is_reserved":false,"is_disabled":false,"rental_uris":{"android":"levelo://app?vid=d323bc23-4105-4d98-87ab-fb3899c88f8a","ios":"levelo://app?vid=d323bc23-4105-4d98-87ab-fb3899c88f8a"},"vehicle_type_id":"4","last_reported":1726935054,"current_range_meters":36800,"station_id":"ce4bhu92rcd13ifvqi70","pricing_plan_id":"cebpf4jnsgd1na2vs0mg"},{"bike_id":"ec99b11e-672b-477e-ab40-2acb2cd7ae10","system_id":"levelo_inurba_marseille","lat":43.28076,"lon":5.39665,"is_reserved":false,"is_disabled":false,"rental_uris":{"android":"levelo://app?vid=ec99b11e-672b-477e-ab40-2acb2cd7ae10","ios":"levelo://app?vid=ec99b11e-672b-477e-ab40-2acb2cd7ae10"},"vehicle_type_id":"4","last_reported":1726935054,"current_range_meters":32000,"station_id":"ce4bho12rcd13ifvqh2g","pricing_plan_id":"cebpf4jnsgd1na2vs0mg"},{"bike_id":"0d966cb9-7fe6-4ede-8012-01837258dae5","system_id":"levelo_inurba_marseille","lat":43.30805,"lon":5.43527,"is_reserved":false,"is_disabled":false,"rental_uris":{"android":"levelo://app?vid=0d966cb9-7fe6-4ede-8012-01837258dae5","ios":"levelo://app?vid=0d966cb9-7fe6-4ede-8012-01837258dae5"},"vehicle_type_id":"4","last_reported":1726935054,"current_range_meters":19200,"station_id":"ce4bhph2rcd13ifvqheg","pricing_plan_id":"cebpf4jnsgd1na2vs0mg"},{"bike_id":"33d6ff2c-e9ab-420e-9dd7-bcdb5d1a399f","system_id":"levelo_inurba_marseille","lat":43.3171,"lon":5.43711,"is_reserved":false,"is_disabled":false,"rental_uris":{"android":"levelo://app?vid=33d6ff2c-e9ab-420e-9dd7-bcdb5d1a399f","ios":"levelo://app?vid=33d6ff2c-e9ab-420e-9dd7-bcdb5d1a399f"},"vehicle_type_id":"4","last_reported":1726935054,"current_range_meters":38800,"station_id":"ce4bhp92rcd13ifvqhcg","pricing_plan_id":"cebpf4jnsgd1na2vs0mg"},{"bike_id":"c587cd78-ce9b-4bcd-b985-36197f02451c","system_id":"levelo_inurba_marseille","lat":43.30461,"lon":5.37905,"is_reserved":false,"is_disabled":false,"rental_uris":{"android":"levelo://app?vid=c587cd78-ce9b-4bcd-b985-36197f02451c","ios":"levelo://app?vid=c587cd78-ce9b-4bcd-b985-36197f02451c"},"vehicle_type_id":"4","last_reported":1726935054,"current_range_meters":36400,"station_id":"ce4bgup2rcd13ifvqcn0","pricing_plan_id":"cebpf4jnsgd1na2vs0mg"},{"bike_id":"0814daaf-93c0-44ce-a2d1-8c879035e490","system_id":"levelo_inurba_marseille","lat":43.292725,"lon":5.368463,"is_reserved":false,"is_disabled":false,"rental_uris":{"android":"levelo://app?vid=0814daaf-93c0-44ce-a2d1-8c879035e490","ios":"levelo://app?vid=0814daaf-93c0-44ce-a2d1-8c879035e490"},"vehicle_type_id":"4","last_reported":1726935054,"current_range_meters":30400,"station_id":"ce4bhbp2rcd13ifvqesg","pricing_plan_id":"cebpf4jnsgd1na2vs0mg"},{"bike_id":"5e9d2d59-109e-4b7c-a2b0-d7384088299f","system_id":"levelo_inurba_marseille","lat":43.27204,"lon":5.39184,"is_reserved":false,"is_disabled":false,"rental_uris":{"android":"levelo://app?vid=5e9d2d59-109e-4b7c-a2b0-d7384088299f","ios":"levelo://app?vid=5e9d2d59-109e-4b7c-a2b0-d7384088299f"},"vehicle_type_id":"4","last_reported":1726935054,"current_range_meters":14800,"station_id":"ce4bhhp2rcd13ifvqfm0","pricing_plan_id":"cebpf4jnsgd1na2vs0mg"},{"bike_id":"32ecd4a5-6a6e-4685-ae24-d272b98d1ca3","system_id":"levelo_inurba_marseille","lat":43.23965,"lon":5.36617,"is_reserved":false,"is_disabled":false,"rental_uris":{"android":"levelo://app?vid=32ecd4a5-6a6e-4685-ae24-d272b98d1ca3","ios":"levelo://app?vid=32ecd4a5-6a6e-4685-ae24-d272b98d1ca3"},"vehicle_type_id":"4","last_reported":1726935054,"current_range_meters":8400,"station_id":"ce4bhi12rcd13ifvqfp0","pricing_plan_id":"cebpf4jnsgd1na2vs0mg"},{"bike_id":"5e78fb85-e163-454f-b47f-06d0c000c116","system_id":"levelo_inurba_marseille","lat":43.29158,"lon":5.38622,"is_reserved":false,"is_disabled":false,"rental_uris":{"android":"levelo://app?vid=5e78fb85-e163-454f-b47f-06d0c000c116","ios":"levelo://app?vid=5e78fb85-e163-454f-b47f-06d0c000c116"},"vehicle_type_id":"4","last_reported":1726935054,"current_range_meters":19600,"station_id":"","pricing_plan_id":"cebpf4jnsgd1na2vs0mg"},{"bike_id":"f27a8dd2-e068-4a20-9f37-6ac6bb69cba4","system_id":"levelo_inurba_marseille","lat":43.273237,"lon":5.390725,"is_reserved":false,"is_disabled":false,"rental_uris":{"android":"levelo://app?vid=f27a8dd2-e068-4a20-9f37-6ac6bb69cba4","ios":"levelo://app?vid=f27a8dd2-e068-4a20-9f37-6ac6bb69cba4"},"vehicle_type_id":"4","last_reported":1726935054,"current_range_meters":10800,"station_id":"ce4bh0h2rcd13ifvqd50","pricing_plan_id":"cebpf4jnsgd1na2vs0mg"},{"bike_id":"581d2bbc-9acb-4123-a5a6-dd67772fb475","system_id":"levelo_inurba_marseille","lat":43.28949,"lon":5.36644,"is_reserved":false,"is_disabled":false,"rental_uris":{"android":"levelo://app?vid=581d2bbc-9acb-4123-a5a6-dd67772fb475","ios":"levelo://app?vid=581d2bbc-9acb-4123-a5a6-dd67772fb475"},"vehicle_type_id":"4","last_reported":1726935054,"current_range_meters":39200,"station_id":"ce4bhap2rcd13ifvqek0","pricing_plan_id":"cebpf4jnsgd1na2vs0mg"},{"bike_id":"8c31e471-7d43-49b9-b052-72f6de1be083","system_id":"levelo_inurba_marseille","lat":43.2315,"lon":5.43714,"is_reserved":false,"is_disabled":false,"rental_uris":{"android":"levelo://app?vid=8c31e471-7d43-49b9-b052-72f6de1be083","ios":"levelo://app?vid=8c31e471-7d43-49b9-b052-72f6de1be083"},"vehicle_type_id":"4","last_reported":1726935054,"current_range_meters":25600,"station_id":"ce4bhmp2rcd13ifvqgog","pricing_plan_id":"cebpf4jnsgd1na2vs0mg"},{"bike_id":"f0819450-7018-48cd-a09b-64770e5c2f9c","system_id":"levelo_inurba_marseille","lat":43.28672,"lon":5.38667,"is_reserved":false,"is_disabled":false,"rental_uris":{"android":"levelo://app?vid=f0819450-7018-48cd-a09b-64770e5c2f9c","ios":"levelo://app?vid=f0819450-7018-48cd-a09b-64770e5c2f9c"},"vehicle_type_id":"4","last_reported":1726935054,"current_range_meters":32800,"station_id":"ce4bh492rcd13ifvqdug","pricing_plan_id":"cebpf4jnsgd1na2vs0mg"},{"bike_id":"af6670e6-dc0f-4b81-ac66-4415b1f5524f","system_id":"levelo_inurba_marseille","lat":43.30889,"lon":5.37203,"is_reserved":false,"is_disabled":false,"rental_uris":{"android":"levelo://app?vid=af6670e6-dc0f-4b81-ac66-4415b1f5524f","ios":"levelo://app?vid=af6670e6-dc0f-4b81-ac66-4415b1f5524f"},"vehicle_type_id":"4","last_reported":1726935054,"current_range_meters":16000,"station_id":"ce4bguh2rcd13ifvqckg","pricing_plan_id":"cebpf4jnsgd1na2vs0mg"},{"bike_id":"923b8d13-90a2-4d49-bf68-8fd648d404c8","system_id":"levelo_inurba_marseille","lat":43.302551,"lon":5.400541,"is_reserved":false,"is_disabled":false,"rental_uris":{"android":"levelo://app?vid=923b8d13-90a2-4d49-bf68-8fd648d404c8","ios":"levelo://app?vid=923b8d13-90a2-4d49-bf68-8fd648d404c8"},"vehicle_type_id":"4","last_reported":1726935054,"current_range_meters":30800,"station_id":"ce4bgvh2rcd13ifvqcs0","pricing_plan_id":"cebpf4jnsgd1na2vs0mg"},{"bike_id":"156cc6b8-6dc3-4531-9452-78a33b5eb4cc","system_id":"levelo_inurba_marseille","lat":43.24389,"lon":5.37055,"is_reserved":false,"is_disabled":false,"rental_uris":{"android":"levelo://app?vid=156cc6b8-6dc3-4531-9452-78a33b5eb4cc","ios":"levelo://app?vid=156cc6b8-6dc3-4531-9452-78a33b5eb4cc"},"vehicle_type_id":"4","last_reported":1726935054,"current_range_meters":38800,"station_id":"ce4bhhh2rcd13ifvqfk0","pricing_plan_id":"cebpf4jnsgd1na2vs0mg"},{"bike_id":"3c5e64a0-f4ac-46d7-a9c5-927a0ef07b31","system_id":"levelo_inurba_marseille","lat":43.29181,"lon":5.37113,"is_reserved":false,"is_disabled":false,"rental_uris":{"android":"levelo://app?vid=3c5e64a0-f4ac-46d7-a9c5-927a0ef07b31","ios":"levelo://app?vid=3c5e64a0-f4ac-46d7-a9c5-927a0ef07b31"},"vehicle_type_id":"4","last_reported":1726935054,"current_range_meters":24000,"station_id":"ce4bha92rcd13ifvqeh0","pricing_plan_id":"cebpf4jnsgd1na2vs0mg"},{"bike_id":"4058ea0e-9892-4067-b318-42847b74de1d","system_id":"levelo_inurba_marseille","lat":43.24806,"lon":5.3746,"is_reserved":false,"is_disabled":false,"rental_uris":{"android":"levelo://app?vid=4058ea0e-9892-4067-b318-42847b74de1d","ios":"levelo://app?vid=4058ea0e-9892-4067-b318-42847b74de1d"},"vehicle_type_id":"4","last_reported":1726935054,"current_range_meters":8400,"station_id":"ce4bhgh2rcd13ifvqfb0","pricing_plan_id":"cebpf4jnsgd1na2vs0mg"},{"bike_id":"5ef45361-e4d9-4261-8d7a-b5a69af30290","system_id":"levelo_inurba_marseille","lat":43.29306,"lon":5.371448,"is_reserved":false,"is_disabled":false,"rental_uris":{"android":"levelo://app?vid=5ef45361-e4d9-4261-8d7a-b5a69af30290","ios":"levelo://app?vid=5ef45361-e4d9-4261-8d7a-b5a69af30290"},"vehicle_type_id":"4","last_reported":1726935054,"current_range_meters":16800,"station_id":"ce4bgh92rcd13ifvqb40","pricing_plan_id":"cebpf4jnsgd1na2vs0mg"},{"bike_id":"193dbd2d-426e-4630-b966-c226ade3e061","system_id":"levelo_inurba_marseille","lat":43.31359,"lon":5.3671,"is_reserved":false,"is_disabled":false,"rental_uris":{"android":"levelo://app?vid=193dbd2d-426e-4630-b966-c226ade3e061","ios":"levelo://app?vid=193dbd2d-426e-4630-b966-c226ade3e061"},"vehicle_type_id":"4","last_reported":1726935054,"current_range_meters":22800,"station_id":"ce4bgr92rcd13ifvqc6g","pricing_plan_id":"cebpf4jnsgd1na2vs0mg"},{"bike_id":"35faea71-56e7-4860-b4e8-ea6c7685e116","system_id":"levelo_inurba_marseille","lat":43.25857,"lon":5.39907,"is_reserved":false,"is_disabled":false,"rental_uris":{"android":"levelo://app?vid=35faea71-56e7-4860-b4e8-ea6c7685e116","ios":"levelo://app?vid=35faea71-56e7-4860-b4e8-ea6c7685e116"},"vehicle_type_id":"4","last_reported":1726935054,"current_range_meters":11200,"station_id":"ce4bhl92rcd13ifvqghg","pricing_plan_id":"cebpf4jnsgd1na2vs0mg"},{"bike_id":"12523199-e5f9-4719-896d-fc53190097ff","system_id":"levelo_inurba_marseille","lat":43.25724,"lon":5.41121,"is_reserved":false,"is_disabled":false,"rental_uris":{"android":"levelo://app?vid=12523199-e5f9-4719-896d-fc53190097ff","ios":"levelo://app?vid=12523199-e5f9-4719-896d-fc53190097ff"},"vehicle_type_id":"4","last_reported":1726935054,"current_range_meters":38800,"station_id":"ce4bhkp2rcd13ifvqgd0","pricing_plan_id":"cebpf4jnsgd1na2vs0mg"},{"bike_id":"1029b3a4-4cd9-4ff5-85e8-3941b1eb79fc","system_id":"levelo_inurba_marseille","lat":43.286115,"lon":5.351021,"is_reserved":false,"is_disabled":false,"rental_uris":{"android":"levelo://app?vid=1029b3a4-4cd9-4ff5-85e8-3941b1eb79fc","ios":"levelo://app?vid=1029b3a4-4cd9-4ff5-85e8-3941b1eb79fc"},"vehicle_type_id":"4","last_reported":1726935054,"current_range_meters":35200,"station_id":"ce4bhch2rcd13ifvqeug","pricing_plan_id":"cebpf4jnsgd1na2vs0mg"},{"bike_id":"e4233f43-8e4d-44c9-885e-e07b1497e405","system_id":"levelo_inurba_marseille","lat":43.29622,"lon":5.37172,"is_reserved":false,"is_disabled":false,"rental_uris":{"android":"levelo://app?vid=e4233f43-8e4d-44c9-885e-e07b1497e405","ios":"levelo://app?vid=e4233f43-8e4d-44c9-885e-e07b1497e405"},"vehicle_type_id":"4","last_reported":1726935054,"current_range_meters":8400,"station_id":"ce4bgnh2rcd13ifvqc0g","pricing_plan_id":"cebpf4jnsgd1na2vs0mg"},{"bike_id":"217ddcb8-e413-4d17-8eaa-2f798a74b01b","system_id":"levelo_inurba_marseille","lat":43.24544,"lon":5.39524,"is_reserved":false,"is_disabled":false,"rental_uris":{"android":"levelo://app?vid=217ddcb8-e413-4d17-8eaa-2f798a74b01b","ios":"levelo://app?vid=217ddcb8-e413-4d17-8eaa-2f798a74b01b"},"vehicle_type_id":"4","last_reported":1726935054,"current_range_meters":22000,"station_id":"ce4bhlp2rcd13ifvqgjg","pricing_plan_id":"cebpf4jnsgd1na2vs0mg"},{"bike_id":"962aae52-8367-4ab6-bcc2-4b75d65f0287","system_id":"levelo_inurba_marseille","lat":43.290253,"lon":5.386321,"is_reserved":false,"is_disabled":false,"rental_uris":{"android":"levelo://app?vid=962aae52-8367-4ab6-bcc2-4b75d65f0287","ios":"levelo://app?vid=962aae52-8367-4ab6-bcc2-4b75d65f0287"},"vehicle_type_id":"4","last_reported":1726935054,"current_range_meters":4800,"station_id":"ce4bh4p2rcd13ifvqe0g","pricing_plan_id":"cebpf4jnsgd1na2vs0mg"},{"bike_id":"4ee05d5e-9e28-4a49-a7d6-1bd21ff01be5","system_id":"levelo_inurba_marseille","lat":43.29979,"lon":5.38495,"is_reserved":false,"is_disabled":false,"rental_uris":{"android":"levelo://app?vid=4ee05d5e-9e28-4a49-a7d6-1bd21ff01be5","ios":"levelo://app?vid=4ee05d5e-9e28-4a49-a7d6-1bd21ff01be5"},"vehicle_type_id":"4","last_reported":1726935054,"current_range_meters":37600,"station_id":"ce4bgj92rcd13ifvqbd0","pricing_plan_id":"cebpf4jnsgd1na2vs0mg"},{"bike_id":"22e4a15e-6041-4c71-b288-1c12c69d262d","system_id":"levelo_inurba_marseille","lat":43.33723,"lon":5.39188,"is_reserved":false,"is_disabled":false,"rental_uris":{"android":"levelo://app?vid=22e4a15e-6041-4c71-b288-1c12c69d262d","ios":"levelo://app?vid=22e4a15e-6041-4c71-b288-1c12c69d262d"},"vehicle_type_id":"4","last_reported":1726935054,"current_range_meters":12000,"station_id":"ce4bhr92rcd13ifvqhsg","pricing_plan_id":"cebpf4jnsgd1na2vs0mg"},{"bike_id":"c5d3a046-6bd7-4d7b-af21-c3e4cb98efd0","system_id":"levelo_inurba_marseille","lat":43.23962,"lon":5.36625,"is_reserved":false,"is_disabled":false,"rental_uris":{"android":"levelo://app?vid=c5d3a046-6bd7-4d7b-af21-c3e4cb98efd0","ios":"levelo://app?vid=c5d3a046-6bd7-4d7b-af21-c3e4cb98efd0"},"vehicle_type_id":"4","last_reported":1726935054,"current_range_meters":20400,"station_id":"ce4bhi12rcd13ifvqfp0","pricing_plan_id":"cebpf4jnsgd1na2vs0mg"},{"bike_id":"851addaf-fabc-420d-85c2-a904563497d2","system_id":"levelo_inurba_marseille","lat":43.24076,"lon":5.37766,"is_reserved":false,"is_disabled":false,"rental_uris":{"android":"levelo://app?vid=851addaf-fabc-420d-85c2-a904563497d2","ios":"levelo://app?vid=851addaf-fabc-420d-85c2-a904563497d2"},"vehicle_type_id":"4","last_reported":1726935054,"current_range_meters":2000,"station_id":"ce4bhnp2rcd13ifvqgvg","pricing_plan_id":"cebpf4jnsgd1na2vs0mg"},{"bike_id":"503db22b-1e5a-4bd5-83d4-dcb9c888e58f","system_id":"levelo_inurba_marseille","lat":43.26035,"lon":5.37546,"is_reserved":false,"is_disabled":false,"rental_uris":{"android":"levelo://app?vid=503db22b-1e5a-4bd5-83d4-dcb9c888e58f","ios":"levelo://app?vid=503db22b-1e5a-4bd5-83d4-dcb9c888e58f"},"vehicle_type_id":"4","last_reported":1726935054,"current_range_meters":26800,"station_id":"ce4bhgh2rcd13ifvqfa0","pricing_plan_id":"cebpf4jnsgd1na2vs0mg"},{"bike_id":"05938825-2740-4907-bd01-3d283617a1c6","system_id":"levelo_inurba_marseille","lat":43.32354,"lon":5.44014,"is_reserved":false,"is_disabled":false,"rental_uris":{"android":"levelo://app?vid=05938825-2740-4907-bd01-3d283617a1c6","ios":"levelo://app?vid=05938825-2740-4907-bd01-3d283617a1c6"},"vehicle_type_id":"4","last_reported":1726935054,"current_range_meters":6800,"station_id":"","pricing_plan_id":"cebpf4jnsgd1na2vs0mg"},{"bike_id":"53fa9033-64d7-4027-8679-541dcf8e607a","system_id":"levelo_inurba_marseille","lat":43.26214,"lon":5.37443,"is_reserved":false,"is_disabled":false,"rental_uris":{"android":"levelo://app?vid=53fa9033-64d7-4027-8679-541dcf8e607a","ios":"levelo://app?vid=53fa9033-64d7-4027-8679-541dcf8e607a"},"vehicle_type_id":"4","last_reported":1726935054,"current_range_meters":10000,"station_id":"ce4bhgp2rcd13ifvqfc0","pricing_plan_id":"cebpf4jnsgd1na2vs0mg"},{"bike_id":"653ee886-9bc8-425e-97b9-a72f03e6a2ef","system_id":"levelo_inurba_marseille","lat":43.26566,"lon":5.39013,"is_reserved":false,"is_disabled":false,"rental_uris":{"android":"levelo://app?vid=653ee886-9bc8-425e-97b9-a72f03e6a2ef","ios":"levelo://app?vid=653ee886-9bc8-425e-97b9-a72f03e6a2ef"},"vehicle_type_id":"4","last_reported":1726935054,"current_range_meters":38800,"station_id":"ce4bhe12rcd13ifvqf30","pricing_plan_id":"cebpf4jnsgd1na2vs0mg"},{"bike_id":"6c49d7fc-28d4-430a-a652-7d35afd8384c","system_id":"levelo_inurba_marseille","lat":43.29897,"lon":5.43673,"is_reserved":false,"is_disabled":false,"rental_uris":{"android":"levelo://app?vid=6c49d7fc-28d4-430a-a652-7d35afd8384c","ios":"levelo://app?vid=6c49d7fc-28d4-430a-a652-7d35afd8384c"},"vehicle_type_id":"4","last_reported":1726935054,"current_range_meters":6400,"station_id":"ce4bhpp2rcd13ifvqhfg","pricing_plan_id":"cebpf4jnsgd1na2vs0mg"},{"bike_id":"ae5b17ad-e1e0-4f5c-b280-97932a513ba7","system_id":"levelo_inurba_marseille","lat":43.23958,"lon":5.36621,"is_reserved":false,"is_disabled":false,"rental_uris":{"android":"levelo://app?vid=ae5b17ad-e1e0-4f5c-b280-97932a513ba7","ios":"levelo://app?vid=ae5b17ad-e1e0-4f5c-b280-97932a513ba7"},"vehicle_type_id":"4","last_reported":1726935054,"current_range_meters":18000,"station_id":"ce4bhi12rcd13ifvqfp0","pricing_plan_id":"cebpf4jnsgd1na2vs0mg"},{"bike_id":"231df590-15eb-4c0a-bdf6-dddd3cb861cb","system_id":"levelo_inurba_marseille","lat":43.337444,"lon":5.374475,"is_reserved":false,"is_disabled":false,"rental_uris":{"android":"levelo://app?vid=231df590-15eb-4c0a-bdf6-dddd3cb861cb","ios":"levelo://app?vid=231df590-15eb-4c0a-bdf6-dddd3cb861cb"},"vehicle_type_id":"4","last_reported":1726935054,"current_range_meters":30400,"station_id":"","pricing_plan_id":"cebpf4jnsgd1na2vs0mg"},{"bike_id":"b7494b17-b690-4d2c-b891-71bb5389c4bc","system_id":"levelo_inurba_marseille","lat":43.28428,"lon":5.34987,"is_reserved":false,"is_disabled":false,"rental_uris":{"android":"levelo://app?vid=b7494b17-b690-4d2c-b891-71bb5389c4bc","ios":"levelo://app?vid=b7494b17-b690-4d2c-b891-71bb5389c4bc"},"vehicle_type_id":"4","last_reported":1726935054,"current_range_meters":24400,"station_id":"ce4bhbh2rcd13ifvqepg","pricing_plan_id":"cebpf4jnsgd1na2vs0mg"},{"bike_id":"fa2f05b0-276e-4caa-bf98-1fd118e90914","system_id":"levelo_inurba_marseille","lat":43.23192,"lon":5.39983,"is_reserved":false,"is_disabled":false,"rental_uris":{"android":"levelo://app?vid=fa2f05b0-276e-4caa-bf98-1fd118e90914","ios":"levelo://app?vid=fa2f05b0-276e-4caa-bf98-1fd118e90914"},"vehicle_type_id":"4","last_reported":1726935054,"current_range_meters":22400,"station_id":"ce4bhn12rcd13ifvqgqg","pricing_plan_id":"cebpf4jnsgd1na2vs0mg"},{"bike_id":"3b211465-5030-4ebd-b5e2-78bdfeebc435","system_id":"levelo_inurba_marseille","lat":43.33721,"lon":5.39183,"is_reserved":false,"is_disabled":false,"rental_uris":{"android":"levelo://app?vid=3b211465-5030-4ebd-b5e2-78bdfeebc435","ios":"levelo://app?vid=3b211465-5030-4ebd-b5e2-78bdfeebc435"},"vehicle_type_id":"4","last_reported":1726935054,"current_range_meters":31200,"station_id":"ce4bhr92rcd13ifvqhsg","pricing_plan_id":"cebpf4jnsgd1na2vs0mg"},{"bike_id":"b3e35a1a-0f94-4fd3-8bb4-f310ae93a91b","system_id":"levelo_inurba_marseille","lat":43.26215,"lon":5.37441,"is_reserved":false,"is_disabled":false,"rental_uris":{"android":"levelo://app?vid=b3e35a1a-0f94-4fd3-8bb4-f310ae93a91b","ios":"levelo://app?vid=b3e35a1a-0f94-4fd3-8bb4-f310ae93a91b"},"vehicle_type_id":"4","last_reported":1726935054,"current_range_meters":38800,"station_id":"ce4bhgp2rcd13ifvqfc0","pricing_plan_id":"cebpf4jnsgd1na2vs0mg"},{"bike_id":"89260428-aaf3-4988-950e-81758a275ef2","system_id":"levelo_inurba_marseille","lat":43.23152,"lon":5.43719,"is_reserved":false,"is_disabled":false,"rental_uris":{"android":"levelo://app?vid=89260428-aaf3-4988-950e-81758a275ef2","ios":"levelo://app?vid=89260428-aaf3-4988-950e-81758a275ef2"},"vehicle_type_id":"4","last_reported":1726935054,"current_range_meters":17200,"station_id":"ce4bhmp2rcd13ifvqgog","pricing_plan_id":"cebpf4jnsgd1na2vs0mg"},{"bike_id":"db14c365-b933-4027-b629-18be01480f0c","system_id":"levelo_inurba_marseille","lat":43.29529,"lon":5.39406,"is_reserved":false,"is_disabled":false,"rental_uris":{"android":"levelo://app?vid=db14c365-b933-4027-b629-18be01480f0c","ios":"levelo://app?vid=db14c365-b933-4027-b629-18be01480f0c"},"vehicle_type_id":"4","last_reported":1726935054,"current_range_meters":36400,"station_id":"ce4bh292rcd13ifvqdf0","pricing_plan_id":"cebpf4jnsgd1na2vs0mg"},{"bike_id":"568f57f9-e877-4e0a-a967-fce5fa5343c4","system_id":"levelo_inurba_marseille","lat":43.24804,"lon":5.37456,"is_reserved":false,"is_disabled":false,"rental_uris":{"android":"levelo://app?vid=568f57f9-e877-4e0a-a967-fce5fa5343c4","ios":"levelo://app?vid=568f57f9-e877-4e0a-a967-fce5fa5343c4"},"vehicle_type_id":"4","last_reported":1726935054,"current_range_meters":38800,"station_id":"ce4bhgh2rcd13ifvqfb0","pricing_plan_id":"cebpf4jnsgd1na2vs0mg"},{"bike_id":"4decd105-8927-4e87-89fc-66fb75924026","system_id":"levelo_inurba_marseille","lat":43.30535,"lon":5.38435,"is_reserved":false,"is_disabled":false,"rental_uris":{"android":"levelo://app?vid=4decd105-8927-4e87-89fc-66fb75924026","ios":"levelo://app?vid=4decd105-8927-4e87-89fc-66fb75924026"},"vehicle_type_id":"4","last_reported":1726935054,"current_range_meters":14400,"station_id":"ce4bgg92rcd13ifvqb30","pricing_plan_id":"cebpf4jnsgd1na2vs0mg"},{"bike_id":"e814a2f5-477b-45d4-b2b7-b93e80c44228","system_id":"levelo_inurba_marseille","lat":43.27215,"lon":5.3918,"is_reserved":false,"is_disabled":false,"rental_uris":{"android":"levelo://app?vid=e814a2f5-477b-45d4-b2b7-b93e80c44228","ios":"levelo://app?vid=e814a2f5-477b-45d4-b2b7-b93e80c44228"},"vehicle_type_id":"4","last_reported":1726935054,"current_range_meters":1200,"station_id":"ce4bhhp2rcd13ifvqfm0","pricing_plan_id":"cebpf4jnsgd1na2vs0mg"},{"bike_id":"846f3ddf-a2d3-4c0a-9cd4-79d407ceb419","system_id":"levelo_inurba_marseille","lat":43.32658,"lon":5.40998,"is_reserved":false,"is_disabled":false,"rental_uris":{"android":"levelo://app?vid=846f3ddf-a2d3-4c0a-9cd4-79d407ceb419","ios":"levelo://app?vid=846f3ddf-a2d3-4c0a-9cd4-79d407ceb419"},"vehicle_type_id":"4","last_reported":1726935054,"current_range_meters":28000,"station_id":"ce4bhpp2rcd13ifvqhgg","pricing_plan_id":"cebpf4jnsgd1na2vs0mg"},{"bike_id":"7fa2dd6c-63d7-4b18-9b0b-494be47222fe","system_id":"levelo_inurba_marseille","lat":43.26562,"lon":5.3728,"is_reserved":false,"is_disabled":false,"rental_uris":{"android":"levelo://app?vid=7fa2dd6c-63d7-4b18-9b0b-494be47222fe","ios":"levelo://app?vid=7fa2dd6c-63d7-4b18-9b0b-494be47222fe"},"vehicle_type_id":"4","last_reported":1726935054,"current_range_meters":38800,"station_id":"ce4bhg12rcd13ifvqf70","pricing_plan_id":"cebpf4jnsgd1na2vs0mg"},{"bike_id":"2fd90eeb-4ed3-41ed-b312-4cf90eb0df9b","system_id":"levelo_inurba_marseille","lat":43.26216,"lon":5.37442,"is_reserved":false,"is_disabled":false,"rental_uris":{"android":"levelo://app?vid=2fd90eeb-4ed3-41ed-b312-4cf90eb0df9b","ios":"levelo://app?vid=2fd90eeb-4ed3-41ed-b312-4cf90eb0df9b"},"vehicle_type_id":"4","last_reported":1726935054,"current_range_meters":26800,"station_id":"ce4bhgp2rcd13ifvqfc0","pricing_plan_id":"cebpf4jnsgd1na2vs0mg"},{"bike_id":"e5f90b42-2186-4b9d-b8de-01172fbe5b95","system_id":"levelo_inurba_marseille","lat":43.27619,"lon":5.36109,"is_reserved":false,"is_disabled":false,"rental_uris":{"android":"levelo://app?vid=e5f90b42-2186-4b9d-b8de-01172fbe5b95","ios":"levelo://app?vid=e5f90b42-2186-4b9d-b8de-01172fbe5b95"},"vehicle_type_id":"4","last_reported":1726935054,"current_range_meters":20400,"station_id":"ce4bgj92rcd13ifvqbe0","pricing_plan_id":"cebpf4jnsgd1na2vs0mg"},{"bike_id":"64752313-bfad-43e2-a8d7-66a7d9ef8428","system_id":"levelo_inurba_marseille","lat":43.25492,"lon":5.37649,"is_reserved":false,"is_disabled":false,"rental_uris":{"android":"levelo://app?vid=64752313-bfad-43e2-a8d7-66a7d9ef8428","ios":"levelo://app?vid=64752313-bfad-43e2-a8d7-66a7d9ef8428"},"vehicle_type_id":"4","last_reported":1726935054,"current_range_meters":9600,"station_id":"ce4bhh12rcd13ifvqff0","pricing_plan_id":"cebpf4jnsgd1na2vs0mg"},{"bike_id":"33979cae-38a5-4058-a048-a451d27130ca","system_id":"levelo_inurba_marseille","lat":43.24392,"lon":5.37057,"is_reserved":false,"is_disabled":false,"rental_uris":{"android":"levelo://app?vid=33979cae-38a5-4058-a048-a451d27130ca","ios":"levelo://app?vid=33979cae-38a5-4058-a048-a451d27130ca"},"vehicle_type_id":"4","last_reported":1726935054,"current_range_meters":4000,"station_id":"ce4bhhh2rcd13ifvqfk0","pricing_plan_id":"cebpf4jnsgd1na2vs0mg"},{"bike_id":"027f4c6d-ee7f-4841-b5b0-5709eb7ee65a","system_id":"levelo_inurba_marseille","lat":43.29202,"lon":5.39947,"is_reserved":false,"is_disabled":false,"rental_uris":{"android":"levelo://app?vid=027f4c6d-ee7f-4841-b5b0-5709eb7ee65a","ios":"levelo://app?vid=027f4c6d-ee7f-4841-b5b0-5709eb7ee65a"},"vehicle_type_id":"4","last_reported":1726935054,"current_range_meters":6400,"station_id":"ce4bh192rcd13ifvqdc0","pricing_plan_id":"cebpf4jnsgd1na2vs0mg"},{"bike_id":"308dd444-dd0d-4ea8-8bab-7b6e655fa0af","system_id":"levelo_inurba_marseille","lat":43.27374,"lon":5.3626,"is_reserved":false,"is_disabled":false,"rental_uris":{"android":"levelo://app?vid=308dd444-dd0d-4ea8-8bab-7b6e655fa0af","ios":"levelo://app?vid=308dd444-dd0d-4ea8-8bab-7b6e655fa0af"},"vehicle_type_id":"4","last_reported":1726935054,"current_range_meters":21600,"station_id":"ce4bhbh2rcd13ifvqeo0","pricing_plan_id":"cebpf4jnsgd1na2vs0mg"},{"bike_id":"8b9587bf-57cd-4683-85eb-2e12d6fa0042","system_id":"levelo_inurba_marseille","lat":43.26217,"lon":5.3793,"is_reserved":false,"is_disabled":false,"rental_uris":{"android":"levelo://app?vid=8b9587bf-57cd-4683-85eb-2e12d6fa0042","ios":"levelo://app?vid=8b9587bf-57cd-4683-85eb-2e12d6fa0042"},"vehicle_type_id":"4","last_reported":1726935054,"current_range_meters":9200,"station_id":"ce4bhjp2rcd13ifvqg90","pricing_plan_id":"cebpf4jnsgd1na2vs0mg"},{"bike_id":"48a52a19-8495-4392-ae09-d0a280f6b9be","system_id":"levelo_inurba_marseille","lat":43.291398,"lon":5.371859,"is_reserved":false,"is_disabled":false,"rental_uris":{"android":"levelo://app?vid=48a52a19-8495-4392-ae09-d0a280f6b9be","ios":"levelo://app?vid=48a52a19-8495-4392-ae09-d0a280f6b9be"},"vehicle_type_id":"4","last_reported":1726935054,"current_range_meters":18000,"station_id":"ce4bha92rcd13ifvqeh0","pricing_plan_id":"cebpf4jnsgd1na2vs0mg"},{"bike_id":"23d24373-7ced-4d48-a369-f746a211d8aa","system_id":"levelo_inurba_marseille","lat":43.26032,"lon":5.37553,"is_reserved":false,"is_disabled":false,"rental_uris":{"android":"levelo://app?vid=23d24373-7ced-4d48-a369-f746a211d8aa","ios":"levelo://app?vid=23d24373-7ced-4d48-a369-f746a211d8aa"},"vehicle_type_id":"4","last_reported":1726935054,"current_range_meters":9600,"station_id":"ce4bhgh2rcd13ifvqfa0","pricing_plan_id":"cebpf4jnsgd1na2vs0mg"},{"bike_id":"d471a27c-2b74-4267-82a9-b8bf3e81b8a3","system_id":"levelo_inurba_marseille","lat":43.28938,"lon":5.36642,"is_reserved":false,"is_disabled":false,"rental_uris":{"android":"levelo://app?vid=d471a27c-2b74-4267-82a9-b8bf3e81b8a3","ios":"levelo://app?vid=d471a27c-2b74-4267-82a9-b8bf3e81b8a3"},"vehicle_type_id":"4","last_reported":1726935054,"current_range_meters":8400,"station_id":"ce4bhap2rcd13ifvqek0","pricing_plan_id":"cebpf4jnsgd1na2vs0mg"},{"bike_id":"846e24bd-28a9-4015-ad2c-32ce3dc1a0b0","system_id":"levelo_inurba_marseille","lat":43.2695,"lon":5.38632,"is_reserved":false,"is_disabled":false,"rental_uris":{"android":"levelo://app?vid=846e24bd-28a9-4015-ad2c-32ce3dc1a0b0","ios":"levelo://app?vid=846e24bd-28a9-4015-ad2c-32ce3dc1a0b0"},"vehicle_type_id":"4","last_reported":1726935054,"current_range_meters":37600,"station_id":"ce4bhh92rcd13ifvqfh0","pricing_plan_id":"cebpf4jnsgd1na2vs0mg"},{"bike_id":"ac681a90-0012-45ae-8470-046f845a6356","system_id":"levelo_inurba_marseille","lat":43.32658,"lon":5.40995,"is_reserved":false,"is_disabled":false,"rental_uris":{"android":"levelo://app?vid=ac681a90-0012-45ae-8470-046f845a6356","ios":"levelo://app?vid=ac681a90-0012-45ae-8470-046f845a6356"},"vehicle_type_id":"4","last_reported":1726935054,"current_range_meters":26000,"station_id":"ce4bhpp2rcd13ifvqhgg","pricing_plan_id":"cebpf4jnsgd1na2vs0mg"},{"bike_id":"c66a0a5b-b96c-4d83-af4c-c3162fa2a14f","system_id":"levelo_inurba_marseille","lat":43.29056,"lon":5.35908,"is_reserved":false,"is_disabled":false,"rental_uris":{"android":"levelo://app?vid=c66a0a5b-b96c-4d83-af4c-c3162fa2a14f","ios":"levelo://app?vid=c66a0a5b-b96c-4d83-af4c-c3162fa2a14f"},"vehicle_type_id":"4","last_reported":1726935054,"current_range_meters":17600,"station_id":"ce4bha92rcd13ifvqeg0","pricing_plan_id":"cebpf4jnsgd1na2vs0mg"},{"bike_id":"86a40633-624e-401b-8ff7-47f3a19a5ef2","system_id":"levelo_inurba_marseille","lat":43.30542,"lon":5.3843,"is_reserved":false,"is_disabled":false,"rental_uris":{"android":"levelo://app?vid=86a40633-624e-401b-8ff7-47f3a19a5ef2","ios":"levelo://app?vid=86a40633-624e-401b-8ff7-47f3a19a5ef2"},"vehicle_type_id":"4","last_reported":1726935054,"current_range_meters":27200,"station_id":"ce4bgg92rcd13ifvqb30","pricing_plan_id":"cebpf4jnsgd1na2vs0mg"},{"bike_id":"ca377cc1-f1f7-410a-83c1-200fc4456d60","system_id":"levelo_inurba_marseille","lat":43.28038,"lon":5.36957,"is_reserved":false,"is_disabled":false,"rental_uris":{"android":"levelo://app?vid=ca377cc1-f1f7-410a-83c1-200fc4456d60","ios":"levelo://app?vid=ca377cc1-f1f7-410a-83c1-200fc4456d60"},"vehicle_type_id":"4","last_reported":1726935054,"current_range_meters":38800,"station_id":"ce4bha12rcd13ifvqef0","pricing_plan_id":"cebpf4jnsgd1na2vs0mg"},{"bike_id":"f75e63b2-2510-468c-baae-2c19407e3583","system_id":"levelo_inurba_marseille","lat":43.2603,"lon":5.37549,"is_reserved":false,"is_disabled":false,"rental_uris":{"android":"levelo://app?vid=f75e63b2-2510-468c-baae-2c19407e3583","ios":"levelo://app?vid=f75e63b2-2510-468c-baae-2c19407e3583"},"vehicle_type_id":"4","last_reported":1726935054,"current_range_meters":18800,"station_id":"ce4bhgh2rcd13ifvqfa0","pricing_plan_id":"cebpf4jnsgd1na2vs0mg"},{"bike_id":"0f07a49c-f65d-47d2-a4c5-d16de2715f39","system_id":"levelo_inurba_marseille","lat":43.26033,"lon":5.37546,"is_reserved":false,"is_disabled":false,"rental_uris":{"android":"levelo://app?vid=0f07a49c-f65d-47d2-a4c5-d16de2715f39","ios":"levelo://app?vid=0f07a49c-f65d-47d2-a4c5-d16de2715f39"},"vehicle_type_id":"4","last_reported":1726935054,"current_range_meters":30800,"station_id":"ce4bhgh2rcd13ifvqfa0","pricing_plan_id":"cebpf4jnsgd1na2vs0mg"},{"bike_id":"a56fd88f-32f9-44c6-b2a1-99d971d8e641","system_id":"levelo_inurba_marseille","lat":43.29623,"lon":5.37157,"is_reserved":false,"is_disabled":false,"rental_uris":{"android":"levelo://app?vid=a56fd88f-32f9-44c6-b2a1-99d971d8e641","ios":"levelo://app?vid=a56fd88f-32f9-44c6-b2a1-99d971d8e641"},"vehicle_type_id":"4","last_reported":1726935054,"current_range_meters":4400,"station_id":"ce4bgnh2rcd13ifvqc0g","pricing_plan_id":"cebpf4jnsgd1na2vs0mg"},{"bike_id":"4f688a47-5b1f-49a3-93ad-6b7df38b1020","system_id":"levelo_inurba_marseille","lat":43.26807,"lon":5.40268,"is_reserved":false,"is_disabled":false,"rental_uris":{"android":"levelo://app?vid=4f688a47-5b1f-49a3-93ad-6b7df38b1020","ios":"levelo://app?vid=4f688a47-5b1f-49a3-93ad-6b7df38b1020"},"vehicle_type_id":"4","last_reported":1726935054,"current_range_meters":8000,"station_id":"ce501612rcd8frsf0b60","pricing_plan_id":"cebpf4jnsgd1na2vs0mg"},{"bike_id":"4772b107-2f18-495b-9190-24cad4cfb493","system_id":"levelo_inurba_marseille","lat":43.27728,"lon":5.41139,"is_reserved":false,"is_disabled":false,"rental_uris":{"android":"levelo://app?vid=4772b107-2f18-495b-9190-24cad4cfb493","ios":"levelo://app?vid=4772b107-2f18-495b-9190-24cad4cfb493"},"vehicle_type_id":"4","last_reported":1726935054,"current_range_meters":17200,"station_id":"","pricing_plan_id":"cebpf4jnsgd1na2vs0mg"},{"bike_id":"ac25e822-b341-4d15-831f-2cac532f5254","system_id":"levelo_inurba_marseille","lat":43.29432,"lon":5.39756,"is_reserved":false,"is_disabled":false,"rental_uris":{"android":"levelo://app?vid=ac25e822-b341-4d15-831f-2cac532f5254","ios":"levelo://app?vid=ac25e822-b341-4d15-831f-2cac532f5254"},"vehicle_type_id":"4","last_reported":1726935054,"current_range_meters":34000,"station_id":"ce4bh3h2rcd13ifvqdo0","pricing_plan_id":"cebpf4jnsgd1na2vs0mg"},{"bike_id":"5faab958-1247-4dc9-a072-bcd24b3a7a93","system_id":"levelo_inurba_marseille","lat":43.32541,"lon":5.41426,"is_reserved":false,"is_disabled":false,"rental_uris":{"android":"levelo://app?vid=5faab958-1247-4dc9-a072-bcd24b3a7a93","ios":"levelo://app?vid=5faab958-1247-4dc9-a072-bcd24b3a7a93"},"vehicle_type_id":"4","last_reported":1726935054,"current_range_meters":38800,"station_id":"ce4bhq12rcd13ifvqhhg","pricing_plan_id":"cebpf4jnsgd1na2vs0mg"},{"bike_id":"722b0127-57cd-4524-84ca-abe398635797","system_id":"levelo_inurba_marseille","lat":43.2467,"lon":5.38174,"is_reserved":false,"is_disabled":false,"rental_uris":{"android":"levelo://app?vid=722b0127-57cd-4524-84ca-abe398635797","ios":"levelo://app?vid=722b0127-57cd-4524-84ca-abe398635797"},"vehicle_type_id":"4","last_reported":1726935054,"current_range_meters":17600,"station_id":"ce4bhih2rcd13ifvqfr0","pricing_plan_id":"cebpf4jnsgd1na2vs0mg"},{"bike_id":"c9ef1453-9c14-43ec-9df2-3e5a2c8bf7cc","system_id":"levelo_inurba_marseille","lat":43.26885,"lon":5.39963,"is_reserved":false,"is_disabled":false,"rental_uris":{"android":"levelo://app?vid=c9ef1453-9c14-43ec-9df2-3e5a2c8bf7cc","ios":"levelo://app?vid=c9ef1453-9c14-43ec-9df2-3e5a2c8bf7cc"},"vehicle_type_id":"4","last_reported":1726935054,"current_range_meters":7200,"station_id":"","pricing_plan_id":"cebpf4jnsgd1na2vs0mg"},{"bike_id":"c32ba6b2-d9c8-4b4e-aa19-d2ce2e294eb7","system_id":"levelo_inurba_marseille","lat":43.2318,"lon":5.39994,"is_reserved":false,"is_disabled":false,"rental_uris":{"android":"levelo://app?vid=c32ba6b2-d9c8-4b4e-aa19-d2ce2e294eb7","ios":"levelo://app?vid=c32ba6b2-d9c8-4b4e-aa19-d2ce2e294eb7"},"vehicle_type_id":"4","last_reported":1726935054,"current_range_meters":36400,"station_id":"ce4bhn12rcd13ifvqgqg","pricing_plan_id":"cebpf4jnsgd1na2vs0mg"},