{"last_updated":1752696740,"ttl":60,"version":"2.2","data":{"bikes":[{"bike_id":"53b742a7-31ae-4272-9bba-7740339e2a2f","system_id":"levelo_inurba_marseille","lat":43.33747,"lon":5.37463,"is_reserved":false,"is_disabled":false,"rental_uris":{"android":"levelo://app?vid=53b742a7-31ae-4272-9bba-7740339e2a2f","ios":"levelo://app?vid=53b742a7-31ae-4272-9bba-7740339e2a2f"},"vehicle_type_id":"1","last_reported":1752696740,"current_range_meters":27600,"station_id":"","pricing_plan_id":"cebpf4jnsgd1na2vs0mg"},{"bike_id":"1ee19f79-d7f7-44cf-9385-f9958580de39","system_id":"levelo_inurba_marseille","lat":43.33617,"lon":5.40973,"is_reserved":false,"is_disabled":false,"rental_uris":{"android":"levelo://app?vid=1ee19f79-d7f7-44cf-9385-f9958580de39","ios":"levelo://app?vid=1ee19f79-d7f7-44cf-9385-f9958580de39"},"vehicle_type_id":"4","last_reported":1752696740,"current_range_meters":2800,"station_id":"ce4bhqh2rcd13ifvqhmg","pricing_plan_id":"cebpf4jnsgd1na2vs0mg"},{"bike_id":"da62ebd2-75ff-45b9-8331-5082331eb1fb","system_id":"levelo_inurba_marseille","lat":43.313024,"lon":5.384864,"is_reserved":false,"is_disabled":false,"rental_uris":{"android":"levelo://app?vid=da62ebd2-75ff-45b9-8331-5082331eb1fb","ios":"levelo://app?vid=da62ebd2-75ff-45b9-8331-5082331eb1fb"},"vehicle_type_id":"4","last_reported":1752696740,"current_range_meters":2800,"station_id":"","pricing_plan_id":"cebpf4jnsgd1na2vs0mg"},{"bike_id":"9f355344-a6b6-4f9f-9f80-0ed62ef4ab2a","system_id":"levelo_inurba_marseille","lat":43.30528,"lon":5.36711,"is_reserved":false,"is_disabled":false,"rental_uris":{"android":"levelo://app?vid=9f355344-a6b6-4f9f-9f80-0ed62ef4ab2a","ios":"levelo://app?vid=9f355344-a6b6-4f9f-9f80-0ed62ef4ab2a"},"vehicle_type_id":"4","last_reported":1752696740,"current_range_meters":2800,"station_id":"ce4bgrp2rcd13ifvqc9g","pricing_plan_id":"cebpf4jnsgd1na2vs0mg"},{"bike_id":"6368de16-d144-4f73-833e-ca19d2aeee12","system_id":"levelo_inurba_marseille","lat":43.22531,"lon":5.34767,"is_reserved":false,"is_disabled":false,"rental_uris":{"android":"levelo://app?vid=6368de16-d144-4f73-833e-ca19d2aeee12","ios":"levelo://app?vid=6368de16-d144-4f73-833e-ca19d2aeee12"},"vehicle_type_id":"4","last_reported":1752696740,"current_range_meters":2800,"station_id":"st_cvj5dfep6f1abm77gieg","pricing_plan_id":"cebpf4jnsgd1na2vs0mg"},{"bike_id":"c6cabbe0-f347-44d0-b058-1ab918ff9200","system_id":"levelo_inurba_marseille","lat":43.217525,"lon":5.346018,"is_reserved":false,"is_disabled":false,"rental_uris":{"android":"levelo://app?vid=c6cabbe0-f347-44d0-b058-1ab918ff9200","ios":"levelo://app?vid=c6cabbe0-f347-44d0-b058-1ab918ff9200"},"vehicle_type_id":"4","last_reported":1752696740,"current_range_meters":3200,"station_id":"","pricing_plan_id":"cebpf4jnsgd1na2vs0mg"},{"bike_id":"4ce738c7-b112-4c35-a0c9-92d8f35bf64f","system_id":"levelo_inurba_marseille","lat":43.29839,"lon":5.36282,"is_reserved":false,"is_disabled":false,"rental_uris":{"android":"levelo://app?vid=4ce738c7-b112-4c35-a0c9-92d8f35bf64f","ios":"levelo://app?vid=4ce738c7-b112-4c35-a0c9-92d8f35bf64f"},"vehicle_type_id":"4","last_reported":1752696740,"current_range_meters":3200,"station_id":"ce4bgpp2rcd13ifvqc3g","pricing_plan_id":"cebpf4jnsgd1na2vs0mg"},{"bike_id":"5579b2a6-8c50-448a-accc-694b66a7eb0e","system_id":"levelo_inurba_marseille","lat":43.30615,"lon":5.3723,"is_reserved":false,"is_disabled":false,"rental_uris":{"android":"levelo://app?vid=5579b2a6-8c50-448a-accc-694b66a7eb0e","ios":"levelo://app?vid=5579b2a6-8c50-448a-accc-694b66a7eb0e"},"vehicle_type_id":"4","last_reported":1752696740,"current_range_meters":3600,"station_id":"ce4bgqh2rcd13ifvqc4g","pricing_plan_id":"cebpf4jnsgd1na2vs0mg"},{"bike_id":"2d1bf182-4f83-4c02-ae09-72e33696df2f","system_id":"levelo_inurba_marseille","lat":43.29297,"lon":5.3746,"is_reserved":false,"is_disabled":false,"rental_uris":{"android":"levelo://app?vid=2d1bf182-4f83-4c02-ae09-72e33696df2f","ios":"levelo://app?vid=2d1bf182-4f83-4c02-ae09-72e33696df2f"},"vehicle_type_id":"4","last_reported":1752696740,"current_range_meters":4000,"station_id":"ce4bgi12rcd13ifvqb70","pricing_plan_id":"cebpf4jnsgd1na2vs0mg"},{"bike_id":"37d6cf8b-ff71-4623-ad2e-6b4c6fc28c73","system_id":"levelo_inurba_marseille","lat":43.28602,"lon":5.37059,"is_reserved":false,"is_disabled":false,"rental_uris":{"android":"levelo://app?vid=37d6cf8b-ff71-4623-ad2e-6b4c6fc28c73","ios":"levelo://app?vid=37d6cf8b-ff71-4623-ad2e-6b4c6fc28c73"},"vehicle_type_id":"4","last_reported":1752696740,"current_range_meters":4400,"station_id":"ce4bht12rcd13ifvqi60","pricing_plan_id":"cebpf4jnsgd1na2vs0mg"},{"bike_id":"9a99c1b1-4bd1-4e33-88bf-0dd6321fe7fc","system_id":"levelo_inurba_marseille","lat":43.31224,"lon":5.3685,"is_reserved":false,"is_disabled":false,"rental_uris":{"android":"levelo://app?vid=9a99c1b1-4bd1-4e33-88bf-0dd6321fe7fc","ios":"levelo://app?vid=9a99c1b1-4bd1-4e33-88bf-0dd6321fe7fc"},"vehicle_type_id":"4","last_reported":1752696740,"current_range_meters":4400,"station_id":"ce4bgl92rcd13ifvqbq0","pricing_plan_id":"cebpf4jnsgd1na2vs0mg"},{"bike_id":"74b4390d-0242-429b-b32a-0523a3e24ef3","system_id":"levelo_inurba_marseille","lat":43.23645,"lon":5.36238,"is_reserved":false,"is_disabled":false,"rental_uris":{"android":"levelo://app?vid=74b4390d-0242-429b-b32a-0523a3e24ef3","ios":"levelo://app?vid=74b4390d-0242-429b-b32a-0523a3e24ef3"},"vehicle_type_id":"4","last_reported":1752696740,"current_range_meters":4800,"station_id":"","pricing_plan_id":"cebpf4jnsgd1na2vs0mg"},{"bike_id":"790bb653-2e89-4ffe-82a1-d84e7056adcc","system_id":"levelo_inurba_marseille","lat":43.288649,"lon":5.3585,"is_reserved":false,"is_disabled":false,"rental_uris":{"android":"levelo://app?vid=790bb653-2e89-4ffe-82a1-d84e7056adcc","ios":"levelo://app?vid=790bb653-2e89-4ffe-82a1-d84e7056adcc"},"vehicle_type_id":"4","last_reported":1752696740,"current_range_meters":4800,"station_id":"ce4bhb12rcd13ifvqem0","pricing_plan_id":"cebpf4jnsgd1na2vs0mg"},{"bike_id":"48099e9d-5df4-44a0-8fda-94ab073bff46","system_id":"levelo_inurba_marseille","lat":43.29267,"lon":5.3843,"is_reserved":false,"is_disabled":false,"rental_uris":{"android":"levelo://app?vid=48099e9d-5df4-44a0-8fda-94ab073bff46","ios":"levelo://app?vid=48099e9d-5df4-44a0-8fda-94ab073bff46"},"vehicle_type_id":"4","last_reported":1752696740,"current_range_meters":4800,"station_id":"ce4bh692rcd13ifvqea0","pricing_plan_id":"cebpf4jnsgd1na2vs0mg"},{"bike_id":"f7c567cb-e9a0-4665-8e94-c4475520f0bc","system_id":"levelo_inurba_marseille","lat":43.31332,"lon":5.39687,"is_reserved":false,"is_disabled":false,"rental_uris":{"android":"levelo://app?vid=f7c567cb-e9a0-4665-8e94-c4475520f0bc","ios":"levelo://app?vid=f7c567cb-e9a0-4665-8e94-c4475520f0bc"},"vehicle_type_id":"4","last_reported":1752696740,"current_range_meters":4800,"station_id":"ce4bgvp2rcd13ifvqcu0","pricing_plan_id":"cebpf4jnsgd1na2vs0mg"},{"bike_id":"5470ff83-8181-4d6a-8a4b-4bf82e10e0a4","system_id":"levelo_inurba_marseille","lat":43.292694,"lon":5.384391,"is_reserved":false,"is_disabled":false,"rental_uris":{"android":"levelo://app?vid=5470ff83-8181-4d6a-8a4b-4bf82e10e0a4","ios":"levelo://app?vid=5470ff83-8181-4d6a-8a4b-4bf82e10e0a4"},"vehicle_type_id":"4","last_reported":1752696740,"current_range_meters":4800,"station_id":"","pricing_plan_id":"cebpf4jnsgd1na2vs0mg"},{"bike_id":"cb98f2d1-9294-40aa-8451-6bcf39af84aa","system_id":"levelo_inurba_marseille","lat":43.26215,"lon":5.37444,"is_reserved":false,"is_disabled":true,"rental_uris":{"android":"levelo://app?vid=cb98f2d1-9294-40aa-8451-6bcf39af84aa","ios":"levelo://app?vid=cb98f2d1-9294-40aa-8451-6bcf39af84aa"},"vehicle_type_id":"4","last_reported":1752696740,"current_range_meters":4800,"station_id":"ce4bhgp2rcd13ifvqfc0","pricing_plan_id":"cebpf4jnsgd1na2vs0mg"},{"bike_id":"9816f6d6-a9c0-46fb-ac4c-15d6c548b607","system_id":"levelo_inurba_marseille","lat":43.29796,"lon":5.38105,"is_reserved":false,"is_disabled":false,"rental_uris":{"android":"levelo://app?vid=9816f6d6-a9c0-46fb-ac4c-15d6c548b607","ios":"levelo://app?vid=9816f6d6-a9c0-46fb-ac4c-15d6c548b607"},"vehicle_type_id":"4","last_reported":1752696740,"current_range_meters":4800,"station_id":"ce4bgip2rcd13ifvqbb0","pricing_plan_id":"cebpf4jnsgd1na2vs0mg"},{"bike_id":"892165f6-25a5-4f0a-a9a6-cf4efe50c3be","system_id":"levelo_inurba_marseille","lat":43.248461,"lon":5.425297,"is_reserved":false,"is_disabled":false,"rental_uris":{"android":"levelo://app?vid=892165f6-25a5-4f0a-a9a6-cf4efe50c3be","ios":"levelo://app?vid=892165f6-25a5-4f0a-a9a6-cf4efe50c3be"},"vehicle_type_id":"4","last_reported":1752696740,"current_range_meters":5600,"station_id":"","pricing_plan_id":"cebpf4jnsgd1na2vs0mg"},{"bike_id":"4e1c2498-b254-44c2-990c-637e3157b71e","system_id":"levelo_inurba_marseille","lat":43.26211,"lon":5.37442,"is_reserved":false,"is_disabled":false,"rental_uris":{"android":"levelo://app?vid=4e1c2498-b254-44c2-990c-637e3157b71e","ios":"levelo://app?vid=4e1c2498-b254-44c2-990c-637e3157b71e"},"vehicle_type_id":"4","last_reported":1752696740,"current_range_meters":5600,"station_id":"ce4bhgp2rcd13ifvqfc0","pricing_plan_id":"cebpf4jnsgd1na2vs0mg"},{"bike_id":"bee7ec44-b47b-4487-8fc7-c3242833222e","system_id":"levelo_inurba_marseille","lat":43.29026,"lon":5.38628,"is_reserved":false,"is_disabled":false,"rental_uris":{"android":"levelo://app?vid=bee7ec44-b47b-4487-8fc7-c3242833222e","ios":"levelo://app?vid=bee7ec44-b47b-4487-8fc7-c3242833222e"},"vehicle_type_id":"4","last_reported":1752696740,"current_range_meters":6000,"station_id":"ce4bh4p2rcd13ifvqe0g","pricing_plan_id":"cebpf4jnsgd1na2vs0mg"},{"bike_id":"e2f2f893-16c7-42e5-8c51-893940a1136e","system_id":"levelo_inurba_marseille","lat":43.30135,"lon":5.36896,"is_reserved":false,"is_disabled":false,"rental_uris":{"android":"levelo://app?vid=e2f2f893-16c7-42e5-8c51-893940a1136e","ios":"levelo://app?vid=e2f2f893-16c7-42e5-8c51-893940a1136e"},"vehicle_type_id":"4","last_reported":1752696740,"current_range_meters":6000,"station_id":"","pricing_plan_id":"cebpf4jnsgd1na2vs0mg"},{"bike_id":"5ff06d2e-1fcb-4f7f-b26f-494ef01051e2","system_id":"levelo_inurba_marseille","lat":43.26587,"lon":5.39483,"is_reserved":false,"is_disabled":true,"rental_uris":{"android":"levelo://app?vid=5ff06d2e-1fcb-4f7f-b26f-494ef01051e2","ios":"levelo://app?vid=5ff06d2e-1fcb-4f7f-b26f-494ef01051e2"},"vehicle_type_id":"4","last_reported":1752696740,"current_range_meters":6000,"station_id":"","pricing_plan_id":"cebpf4jnsgd1na2vs0mg"},{"bike_id":"7df8af66-1dbf-453d-99b6-35b0fe82d7da","system_id":"levelo_inurba_marseille","lat":43.29582,"lon":5.36752,"is_reserved":false,"is_disabled":false,"rental_uris":{"android":"levelo://app?vid=7df8af66-1dbf-453d-99b6-35b0fe82d7da","ios":"levelo://app?vid=7df8af66-1dbf-453d-99b6-35b0fe82d7da"},"vehicle_type_id":"4","last_reported":1752696740,"current_range_meters":6000,"station_id":"ce4bgph2rcd13ifvqc2g","pricing_plan_id":"cebpf4jnsgd1na2vs0mg"},{"bike_id":"56f7cf2a-f4c8-4cb8-b0c8-4ee81417cbdf","system_id":"levelo_inurba_marseille","lat":43.300363,"lon":5.365841,"is_reserved":false,"is_disabled":false,"rental_uris":{"android":"levelo://app?vid=56f7cf2a-f4c8-4cb8-b0c8-4ee81417cbdf","ios":"levelo://app?vid=56f7cf2a-f4c8-4cb8-b0c8-4ee81417cbdf"},"vehicle_type_id":"4","last_reported":1752696740,"current_range_meters":6400,"station_id":"ce4bgrh2rcd13ifvqc8g","pricing_plan_id":"cebpf4jnsgd1na2vs0mg"},{"bike_id":"15c6ecee-dbe5-437d-9264-7522a7a0c8db","system_id":"levelo_inurba_marseille","lat":43.29256,"lon":5.38466,"is_reserved":false,"is_disabled":false,"rental_uris":{"android":"levelo://app?vid=15c6ecee-dbe5-437d-9264-7522a7a0c8db","ios":"levelo://app?vid=15c6ecee-dbe5-437d-9264-7522a7a0c8db"},"vehicle_type_id":"4","last_reported":1752696740,"current_range_meters":6400,"station_id":"ce4bh692rcd13ifvqea0","pricing_plan_id":"cebpf4jnsgd1na2vs0mg"},{"bike_id":"d0e0aa98-cc89-48ec-8ed0-c4f362057891","system_id":"levelo_inurba_marseille","lat":43.3031,"lon":5.36896,"is_reserved":false,"is_disabled":false,"rental_uris":{"android":"levelo://app?vid=d0e0aa98-cc89-48ec-8ed0-c4f362057891","ios":"levelo://app?vid=d0e0aa98-cc89-48ec-8ed0-c4f362057891"},"vehicle_type_id":"4","last_reported":1752696740,"current_range_meters":6400,"station_id":"ce4bgqh2rcd13ifvqc5g","pricing_plan_id":"cebpf4jnsgd1na2vs0mg"},{"bike_id":"b9e832df-731f-45bc-a8d2-3d5bc93ac098","system_id":"levelo_inurba_marseille","lat":43.24647,"lon":5.38889,"is_reserved":false,"is_disabled":false,"rental_uris":{"android":"levelo://app?vid=b9e832df-731f-45bc-a8d2-3d5bc93ac098","ios":"levelo://app?vid=b9e832df-731f-45bc-a8d2-3d5bc93ac098"},"vehicle_type_id":"4","last_reported":1752696740,"current_range_meters":6400,"station_id":"ce4bhg12rcd13ifvqf60","pricing_plan_id":"cebpf4jnsgd1na2vs0mg"},{"bike_id":"43c6e9a1-17b6-4dce-bf58-c37cf55ac596","system_id":"levelo_inurba_marseille","lat":43.2985,"lon":5.36289,"is_reserved":false,"is_disabled":false,"rental_uris":{"android":"levelo://app?vid=43c6e9a1-17b6-4dce-bf58-c37cf55ac596","ios":"levelo://app?vid=43c6e9a1-17b6-4dce-bf58-c37cf55ac596"},"vehicle_type_id":"4","last_reported":1752696740,"current_range_meters":6400,"station_id":"ce4bgpp2rcd13ifvqc3g","pricing_plan_id":"cebpf4jnsgd1na2vs0mg"},{"bike_id":"5e2757a0-7288-437e-b078-55a4ea686789","system_id":"levelo_inurba_marseille","lat":43.31761,"lon":5.39012,"is_reserved":false,"is_disabled":false,"rental_uris":{"android":"levelo://app?vid=5e2757a0-7288-437e-b078-55a4ea686789","ios":"levelo://app?vid=5e2757a0-7288-437e-b078-55a4ea686789"},"vehicle_type_id":"4","last_reported":1752696740,"current_range_meters":6000,"station_id":"ce4bhqp2rcd13ifvqhng","pricing_plan_id":"cebpf4jnsgd1na2vs0mg"},{"bike_id":"fdd0da59-d8e0-4d24-88eb-8dfa57ec5f07","system_id":"levelo_inurba_marseille","lat":43.29715,"lon":5.36595,"is_reserved":false,"is_disabled":false,"rental_uris":{"android":"levelo://app?vid=fdd0da59-d8e0-4d24-88eb-8dfa57ec5f07","ios":"levelo://app?vid=fdd0da59-d8e0-4d24-88eb-8dfa57ec5f07"},"vehicle_type_id":"4","last_reported":1752696740,"current_range_meters":6400,"station_id":"ce4bgn12rcd13ifvqbt0","pricing_plan_id":"cebpf4jnsgd1na2vs0mg"},{"bike_id":"a8ce6efe-50ae-4699-a953-570b09452efb","system_id":"levelo_inurba_marseille","lat":43.250103,"lon":5.389104,"is_reserved":false,"is_disabled":true,"rental_uris":{"android":"levelo://app?vid=a8ce6efe-50ae-4699-a953-570b09452efb","ios":"levelo://app?vid=a8ce6efe-50ae-4699-a953-570b09452efb"},"vehicle_type_id":"4","last_reported":1752696740,"current_range_meters":6400,"station_id":"ce4bhgp2rcd13ifvqfd0","pricing_plan_id":"cebpf4jnsgd1na2vs0mg"},{"bike_id":"85d91537-73b6-43bb-be57-48807116a186","system_id":"levelo_inurba_marseille","lat":43.26212,"lon":5.37442,"is_reserved":false,"is_disabled":false,"rental_uris":{"android":"levelo://app?vid=85d91537-73b6-43bb-be57-48807116a186","ios":"levelo://app?vid=85d91537-73b6-43bb-be57-48807116a186"},"vehicle_type_id":"4","last_reported":1752696740,"current_range_meters":6800,"station_id":"ce4bhgp2rcd13ifvqfc0","pricing_plan_id":"cebpf4jnsgd1na2vs0mg"},{"bike_id":"aed6dafa-148f-4363-ab01-6ef6b44cf872","system_id":"levelo_inurba_marseille","lat":43.28446,"lon":5.3921,"is_reserved":false,"is_disabled":false,"rental_uris":{"android":"levelo://app?vid=aed6dafa-148f-4363-ab01-6ef6b44cf872","ios":"levelo://app?vid=aed6dafa-148f-4363-ab01-6ef6b44cf872"},"vehicle_type_id":"4","last_reported":1752696740,"current_range_meters":6400,"station_id":"ce4bhoh2rcd13ifvqh5g","pricing_plan_id":"cebpf4jnsgd1na2vs0mg"},{"bike_id":"3859f018-7b5f-469a-871e-d6832dcfaf8e","system_id":"levelo_inurba_marseille","lat":43.24804,"lon":5.37463,"is_reserved":false,"is_disabled":true,"rental_uris":{"android":"levelo://app?vid=3859f018-7b5f-469a-871e-d6832dcfaf8e","ios":"levelo://app?vid=3859f018-7b5f-469a-871e-d6832dcfaf8e"},"vehicle_type_id":"4","last_reported":1752696740,"current_range_meters":6800,"station_id":"ce4bhgh2rcd13ifvqfb0","pricing_plan_id":"cebpf4jnsgd1na2vs0mg"},{"bike_id":"de05f451-f405-4e60-b10e-7a948ba9e4e3","system_id":"levelo_inurba_marseille","lat":43.29311,"lon":5.37169,"is_reserved":false,"is_disabled":false,"rental_uris":{"android":"levelo://app?vid=de05f451-f405-4e60-b10e-7a948ba9e4e3","ios":"levelo://app?vid=de05f451-f405-4e60-b10e-7a948ba9e4e3"},"vehicle_type_id":"4","last_reported":1752696740,"current_range_meters":6400,"station_id":"ce4bgh92rcd13ifvqb40","pricing_plan_id":"cebpf4jnsgd1na2vs0mg"},{"bike_id":"a5204923-93e2-4809-b83c-0ab365b075c1","system_id":"levelo_inurba_marseille","lat":43.29801,"lon":5.38099,"is_reserved":false,"is_disabled":false,"rental_uris":{"android":"levelo://app?vid=a5204923-93e2-4809-b83c-0ab365b075c1","ios":"levelo://app?vid=a5204923-93e2-4809-b83c-0ab365b075c1"},"vehicle_type_id":"4","last_reported":1752696740,"current_range_meters":6800,"station_id":"ce4bgip2rcd13ifvqbb0","pricing_plan_id":"cebpf4jnsgd1na2vs0mg"},{"bike_id":"d4fc0619-e005-4355-a8e5-f4bcbe0879ed","system_id":"levelo_inurba_marseille","lat":43.31079,"lon":5.42436,"is_reserved":false,"is_disabled":false,"rental_uris":{"android":"levelo://app?vid=d4fc0619-e005-4355-a8e5-f4bcbe0879ed","ios":"levelo://app?vid=d4fc0619-e005-4355-a8e5-f4bcbe0879ed"},"vehicle_type_id":"4","last_reported":1752696740,"current_range_meters":6800,"station_id":"ce4bhp92rcd13ifvqhag","pricing_plan_id":"cebpf4jnsgd1na2vs0mg"},{"bike_id":"e5ec4b25-dbcc-42eb-bf86-2cca309a0b15","system_id":"levelo_inurba_marseille","lat":43.264945,"lon":5.395365,"is_reserved":false,"is_disabled":true,"rental_uris":{"android":"levelo://app?vid=e5ec4b25-dbcc-42eb-bf86-2cca309a0b15","ios":"levelo://app?vid=e5ec4b25-dbcc-42eb-bf86-2cca309a0b15"},"vehicle_type_id":"4","last_reported":1752696740,"current_range_meters":6800,"station_id":"","pricing_plan_id":"cebpf4jnsgd1na2vs0mg"},{"bike_id":"0d501cb5-6470-4726-95bd-c5285e5c5663","system_id":"levelo_inurba_marseille","lat":43.28944,"lon":5.36398,"is_reserved":false,"is_disabled":false,"rental_uris":{"android":"levelo://app?vid=0d501cb5-6470-4726-95bd-c5285e5c5663","ios":"levelo://app?vid=0d501cb5-6470-4726-95bd-c5285e5c5663"},"vehicle_type_id":"4","last_reported":1752696740,"current_range_meters":6400,"station_id":"ce4bhc92rcd13ifvqetg","pricing_plan_id":"cebpf4jnsgd1na2vs0mg"},{"bike_id":"435a9a56-6e1e-4cc2-b021-71255d417143","system_id":"levelo_inurba_marseille","lat":43.29591,"lon":5.36738,"is_reserved":false,"is_disabled":false,"rental_uris":{"android":"levelo://app?vid=435a9a56-6e1e-4cc2-b021-71255d417143","ios":"levelo://app?vid=435a9a56-6e1e-4cc2-b021-71255d417143"},"vehicle_type_id":"4","last_reported":1752696740,"current_range_meters":6800,"station_id":"ce4bgph2rcd13ifvqc2g","pricing_plan_id":"cebpf4jnsgd1na2vs0mg"},{"bike_id":"42df4963-7ab6-496d-ba45-4d9b402b6fda","system_id":"levelo_inurba_marseille","lat":43.27811,"lon":5.40715,"is_reserved":false,"is_disabled":false,"rental_uris":{"android":"levelo://app?vid=42df4963-7ab6-496d-ba45-4d9b402b6fda","ios":"levelo://app?vid=42df4963-7ab6-496d-ba45-4d9b402b6fda"},"vehicle_type_id":"4","last_reported":1752696740,"current_range_meters":7200,"station_id":"ce4bhnh2rcd13ifvqgtg","pricing_plan_id":"cebpf4jnsgd1na2vs0mg"},{"bike_id":"330c9897-236a-41be-8e5b-b909ef8e8aa3","system_id":"levelo_inurba_marseille","lat":43.26556,"lon":5.37281,"is_reserved":false,"is_disabled":false,"rental_uris":{"android":"levelo://app?vid=330c9897-236a-41be-8e5b-b909ef8e8aa3","ios":"levelo://app?vid=330c9897-236a-41be-8e5b-b909ef8e8aa3"},"vehicle_type_id":"4","last_reported":1752696740,"current_range_meters":7200,"station_id":"ce4bhg12rcd13ifvqf70","pricing_plan_id":"cebpf4jnsgd1na2vs0mg"},{"bike_id":"0fd913ab-552a-4d28-8d0f-81690a1083c8","system_id":"levelo_inurba_marseille","lat":43.27914,"lon":5.3958,"is_reserved":false,"is_disabled":false,"rental_uris":{"android":"levelo://app?vid=0fd913ab-552a-4d28-8d0f-81690a1083c8","ios":"levelo://app?vid=0fd913ab-552a-4d28-8d0f-81690a1083c8"},"vehicle_type_id":"4","last_reported":1752696740,"current_range_meters":7200,"station_id":"ce4bhf92rcd13ifvqf40","pricing_plan_id":"cebpf4jnsgd1na2vs0mg"},{"bike_id":"396183f0-39c1-43b2-8228-64839817bbcb","system_id":"levelo_inurba_marseille","lat":43.30329,"lon":5.40442,"is_reserved":false,"is_disabled":false,"rental_uris":{"android":"levelo://app?vid=396183f0-39c1-43b2-8228-64839817bbcb","ios":"levelo://app?vid=396183f0-39c1-43b2-8228-64839817bbcb"},"vehicle_type_id":"4","last_reported":1752696740,"current_range_meters":8000,"station_id":"ce4bh012rcd13ifvqd10","pricing_plan_id":"cebpf4jnsgd1na2vs0mg"},{"bike_id":"a2b9f0d1-634e-47ed-add0-aa60e0849016","system_id":"levelo_inurba_marseille","lat":43.29267,"lon":5.38433,"is_reserved":false,"is_disabled":false,"rental_uris":{"android":"levelo://app?vid=a2b9f0d1-634e-47ed-add0-aa60e0849016","ios":"levelo://app?vid=a2b9f0d1-634e-47ed-add0-aa60e0849016"},"vehicle_type_id":"4","last_reported":1752696740,"current_range_meters":7200,"station_id":"ce4bh692rcd13ifvqea0","pricing_plan_id":"cebpf4jnsgd1na2vs0mg"},{"bike_id":"4ea2cfbd-a1d9-4ac8-8b8f-81fb3156d5c6","system_id":"levelo_inurba_marseille","lat":43.265516,"lon":5.372928,"is_reserved":false,"is_disabled":false,"rental_uris":{"android":"levelo://app?vid=4ea2cfbd-a1d9-4ac8-8b8f-81fb3156d5c6","ios":"levelo://app?vid=4ea2cfbd-a1d9-4ac8-8b8f-81fb3156d5c6"},"vehicle_type_id":"4","last_reported":1752696740,"current_range_meters":5600,"station_id":"ce4bhg12rcd13ifvqf70","pricing_plan_id":"cebpf4jnsgd1na2vs0mg"},{"bike_id":"f2f1e358-671c-43dc-83ac-76eb27113194","system_id":"levelo_inurba_marseille","lat":43.30424,"lon":5.41277,"is_reserved":false,"is_disabled":false,"rental_uris":{"android":"levelo://app?vid=f2f1e358-671c-43dc-83ac-76eb27113194","ios":"levelo://app?vid=f2f1e358-671c-43dc-83ac-76eb27113194"},"vehicle_type_id":"4","last_reported":1752696740,"current_range_meters":8000,"station_id":"ce4bhop2rcd13ifvqh8g","pricing_plan_id":"cebpf4jnsgd1na2vs0mg"},{"bike_id":"bdadbfdd-02ec-43df-a8ac-0ce1d617c55c","system_id":"levelo_inurba_marseille","lat":43.28704,"lon":5.37393,"is_reserved":false,"is_disabled":false,"rental_uris":{"android":"levelo://app?vid=bdadbfdd-02ec-43df-a8ac-0ce1d617c55c","ios":"levelo://app?vid=bdadbfdd-02ec-43df-a8ac-0ce1d617c55c"},"vehicle_type_id":"4","last_reported":1752696740,"current_range_meters":8000,"station_id":"ce4bh3p2rcd13ifvqdq0","pricing_plan_id":"cebpf4jnsgd1na2vs0mg"},{"bike_id":"9bef9fd3-a179-4977-b5c1-723a39183134","system_id":"levelo_inurba_marseille","lat":43.29552,"lon":5.42281,"is_reserved":false,"is_disabled":false,"rental_uris":{"android":"levelo://app?vid=9bef9fd3-a179-4977-b5c1-723a39183134","ios":"levelo://app?vid=9bef9fd3-a179-4977-b5c1-723a39183134"},"vehicle_type_id":"4","last_reported":1752696740,"current_range_meters":8000,"station_id":"ce4bhph2rcd13ifvqhdg","pricing_plan_id":"cebpf4jnsgd1na2vs0mg"},{"bike_id":"b2691039-7ff6-41ed-9b25-53013cba226e","system_id":"levelo_inurba_marseille","lat":43.34148,"lon":5.40896,"is_reserved":false,"is_disabled":false,"rental_uris":{"android":"levelo://app?vid=b2691039-7ff6-41ed-9b25-53013cba226e","ios":"levelo://app?vid=b2691039-7ff6-41ed-9b25-53013cba226e"},"vehicle_type_id":"4","last_reported":1752696740,"current_range_meters":8400,"station_id":"ce4bhqh2rcd13ifvqhlg","pricing_plan_id":"cebpf4jnsgd1na2vs0mg"},{"bike_id":"974c545d-a53c-4acf-ada4-7c0251c77040","system_id":"levelo_inurba_marseille","lat":43.27809,"lon":5.4071,"is_reserved":false,"is_disabled":false,"rental_uris":{"android":"levelo://app?vid=974c545d-a53c-4acf-ada4-7c0251c77040","ios":"levelo://app?vid=974c545d-a53c-4acf-ada4-7c0251c77040"},"vehicle_type_id":"4","last_reported":1752696740,"current_range_meters":8000,"station_id":"ce4bhnh2rcd13ifvqgtg","pricing_plan_id":"cebpf4jnsgd1na2vs0mg"},{"bike_id":"e69f7554-0fba-456e-baae-f2be63e3d0ba","system_id":"levelo_inurba_marseille","lat":43.295789,"lon":5.37517,"is_reserved":false,"is_disabled":false,"rental_uris":{"android":"levelo://app?vid=e69f7554-0fba-456e-baae-f2be63e3d0ba","ios":"levelo://app?vid=e69f7554-0fba-456e-baae-f2be63e3d0ba"},"vehicle_type_id":"4","last_reported":1752696740,"current_range_meters":8400,"station_id":"ce4bgh92rcd13ifvqb50","pricing_plan_id":"cebpf4jnsgd1na2vs0mg"},{"bike_id":"52d78d14-887c-48e1-8622-ed5a61115b3f","system_id":"levelo_inurba_marseille","lat":43.29078,"lon":5.37193,"is_reserved":false,"is_disabled":false,"rental_uris":{"android":"levelo://app?vid=52d78d14-887c-48e1-8622-ed5a61115b3f","ios":"levelo://app?vid=52d78d14-887c-48e1-8622-ed5a61115b3f"},"vehicle_type_id":"4","last_reported":1752696740,"current_range_meters":8400,"station_id":"ce4bh5p2rcd13ifvqe4g","pricing_plan_id":"cebpf4jnsgd1na2vs0mg"},{"bike_id":"080b0f22-14dd-4044-a18f-ee7f74366cea","system_id":"levelo_inurba_marseille","lat":43.31946,"lon":5.3812,"is_reserved":false,"is_disabled":true,"rental_uris":{"android":"levelo://app?vid=080b0f22-14dd-4044-a18f-ee7f74366cea","ios":"levelo://app?vid=080b0f22-14dd-4044-a18f-ee7f74366cea"},"vehicle_type_id":"4","last_reported":1752696740,"current_range_meters":8400,"station_id":"ce4bhr12rcd13ifvqhpg","pricing_plan_id":"cebpf4jnsgd1na2vs0mg"},{"bike_id":"d98ef30e-38a0-41ef-a00a-304afa979a1e","system_id":"levelo_inurba_marseille","lat":43.29903,"lon":5.43672,"is_reserved":false,"is_disabled":true,"rental_uris":{"android":"levelo://app?vid=d98ef30e-38a0-41ef-a00a-304afa979a1e","ios":"levelo://app?vid=d98ef30e-38a0-41ef-a00a-304afa979a1e"},"vehicle_type_id":"4","last_reported":1752696740,"current_range_meters":8800,"station_id":"ce4bhpp2rcd13ifvqhfg","pricing_plan_id":"cebpf4jnsgd1na2vs0mg"},{"bike_id":"2c6e34ec-e4ad-4b55-908f-732bdcecdb2f","system_id":"levelo_inurba_marseille","lat":43.21193,"lon":5.35045,"is_reserved":false,"is_disabled":false,"rental_uris":{"android":"levelo://app?vid=2c6e34ec-e4ad-4b55-908f-732bdcecdb2f","ios":"levelo://app?vid=2c6e34ec-e4ad-4b55-908f-732bdcecdb2f"},"vehicle_type_id":"4","last_reported":1752696740,"current_range_meters":8800,"station_id":"st_cvj6sg6p6f1abm77japg","pricing_plan_id":"cebpf4jnsgd1na2vs0mg"},{"bike_id":"aee75efe-58e8-43e1-8b75-1a57d1e1e2d8","system_id":"levelo_inurba_marseille","lat":43.2944,"lon":5.39741,"is_reserved":false,"is_disabled":false,"rental_uris":{"android":"levelo://app?vid=aee75efe-58e8-43e1-8b75-1a57d1e1e2d8","ios":"levelo://app?vid=aee75efe-58e8-43e1-8b75-1a57d1e1e2d8"},"vehicle_type_id":"4","last_reported":1752696740,"current_range_meters":8800,"station_id":"ce4bh3h2rcd13ifvqdo0","pricing_plan_id":"cebpf4jnsgd1na2vs0mg"},{"bike_id":"30e06822-5b6e-4841-b223-cbaa1a22c4aa","system_id":"levelo_inurba_marseille","lat":43.32359,"lon":5.36769,"is_reserved":false,"is_disabled":false,"rental_uris":{"android":"levelo://app?vid=30e06822-5b6e-4841-b223-cbaa1a22c4aa","ios":"levelo://app?vid=30e06822-5b6e-4841-b223-cbaa1a22c4aa"},"vehicle_type_id":"4","last_reported":1752696740,"current_range_meters":8800,"station_id":"ce4bhsh2rcd13ifvqi2g","pricing_plan_id":"cebpf4jnsgd1na2vs0mg"},{"bike_id":"21277f10-5153-4980-90c8-114919d3afab","system_id":"levelo_inurba_marseille","lat":43.31069,"lon":5.38348,"is_reserved":false,"is_disabled":true,"rental_uris":{"android":"levelo://app?vid=21277f10-5153-4980-90c8-114919d3afab","ios":"levelo://app?vid=21277f10-5153-4980-90c8-114919d3afab"},"vehicle_type_id":"4","last_reported":1752696740,"current_range_meters":9200,"station_id":"ce4bgv92rcd13ifvqcr0","pricing_plan_id":"cebpf4jnsgd1na2vs0mg"},{"bike_id":"818d3c99-d38b-43ba-ae52-023d92419335","system_id":"levelo_inurba_marseille","lat":43.3108,"lon":5.38356,"is_reserved":false,"is_disabled":false,"rental_uris":{"android":"levelo://app?vid=818d3c99-d38b-43ba-ae52-023d92419335","ios":"levelo://app?vid=818d3c99-d38b-43ba-ae52-023d92419335"},"vehicle_type_id":"4","last_reported":1752696740,"current_range_meters":9200,"station_id":"ce4bgv92rcd13ifvqcr0","pricing_plan_id":"cebpf4jnsgd1na2vs0mg"},{"bike_id":"1d7305c6-9a0a-4587-a736-7298e4fb5942","system_id":"levelo_inurba_marseille","lat":43.28841,"lon":5.35894,"is_reserved":false,"is_disabled":true,"rental_uris":{"android":"levelo://app?vid=1d7305c6-9a0a-4587-a736-7298e4fb5942","ios":"levelo://app?vid=1d7305c6-9a0a-4587-a736-7298e4fb5942"},"vehicle_type_id":"4","last_reported":1752696740,"current_range_meters":9200,"station_id":"ce4bhb12rcd13ifvqem0","pricing_plan_id":"cebpf4jnsgd1na2vs0mg"},{"bike_id":"1051e6b6-00e6-49e9-ac39-38d3a12396e5","system_id":"levelo_inurba_marseille","lat":43.2943,"lon":5.39753,"is_reserved":false,"is_disabled":false,"rental_uris":{"android":"levelo://app?vid=1051e6b6-00e6-49e9-ac39-38d3a12396e5","ios":"levelo://app?vid=1051e6b6-00e6-49e9-ac39-38d3a12396e5"},"vehicle_type_id":"4","last_reported":1752696740,"current_range_meters":9200,"station_id":"ce4bh3h2rcd13ifvqdo0","pricing_plan_id":"cebpf4jnsgd1na2vs0mg"},{"bike_id":"28f13be0-9c8c-419c-bacb-42e99903d088","system_id":"levelo_inurba_marseille","lat":43.26547,"lon":5.37291,"is_reserved":false,"is_disabled":false,"rental_uris":{"android":"levelo://app?vid=28f13be0-9c8c-419c-bacb-42e99903d088","ios":"levelo://app?vid=28f13be0-9c8c-419c-bacb-42e99903d088"},"vehicle_type_id":"4","last_reported":1752696740,"current_range_meters":9200,"station_id":"ce4bhg12rcd13ifvqf70","pricing_plan_id":"cebpf4jnsgd1na2vs0mg"},{"bike_id":"9cf033a1-484e-48ee-b234-d0c877b8a9b0","system_id":"levelo_inurba_marseille","lat":43.298467,"lon":5.362834,"is_reserved":false,"is_disabled":false,"rental_uris":{"android":"levelo://app?vid=9cf033a1-484e-48ee-b234-d0c877b8a9b0","ios":"levelo://app?vid=9cf033a1-484e-48ee-b234-d0c877b8a9b0"},"vehicle_type_id":"4","last_reported":1752696740,"current_range_meters":9200,"station_id":"ce4bgpp2rcd13ifvqc3g","pricing_plan_id":"cebpf4jnsgd1na2vs0mg"},{"bike_id":"47cc83d9-8d3c-48b0-8af9-edb97aafced3","system_id":"levelo_inurba_marseille","lat":43.2919,"lon":5.39326,"is_reserved":false,"is_disabled":false,"rental_uris":{"android":"levelo://app?vid=47cc83d9-8d3c-48b0-8af9-edb97aafced3","ios":"levelo://app?vid=47cc83d9-8d3c-48b0-8af9-edb97aafced3"},"vehicle_type_id":"4","last_reported":1752696740,"current_range_meters":9200,"station_id":"ce4bh192rcd13ifvqdd0","pricing_plan_id":"cebpf4jnsgd1na2vs0mg"},{"bike_id":"54e80d7f-7b27-42a5-bcd3-e3359bc26e0f","system_id":"levelo_inurba_marseille","lat":43.30884,"lon":5.37196,"is_reserved":false,"is_disabled":false,"rental_uris":{"android":"levelo://app?vid=54e80d7f-7b27-42a5-bcd3-e3359bc26e0f","ios":"levelo://app?vid=54e80d7f-7b27-42a5-bcd3-e3359bc26e0f"},"vehicle_type_id":"4","last_reported":1752696740,"current_range_meters":9200,"station_id":"ce4bguh2rcd13ifvqckg","pricing_plan_id":"cebpf4jnsgd1na2vs0mg"},{"bike_id":"34a70129-b315-45b2-9d47-186d40db95fd","system_id":"levelo_inurba_marseille","lat":43.29274,"lon":5.38441,"is_reserved":false,"is_disabled":false,"rental_uris":{"android":"levelo://app?vid=34a70129-b315-45b2-9d47-186d40db95fd","ios":"levelo://app?vid=34a70129-b315-45b2-9d47-186d40db95fd"},"vehicle_type_id":"4","last_reported":1752696740,"current_range_meters":9200,"station_id":"ce4bh692rcd13ifvqea0","pricing_plan_id":"cebpf4jnsgd1na2vs0mg"},{"bike_id":"c588f21b-3a83-42a4-9068-2e0425a358b3","system_id":"levelo_inurba_marseille","lat":43.29451,"lon":5.38634,"is_reserved":false,"is_disabled":false,"rental_uris":{"android":"levelo://app?vid=c588f21b-3a83-42a4-9068-2e0425a358b3","ios":"levelo://app?vid=c588f21b-3a83-42a4-9068-2e0425a358b3"},"vehicle_type_id":"4","last_reported":1752696740,"current_range_meters":9200,"station_id":"ce4bh2h2rcd13ifvqdh0","pricing_plan_id":"cebpf4jnsgd1na2vs0mg"},{"bike_id":"b54d706a-0aa5-4b88-947c-9a50a2857c27","system_id":"levelo_inurba_marseille","lat":43.30889,"lon":5.37194,"is_reserved":false,"is_disabled":false,"rental_uris":{"android":"levelo://app?vid=b54d706a-0aa5-4b88-947c-9a50a2857c27","ios":"levelo://app?vid=b54d706a-0aa5-4b88-947c-9a50a2857c27"},"vehicle_type_id":"4","last_reported":1752696740,"current_range_meters":9200,"station_id":"ce4bguh2rcd13ifvqckg","pricing_plan_id":"cebpf4jnsgd1na2vs0mg"},{"bike_id":"258a64d9-14eb-4da2-9034-5cecfcb94a87","system_id":"levelo_inurba_marseille","lat":43.2736,"lon":5.36248,"is_reserved":false,"is_disabled":false,"rental_uris":{"android":"levelo://app?vid=258a64d9-14eb-4da2-9034-5cecfcb94a87","ios":"levelo://app?vid=258a64d9-14eb-4da2-9034-5cecfcb94a87"},"vehicle_type_id":"4","last_reported":1752696740,"current_range_meters":9200,"station_id":"ce4bhbh2rcd13ifvqeo0","pricing_plan_id":"cebpf4jnsgd1na2vs0mg"},{"bike_id":"0fe2245c-1c99-464b-9c6a-ffb62c5a4f37","system_id":"levelo_inurba_marseille","lat":43.26206,"lon":5.3744,"is_reserved":false,"is_disabled":false,"rental_uris":{"android":"levelo://app?vid=0fe2245c-1c99-464b-9c6a-ffb62c5a4f37","ios":"levelo://app?vid=0fe2245c-1c99-464b-9c6a-ffb62c5a4f37"},"vehicle_type_id":"4","last_reported":1752696740,"current_range_meters":9600,"station_id":"ce4bhgp2rcd13ifvqfc0","pricing_plan_id":"cebpf4jnsgd1na2vs0mg"},{"bike_id":"5c5183f7-02b4-4738-84b2-076637792d0b","system_id":"levelo_inurba_marseille","lat":43.28732,"lon":5.37379,"is_reserved":false,"is_disabled":false,"rental_uris":{"android":"levelo://app?vid=5c5183f7-02b4-4738-84b2-076637792d0b","ios":"levelo://app?vid=5c5183f7-02b4-4738-84b2-076637792d0b"},"vehicle_type_id":"4","last_reported":1752696740,"current_range_meters":9600,"station_id":"ce4bh3p2rcd13ifvqdq0","pricing_plan_id":"cebpf4jnsgd1na2vs0mg"},{"bike_id":"0bc04423-5570-41db-b872-ea7fcfc9d279","system_id":"levelo_inurba_marseille","lat":43.29429,"lon":5.39749,"is_reserved":false,"is_disabled":false,"rental_uris":{"android":"levelo://app?vid=0bc04423-5570-41db-b872-ea7fcfc9d279","ios":"levelo://app?vid=0bc04423-5570-41db-b872-ea7fcfc9d279"},"vehicle_type_id":"4","last_reported":1752696740,"current_range_meters":9600,"station_id":"ce4bh3h2rcd13ifvqdo0","pricing_plan_id":"cebpf4jnsgd1na2vs0mg"},{"bike_id":"2bacaccd-1bb2-41bf-ab2e-30b8a5fb7d5d","system_id":"levelo_inurba_marseille","lat":43.27373,"lon":5.36269,"is_reserved":false,"is_disabled":true,"rental_uris":{"android":"levelo://app?vid=2bacaccd-1bb2-41bf-ab2e-30b8a5fb7d5d","ios":"levelo://app?vid=2bacaccd-1bb2-41bf-ab2e-30b8a5fb7d5d"},"vehicle_type_id":"4","last_reported":1752696740,"current_range_meters":9600,"station_id":"ce4bhbh2rcd13ifvqeo0","pricing_plan_id":"cebpf4jnsgd1na2vs0mg"},{"bike_id":"dd5871ae-6538-4aeb-98aa-aee429d89359","system_id":"levelo_inurba_marseille","lat":43.295735,"lon":5.367393,"is_reserved":false,"is_disabled":false,"rental_uris":{"android":"levelo://app?vid=dd5871ae-6538-4aeb-98aa-aee429d89359","ios":"levelo://app?vid=dd5871ae-6538-4aeb-98aa-aee429d89359"},"vehicle_type_id":"4","last_reported":1752696740,"current_range_meters":9600,"station_id":"ce4bgph2rcd13ifvqc2g","pricing_plan_id":"cebpf4jnsgd1na2vs0mg"},{"bike_id":"df5a74a2-35d0-458d-a86e-115cbef5dd2c","system_id":"levelo_inurba_marseille","lat":43.29846,"lon":5.36268,"is_reserved":false,"is_disabled":false,"rental_uris":{"android":"levelo://app?vid=df5a74a2-35d0-458d-a86e-115cbef5dd2c","ios":"levelo://app?vid=df5a74a2-35d0-458d-a86e-115cbef5dd2c"},"vehicle_type_id":"4","last_reported":1752696740,"current_range_meters":9600,"station_id":"ce4bgpp2rcd13ifvqc3g","pricing_plan_id":"cebpf4jnsgd1na2vs0mg"},{"bike_id":"a6b95d2a-512b-4928-866a-aa1ea2105b6a","system_id":"levelo_inurba_marseille","lat":43.28865,"lon":5.35867,"is_reserved":false,"is_disabled":false,"rental_uris":{"android":"levelo://app?vid=a6b95d2a-512b-4928-866a-aa1ea2105b6a","ios":"levelo://app?vid=a6b95d2a-512b-4928-866a-aa1ea2105b6a"},"vehicle_type_id":"4","last_reported":1752696740,"current_range_meters":10000,"station_id":"ce4bhb12rcd13ifvqem0","pricing_plan_id":"cebpf4jnsgd1na2vs0mg"},{"bike_id":"8c7c8043-5496-4c8f-873d-dd1b86529e93","system_id":"levelo_inurba_marseille","lat":43.28154,"lon":5.42647,"is_reserved":false,"is_disabled":false,"rental_uris":{"android":"levelo://app?vid=8c7c8043-5496-4c8f-873d-dd1b86529e93","ios":"levelo://app?vid=8c7c8043-5496-4c8f-873d-dd1b86529e93"},"vehicle_type_id":"4","last_reported":1752696740,"current_range_meters":10000,"station_id":"ce4bhnh2rcd13ifvqgug","pricing_plan_id":"cebpf4jnsgd1na2vs0mg"},{"bike_id":"18c53b8d-cfa9-4865-b0d5-1eb96eca70c6","system_id":"levelo_inurba_marseille","lat":43.30465,"lon":5.37914,"is_reserved":false,"is_disabled":false,"rental_uris":{"android":"levelo://app?vid=18c53b8d-cfa9-4865-b0d5-1eb96eca70c6","ios":"levelo://app?vid=18c53b8d-cfa9-4865-b0d5-1eb96eca70c6"},"vehicle_type_id":"4","last_reported":1752696740,"current_range_meters":10000,"station_id":"ce4bgup2rcd13ifvqcn0","pricing_plan_id":"cebpf4jnsgd1na2vs0mg"},{"bike_id":"a8ccc3bb-8602-413c-a199-c1dfd88b0147","system_id":"levelo_inurba_marseille","lat":43.26224,"lon":5.4045,"is_reserved":false,"is_disabled":false,"rental_uris":{"android":"levelo://app?vid=a8ccc3bb-8602-413c-a199-c1dfd88b0147","ios":"levelo://app?vid=a8ccc3bb-8602-413c-a199-c1dfd88b0147"},"vehicle_type_id":"4","last_reported":1752696740,"current_range_meters":10000,"station_id":"ce4bhmh2rcd13ifvqgmg","pricing_plan_id":"cebpf4jnsgd1na2vs0mg"},{"bike_id":"1145602c-3b12-4604-b8ff-291284dfc532","system_id":"levelo_inurba_marseille","lat":43.22508,"lon":5.34775,"is_reserved":false,"is_disabled":false,"rental_uris":{"android":"levelo://app?vid=1145602c-3b12-4604-b8ff-291284dfc532","ios":"levelo://app?vid=1145602c-3b12-4604-b8ff-291284dfc532"},"vehicle_type_id":"4","last_reported":1752696740,"current_range_meters":10000,"station_id":"st_cvj5dfep6f1abm77gieg","pricing_plan_id":"cebpf4jnsgd1na2vs0mg"},{"bike_id":"b3315968-bc84-45dd-aaeb-21dd5ae09bd7","system_id":"levelo_inurba_marseille","lat":43.31083,"lon":5.42431,"is_reserved":false,"is_disabled":false,"rental_uris":{"android":"levelo://app?vid=b3315968-bc84-45dd-aaeb-21dd5ae09bd7","ios":"levelo://app?vid=b3315968-bc84-45dd-aaeb-21dd5ae09bd7"},"vehicle_type_id":"4","last_reported":1752696740,"current_range_meters":10000,"station_id":"ce4bhp92rcd13ifvqhag","pricing_plan_id":"cebpf4jnsgd1na2vs0mg"},{"bike_id":"2d173bc5-3761-4c68-b8ab-8fb87c54b460","system_id":"levelo_inurba_marseille","lat":43.29839,"lon":5.3628,"is_reserved":false,"is_disabled":false,"rental_uris":{"android":"levelo://app?vid=2d173bc5-3761-4c68-b8ab-8fb87c54b460","ios":"levelo://app?vid=2d173bc5-3761-4c68-b8ab-8fb87c54b460"},"vehicle_type_id":"4","last_reported":1752696740,"current_range_meters":10000,"station_id":"ce4bgpp2rcd13ifvqc3g","pricing_plan_id":"cebpf4jnsgd1na2vs0mg"},{"bike_id":"71525951-763f-4130-b5b7-4d4a53c2ab15","system_id":"levelo_inurba_marseille","lat":43.29244,"lon":5.38463,"is_reserved":false,"is_disabled":false,"rental_uris":{"android":"levelo://app?vid=71525951-763f-4130-b5b7-4d4a53c2ab15","ios":"levelo://app?vid=71525951-763f-4130-b5b7-4d4a53c2ab15"},"vehicle_type_id":"4","last_reported":1752696740,"current_range_meters":10800,"station_id":"ce4bh692rcd13ifvqea0","pricing_plan_id":"cebpf4jnsgd1na2vs0mg"},{"bike_id":"2ed2bfbe-f294-4f5b-bf5f-8df8acee532c","system_id":"levelo_inurba_marseille","lat":43.24809,"lon":5.37459,"is_reserved":false,"is_disabled":false,"rental_uris":{"android":"levelo://app?vid=2ed2bfbe-f294-4f5b-bf5f-8df8acee532c","ios":"levelo://app?vid=2ed2bfbe-f294-4f5b-bf5f-8df8acee532c"},"vehicle_type_id":"4","last_reported":1752696740,"current_range_meters":10800,"station_id":"ce4bhgh2rcd13ifvqfb0","pricing_plan_id":"cebpf4jnsgd1na2vs0mg"},{"bike_id":"c75b8a0d-6118-48c0-8f4b-2b4d5a7dd737","system_id":"levelo_inurba_marseille","lat":43.30731,"lon":5.42435,"is_reserved":false,"is_disabled":false,"rental_uris":{"android":"levelo://app?vid=c75b8a0d-6118-48c0-8f4b-2b4d5a7dd737","ios":"levelo://app?vid=c75b8a0d-6118-48c0-8f4b-2b4d5a7dd737"},"vehicle_type_id":"4","last_reported":1752696740,"current_range_meters":10800,"station_id":"st_cvj6ca6bvosntc0bfgr0","pricing_plan_id":"cebpf4jnsgd1na2vs0mg"},{"bike_id":"271a729c-3031-481b-8d6a-b9fe370536ce","system_id":"levelo_inurba_marseille","lat":43.29558,"lon":5.42298,"is_reserved":false,"is_disabled":false,"rental_uris":{"android":"levelo://app?vid=271a729c-3031-481b-8d6a-b9fe370536ce","ios":"levelo://app?vid=271a729c-3031-481b-8d6a-b9fe370536ce"},"vehicle_type_id":"4","last_reported":1752696740,"current_range_meters":10800,"station_id":"ce4bhph2rcd13ifvqhdg","pricing_plan_id":"cebpf4jnsgd1na2vs0mg"},{"bike_id":"b2baf8bb-de6c-4a22-93ac-fee171870644","system_id":"levelo_inurba_marseille","lat":43.310759,"lon":5.383541,"is_reserved":false,"is_disabled":false,"rental_uris":{"android":"levelo://app?vid=b2baf8bb-de6c-4a22-93ac-fee171870644","ios":"levelo://app?vid=b2baf8bb-de6c-4a22-93ac-fee171870644"},"vehicle_type_id":"4","last_reported":1752696740,"current_range_meters":10800,"station_id":"ce4bh392rcd13ifvqdl0","pricing_plan_id":"cebpf4jnsgd1na2vs0mg"},{"bike_id":"ba63a61a-9b23-4bd5-a17a-b1b9592d9e01","system_id":"levelo_inurba_marseille","lat":43.29437,"lon":5.39746,"is_reserved":false,"is_disabled":false,"rental_uris":{"android":"levelo://app?vid=ba63a61a-9b23-4bd5-a17a-b1b9592d9e01","ios":"levelo://app?vid=ba63a61a-9b23-4bd5-a17a-b1b9592d9e01"},"vehicle_type_id":"4","last_reported":1752696740,"current_range_meters":10800,"station_id":"ce4bh3h2rcd13ifvqdo0","pricing_plan_id":"cebpf4jnsgd1na2vs0mg"},{"bike_id":"412391dd-5e7c-4966-adfa-e700dd369b8b","system_id":"levelo_inurba_marseille","lat":43.29846,"lon":5.36275,"is_reserved":false,"is_disabled":false,"rental_uris":{"android":"levelo://app?vid=412391dd-5e7c-4966-adfa-e700dd369b8b","ios":"levelo://app?vid=412391dd-5e7c-4966-adfa-e700dd369b8b"},"vehicle_type_id":"4","last_reported":1752696740,"current_range_meters":10800,"station_id":"ce4bgpp2rcd13ifvqc3g","pricing_plan_id":"cebpf4jnsgd1na2vs0mg"},{"bike_id":"e63f05de-effa-4c72-90d4-75f3968d4a40","system_id":"levelo_inurba_marseille","lat":43.28412,"lon":5.37509,"is_reserved":false,"is_disabled":false,"rental_uris":{"android":"levelo://app?vid=e63f05de-effa-4c72-90d4-75f3968d4a40","ios":"levelo://app?vid=e63f05de-effa-4c72-90d4-75f3968d4a40"},"vehicle_type_id":"4","last_reported":1752696740,"current_range_meters":10800,"station_id":"ce4bh412rcd13ifvqds0","pricing_plan_id":"cebpf4jnsgd1na2vs0mg"},{"bike_id":"d97bb949-0737-4e74-84dd-59b6dc55c128","system_id":"levelo_inurba_marseille","lat":43.28305,"lon":5.43299,"is_reserved":false,"is_disabled":false,"rental_uris":{"android":"levelo://app?vid=d97bb949-0737-4e74-84dd-59b6dc55c128","ios":"levelo://app?vid=d97bb949-0737-4e74-84dd-59b6dc55c128"},"vehicle_type_id":"4","last_reported":1752696740,"current_range_meters":11200,"station_id":"","pricing_plan_id":"cebpf4jnsgd1na2vs0mg"},{"bike_id":"e5bec6b1-43e6-46f2-9810-affd93766dd8","system_id":"levelo_inurba_marseille","lat":43.33774,"lon":5.37475,"is_reserved":false,"is_disabled":true,"rental_uris":{"android":"levelo://app?vid=e5bec6b1-43e6-46f2-9810-affd93766dd8","ios":"levelo://app?vid=e5bec6b1-43e6-46f2-9810-affd93766dd8"},"vehicle_type_id":"4","last_reported":1752696740,"current_range_meters":11200,"station_id":"","pricing_plan_id":"cebpf4jnsgd1na2vs0mg"},{"bike_id":"498f96f8-c4d3-4424-b717-177ee31da36d","system_id":"levelo_inurba_marseille","lat":43.29848,"lon":5.362826,"is_reserved":false,"is_disabled":false,"rental_uris":{"android":"levelo://app?vid=498f96f8-c4d3-4424-b717-177ee31da36d","ios":"levelo://app?vid=498f96f8-c4d3-4424-b717-177ee31da36d"},"vehicle_type_id":"4","last_reported":1752696740,"current_range_meters":11200,"station_id":"ce4bgpp2rcd13ifvqc3g","pricing_plan_id":"cebpf4jnsgd1na2vs0mg"},{"bike_id":"54b283c6-c314-444c-b492-3e78ed7f2d30","system_id":"levelo_inurba_marseille","lat":43.32897,"lon":5.39061,"is_reserved":false,"is_disabled":false,"rental_uris":{"android":"levelo://app?vid=54b283c6-c314-444c-b492-3e78ed7f2d30","ios":"levelo://app?vid=54b283c6-c314-444c-b492-3e78ed7f2d30"},"vehicle_type_id":"4","last_reported":1752696740,"current_range_meters":11200,"station_id":"","pricing_plan_id":"cebpf4jnsgd1na2vs0mg"},{"bike_id":"8def5ecd-b0ac-45e2-af3f-9cc2f380cb0d","system_id":"levelo_inurba_marseille","lat":43.32275,"lon":5.38274,"is_reserved":false,"is_disabled":false,"rental_uris":{"android":"levelo://app?vid=8def5ecd-b0ac-45e2-af3f-9cc2f380cb0d","ios":"levelo://app?vid=8def5ecd-b0ac-45e2-af3f-9cc2f380cb0d"},"vehicle_type_id":"4","last_reported":1752696740,"current_range_meters":11200,"station_id":"ce4bhr12rcd13ifvqhqg","pricing_plan_id":"cebpf4jnsgd1na2vs0mg"},{"bike_id":"a9f4d4ea-083a-4df0-8c95-298636354df0","system_id":"levelo_inurba_marseille","lat":43.24069,"lon":5.37765,"is_reserved":false,"is_disabled":false,"rental_uris":{"android":"levelo://app?vid=a9f4d4ea-083a-4df0-8c95-298636354df0","ios":"levelo://app?vid=a9f4d4ea-083a-4df0-8c95-298636354df0"},"vehicle_type_id":"4","last_reported":1752696740,"current_range_meters":11200,"station_id":"ce4bhnp2rcd13ifvqgvg","pricing_plan_id":"cebpf4jnsgd1na2vs0mg"},{"bike_id":"3497b8c1-eec3-4bcf-a2a8-074629d1c01b","system_id":"levelo_inurba_marseille","lat":43.305316,"lon":5.367038,"is_reserved":false,"is_disabled":false,"rental_uris":{"android":"levelo://app?vid=3497b8c1-eec3-4bcf-a2a8-074629d1c01b","ios":"levelo://app?vid=3497b8c1-eec3-4bcf-a2a8-074629d1c01b"},"vehicle_type_id":"4","last_reported":1752696740,"current_range_meters":11200,"station_id":"","pricing_plan_id":"cebpf4jnsgd1na2vs0mg"},{"bike_id":"5931833f-f29e-43c3-bf9e-fc4b71e432f0","system_id":"levelo_inurba_marseille","lat":43.29846,"lon":5.36262,"is_reserved":false,"is_disabled":false,"rental_uris":{"android":"levelo://app?vid=5931833f-f29e-43c3-bf9e-fc4b71e432f0","ios":"levelo://app?vid=5931833f-f29e-43c3-bf9e-fc4b71e432f0"},"vehicle_type_id":"4","last_reported":1752696740,"current_range_meters":11200,"station_id":"ce4bgpp2rcd13ifvqc3g","pricing_plan_id":"cebpf4jnsgd1na2vs0mg"},{"bike_id":"d122cb11-3340-477c-8bc6-5b9ce901c2ec","system_id":"levelo_inurba_marseille","lat":43.304151,"lon":5.41129,"is_reserved":false,"is_disabled":false,"rental_uris":{"android":"levelo://app?vid=d122cb11-3340-477c-8bc6-5b9ce901c2ec","ios":"levelo://app?vid=d122cb11-3340-477c-8bc6-5b9ce901c2ec"},"vehicle_type_id":"4","last_reported":1752696740,"current_range_meters":11200,"station_id":"ce4bhop2rcd13ifvqh8g","pricing_plan_id":"cebpf4jnsgd1na2vs0mg"},{"bike_id":"e9a59d4e-48f5-4e19-9a0e-fe32d08c0dda","system_id":"levelo_inurba_marseille","lat":43.28148,"lon":5.42659,"is_reserved":false,"is_disabled":false,"rental_uris":{"android":"levelo://app?vid=e9a59d4e-48f5-4e19-9a0e-fe32d08c0dda","ios":"levelo://app?vid=e9a59d4e-48f5-4e19-9a0e-fe32d08c0dda"},"vehicle_type_id":"4","last_reported":1752696740,"current_range_meters":11600,"station_id":"ce4bhnh2rcd13ifvqgug","pricing_plan_id":"cebpf4jnsgd1na2vs0mg"},{"bike_id":"338de1f6-1801-40f5-8252-d637cf4b19c5","system_id":"levelo_inurba_marseille","lat":43.28145,"lon":5.42651,"is_reserved":false,"is_disabled":false,"rental_uris":{"android":"levelo://app?vid=338de1f6-1801-40f5-8252-d637cf4b19c5","ios":"levelo://app?vid=338de1f6-1801-40f5-8252-d637cf4b19c5"},"vehicle_type_id":"4","last_reported":1752696740,"current_range_meters":11600,"station_id":"ce4bhnh2rcd13ifvqgug","pricing_plan_id":"cebpf4jnsgd1na2vs0mg"},{"bike_id":"988ddd5f-264c-40c8-ba3e-fc48800939f7","system_id":"levelo_inurba_marseille","lat":43.28858,"lon":5.35869,"is_reserved":false,"is_disabled":false,"rental_uris":{"android":"levelo://app?vid=988ddd5f-264c-40c8-ba3e-fc48800939f7","ios":"levelo://app?vid=988ddd5f-264c-40c8-ba3e-fc48800939f7"},"vehicle_type_id":"4","last_reported":1752696740,"current_range_meters":11600,"station_id":"ce4bhb12rcd13ifvqem0","pricing_plan_id":"cebpf4jnsgd1na2vs0mg"},{"bike_id":"d27335e1-9c7d-4542-bc37-2f781a290b3e","system_id":"levelo_inurba_marseille","lat":43.29265,"lon":5.38437,"is_reserved":false,"is_disabled":false,"rental_uris":{"android":"levelo://app?vid=d27335e1-9c7d-4542-bc37-2f781a290b3e","ios":"levelo://app?vid=d27335e1-9c7d-4542-bc37-2f781a290b3e"},"vehicle_type_id":"4","last_reported":1752696740,"current_range_meters":11600,"station_id":"ce4bh692rcd13ifvqea0","pricing_plan_id":"cebpf4jnsgd1na2vs0mg"},{"bike_id":"794b998d-7e45-4d53-b270-ae51136a9420","system_id":"levelo_inurba_marseille","lat":43.31619,"lon":5.38176,"is_reserved":false,"is_disabled":false,"rental_uris":{"android":"levelo://app?vid=794b998d-7e45-4d53-b270-ae51136a9420","ios":"levelo://app?vid=794b998d-7e45-4d53-b270-ae51136a9420"},"vehicle_type_id":"4","last_reported":1752696740,"current_range_meters":11600,"station_id":"","pricing_plan_id":"cebpf4jnsgd1na2vs0mg"},{"bike_id":"84524b78-df1d-4bab-af64-d2e4a401bf6b","system_id":"levelo_inurba_marseille","lat":43.24798,"lon":5.37442,"is_reserved":false,"is_disabled":false,"rental_uris":{"android":"levelo://app?vid=84524b78-df1d-4bab-af64-d2e4a401bf6b","ios":"levelo://app?vid=84524b78-df1d-4bab-af64-d2e4a401bf6b"},"vehicle_type_id":"4","last_reported":1752696740,"current_range_meters":12000,"station_id":"ce4bhgh2rcd13ifvqfb0","pricing_plan_id":"cebpf4jnsgd1na2vs0mg"},{"bike_id":"c60915bb-3f73-4823-bcd7-1c68f5ef67ed","system_id":"levelo_inurba_marseille","lat":43.21195,"lon":5.35065,"is_reserved":false,"is_disabled":false,"rental_uris":{"android":"levelo://app?vid=c60915bb-3f73-4823-bcd7-1c68f5ef67ed","ios":"levelo://app?vid=c60915bb-3f73-4823-bcd7-1c68f5ef67ed"},"vehicle_type_id":"4","last_reported":1752696740,"current_range_meters":12000,"station_id":"st_cvj6sg6p6f1abm77japg","pricing_plan_id":"cebpf4jnsgd1na2vs0mg"},{"bike_id":"62d3db93-1b94-4f23-9111-3b709076eab7","system_id":"levelo_inurba_marseille","lat":43.28692,"lon":5.37391,"is_reserved":false,"is_disabled":false,"rental_uris":{"android":"levelo://app?vid=62d3db93-1b94-4f23-9111-3b709076eab7","ios":"levelo://app?vid=62d3db93-1b94-4f23-9111-3b709076eab7"},"vehicle_type_id":"4","last_reported":1752696740,"current_range_meters":12000,"station_id":"ce4bh3p2rcd13ifvqdq0","pricing_plan_id":"cebpf4jnsgd1na2vs0mg"},{"bike_id":"de67ba22-67a7-4760-a2a9-33ae19a47ca9","system_id":"levelo_inurba_marseille","lat":43.32368,"lon":5.38883,"is_reserved":false,"is_disabled":false,"rental_uris":{"android":"levelo://app?vid=de67ba22-67a7-4760-a2a9-33ae19a47ca9","ios":"levelo://app?vid=de67ba22-67a7-4760-a2a9-33ae19a47ca9"},"vehicle_type_id":"4","last_reported":1752696740,"current_range_meters":12000,"station_id":"ce4bhqp2rcd13ifvqhog","pricing_plan_id":"cebpf4jnsgd1na2vs0mg"},{"bike_id":"654bd192-efdb-4801-950e-9fe537751153","system_id":"levelo_inurba_marseille","lat":43.28726,"lon":5.361,"is_reserved":false,"is_disabled":false,"rental_uris":{"android":"levelo://app?vid=654bd192-efdb-4801-950e-9fe537751153","ios":"levelo://app?vid=654bd192-efdb-4801-950e-9fe537751153"},"vehicle_type_id":"4","last_reported":1752696740,"current_range_meters":11600,"station_id":"cki0cbj6b192h4jlfktg","pricing_plan_id":"cebpf4jnsgd1na2vs0mg"},{"bike_id":"fd2fff76-fffe-429f-b576-2c09de1840f6","system_id":"levelo_inurba_marseille","lat":43.29257,"lon":5.3844,"is_reserved":false,"is_disabled":false,"rental_uris":{"android":"levelo://app?vid=fd2fff76-fffe-429f-b576-2c09de1840f6","ios":"levelo://app?vid=fd2fff76-fffe-429f-b576-2c09de1840f6"},"vehicle_type_id":"4","last_reported":1752696740,"current_range_meters":12000,"station_id":"ce4bh692rcd13ifvqea0","pricing_plan_id":"cebpf4jnsgd1na2vs0mg"},{"bike_id":"289c8bc6-5441-4fff-8dec-812994104bbe","system_id":"levelo_inurba_marseille","lat":43.31535,"lon":5.38046,"is_reserved":false,"is_disabled":false,"rental_uris":{"android":"levelo://app?vid=289c8bc6-5441-4fff-8dec-812994104bbe","ios":"levelo://app?vid=289c8bc6-5441-4fff-8dec-812994104bbe"},"vehicle_type_id":"4","last_reported":1752696740,"current_range_meters":12000,"station_id":"ce4bhsp2rcd13ifvqi50","pricing_plan_id":"cebpf4jnsgd1na2vs0mg"},{"bike_id":"b0f534da-8e66-4152-b967-e328e4be2d91","system_id":"levelo_inurba_marseille","lat":43.2895,"lon":5.38387,"is_reserved":false,"is_disabled":false,"rental_uris":{"android":"levelo://app?vid=b0f534da-8e66-4152-b967-e328e4be2d91","ios":"levelo://app?vid=b0f534da-8e66-4152-b967-e328e4be2d91"},"vehicle_type_id":"4","last_reported":1752696740,"current_range_meters":12400,"station_id":"ce4bh612rcd13ifvqe6g","pricing_plan_id":"cebpf4jnsgd1na2vs0mg"},{"bike_id":"10307035-eddb-467b-9540-03dae7cef7e1","system_id":"levelo_inurba_marseille","lat":43.26231,"lon":5.37415,"is_reserved":false,"is_disabled":false,"rental_uris":{"android":"levelo://app?vid=10307035-eddb-467b-9540-03dae7cef7e1","ios":"levelo://app?vid=10307035-eddb-467b-9540-03dae7cef7e1"},"vehicle_type_id":"4","last_reported":1752696740,"current_range_meters":12400,"station_id":"","pricing_plan_id":"cebpf4jnsgd1na2vs0mg"},{"bike_id":"c78f5c8c-3d40-46fd-92f6-2ed68c2f0b6d","system_id":"levelo_inurba_marseille","lat":43.29204,"lon":5.39308,"is_reserved":false,"is_disabled":false,"rental_uris":{"android":"levelo://app?vid=c78f5c8c-3d40-46fd-92f6-2ed68c2f0b6d","ios":"levelo://app?vid=c78f5c8c-3d40-46fd-92f6-2ed68c2f0b6d"},"vehicle_type_id":"4","last_reported":1752696740,"current_range_meters":12400,"station_id":"ce4bh192rcd13ifvqdd0","pricing_plan_id":"cebpf4jnsgd1na2vs0mg"},{"bike_id":"ae165f02-9686-4bf4-9bba-bfa77e36687e","system_id":"levelo_inurba_marseille","lat":43.30309,"lon":5.36898,"is_reserved":false,"is_disabled":false,"rental_uris":{"android":"levelo://app?vid=ae165f02-9686-4bf4-9bba-bfa77e36687e","ios":"levelo://app?vid=ae165f02-9686-4bf4-9bba-bfa77e36687e"},"vehicle_type_id":"4","last_reported":1752696740,"current_range_meters":12400,"station_id":"ce4bgqh2rcd13ifvqc5g","pricing_plan_id":"cebpf4jnsgd1na2vs0mg"},{"bike_id":"52b01b4d-3941-442e-80e3-67621902739f","system_id":"levelo_inurba_marseille","lat":43.295074,"lon":5.394086,"is_reserved":false,"is_disabled":false,"rental_uris":{"android":"levelo://app?vid=52b01b4d-3941-442e-80e3-67621902739f","ios":"levelo://app?vid=52b01b4d-3941-442e-80e3-67621902739f"},"vehicle_type_id":"4","last_reported":1752696740,"current_range_meters":12800,"station_id":"","pricing_plan_id":"cebpf4jnsgd1na2vs0mg"},{"bike_id":"2c09878f-795c-47f5-9d73-108846ae1aa1","system_id":"levelo_inurba_marseille","lat":43.25734,"lon":5.41111,"is_reserved":false,"is_disabled":false,"rental_uris":{"android":"levelo://app?vid=2c09878f-795c-47f5-9d73-108846ae1aa1","ios":"levelo://app?vid=2c09878f-795c-47f5-9d73-108846ae1aa1"},"vehicle_type_id":"4","last_reported":1752696740,"current_range_meters":12800,"station_id":"ce4bhkp2rcd13ifvqgd0","pricing_plan_id":"cebpf4jnsgd1na2vs0mg"},{"bike_id":"f4d50b9f-67c5-4a4e-82cd-5fb34bc9ddef","system_id":"levelo_inurba_marseille","lat":43.25438,"lon":5.38226,"is_reserved":false,"is_disabled":false,"rental_uris":{"android":"levelo://app?vid=f4d50b9f-67c5-4a4e-82cd-5fb34bc9ddef","ios":"levelo://app?vid=f4d50b9f-67c5-4a4e-82cd-5fb34bc9ddef"},"vehicle_type_id":"4","last_reported":1752696740,"current_range_meters":12800,"station_id":"","pricing_plan_id":"cebpf4jnsgd1na2vs0mg"},{"bike_id":"61a9e916-b95f-4f2c-8dca-c5b11be80287","system_id":"levelo_inurba_marseille","lat":43.29211,"lon":5.36061,"is_reserved":false,"is_disabled":true,"rental_uris":{"android":"levelo://app?vid=61a9e916-b95f-4f2c-8dca-c5b11be80287","ios":"levelo://app?vid=61a9e916-b95f-4f2c-8dca-c5b11be80287"},"vehicle_type_id":"4","last_reported":1752696740,"current_range_meters":12800,"station_id":"ce4bhbh2rcd13ifvqeqg","pricing_plan_id":"cebpf4jnsgd1na2vs0mg"},{"bike_id":"557a352a-658c-4b7e-afa9-2e6600a2d9f9","system_id":"levelo_inurba_marseille","lat":43.28701,"lon":5.37407,"is_reserved":false,"is_disabled":false,"rental_uris":{"android":"levelo://app?vid=557a352a-658c-4b7e-afa9-2e6600a2d9f9","ios":"levelo://app?vid=557a352a-658c-4b7e-afa9-2e6600a2d9f9"},"vehicle_type_id":"4","last_reported":1752696740,"current_range_meters":12800,"station_id":"ce4bh3p2rcd13ifvqdq0","pricing_plan_id":"cebpf4jnsgd1na2vs0mg"},{"bike_id":"3eedb279-b74f-4aec-9e8a-c081204b55cd","system_id":"levelo_inurba_marseille","lat":43.27946,"lon":5.41036,"is_reserved":false,"is_disabled":false,"rental_uris":{"android":"levelo://app?vid=3eedb279-b74f-4aec-9e8a-c081204b55cd","ios":"levelo://app?vid=3eedb279-b74f-4aec-9e8a-c081204b55cd"},"vehicle_type_id":"4","last_reported":1752696740,"current_range_meters":12800,"station_id":"ce4bhnp2rcd13ifvqh0g","pricing_plan_id":"cebpf4jnsgd1na2vs0mg"},{"bike_id":"ac763d28-e3a1-48f3-b4e7-490068622aa2","system_id":"levelo_inurba_marseille","lat":43.31277,"lon":5.40182,"is_reserved":false,"is_disabled":false,"rental_uris":{"android":"levelo://app?vid=ac763d28-e3a1-48f3-b4e7-490068622aa2","ios":"levelo://app?vid=ac763d28-e3a1-48f3-b4e7-490068622aa2"},"vehicle_type_id":"4","last_reported":1752696740,"current_range_meters":12800,"station_id":"ce4bh092rcd13ifvqd30","pricing_plan_id":"cebpf4jnsgd1na2vs0mg"},{"bike_id":"d605e652-d032-4ff9-bb13-07828828ea0b","system_id":"levelo_inurba_marseille","lat":43.255,"lon":5.37651,"is_reserved":false,"is_disabled":false,"rental_uris":{"android":"levelo://app?vid=d605e652-d032-4ff9-bb13-07828828ea0b","ios":"levelo://app?vid=d605e652-d032-4ff9-bb13-07828828ea0b"},"vehicle_type_id":"4","last_reported":1752696740,"current_range_meters":12800,"station_id":"ce4bhh12rcd13ifvqff0","pricing_plan_id":"cebpf4jnsgd1na2vs0mg"},{"bike_id":"941f5e0c-adb3-4b4e-bcb7-3588acd87787","system_id":"levelo_inurba_marseille","lat":43.30126,"lon":5.38787,"is_reserved":false,"is_disabled":true,"rental_uris":{"android":"levelo://app?vid=941f5e0c-adb3-4b4e-bcb7-3588acd87787","ios":"levelo://app?vid=941f5e0c-adb3-4b4e-bcb7-3588acd87787"},"vehicle_type_id":"4","last_reported":1752696740,"current_range_meters":13600,"station_id":"ce4bghh2rcd13ifvqb60","pricing_plan_id":"cebpf4jnsgd1na2vs0mg"},{"bike_id":"d9cac6a6-f876-47d2-8111-1305781d7a00","system_id":"levelo_inurba_marseille","lat":43.26215,"lon":5.37439,"is_reserved":false,"is_disabled":false,"rental_uris":{"android":"levelo://app?vid=d9cac6a6-f876-47d2-8111-1305781d7a00","ios":"levelo://app?vid=d9cac6a6-f876-47d2-8111-1305781d7a00"},"vehicle_type_id":"4","last_reported":1752696740,"current_range_meters":13600,"station_id":"ce4bhgp2rcd13ifvqfc0","pricing_plan_id":"cebpf4jnsgd1na2vs0mg"},{"bike_id":"2979d731-9333-4af5-a963-386268404255","system_id":"levelo_inurba_marseille","lat":43.229293,"lon":5.353699,"is_reserved":false,"is_disabled":false,"rental_uris":{"android":"levelo://app?vid=2979d731-9333-4af5-a963-386268404255","ios":"levelo://app?vid=2979d731-9333-4af5-a963-386268404255"},"vehicle_type_id":"4","last_reported":1752696740,"current_range_meters":13600,"station_id":"cpo3532slgdg3j2ikp40","pricing_plan_id":"cebpf4jnsgd1na2vs0mg"},{"bike_id":"b1039b93-70a6-4427-a933-f155c3008501","system_id":"levelo_inurba_marseille","lat":43.23191,"lon":5.35559,"is_reserved":false,"is_disabled":false,"rental_uris":{"android":"levelo://app?vid=b1039b93-70a6-4427-a933-f155c3008501","ios":"levelo://app?vid=b1039b93-70a6-4427-a933-f155c3008501"},"vehicle_type_id":"4","last_reported":1752696740,"current_range_meters":13600,"station_id":"ce4bhu92rcd13ifvqi70","pricing_plan_id":"cebpf4jnsgd1na2vs0mg"},{"bike_id":"c6f200a9-79a9-4ab2-b50d-7f355efdc594","system_id":"levelo_inurba_marseille","lat":43.29405,"lon":5.37373,"is_reserved":false,"is_disabled":false,"rental_uris":{"android":"levelo://app?vid=c6f200a9-79a9-4ab2-b50d-7f355efdc594","ios":"levelo://app?vid=c6f200a9-79a9-4ab2-b50d-7f355efdc594"},"vehicle_type_id":"4","last_reported":1752696740,"current_range_meters":13600,"station_id":"","pricing_plan_id":"cebpf4jnsgd1na2vs0mg"},{"bike_id":"74f21d1b-ddd6-440e-a4c7-3c5720bbd63a","system_id":"levelo_inurba_marseille","lat":43.29579,"lon":5.36749,"is_reserved":false,"is_disabled":false,"rental_uris":{"android":"levelo://app?vid=74f21d1b-ddd6-440e-a4c7-3c5720bbd63a","ios":"levelo://app?vid=74f21d1b-ddd6-440e-a4c7-3c5720bbd63a"},"vehicle_type_id":"4","last_reported":1752696740,"current_range_meters":13600,"station_id":"ce4bgph2rcd13ifvqc2g","pricing_plan_id":"cebpf4jnsgd1na2vs0mg"},{"bike_id":"9a57bc1b-fb62-48e9-938f-ef6a64f6ba6d","system_id":"levelo_inurba_marseille","lat":43.26574,"lon":5.3901,"is_reserved":false,"is_disabled":false,"rental_uris":{"android":"levelo://app?vid=9a57bc1b-fb62-48e9-938f-ef6a64f6ba6d","ios":"levelo://app?vid=9a57bc1b-fb62-48e9-938f-ef6a64f6ba6d"},"vehicle_type_id":"4","last_reported":1752696740,"current_range_meters":13600,"station_id":"ce4bhe12rcd13ifvqf30","pricing_plan_id":"cebpf4jnsgd1na2vs0mg"},{"bike_id":"63b68163-23ff-4509-a7ff-da745c70a782","system_id":"levelo_inurba_marseille","lat":43.295232,"lon":5.394075,"is_reserved":false,"is_disabled":false,"rental_uris":{"android":"levelo://app?vid=63b68163-23ff-4509-a7ff-da745c70a782","ios":"levelo://app?vid=63b68163-23ff-4509-a7ff-da745c70a782"},"vehicle_type_id":"4","last_reported":1752696740,"current_range_meters":13600,"station_id":"","pricing_plan_id":"cebpf4jnsgd1na2vs0mg"},{"bike_id":"c1ee8667-4886-4255-88ff-04131c0b67e5","system_id":"levelo_inurba_marseille","lat":43.29582,"lon":5.36752,"is_reserved":false,"is_disabled":false,"rental_uris":{"android":"levelo://app?vid=c1ee8667-4886-4255-88ff-04131c0b67e5","ios":"levelo://app?vid=c1ee8667-4886-4255-88ff-04131c0b67e5"},"vehicle_type_id":"4","last_reported":1752696740,"current_range_meters":13600,"station_id":"ce4bgph2rcd13ifvqc2g","pricing_plan_id":"cebpf4jnsgd1na2vs0mg"},{"bike_id":"bb91fdfd-e2e6-4861-a682-9985a5c5d97b","system_id":"levelo_inurba_marseille","lat":43.23189,"lon":5.399932,"is_reserved":false,"is_disabled":false,"rental_uris":{"android":"levelo://app?vid=bb91fdfd-e2e6-4861-a682-9985a5c5d97b","ios":"levelo://app?vid=bb91fdfd-e2e6-4861-a682-9985a5c5d97b"},"vehicle_type_id":"4","last_reported":1752696740,"current_range_meters":13600,"station_id":"ce4bhn12rcd13ifvqgqg","pricing_plan_id":"cebpf4jnsgd1na2vs0mg"},{"bike_id":"9cc9d874-91b9-452d-a93e-b79cf1730931","system_id":"levelo_inurba_marseille","lat":43.29834,"lon":5.36308,"is_reserved":false,"is_disabled":false,"rental_uris":{"android":"levelo://app?vid=9cc9d874-91b9-452d-a93e-b79cf1730931","ios":"levelo://app?vid=9cc9d874-91b9-452d-a93e-b79cf1730931"},"vehicle_type_id":"4","last_reported":1752696740,"current_range_meters":13600,"station_id":"ce4bgpp2rcd13ifvqc3g","pricing_plan_id":"cebpf4jnsgd1na2vs0mg"},{"bike_id":"9eaf072e-fd31-4296-8388-8574f90d4c98","system_id":"levelo_inurba_marseille","lat":43.28609,"lon":5.37069,"is_reserved":false,"is_disabled":false,"rental_uris":{"android":"levelo://app?vid=9eaf072e-fd31-4296-8388-8574f90d4c98","ios":"levelo://app?vid=9eaf072e-fd31-4296-8388-8574f90d4c98"},"vehicle_type_id":"4","last_reported":1752696740,"current_range_meters":13600,"station_id":"ce4bht12rcd13ifvqi60","pricing_plan_id":"cebpf4jnsgd1na2vs0mg"},{"bike_id":"7dee92bf-5b07-4927-aa41-9e9493644eeb","system_id":"levelo_inurba_marseille","lat":43.21187,"lon":5.35067,"is_reserved":false,"is_disabled":false,"rental_uris":{"android":"levelo://app?vid=7dee92bf-5b07-4927-aa41-9e9493644eeb","ios":"levelo://app?vid=7dee92bf-5b07-4927-aa41-9e9493644eeb"},"vehicle_type_id":"4","last_reported":1752696740,"current_range_meters":13600,"station_id":"st_cvj6sg6p6f1abm77japg","pricing_plan_id":"cebpf4jnsgd1na2vs0mg"},{"bike_id":"56ec4937-459e-4719-93b0-d1a72134ef0f","system_id":"levelo_inurba_marseille","lat":43.2926,"lon":5.38453,"is_reserved":false,"is_disabled":false,"rental_uris":{"android":"levelo://app?vid=56ec4937-459e-4719-93b0-d1a72134ef0f","ios":"levelo://app?vid=56ec4937-459e-4719-93b0-d1a72134ef0f"},"vehicle_type_id":"4","last_reported":1752696740,"current_range_meters":13600,"station_id":"ce4bh692rcd13ifvqea0","pricing_plan_id":"cebpf4jnsgd1na2vs0mg"},{"bike_id":"8053bec4-5cac-4b92-aa53-91664ade9529","system_id":"levelo_inurba_marseille","lat":43.28705,"lon":5.37396,"is_reserved":false,"is_disabled":false,"rental_uris":{"android":"levelo://app?vid=8053bec4-5cac-4b92-aa53-91664ade9529","ios":"levelo://app?vid=8053bec4-5cac-4b92-aa53-91664ade9529"},"vehicle_type_id":"4","last_reported":1752696740,"current_range_meters":14000,"station_id":"ce4bh3p2rcd13ifvqdq0","pricing_plan_id":"cebpf4jnsgd1na2vs0mg"},{"bike_id":"8eee24e5-c78b-4657-be4b-196a3c627182","system_id":"levelo_inurba_marseille","lat":43.29617,"lon":5.37726,"is_reserved":false,"is_disabled":false,"rental_uris":{"android":"levelo://app?vid=8eee24e5-c78b-4657-be4b-196a3c627182","ios":"levelo://app?vid=8eee24e5-c78b-4657-be4b-196a3c627182"},"vehicle_type_id":"4","last_reported":1752696740,"current_range_meters":14000,"station_id":"ce4bgi92rcd13ifvqb90","pricing_plan_id":"cebpf4jnsgd1na2vs0mg"},{"bike_id":"a8bb95ce-3c40-4a91-a8d2-8ebc7d6796fb","system_id":"levelo_inurba_marseille","lat":43.29692,"lon":5.372909,"is_reserved":false,"is_disabled":false,"rental_uris":{"android":"levelo://app?vid=a8bb95ce-3c40-4a91-a8d2-8ebc7d6796fb","ios":"levelo://app?vid=a8bb95ce-3c40-4a91-a8d2-8ebc7d6796fb"},"vehicle_type_id":"4","last_reported":1752696740,"current_range_meters":14000,"station_id":"ce4bgk12rcd13ifvqbj0","pricing_plan_id":"cebpf4jnsgd1na2vs0mg"},{"bike_id":"5142c420-e67c-406c-bc97-de69bdd803d3","system_id":"levelo_inurba_marseille","lat":43.30096,"lon":5.39074,"is_reserved":false,"is_disabled":false,"rental_uris":{"android":"levelo://app?vid=5142c420-e67c-406c-bc97-de69bdd803d3","ios":"levelo://app?vid=5142c420-e67c-406c-bc97-de69bdd803d3"},"vehicle_type_id":"4","last_reported":1752696740,"current_range_meters":14000,"station_id":"ce4bh192rcd13ifvqdb0","pricing_plan_id":"cebpf4jnsgd1na2vs0mg"},{"bike_id":"76e23698-4de0-4a23-aaac-effd1043c468","system_id":"levelo_inurba_marseille","lat":43.29782,"lon":5.3935,"is_reserved":false,"is_disabled":false,"rental_uris":{"android":"levelo://app?vid=76e23698-4de0-4a23-aaac-effd1043c468","ios":"levelo://app?vid=76e23698-4de0-4a23-aaac-effd1043c468"},"vehicle_type_id":"4","last_reported":1752696740,"current_range_meters":14000,"station_id":"chh1huq6cuj3fo74tm60","pricing_plan_id":"cebpf4jnsgd1na2vs0mg"},{"bike_id":"8eeeb77c-8234-4556-b507-da0594d01e95","system_id":"levelo_inurba_marseille","lat":43.225119,"lon":5.347649,"is_reserved":false,"is_disabled":false,"rental_uris":{"android":"levelo://app?vid=8eeeb77c-8234-4556-b507-da0594d01e95","ios":"levelo://app?vid=8eeeb77c-8234-4556-b507-da0594d01e95"},"vehicle_type_id":"4","last_reported":1752696740,"current_range_meters":14000,"station_id":"st_cvj5dfep6f1abm77gieg","pricing_plan_id":"cebpf4jnsgd1na2vs0mg"},{"bike_id":"102a05fa-6795-4bcd-a500-0be75f105784","system_id":"levelo_inurba_marseille","lat":43.28038,"lon":5.36955,"is_reserved":false,"is_disabled":false,"rental_uris":{"android":"levelo://app?vid=102a05fa-6795-4bcd-a500-0be75f105784","ios":"levelo://app?vid=102a05fa-6795-4bcd-a500-0be75f105784"},"vehicle_type_id":"4","last_reported":1752696740,"current_range_meters":14400,"station_id":"ce4bha12rcd13ifvqef0","pricing_plan_id":"cebpf4jnsgd1na2vs0mg"},{"bike_id":"d28cb9cb-df4c-4d18-9a21-c9494bb6a8b5","system_id":"levelo_inurba_marseille","lat":43.29924,"lon":5.37461,"is_reserved":false,"is_disabled":false,"rental_uris":{"android":"levelo://app?vid=d28cb9cb-df4c-4d18-9a21-c9494bb6a8b5","ios":"levelo://app?vid=d28cb9cb-df4c-4d18-9a21-c9494bb6a8b5"},"vehicle_type_id":"4","last_reported":1752696740,"current_range_meters":14400,"station_id":"ce4bgjh2rcd13ifvqbg0","pricing_plan_id":"cebpf4jnsgd1na2vs0mg"},{"bike_id":"e7574c06-c628-4333-a40c-7b005585c3f8","system_id":"levelo_inurba_marseille","lat":43.29604,"lon":5.37715,"is_reserved":false,"is_disabled":true,"rental_uris":{"android":"levelo://app?vid=e7574c06-c628-4333-a40c-7b005585c3f8","ios":"levelo://app?vid=e7574c06-c628-4333-a40c-7b005585c3f8"},"vehicle_type_id":"4","last_reported":1752696740,"current_range_meters":14400,"station_id":"ce4bgi92rcd13ifvqb90","pricing_plan_id":"cebpf4jnsgd1na2vs0mg"},{"bike_id":"80c45421-67b0-454e-b2c5-c13ad5f7d678","system_id":"levelo_inurba_marseille","lat":43.28689,"lon":5.37401,"is_reserved":false,"is_disabled":false,"rental_uris":{"android":"levelo://app?vid=80c45421-67b0-454e-b2c5-c13ad5f7d678","ios":"levelo://app?vid=80c45421-67b0-454e-b2c5-c13ad5f7d678"},"vehicle_type_id":"4","last_reported":1752696740,"current_range_meters":14400,"station_id":"ce4bh3p2rcd13ifvqdq0","pricing_plan_id":"cebpf4jnsgd1na2vs0mg"},{"bike_id":"fec9ee64-026c-46c6-a4c8-c66ae693a529","system_id":"levelo_inurba_marseille","lat":43.29306,"lon":5.37174,"is_reserved":false,"is_disabled":true,"rental_uris":{"android":"levelo://app?vid=fec9ee64-026c-46c6-a4c8-c66ae693a529","ios":"levelo://app?vid=fec9ee64-026c-46c6-a4c8-c66ae693a529"},"vehicle_type_id":"4","last_reported":1752696740,"current_range_meters":14400,"station_id":"ce4bgh92rcd13ifvqb40","pricing_plan_id":"cebpf4jnsgd1na2vs0mg"},{"bike_id":"983849e8-1564-43cd-8b71-82f2530db129","system_id":"levelo_inurba_marseille","lat":43.26226,"lon":5.404508,"is_reserved":false,"is_disabled":false,"rental_uris":{"android":"levelo://app?vid=983849e8-1564-43cd-8b71-82f2530db129","ios":"levelo://app?vid=983849e8-1564-43cd-8b71-82f2530db129"},"vehicle_type_id":"4","last_reported":1752696740,"current_range_meters":14400,"station_id":"ce4bhmh2rcd13ifvqgmg","pricing_plan_id":"cebpf4jnsgd1na2vs0mg"},{"bike_id":"64075157-5fa9-4af6-9683-e9c2c410a07e","system_id":"levelo_inurba_marseille","lat":43.28624,"lon":5.35095,"is_reserved":false,"is_disabled":false,"rental_uris":{"android":"levelo://app?vid=64075157-5fa9-4af6-9683-e9c2c410a07e","ios":"levelo://app?vid=64075157-5fa9-4af6-9683-e9c2c410a07e"},"vehicle_type_id":"4","last_reported":1752696740,"current_range_meters":14400,"station_id":"ce4bhch2rcd13ifvqeug","pricing_plan_id":"cebpf4jnsgd1na2vs0mg"},{"bike_id":"7f186179-3e88-4474-8c6b-f642779ab113","system_id":"levelo_inurba_marseille","lat":43.29608,"lon":5.37178,"is_reserved":false,"is_disabled":false,"rental_uris":{"android":"levelo://app?vid=7f186179-3e88-4474-8c6b-f642779ab113","ios":"levelo://app?vid=7f186179-3e88-4474-8c6b-f642779ab113"},"vehicle_type_id":"4","last_reported":1752696740,"current_range_meters":14800,"station_id":"ce4bgnh2rcd13ifvqc0g","pricing_plan_id":"cebpf4jnsgd1na2vs0mg"},{"bike_id":"e8b0c664-80e9-4f2c-8103-07bd26a09b3b","system_id":"levelo_inurba_marseille","lat":43.290773,"lon":5.3718,"is_reserved":false,"is_disabled":false,"rental_uris":{"android":"levelo://app?vid=e8b0c664-80e9-4f2c-8103-07bd26a09b3b","ios":"levelo://app?vid=e8b0c664-80e9-4f2c-8103-07bd26a09b3b"},"vehicle_type_id":"4","last_reported":1752696740,"current_range_meters":13600,"station_id":"ce4bh5p2rcd13ifvqe4g","pricing_plan_id":"cebpf4jnsgd1na2vs0mg"},{"bike_id":"2d913ea6-eb90-468d-9115-8a8688f74c67","system_id":"levelo_inurba_marseille","lat":43.30799,"lon":5.38155,"is_reserved":false,"is_disabled":false,"rental_uris":{"android":"levelo://app?vid=2d913ea6-eb90-468d-9115-8a8688f74c67","ios":"levelo://app?vid=2d913ea6-eb90-468d-9115-8a8688f74c67"},"vehicle_type_id":"4","last_reported":1752696740,"current_range_meters":14800,"station_id":"ce4bgt12rcd13ifvqce0","pricing_plan_id":"cebpf4jnsgd1na2vs0mg"},{"bike_id":"47e84c87-4631-48fa-8064-ac43c2313bba","system_id":"levelo_inurba_marseille","lat":43.29288,"lon":5.37172,"is_reserved":false,"is_disabled":true,"rental_uris":{"android":"levelo://app?vid=47e84c87-4631-48fa-8064-ac43c2313bba","ios":"levelo://app?vid=47e84c87-4631-48fa-8064-ac43c2313bba"},"vehicle_type_id":"4","last_reported":1752696740,"current_range_meters":14800,"station_id":"ce4bgh92rcd13ifvqb40","pricing_plan_id":"cebpf4jnsgd1na2vs0mg"},{"bike_id":"63f7122a-a39b-413a-859d-931e2bb75d5e","system_id":"levelo_inurba_marseille","lat":43.28154,"lon":5.42637,"is_reserved":false,"is_disabled":false,"rental_uris":{"android":"levelo://app?vid=63f7122a-a39b-413a-859d-931e2bb75d5e","ios":"levelo://app?vid=63f7122a-a39b-413a-859d-931e2bb75d5e"},"vehicle_type_id":"4","last_reported":1752696740,"current_range_meters":11200,"station_id":"ce4bhnh2rcd13ifvqgug","pricing_plan_id":"cebpf4jnsgd1na2vs0mg"},{"bike_id":"56b3ae3c-26dc-4164-8d51-b2a95d4dd89e","system_id":"levelo_inurba_marseille","lat":43.292725,"lon":5.384623,"is_reserved":false,"is_disabled":false,"rental_uris":{"android":"levelo://app?vid=56b3ae3c-26dc-4164-8d51-b2a95d4dd89e","ios":"levelo://app?vid=56b3ae3c-26dc-4164-8d51-b2a95d4dd89e"},"vehicle_type_id":"4","last_reported":1752696740,"current_range_meters":14800,"station_id":"ce4bh692rcd13ifvqea0","pricing_plan_id":"cebpf4jnsgd1na2vs0mg"},{"bike_id":"9c5f4a1a-b323-4daf-9e2f-4408ae6c6b17","system_id":"levelo_inurba_marseille","lat":43.29219,"lon":5.36074,"is_reserved":false,"is_disabled":false,"rental_uris":{"android":"levelo://app?vid=9c5f4a1a-b323-4daf-9e2f-4408ae6c6b17","ios":"levelo://app?vid=9c5f4a1a-b323-4daf-9e2f-4408ae6c6b17"},"vehicle_type_id":"4","last_reported":1752696740,"current_range_meters":14800,"station_id":"ce4bhbh2rcd13ifvqeqg","pricing_plan_id":"cebpf4jnsgd1na2vs0mg"},{"bike_id":"84c133eb-a2c7-4beb-83c4-2a7041dbf7bd","system_id":"levelo_inurba_marseille","lat":43.30797,"lon":5.3816,"is_reserved":false,"is_disabled":false,"rental_uris":{"android":"levelo://app?vid=84c133eb-a2c7-4beb-83c4-2a7041dbf7bd","ios":"levelo://app?vid=84c133eb-a2c7-4beb-83c4-2a7041dbf7bd"},"vehicle_type_id":"4","last_reported":1752696740,"current_range_meters":15200,"station_id":"","pricing_plan_id":"cebpf4jnsgd1na2vs0mg"},{"bike_id":"7425af41-f939-4fb5-81a7-e1169ccaa6d8","system_id":"levelo_inurba_marseille","lat":43.24696,"lon":5.38137,"is_reserved":false,"is_disabled":true,"rental_uris":{"android":"levelo://app?vid=7425af41-f939-4fb5-81a7-e1169ccaa6d8","ios":"levelo://app?vid=7425af41-f939-4fb5-81a7-e1169ccaa6d8"},"vehicle_type_id":"4","last_reported":1752696740,"current_range_meters":15200,"station_id":"ce4bhih2rcd13ifvqfr0","pricing_plan_id":"cebpf4jnsgd1na2vs0mg"},{"bike_id":"229a51b8-d35a-46ef-90d9-099d3d4f556b","system_id":"levelo_inurba_marseille","lat":43.29429,"lon":5.38569,"is_reserved":false,"is_disabled":true,"rental_uris":{"android":"levelo://app?vid=229a51b8-d35a-46ef-90d9-099d3d4f556b","ios":"levelo://app?vid=229a51b8-d35a-46ef-90d9-099d3d4f556b"},"vehicle_type_id":"4","last_reported":1752696740,"current_range_meters":15200,"station_id":"","pricing_plan_id":"cebpf4jnsgd1na2vs0mg"},{"bike_id":"0f469724-d119-44bc-9285-a4ce7be567ee","system_id":"levelo_inurba_marseille","lat":43.2958,"lon":5.36738,"is_reserved":false,"is_disabled":false,"rental_uris":{"android":"levelo://app?vid=0f469724-d119-44bc-9285-a4ce7be567ee","ios":"levelo://app?vid=0f469724-d119-44bc-9285-a4ce7be567ee"},"vehicle_type_id":"4","last_reported":1752696740,"current_range_meters":15200,"station_id":"ce4bgph2rcd13ifvqc2g","pricing_plan_id":"cebpf4jnsgd1na2vs0mg"},{"bike_id":"6e07a895-a3f6-496f-a8b9-b694cdeb0b48","system_id":"levelo_inurba_marseille","lat":43.29591,"lon":5.37752,"is_reserved":false,"is_disabled":false,"rental_uris":{"android":"levelo://app?vid=6e07a895-a3f6-496f-a8b9-b694cdeb0b48","ios":"levelo://app?vid=6e07a895-a3f6-496f-a8b9-b694cdeb0b48"},"vehicle_type_id":"4","last_reported":1752696740,"current_range_meters":15200,"station_id":"","pricing_plan_id":"cebpf4jnsgd1na2vs0mg"},{"bike_id":"011b79d6-fd4e-4a43-b39a-554909c6320d","system_id":"levelo_inurba_marseille","lat":43.292585,"lon":5.3843,"is_reserved":false,"is_disabled":false,"rental_uris":{"android":"levelo://app?vid=011b79d6-fd4e-4a43-b39a-554909c6320d","ios":"levelo://app?vid=011b79d6-fd4e-4a43-b39a-554909c6320d"},"vehicle_type_id":"4","last_reported":1752696740,"current_range_meters":15200,"station_id":"ce4bh692rcd13ifvqea0","pricing_plan_id":"cebpf4jnsgd1na2vs0mg"},{"bike_id":"9e1c7397-26ce-4de8-bb2a-6bd25d6c6e7f","system_id":"levelo_inurba_marseille","lat":43.29094,"lon":5.38135,"is_reserved":false,"is_disabled":false,"rental_uris":{"android":"levelo://app?vid=9e1c7397-26ce-4de8-bb2a-6bd25d6c6e7f","ios":"levelo://app?vid=9e1c7397-26ce-4de8-bb2a-6bd25d6c6e7f"},"vehicle_type_id":"4","last_reported":1752696740,"current_range_meters":16000,"station_id":"ce4bh512rcd13ifvqe2g","pricing_plan_id":"cebpf4jnsgd1na2vs0mg"},{"bike_id":"0398468c-6c0f-49fd-b525-08c45b6a4cd9","system_id":"levelo_inurba_marseille","lat":43.22495,"lon":5.34792,"is_reserved":false,"is_disabled":false,"rental_uris":{"android":"levelo://app?vid=0398468c-6c0f-49fd-b525-08c45b6a4cd9","ios":"levelo://app?vid=0398468c-6c0f-49fd-b525-08c45b6a4cd9"},"vehicle_type_id":"4","last_reported":1752696740,"current_range_meters":16000,"station_id":"st_cvj5dfep6f1abm77gieg","pricing_plan_id":"cebpf4jnsgd1na2vs0mg"},{"bike_id":"0251491b-c678-423b-bd29-5a5e2bd56df5","system_id":"levelo_inurba_marseille","lat":43.245483,"lon":5.39521,"is_reserved":false,"is_disabled":false,"rental_uris":{"android":"levelo://app?vid=0251491b-c678-423b-bd29-5a5e2bd56df5","ios":"levelo://app?vid=0251491b-c678-423b-bd29-5a5e2bd56df5"},"vehicle_type_id":"4","last_reported":1752696740,"current_range_meters":16000,"station_id":"ce4bhlp2rcd13ifvqgjg","pricing_plan_id":"cebpf4jnsgd1na2vs0mg"},{"bike_id":"8f8eb057-b644-47d5-8f5a-192677f1c83b","system_id":"levelo_inurba_marseille","lat":43.296223,"lon":5.377025,"is_reserved":false,"is_disabled":false,"rental_uris":{"android":"levelo://app?vid=8f8eb057-b644-47d5-8f5a-192677f1c83b","ios":"levelo://app?vid=8f8eb057-b644-47d5-8f5a-192677f1c83b"},"vehicle_type_id":"4","last_reported":1752696740,"current_range_meters":16000,"station_id":"","pricing_plan_id":"cebpf4jnsgd1na2vs0mg"},{"bike_id":"2b751b92-c0f8-4447-a98b-dce05636b436","system_id":"levelo_inurba_marseille","lat":43.29538,"lon":5.38544,"is_reserved":false,"is_disabled":false,"rental_uris":{"android":"levelo://app?vid=2b751b92-c0f8-4447-a98b-dce05636b436","ios":"levelo://app?vid=2b751b92-c0f8-4447-a98b-dce05636b436"},"vehicle_type_id":"4","last_reported":1752696740,"current_range_meters":16000,"station_id":"ce4bgih2rcd13ifvqba0","pricing_plan_id":"cebpf4jnsgd1na2vs0mg"},{"bike_id":"9090e647-a713-44ba-b392-5ac73cd154dd","system_id":"levelo_inurba_marseille","lat":43.23059,"lon":5.35515,"is_reserved":false,"is_disabled":false,"rental_uris":{"android":"levelo://app?vid=9090e647-a713-44ba-b392-5ac73cd154dd","ios":"levelo://app?vid=9090e647-a713-44ba-b392-5ac73cd154dd"},"vehicle_type_id":"4","last_reported":1752696740,"current_range_meters":16000,"station_id":"cpo3342slgdg3j2ifvpg","pricing_plan_id":"cebpf4jnsgd1na2vs0mg"},{"bike_id":"555bc53e-5286-4fb6-9154-af42b3fd9792","system_id":"levelo_inurba_marseille","lat":43.30066,"lon":5.37287,"is_reserved":false,"is_disabled":false,"rental_uris":{"android":"levelo://app?vid=555bc53e-5286-4fb6-9154-af42b3fd9792","ios":"levelo://app?vid=555bc53e-5286-4fb6-9154-af42b3fd9792"},"vehicle_type_id":"4","last_reported":1752696740,"current_range_meters":16000,"station_id":"","pricing_plan_id":"cebpf4jnsgd1na2vs0mg"},{"bike_id":"d09f8f20-bc11-4ec6-a579-cbc9ba594573","system_id":"levelo_inurba_marseille","lat":43.301392,"lon":5.398663,"is_reserved":false,"is_disabled":false,"rental_uris":{"android":"levelo://app?vid=d09f8f20-bc11-4ec6-a579-cbc9ba594573","ios":"levelo://app?vid=d09f8f20-bc11-4ec6-a579-cbc9ba594573"},"vehicle_type_id":"4","last_reported":1752696740,"current_range_meters":16000,"station_id":"","pricing_plan_id":"cebpf4jnsgd1na2vs0mg"},{"bike_id":"0990e937-0e07-4a67-b301-deda73b798bd","system_id":"levelo_inurba_marseille","lat":43.31878,"lon":5.4074,"is_reserved":false,"is_disabled":false,"rental_uris":{"android":"levelo://app?vid=0990e937-0e07-4a67-b301-deda73b798bd","ios":"levelo://app?vid=0990e937-0e07-4a67-b301-deda73b798bd"},"vehicle_type_id":"4","last_reported":1752696740,"current_range_meters":16000,"station_id":"ce4bhq12rcd13ifvqhig","pricing_plan_id":"cebpf4jnsgd1na2vs0mg"},{"bike_id":"3b0c1418-4a5b-4b9a-92fd-9abc176fa4f0","system_id":"levelo_inurba_marseille","lat":43.26216,"lon":5.37443,"is_reserved":false,"is_disabled":false,"rental_uris":{"android":"levelo://app?vid=3b0c1418-4a5b-4b9a-92fd-9abc176fa4f0","ios":"levelo://app?vid=3b0c1418-4a5b-4b9a-92fd-9abc176fa4f0"},"vehicle_type_id":"4","last_reported":1752696740,"current_range_meters":16000,"station_id":"ce4bhgp2rcd13ifvqfc0","pricing_plan_id":"cebpf4jnsgd1na2vs0mg"},{"bike_id":"285aaa26-07be-4c4a-9be9-3c0873597bc5","system_id":"levelo_inurba_marseille","lat":43.29605,"lon":5.3675,"is_reserved":false,"is_disabled":false,"rental_uris":{"android":"levelo://app?vid=285aaa26-07be-4c4a-9be9-3c0873597bc5","ios":"levelo://app?vid=285aaa26-07be-4c4a-9be9-3c0873597bc5"},"vehicle_type_id":"4","last_reported":1752696740,"current_range_meters":16000,"station_id":"ce4bgph2rcd13ifvqc2g","pricing_plan_id":"cebpf4jnsgd1na2vs0mg"},{"bike_id":"39c6203f-25ee-487c-9399-b36ef495fc6b","system_id":"levelo_inurba_marseille","lat":43.24069,"lon":5.37746,"is_reserved":false,"is_disabled":false,"rental_uris":{"android":"levelo://app?vid=39c6203f-25ee-487c-9399-b36ef495fc6b","ios":"levelo://app?vid=39c6203f-25ee-487c-9399-b36ef495fc6b"},"vehicle_type_id":"4","last_reported":1752696740,"current_range_meters":16000,"station_id":"ce4bhnp2rcd13ifvqgvg","pricing_plan_id":"cebpf4jnsgd1na2vs0mg"},{"bike_id":"3db90f43-2f36-4a4a-b113-754b8a5e5d30","system_id":"levelo_inurba_marseille","lat":43.2928,"lon":5.38446,"is_reserved":false,"is_disabled":false,"rental_uris":{"android":"levelo://app?vid=3db90f43-2f36-4a4a-b113-754b8a5e5d30","ios":"levelo://app?vid=3db90f43-2f36-4a4a-b113-754b8a5e5d30"},"vehicle_type_id":"4","last_reported":1752696740,"current_range_meters":16000,"station_id":"ce4bh692rcd13ifvqea0","pricing_plan_id":"cebpf4jnsgd1na2vs0mg"},{"bike_id":"3444bdc6-514a-4ba6-9650-f9073305e33d","system_id":"levelo_inurba_marseille","lat":43.29682,"lon":5.3698,"is_reserved":false,"is_disabled":false,"rental_uris":{"android":"levelo://app?vid=3444bdc6-514a-4ba6-9650-f9073305e33d","ios":"levelo://app?vid=3444bdc6-514a-4ba6-9650-f9073305e33d"},"vehicle_type_id":"4","last_reported":1752696740,"current_range_meters":16400,"station_id":"","pricing_plan_id":"cebpf4jnsgd1na2vs0mg"},{"bike_id":"21b948e7-b696-4860-bf03-3e616f524c72","system_id":"levelo_inurba_marseille","lat":43.29575,"lon":5.36739,"is_reserved":false,"is_disabled":false,"rental_uris":{"android":"levelo://app?vid=21b948e7-b696-4860-bf03-3e616f524c72","ios":"levelo://app?vid=21b948e7-b696-4860-bf03-3e616f524c72"},"vehicle_type_id":"4","last_reported":1752696740,"current_range_meters":16400,"station_id":"ce4bgph2rcd13ifvqc2g","pricing_plan_id":"cebpf4jnsgd1na2vs0mg"},{"bike_id":"7aa4f608-4b77-4e32-88b0-fc5ccdecdfa7","system_id":"levelo_inurba_marseille","lat":43.29588,"lon":5.36732,"is_reserved":false,"is_disabled":false,"rental_uris":{"android":"levelo://app?vid=7aa4f608-4b77-4e32-88b0-fc5ccdecdfa7","ios":"levelo://app?vid=7aa4f608-4b77-4e32-88b0-fc5ccdecdfa7"},"vehicle_type_id":"4","last_reported":1752696740,"current_range_meters":16400,"station_id":"ce4bgph2rcd13ifvqc2g","pricing_plan_id":"cebpf4jnsgd1na2vs0mg"},{"bike_id":"3db33acd-51bd-47ed-9dae-b26882c5932e","system_id":"levelo_inurba_marseille","lat":43.29173,"lon":5.37168,"is_reserved":false,"is_disabled":false,"rental_uris":{"android":"levelo://app?vid=3db33acd-51bd-47ed-9dae-b26882c5932e","ios":"levelo://app?vid=3db33acd-51bd-47ed-9dae-b26882c5932e"},"vehicle_type_id":"4","last_reported":1752696740,"current_range_meters":16400,"station_id":"ce4bha92rcd13ifvqeh0","pricing_plan_id":"cebpf4jnsgd1na2vs0mg"},{"bike_id":"5d174ef5-e4ba-4b48-88b0-f45a55d3d9dc","system_id":"levelo_inurba_marseille","lat":43.28703,"lon":5.37399,"is_reserved":false,"is_disabled":false,"rental_uris":{"android":"levelo://app?vid=5d174ef5-e4ba-4b48-88b0-f45a55d3d9dc","ios":"levelo://app?vid=5d174ef5-e4ba-4b48-88b0-f45a55d3d9dc"},"vehicle_type_id":"4","last_reported":1752696740,"current_range_meters":16400,"station_id":"ce4bh3p2rcd13ifvqdq0","pricing_plan_id":"cebpf4jnsgd1na2vs0mg"},{"bike_id":"e0d27198-e9ba-4ae7-ae42-8d9ecf915787","system_id":"levelo_inurba_marseille","lat":43.29609,"lon":5.381081,"is_reserved":false,"is_disabled":false,"rental_uris":{"android":"levelo://app?vid=e0d27198-e9ba-4ae7-ae42-8d9ecf915787","ios":"levelo://app?vid=e0d27198-e9ba-4ae7-ae42-8d9ecf915787"},"vehicle_type_id":"4","last_reported":1752696740,"current_range_meters":16400,"station_id":"ce4bgl12rcd13ifvqbo0","pricing_plan_id":"cebpf4jnsgd1na2vs0mg"},{"bike_id":"07f5ae19-0925-43ef-aab4-48ec58bc62b9","system_id":"levelo_inurba_marseille","lat":43.31455,"lon":5.37447,"is_reserved":false,"is_disabled":false,"rental_uris":{"android":"levelo://app?vid=07f5ae19-0925-43ef-aab4-48ec58bc62b9","ios":"levelo://app?vid=07f5ae19-0925-43ef-aab4-48ec58bc62b9"},"vehicle_type_id":"4","last_reported":1752696740,"current_range_meters":16400,"station_id":"","pricing_plan_id":"cebpf4jnsgd1na2vs0mg"},{"bike_id":"243ff24d-c224-4f6c-8766-a9a443123038","system_id":"levelo_inurba_marseille","lat":43.2395,"lon":5.36637,"is_reserved":false,"is_disabled":false,"rental_uris":{"android":"levelo://app?vid=243ff24d-c224-4f6c-8766-a9a443123038","ios":"levelo://app?vid=243ff24d-c224-4f6c-8766-a9a443123038"},"vehicle_type_id":"4","last_reported":1752696740,"current_range_meters":16400,"station_id":"ce4bhi12rcd13ifvqfp0","pricing_plan_id":"cebpf4jnsgd1na2vs0mg"},{"bike_id":"c5857519-1cab-4ea3-afe1-c6aae724f1bc","system_id":"levelo_inurba_marseille","lat":43.29532,"lon":5.39033,"is_reserved":false,"is_disabled":false,"rental_uris":{"android":"levelo://app?vid=c5857519-1cab-4ea3-afe1-c6aae724f1bc","ios":"levelo://app?vid=c5857519-1cab-4ea3-afe1-c6aae724f1bc"},"vehicle_type_id":"4","last_reported":1752696740,"current_range_meters":16400,"station_id":"ce4bh3p2rcd13ifvqdp0","pricing_plan_id":"cebpf4jnsgd1na2vs0mg"},{"bike_id":"b0913f93-a684-4140-9689-82edfbc4235d","system_id":"levelo_inurba_marseille","lat":43.21182,"lon":5.35084,"is_reserved":false,"is_disabled":false,"rental_uris":{"android":"levelo://app?vid=b0913f93-a684-4140-9689-82edfbc4235d","ios":"levelo://app?vid=b0913f93-a684-4140-9689-82edfbc4235d"},"vehicle_type_id":"4","last_reported":1752696740,"current_range_meters":16800,"station_id":"st_cvj6sg6p6f1abm77japg","pricing_plan_id":"cebpf4jnsgd1na2vs0mg"},{"bike_id":"a68612b3-8ed6-4d3b-af65-4d1c84c2c21c","system_id":"levelo_inurba_marseille","lat":43.25108,"lon":5.40326,"is_reserved":false,"is_disabled":false,"rental_uris":{"android":"levelo://app?vid=a68612b3-8ed6-4d3b-af65-4d1c84c2c21c","ios":"levelo://app?vid=a68612b3-8ed6-4d3b-af65-4d1c84c2c21c"},"vehicle_type_id":"4","last_reported":1752696740,"current_range_meters":16800,"station_id":"ce4bhlh2rcd13ifvqgig","pricing_plan_id":"cebpf4jnsgd1na2vs0mg"},{"bike_id":"34e62ee5-3131-428c-842a-9ad03de94ba5","system_id":"levelo_inurba_marseille","lat":43.22439,"lon":5.3486,"is_reserved":false,"is_disabled":false,"rental_uris":{"android":"levelo://app?vid=34e62ee5-3131-428c-842a-9ad03de94ba5","ios":"levelo://app?vid=34e62ee5-3131-428c-842a-9ad03de94ba5"},"vehicle_type_id":"4","last_reported":1752696740,"current_range_meters":16800,"station_id":"","pricing_plan_id":"cebpf4jnsgd1na2vs0mg"},{"bike_id":"82fa503f-4857-4cca-857e-f1e1791bacf4","system_id":"levelo_inurba_marseille","lat":43.29849,"lon":5.36275,"is_reserved":false,"is_disabled":false,"rental_uris":{"android":"levelo://app?vid=82fa503f-4857-4cca-857e-f1e1791bacf4","ios":"levelo://app?vid=82fa503f-4857-4cca-857e-f1e1791bacf4"},"vehicle_type_id":"4","last_reported":1752696740,"current_range_meters":16800,"station_id":"ce4bgpp2rcd13ifvqc3g","pricing_plan_id":"cebpf4jnsgd1na2vs0mg"},{"bike_id":"8acdf02c-787e-4a1e-956a-5c94a3dff06a","system_id":"levelo_inurba_marseille","lat":43.28501,"lon":5.40615,"is_reserved":false,"is_disabled":false,"rental_uris":{"android":"levelo://app?vid=8acdf02c-787e-4a1e-956a-5c94a3dff06a","ios":"levelo://app?vid=8acdf02c-787e-4a1e-956a-5c94a3dff06a"},"vehicle_type_id":"4","last_reported":1752696740,"current_range_meters":16800,"station_id":"","pricing_plan_id":"cebpf4jnsgd1na2vs0mg"},{"bike_id":"cde34f09-c0fd-42cd-818c-167e586dec6a","system_id":"levelo_inurba_marseille","lat":43.25488,"lon":5.37644,"is_reserved":false,"is_disabled":false,"rental_uris":{"android":"levelo://app?vid=cde34f09-c0fd-42cd-818c-167e586dec6a","ios":"levelo://app?vid=cde34f09-c0fd-42cd-818c-167e586dec6a"},"vehicle_type_id":"4","last_reported":1752696740,"current_range_meters":16800,"station_id":"ce4bhh12rcd13ifvqff0","pricing_plan_id":"cebpf4jnsgd1na2vs0mg"},{"bike_id":"5ee72fdb-7a3a-4f38-9f44-3345045a40f2","system_id":"levelo_inurba_marseille","lat":43.30776,"lon":5.37656,"is_reserved":false,"is_disabled":false,"rental_uris":{"android":"levelo://app?vid=5ee72fdb-7a3a-4f38-9f44-3345045a40f2","ios":"levelo://app?vid=5ee72fdb-7a3a-4f38-9f44-3345045a40f2"},"vehicle_type_id":"4","last_reported":1752696740,"current_range_meters":16800,"station_id":"ce4bgv92rcd13ifvqcq0","pricing_plan_id":"cebpf4jnsgd1na2vs0mg"},{"bike_id":"0fdda4cb-9f4b-46ee-8251-68e40c5e71f1","system_id":"levelo_inurba_marseille","lat":43.29615,"lon":5.37731,"is_reserved":false,"is_disabled":false,"rental_uris":{"android":"levelo://app?vid=0fdda4cb-9f4b-46ee-8251-68e40c5e71f1","ios":"levelo://app?vid=0fdda4cb-9f4b-46ee-8251-68e40c5e71f1"},"vehicle_type_id":"4","last_reported":1752696740,"current_range_meters":16800,"station_id":"ce4bgi92rcd13ifvqb90","pricing_plan_id":"cebpf4jnsgd1na2vs0mg"},{"bike_id":"8417ad62-2136-4647-b89c-f46e0aabae59","system_id":"levelo_inurba_marseille","lat":43.229305,"lon":5.353683,"is_reserved":false,"is_disabled":false,"rental_uris":{"android":"levelo://app?vid=8417ad62-2136-4647-b89c-f46e0aabae59","ios":"levelo://app?vid=8417ad62-2136-4647-b89c-f46e0aabae59"},"vehicle_type_id":"4","last_reported":1752696740,"current_range_meters":16800,"station_id":"cpo3532slgdg3j2ikp40","pricing_plan_id":"cebpf4jnsgd1na2vs0mg"},{"bike_id":"23aea49e-3be5-46af-b900-481df4dbf21f","system_id":"levelo_inurba_marseille","lat":43.29183,"lon":5.39322,"is_reserved":false,"is_disabled":false,"rental_uris":{"android":"levelo://app?vid=23aea49e-3be5-46af-b900-481df4dbf21f","ios":"levelo://app?vid=23aea49e-3be5-46af-b900-481df4dbf21f"},"vehicle_type_id":"4","last_reported":1752696740,"current_range_meters":16800,"station_id":"ce4bh192rcd13ifvqdd0","pricing_plan_id":"cebpf4jnsgd1na2vs0mg"},{"bike_id":"8a46be9b-55f2-435a-ad73-e8aded0eaf4d","system_id":"levelo_inurba_marseille","lat":43.26942,"lon":5.4026,"is_reserved":false,"is_disabled":false,"rental_uris":{"android":"levelo://app?vid=8a46be9b-55f2-435a-ad73-e8aded0eaf4d","ios":"levelo://app?vid=8a46be9b-55f2-435a-ad73-e8aded0eaf4d"},"vehicle_type_id":"4","last_reported":1752696740,"current_range_meters":17200,"station_id":"cjm6bp8fraef2m0cb0m0","pricing_plan_id":"cebpf4jnsgd1na2vs0mg"},{"bike_id":"b9074744-16c2-4631-9ef9-d4b1d728903a","system_id":"levelo_inurba_marseille","lat":43.29521,"lon":5.37507,"is_reserved":false,"is_disabled":false,"rental_uris":{"android":"levelo://app?vid=b9074744-16c2-4631-9ef9-d4b1d728903a","ios":"levelo://app?vid=b9074744-16c2-4631-9ef9-d4b1d728903a"},"vehicle_type_id":"4","last_reported":1752696740,"current_range_meters":17200,"station_id":"ce4bgkp2rcd13ifvqbmg","pricing_plan_id":"cebpf4jnsgd1na2vs0mg"},{"bike_id":"f6e67167-3686-4cae-82da-4610049996dc","system_id":"levelo_inurba_marseille","lat":43.26926,"lon":5.38535,"is_reserved":false,"is_disabled":false,"rental_uris":{"android":"levelo://app?vid=f6e67167-3686-4cae-82da-4610049996dc","ios":"levelo://app?vid=f6e67167-3686-4cae-82da-4610049996dc"},"vehicle_type_id":"4","last_reported":1752696740,"current_range_meters":17200,"station_id":"","pricing_plan_id":"cebpf4jnsgd1na2vs0mg"},{"bike_id":"5dd8f1a2-bf69-462c-8558-98019b60ab02","system_id":"levelo_inurba_marseille","lat":43.29267,"lon":5.38439,"is_reserved":false,"is_disabled":false,"rental_uris":{"android":"levelo://app?vid=5dd8f1a2-bf69-462c-8558-98019b60ab02","ios":"levelo://app?vid=5dd8f1a2-bf69-462c-8558-98019b60ab02"},"vehicle_type_id":"4","last_reported":1752696740,"current_range_meters":17200,"station_id":"ce4bh692rcd13ifvqea0","pricing_plan_id":"cebpf4jnsgd1na2vs0mg"},{"bike_id":"89eef395-b8fd-45e8-a037-6b1f1da34b25","system_id":"levelo_inurba_marseille","lat":43.30304,"lon":5.39212,"is_reserved":false,"is_disabled":false,"rental_uris":{"android":"levelo://app?vid=89eef395-b8fd-45e8-a037-6b1f1da34b25","ios":"levelo://app?vid=89eef395-b8fd-45e8-a037-6b1f1da34b25"},"vehicle_type_id":"4","last_reported":1752696740,"current_range_meters":17200,"station_id":"ce4bgkh2rcd13ifvqbk0","pricing_plan_id":"cebpf4jnsgd1na2vs0mg"},{"bike_id":"c4d7c0d3-3fa0-42f9-a775-3626a94c8e22","system_id":"levelo_inurba_marseille","lat":43.273762,"lon":5.362596,"is_reserved":false,"is_disabled":false,"rental_uris":{"android":"levelo://app?vid=c4d7c0d3-3fa0-42f9-a775-3626a94c8e22","ios":"levelo://app?vid=c4d7c0d3-3fa0-42f9-a775-3626a94c8e22"},"vehicle_type_id":"4","last_reported":1752696740,"current_range_meters":17200,"station_id":"ce4bhbh2rcd13ifvqeo0","pricing_plan_id":"cebpf4jnsgd1na2vs0mg"},{"bike_id":"cc80135b-c46e-4c24-800a-d5f7fc903ea8","system_id":"levelo_inurba_marseille","lat":43.24803,"lon":5.37451,"is_reserved":false,"is_disabled":false,"rental_uris":{"android":"levelo://app?vid=cc80135b-c46e-4c24-800a-d5f7fc903ea8","ios":"levelo://app?vid=cc80135b-c46e-4c24-800a-d5f7fc903ea8"},"vehicle_type_id":"4","last_reported":1752696740,"current_range_meters":17200,"station_id":"ce4bhgh2rcd13ifvqfb0","pricing_plan_id":"cebpf4jnsgd1na2vs0mg"},{"bike_id":"8359ae80-a8e1-408f-9db5-0522ff2b72de","system_id":"levelo_inurba_marseille","lat":43.29858,"lon":5.36267,"is_reserved":false,"is_disabled":false,"rental_uris":{"android":"levelo://app?vid=8359ae80-a8e1-408f-9db5-0522ff2b72de","ios":"levelo://app?vid=8359ae80-a8e1-408f-9db5-0522ff2b72de"},"vehicle_type_id":"4","last_reported":1752696740,"current_range_meters":17200,"station_id":"ce4bgpp2rcd13ifvqc3g","pricing_plan_id":"cebpf4jnsgd1na2vs0mg"},{"bike_id":"0113d280-522b-4679-bde9-135a6a8591f2","system_id":"levelo_inurba_marseille","lat":43.21182,"lon":5.35103,"is_reserved":false,"is_disabled":false,"rental_uris":{"android":"levelo://app?vid=0113d280-522b-4679-bde9-135a6a8591f2","ios":"levelo://app?vid=0113d280-522b-4679-bde9-135a6a8591f2"},"vehicle_type_id":"4","last_reported":1752696740,"current_range_meters":17200,"station_id":"st_cvj6sg6p6f1abm77japg","pricing_plan_id":"cebpf4jnsgd1na2vs0mg"},{"bike_id":"2e3d33a8-708b-4838-a8e6-9ff1d26a09fb","system_id":"levelo_inurba_marseille","lat":43.302997,"lon":5.392194,"is_reserved":false,"is_disabled":false,"rental_uris":{"android":"levelo://app?vid=2e3d33a8-708b-4838-a8e6-9ff1d26a09fb","ios":"levelo://app?vid=2e3d33a8-708b-4838-a8e6-9ff1d26a09fb"},"vehicle_type_id":"4","last_reported":1752696740,"current_range_meters":17200,"station_id":"ce4bgkh2rcd13ifvqbk0","pricing_plan_id":"cebpf4jnsgd1na2vs0mg"},{"bike_id":"d57994d0-7251-41fb-a896-56b364219059","system_id":"levelo_inurba_marseille","lat":43.30238,"lon":5.37388,"is_reserved":false,"is_disabled":false,"rental_uris":{"android":"levelo://app?vid=d57994d0-7251-41fb-a896-56b364219059","ios":"levelo://app?vid=d57994d0-7251-41fb-a896-56b364219059"},"vehicle_type_id":"4","last_reported":1752696740,"current_range_meters":17200,"station_id":"","pricing_plan_id":"cebpf4jnsgd1na2vs0mg"},{"bike_id":"15e281ac-ac0d-4b6f-b426-fa5c002bd7ee","system_id":"levelo_inurba_marseille","lat":43.27686,"lon":5.38902,"is_reserved":false,"is_disabled":true,"rental_uris":{"android":"levelo://app?vid=15e281ac-ac0d-4b6f-b426-fa5c002bd7ee","ios":"levelo://app?vid=15e281ac-ac0d-4b6f-b426-fa5c002bd7ee"},"vehicle_type_id":"4","last_reported":1752696740,"current_range_meters":17600,"station_id":"ce4bhi12rcd13ifvqfo0","pricing_plan_id":"cebpf4jnsgd1na2vs0mg"},{"bike_id":"ee92164b-038e-4936-a198-386268037e73","system_id":"levelo_inurba_marseille","lat":43.255,"lon":5.37652,"is_reserved":false,"is_disabled":false,"rental_uris":{"android":"levelo://app?vid=ee92164b-038e-4936-a198-386268037e73","ios":"levelo://app?vid=ee92164b-038e-4936-a198-386268037e73"},"vehicle_type_id":"4","last_reported":1752696740,"current_range_meters":17600,"station_id":"ce4bhh12rcd13ifvqff0","pricing_plan_id":"cebpf4jnsgd1na2vs0mg"},{"bike_id":"f8430974-bf8c-4597-aea0-4e4e10d309d4","system_id":"levelo_inurba_marseille","lat":43.29617,"lon":5.37174,"is_reserved":false,"is_disabled":false,"rental_uris":{"android":"levelo://app?vid=f8430974-bf8c-4597-aea0-4e4e10d309d4","ios":"levelo://app?vid=f8430974-bf8c-4597-aea0-4e4e10d309d4"},"vehicle_type_id":"4","last_reported":1752696740,"current_range_meters":17600,"station_id":"ce4bgnh2rcd13ifvqc0g","pricing_plan_id":"cebpf4jnsgd1na2vs0mg"},{"bike_id":"33ff6c6a-0e14-498e-bda6-0433c1ea6fae","system_id":"levelo_inurba_marseille","lat":43.254943,"lon":5.376482,"is_reserved":false,"is_disabled":false,"rental_uris":{"android":"levelo://app?vid=33ff6c6a-0e14-498e-bda6-0433c1ea6fae","ios":"levelo://app?vid=33ff6c6a-0e14-498e-bda6-0433c1ea6fae"},"vehicle_type_id":"4","last_reported":1752696740,"current_range_meters":17600,"station_id":"ce4bhh12rcd13ifvqff0","pricing_plan_id":"cebpf4jnsgd1na2vs0mg"},{"bike_id":"eb0576d5-3ad0-4892-ab26-08f5b0edf9da","system_id":"levelo_inurba_marseille","lat":43.29843,"lon":5.36267,"is_reserved":false,"is_disabled":false,"rental_uris":{"android":"levelo://app?vid=eb0576d5-3ad0-4892-ab26-08f5b0edf9da","ios":"levelo://app?vid=eb0576d5-3ad0-4892-ab26-08f5b0edf9da"},"vehicle_type_id":"4","last_reported":1752696740,"current_range_meters":17600,"station_id":"ce4bgpp2rcd13ifvqc3g","pricing_plan_id":"cebpf4jnsgd1na2vs0mg"},{"bike_id":"81feae73-5f45-4837-bc34-2dc71b23b689","system_id":"levelo_inurba_marseille","lat":43.29851,"lon":5.36256,"is_reserved":false,"is_disabled":false,"rental_uris":{"android":"levelo://app?vid=81feae73-5f45-4837-bc34-2dc71b23b689","ios":"levelo://app?vid=81feae73-5f45-4837-bc34-2dc71b23b689"},"vehicle_type_id":"4","last_reported":1752696740,"current_range_meters":18000,"station_id":"ce4bgpp2rcd13ifvqc3g","pricing_plan_id":"cebpf4jnsgd1na2vs0mg"},{"bike_id":"8716a6dc-edc9-4ce8-b2db-da4e68c247be","system_id":"levelo_inurba_marseille","lat":43.29532,"lon":5.3855,"is_reserved":false,"is_disabled":true,"rental_uris":{"android":"levelo://app?vid=8716a6dc-edc9-4ce8-b2db-da4e68c247be","ios":"levelo://app?vid=8716a6dc-edc9-4ce8-b2db-da4e68c247be"},"vehicle_type_id":"4","last_reported":1752696740,"current_range_meters":18000,"station_id":"ce4bgih2rcd13ifvqba0","pricing_plan_id":"cebpf4jnsgd1na2vs0mg"},{"bike_id":"1a1de22c-864f-4087-990e-227151d55abc","system_id":"levelo_inurba_marseille","lat":43.21181,"lon":5.35087,"is_reserved":false,"is_disabled":false,"rental_uris":{"android":"levelo://app?vid=1a1de22c-864f-4087-990e-227151d55abc","ios":"levelo://app?vid=1a1de22c-864f-4087-990e-227151d55abc"},"vehicle_type_id":"4","last_reported":1752696740,"current_range_meters":18000,"station_id":"st_cvj6sg6p6f1abm77japg","pricing_plan_id":"cebpf4jnsgd1na2vs0mg"},{"bike_id":"601d63f5-45ba-444b-ae10-7d4ee6339f76","system_id":"levelo_inurba_marseille","lat":43.29895,"lon":5.43662,"is_reserved":false,"is_disabled":false,"rental_uris":{"android":"levelo://app?vid=601d63f5-45ba-444b-ae10-7d4ee6339f76","ios":"levelo://app?vid=601d63f5-45ba-444b-ae10-7d4ee6339f76"},"vehicle_type_id":"4","last_reported":1752696740,"current_range_meters":18000,"station_id":"ce4bhpp2rcd13ifvqhfg","pricing_plan_id":"cebpf4jnsgd1na2vs0mg"},{"bike_id":"1de90402-188b-4260-be28-567db4f1d91b","system_id":"levelo_inurba_marseille","lat":43.30884,"lon":5.37187,"is_reserved":false,"is_disabled":false,"rental_uris":{"android":"levelo://app?vid=1de90402-188b-4260-be28-567db4f1d91b","ios":"levelo://app?vid=1de90402-188b-4260-be28-567db4f1d91b"},"vehicle_type_id":"4","last_reported":1752696740,"current_range_meters":18000,"station_id":"ce4bguh2rcd13ifvqckg","pricing_plan_id":"cebpf4jnsgd1na2vs0mg"},{"bike_id":"855ff8f9-641c-41af-8e00-5d71e1a04e0f","system_id":"levelo_inurba_marseille","lat":43.22499,"lon":5.3478,"is_reserved":false,"is_disabled":false,"rental_uris":{"android":"levelo://app?vid=855ff8f9-641c-41af-8e00-5d71e1a04e0f","ios":"levelo://app?vid=855ff8f9-641c-41af-8e00-5d71e1a04e0f"},"vehicle_type_id":"4","last_reported":1752696740,"current_range_meters":18000,"station_id":"st_cvj5dfep6f1abm77gieg","pricing_plan_id":"cebpf4jnsgd1na2vs0mg"},{"bike_id":"fcaa4021-ce92-4073-8e85-324b228103ca","system_id":"levelo_inurba_marseille","lat":43.29848,"lon":5.36277,"is_reserved":false,"is_disabled":false,"rental_uris":{"android":"levelo://app?vid=fcaa4021-ce92-4073-8e85-324b228103ca","ios":"levelo://app?vid=fcaa4021-ce92-4073-8e85-324b228103ca"},"vehicle_type_id":"4","last_reported":1752696740,"current_range_meters":18000,"station_id":"ce4bgpp2rcd13ifvqc3g","pricing_plan_id":"cebpf4jnsgd1na2vs0mg"},