{"last_updated":1747127498,"ttl":60,"version":"2.2","data":{"bikes":[{"bike_id":"c0b9fd4f-e181-46ce-b0bf-f5119973334f","system_id":"levelo_inurba_marseille","lat":43.33771,"lon":5.37424,"is_reserved":false,"is_disabled":false,"rental_uris":{"android":"levelo://app?vid=c0b9fd4f-e181-46ce-b0bf-f5119973334f","ios":"levelo://app?vid=c0b9fd4f-e181-46ce-b0bf-f5119973334f"},"vehicle_type_id":"4","last_reported":1747127498,"current_range_meters":24400,"station_id":"","pricing_plan_id":"cebpf4jnsgd1na2vs0mg"},{"bike_id":"d1b1af0f-5081-441c-b3cf-1efaf1fce619","system_id":"levelo_inurba_marseille","lat":43.324789,"lon":5.365703,"is_reserved":false,"is_disabled":true,"rental_uris":{"android":"levelo://app?vid=d1b1af0f-5081-441c-b3cf-1efaf1fce619","ios":"levelo://app?vid=d1b1af0f-5081-441c-b3cf-1efaf1fce619"},"vehicle_type_id":"4","last_reported":1747127498,"current_range_meters":0,"station_id":"","pricing_plan_id":"cebpf4jnsgd1na2vs0mg"},{"bike_id":"25684216-a3fc-4916-8e05-9505382e4ab5","system_id":"levelo_inurba_marseille","lat":43.27384,"lon":5.39051,"is_reserved":false,"is_disabled":true,"rental_uris":{"android":"levelo://app?vid=25684216-a3fc-4916-8e05-9505382e4ab5","ios":"levelo://app?vid=25684216-a3fc-4916-8e05-9505382e4ab5"},"vehicle_type_id":"4","last_reported":1747127498,"current_range_meters":0,"station_id":"","pricing_plan_id":"cebpf4jnsgd1na2vs0mg"},{"bike_id":"792567c6-0442-4011-aff0-9c05e25deb48","system_id":"levelo_inurba_marseille","lat":43.28092,"lon":5.44188,"is_reserved":false,"is_disabled":true,"rental_uris":{"android":"levelo://app?vid=792567c6-0442-4011-aff0-9c05e25deb48","ios":"levelo://app?vid=792567c6-0442-4011-aff0-9c05e25deb48"},"vehicle_type_id":"4","last_reported":1747127498,"current_range_meters":0,"station_id":"","pricing_plan_id":"cebpf4jnsgd1na2vs0mg"},{"bike_id":"bbb01632-6b47-4971-bea9-56fb0620f76b","system_id":"levelo_inurba_marseille","lat":43.29254,"lon":5.38428,"is_reserved":false,"is_disabled":true,"rental_uris":{"android":"levelo://app?vid=bbb01632-6b47-4971-bea9-56fb0620f76b","ios":"levelo://app?vid=bbb01632-6b47-4971-bea9-56fb0620f76b"},"vehicle_type_id":"4","last_reported":1747127498,"current_range_meters":0,"station_id":"ce4bh692rcd13ifvqea0","pricing_plan_id":"cebpf4jnsgd1na2vs0mg"},{"bike_id":"39f6dae9-b6b0-40f9-9c03-2a6a3ae036ea","system_id":"levelo_inurba_marseille","lat":43.24533,"lon":5.39536,"is_reserved":false,"is_disabled":true,"rental_uris":{"android":"levelo://app?vid=39f6dae9-b6b0-40f9-9c03-2a6a3ae036ea","ios":"levelo://app?vid=39f6dae9-b6b0-40f9-9c03-2a6a3ae036ea"},"vehicle_type_id":"4","last_reported":1747127498,"current_range_meters":0,"station_id":"ce4bhlp2rcd13ifvqgjg","pricing_plan_id":"cebpf4jnsgd1na2vs0mg"},{"bike_id":"221907fb-dbba-417d-8981-d87ba649bbf0","system_id":"levelo_inurba_marseille","lat":43.27815,"lon":5.40702,"is_reserved":false,"is_disabled":true,"rental_uris":{"android":"levelo://app?vid=221907fb-dbba-417d-8981-d87ba649bbf0","ios":"levelo://app?vid=221907fb-dbba-417d-8981-d87ba649bbf0"},"vehicle_type_id":"4","last_reported":1747127498,"current_range_meters":0,"station_id":"ce4bhnh2rcd13ifvqgtg","pricing_plan_id":"cebpf4jnsgd1na2vs0mg"},{"bike_id":"d19ebaab-ef98-4efa-b952-7192b9b2f014","system_id":"levelo_inurba_marseille","lat":43.26152,"lon":5.3919,"is_reserved":false,"is_disabled":true,"rental_uris":{"android":"levelo://app?vid=d19ebaab-ef98-4efa-b952-7192b9b2f014","ios":"levelo://app?vid=d19ebaab-ef98-4efa-b952-7192b9b2f014"},"vehicle_type_id":"4","last_reported":1747127498,"current_range_meters":400,"station_id":"","pricing_plan_id":"cebpf4jnsgd1na2vs0mg"},{"bike_id":"3f6b197e-387c-4985-8eb3-7749205acc39","system_id":"levelo_inurba_marseille","lat":43.27398,"lon":5.36264,"is_reserved":false,"is_disabled":true,"rental_uris":{"android":"levelo://app?vid=3f6b197e-387c-4985-8eb3-7749205acc39","ios":"levelo://app?vid=3f6b197e-387c-4985-8eb3-7749205acc39"},"vehicle_type_id":"4","last_reported":1747127498,"current_range_meters":400,"station_id":"ce4bhbh2rcd13ifvqeo0","pricing_plan_id":"cebpf4jnsgd1na2vs0mg"},{"bike_id":"73c00190-8602-4a80-bc8a-4e1f187c4250","system_id":"levelo_inurba_marseille","lat":43.21239,"lon":5.35031,"is_reserved":false,"is_disabled":true,"rental_uris":{"android":"levelo://app?vid=73c00190-8602-4a80-bc8a-4e1f187c4250","ios":"levelo://app?vid=73c00190-8602-4a80-bc8a-4e1f187c4250"},"vehicle_type_id":"4","last_reported":1747127498,"current_range_meters":800,"station_id":"","pricing_plan_id":"cebpf4jnsgd1na2vs0mg"},{"bike_id":"33c01320-4028-4495-b513-554a90f92ec8","system_id":"levelo_inurba_marseille","lat":43.2892,"lon":5.38396,"is_reserved":false,"is_disabled":true,"rental_uris":{"android":"levelo://app?vid=33c01320-4028-4495-b513-554a90f92ec8","ios":"levelo://app?vid=33c01320-4028-4495-b513-554a90f92ec8"},"vehicle_type_id":"4","last_reported":1747127498,"current_range_meters":800,"station_id":"ce4bh612rcd13ifvqe6g","pricing_plan_id":"cebpf4jnsgd1na2vs0mg"},{"bike_id":"3fb4f4be-51b5-49b4-b83d-b2c6b6bf83fe","system_id":"levelo_inurba_marseille","lat":43.26835,"lon":5.40151,"is_reserved":false,"is_disabled":true,"rental_uris":{"android":"levelo://app?vid=3fb4f4be-51b5-49b4-b83d-b2c6b6bf83fe","ios":"levelo://app?vid=3fb4f4be-51b5-49b4-b83d-b2c6b6bf83fe"},"vehicle_type_id":"4","last_reported":1747127498,"current_range_meters":800,"station_id":"ce501612rcd8frsf0b60","pricing_plan_id":"cebpf4jnsgd1na2vs0mg"},{"bike_id":"fc2577e7-1497-425b-9d4f-ab8d7dc843c6","system_id":"levelo_inurba_marseille","lat":43.33771,"lon":5.37485,"is_reserved":false,"is_disabled":true,"rental_uris":{"android":"levelo://app?vid=fc2577e7-1497-425b-9d4f-ab8d7dc843c6","ios":"levelo://app?vid=fc2577e7-1497-425b-9d4f-ab8d7dc843c6"},"vehicle_type_id":"4","last_reported":1747127498,"current_range_meters":1600,"station_id":"","pricing_plan_id":"cebpf4jnsgd1na2vs0mg"},{"bike_id":"0fedde00-40eb-40d2-8fc2-e61ecce46b7b","system_id":"levelo_inurba_marseille","lat":43.28306,"lon":5.43207,"is_reserved":false,"is_disabled":true,"rental_uris":{"android":"levelo://app?vid=0fedde00-40eb-40d2-8fc2-e61ecce46b7b","ios":"levelo://app?vid=0fedde00-40eb-40d2-8fc2-e61ecce46b7b"},"vehicle_type_id":"4","last_reported":1747127498,"current_range_meters":1600,"station_id":"","pricing_plan_id":"cebpf4jnsgd1na2vs0mg"},{"bike_id":"6f53751f-48ae-4743-8ca2-46933d8d43bd","system_id":"levelo_inurba_marseille","lat":43.26699,"lon":5.38265,"is_reserved":false,"is_disabled":true,"rental_uris":{"android":"levelo://app?vid=6f53751f-48ae-4743-8ca2-46933d8d43bd","ios":"levelo://app?vid=6f53751f-48ae-4743-8ca2-46933d8d43bd"},"vehicle_type_id":"4","last_reported":1747127498,"current_range_meters":1600,"station_id":"ce4bhg92rcd13ifvqf90","pricing_plan_id":"cebpf4jnsgd1na2vs0mg"},{"bike_id":"77bb872f-12e2-4119-adca-52618684f429","system_id":"levelo_inurba_marseille","lat":43.29023,"lon":5.38642,"is_reserved":false,"is_disabled":true,"rental_uris":{"android":"levelo://app?vid=77bb872f-12e2-4119-adca-52618684f429","ios":"levelo://app?vid=77bb872f-12e2-4119-adca-52618684f429"},"vehicle_type_id":"4","last_reported":1747127498,"current_range_meters":2000,"station_id":"ce4bh4p2rcd13ifvqe0g","pricing_plan_id":"cebpf4jnsgd1na2vs0mg"},{"bike_id":"cb2d943e-cbdf-4714-9dea-e90fc47a018f","system_id":"levelo_inurba_marseille","lat":43.26783,"lon":5.39409,"is_reserved":false,"is_disabled":true,"rental_uris":{"android":"levelo://app?vid=cb2d943e-cbdf-4714-9dea-e90fc47a018f","ios":"levelo://app?vid=cb2d943e-cbdf-4714-9dea-e90fc47a018f"},"vehicle_type_id":"4","last_reported":1747127498,"current_range_meters":2000,"station_id":"ce4bhh12rcd13ifvqfg0","pricing_plan_id":"cebpf4jnsgd1na2vs0mg"},{"bike_id":"a3d6a126-5e93-4b23-836a-29edc552cab4","system_id":"levelo_inurba_marseille","lat":43.27832,"lon":5.40689,"is_reserved":false,"is_disabled":true,"rental_uris":{"android":"levelo://app?vid=a3d6a126-5e93-4b23-836a-29edc552cab4","ios":"levelo://app?vid=a3d6a126-5e93-4b23-836a-29edc552cab4"},"vehicle_type_id":"4","last_reported":1747127498,"current_range_meters":2000,"station_id":"ce4bhnh2rcd13ifvqgtg","pricing_plan_id":"cebpf4jnsgd1na2vs0mg"},{"bike_id":"83a81ffb-3d1c-4122-a406-60b114a380fc","system_id":"levelo_inurba_marseille","lat":43.21199,"lon":5.35061,"is_reserved":false,"is_disabled":true,"rental_uris":{"android":"levelo://app?vid=83a81ffb-3d1c-4122-a406-60b114a380fc","ios":"levelo://app?vid=83a81ffb-3d1c-4122-a406-60b114a380fc"},"vehicle_type_id":"4","last_reported":1747127498,"current_range_meters":2000,"station_id":"st_cvj6sg6p6f1abm77japg","pricing_plan_id":"cebpf4jnsgd1na2vs0mg"},{"bike_id":"cf94adcf-7c73-461d-bf62-d65493a14b67","system_id":"levelo_inurba_marseille","lat":43.29305,"lon":5.37462,"is_reserved":false,"is_disabled":false,"rental_uris":{"android":"levelo://app?vid=cf94adcf-7c73-461d-bf62-d65493a14b67","ios":"levelo://app?vid=cf94adcf-7c73-461d-bf62-d65493a14b67"},"vehicle_type_id":"4","last_reported":1747127498,"current_range_meters":2800,"station_id":"ce4bgi12rcd13ifvqb70","pricing_plan_id":"cebpf4jnsgd1na2vs0mg"},{"bike_id":"cdcbc9e5-7090-44f6-b860-11f2aa9cf7a2","system_id":"levelo_inurba_marseille","lat":43.29174,"lon":5.3717,"is_reserved":false,"is_disabled":false,"rental_uris":{"android":"levelo://app?vid=cdcbc9e5-7090-44f6-b860-11f2aa9cf7a2","ios":"levelo://app?vid=cdcbc9e5-7090-44f6-b860-11f2aa9cf7a2"},"vehicle_type_id":"4","last_reported":1747127498,"current_range_meters":2800,"station_id":"ce4bha92rcd13ifvqeh0","pricing_plan_id":"cebpf4jnsgd1na2vs0mg"},{"bike_id":"7cfa2767-5052-4ff8-aa23-e28a812c2f9b","system_id":"levelo_inurba_marseille","lat":43.29186,"lon":5.35796,"is_reserved":false,"is_disabled":false,"rental_uris":{"android":"levelo://app?vid=7cfa2767-5052-4ff8-aa23-e28a812c2f9b","ios":"levelo://app?vid=7cfa2767-5052-4ff8-aa23-e28a812c2f9b"},"vehicle_type_id":"4","last_reported":1747127498,"current_range_meters":3200,"station_id":"ce4bhb12rcd13ifvqel0","pricing_plan_id":"cebpf4jnsgd1na2vs0mg"},{"bike_id":"d1970176-c12a-4521-a0a6-5e60f7819150","system_id":"levelo_inurba_marseille","lat":43.2315,"lon":5.43719,"is_reserved":false,"is_disabled":false,"rental_uris":{"android":"levelo://app?vid=d1970176-c12a-4521-a0a6-5e60f7819150","ios":"levelo://app?vid=d1970176-c12a-4521-a0a6-5e60f7819150"},"vehicle_type_id":"4","last_reported":1747127498,"current_range_meters":3200,"station_id":"ce4bhmp2rcd13ifvqgog","pricing_plan_id":"cebpf4jnsgd1na2vs0mg"},{"bike_id":"722eb905-af1a-4ac2-b06f-536e5ed2549b","system_id":"levelo_inurba_marseille","lat":43.28936,"lon":5.38409,"is_reserved":false,"is_disabled":false,"rental_uris":{"android":"levelo://app?vid=722eb905-af1a-4ac2-b06f-536e5ed2549b","ios":"levelo://app?vid=722eb905-af1a-4ac2-b06f-536e5ed2549b"},"vehicle_type_id":"4","last_reported":1747127498,"current_range_meters":3600,"station_id":"ce4bh612rcd13ifvqe6g","pricing_plan_id":"cebpf4jnsgd1na2vs0mg"},{"bike_id":"5c53eeb7-f031-4597-8526-13c32af7f915","system_id":"levelo_inurba_marseille","lat":43.29986,"lon":5.38483,"is_reserved":false,"is_disabled":false,"rental_uris":{"android":"levelo://app?vid=5c53eeb7-f031-4597-8526-13c32af7f915","ios":"levelo://app?vid=5c53eeb7-f031-4597-8526-13c32af7f915"},"vehicle_type_id":"4","last_reported":1747127498,"current_range_meters":4400,"station_id":"ce4bgj92rcd13ifvqbd0","pricing_plan_id":"cebpf4jnsgd1na2vs0mg"},{"bike_id":"b33a78c7-b03a-4fe8-afba-de4f98cf3e07","system_id":"levelo_inurba_marseille","lat":43.2936,"lon":5.37863,"is_reserved":false,"is_disabled":false,"rental_uris":{"android":"levelo://app?vid=b33a78c7-b03a-4fe8-afba-de4f98cf3e07","ios":"levelo://app?vid=b33a78c7-b03a-4fe8-afba-de4f98cf3e07"},"vehicle_type_id":"4","last_reported":1747127498,"current_range_meters":4400,"station_id":"ce4bgjh2rcd13ifvqbf0","pricing_plan_id":"cebpf4jnsgd1na2vs0mg"},{"bike_id":"490c92c1-61eb-4871-905a-b745884569ae","system_id":"levelo_inurba_marseille","lat":43.26933,"lon":5.38926,"is_reserved":false,"is_disabled":false,"rental_uris":{"android":"levelo://app?vid=490c92c1-61eb-4871-905a-b745884569ae","ios":"levelo://app?vid=490c92c1-61eb-4871-905a-b745884569ae"},"vehicle_type_id":"4","last_reported":1747127498,"current_range_meters":4800,"station_id":"ce4bhhh2rcd13ifvqfl0","pricing_plan_id":"cebpf4jnsgd1na2vs0mg"},{"bike_id":"1635cee8-d31a-47a5-862d-e8b2dc7ae1c1","system_id":"levelo_inurba_marseille","lat":43.2781,"lon":5.40707,"is_reserved":false,"is_disabled":false,"rental_uris":{"android":"levelo://app?vid=1635cee8-d31a-47a5-862d-e8b2dc7ae1c1","ios":"levelo://app?vid=1635cee8-d31a-47a5-862d-e8b2dc7ae1c1"},"vehicle_type_id":"4","last_reported":1747127498,"current_range_meters":5600,"station_id":"ce4bhnh2rcd13ifvqgtg","pricing_plan_id":"cebpf4jnsgd1na2vs0mg"},{"bike_id":"b0ac8040-90e0-41ee-a2e3-e5462910fefc","system_id":"levelo_inurba_marseille","lat":43.275411,"lon":5.412953,"is_reserved":false,"is_disabled":false,"rental_uris":{"android":"levelo://app?vid=b0ac8040-90e0-41ee-a2e3-e5462910fefc","ios":"levelo://app?vid=b0ac8040-90e0-41ee-a2e3-e5462910fefc"},"vehicle_type_id":"4","last_reported":1747127498,"current_range_meters":6400,"station_id":"","pricing_plan_id":"cebpf4jnsgd1na2vs0mg"},{"bike_id":"4a0a8039-6e2c-4cf0-9907-3e491c4917d3","system_id":"levelo_inurba_marseille","lat":43.29839,"lon":5.3627,"is_reserved":false,"is_disabled":false,"rental_uris":{"android":"levelo://app?vid=4a0a8039-6e2c-4cf0-9907-3e491c4917d3","ios":"levelo://app?vid=4a0a8039-6e2c-4cf0-9907-3e491c4917d3"},"vehicle_type_id":"4","last_reported":1747127498,"current_range_meters":6400,"station_id":"ce4bgpp2rcd13ifvqc3g","pricing_plan_id":"cebpf4jnsgd1na2vs0mg"},{"bike_id":"831aa21e-7eed-48a7-8fee-11df5950f587","system_id":"levelo_inurba_marseille","lat":43.28411,"lon":5.34998,"is_reserved":false,"is_disabled":false,"rental_uris":{"android":"levelo://app?vid=831aa21e-7eed-48a7-8fee-11df5950f587","ios":"levelo://app?vid=831aa21e-7eed-48a7-8fee-11df5950f587"},"vehicle_type_id":"4","last_reported":1747127498,"current_range_meters":6400,"station_id":"ce4bhbh2rcd13ifvqepg","pricing_plan_id":"cebpf4jnsgd1na2vs0mg"},{"bike_id":"8b3eac21-bb1f-4170-9c40-95292bcf13c4","system_id":"levelo_inurba_marseille","lat":43.31725,"lon":5.40443,"is_reserved":false,"is_disabled":false,"rental_uris":{"android":"levelo://app?vid=8b3eac21-bb1f-4170-9c40-95292bcf13c4","ios":"levelo://app?vid=8b3eac21-bb1f-4170-9c40-95292bcf13c4"},"vehicle_type_id":"4","last_reported":1747127498,"current_range_meters":7200,"station_id":"","pricing_plan_id":"cebpf4jnsgd1na2vs0mg"},{"bike_id":"47ef88cc-3705-4858-82c5-41ae5c8b2d5f","system_id":"levelo_inurba_marseille","lat":43.29957,"lon":5.38505,"is_reserved":false,"is_disabled":false,"rental_uris":{"android":"levelo://app?vid=47ef88cc-3705-4858-82c5-41ae5c8b2d5f","ios":"levelo://app?vid=47ef88cc-3705-4858-82c5-41ae5c8b2d5f"},"vehicle_type_id":"4","last_reported":1747127498,"current_range_meters":7200,"station_id":"ce4bgj92rcd13ifvqbd0","pricing_plan_id":"cebpf4jnsgd1na2vs0mg"},{"bike_id":"d131d7d4-f593-4e87-b0de-476809b688b6","system_id":"levelo_inurba_marseille","lat":43.29254,"lon":5.409,"is_reserved":false,"is_disabled":false,"rental_uris":{"android":"levelo://app?vid=d131d7d4-f593-4e87-b0de-476809b688b6","ios":"levelo://app?vid=d131d7d4-f593-4e87-b0de-476809b688b6"},"vehicle_type_id":"4","last_reported":1747127498,"current_range_meters":7200,"station_id":"ce4bh192rcd13ifvqdc0","pricing_plan_id":"cebpf4jnsgd1na2vs0mg"},{"bike_id":"c7b813c9-6316-41bd-bf8b-71a4f268c8f3","system_id":"levelo_inurba_marseille","lat":43.30943,"lon":5.40125,"is_reserved":false,"is_disabled":false,"rental_uris":{"android":"levelo://app?vid=c7b813c9-6316-41bd-bf8b-71a4f268c8f3","ios":"levelo://app?vid=c7b813c9-6316-41bd-bf8b-71a4f268c8f3"},"vehicle_type_id":"4","last_reported":1747127498,"current_range_meters":8000,"station_id":"ce4bgvp2rcd13ifvqct0","pricing_plan_id":"cebpf4jnsgd1na2vs0mg"},{"bike_id":"39aa7e3e-83a1-439a-9c30-1148badfc0d4","system_id":"levelo_inurba_marseille","lat":43.27211,"lon":5.39176,"is_reserved":false,"is_disabled":false,"rental_uris":{"android":"levelo://app?vid=39aa7e3e-83a1-439a-9c30-1148badfc0d4","ios":"levelo://app?vid=39aa7e3e-83a1-439a-9c30-1148badfc0d4"},"vehicle_type_id":"4","last_reported":1747127498,"current_range_meters":8000,"station_id":"ce4bhhp2rcd13ifvqfm0","pricing_plan_id":"cebpf4jnsgd1na2vs0mg"},{"bike_id":"7d01648b-531c-4d03-a92d-468de7d191d6","system_id":"levelo_inurba_marseille","lat":43.27073,"lon":5.42272,"is_reserved":false,"is_disabled":false,"rental_uris":{"android":"levelo://app?vid=7d01648b-531c-4d03-a92d-468de7d191d6","ios":"levelo://app?vid=7d01648b-531c-4d03-a92d-468de7d191d6"},"vehicle_type_id":"4","last_reported":1747127498,"current_range_meters":8000,"station_id":"ce4bhk92rcd13ifvqgb0","pricing_plan_id":"cebpf4jnsgd1na2vs0mg"},{"bike_id":"4e2612c2-c286-4777-90f3-3d09bfeeded9","system_id":"levelo_inurba_marseille","lat":43.245494,"lon":5.39518,"is_reserved":false,"is_disabled":false,"rental_uris":{"android":"levelo://app?vid=4e2612c2-c286-4777-90f3-3d09bfeeded9","ios":"levelo://app?vid=4e2612c2-c286-4777-90f3-3d09bfeeded9"},"vehicle_type_id":"4","last_reported":1747127498,"current_range_meters":8000,"station_id":"ce4bhlp2rcd13ifvqgjg","pricing_plan_id":"cebpf4jnsgd1na2vs0mg"},{"bike_id":"c2cdc810-a80b-4b1e-ab8d-2ea3b4f98e83","system_id":"levelo_inurba_marseille","lat":43.29872,"lon":5.36271,"is_reserved":false,"is_disabled":false,"rental_uris":{"android":"levelo://app?vid=c2cdc810-a80b-4b1e-ab8d-2ea3b4f98e83","ios":"levelo://app?vid=c2cdc810-a80b-4b1e-ab8d-2ea3b4f98e83"},"vehicle_type_id":"4","last_reported":1747127498,"current_range_meters":8400,"station_id":"ce4bgpp2rcd13ifvqc3g","pricing_plan_id":"cebpf4jnsgd1na2vs0mg"},{"bike_id":"3301af82-67d4-4fe8-9f87-1eba0e9dc702","system_id":"levelo_inurba_marseille","lat":43.30644,"lon":5.40101,"is_reserved":false,"is_disabled":false,"rental_uris":{"android":"levelo://app?vid=3301af82-67d4-4fe8-9f87-1eba0e9dc702","ios":"levelo://app?vid=3301af82-67d4-4fe8-9f87-1eba0e9dc702"},"vehicle_type_id":"4","last_reported":1747127498,"current_range_meters":8400,"station_id":"ce4bh112rcd13ifvqda0","pricing_plan_id":"cebpf4jnsgd1na2vs0mg"},{"bike_id":"374a8245-fe69-47ae-bc62-fa27259dfb8b","system_id":"levelo_inurba_marseille","lat":43.27558,"lon":5.38415,"is_reserved":false,"is_disabled":false,"rental_uris":{"android":"levelo://app?vid=374a8245-fe69-47ae-bc62-fa27259dfb8b","ios":"levelo://app?vid=374a8245-fe69-47ae-bc62-fa27259dfb8b"},"vehicle_type_id":"4","last_reported":1747127498,"current_range_meters":8400,"station_id":"ce4bhh92rcd13ifvqfi0","pricing_plan_id":"cebpf4jnsgd1na2vs0mg"},{"bike_id":"ed540130-b78f-4c87-8f88-0c0211b93e1c","system_id":"levelo_inurba_marseille","lat":43.259358,"lon":5.409097,"is_reserved":false,"is_disabled":false,"rental_uris":{"android":"levelo://app?vid=ed540130-b78f-4c87-8f88-0c0211b93e1c","ios":"levelo://app?vid=ed540130-b78f-4c87-8f88-0c0211b93e1c"},"vehicle_type_id":"4","last_reported":1747127498,"current_range_meters":8400,"station_id":"ce4bhm92rcd13ifvqglg","pricing_plan_id":"cebpf4jnsgd1na2vs0mg"},{"bike_id":"2ee4d910-0ee1-4bc5-86c8-c77afad12b4f","system_id":"levelo_inurba_marseille","lat":43.32113,"lon":5.36747,"is_reserved":false,"is_disabled":false,"rental_uris":{"android":"levelo://app?vid=2ee4d910-0ee1-4bc5-86c8-c77afad12b4f","ios":"levelo://app?vid=2ee4d910-0ee1-4bc5-86c8-c77afad12b4f"},"vehicle_type_id":"4","last_reported":1747127498,"current_range_meters":8400,"station_id":"ce4bhrh2rcd13ifvqhug","pricing_plan_id":"cebpf4jnsgd1na2vs0mg"},{"bike_id":"db7cc677-dc60-47b5-9b8c-14892a62e87b","system_id":"levelo_inurba_marseille","lat":43.30141,"lon":5.38773,"is_reserved":false,"is_disabled":false,"rental_uris":{"android":"levelo://app?vid=db7cc677-dc60-47b5-9b8c-14892a62e87b","ios":"levelo://app?vid=db7cc677-dc60-47b5-9b8c-14892a62e87b"},"vehicle_type_id":"4","last_reported":1747127498,"current_range_meters":9200,"station_id":"ce4bghh2rcd13ifvqb60","pricing_plan_id":"cebpf4jnsgd1na2vs0mg"},{"bike_id":"dcf57f3c-3012-4f9c-8b5a-64f283cdfafa","system_id":"levelo_inurba_marseille","lat":43.30144,"lon":5.37421,"is_reserved":false,"is_disabled":false,"rental_uris":{"android":"levelo://app?vid=dcf57f3c-3012-4f9c-8b5a-64f283cdfafa","ios":"levelo://app?vid=dcf57f3c-3012-4f9c-8b5a-64f283cdfafa"},"vehicle_type_id":"4","last_reported":1747127498,"current_range_meters":9200,"station_id":"ce4bgs92rcd13ifvqcc0","pricing_plan_id":"cebpf4jnsgd1na2vs0mg"},{"bike_id":"e4ba46e1-6e8b-4dad-9ad5-7b6062c60f40","system_id":"levelo_inurba_marseille","lat":43.26567,"lon":5.39011,"is_reserved":false,"is_disabled":false,"rental_uris":{"android":"levelo://app?vid=e4ba46e1-6e8b-4dad-9ad5-7b6062c60f40","ios":"levelo://app?vid=e4ba46e1-6e8b-4dad-9ad5-7b6062c60f40"},"vehicle_type_id":"4","last_reported":1747127498,"current_range_meters":9200,"station_id":"ce4bhe12rcd13ifvqf30","pricing_plan_id":"cebpf4jnsgd1na2vs0mg"},{"bike_id":"841b5606-f296-4d72-801e-cbd8449ff6b6","system_id":"levelo_inurba_marseille","lat":43.25903,"lon":5.40909,"is_reserved":false,"is_disabled":false,"rental_uris":{"android":"levelo://app?vid=841b5606-f296-4d72-801e-cbd8449ff6b6","ios":"levelo://app?vid=841b5606-f296-4d72-801e-cbd8449ff6b6"},"vehicle_type_id":"4","last_reported":1747127498,"current_range_meters":9200,"station_id":"ce4bhm92rcd13ifvqglg","pricing_plan_id":"cebpf4jnsgd1na2vs0mg"},{"bike_id":"edf044cc-7662-4e73-bd08-1fdfd0a7f04a","system_id":"levelo_inurba_marseille","lat":43.293713,"lon":5.37862,"is_reserved":false,"is_disabled":false,"rental_uris":{"android":"levelo://app?vid=edf044cc-7662-4e73-bd08-1fdfd0a7f04a","ios":"levelo://app?vid=edf044cc-7662-4e73-bd08-1fdfd0a7f04a"},"vehicle_type_id":"4","last_reported":1747127498,"current_range_meters":9600,"station_id":"ce4bgjh2rcd13ifvqbf0","pricing_plan_id":"cebpf4jnsgd1na2vs0mg"},{"bike_id":"d6e9d6c4-ebb0-455b-acd3-c2aa1dfa04c0","system_id":"levelo_inurba_marseille","lat":43.30308,"lon":5.36899,"is_reserved":false,"is_disabled":false,"rental_uris":{"android":"levelo://app?vid=d6e9d6c4-ebb0-455b-acd3-c2aa1dfa04c0","ios":"levelo://app?vid=d6e9d6c4-ebb0-455b-acd3-c2aa1dfa04c0"},"vehicle_type_id":"4","last_reported":1747127498,"current_range_meters":9600,"station_id":"ce4bgqh2rcd13ifvqc5g","pricing_plan_id":"cebpf4jnsgd1na2vs0mg"},{"bike_id":"36d839a0-edb3-4318-a48a-be7e488e7740","system_id":"levelo_inurba_marseille","lat":43.31364,"lon":5.38501,"is_reserved":false,"is_disabled":false,"rental_uris":{"android":"levelo://app?vid=36d839a0-edb3-4318-a48a-be7e488e7740","ios":"levelo://app?vid=36d839a0-edb3-4318-a48a-be7e488e7740"},"vehicle_type_id":"4","last_reported":1747127498,"current_range_meters":9600,"station_id":"ce4bgt92rcd13ifvqcf0","pricing_plan_id":"cebpf4jnsgd1na2vs0mg"},{"bike_id":"e5884487-1016-4565-b59a-ba529b597afc","system_id":"levelo_inurba_marseille","lat":43.28436,"lon":5.3919,"is_reserved":false,"is_disabled":false,"rental_uris":{"android":"levelo://app?vid=e5884487-1016-4565-b59a-ba529b597afc","ios":"levelo://app?vid=e5884487-1016-4565-b59a-ba529b597afc"},"vehicle_type_id":"4","last_reported":1747127498,"current_range_meters":9600,"station_id":"ce4bhoh2rcd13ifvqh5g","pricing_plan_id":"cebpf4jnsgd1na2vs0mg"},{"bike_id":"8a2c30d0-eba1-48d7-be13-dc82296d2c7d","system_id":"levelo_inurba_marseille","lat":43.30537,"lon":5.36553,"is_reserved":false,"is_disabled":false,"rental_uris":{"android":"levelo://app?vid=8a2c30d0-eba1-48d7-be13-dc82296d2c7d","ios":"levelo://app?vid=8a2c30d0-eba1-48d7-be13-dc82296d2c7d"},"vehicle_type_id":"4","last_reported":1747127498,"current_range_meters":10000,"station_id":"ce4bgs12rcd13ifvqcag","pricing_plan_id":"cebpf4jnsgd1na2vs0mg"},{"bike_id":"9df488ec-a829-4c25-a919-b07a0b9f14c5","system_id":"levelo_inurba_marseille","lat":43.29851,"lon":5.36261,"is_reserved":false,"is_disabled":false,"rental_uris":{"android":"levelo://app?vid=9df488ec-a829-4c25-a919-b07a0b9f14c5","ios":"levelo://app?vid=9df488ec-a829-4c25-a919-b07a0b9f14c5"},"vehicle_type_id":"4","last_reported":1747127498,"current_range_meters":10800,"station_id":"ce4bgpp2rcd13ifvqc3g","pricing_plan_id":"cebpf4jnsgd1na2vs0mg"},{"bike_id":"e84c688a-ffef-4e36-a7b2-d296ffd6333d","system_id":"levelo_inurba_marseille","lat":43.29568,"lon":5.42284,"is_reserved":false,"is_disabled":false,"rental_uris":{"android":"levelo://app?vid=e84c688a-ffef-4e36-a7b2-d296ffd6333d","ios":"levelo://app?vid=e84c688a-ffef-4e36-a7b2-d296ffd6333d"},"vehicle_type_id":"4","last_reported":1747127498,"current_range_meters":10800,"station_id":"ce4bhph2rcd13ifvqhdg","pricing_plan_id":"cebpf4jnsgd1na2vs0mg"},{"bike_id":"0e89a721-196d-4572-b905-e39e1dafff7a","system_id":"levelo_inurba_marseille","lat":43.32104,"lon":5.3678,"is_reserved":false,"is_disabled":false,"rental_uris":{"android":"levelo://app?vid=0e89a721-196d-4572-b905-e39e1dafff7a","ios":"levelo://app?vid=0e89a721-196d-4572-b905-e39e1dafff7a"},"vehicle_type_id":"4","last_reported":1747127498,"current_range_meters":10800,"station_id":"ce4bhrh2rcd13ifvqhug","pricing_plan_id":"cebpf4jnsgd1na2vs0mg"},{"bike_id":"90ca56a9-a7fc-4f11-82d2-7566390fe9a3","system_id":"levelo_inurba_marseille","lat":43.29369,"lon":5.37848,"is_reserved":false,"is_disabled":false,"rental_uris":{"android":"levelo://app?vid=90ca56a9-a7fc-4f11-82d2-7566390fe9a3","ios":"levelo://app?vid=90ca56a9-a7fc-4f11-82d2-7566390fe9a3"},"vehicle_type_id":"4","last_reported":1747127498,"current_range_meters":11200,"station_id":"ce4bgjh2rcd13ifvqbf0","pricing_plan_id":"cebpf4jnsgd1na2vs0mg"},{"bike_id":"09a6686e-bb48-40e5-94c6-3fb999535cbe","system_id":"levelo_inurba_marseille","lat":43.29972,"lon":5.37188,"is_reserved":false,"is_disabled":false,"rental_uris":{"android":"levelo://app?vid=09a6686e-bb48-40e5-94c6-3fb999535cbe","ios":"levelo://app?vid=09a6686e-bb48-40e5-94c6-3fb999535cbe"},"vehicle_type_id":"4","last_reported":1747127498,"current_range_meters":11200,"station_id":"ce4bgr92rcd13ifvqc7g","pricing_plan_id":"cebpf4jnsgd1na2vs0mg"},{"bike_id":"a68069f7-56ab-4975-bd5f-97f2bf50501b","system_id":"levelo_inurba_marseille","lat":43.23193,"lon":5.35551,"is_reserved":false,"is_disabled":false,"rental_uris":{"android":"levelo://app?vid=a68069f7-56ab-4975-bd5f-97f2bf50501b","ios":"levelo://app?vid=a68069f7-56ab-4975-bd5f-97f2bf50501b"},"vehicle_type_id":"4","last_reported":1747127498,"current_range_meters":11200,"station_id":"ce4bhu92rcd13ifvqi70","pricing_plan_id":"cebpf4jnsgd1na2vs0mg"},{"bike_id":"0f760a05-8688-4092-988b-8aa98d007cb1","system_id":"levelo_inurba_marseille","lat":43.31369,"lon":5.36691,"is_reserved":false,"is_disabled":false,"rental_uris":{"android":"levelo://app?vid=0f760a05-8688-4092-988b-8aa98d007cb1","ios":"levelo://app?vid=0f760a05-8688-4092-988b-8aa98d007cb1"},"vehicle_type_id":"4","last_reported":1747127498,"current_range_meters":12000,"station_id":"ce4bgr92rcd13ifvqc6g","pricing_plan_id":"cebpf4jnsgd1na2vs0mg"},{"bike_id":"14d60450-62de-4a57-84e6-c9c2403d3192","system_id":"levelo_inurba_marseille","lat":43.28475,"lon":5.38404,"is_reserved":false,"is_disabled":false,"rental_uris":{"android":"levelo://app?vid=14d60450-62de-4a57-84e6-c9c2403d3192","ios":"levelo://app?vid=14d60450-62de-4a57-84e6-c9c2403d3192"},"vehicle_type_id":"4","last_reported":1747127498,"current_range_meters":12000,"station_id":"ce4bh512rcd13ifvqe3g","pricing_plan_id":"cebpf4jnsgd1na2vs0mg"},{"bike_id":"33a545ff-6bb3-4b83-bd30-0a98fdfe7d18","system_id":"levelo_inurba_marseille","lat":43.27501,"lon":5.42438,"is_reserved":false,"is_disabled":false,"rental_uris":{"android":"levelo://app?vid=33a545ff-6bb3-4b83-bd30-0a98fdfe7d18","ios":"levelo://app?vid=33a545ff-6bb3-4b83-bd30-0a98fdfe7d18"},"vehicle_type_id":"4","last_reported":1747127498,"current_range_meters":12000,"station_id":"ce4bhn92rcd13ifvqgrg","pricing_plan_id":"cebpf4jnsgd1na2vs0mg"},{"bike_id":"a5e07a2b-19b1-4029-94da-8f18290d65e3","system_id":"levelo_inurba_marseille","lat":43.32288,"lon":5.38276,"is_reserved":false,"is_disabled":false,"rental_uris":{"android":"levelo://app?vid=a5e07a2b-19b1-4029-94da-8f18290d65e3","ios":"levelo://app?vid=a5e07a2b-19b1-4029-94da-8f18290d65e3"},"vehicle_type_id":"4","last_reported":1747127498,"current_range_meters":12000,"station_id":"ce4bhr12rcd13ifvqhqg","pricing_plan_id":"cebpf4jnsgd1na2vs0mg"},{"bike_id":"538ea052-8900-497a-9fb2-9da8e5720321","system_id":"levelo_inurba_marseille","lat":43.31749,"lon":5.38949,"is_reserved":false,"is_disabled":false,"rental_uris":{"android":"levelo://app?vid=538ea052-8900-497a-9fb2-9da8e5720321","ios":"levelo://app?vid=538ea052-8900-497a-9fb2-9da8e5720321"},"vehicle_type_id":"4","last_reported":1747127498,"current_range_meters":12400,"station_id":"","pricing_plan_id":"cebpf4jnsgd1na2vs0mg"},{"bike_id":"eed97d04-55c9-4469-844e-e04e6b043690","system_id":"levelo_inurba_marseille","lat":43.23965,"lon":5.36637,"is_reserved":false,"is_disabled":false,"rental_uris":{"android":"levelo://app?vid=eed97d04-55c9-4469-844e-e04e6b043690","ios":"levelo://app?vid=eed97d04-55c9-4469-844e-e04e6b043690"},"vehicle_type_id":"4","last_reported":1747127498,"current_range_meters":12400,"station_id":"ce4bhi12rcd13ifvqfp0","pricing_plan_id":"cebpf4jnsgd1na2vs0mg"},{"bike_id":"3c304208-ac37-448c-b293-c8e9c6ffab6a","system_id":"levelo_inurba_marseille","lat":43.28152,"lon":5.4265,"is_reserved":false,"is_disabled":false,"rental_uris":{"android":"levelo://app?vid=3c304208-ac37-448c-b293-c8e9c6ffab6a","ios":"levelo://app?vid=3c304208-ac37-448c-b293-c8e9c6ffab6a"},"vehicle_type_id":"4","last_reported":1747127498,"current_range_meters":12400,"station_id":"ce4bhnh2rcd13ifvqgug","pricing_plan_id":"cebpf4jnsgd1na2vs0mg"},{"bike_id":"c79619b2-4a78-4682-bb79-637ac39b014c","system_id":"levelo_inurba_marseille","lat":43.24064,"lon":5.3775,"is_reserved":false,"is_disabled":false,"rental_uris":{"android":"levelo://app?vid=c79619b2-4a78-4682-bb79-637ac39b014c","ios":"levelo://app?vid=c79619b2-4a78-4682-bb79-637ac39b014c"},"vehicle_type_id":"4","last_reported":1747127498,"current_range_meters":12400,"station_id":"ce4bhnp2rcd13ifvqgvg","pricing_plan_id":"cebpf4jnsgd1na2vs0mg"},{"bike_id":"f702f1f1-baff-4710-b092-d4b131f8acb6","system_id":"levelo_inurba_marseille","lat":43.30389,"lon":5.42466,"is_reserved":false,"is_disabled":false,"rental_uris":{"android":"levelo://app?vid=f702f1f1-baff-4710-b092-d4b131f8acb6","ios":"levelo://app?vid=f702f1f1-baff-4710-b092-d4b131f8acb6"},"vehicle_type_id":"4","last_reported":1747127498,"current_range_meters":12400,"station_id":"ce4bhoh2rcd13ifvqh6g","pricing_plan_id":"cebpf4jnsgd1na2vs0mg"},{"bike_id":"85c0c8c2-a849-4d6d-b0f9-e585af005f4a","system_id":"levelo_inurba_marseille","lat":43.30545,"lon":5.36538,"is_reserved":false,"is_disabled":false,"rental_uris":{"android":"levelo://app?vid=85c0c8c2-a849-4d6d-b0f9-e585af005f4a","ios":"levelo://app?vid=85c0c8c2-a849-4d6d-b0f9-e585af005f4a"},"vehicle_type_id":"4","last_reported":1747127498,"current_range_meters":12800,"station_id":"ce4bgs12rcd13ifvqcag","pricing_plan_id":"cebpf4jnsgd1na2vs0mg"},{"bike_id":"bf81bdf7-80eb-44b2-9ec1-817bea884b06","system_id":"levelo_inurba_marseille","lat":43.25861,"lon":5.39898,"is_reserved":false,"is_disabled":false,"rental_uris":{"android":"levelo://app?vid=bf81bdf7-80eb-44b2-9ec1-817bea884b06","ios":"levelo://app?vid=bf81bdf7-80eb-44b2-9ec1-817bea884b06"},"vehicle_type_id":"4","last_reported":1747127498,"current_range_meters":12800,"station_id":"ce4bhl92rcd13ifvqghg","pricing_plan_id":"cebpf4jnsgd1na2vs0mg"},{"bike_id":"94e9616e-036b-47aa-bca5-9aaf2819eabe","system_id":"levelo_inurba_marseille","lat":43.31072,"lon":5.38357,"is_reserved":false,"is_disabled":false,"rental_uris":{"android":"levelo://app?vid=94e9616e-036b-47aa-bca5-9aaf2819eabe","ios":"levelo://app?vid=94e9616e-036b-47aa-bca5-9aaf2819eabe"},"vehicle_type_id":"4","last_reported":1747127498,"current_range_meters":13600,"station_id":"ce4bgv92rcd13ifvqcr0","pricing_plan_id":"cebpf4jnsgd1na2vs0mg"},{"bike_id":"8ecd64a3-a011-4d25-903d-6bf834befd67","system_id":"levelo_inurba_marseille","lat":43.29198,"lon":5.35803,"is_reserved":false,"is_disabled":false,"rental_uris":{"android":"levelo://app?vid=8ecd64a3-a011-4d25-903d-6bf834befd67","ios":"levelo://app?vid=8ecd64a3-a011-4d25-903d-6bf834befd67"},"vehicle_type_id":"4","last_reported":1747127498,"current_range_meters":13600,"station_id":"ce4bhb12rcd13ifvqel0","pricing_plan_id":"cebpf4jnsgd1na2vs0mg"},{"bike_id":"44c5047d-1d44-4482-8acc-21bdfa903a84","system_id":"levelo_inurba_marseille","lat":43.26943,"lon":5.38639,"is_reserved":false,"is_disabled":false,"rental_uris":{"android":"levelo://app?vid=44c5047d-1d44-4482-8acc-21bdfa903a84","ios":"levelo://app?vid=44c5047d-1d44-4482-8acc-21bdfa903a84"},"vehicle_type_id":"4","last_reported":1747127498,"current_range_meters":13600,"station_id":"ce4bhh92rcd13ifvqfh0","pricing_plan_id":"cebpf4jnsgd1na2vs0mg"},{"bike_id":"594573a6-84a2-4905-916c-17d9a6a266cd","system_id":"levelo_inurba_marseille","lat":43.2592,"lon":5.40881,"is_reserved":false,"is_disabled":false,"rental_uris":{"android":"levelo://app?vid=594573a6-84a2-4905-916c-17d9a6a266cd","ios":"levelo://app?vid=594573a6-84a2-4905-916c-17d9a6a266cd"},"vehicle_type_id":"4","last_reported":1747127498,"current_range_meters":13600,"station_id":"ce4bhm92rcd13ifvqglg","pricing_plan_id":"cebpf4jnsgd1na2vs0mg"},{"bike_id":"3d82d0ba-542c-4534-accc-db3994329d88","system_id":"levelo_inurba_marseille","lat":43.31489,"lon":5.3731,"is_reserved":false,"is_disabled":false,"rental_uris":{"android":"levelo://app?vid=3d82d0ba-542c-4534-accc-db3994329d88","ios":"levelo://app?vid=3d82d0ba-542c-4534-accc-db3994329d88"},"vehicle_type_id":"4","last_reported":1747127498,"current_range_meters":14400,"station_id":"ce4bgt12rcd13ifvqcd0","pricing_plan_id":"cebpf4jnsgd1na2vs0mg"},{"bike_id":"6d2921ff-adfa-45cb-a718-18174466d27d","system_id":"levelo_inurba_marseille","lat":43.30584,"lon":5.39358,"is_reserved":false,"is_disabled":false,"rental_uris":{"android":"levelo://app?vid=6d2921ff-adfa-45cb-a718-18174466d27d","ios":"levelo://app?vid=6d2921ff-adfa-45cb-a718-18174466d27d"},"vehicle_type_id":"4","last_reported":1747127498,"current_range_meters":14400,"station_id":"ce4bh0p2rcd13ifvqd80","pricing_plan_id":"cebpf4jnsgd1na2vs0mg"},{"bike_id":"893d7dd7-0a99-4e9d-867a-1af5a0254c07","system_id":"levelo_inurba_marseille","lat":43.27498,"lon":5.42436,"is_reserved":false,"is_disabled":false,"rental_uris":{"android":"levelo://app?vid=893d7dd7-0a99-4e9d-867a-1af5a0254c07","ios":"levelo://app?vid=893d7dd7-0a99-4e9d-867a-1af5a0254c07"},"vehicle_type_id":"4","last_reported":1747127498,"current_range_meters":14400,"station_id":"ce4bhn92rcd13ifvqgrg","pricing_plan_id":"cebpf4jnsgd1na2vs0mg"},{"bike_id":"b30f391a-af9d-4674-a2e3-40864566bbcb","system_id":"levelo_inurba_marseille","lat":43.275006,"lon":5.424588,"is_reserved":false,"is_disabled":false,"rental_uris":{"android":"levelo://app?vid=b30f391a-af9d-4674-a2e3-40864566bbcb","ios":"levelo://app?vid=b30f391a-af9d-4674-a2e3-40864566bbcb"},"vehicle_type_id":"4","last_reported":1747127498,"current_range_meters":14400,"station_id":"ce4bhn92rcd13ifvqgrg","pricing_plan_id":"cebpf4jnsgd1na2vs0mg"},{"bike_id":"0cc4eb21-80ad-4141-8799-66402bf47bda","system_id":"levelo_inurba_marseille","lat":43.324801,"lon":5.365636,"is_reserved":false,"is_disabled":false,"rental_uris":{"android":"levelo://app?vid=0cc4eb21-80ad-4141-8799-66402bf47bda","ios":"levelo://app?vid=0cc4eb21-80ad-4141-8799-66402bf47bda"},"vehicle_type_id":"4","last_reported":1747127498,"current_range_meters":14400,"station_id":"ce4bhs12rcd13ifvqhvg","pricing_plan_id":"cebpf4jnsgd1na2vs0mg"},{"bike_id":"0a9f8ebd-29af-446f-93db-19c3e4761b21","system_id":"levelo_inurba_marseille","lat":43.31342,"lon":5.38535,"is_reserved":false,"is_disabled":false,"rental_uris":{"android":"levelo://app?vid=0a9f8ebd-29af-446f-93db-19c3e4761b21","ios":"levelo://app?vid=0a9f8ebd-29af-446f-93db-19c3e4761b21"},"vehicle_type_id":"4","last_reported":1747127498,"current_range_meters":14800,"station_id":"ce4bgt92rcd13ifvqcf0","pricing_plan_id":"cebpf4jnsgd1na2vs0mg"},{"bike_id":"44c2aa05-5a17-4417-9070-5e197b0d3ec9","system_id":"levelo_inurba_marseille","lat":43.27373,"lon":5.36256,"is_reserved":false,"is_disabled":false,"rental_uris":{"android":"levelo://app?vid=44c2aa05-5a17-4417-9070-5e197b0d3ec9","ios":"levelo://app?vid=44c2aa05-5a17-4417-9070-5e197b0d3ec9"},"vehicle_type_id":"4","last_reported":1747127498,"current_range_meters":14800,"station_id":"ce4bhbh2rcd13ifvqeo0","pricing_plan_id":"cebpf4jnsgd1na2vs0mg"},{"bike_id":"bab1d54c-b97e-4bc3-9dc0-e1277431a25f","system_id":"levelo_inurba_marseille","lat":43.27203,"lon":5.39178,"is_reserved":false,"is_disabled":false,"rental_uris":{"android":"levelo://app?vid=bab1d54c-b97e-4bc3-9dc0-e1277431a25f","ios":"levelo://app?vid=bab1d54c-b97e-4bc3-9dc0-e1277431a25f"},"vehicle_type_id":"4","last_reported":1747127498,"current_range_meters":14800,"station_id":"ce4bhhp2rcd13ifvqfm0","pricing_plan_id":"cebpf4jnsgd1na2vs0mg"},{"bike_id":"5bb435e4-df10-48c7-a90a-d5061f350aa7","system_id":"levelo_inurba_marseille","lat":43.27063,"lon":5.42274,"is_reserved":false,"is_disabled":false,"rental_uris":{"android":"levelo://app?vid=5bb435e4-df10-48c7-a90a-d5061f350aa7","ios":"levelo://app?vid=5bb435e4-df10-48c7-a90a-d5061f350aa7"},"vehicle_type_id":"4","last_reported":1747127498,"current_range_meters":14800,"station_id":"ce4bhk92rcd13ifvqgb0","pricing_plan_id":"cebpf4jnsgd1na2vs0mg"},{"bike_id":"03bd33f1-e08a-43f9-aa6b-3b5c63fd8e5f","system_id":"levelo_inurba_marseille","lat":43.3019,"lon":5.36617,"is_reserved":false,"is_disabled":false,"rental_uris":{"android":"levelo://app?vid=03bd33f1-e08a-43f9-aa6b-3b5c63fd8e5f","ios":"levelo://app?vid=03bd33f1-e08a-43f9-aa6b-3b5c63fd8e5f"},"vehicle_type_id":"4","last_reported":1747127498,"current_range_meters":15200,"station_id":"ce4bgrh2rcd13ifvqc8g","pricing_plan_id":"cebpf4jnsgd1na2vs0mg"},{"bike_id":"3d8c6a7e-da49-4025-a850-50501c9b6c1b","system_id":"levelo_inurba_marseille","lat":43.30094,"lon":5.39087,"is_reserved":false,"is_disabled":false,"rental_uris":{"android":"levelo://app?vid=3d8c6a7e-da49-4025-a850-50501c9b6c1b","ios":"levelo://app?vid=3d8c6a7e-da49-4025-a850-50501c9b6c1b"},"vehicle_type_id":"4","last_reported":1747127498,"current_range_meters":15200,"station_id":"ce4bh192rcd13ifvqdb0","pricing_plan_id":"cebpf4jnsgd1na2vs0mg"},{"bike_id":"0af8849b-1501-43ef-ace4-aa95a96228e6","system_id":"levelo_inurba_marseille","lat":43.286199,"lon":5.350737,"is_reserved":false,"is_disabled":false,"rental_uris":{"android":"levelo://app?vid=0af8849b-1501-43ef-ace4-aa95a96228e6","ios":"levelo://app?vid=0af8849b-1501-43ef-ace4-aa95a96228e6"},"vehicle_type_id":"4","last_reported":1747127498,"current_range_meters":15200,"station_id":"ce4bhch2rcd13ifvqeug","pricing_plan_id":"cebpf4jnsgd1na2vs0mg"},{"bike_id":"af7378f2-5574-4580-8919-9220d94ad1cc","system_id":"levelo_inurba_marseille","lat":43.23189,"lon":5.3555,"is_reserved":false,"is_disabled":false,"rental_uris":{"android":"levelo://app?vid=af7378f2-5574-4580-8919-9220d94ad1cc","ios":"levelo://app?vid=af7378f2-5574-4580-8919-9220d94ad1cc"},"vehicle_type_id":"4","last_reported":1747127498,"current_range_meters":15200,"station_id":"ce4bhu92rcd13ifvqi70","pricing_plan_id":"cebpf4jnsgd1na2vs0mg"},{"bike_id":"6849816a-14a2-4736-aae2-e7373738bc80","system_id":"levelo_inurba_marseille","lat":43.25924,"lon":5.40906,"is_reserved":false,"is_disabled":false,"rental_uris":{"android":"levelo://app?vid=6849816a-14a2-4736-aae2-e7373738bc80","ios":"levelo://app?vid=6849816a-14a2-4736-aae2-e7373738bc80"},"vehicle_type_id":"4","last_reported":1747127498,"current_range_meters":16000,"station_id":"ce4bhm92rcd13ifvqglg","pricing_plan_id":"cebpf4jnsgd1na2vs0mg"},{"bike_id":"ba514e44-6b68-46f5-98bc-d99c9a5ef0e7","system_id":"levelo_inurba_marseille","lat":43.24181,"lon":5.3973,"is_reserved":false,"is_disabled":false,"rental_uris":{"android":"levelo://app?vid=ba514e44-6b68-46f5-98bc-d99c9a5ef0e7","ios":"levelo://app?vid=ba514e44-6b68-46f5-98bc-d99c9a5ef0e7"},"vehicle_type_id":"4","last_reported":1747127498,"current_range_meters":16000,"station_id":"ce4bhn12rcd13ifvqgpg","pricing_plan_id":"cebpf4jnsgd1na2vs0mg"},{"bike_id":"9d352004-7b2c-43e3-9328-20e4f737c9c4","system_id":"levelo_inurba_marseille","lat":43.262294,"lon":5.404539,"is_reserved":false,"is_disabled":false,"rental_uris":{"android":"levelo://app?vid=9d352004-7b2c-43e3-9328-20e4f737c9c4","ios":"levelo://app?vid=9d352004-7b2c-43e3-9328-20e4f737c9c4"},"vehicle_type_id":"4","last_reported":1747127498,"current_range_meters":16400,"station_id":"","pricing_plan_id":"cebpf4jnsgd1na2vs0mg"},{"bike_id":"33de7bef-d559-4f91-89d2-f4e68edf3bd1","system_id":"levelo_inurba_marseille","lat":43.305591,"lon":5.399224,"is_reserved":false,"is_disabled":false,"rental_uris":{"android":"levelo://app?vid=33de7bef-d559-4f91-89d2-f4e68edf3bd1","ios":"levelo://app?vid=33de7bef-d559-4f91-89d2-f4e68edf3bd1"},"vehicle_type_id":"4","last_reported":1747127498,"current_range_meters":16400,"station_id":"ce4bgvp2rcd13ifvqct0","pricing_plan_id":"cebpf4jnsgd1na2vs0mg"},{"bike_id":"d0a588e0-7e62-4c58-bb05-703ea488762e","system_id":"levelo_inurba_marseille","lat":43.26949,"lon":5.38633,"is_reserved":false,"is_disabled":false,"rental_uris":{"android":"levelo://app?vid=d0a588e0-7e62-4c58-bb05-703ea488762e","ios":"levelo://app?vid=d0a588e0-7e62-4c58-bb05-703ea488762e"},"vehicle_type_id":"4","last_reported":1747127498,"current_range_meters":16400,"station_id":"ce4bhh92rcd13ifvqfh0","pricing_plan_id":"cebpf4jnsgd1na2vs0mg"},{"bike_id":"73c4d68c-0536-409c-acba-94a1392a1c77","system_id":"levelo_inurba_marseille","lat":43.24173,"lon":5.39728,"is_reserved":false,"is_disabled":false,"rental_uris":{"android":"levelo://app?vid=73c4d68c-0536-409c-acba-94a1392a1c77","ios":"levelo://app?vid=73c4d68c-0536-409c-acba-94a1392a1c77"},"vehicle_type_id":"4","last_reported":1747127498,"current_range_meters":16400,"station_id":"ce4bhn12rcd13ifvqgpg","pricing_plan_id":"cebpf4jnsgd1na2vs0mg"},{"bike_id":"d47e0ef5-128e-4c82-8e08-c07c79e20732","system_id":"levelo_inurba_marseille","lat":43.32449,"lon":5.36567,"is_reserved":false,"is_disabled":false,"rental_uris":{"android":"levelo://app?vid=d47e0ef5-128e-4c82-8e08-c07c79e20732","ios":"levelo://app?vid=d47e0ef5-128e-4c82-8e08-c07c79e20732"},"vehicle_type_id":"4","last_reported":1747127498,"current_range_meters":16400,"station_id":"ce4bhs12rcd13ifvqhvg","pricing_plan_id":"cebpf4jnsgd1na2vs0mg"},{"bike_id":"80471953-5748-4179-b759-2ef9386e8c37","system_id":"levelo_inurba_marseille","lat":43.29296,"lon":5.37467,"is_reserved":false,"is_disabled":false,"rental_uris":{"android":"levelo://app?vid=80471953-5748-4179-b759-2ef9386e8c37","ios":"levelo://app?vid=80471953-5748-4179-b759-2ef9386e8c37"},"vehicle_type_id":"4","last_reported":1747127498,"current_range_meters":16800,"station_id":"ce4bgi12rcd13ifvqb70","pricing_plan_id":"cebpf4jnsgd1na2vs0mg"},{"bike_id":"625bf33b-dc2e-4284-b561-fdcce2330f7e","system_id":"levelo_inurba_marseille","lat":43.30887,"lon":5.36826,"is_reserved":false,"is_disabled":false,"rental_uris":{"android":"levelo://app?vid=625bf33b-dc2e-4284-b561-fdcce2330f7e","ios":"levelo://app?vid=625bf33b-dc2e-4284-b561-fdcce2330f7e"},"vehicle_type_id":"4","last_reported":1747127498,"current_range_meters":17200,"station_id":"ce4bgn92rcd13ifvqbvg","pricing_plan_id":"cebpf4jnsgd1na2vs0mg"},{"bike_id":"dc021894-96fa-4726-8159-d91b2be123d5","system_id":"levelo_inurba_marseille","lat":43.30896,"lon":5.37187,"is_reserved":false,"is_disabled":false,"rental_uris":{"android":"levelo://app?vid=dc021894-96fa-4726-8159-d91b2be123d5","ios":"levelo://app?vid=dc021894-96fa-4726-8159-d91b2be123d5"},"vehicle_type_id":"4","last_reported":1747127498,"current_range_meters":17200,"station_id":"ce4bguh2rcd13ifvqckg","pricing_plan_id":"cebpf4jnsgd1na2vs0mg"},{"bike_id":"370f62b0-8ff8-4ce1-b00f-3b9934275e4d","system_id":"levelo_inurba_marseille","lat":43.26685,"lon":5.38273,"is_reserved":false,"is_disabled":false,"rental_uris":{"android":"levelo://app?vid=370f62b0-8ff8-4ce1-b00f-3b9934275e4d","ios":"levelo://app?vid=370f62b0-8ff8-4ce1-b00f-3b9934275e4d"},"vehicle_type_id":"4","last_reported":1747127498,"current_range_meters":17200,"station_id":"ce4bhg92rcd13ifvqf90","pricing_plan_id":"cebpf4jnsgd1na2vs0mg"},{"bike_id":"b6a34b9f-55ea-4a2b-b0ef-ca81c1bf74cb","system_id":"levelo_inurba_marseille","lat":43.31358,"lon":5.36729,"is_reserved":false,"is_disabled":false,"rental_uris":{"android":"levelo://app?vid=b6a34b9f-55ea-4a2b-b0ef-ca81c1bf74cb","ios":"levelo://app?vid=b6a34b9f-55ea-4a2b-b0ef-ca81c1bf74cb"},"vehicle_type_id":"4","last_reported":1747127498,"current_range_meters":17600,"station_id":"ce4bgr92rcd13ifvqc6g","pricing_plan_id":"cebpf4jnsgd1na2vs0mg"},{"bike_id":"385d5905-f8c6-4ade-ab7f-54128b466238","system_id":"levelo_inurba_marseille","lat":43.28855,"lon":5.35861,"is_reserved":false,"is_disabled":false,"rental_uris":{"android":"levelo://app?vid=385d5905-f8c6-4ade-ab7f-54128b466238","ios":"levelo://app?vid=385d5905-f8c6-4ade-ab7f-54128b466238"},"vehicle_type_id":"4","last_reported":1747127498,"current_range_meters":17600,"station_id":"ce4bhb12rcd13ifvqem0","pricing_plan_id":"cebpf4jnsgd1na2vs0mg"},{"bike_id":"e9dc658a-eaa4-4f98-8111-9734ea55ddea","system_id":"levelo_inurba_marseille","lat":43.27065,"lon":5.42268,"is_reserved":false,"is_disabled":false,"rental_uris":{"android":"levelo://app?vid=e9dc658a-eaa4-4f98-8111-9734ea55ddea","ios":"levelo://app?vid=e9dc658a-eaa4-4f98-8111-9734ea55ddea"},"vehicle_type_id":"4","last_reported":1747127498,"current_range_meters":17600,"station_id":"ce4bhk92rcd13ifvqgb0","pricing_plan_id":"cebpf4jnsgd1na2vs0mg"},{"bike_id":"9d76660f-c284-49a2-8765-48337aa51471","system_id":"levelo_inurba_marseille","lat":43.32097,"lon":5.36792,"is_reserved":false,"is_disabled":false,"rental_uris":{"android":"levelo://app?vid=9d76660f-c284-49a2-8765-48337aa51471","ios":"levelo://app?vid=9d76660f-c284-49a2-8765-48337aa51471"},"vehicle_type_id":"4","last_reported":1747127498,"current_range_meters":17600,"station_id":"ce4bhrh2rcd13ifvqhug","pricing_plan_id":"cebpf4jnsgd1na2vs0mg"},{"bike_id":"0c893fb7-8626-4706-85bf-f404b871dea5","system_id":"levelo_inurba_marseille","lat":43.28125,"lon":5.446002,"is_reserved":false,"is_disabled":false,"rental_uris":{"android":"levelo://app?vid=0c893fb7-8626-4706-85bf-f404b871dea5","ios":"levelo://app?vid=0c893fb7-8626-4706-85bf-f404b871dea5"},"vehicle_type_id":"4","last_reported":1747127498,"current_range_meters":18000,"station_id":"","pricing_plan_id":"cebpf4jnsgd1na2vs0mg"},{"bike_id":"ac0112c9-313e-422c-910b-a3523b05b0c9","system_id":"levelo_inurba_marseille","lat":43.23058,"lon":5.35482,"is_reserved":false,"is_disabled":false,"rental_uris":{"android":"levelo://app?vid=ac0112c9-313e-422c-910b-a3523b05b0c9","ios":"levelo://app?vid=ac0112c9-313e-422c-910b-a3523b05b0c9"},"vehicle_type_id":"4","last_reported":1747127498,"current_range_meters":18000,"station_id":"cpo3342slgdg3j2ifvpg","pricing_plan_id":"cebpf4jnsgd1na2vs0mg"},{"bike_id":"eeb882a8-fe36-4d5c-a964-fc0d0f965523","system_id":"levelo_inurba_marseille","lat":43.30678,"lon":5.3667,"is_reserved":false,"is_disabled":false,"rental_uris":{"android":"levelo://app?vid=eeb882a8-fe36-4d5c-a964-fc0d0f965523","ios":"levelo://app?vid=eeb882a8-fe36-4d5c-a964-fc0d0f965523"},"vehicle_type_id":"4","last_reported":1747127498,"current_range_meters":18800,"station_id":"","pricing_plan_id":"cebpf4jnsgd1na2vs0mg"},{"bike_id":"6bd2a8ac-44d7-45d3-8b92-5d3844ac7365","system_id":"levelo_inurba_marseille","lat":43.29533,"lon":5.375032,"is_reserved":false,"is_disabled":false,"rental_uris":{"android":"levelo://app?vid=6bd2a8ac-44d7-45d3-8b92-5d3844ac7365","ios":"levelo://app?vid=6bd2a8ac-44d7-45d3-8b92-5d3844ac7365"},"vehicle_type_id":"4","last_reported":1747127498,"current_range_meters":18800,"station_id":"ce4bgkp2rcd13ifvqbmg","pricing_plan_id":"cebpf4jnsgd1na2vs0mg"},{"bike_id":"40093641-a413-410f-b6ab-4e6a24ea2573","system_id":"levelo_inurba_marseille","lat":43.30555,"lon":5.36691,"is_reserved":false,"is_disabled":false,"rental_uris":{"android":"levelo://app?vid=40093641-a413-410f-b6ab-4e6a24ea2573","ios":"levelo://app?vid=40093641-a413-410f-b6ab-4e6a24ea2573"},"vehicle_type_id":"4","last_reported":1747127498,"current_range_meters":18800,"station_id":"ce4bgrp2rcd13ifvqc9g","pricing_plan_id":"cebpf4jnsgd1na2vs0mg"},{"bike_id":"5cd0da21-8efd-40c6-abf3-92e775b30dce","system_id":"levelo_inurba_marseille","lat":43.25112,"lon":5.4032,"is_reserved":false,"is_disabled":false,"rental_uris":{"android":"levelo://app?vid=5cd0da21-8efd-40c6-abf3-92e775b30dce","ios":"levelo://app?vid=5cd0da21-8efd-40c6-abf3-92e775b30dce"},"vehicle_type_id":"4","last_reported":1747127498,"current_range_meters":18800,"station_id":"ce4bhlh2rcd13ifvqgig","pricing_plan_id":"cebpf4jnsgd1na2vs0mg"},{"bike_id":"bd88d41b-f29d-44c2-8d5d-19a0735af1da","system_id":"levelo_inurba_marseille","lat":43.26016,"lon":5.40868,"is_reserved":false,"is_disabled":false,"rental_uris":{"android":"levelo://app?vid=bd88d41b-f29d-44c2-8d5d-19a0735af1da","ios":"levelo://app?vid=bd88d41b-f29d-44c2-8d5d-19a0735af1da"},"vehicle_type_id":"4","last_reported":1747127498,"current_range_meters":18800,"station_id":"ce4bhm92rcd13ifvqglg","pricing_plan_id":"cebpf4jnsgd1na2vs0mg"},{"bike_id":"581a76c6-406f-436c-80cf-424046378536","system_id":"levelo_inurba_marseille","lat":43.23143,"lon":5.43712,"is_reserved":false,"is_disabled":false,"rental_uris":{"android":"levelo://app?vid=581a76c6-406f-436c-80cf-424046378536","ios":"levelo://app?vid=581a76c6-406f-436c-80cf-424046378536"},"vehicle_type_id":"4","last_reported":1747127498,"current_range_meters":18800,"station_id":"ce4bhmp2rcd13ifvqgog","pricing_plan_id":"cebpf4jnsgd1na2vs0mg"},{"bike_id":"b5e7811c-b3a9-4105-bf33-e891b634bcd8","system_id":"levelo_inurba_marseille","lat":43.28153,"lon":5.42649,"is_reserved":false,"is_disabled":false,"rental_uris":{"android":"levelo://app?vid=b5e7811c-b3a9-4105-bf33-e891b634bcd8","ios":"levelo://app?vid=b5e7811c-b3a9-4105-bf33-e891b634bcd8"},"vehicle_type_id":"4","last_reported":1747127498,"current_range_meters":18800,"station_id":"ce4bhnh2rcd13ifvqgug","pricing_plan_id":"cebpf4jnsgd1na2vs0mg"},{"bike_id":"3626ee4b-3852-4989-999e-5bc0d8d20c3f","system_id":"levelo_inurba_marseille","lat":43.33598,"lon":5.4103,"is_reserved":false,"is_disabled":false,"rental_uris":{"android":"levelo://app?vid=3626ee4b-3852-4989-999e-5bc0d8d20c3f","ios":"levelo://app?vid=3626ee4b-3852-4989-999e-5bc0d8d20c3f"},"vehicle_type_id":"4","last_reported":1747127498,"current_range_meters":18800,"station_id":"ce4bhqh2rcd13ifvqhmg","pricing_plan_id":"cebpf4jnsgd1na2vs0mg"},{"bike_id":"9e7ebd91-af82-4549-976b-c088b359c00b","system_id":"levelo_inurba_marseille","lat":43.32102,"lon":5.36779,"is_reserved":false,"is_disabled":false,"rental_uris":{"android":"levelo://app?vid=9e7ebd91-af82-4549-976b-c088b359c00b","ios":"levelo://app?vid=9e7ebd91-af82-4549-976b-c088b359c00b"},"vehicle_type_id":"4","last_reported":1747127498,"current_range_meters":18800,"station_id":"ce4bhrh2rcd13ifvqhug","pricing_plan_id":"cebpf4jnsgd1na2vs0mg"},{"bike_id":"1e297e0e-a907-489c-9a22-1dfb89bfb64f","system_id":"levelo_inurba_marseille","lat":43.29244,"lon":5.36398,"is_reserved":false,"is_disabled":false,"rental_uris":{"android":"levelo://app?vid=1e297e0e-a907-489c-9a22-1dfb89bfb64f","ios":"levelo://app?vid=1e297e0e-a907-489c-9a22-1dfb89bfb64f"},"vehicle_type_id":"4","last_reported":1747127498,"current_range_meters":19200,"station_id":"","pricing_plan_id":"cebpf4jnsgd1na2vs0mg"},{"bike_id":"267b0483-efc5-4c14-9838-dc71812671d5","system_id":"levelo_inurba_marseille","lat":43.26929,"lon":5.38925,"is_reserved":false,"is_disabled":false,"rental_uris":{"android":"levelo://app?vid=267b0483-efc5-4c14-9838-dc71812671d5","ios":"levelo://app?vid=267b0483-efc5-4c14-9838-dc71812671d5"},"vehicle_type_id":"4","last_reported":1747127498,"current_range_meters":19200,"station_id":"ce4bhhh2rcd13ifvqfl0","pricing_plan_id":"cebpf4jnsgd1na2vs0mg"},{"bike_id":"a9fdfac9-13ae-4a51-8f3d-a89bb8a08b3d","system_id":"levelo_inurba_marseille","lat":43.23131,"lon":5.43745,"is_reserved":false,"is_disabled":false,"rental_uris":{"android":"levelo://app?vid=a9fdfac9-13ae-4a51-8f3d-a89bb8a08b3d","ios":"levelo://app?vid=a9fdfac9-13ae-4a51-8f3d-a89bb8a08b3d"},"vehicle_type_id":"4","last_reported":1747127498,"current_range_meters":19200,"station_id":"ce4bhmp2rcd13ifvqgog","pricing_plan_id":"cebpf4jnsgd1na2vs0mg"},{"bike_id":"687d78f7-3517-403a-a139-1e6be83b5fe8","system_id":"levelo_inurba_marseille","lat":43.30556,"lon":5.36663,"is_reserved":false,"is_disabled":false,"rental_uris":{"android":"levelo://app?vid=687d78f7-3517-403a-a139-1e6be83b5fe8","ios":"levelo://app?vid=687d78f7-3517-403a-a139-1e6be83b5fe8"},"vehicle_type_id":"4","last_reported":1747127498,"current_range_meters":19600,"station_id":"","pricing_plan_id":"cebpf4jnsgd1na2vs0mg"},{"bike_id":"f4dbb641-0621-4029-93ce-888ad5518e1e","system_id":"levelo_inurba_marseille","lat":43.30137,"lon":5.37421,"is_reserved":false,"is_disabled":false,"rental_uris":{"android":"levelo://app?vid=f4dbb641-0621-4029-93ce-888ad5518e1e","ios":"levelo://app?vid=f4dbb641-0621-4029-93ce-888ad5518e1e"},"vehicle_type_id":"4","last_reported":1747127498,"current_range_meters":19600,"station_id":"ce4bgs92rcd13ifvqcc0","pricing_plan_id":"cebpf4jnsgd1na2vs0mg"},{"bike_id":"be18cec8-99c1-49c2-9325-13dc2edc6b23","system_id":"levelo_inurba_marseille","lat":43.30205,"lon":5.39467,"is_reserved":false,"is_disabled":false,"rental_uris":{"android":"levelo://app?vid=be18cec8-99c1-49c2-9325-13dc2edc6b23","ios":"levelo://app?vid=be18cec8-99c1-49c2-9325-13dc2edc6b23"},"vehicle_type_id":"4","last_reported":1747127498,"current_range_meters":19600,"station_id":"ce4bh0p2rcd13ifvqd70","pricing_plan_id":"cebpf4jnsgd1na2vs0mg"},{"bike_id":"116fcc67-1873-4896-bd6f-d2374e2ad85a","system_id":"levelo_inurba_marseille","lat":43.28268,"lon":5.35081,"is_reserved":false,"is_disabled":false,"rental_uris":{"android":"levelo://app?vid=116fcc67-1873-4896-bd6f-d2374e2ad85a","ios":"levelo://app?vid=116fcc67-1873-4896-bd6f-d2374e2ad85a"},"vehicle_type_id":"4","last_reported":1747127498,"current_range_meters":19600,"station_id":"ce4bhbp2rcd13ifvqerg","pricing_plan_id":"cebpf4jnsgd1na2vs0mg"},{"bike_id":"e3ac35ab-2215-4a74-88e8-aa08b19851e8","system_id":"levelo_inurba_marseille","lat":43.23148,"lon":5.43717,"is_reserved":false,"is_disabled":false,"rental_uris":{"android":"levelo://app?vid=e3ac35ab-2215-4a74-88e8-aa08b19851e8","ios":"levelo://app?vid=e3ac35ab-2215-4a74-88e8-aa08b19851e8"},"vehicle_type_id":"4","last_reported":1747127498,"current_range_meters":19600,"station_id":"ce4bhmp2rcd13ifvqgog","pricing_plan_id":"cebpf4jnsgd1na2vs0mg"},{"bike_id":"e64ccb21-b07c-4dc1-a129-1e19c593a376","system_id":"levelo_inurba_marseille","lat":43.23154,"lon":5.43711,"is_reserved":false,"is_disabled":false,"rental_uris":{"android":"levelo://app?vid=e64ccb21-b07c-4dc1-a129-1e19c593a376","ios":"levelo://app?vid=e64ccb21-b07c-4dc1-a129-1e19c593a376"},"vehicle_type_id":"4","last_reported":1747127498,"current_range_meters":19600,"station_id":"ce4bhmp2rcd13ifvqgog","pricing_plan_id":"cebpf4jnsgd1na2vs0mg"},{"bike_id":"a5e11739-9f4e-4a5c-a67a-316bdd3705d0","system_id":"levelo_inurba_marseille","lat":43.26802,"lon":5.40249,"is_reserved":false,"is_disabled":false,"rental_uris":{"android":"levelo://app?vid=a5e11739-9f4e-4a5c-a67a-316bdd3705d0","ios":"levelo://app?vid=a5e11739-9f4e-4a5c-a67a-316bdd3705d0"},"vehicle_type_id":"4","last_reported":1747127498,"current_range_meters":19600,"station_id":"ce501612rcd8frsf0b60","pricing_plan_id":"cebpf4jnsgd1na2vs0mg"},{"bike_id":"6bc677c9-b4d5-4779-b029-8a0a5052a589","system_id":"levelo_inurba_marseille","lat":43.2885,"lon":5.39301,"is_reserved":false,"is_disabled":false,"rental_uris":{"android":"levelo://app?vid=6bc677c9-b4d5-4779-b029-8a0a5052a589","ios":"levelo://app?vid=6bc677c9-b4d5-4779-b029-8a0a5052a589"},"vehicle_type_id":"4","last_reported":1747127498,"current_range_meters":20000,"station_id":"ce4bh2p2rcd13ifvqdi0","pricing_plan_id":"cebpf4jnsgd1na2vs0mg"},{"bike_id":"6e3094ae-584b-4b23-8747-809792d486b5","system_id":"levelo_inurba_marseille","lat":43.21186,"lon":5.35071,"is_reserved":false,"is_disabled":false,"rental_uris":{"android":"levelo://app?vid=6e3094ae-584b-4b23-8747-809792d486b5","ios":"levelo://app?vid=6e3094ae-584b-4b23-8747-809792d486b5"},"vehicle_type_id":"4","last_reported":1747127498,"current_range_meters":20000,"station_id":"st_cvj6sg6p6f1abm77japg","pricing_plan_id":"cebpf4jnsgd1na2vs0mg"},{"bike_id":"c8448820-750e-4f38-8dfb-7a23eb0b35e0","system_id":"levelo_inurba_marseille","lat":43.29958,"lon":5.38501,"is_reserved":false,"is_disabled":false,"rental_uris":{"android":"levelo://app?vid=c8448820-750e-4f38-8dfb-7a23eb0b35e0","ios":"levelo://app?vid=c8448820-750e-4f38-8dfb-7a23eb0b35e0"},"vehicle_type_id":"4","last_reported":1747127498,"current_range_meters":20400,"station_id":"ce4bgj92rcd13ifvqbd0","pricing_plan_id":"cebpf4jnsgd1na2vs0mg"},{"bike_id":"fec31875-66c4-43e7-9630-61ea955e873c","system_id":"levelo_inurba_marseille","lat":43.27901,"lon":5.38012,"is_reserved":false,"is_disabled":false,"rental_uris":{"android":"levelo://app?vid=fec31875-66c4-43e7-9630-61ea955e873c","ios":"levelo://app?vid=fec31875-66c4-43e7-9630-61ea955e873c"},"vehicle_type_id":"4","last_reported":1747127498,"current_range_meters":20400,"station_id":"ce4bhf92rcd13ifvqf50","pricing_plan_id":"cebpf4jnsgd1na2vs0mg"},{"bike_id":"d3ee0d64-5680-4380-93bd-954f0eacacee","system_id":"levelo_inurba_marseille","lat":43.29555,"lon":5.42302,"is_reserved":false,"is_disabled":false,"rental_uris":{"android":"levelo://app?vid=d3ee0d64-5680-4380-93bd-954f0eacacee","ios":"levelo://app?vid=d3ee0d64-5680-4380-93bd-954f0eacacee"},"vehicle_type_id":"4","last_reported":1747127498,"current_range_meters":20400,"station_id":"ce4bhph2rcd13ifvqhdg","pricing_plan_id":"cebpf4jnsgd1na2vs0mg"},{"bike_id":"4157fbec-dc62-4bdf-83a7-fd46b6d23f84","system_id":"levelo_inurba_marseille","lat":43.29964,"lon":5.38492,"is_reserved":false,"is_disabled":false,"rental_uris":{"android":"levelo://app?vid=4157fbec-dc62-4bdf-83a7-fd46b6d23f84","ios":"levelo://app?vid=4157fbec-dc62-4bdf-83a7-fd46b6d23f84"},"vehicle_type_id":"4","last_reported":1747127498,"current_range_meters":20800,"station_id":"ce4bgj92rcd13ifvqbd0","pricing_plan_id":"cebpf4jnsgd1na2vs0mg"},{"bike_id":"a9f02b19-c176-448d-bbd7-70872e29aab1","system_id":"levelo_inurba_marseille","lat":43.23146,"lon":5.43715,"is_reserved":false,"is_disabled":false,"rental_uris":{"android":"levelo://app?vid=a9f02b19-c176-448d-bbd7-70872e29aab1","ios":"levelo://app?vid=a9f02b19-c176-448d-bbd7-70872e29aab1"},"vehicle_type_id":"4","last_reported":1747127498,"current_range_meters":20800,"station_id":"ce4bhmp2rcd13ifvqgog","pricing_plan_id":"cebpf4jnsgd1na2vs0mg"},{"bike_id":"3c8b2a8e-116b-4783-8030-383508abd82e","system_id":"levelo_inurba_marseille","lat":43.30925,"lon":5.36823,"is_reserved":false,"is_disabled":false,"rental_uris":{"android":"levelo://app?vid=3c8b2a8e-116b-4783-8030-383508abd82e","ios":"levelo://app?vid=3c8b2a8e-116b-4783-8030-383508abd82e"},"vehicle_type_id":"4","last_reported":1747127498,"current_range_meters":21600,"station_id":"ce4bgn92rcd13ifvqbvg","pricing_plan_id":"cebpf4jnsgd1na2vs0mg"},{"bike_id":"6d84637d-b39f-46a5-8441-9d7e32801c43","system_id":"levelo_inurba_marseille","lat":43.27968,"lon":5.38743,"is_reserved":false,"is_disabled":false,"rental_uris":{"android":"levelo://app?vid=6d84637d-b39f-46a5-8441-9d7e32801c43","ios":"levelo://app?vid=6d84637d-b39f-46a5-8441-9d7e32801c43"},"vehicle_type_id":"4","last_reported":1747127498,"current_range_meters":21600,"station_id":"ce4bhg12rcd13ifvqf80","pricing_plan_id":"cebpf4jnsgd1na2vs0mg"},{"bike_id":"5586737f-6455-4ea2-9af8-69a63f84810a","system_id":"levelo_inurba_marseille","lat":43.23958,"lon":5.36637,"is_reserved":false,"is_disabled":false,"rental_uris":{"android":"levelo://app?vid=5586737f-6455-4ea2-9af8-69a63f84810a","ios":"levelo://app?vid=5586737f-6455-4ea2-9af8-69a63f84810a"},"vehicle_type_id":"4","last_reported":1747127498,"current_range_meters":21600,"station_id":"ce4bhi12rcd13ifvqfp0","pricing_plan_id":"cebpf4jnsgd1na2vs0mg"},{"bike_id":"43186736-ae76-48bb-bdf6-967161a54a90","system_id":"levelo_inurba_marseille","lat":43.27496,"lon":5.424483,"is_reserved":false,"is_disabled":false,"rental_uris":{"android":"levelo://app?vid=43186736-ae76-48bb-bdf6-967161a54a90","ios":"levelo://app?vid=43186736-ae76-48bb-bdf6-967161a54a90"},"vehicle_type_id":"4","last_reported":1747127498,"current_range_meters":21600,"station_id":"ce4bhn92rcd13ifvqgrg","pricing_plan_id":"cebpf4jnsgd1na2vs0mg"},{"bike_id":"c5a6038e-e242-4c42-a6da-186787771b16","system_id":"levelo_inurba_marseille","lat":43.21759,"lon":5.34596,"is_reserved":false,"is_disabled":false,"rental_uris":{"android":"levelo://app?vid=c5a6038e-e242-4c42-a6da-186787771b16","ios":"levelo://app?vid=c5a6038e-e242-4c42-a6da-186787771b16"},"vehicle_type_id":"4","last_reported":1747127498,"current_range_meters":21600,"station_id":"st_cvj6r9ubvosntc0bgbag","pricing_plan_id":"cebpf4jnsgd1na2vs0mg"},{"bike_id":"ea9bc9e4-1f81-4c28-b495-0e0c756126de","system_id":"levelo_inurba_marseille","lat":43.29618,"lon":5.37162,"is_reserved":false,"is_disabled":false,"rental_uris":{"android":"levelo://app?vid=ea9bc9e4-1f81-4c28-b495-0e0c756126de","ios":"levelo://app?vid=ea9bc9e4-1f81-4c28-b495-0e0c756126de"},"vehicle_type_id":"4","last_reported":1747127498,"current_range_meters":22000,"station_id":"ce4bgnh2rcd13ifvqc0g","pricing_plan_id":"cebpf4jnsgd1na2vs0mg"},{"bike_id":"70c8d0f0-8ef7-4637-8804-612ac3fa5023","system_id":"levelo_inurba_marseille","lat":43.303025,"lon":5.368918,"is_reserved":false,"is_disabled":false,"rental_uris":{"android":"levelo://app?vid=70c8d0f0-8ef7-4637-8804-612ac3fa5023","ios":"levelo://app?vid=70c8d0f0-8ef7-4637-8804-612ac3fa5023"},"vehicle_type_id":"4","last_reported":1747127498,"current_range_meters":22000,"station_id":"ce4bgqh2rcd13ifvqc5g","pricing_plan_id":"cebpf4jnsgd1na2vs0mg"},{"bike_id":"3b27af8e-3de7-4902-811f-02064f444eb6","system_id":"levelo_inurba_marseille","lat":43.28267,"lon":5.35071,"is_reserved":false,"is_disabled":false,"rental_uris":{"android":"levelo://app?vid=3b27af8e-3de7-4902-811f-02064f444eb6","ios":"levelo://app?vid=3b27af8e-3de7-4902-811f-02064f444eb6"},"vehicle_type_id":"4","last_reported":1747127498,"current_range_meters":22000,"station_id":"ce4bhbp2rcd13ifvqerg","pricing_plan_id":"cebpf4jnsgd1na2vs0mg"},{"bike_id":"05669342-cb45-4c08-a397-74c64938fdba","system_id":"levelo_inurba_marseille","lat":43.2594,"lon":5.40892,"is_reserved":false,"is_disabled":false,"rental_uris":{"android":"levelo://app?vid=05669342-cb45-4c08-a397-74c64938fdba","ios":"levelo://app?vid=05669342-cb45-4c08-a397-74c64938fdba"},"vehicle_type_id":"4","last_reported":1747127498,"current_range_meters":22000,"station_id":"ce4bhm92rcd13ifvqglg","pricing_plan_id":"cebpf4jnsgd1na2vs0mg"},{"bike_id":"a351762d-08c0-4b78-bbb6-823712bbca17","system_id":"levelo_inurba_marseille","lat":43.30139,"lon":5.38788,"is_reserved":false,"is_disabled":false,"rental_uris":{"android":"levelo://app?vid=a351762d-08c0-4b78-bbb6-823712bbca17","ios":"levelo://app?vid=a351762d-08c0-4b78-bbb6-823712bbca17"},"vehicle_type_id":"4","last_reported":1747127498,"current_range_meters":22400,"station_id":"ce4bghh2rcd13ifvqb60","pricing_plan_id":"cebpf4jnsgd1na2vs0mg"},{"bike_id":"7700857b-f962-4f8b-a6fe-2e2cb4265f12","system_id":"levelo_inurba_marseille","lat":43.29531,"lon":5.38548,"is_reserved":false,"is_disabled":false,"rental_uris":{"android":"levelo://app?vid=7700857b-f962-4f8b-a6fe-2e2cb4265f12","ios":"levelo://app?vid=7700857b-f962-4f8b-a6fe-2e2cb4265f12"},"vehicle_type_id":"4","last_reported":1747127498,"current_range_meters":22400,"station_id":"ce4bgih2rcd13ifvqba0","pricing_plan_id":"cebpf4jnsgd1na2vs0mg"},{"bike_id":"f0986367-e9f5-4952-8acf-76fc173563ff","system_id":"levelo_inurba_marseille","lat":43.30142,"lon":5.38073,"is_reserved":false,"is_disabled":false,"rental_uris":{"android":"levelo://app?vid=f0986367-e9f5-4952-8acf-76fc173563ff","ios":"levelo://app?vid=f0986367-e9f5-4952-8acf-76fc173563ff"},"vehicle_type_id":"4","last_reported":1747127498,"current_range_meters":22400,"station_id":"ce4bgjp2rcd13ifvqbh0","pricing_plan_id":"cebpf4jnsgd1na2vs0mg"},{"bike_id":"e70e47c0-7e35-45ee-b7f6-ab8a468ac3b7","system_id":"levelo_inurba_marseille","lat":43.30529,"lon":5.36692,"is_reserved":false,"is_disabled":false,"rental_uris":{"android":"levelo://app?vid=e70e47c0-7e35-45ee-b7f6-ab8a468ac3b7","ios":"levelo://app?vid=e70e47c0-7e35-45ee-b7f6-ab8a468ac3b7"},"vehicle_type_id":"4","last_reported":1747127498,"current_range_meters":22400,"station_id":"ce4bgrp2rcd13ifvqc9g","pricing_plan_id":"cebpf4jnsgd1na2vs0mg"},{"bike_id":"0c1cf243-b60b-4db4-9907-38442ea33b3c","system_id":"levelo_inurba_marseille","lat":43.26933,"lon":5.3891,"is_reserved":false,"is_disabled":false,"rental_uris":{"android":"levelo://app?vid=0c1cf243-b60b-4db4-9907-38442ea33b3c","ios":"levelo://app?vid=0c1cf243-b60b-4db4-9907-38442ea33b3c"},"vehicle_type_id":"4","last_reported":1747127498,"current_range_meters":22400,"station_id":"ce4bhhh2rcd13ifvqfl0","pricing_plan_id":"cebpf4jnsgd1na2vs0mg"},{"bike_id":"17123b0b-342e-4ca7-b368-a4c3ae4e92ca","system_id":"levelo_inurba_marseille","lat":43.30375,"lon":5.42488,"is_reserved":false,"is_disabled":false,"rental_uris":{"android":"levelo://app?vid=17123b0b-342e-4ca7-b368-a4c3ae4e92ca","ios":"levelo://app?vid=17123b0b-342e-4ca7-b368-a4c3ae4e92ca"},"vehicle_type_id":"4","last_reported":1747127498,"current_range_meters":22400,"station_id":"ce4bhoh2rcd13ifvqh6g","pricing_plan_id":"cebpf4jnsgd1na2vs0mg"},{"bike_id":"8e82026a-d3f2-4482-a6df-0b2e760c4450","system_id":"levelo_inurba_marseille","lat":43.30534,"lon":5.36538,"is_reserved":false,"is_disabled":false,"rental_uris":{"android":"levelo://app?vid=8e82026a-d3f2-4482-a6df-0b2e760c4450","ios":"levelo://app?vid=8e82026a-d3f2-4482-a6df-0b2e760c4450"},"vehicle_type_id":"4","last_reported":1747127498,"current_range_meters":22800,"station_id":"ce4bgs12rcd13ifvqcag","pricing_plan_id":"cebpf4jnsgd1na2vs0mg"},{"bike_id":"5647a91f-31a6-41fb-82bb-83893a94fc73","system_id":"levelo_inurba_marseille","lat":43.21207,"lon":5.35062,"is_reserved":false,"is_disabled":false,"rental_uris":{"android":"levelo://app?vid=5647a91f-31a6-41fb-82bb-83893a94fc73","ios":"levelo://app?vid=5647a91f-31a6-41fb-82bb-83893a94fc73"},"vehicle_type_id":"4","last_reported":1747127498,"current_range_meters":22800,"station_id":"st_cvj6sg6p6f1abm77japg","pricing_plan_id":"cebpf4jnsgd1na2vs0mg"},{"bike_id":"d06bc359-15e7-432e-8c32-adb2339b4fa8","system_id":"levelo_inurba_marseille","lat":43.28262,"lon":5.35072,"is_reserved":false,"is_disabled":false,"rental_uris":{"android":"levelo://app?vid=d06bc359-15e7-432e-8c32-adb2339b4fa8","ios":"levelo://app?vid=d06bc359-15e7-432e-8c32-adb2339b4fa8"},"vehicle_type_id":"4","last_reported":1747127498,"current_range_meters":23200,"station_id":"ce4bhbp2rcd13ifvqerg","pricing_plan_id":"cebpf4jnsgd1na2vs0mg"},{"bike_id":"f5e12935-5973-4db8-97dd-d475d8819200","system_id":"levelo_inurba_marseille","lat":43.28617,"lon":5.35105,"is_reserved":false,"is_disabled":false,"rental_uris":{"android":"levelo://app?vid=f5e12935-5973-4db8-97dd-d475d8819200","ios":"levelo://app?vid=f5e12935-5973-4db8-97dd-d475d8819200"},"vehicle_type_id":"4","last_reported":1747127498,"current_range_meters":23200,"station_id":"ce4bhch2rcd13ifvqeug","pricing_plan_id":"cebpf4jnsgd1na2vs0mg"},{"bike_id":"40a1c000-90a0-4865-a7e7-3a2a723ed018","system_id":"levelo_inurba_marseille","lat":43.2594,"lon":5.409,"is_reserved":false,"is_disabled":false,"rental_uris":{"android":"levelo://app?vid=40a1c000-90a0-4865-a7e7-3a2a723ed018","ios":"levelo://app?vid=40a1c000-90a0-4865-a7e7-3a2a723ed018"},"vehicle_type_id":"4","last_reported":1747127498,"current_range_meters":23200,"station_id":"ce4bhm92rcd13ifvqglg","pricing_plan_id":"cebpf4jnsgd1na2vs0mg"},{"bike_id":"7cb7e122-1806-4c96-a98e-f5bb7331a49e","system_id":"levelo_inurba_marseille","lat":43.34102,"lon":5.40927,"is_reserved":false,"is_disabled":false,"rental_uris":{"android":"levelo://app?vid=7cb7e122-1806-4c96-a98e-f5bb7331a49e","ios":"levelo://app?vid=7cb7e122-1806-4c96-a98e-f5bb7331a49e"},"vehicle_type_id":"4","last_reported":1747127498,"current_range_meters":23200,"station_id":"ce4bhqh2rcd13ifvqhlg","pricing_plan_id":"cebpf4jnsgd1na2vs0mg"},{"bike_id":"1311b7be-7448-4e46-8540-0cecbf3a9518","system_id":"levelo_inurba_marseille","lat":43.321176,"lon":5.36781,"is_reserved":false,"is_disabled":false,"rental_uris":{"android":"levelo://app?vid=1311b7be-7448-4e46-8540-0cecbf3a9518","ios":"levelo://app?vid=1311b7be-7448-4e46-8540-0cecbf3a9518"},"vehicle_type_id":"4","last_reported":1747127498,"current_range_meters":23200,"station_id":"ce4bhrh2rcd13ifvqhug","pricing_plan_id":"cebpf4jnsgd1na2vs0mg"},{"bike_id":"1c7f6792-cc6c-4358-878d-ab0737dd6dd9","system_id":"levelo_inurba_marseille","lat":43.29266,"lon":5.37601,"is_reserved":false,"is_disabled":false,"rental_uris":{"android":"levelo://app?vid=1c7f6792-cc6c-4358-878d-ab0737dd6dd9","ios":"levelo://app?vid=1c7f6792-cc6c-4358-878d-ab0737dd6dd9"},"vehicle_type_id":"4","last_reported":1747127498,"current_range_meters":24000,"station_id":"ce4bgi12rcd13ifvqb80","pricing_plan_id":"cebpf4jnsgd1na2vs0mg"},{"bike_id":"68cba90a-f341-46b7-8447-66a01a4dc908","system_id":"levelo_inurba_marseille","lat":43.31179,"lon":5.36845,"is_reserved":false,"is_disabled":false,"rental_uris":{"android":"levelo://app?vid=68cba90a-f341-46b7-8447-66a01a4dc908","ios":"levelo://app?vid=68cba90a-f341-46b7-8447-66a01a4dc908"},"vehicle_type_id":"4","last_reported":1747127498,"current_range_meters":24000,"station_id":"ce4bgl92rcd13ifvqbq0","pricing_plan_id":"cebpf4jnsgd1na2vs0mg"},{"bike_id":"cc120e7d-61c0-4348-9e0f-8241daab6954","system_id":"levelo_inurba_marseille","lat":43.31307,"lon":5.36898,"is_reserved":false,"is_disabled":false,"rental_uris":{"android":"levelo://app?vid=cc120e7d-61c0-4348-9e0f-8241daab6954","ios":"levelo://app?vid=cc120e7d-61c0-4348-9e0f-8241daab6954"},"vehicle_type_id":"4","last_reported":1747127498,"current_range_meters":24000,"station_id":"ce4bgl92rcd13ifvqbq0","pricing_plan_id":"cebpf4jnsgd1na2vs0mg"},{"bike_id":"53bdd229-8fa7-41c2-abf1-13f267675492","system_id":"levelo_inurba_marseille","lat":43.30206,"lon":5.39473,"is_reserved":false,"is_disabled":false,"rental_uris":{"android":"levelo://app?vid=53bdd229-8fa7-41c2-abf1-13f267675492","ios":"levelo://app?vid=53bdd229-8fa7-41c2-abf1-13f267675492"},"vehicle_type_id":"4","last_reported":1747127498,"current_range_meters":24000,"station_id":"ce4bh0p2rcd13ifvqd70","pricing_plan_id":"cebpf4jnsgd1na2vs0mg"},{"bike_id":"2c01a187-59b2-4dea-adec-2c9294d28148","system_id":"levelo_inurba_marseille","lat":43.28257,"lon":5.35067,"is_reserved":false,"is_disabled":false,"rental_uris":{"android":"levelo://app?vid=2c01a187-59b2-4dea-adec-2c9294d28148","ios":"levelo://app?vid=2c01a187-59b2-4dea-adec-2c9294d28148"},"vehicle_type_id":"4","last_reported":1747127498,"current_range_meters":24000,"station_id":"ce4bhbp2rcd13ifvqerg","pricing_plan_id":"cebpf4jnsgd1na2vs0mg"},{"bike_id":"abe9d1e2-6429-4585-ab2f-5f961fed4524","system_id":"levelo_inurba_marseille","lat":43.27313,"lon":5.39079,"is_reserved":false,"is_disabled":false,"rental_uris":{"android":"levelo://app?vid=abe9d1e2-6429-4585-ab2f-5f961fed4524","ios":"levelo://app?vid=abe9d1e2-6429-4585-ab2f-5f961fed4524"},"vehicle_type_id":"4","last_reported":1747127498,"current_range_meters":24000,"station_id":"ce4bhgp2rcd13ifvqfe0","pricing_plan_id":"cebpf4jnsgd1na2vs0mg"},{"bike_id":"dc0f6872-1cc4-44fc-a7fe-bda93198d00b","system_id":"levelo_inurba_marseille","lat":43.25494,"lon":5.37646,"is_reserved":false,"is_disabled":false,"rental_uris":{"android":"levelo://app?vid=dc0f6872-1cc4-44fc-a7fe-bda93198d00b","ios":"levelo://app?vid=dc0f6872-1cc4-44fc-a7fe-bda93198d00b"},"vehicle_type_id":"4","last_reported":1747127498,"current_range_meters":24000,"station_id":"ce4bhh12rcd13ifvqff0","pricing_plan_id":"cebpf4jnsgd1na2vs0mg"},{"bike_id":"e9c4473d-4bf1-48d7-be7b-f01cb07478b3","system_id":"levelo_inurba_marseille","lat":43.2593,"lon":5.40853,"is_reserved":false,"is_disabled":false,"rental_uris":{"android":"levelo://app?vid=e9c4473d-4bf1-48d7-be7b-f01cb07478b3","ios":"levelo://app?vid=e9c4473d-4bf1-48d7-be7b-f01cb07478b3"},"vehicle_type_id":"4","last_reported":1747127498,"current_range_meters":24000,"station_id":"ce4bhm92rcd13ifvqglg","pricing_plan_id":"cebpf4jnsgd1na2vs0mg"},{"bike_id":"9670f60b-d981-469e-87fd-010a1d3c3a6e","system_id":"levelo_inurba_marseille","lat":43.32111,"lon":5.36802,"is_reserved":false,"is_disabled":false,"rental_uris":{"android":"levelo://app?vid=9670f60b-d981-469e-87fd-010a1d3c3a6e","ios":"levelo://app?vid=9670f60b-d981-469e-87fd-010a1d3c3a6e"},"vehicle_type_id":"4","last_reported":1747127498,"current_range_meters":24000,"station_id":"ce4bhrh2rcd13ifvqhug","pricing_plan_id":"cebpf4jnsgd1na2vs0mg"},{"bike_id":"5e25edbd-3c78-498c-97e9-12bccb33f1d3","system_id":"levelo_inurba_marseille","lat":43.29851,"lon":5.36289,"is_reserved":false,"is_disabled":false,"rental_uris":{"android":"levelo://app?vid=5e25edbd-3c78-498c-97e9-12bccb33f1d3","ios":"levelo://app?vid=5e25edbd-3c78-498c-97e9-12bccb33f1d3"},"vehicle_type_id":"4","last_reported":1747127498,"current_range_meters":24400,"station_id":"ce4bgpp2rcd13ifvqc3g","pricing_plan_id":"cebpf4jnsgd1na2vs0mg"},{"bike_id":"bb15afdf-add2-45f8-a725-adff291b7d59","system_id":"levelo_inurba_marseille","lat":43.3054,"lon":5.36683,"is_reserved":false,"is_disabled":false,"rental_uris":{"android":"levelo://app?vid=bb15afdf-add2-45f8-a725-adff291b7d59","ios":"levelo://app?vid=bb15afdf-add2-45f8-a725-adff291b7d59"},"vehicle_type_id":"4","last_reported":1747127498,"current_range_meters":24400,"station_id":"ce4bgrp2rcd13ifvqc9g","pricing_plan_id":"cebpf4jnsgd1na2vs0mg"},{"bike_id":"c5aee7ee-6430-44e6-9c4d-8af207d24af5","system_id":"levelo_inurba_marseille","lat":43.30134,"lon":5.37429,"is_reserved":false,"is_disabled":false,"rental_uris":{"android":"levelo://app?vid=c5aee7ee-6430-44e6-9c4d-8af207d24af5","ios":"levelo://app?vid=c5aee7ee-6430-44e6-9c4d-8af207d24af5"},"vehicle_type_id":"4","last_reported":1747127498,"current_range_meters":24400,"station_id":"ce4bgs92rcd13ifvqcc0","pricing_plan_id":"cebpf4jnsgd1na2vs0mg"},{"bike_id":"16196022-a456-41db-8087-6174b03472ed","system_id":"levelo_inurba_marseille","lat":43.2848,"lon":5.38414,"is_reserved":false,"is_disabled":false,"rental_uris":{"android":"levelo://app?vid=16196022-a456-41db-8087-6174b03472ed","ios":"levelo://app?vid=16196022-a456-41db-8087-6174b03472ed"},"vehicle_type_id":"4","last_reported":1747127498,"current_range_meters":24400,"station_id":"ce4bh512rcd13ifvqe3g","pricing_plan_id":"cebpf4jnsgd1na2vs0mg"},{"bike_id":"5b8b02bf-71ce-4d49-a7df-bcea34011bc8","system_id":"levelo_inurba_marseille","lat":43.29192,"lon":5.35802,"is_reserved":false,"is_disabled":false,"rental_uris":{"android":"levelo://app?vid=5b8b02bf-71ce-4d49-a7df-bcea34011bc8","ios":"levelo://app?vid=5b8b02bf-71ce-4d49-a7df-bcea34011bc8"},"vehicle_type_id":"4","last_reported":1747127498,"current_range_meters":24400,"station_id":"ce4bhb12rcd13ifvqel0","pricing_plan_id":"cebpf4jnsgd1na2vs0mg"},{"bike_id":"55ed8d2a-e7f4-45cf-a46c-09722ea50b44","system_id":"levelo_inurba_marseille","lat":43.28426,"lon":5.34988,"is_reserved":false,"is_disabled":false,"rental_uris":{"android":"levelo://app?vid=55ed8d2a-e7f4-45cf-a46c-09722ea50b44","ios":"levelo://app?vid=55ed8d2a-e7f4-45cf-a46c-09722ea50b44"},"vehicle_type_id":"4","last_reported":1747127498,"current_range_meters":24400,"station_id":"ce4bhbh2rcd13ifvqepg","pricing_plan_id":"cebpf4jnsgd1na2vs0mg"},{"bike_id":"b044b041-fe46-44c4-9924-c2321867ee36","system_id":"levelo_inurba_marseille","lat":43.2315,"lon":5.437,"is_reserved":false,"is_disabled":false,"rental_uris":{"android":"levelo://app?vid=b044b041-fe46-44c4-9924-c2321867ee36","ios":"levelo://app?vid=b044b041-fe46-44c4-9924-c2321867ee36"},"vehicle_type_id":"4","last_reported":1747127498,"current_range_meters":24400,"station_id":"ce4bhmp2rcd13ifvqgog","pricing_plan_id":"cebpf4jnsgd1na2vs0mg"},{"bike_id":"7d838a2d-6553-47c4-93b8-5cadf95d1a7d","system_id":"levelo_inurba_marseille","lat":43.24152,"lon":5.397467,"is_reserved":false,"is_disabled":false,"rental_uris":{"android":"levelo://app?vid=7d838a2d-6553-47c4-93b8-5cadf95d1a7d","ios":"levelo://app?vid=7d838a2d-6553-47c4-93b8-5cadf95d1a7d"},"vehicle_type_id":"4","last_reported":1747127498,"current_range_meters":24400,"station_id":"ce4bhn12rcd13ifvqgpg","pricing_plan_id":"cebpf4jnsgd1na2vs0mg"},{"bike_id":"057111ad-e246-42e1-8af4-53343f81e5d1","system_id":"levelo_inurba_marseille","lat":43.27942,"lon":5.41049,"is_reserved":false,"is_disabled":false,"rental_uris":{"android":"levelo://app?vid=057111ad-e246-42e1-8af4-53343f81e5d1","ios":"levelo://app?vid=057111ad-e246-42e1-8af4-53343f81e5d1"},"vehicle_type_id":"4","last_reported":1747127498,"current_range_meters":24400,"station_id":"ce4bhnp2rcd13ifvqh0g","pricing_plan_id":"cebpf4jnsgd1na2vs0mg"},{"bike_id":"dfb26c04-9de1-4729-8adf-3c97609170dc","system_id":"levelo_inurba_marseille","lat":43.310772,"lon":5.424322,"is_reserved":false,"is_disabled":false,"rental_uris":{"android":"levelo://app?vid=dfb26c04-9de1-4729-8adf-3c97609170dc","ios":"levelo://app?vid=dfb26c04-9de1-4729-8adf-3c97609170dc"},"vehicle_type_id":"4","last_reported":1747127498,"current_range_meters":24400,"station_id":"ce4bhp92rcd13ifvqhag","pricing_plan_id":"cebpf4jnsgd1na2vs0mg"},{"bike_id":"18556955-6e5e-44de-8de6-34b971734618","system_id":"levelo_inurba_marseille","lat":43.32116,"lon":5.36778,"is_reserved":false,"is_disabled":false,"rental_uris":{"android":"levelo://app?vid=18556955-6e5e-44de-8de6-34b971734618","ios":"levelo://app?vid=18556955-6e5e-44de-8de6-34b971734618"},"vehicle_type_id":"4","last_reported":1747127498,"current_range_meters":24400,"station_id":"ce4bhrh2rcd13ifvqhug","pricing_plan_id":"cebpf4jnsgd1na2vs0mg"},{"bike_id":"a3c2f1e2-e0c5-4acf-bdcb-bc272f737254","system_id":"levelo_inurba_marseille","lat":43.30543,"lon":5.3668,"is_reserved":false,"is_disabled":false,"rental_uris":{"android":"levelo://app?vid=a3c2f1e2-e0c5-4acf-bdcb-bc272f737254","ios":"levelo://app?vid=a3c2f1e2-e0c5-4acf-bdcb-bc272f737254"},"vehicle_type_id":"4","last_reported":1747127498,"current_range_meters":24800,"station_id":"ce4bgrp2rcd13ifvqc9g","pricing_plan_id":"cebpf4jnsgd1na2vs0mg"},{"bike_id":"d32218ce-6dcd-4434-b02c-43be0b0712b6","system_id":"levelo_inurba_marseille","lat":43.26937,"lon":5.3891,"is_reserved":false,"is_disabled":false,"rental_uris":{"android":"levelo://app?vid=d32218ce-6dcd-4434-b02c-43be0b0712b6","ios":"levelo://app?vid=d32218ce-6dcd-4434-b02c-43be0b0712b6"},"vehicle_type_id":"4","last_reported":1747127498,"current_range_meters":24800,"station_id":"ce4bhhh2rcd13ifvqfl0","pricing_plan_id":"cebpf4jnsgd1na2vs0mg"},{"bike_id":"bb0f4c78-b438-44d2-a0e5-e8aa1e48cf9e","system_id":"levelo_inurba_marseille","lat":43.25929,"lon":5.40909,"is_reserved":false,"is_disabled":false,"rental_uris":{"android":"levelo://app?vid=bb0f4c78-b438-44d2-a0e5-e8aa1e48cf9e","ios":"levelo://app?vid=bb0f4c78-b438-44d2-a0e5-e8aa1e48cf9e"},"vehicle_type_id":"4","last_reported":1747127498,"current_range_meters":24800,"station_id":"ce4bhm92rcd13ifvqglg","pricing_plan_id":"cebpf4jnsgd1na2vs0mg"},{"bike_id":"44f5a28e-85a9-4b29-a64d-2f1d7b383a71","system_id":"levelo_inurba_marseille","lat":43.259322,"lon":5.409056,"is_reserved":false,"is_disabled":false,"rental_uris":{"android":"levelo://app?vid=44f5a28e-85a9-4b29-a64d-2f1d7b383a71","ios":"levelo://app?vid=44f5a28e-85a9-4b29-a64d-2f1d7b383a71"},"vehicle_type_id":"4","last_reported":1747127498,"current_range_meters":24800,"station_id":"ce4bhm92rcd13ifvqglg","pricing_plan_id":"cebpf4jnsgd1na2vs0mg"},{"bike_id":"e20c0ab0-90ea-460e-bcc0-e5fa98547380","system_id":"levelo_inurba_marseille","lat":43.31708,"lon":5.43708,"is_reserved":false,"is_disabled":false,"rental_uris":{"android":"levelo://app?vid=e20c0ab0-90ea-460e-bcc0-e5fa98547380","ios":"levelo://app?vid=e20c0ab0-90ea-460e-bcc0-e5fa98547380"},"vehicle_type_id":"4","last_reported":1747127498,"current_range_meters":24800,"station_id":"ce4bhp92rcd13ifvqhcg","pricing_plan_id":"cebpf4jnsgd1na2vs0mg"},{"bike_id":"64824209-6cba-4c12-875a-1502c403c27a","system_id":"levelo_inurba_marseille","lat":43.211927,"lon":5.35084,"is_reserved":false,"is_disabled":false,"rental_uris":{"android":"levelo://app?vid=64824209-6cba-4c12-875a-1502c403c27a","ios":"levelo://app?vid=64824209-6cba-4c12-875a-1502c403c27a"},"vehicle_type_id":"4","last_reported":1747127498,"current_range_meters":24800,"station_id":"st_cvj6sg6p6f1abm77japg","pricing_plan_id":"cebpf4jnsgd1na2vs0mg"},{"bike_id":"4b56d4f6-c334-4199-bb1c-417b12ffb1f0","system_id":"levelo_inurba_marseille","lat":43.29307,"lon":5.37456,"is_reserved":false,"is_disabled":false,"rental_uris":{"android":"levelo://app?vid=4b56d4f6-c334-4199-bb1c-417b12ffb1f0","ios":"levelo://app?vid=4b56d4f6-c334-4199-bb1c-417b12ffb1f0"},"vehicle_type_id":"4","last_reported":1747127498,"current_range_meters":25200,"station_id":"ce4bgi12rcd13ifvqb70","pricing_plan_id":"cebpf4jnsgd1na2vs0mg"},{"bike_id":"4f86142c-1734-4d1e-8f90-c94924f7d837","system_id":"levelo_inurba_marseille","lat":43.29942,"lon":5.365253,"is_reserved":false,"is_disabled":false,"rental_uris":{"android":"levelo://app?vid=4f86142c-1734-4d1e-8f90-c94924f7d837","ios":"levelo://app?vid=4f86142c-1734-4d1e-8f90-c94924f7d837"},"vehicle_type_id":"4","last_reported":1747127498,"current_range_meters":25200,"station_id":"ce4bgm92rcd13ifvqbr0","pricing_plan_id":"cebpf4jnsgd1na2vs0mg"},{"bike_id":"1e195cce-3afe-4c8e-a22b-6c7aaa338d8d","system_id":"levelo_inurba_marseille","lat":43.25493,"lon":5.376453,"is_reserved":false,"is_disabled":false,"rental_uris":{"android":"levelo://app?vid=1e195cce-3afe-4c8e-a22b-6c7aaa338d8d","ios":"levelo://app?vid=1e195cce-3afe-4c8e-a22b-6c7aaa338d8d"},"vehicle_type_id":"4","last_reported":1747127498,"current_range_meters":25200,"station_id":"ce4bhh12rcd13ifvqff0","pricing_plan_id":"cebpf4jnsgd1na2vs0mg"},{"bike_id":"81e87afe-3f97-4744-93ea-a3d464f2b22e","system_id":"levelo_inurba_marseille","lat":43.26223,"lon":5.40454,"is_reserved":false,"is_disabled":false,"rental_uris":{"android":"levelo://app?vid=81e87afe-3f97-4744-93ea-a3d464f2b22e","ios":"levelo://app?vid=81e87afe-3f97-4744-93ea-a3d464f2b22e"},"vehicle_type_id":"4","last_reported":1747127498,"current_range_meters":25200,"station_id":"ce4bhmh2rcd13ifvqgmg","pricing_plan_id":"cebpf4jnsgd1na2vs0mg"},{"bike_id":"8367f86c-0ad5-49c6-bbcb-49ff12d8955d","system_id":"levelo_inurba_marseille","lat":43.26811,"lon":5.40231,"is_reserved":false,"is_disabled":false,"rental_uris":{"android":"levelo://app?vid=8367f86c-0ad5-49c6-bbcb-49ff12d8955d","ios":"levelo://app?vid=8367f86c-0ad5-49c6-bbcb-49ff12d8955d"},"vehicle_type_id":"4","last_reported":1747127498,"current_range_meters":25200,"station_id":"ce501612rcd8frsf0b60","pricing_plan_id":"cebpf4jnsgd1na2vs0mg"},{"bike_id":"74cfc9cd-beb6-4c37-9222-5dbf1b992d4a","system_id":"levelo_inurba_marseille","lat":43.30541,"lon":5.36521,"is_reserved":false,"is_disabled":false,"rental_uris":{"android":"levelo://app?vid=74cfc9cd-beb6-4c37-9222-5dbf1b992d4a","ios":"levelo://app?vid=74cfc9cd-beb6-4c37-9222-5dbf1b992d4a"},"vehicle_type_id":"4","last_reported":1747127498,"current_range_meters":25600,"station_id":"ce4bgs12rcd13ifvqcag","pricing_plan_id":"cebpf4jnsgd1na2vs0mg"},{"bike_id":"8c25bbe9-7546-487d-abe0-00792b5f9745","system_id":"levelo_inurba_marseille","lat":43.30644,"lon":5.40103,"is_reserved":false,"is_disabled":false,"rental_uris":{"android":"levelo://app?vid=8c25bbe9-7546-487d-abe0-00792b5f9745","ios":"levelo://app?vid=8c25bbe9-7546-487d-abe0-00792b5f9745"},"vehicle_type_id":"4","last_reported":1747127498,"current_range_meters":25600,"station_id":"ce4bh112rcd13ifvqda0","pricing_plan_id":"cebpf4jnsgd1na2vs0mg"},{"bike_id":"3c0393e8-9664-4935-8ead-c5f810206ab4","system_id":"levelo_inurba_marseille","lat":43.290205,"lon":5.381357,"is_reserved":false,"is_disabled":false,"rental_uris":{"android":"levelo://app?vid=3c0393e8-9664-4935-8ead-c5f810206ab4","ios":"levelo://app?vid=3c0393e8-9664-4935-8ead-c5f810206ab4"},"vehicle_type_id":"4","last_reported":1747127498,"current_range_meters":25600,"station_id":"ce4bh4p2rcd13ifvqe1g","pricing_plan_id":"cebpf4jnsgd1na2vs0mg"},{"bike_id":"f179c1a5-1860-4bc6-bfd5-c9e16ef460c8","system_id":"levelo_inurba_marseille","lat":43.29793,"lon":5.37122,"is_reserved":false,"is_disabled":false,"rental_uris":{"android":"levelo://app?vid=f179c1a5-1860-4bc6-bfd5-c9e16ef460c8","ios":"levelo://app?vid=f179c1a5-1860-4bc6-bfd5-c9e16ef460c8"},"vehicle_type_id":"4","last_reported":1747127498,"current_range_meters":26000,"station_id":"ce4bgop2rcd13ifvqc1g","pricing_plan_id":"cebpf4jnsgd1na2vs0mg"},{"bike_id":"b3512cdf-d155-45f3-a2c7-4747b6355f04","system_id":"levelo_inurba_marseille","lat":43.30192,"lon":5.36611,"is_reserved":false,"is_disabled":false,"rental_uris":{"android":"levelo://app?vid=b3512cdf-d155-45f3-a2c7-4747b6355f04","ios":"levelo://app?vid=b3512cdf-d155-45f3-a2c7-4747b6355f04"},"vehicle_type_id":"4","last_reported":1747127498,"current_range_meters":26000,"station_id":"ce4bgrh2rcd13ifvqc8g","pricing_plan_id":"cebpf4jnsgd1na2vs0mg"},{"bike_id":"faaa1687-e1fa-45f7-ac0f-d85170b1f93e","system_id":"levelo_inurba_marseille","lat":43.3136,"lon":5.38495,"is_reserved":false,"is_disabled":false,"rental_uris":{"android":"levelo://app?vid=faaa1687-e1fa-45f7-ac0f-d85170b1f93e","ios":"levelo://app?vid=faaa1687-e1fa-45f7-ac0f-d85170b1f93e"},"vehicle_type_id":"4","last_reported":1747127498,"current_range_meters":26000,"station_id":"ce4bgt92rcd13ifvqcf0","pricing_plan_id":"cebpf4jnsgd1na2vs0mg"},{"bike_id":"d5ff95a5-0e37-4728-8f06-2ea4c817d94a","system_id":"levelo_inurba_marseille","lat":43.251068,"lon":5.403207,"is_reserved":false,"is_disabled":false,"rental_uris":{"android":"levelo://app?vid=d5ff95a5-0e37-4728-8f06-2ea4c817d94a","ios":"levelo://app?vid=d5ff95a5-0e37-4728-8f06-2ea4c817d94a"},"vehicle_type_id":"4","last_reported":1747127498,"current_range_meters":26000,"station_id":"ce4bhlh2rcd13ifvqgig","pricing_plan_id":"cebpf4jnsgd1na2vs0mg"},{"bike_id":"f2fc434c-bafa-40e1-aedc-eeafbc2dc4a6","system_id":"levelo_inurba_marseille","lat":43.30876,"lon":5.37205,"is_reserved":false,"is_disabled":false,"rental_uris":{"android":"levelo://app?vid=f2fc434c-bafa-40e1-aedc-eeafbc2dc4a6","ios":"levelo://app?vid=f2fc434c-bafa-40e1-aedc-eeafbc2dc4a6"},"vehicle_type_id":"4","last_reported":1747127498,"current_range_meters":26800,"station_id":"ce4bguh2rcd13ifvqckg","pricing_plan_id":"cebpf4jnsgd1na2vs0mg"},{"bike_id":"9be9c0e0-7220-4d37-a26f-22c90dd82373","system_id":"levelo_inurba_marseille","lat":43.27972,"lon":5.38749,"is_reserved":false,"is_disabled":false,"rental_uris":{"android":"levelo://app?vid=9be9c0e0-7220-4d37-a26f-22c90dd82373","ios":"levelo://app?vid=9be9c0e0-7220-4d37-a26f-22c90dd82373"},"vehicle_type_id":"4","last_reported":1747127498,"current_range_meters":26800,"station_id":"ce4bhg12rcd13ifvqf80","pricing_plan_id":"cebpf4jnsgd1na2vs0mg"},{"bike_id":"afbfcc5c-e3e4-4934-b9ce-0ea59ea96d81","system_id":"levelo_inurba_marseille","lat":43.31994,"lon":5.381635,"is_reserved":false,"is_disabled":false,"rental_uris":{"android":"levelo://app?vid=afbfcc5c-e3e4-4934-b9ce-0ea59ea96d81","ios":"levelo://app?vid=afbfcc5c-e3e4-4934-b9ce-0ea59ea96d81"},"vehicle_type_id":"4","last_reported":1747127498,"current_range_meters":26800,"station_id":"ce4bhr12rcd13ifvqhpg","pricing_plan_id":"cebpf4jnsgd1na2vs0mg"},{"bike_id":"ea7a6429-db05-4a15-8cda-c3eedbb12af8","system_id":"levelo_inurba_marseille","lat":43.29823,"lon":5.38106,"is_reserved":false,"is_disabled":false,"rental_uris":{"android":"levelo://app?vid=ea7a6429-db05-4a15-8cda-c3eedbb12af8","ios":"levelo://app?vid=ea7a6429-db05-4a15-8cda-c3eedbb12af8"},"vehicle_type_id":"4","last_reported":1747127498,"current_range_meters":27200,"station_id":"ce4bgip2rcd13ifvqbb0","pricing_plan_id":"cebpf4jnsgd1na2vs0mg"},{"bike_id":"29476b30-3c1f-4b99-afbc-204d65cc6c6e","system_id":"levelo_inurba_marseille","lat":43.28274,"lon":5.35083,"is_reserved":false,"is_disabled":false,"rental_uris":{"android":"levelo://app?vid=29476b30-3c1f-4b99-afbc-204d65cc6c6e","ios":"levelo://app?vid=29476b30-3c1f-4b99-afbc-204d65cc6c6e"},"vehicle_type_id":"4","last_reported":1747127498,"current_range_meters":27200,"station_id":"ce4bhbp2rcd13ifvqerg","pricing_plan_id":"cebpf4jnsgd1na2vs0mg"},{"bike_id":"e37750e5-3c3f-457c-8d9b-85eceb895441","system_id":"levelo_inurba_marseille","lat":43.2757,"lon":5.38435,"is_reserved":false,"is_disabled":false,"rental_uris":{"android":"levelo://app?vid=e37750e5-3c3f-457c-8d9b-85eceb895441","ios":"levelo://app?vid=e37750e5-3c3f-457c-8d9b-85eceb895441"},"vehicle_type_id":"4","last_reported":1747127498,"current_range_meters":27200,"station_id":"ce4bhh92rcd13ifvqfi0","pricing_plan_id":"cebpf4jnsgd1na2vs0mg"},{"bike_id":"6e6b015c-1eef-4bfa-9709-fe98e5a40321","system_id":"levelo_inurba_marseille","lat":43.24179,"lon":5.39721,"is_reserved":false,"is_disabled":false,"rental_uris":{"android":"levelo://app?vid=6e6b015c-1eef-4bfa-9709-fe98e5a40321","ios":"levelo://app?vid=6e6b015c-1eef-4bfa-9709-fe98e5a40321"},"vehicle_type_id":"4","last_reported":1747127498,"current_range_meters":27200,"station_id":"ce4bhn12rcd13ifvqgpg","pricing_plan_id":"cebpf4jnsgd1na2vs0mg"},{"bike_id":"abd61381-08b3-429a-8c74-3556a1fd67ba","system_id":"levelo_inurba_marseille","lat":43.24067,"lon":5.37769,"is_reserved":false,"is_disabled":false,"rental_uris":{"android":"levelo://app?vid=abd61381-08b3-429a-8c74-3556a1fd67ba","ios":"levelo://app?vid=abd61381-08b3-429a-8c74-3556a1fd67ba"},"vehicle_type_id":"4","last_reported":1747127498,"current_range_meters":27200,"station_id":"ce4bhnp2rcd13ifvqgvg","pricing_plan_id":"cebpf4jnsgd1na2vs0mg"},{"bike_id":"6aa73b36-7d54-4b4e-bdb4-2b5a5d075e41","system_id":"levelo_inurba_marseille","lat":43.34138,"lon":5.40905,"is_reserved":false,"is_disabled":false,"rental_uris":{"android":"levelo://app?vid=6aa73b36-7d54-4b4e-bdb4-2b5a5d075e41","ios":"levelo://app?vid=6aa73b36-7d54-4b4e-bdb4-2b5a5d075e41"},"vehicle_type_id":"4","last_reported":1747127498,"current_range_meters":27200,"station_id":"ce4bhqh2rcd13ifvqhlg","pricing_plan_id":"cebpf4jnsgd1na2vs0mg"},{"bike_id":"354f0639-e2ee-49bc-b649-f0d89cf9efb0","system_id":"levelo_inurba_marseille","lat":43.324783,"lon":5.365605,"is_reserved":false,"is_disabled":false,"rental_uris":{"android":"levelo://app?vid=354f0639-e2ee-49bc-b649-f0d89cf9efb0","ios":"levelo://app?vid=354f0639-e2ee-49bc-b649-f0d89cf9efb0"},"vehicle_type_id":"4","last_reported":1747127498,"current_range_meters":27200,"station_id":"ce4bhs12rcd13ifvqhvg","pricing_plan_id":"cebpf4jnsgd1na2vs0mg"},{"bike_id":"3ed7b136-7e44-4e26-9e34-6d57d42640a6","system_id":"levelo_inurba_marseille","lat":43.32367,"lon":5.36768,"is_reserved":false,"is_disabled":false,"rental_uris":{"android":"levelo://app?vid=3ed7b136-7e44-4e26-9e34-6d57d42640a6","ios":"levelo://app?vid=3ed7b136-7e44-4e26-9e34-6d57d42640a6"},"vehicle_type_id":"4","last_reported":1747127498,"current_range_meters":27200,"station_id":"ce4bhsh2rcd13ifvqi2g","pricing_plan_id":"cebpf4jnsgd1na2vs0mg"},{"bike_id":"3f9fc2f0-9223-4e10-83fe-f5bf34ba666b","system_id":"levelo_inurba_marseille","lat":43.2306,"lon":5.35493,"is_reserved":false,"is_disabled":false,"rental_uris":{"android":"levelo://app?vid=3f9fc2f0-9223-4e10-83fe-f5bf34ba666b","ios":"levelo://app?vid=3f9fc2f0-9223-4e10-83fe-f5bf34ba666b"},"vehicle_type_id":"4","last_reported":1747127498,"current_range_meters":27200,"station_id":"cpo3342slgdg3j2ifvpg","pricing_plan_id":"cebpf4jnsgd1na2vs0mg"},{"bike_id":"46ab028b-9d32-4971-80e5-a40b708e41c2","system_id":"levelo_inurba_marseille","lat":43.31229,"lon":5.3685,"is_reserved":false,"is_disabled":false,"rental_uris":{"android":"levelo://app?vid=46ab028b-9d32-4971-80e5-a40b708e41c2","ios":"levelo://app?vid=46ab028b-9d32-4971-80e5-a40b708e41c2"},"vehicle_type_id":"4","last_reported":1747127498,"current_range_meters":27600,"station_id":"ce4bgl92rcd13ifvqbq0","pricing_plan_id":"cebpf4jnsgd1na2vs0mg"},{"bike_id":"5e8c3e97-ce12-482b-a08b-84b3250882af","system_id":"levelo_inurba_marseille","lat":43.30134,"lon":5.37412,"is_reserved":false,"is_disabled":false,"rental_uris":{"android":"levelo://app?vid=5e8c3e97-ce12-482b-a08b-84b3250882af","ios":"levelo://app?vid=5e8c3e97-ce12-482b-a08b-84b3250882af"},"vehicle_type_id":"4","last_reported":1747127498,"current_range_meters":27600,"station_id":"ce4bgs92rcd13ifvqcc0","pricing_plan_id":"cebpf4jnsgd1na2vs0mg"},{"bike_id":"c5a0264c-0389-4db6-aebc-800847a98a33","system_id":"levelo_inurba_marseille","lat":43.29569,"lon":5.39984,"is_reserved":false,"is_disabled":false,"rental_uris":{"android":"levelo://app?vid=c5a0264c-0389-4db6-aebc-800847a98a33","ios":"levelo://app?vid=c5a0264c-0389-4db6-aebc-800847a98a33"},"vehicle_type_id":"4","last_reported":1747127498,"current_range_meters":27600,"station_id":"ce4bh312rcd13ifvqdj0","pricing_plan_id":"cebpf4jnsgd1na2vs0mg"},{"bike_id":"fa9b5eb1-3a93-479a-8cb9-213b854bfdc2","system_id":"levelo_inurba_marseille","lat":43.28271,"lon":5.35078,"is_reserved":false,"is_disabled":false,"rental_uris":{"android":"levelo://app?vid=fa9b5eb1-3a93-479a-8cb9-213b854bfdc2","ios":"levelo://app?vid=fa9b5eb1-3a93-479a-8cb9-213b854bfdc2"},"vehicle_type_id":"4","last_reported":1747127498,"current_range_meters":27600,"station_id":"ce4bhbp2rcd13ifvqerg","pricing_plan_id":"cebpf4jnsgd1na2vs0mg"},{"bike_id":"f94ef5b5-00a7-4167-bd13-7643012a5b05","system_id":"levelo_inurba_marseille","lat":43.28264,"lon":5.3506,"is_reserved":false,"is_disabled":false,"rental_uris":{"android":"levelo://app?vid=f94ef5b5-00a7-4167-bd13-7643012a5b05","ios":"levelo://app?vid=f94ef5b5-00a7-4167-bd13-7643012a5b05"},"vehicle_type_id":"4","last_reported":1747127498,"current_range_meters":27600,"station_id":"ce4bhbp2rcd13ifvqerg","pricing_plan_id":"cebpf4jnsgd1na2vs0mg"},{"bike_id":"c77de246-b1d1-4d0c-b58a-1365550c0409","system_id":"levelo_inurba_marseille","lat":43.24403,"lon":5.37108,"is_reserved":false,"is_disabled":false,"rental_uris":{"android":"levelo://app?vid=c77de246-b1d1-4d0c-b58a-1365550c0409","ios":"levelo://app?vid=c77de246-b1d1-4d0c-b58a-1365550c0409"},"vehicle_type_id":"4","last_reported":1747127498,"current_range_meters":27600,"station_id":"ce4bhhh2rcd13ifvqfk0","pricing_plan_id":"cebpf4jnsgd1na2vs0mg"},{"bike_id":"dd03de54-abbd-4017-b90b-3915fbd6f4b3","system_id":"levelo_inurba_marseille","lat":43.24398,"lon":5.37049,"is_reserved":false,"is_disabled":false,"rental_uris":{"android":"levelo://app?vid=dd03de54-abbd-4017-b90b-3915fbd6f4b3","ios":"levelo://app?vid=dd03de54-abbd-4017-b90b-3915fbd6f4b3"},"vehicle_type_id":"4","last_reported":1747127498,"current_range_meters":27600,"station_id":"ce4bhhh2rcd13ifvqfk0","pricing_plan_id":"cebpf4jnsgd1na2vs0mg"},{"bike_id":"3015caa5-c6e8-446b-ada8-4c9f9c36d485","system_id":"levelo_inurba_marseille","lat":43.23964,"lon":5.36626,"is_reserved":false,"is_disabled":false,"rental_uris":{"android":"levelo://app?vid=3015caa5-c6e8-446b-ada8-4c9f9c36d485","ios":"levelo://app?vid=3015caa5-c6e8-446b-ada8-4c9f9c36d485"},"vehicle_type_id":"4","last_reported":1747127498,"current_range_meters":27600,"station_id":"ce4bhi12rcd13ifvqfp0","pricing_plan_id":"cebpf4jnsgd1na2vs0mg"},{"bike_id":"7cb272c0-54b3-4b4f-b695-69fd48307e60","system_id":"levelo_inurba_marseille","lat":43.32354,"lon":5.36762,"is_reserved":false,"is_disabled":false,"rental_uris":{"android":"levelo://app?vid=7cb272c0-54b3-4b4f-b695-69fd48307e60","ios":"levelo://app?vid=7cb272c0-54b3-4b4f-b695-69fd48307e60"},"vehicle_type_id":"4","last_reported":1747127498,"current_range_meters":27600,"station_id":"ce4bhsh2rcd13ifvqi2g","pricing_plan_id":"cebpf4jnsgd1na2vs0mg"},{"bike_id":"c351ad74-cfad-4524-b23a-5f995cfa52ab","system_id":"levelo_inurba_marseille","lat":43.225035,"lon":5.347858,"is_reserved":false,"is_disabled":false,"rental_uris":{"android":"levelo://app?vid=c351ad74-cfad-4524-b23a-5f995cfa52ab","ios":"levelo://app?vid=c351ad74-cfad-4524-b23a-5f995cfa52ab"},"vehicle_type_id":"4","last_reported":1747127498,"current_range_meters":27600,"station_id":"st_cvj5dfep6f1abm77gieg","pricing_plan_id":"cebpf4jnsgd1na2vs0mg"},{"bike_id":"10ccab54-9705-4f1e-a14e-6f8853e7bfb2","system_id":"levelo_inurba_marseille","lat":43.29705,"lon":5.36616,"is_reserved":false,"is_disabled":false,"rental_uris":{"android":"levelo://app?vid=10ccab54-9705-4f1e-a14e-6f8853e7bfb2","ios":"levelo://app?vid=10ccab54-9705-4f1e-a14e-6f8853e7bfb2"},"vehicle_type_id":"4","last_reported":1747127498,"current_range_meters":28000,"station_id":"ce4bgn12rcd13ifvqbt0","pricing_plan_id":"cebpf4jnsgd1na2vs0mg"},{"bike_id":"9ba5d4e5-9628-401d-a874-938033a7227f","system_id":"levelo_inurba_marseille","lat":43.31365,"lon":5.36705,"is_reserved":false,"is_disabled":false,"rental_uris":{"android":"levelo://app?vid=9ba5d4e5-9628-401d-a874-938033a7227f","ios":"levelo://app?vid=9ba5d4e5-9628-401d-a874-938033a7227f"},"vehicle_type_id":"4","last_reported":1747127498,"current_range_meters":28000,"station_id":"ce4bgr92rcd13ifvqc6g","pricing_plan_id":"cebpf4jnsgd1na2vs0mg"},{"bike_id":"d4155e94-36ef-491f-9d23-4f1f2283b204","system_id":"levelo_inurba_marseille","lat":43.26675,"lon":5.38268,"is_reserved":false,"is_disabled":false,"rental_uris":{"android":"levelo://app?vid=d4155e94-36ef-491f-9d23-4f1f2283b204","ios":"levelo://app?vid=d4155e94-36ef-491f-9d23-4f1f2283b204"},"vehicle_type_id":"4","last_reported":1747127498,"current_range_meters":28000,"station_id":"ce4bhg92rcd13ifvqf90","pricing_plan_id":"cebpf4jnsgd1na2vs0mg"},{"bike_id":"bcb58bac-36ca-45d6-a11e-c72afe3a56f8","system_id":"levelo_inurba_marseille","lat":43.25578,"lon":5.38227,"is_reserved":false,"is_disabled":false,"rental_uris":{"android":"levelo://app?vid=bcb58bac-36ca-45d6-a11e-c72afe3a56f8","ios":"levelo://app?vid=bcb58bac-36ca-45d6-a11e-c72afe3a56f8"},"vehicle_type_id":"4","last_reported":1747127498,"current_range_meters":28000,"station_id":"ce4bhih2rcd13ifvqfs0","pricing_plan_id":"cebpf4jnsgd1na2vs0mg"},{"bike_id":"332f48e0-6c0d-4dc9-b928-db4971df28b4","system_id":"levelo_inurba_marseille","lat":43.25573,"lon":5.38228,"is_reserved":false,"is_disabled":false,"rental_uris":{"android":"levelo://app?vid=332f48e0-6c0d-4dc9-b928-db4971df28b4","ios":"levelo://app?vid=332f48e0-6c0d-4dc9-b928-db4971df28b4"},"vehicle_type_id":"4","last_reported":1747127498,"current_range_meters":28000,"station_id":"ce4bhih2rcd13ifvqfs0","pricing_plan_id":"cebpf4jnsgd1na2vs0mg"},{"bike_id":"3648d500-b24b-455e-83ac-6ee31517ced8","system_id":"levelo_inurba_marseille","lat":43.25914,"lon":5.40896,"is_reserved":false,"is_disabled":false,"rental_uris":{"android":"levelo://app?vid=3648d500-b24b-455e-83ac-6ee31517ced8","ios":"levelo://app?vid=3648d500-b24b-455e-83ac-6ee31517ced8"},"vehicle_type_id":"4","last_reported":1747127498,"current_range_meters":28000,"station_id":"ce4bhm92rcd13ifvqglg","pricing_plan_id":"cebpf4jnsgd1na2vs0mg"},{"bike_id":"9d9b482c-9ef8-4321-995f-ac6d0e421b8c","system_id":"levelo_inurba_marseille","lat":43.27493,"lon":5.42451,"is_reserved":false,"is_disabled":false,"rental_uris":{"android":"levelo://app?vid=9d9b482c-9ef8-4321-995f-ac6d0e421b8c","ios":"levelo://app?vid=9d9b482c-9ef8-4321-995f-ac6d0e421b8c"},"vehicle_type_id":"4","last_reported":1747127498,"current_range_meters":28000,"station_id":"ce4bhn92rcd13ifvqgrg","pricing_plan_id":"cebpf4jnsgd1na2vs0mg"},{"bike_id":"71c2fcf2-83a5-4c95-823f-a80663e49863","system_id":"levelo_inurba_marseille","lat":43.24067,"lon":5.3776,"is_reserved":false,"is_disabled":false,"rental_uris":{"android":"levelo://app?vid=71c2fcf2-83a5-4c95-823f-a80663e49863","ios":"levelo://app?vid=71c2fcf2-83a5-4c95-823f-a80663e49863"},"vehicle_type_id":"4","last_reported":1747127498,"current_range_meters":28000,"station_id":"ce4bhnp2rcd13ifvqgvg","pricing_plan_id":"cebpf4jnsgd1na2vs0mg"},