{"last_updated":1741100994,"ttl":60,"version":"2.2","data":{"bikes":[{"bike_id":"eb3477d3-e423-4bfa-8137-9e0de0b3c3a7","system_id":"levelo_inurba_marseille","lat":43.27061,"lon":5.40278,"is_reserved":false,"is_disabled":false,"rental_uris":{"android":"levelo://app?vid=eb3477d3-e423-4bfa-8137-9e0de0b3c3a7","ios":"levelo://app?vid=eb3477d3-e423-4bfa-8137-9e0de0b3c3a7"},"vehicle_type_id":"4","last_reported":1741100994,"current_range_meters":2800,"station_id":"ce4bhk92rcd13ifvqgc0","pricing_plan_id":"cebpf4jnsgd1na2vs0mg"},{"bike_id":"7284a1c0-0d28-435b-9bb4-8805f7b58914","system_id":"levelo_inurba_marseille","lat":43.28266,"lon":5.35062,"is_reserved":false,"is_disabled":false,"rental_uris":{"android":"levelo://app?vid=7284a1c0-0d28-435b-9bb4-8805f7b58914","ios":"levelo://app?vid=7284a1c0-0d28-435b-9bb4-8805f7b58914"},"vehicle_type_id":"4","last_reported":1741100994,"current_range_meters":4800,"station_id":"ce4bhbp2rcd13ifvqerg","pricing_plan_id":"cebpf4jnsgd1na2vs0mg"},{"bike_id":"873a1958-8daf-4781-901e-6effd39687aa","system_id":"levelo_inurba_marseille","lat":43.2957,"lon":5.39985,"is_reserved":false,"is_disabled":false,"rental_uris":{"android":"levelo://app?vid=873a1958-8daf-4781-901e-6effd39687aa","ios":"levelo://app?vid=873a1958-8daf-4781-901e-6effd39687aa"},"vehicle_type_id":"4","last_reported":1741100994,"current_range_meters":0,"station_id":"ce4bh312rcd13ifvqdj0","pricing_plan_id":"cebpf4jnsgd1na2vs0mg"},{"bike_id":"abdf75d8-7251-48e6-9f4b-47d55c5f2c00","system_id":"levelo_inurba_marseille","lat":43.28419,"lon":5.34989,"is_reserved":false,"is_disabled":false,"rental_uris":{"android":"levelo://app?vid=abdf75d8-7251-48e6-9f4b-47d55c5f2c00","ios":"levelo://app?vid=abdf75d8-7251-48e6-9f4b-47d55c5f2c00"},"vehicle_type_id":"4","last_reported":1741100994,"current_range_meters":3200,"station_id":"ce4bhbh2rcd13ifvqepg","pricing_plan_id":"cebpf4jnsgd1na2vs0mg"},{"bike_id":"4cc02c62-6a03-433e-85d1-a46998cb476e","system_id":"levelo_inurba_marseille","lat":43.26802,"lon":5.40269,"is_reserved":false,"is_disabled":false,"rental_uris":{"android":"levelo://app?vid=4cc02c62-6a03-433e-85d1-a46998cb476e","ios":"levelo://app?vid=4cc02c62-6a03-433e-85d1-a46998cb476e"},"vehicle_type_id":"4","last_reported":1741100994,"current_range_meters":3600,"station_id":"ce501612rcd8frsf0b60","pricing_plan_id":"cebpf4jnsgd1na2vs0mg"},{"bike_id":"73681137-6538-4684-87ec-aa9b29720d1e","system_id":"levelo_inurba_marseille","lat":43.23195,"lon":5.35555,"is_reserved":false,"is_disabled":true,"rental_uris":{"android":"levelo://app?vid=73681137-6538-4684-87ec-aa9b29720d1e","ios":"levelo://app?vid=73681137-6538-4684-87ec-aa9b29720d1e"},"vehicle_type_id":"4","last_reported":1741100994,"current_range_meters":3600,"station_id":"ce4bhu92rcd13ifvqi70","pricing_plan_id":"cebpf4jnsgd1na2vs0mg"},{"bike_id":"09ac88d6-8bbb-475f-af23-926ac10f1a1d","system_id":"levelo_inurba_marseille","lat":43.28095,"lon":5.37852,"is_reserved":false,"is_disabled":false,"rental_uris":{"android":"levelo://app?vid=09ac88d6-8bbb-475f-af23-926ac10f1a1d","ios":"levelo://app?vid=09ac88d6-8bbb-475f-af23-926ac10f1a1d"},"vehicle_type_id":"4","last_reported":1741100994,"current_range_meters":4000,"station_id":"ce4bha12rcd13ifvqee0","pricing_plan_id":"cebpf4jnsgd1na2vs0mg"},{"bike_id":"312bba72-d1f4-421f-8bfc-d71d4d72b57c","system_id":"levelo_inurba_marseille","lat":43.3031,"lon":5.40451,"is_reserved":false,"is_disabled":false,"rental_uris":{"android":"levelo://app?vid=312bba72-d1f4-421f-8bfc-d71d4d72b57c","ios":"levelo://app?vid=312bba72-d1f4-421f-8bfc-d71d4d72b57c"},"vehicle_type_id":"4","last_reported":1741100994,"current_range_meters":4000,"station_id":"ce4bh012rcd13ifvqd10","pricing_plan_id":"cebpf4jnsgd1na2vs0mg"},{"bike_id":"7e05e185-7c16-4ac6-96b5-f35ce77e6843","system_id":"levelo_inurba_marseille","lat":43.290261,"lon":5.38645,"is_reserved":false,"is_disabled":false,"rental_uris":{"android":"levelo://app?vid=7e05e185-7c16-4ac6-96b5-f35ce77e6843","ios":"levelo://app?vid=7e05e185-7c16-4ac6-96b5-f35ce77e6843"},"vehicle_type_id":"4","last_reported":1741100994,"current_range_meters":4000,"station_id":"ce4bh4p2rcd13ifvqe0g","pricing_plan_id":"cebpf4jnsgd1na2vs0mg"},{"bike_id":"2d4e1c3e-7392-4616-b3cf-646345a17bd5","system_id":"levelo_inurba_marseille","lat":43.29547,"lon":5.42283,"is_reserved":false,"is_disabled":false,"rental_uris":{"android":"levelo://app?vid=2d4e1c3e-7392-4616-b3cf-646345a17bd5","ios":"levelo://app?vid=2d4e1c3e-7392-4616-b3cf-646345a17bd5"},"vehicle_type_id":"4","last_reported":1741100994,"current_range_meters":4400,"station_id":"ce4bhph2rcd13ifvqhdg","pricing_plan_id":"cebpf4jnsgd1na2vs0mg"},{"bike_id":"0ac18e02-bb82-4d6b-9ee6-0c7da5ed9dfe","system_id":"levelo_inurba_marseille","lat":43.28421,"lon":5.34976,"is_reserved":false,"is_disabled":false,"rental_uris":{"android":"levelo://app?vid=0ac18e02-bb82-4d6b-9ee6-0c7da5ed9dfe","ios":"levelo://app?vid=0ac18e02-bb82-4d6b-9ee6-0c7da5ed9dfe"},"vehicle_type_id":"4","last_reported":1741100994,"current_range_meters":4400,"station_id":"ce4bhbh2rcd13ifvqepg","pricing_plan_id":"cebpf4jnsgd1na2vs0mg"},{"bike_id":"9db49163-1bcf-4cb4-975b-b1e9ddf4e6d9","system_id":"levelo_inurba_marseille","lat":43.27174,"lon":5.40998,"is_reserved":false,"is_disabled":false,"rental_uris":{"android":"levelo://app?vid=9db49163-1bcf-4cb4-975b-b1e9ddf4e6d9","ios":"levelo://app?vid=9db49163-1bcf-4cb4-975b-b1e9ddf4e6d9"},"vehicle_type_id":"4","last_reported":1741100994,"current_range_meters":4400,"station_id":"ce4bhl12rcd13ifvqgf0","pricing_plan_id":"cebpf4jnsgd1na2vs0mg"},{"bike_id":"ef26013c-0f78-4ac5-b6b1-e2dc4c7f5d4c","system_id":"levelo_inurba_marseille","lat":43.3372,"lon":5.39187,"is_reserved":false,"is_disabled":false,"rental_uris":{"android":"levelo://app?vid=ef26013c-0f78-4ac5-b6b1-e2dc4c7f5d4c","ios":"levelo://app?vid=ef26013c-0f78-4ac5-b6b1-e2dc4c7f5d4c"},"vehicle_type_id":"4","last_reported":1741100994,"current_range_meters":4800,"station_id":"ce4bhr92rcd13ifvqhsg","pricing_plan_id":"cebpf4jnsgd1na2vs0mg"},{"bike_id":"4475459a-a7e3-4883-9138-9d6ec8a091e9","system_id":"levelo_inurba_marseille","lat":43.30192,"lon":5.36632,"is_reserved":false,"is_disabled":false,"rental_uris":{"android":"levelo://app?vid=4475459a-a7e3-4883-9138-9d6ec8a091e9","ios":"levelo://app?vid=4475459a-a7e3-4883-9138-9d6ec8a091e9"},"vehicle_type_id":"4","last_reported":1741100994,"current_range_meters":9200,"station_id":"ce4bgrh2rcd13ifvqc8g","pricing_plan_id":"cebpf4jnsgd1na2vs0mg"},{"bike_id":"b6565819-affe-4883-a2b8-02d5ad089c30","system_id":"levelo_inurba_marseille","lat":43.31333,"lon":5.39695,"is_reserved":false,"is_disabled":false,"rental_uris":{"android":"levelo://app?vid=b6565819-affe-4883-a2b8-02d5ad089c30","ios":"levelo://app?vid=b6565819-affe-4883-a2b8-02d5ad089c30"},"vehicle_type_id":"4","last_reported":1741100994,"current_range_meters":4800,"station_id":"ce4bgvp2rcd13ifvqcu0","pricing_plan_id":"cebpf4jnsgd1na2vs0mg"},{"bike_id":"0427f646-e4a0-42d1-8138-294cce7dc368","system_id":"levelo_inurba_marseille","lat":43.30783,"lon":5.37655,"is_reserved":false,"is_disabled":false,"rental_uris":{"android":"levelo://app?vid=0427f646-e4a0-42d1-8138-294cce7dc368","ios":"levelo://app?vid=0427f646-e4a0-42d1-8138-294cce7dc368"},"vehicle_type_id":"4","last_reported":1741100994,"current_range_meters":4800,"station_id":"","pricing_plan_id":"cebpf4jnsgd1na2vs0mg"},{"bike_id":"22a42445-ea5f-4116-ba23-1aaadec49bb4","system_id":"levelo_inurba_marseille","lat":43.28428,"lon":5.35894,"is_reserved":false,"is_disabled":false,"rental_uris":{"android":"levelo://app?vid=22a42445-ea5f-4116-ba23-1aaadec49bb4","ios":"levelo://app?vid=22a42445-ea5f-4116-ba23-1aaadec49bb4"},"vehicle_type_id":"4","last_reported":1741100994,"current_range_meters":5600,"station_id":"ce4bhah2rcd13ifvqei0","pricing_plan_id":"cebpf4jnsgd1na2vs0mg"},{"bike_id":"56beb6e4-d867-4dda-87d4-855cd34962a5","system_id":"levelo_inurba_marseille","lat":43.29095,"lon":5.38159,"is_reserved":false,"is_disabled":true,"rental_uris":{"android":"levelo://app?vid=56beb6e4-d867-4dda-87d4-855cd34962a5","ios":"levelo://app?vid=56beb6e4-d867-4dda-87d4-855cd34962a5"},"vehicle_type_id":"4","last_reported":1741100994,"current_range_meters":5600,"station_id":"ce4bh512rcd13ifvqe2g","pricing_plan_id":"cebpf4jnsgd1na2vs0mg"},{"bike_id":"104f3800-2e74-4470-8a08-bf8c0f86f9f8","system_id":"levelo_inurba_marseille","lat":43.27799,"lon":5.40708,"is_reserved":false,"is_disabled":false,"rental_uris":{"android":"levelo://app?vid=104f3800-2e74-4470-8a08-bf8c0f86f9f8","ios":"levelo://app?vid=104f3800-2e74-4470-8a08-bf8c0f86f9f8"},"vehicle_type_id":"4","last_reported":1741100994,"current_range_meters":6000,"station_id":"ce4bhnh2rcd13ifvqgtg","pricing_plan_id":"cebpf4jnsgd1na2vs0mg"},{"bike_id":"3339b425-1047-4796-b599-b9068b8de799","system_id":"levelo_inurba_marseille","lat":43.29528,"lon":5.38548,"is_reserved":false,"is_disabled":false,"rental_uris":{"android":"levelo://app?vid=3339b425-1047-4796-b599-b9068b8de799","ios":"levelo://app?vid=3339b425-1047-4796-b599-b9068b8de799"},"vehicle_type_id":"4","last_reported":1741100994,"current_range_meters":6000,"station_id":"ce4bgih2rcd13ifvqba0","pricing_plan_id":"cebpf4jnsgd1na2vs0mg"},{"bike_id":"8a6b9671-76fd-4131-bfc8-58dba74e3691","system_id":"levelo_inurba_marseille","lat":43.34143,"lon":5.409,"is_reserved":false,"is_disabled":false,"rental_uris":{"android":"levelo://app?vid=8a6b9671-76fd-4131-bfc8-58dba74e3691","ios":"levelo://app?vid=8a6b9671-76fd-4131-bfc8-58dba74e3691"},"vehicle_type_id":"4","last_reported":1741100994,"current_range_meters":6000,"station_id":"ce4bhqh2rcd13ifvqhlg","pricing_plan_id":"cebpf4jnsgd1na2vs0mg"},{"bike_id":"9c8592be-5b14-45f9-b4e5-1e0076fda584","system_id":"levelo_inurba_marseille","lat":43.27942,"lon":5.41036,"is_reserved":false,"is_disabled":false,"rental_uris":{"android":"levelo://app?vid=9c8592be-5b14-45f9-b4e5-1e0076fda584","ios":"levelo://app?vid=9c8592be-5b14-45f9-b4e5-1e0076fda584"},"vehicle_type_id":"4","last_reported":1741100994,"current_range_meters":6000,"station_id":"ce4bhnp2rcd13ifvqh0g","pricing_plan_id":"cebpf4jnsgd1na2vs0mg"},{"bike_id":"ae956c55-ae59-4413-aad2-1bcd22c3a50c","system_id":"levelo_inurba_marseille","lat":43.28419,"lon":5.34978,"is_reserved":false,"is_disabled":false,"rental_uris":{"android":"levelo://app?vid=ae956c55-ae59-4413-aad2-1bcd22c3a50c","ios":"levelo://app?vid=ae956c55-ae59-4413-aad2-1bcd22c3a50c"},"vehicle_type_id":"4","last_reported":1741100994,"current_range_meters":6000,"station_id":"ce4bhbh2rcd13ifvqepg","pricing_plan_id":"cebpf4jnsgd1na2vs0mg"},{"bike_id":"5e343b66-9b3f-4478-823a-bcf596cb163d","system_id":"levelo_inurba_marseille","lat":43.30415,"lon":5.41289,"is_reserved":false,"is_disabled":false,"rental_uris":{"android":"levelo://app?vid=5e343b66-9b3f-4478-823a-bcf596cb163d","ios":"levelo://app?vid=5e343b66-9b3f-4478-823a-bcf596cb163d"},"vehicle_type_id":"4","last_reported":1741100994,"current_range_meters":6000,"station_id":"ce4bhop2rcd13ifvqh8g","pricing_plan_id":"cebpf4jnsgd1na2vs0mg"},{"bike_id":"2153cca3-a190-4982-9370-a46f24ffe4b0","system_id":"levelo_inurba_marseille","lat":43.27066,"lon":5.40254,"is_reserved":false,"is_disabled":false,"rental_uris":{"android":"levelo://app?vid=2153cca3-a190-4982-9370-a46f24ffe4b0","ios":"levelo://app?vid=2153cca3-a190-4982-9370-a46f24ffe4b0"},"vehicle_type_id":"4","last_reported":1741100994,"current_range_meters":6400,"station_id":"ce4bhk92rcd13ifvqgc0","pricing_plan_id":"cebpf4jnsgd1na2vs0mg"},{"bike_id":"cb517f75-ae80-4466-ad7c-2981c272b80f","system_id":"levelo_inurba_marseille","lat":43.23965,"lon":5.36656,"is_reserved":false,"is_disabled":false,"rental_uris":{"android":"levelo://app?vid=cb517f75-ae80-4466-ad7c-2981c272b80f","ios":"levelo://app?vid=cb517f75-ae80-4466-ad7c-2981c272b80f"},"vehicle_type_id":"4","last_reported":1741100994,"current_range_meters":6800,"station_id":"ce4bhi12rcd13ifvqfp0","pricing_plan_id":"cebpf4jnsgd1na2vs0mg"},{"bike_id":"90a47c55-7d0c-4b6b-94e5-81e21155469e","system_id":"levelo_inurba_marseille","lat":43.23141,"lon":5.4372,"is_reserved":false,"is_disabled":false,"rental_uris":{"android":"levelo://app?vid=90a47c55-7d0c-4b6b-94e5-81e21155469e","ios":"levelo://app?vid=90a47c55-7d0c-4b6b-94e5-81e21155469e"},"vehicle_type_id":"4","last_reported":1741100994,"current_range_meters":6400,"station_id":"ce4bhmp2rcd13ifvqgog","pricing_plan_id":"cebpf4jnsgd1na2vs0mg"},{"bike_id":"0ffd8aab-92fe-4a39-9f31-f7c7bf90e861","system_id":"levelo_inurba_marseille","lat":43.30275,"lon":5.37712,"is_reserved":false,"is_disabled":false,"rental_uris":{"android":"levelo://app?vid=0ffd8aab-92fe-4a39-9f31-f7c7bf90e861","ios":"levelo://app?vid=0ffd8aab-92fe-4a39-9f31-f7c7bf90e861"},"vehicle_type_id":"4","last_reported":1741100994,"current_range_meters":6400,"station_id":"ce4bguh2rcd13ifvqcj0","pricing_plan_id":"cebpf4jnsgd1na2vs0mg"},{"bike_id":"8c30fd47-e04b-434d-90e0-a52c95cfc5f7","system_id":"levelo_inurba_marseille","lat":43.251293,"lon":5.403233,"is_reserved":false,"is_disabled":false,"rental_uris":{"android":"levelo://app?vid=8c30fd47-e04b-434d-90e0-a52c95cfc5f7","ios":"levelo://app?vid=8c30fd47-e04b-434d-90e0-a52c95cfc5f7"},"vehicle_type_id":"4","last_reported":1741100994,"current_range_meters":6400,"station_id":"ce4bhlh2rcd13ifvqgig","pricing_plan_id":"cebpf4jnsgd1na2vs0mg"},{"bike_id":"69539ccb-ca63-4555-bd43-968ddad5c3c6","system_id":"levelo_inurba_marseille","lat":43.25017,"lon":5.389,"is_reserved":false,"is_disabled":false,"rental_uris":{"android":"levelo://app?vid=69539ccb-ca63-4555-bd43-968ddad5c3c6","ios":"levelo://app?vid=69539ccb-ca63-4555-bd43-968ddad5c3c6"},"vehicle_type_id":"4","last_reported":1741100994,"current_range_meters":6400,"station_id":"ce4bhgp2rcd13ifvqfd0","pricing_plan_id":"cebpf4jnsgd1na2vs0mg"},{"bike_id":"ce8ef3d2-07e3-4512-8813-bcde53a01429","system_id":"levelo_inurba_marseille","lat":43.24174,"lon":5.3638,"is_reserved":false,"is_disabled":false,"rental_uris":{"android":"levelo://app?vid=ce8ef3d2-07e3-4512-8813-bcde53a01429","ios":"levelo://app?vid=ce8ef3d2-07e3-4512-8813-bcde53a01429"},"vehicle_type_id":"4","last_reported":1741100994,"current_range_meters":6800,"station_id":"cpo36qri1sfpv3e86is0","pricing_plan_id":"cebpf4jnsgd1na2vs0mg"},{"bike_id":"bc0d733a-761d-421f-a1de-1712be64d328","system_id":"levelo_inurba_marseille","lat":43.23199,"lon":5.39992,"is_reserved":false,"is_disabled":false,"rental_uris":{"android":"levelo://app?vid=bc0d733a-761d-421f-a1de-1712be64d328","ios":"levelo://app?vid=bc0d733a-761d-421f-a1de-1712be64d328"},"vehicle_type_id":"4","last_reported":1741100994,"current_range_meters":6800,"station_id":"ce4bhn12rcd13ifvqgqg","pricing_plan_id":"cebpf4jnsgd1na2vs0mg"},{"bike_id":"0a4b172e-f4ec-4153-bb0b-442ec431b8c1","system_id":"levelo_inurba_marseille","lat":43.30809,"lon":5.38156,"is_reserved":false,"is_disabled":false,"rental_uris":{"android":"levelo://app?vid=0a4b172e-f4ec-4153-bb0b-442ec431b8c1","ios":"levelo://app?vid=0a4b172e-f4ec-4153-bb0b-442ec431b8c1"},"vehicle_type_id":"4","last_reported":1741100994,"current_range_meters":6800,"station_id":"ce4bgt12rcd13ifvqce0","pricing_plan_id":"cebpf4jnsgd1na2vs0mg"},{"bike_id":"3fdc9a7e-2885-4db2-b302-c77e590b4771","system_id":"levelo_inurba_marseille","lat":43.31031,"lon":5.37562,"is_reserved":false,"is_disabled":false,"rental_uris":{"android":"levelo://app?vid=3fdc9a7e-2885-4db2-b302-c77e590b4771","ios":"levelo://app?vid=3fdc9a7e-2885-4db2-b302-c77e590b4771"},"vehicle_type_id":"4","last_reported":1741100994,"current_range_meters":6800,"station_id":"","pricing_plan_id":"cebpf4jnsgd1na2vs0mg"},{"bike_id":"6c05f6d8-e0a2-4563-a7b4-74fc478290cb","system_id":"levelo_inurba_marseille","lat":43.28103,"lon":5.3784,"is_reserved":false,"is_disabled":false,"rental_uris":{"android":"levelo://app?vid=6c05f6d8-e0a2-4563-a7b4-74fc478290cb","ios":"levelo://app?vid=6c05f6d8-e0a2-4563-a7b4-74fc478290cb"},"vehicle_type_id":"4","last_reported":1741100994,"current_range_meters":6800,"station_id":"ce4bha12rcd13ifvqee0","pricing_plan_id":"cebpf4jnsgd1na2vs0mg"},{"bike_id":"31021da1-404f-4022-9c9a-d714a94021fc","system_id":"levelo_inurba_marseille","lat":43.28098,"lon":5.37849,"is_reserved":false,"is_disabled":false,"rental_uris":{"android":"levelo://app?vid=31021da1-404f-4022-9c9a-d714a94021fc","ios":"levelo://app?vid=31021da1-404f-4022-9c9a-d714a94021fc"},"vehicle_type_id":"4","last_reported":1741100994,"current_range_meters":6800,"station_id":"ce4bha12rcd13ifvqee0","pricing_plan_id":"cebpf4jnsgd1na2vs0mg"},{"bike_id":"d92ef798-9954-4145-8001-398ac411a082","system_id":"levelo_inurba_marseille","lat":43.281,"lon":5.37843,"is_reserved":false,"is_disabled":false,"rental_uris":{"android":"levelo://app?vid=d92ef798-9954-4145-8001-398ac411a082","ios":"levelo://app?vid=d92ef798-9954-4145-8001-398ac411a082"},"vehicle_type_id":"4","last_reported":1741100994,"current_range_meters":7200,"station_id":"ce4bha12rcd13ifvqee0","pricing_plan_id":"cebpf4jnsgd1na2vs0mg"},{"bike_id":"a6f93d1c-3e49-4d7b-bb32-154ea93e2404","system_id":"levelo_inurba_marseille","lat":43.30179,"lon":5.36609,"is_reserved":false,"is_disabled":false,"rental_uris":{"android":"levelo://app?vid=a6f93d1c-3e49-4d7b-bb32-154ea93e2404","ios":"levelo://app?vid=a6f93d1c-3e49-4d7b-bb32-154ea93e2404"},"vehicle_type_id":"4","last_reported":1741100994,"current_range_meters":7200,"station_id":"ce4bgrh2rcd13ifvqc8g","pricing_plan_id":"cebpf4jnsgd1na2vs0mg"},{"bike_id":"10d61af2-a218-4397-b179-939c5dec9f2f","system_id":"levelo_inurba_marseille","lat":43.26489,"lon":5.39554,"is_reserved":false,"is_disabled":false,"rental_uris":{"android":"levelo://app?vid=10d61af2-a218-4397-b179-939c5dec9f2f","ios":"levelo://app?vid=10d61af2-a218-4397-b179-939c5dec9f2f"},"vehicle_type_id":"4","last_reported":1741100994,"current_range_meters":7200,"station_id":"ce4bhi12rcd13ifvqfq0","pricing_plan_id":"cebpf4jnsgd1na2vs0mg"},{"bike_id":"69cd3787-0277-4a5c-be2d-c41c86958702","system_id":"levelo_inurba_marseille","lat":43.24185,"lon":5.39736,"is_reserved":false,"is_disabled":false,"rental_uris":{"android":"levelo://app?vid=69cd3787-0277-4a5c-be2d-c41c86958702","ios":"levelo://app?vid=69cd3787-0277-4a5c-be2d-c41c86958702"},"vehicle_type_id":"4","last_reported":1741100994,"current_range_meters":7200,"station_id":"ce4bhn12rcd13ifvqgpg","pricing_plan_id":"cebpf4jnsgd1na2vs0mg"},{"bike_id":"90f5ad9f-87a8-43fa-a331-d70e682f50e3","system_id":"levelo_inurba_marseille","lat":43.282657,"lon":5.351332,"is_reserved":false,"is_disabled":false,"rental_uris":{"android":"levelo://app?vid=90f5ad9f-87a8-43fa-a331-d70e682f50e3","ios":"levelo://app?vid=90f5ad9f-87a8-43fa-a331-d70e682f50e3"},"vehicle_type_id":"4","last_reported":1741100994,"current_range_meters":8400,"station_id":"ce4bhah2rcd13ifvqej0","pricing_plan_id":"cebpf4jnsgd1na2vs0mg"},{"bike_id":"8a7f7dec-8ac4-4ac7-9f33-b53621825235","system_id":"levelo_inurba_marseille","lat":43.27817,"lon":5.40729,"is_reserved":false,"is_disabled":false,"rental_uris":{"android":"levelo://app?vid=8a7f7dec-8ac4-4ac7-9f33-b53621825235","ios":"levelo://app?vid=8a7f7dec-8ac4-4ac7-9f33-b53621825235"},"vehicle_type_id":"4","last_reported":1741100994,"current_range_meters":7200,"station_id":"ce4bhnh2rcd13ifvqgtg","pricing_plan_id":"cebpf4jnsgd1na2vs0mg"},{"bike_id":"604a2051-4916-4a21-97fc-d1f4532cfc04","system_id":"levelo_inurba_marseille","lat":43.23956,"lon":5.36637,"is_reserved":false,"is_disabled":false,"rental_uris":{"android":"levelo://app?vid=604a2051-4916-4a21-97fc-d1f4532cfc04","ios":"levelo://app?vid=604a2051-4916-4a21-97fc-d1f4532cfc04"},"vehicle_type_id":"4","last_reported":1741100994,"current_range_meters":7200,"station_id":"ce4bhi12rcd13ifvqfp0","pricing_plan_id":"cebpf4jnsgd1na2vs0mg"},{"bike_id":"5f6058f8-17d6-41f9-bf21-73aab62a2071","system_id":"levelo_inurba_marseille","lat":43.25805,"lon":5.39469,"is_reserved":false,"is_disabled":false,"rental_uris":{"android":"levelo://app?vid=5f6058f8-17d6-41f9-bf21-73aab62a2071","ios":"levelo://app?vid=5f6058f8-17d6-41f9-bf21-73aab62a2071"},"vehicle_type_id":"4","last_reported":1741100994,"current_range_meters":8000,"station_id":"ce4bhip2rcd13ifvqft0","pricing_plan_id":"cebpf4jnsgd1na2vs0mg"},{"bike_id":"8205925d-8000-42c9-b3a1-c45a98253796","system_id":"levelo_inurba_marseille","lat":43.28104,"lon":5.37833,"is_reserved":false,"is_disabled":false,"rental_uris":{"android":"levelo://app?vid=8205925d-8000-42c9-b3a1-c45a98253796","ios":"levelo://app?vid=8205925d-8000-42c9-b3a1-c45a98253796"},"vehicle_type_id":"4","last_reported":1741100994,"current_range_meters":8000,"station_id":"ce4bha12rcd13ifvqee0","pricing_plan_id":"cebpf4jnsgd1na2vs0mg"},{"bike_id":"5d24c2bb-ede2-4c81-a63d-6bda6dbdd3be","system_id":"levelo_inurba_marseille","lat":43.28336,"lon":5.38117,"is_reserved":false,"is_disabled":false,"rental_uris":{"android":"levelo://app?vid=5d24c2bb-ede2-4c81-a63d-6bda6dbdd3be","ios":"levelo://app?vid=5d24c2bb-ede2-4c81-a63d-6bda6dbdd3be"},"vehicle_type_id":"4","last_reported":1741100994,"current_range_meters":8000,"station_id":"ce4bh412rcd13ifvqdr0","pricing_plan_id":"cebpf4jnsgd1na2vs0mg"},{"bike_id":"853e9f93-6f18-4242-b269-d87025e7bb93","system_id":"levelo_inurba_marseille","lat":43.30754,"lon":5.37089,"is_reserved":false,"is_disabled":false,"rental_uris":{"android":"levelo://app?vid=853e9f93-6f18-4242-b269-d87025e7bb93","ios":"levelo://app?vid=853e9f93-6f18-4242-b269-d87025e7bb93"},"vehicle_type_id":"4","last_reported":1741100994,"current_range_meters":8000,"station_id":"","pricing_plan_id":"cebpf4jnsgd1na2vs0mg"},{"bike_id":"3d684779-663e-430f-98a4-6935f1661784","system_id":"levelo_inurba_marseille","lat":43.28576,"lon":5.39499,"is_reserved":false,"is_disabled":false,"rental_uris":{"android":"levelo://app?vid=3d684779-663e-430f-98a4-6935f1661784","ios":"levelo://app?vid=3d684779-663e-430f-98a4-6935f1661784"},"vehicle_type_id":"4","last_reported":1741100994,"current_range_meters":6000,"station_id":"ce4bh292rcd13ifvqdg0","pricing_plan_id":"cebpf4jnsgd1na2vs0mg"},{"bike_id":"207ebb89-163d-4b35-9780-26efca1e5e05","system_id":"levelo_inurba_marseille","lat":43.30873,"lon":5.37199,"is_reserved":false,"is_disabled":false,"rental_uris":{"android":"levelo://app?vid=207ebb89-163d-4b35-9780-26efca1e5e05","ios":"levelo://app?vid=207ebb89-163d-4b35-9780-26efca1e5e05"},"vehicle_type_id":"4","last_reported":1741100994,"current_range_meters":8000,"station_id":"ce4bguh2rcd13ifvqckg","pricing_plan_id":"cebpf4jnsgd1na2vs0mg"},{"bike_id":"13c44e5e-5463-4505-ba1b-c0544af7d8ca","system_id":"levelo_inurba_marseille","lat":43.23205,"lon":5.35553,"is_reserved":false,"is_disabled":false,"rental_uris":{"android":"levelo://app?vid=13c44e5e-5463-4505-ba1b-c0544af7d8ca","ios":"levelo://app?vid=13c44e5e-5463-4505-ba1b-c0544af7d8ca"},"vehicle_type_id":"4","last_reported":1741100994,"current_range_meters":8000,"station_id":"ce4bhu92rcd13ifvqi70","pricing_plan_id":"cebpf4jnsgd1na2vs0mg"},{"bike_id":"a13bead0-36f0-44b3-a302-73800ab5d7ef","system_id":"levelo_inurba_marseille","lat":43.28337,"lon":5.38102,"is_reserved":false,"is_disabled":false,"rental_uris":{"android":"levelo://app?vid=a13bead0-36f0-44b3-a302-73800ab5d7ef","ios":"levelo://app?vid=a13bead0-36f0-44b3-a302-73800ab5d7ef"},"vehicle_type_id":"4","last_reported":1741100994,"current_range_meters":8000,"station_id":"ce4bh412rcd13ifvqdr0","pricing_plan_id":"cebpf4jnsgd1na2vs0mg"},{"bike_id":"6e03686a-145a-45de-8d42-7f0cfcfb94ce","system_id":"levelo_inurba_marseille","lat":43.301575,"lon":5.374145,"is_reserved":false,"is_disabled":false,"rental_uris":{"android":"levelo://app?vid=6e03686a-145a-45de-8d42-7f0cfcfb94ce","ios":"levelo://app?vid=6e03686a-145a-45de-8d42-7f0cfcfb94ce"},"vehicle_type_id":"4","last_reported":1741100994,"current_range_meters":8000,"station_id":"ce4bgs92rcd13ifvqcc0","pricing_plan_id":"cebpf4jnsgd1na2vs0mg"},{"bike_id":"900d9cd1-aa26-432f-afb1-ec2217eee8cd","system_id":"levelo_inurba_marseille","lat":43.29876,"lon":5.39735,"is_reserved":false,"is_disabled":false,"rental_uris":{"android":"levelo://app?vid=900d9cd1-aa26-432f-afb1-ec2217eee8cd","ios":"levelo://app?vid=900d9cd1-aa26-432f-afb1-ec2217eee8cd"},"vehicle_type_id":"4","last_reported":1741100994,"current_range_meters":8000,"station_id":"ce4bh0h2rcd13ifvqd50","pricing_plan_id":"cebpf4jnsgd1na2vs0mg"},{"bike_id":"188b234a-0443-4ccb-b29b-cec75ca84935","system_id":"levelo_inurba_marseille","lat":43.29278,"lon":5.36848,"is_reserved":false,"is_disabled":false,"rental_uris":{"android":"levelo://app?vid=188b234a-0443-4ccb-b29b-cec75ca84935","ios":"levelo://app?vid=188b234a-0443-4ccb-b29b-cec75ca84935"},"vehicle_type_id":"4","last_reported":1741100994,"current_range_meters":8000,"station_id":"ce4bhbp2rcd13ifvqesg","pricing_plan_id":"cebpf4jnsgd1na2vs0mg"},{"bike_id":"f40c9b99-9823-4e07-8753-3e3766094939","system_id":"levelo_inurba_marseille","lat":43.29893,"lon":5.39749,"is_reserved":false,"is_disabled":false,"rental_uris":{"android":"levelo://app?vid=f40c9b99-9823-4e07-8753-3e3766094939","ios":"levelo://app?vid=f40c9b99-9823-4e07-8753-3e3766094939"},"vehicle_type_id":"4","last_reported":1741100994,"current_range_meters":8000,"station_id":"ce4bh0h2rcd13ifvqd50","pricing_plan_id":"cebpf4jnsgd1na2vs0mg"},{"bike_id":"86235aa2-22ae-49fd-b0bf-4f727615bc28","system_id":"levelo_inurba_marseille","lat":43.31725,"lon":5.40472,"is_reserved":false,"is_disabled":false,"rental_uris":{"android":"levelo://app?vid=86235aa2-22ae-49fd-b0bf-4f727615bc28","ios":"levelo://app?vid=86235aa2-22ae-49fd-b0bf-4f727615bc28"},"vehicle_type_id":"4","last_reported":1741100994,"current_range_meters":8000,"station_id":"ce4bh012rcd13ifvqd00","pricing_plan_id":"cebpf4jnsgd1na2vs0mg"},{"bike_id":"c8eadf63-55f6-4818-b468-98db3056edac","system_id":"levelo_inurba_marseille","lat":43.26931,"lon":5.40263,"is_reserved":false,"is_disabled":false,"rental_uris":{"android":"levelo://app?vid=c8eadf63-55f6-4818-b468-98db3056edac","ios":"levelo://app?vid=c8eadf63-55f6-4818-b468-98db3056edac"},"vehicle_type_id":"4","last_reported":1741100994,"current_range_meters":8000,"station_id":"cjm6bp8fraef2m0cb0m0","pricing_plan_id":"cebpf4jnsgd1na2vs0mg"},{"bike_id":"0ed20be4-93ad-471d-b64a-3899a68d5262","system_id":"levelo_inurba_marseille","lat":43.2894,"lon":5.36402,"is_reserved":false,"is_disabled":false,"rental_uris":{"android":"levelo://app?vid=0ed20be4-93ad-471d-b64a-3899a68d5262","ios":"levelo://app?vid=0ed20be4-93ad-471d-b64a-3899a68d5262"},"vehicle_type_id":"4","last_reported":1741100994,"current_range_meters":8400,"station_id":"ce4bhc92rcd13ifvqetg","pricing_plan_id":"cebpf4jnsgd1na2vs0mg"},{"bike_id":"0b818497-4d97-451b-b637-cef3d02b5c9d","system_id":"levelo_inurba_marseille","lat":43.3172,"lon":5.43747,"is_reserved":false,"is_disabled":false,"rental_uris":{"android":"levelo://app?vid=0b818497-4d97-451b-b637-cef3d02b5c9d","ios":"levelo://app?vid=0b818497-4d97-451b-b637-cef3d02b5c9d"},"vehicle_type_id":"4","last_reported":1741100994,"current_range_meters":8400,"station_id":"ce4bhp92rcd13ifvqhcg","pricing_plan_id":"cebpf4jnsgd1na2vs0mg"},{"bike_id":"424db515-7f33-43c8-a877-f351274ed959","system_id":"levelo_inurba_marseille","lat":43.3014,"lon":5.37433,"is_reserved":false,"is_disabled":false,"rental_uris":{"android":"levelo://app?vid=424db515-7f33-43c8-a877-f351274ed959","ios":"levelo://app?vid=424db515-7f33-43c8-a877-f351274ed959"},"vehicle_type_id":"4","last_reported":1741100994,"current_range_meters":8400,"station_id":"ce4bgs92rcd13ifvqcc0","pricing_plan_id":"cebpf4jnsgd1na2vs0mg"},{"bike_id":"6f0e070a-31da-4ba3-b6b5-a5841b8485e2","system_id":"levelo_inurba_marseille","lat":43.28102,"lon":5.37863,"is_reserved":false,"is_disabled":false,"rental_uris":{"android":"levelo://app?vid=6f0e070a-31da-4ba3-b6b5-a5841b8485e2","ios":"levelo://app?vid=6f0e070a-31da-4ba3-b6b5-a5841b8485e2"},"vehicle_type_id":"4","last_reported":1741100994,"current_range_meters":8400,"station_id":"ce4bha12rcd13ifvqee0","pricing_plan_id":"cebpf4jnsgd1na2vs0mg"},{"bike_id":"c909d97b-67bb-406e-943c-4bd14c159b66","system_id":"levelo_inurba_marseille","lat":43.30908,"lon":5.36853,"is_reserved":false,"is_disabled":false,"rental_uris":{"android":"levelo://app?vid=c909d97b-67bb-406e-943c-4bd14c159b66","ios":"levelo://app?vid=c909d97b-67bb-406e-943c-4bd14c159b66"},"vehicle_type_id":"4","last_reported":1741100994,"current_range_meters":8400,"station_id":"ce4bgn92rcd13ifvqbvg","pricing_plan_id":"cebpf4jnsgd1na2vs0mg"},{"bike_id":"ee3c9ec4-fd1e-41b3-9911-557f49971d62","system_id":"levelo_inurba_marseille","lat":43.27483,"lon":5.42447,"is_reserved":false,"is_disabled":false,"rental_uris":{"android":"levelo://app?vid=ee3c9ec4-fd1e-41b3-9911-557f49971d62","ios":"levelo://app?vid=ee3c9ec4-fd1e-41b3-9911-557f49971d62"},"vehicle_type_id":"4","last_reported":1741100994,"current_range_meters":8400,"station_id":"ce4bhn92rcd13ifvqgrg","pricing_plan_id":"cebpf4jnsgd1na2vs0mg"},{"bike_id":"64953142-7637-42b4-b0d1-c449e63f1db7","system_id":"levelo_inurba_marseille","lat":43.29632,"lon":5.3603,"is_reserved":false,"is_disabled":false,"rental_uris":{"android":"levelo://app?vid=64953142-7637-42b4-b0d1-c449e63f1db7","ios":"levelo://app?vid=64953142-7637-42b4-b0d1-c449e63f1db7"},"vehicle_type_id":"4","last_reported":1741100994,"current_range_meters":8400,"station_id":"","pricing_plan_id":"cebpf4jnsgd1na2vs0mg"},{"bike_id":"234d8850-5975-43be-a001-8905a4ff3c9b","system_id":"levelo_inurba_marseille","lat":43.2804,"lon":5.36949,"is_reserved":false,"is_disabled":false,"rental_uris":{"android":"levelo://app?vid=234d8850-5975-43be-a001-8905a4ff3c9b","ios":"levelo://app?vid=234d8850-5975-43be-a001-8905a4ff3c9b"},"vehicle_type_id":"4","last_reported":1741100994,"current_range_meters":12800,"station_id":"ce4bha12rcd13ifvqef0","pricing_plan_id":"cebpf4jnsgd1na2vs0mg"},{"bike_id":"b1ac49be-b33f-4f69-b362-4775c4ca5949","system_id":"levelo_inurba_marseille","lat":43.23146,"lon":5.43722,"is_reserved":false,"is_disabled":false,"rental_uris":{"android":"levelo://app?vid=b1ac49be-b33f-4f69-b362-4775c4ca5949","ios":"levelo://app?vid=b1ac49be-b33f-4f69-b362-4775c4ca5949"},"vehicle_type_id":"4","last_reported":1741100994,"current_range_meters":8800,"station_id":"ce4bhmp2rcd13ifvqgog","pricing_plan_id":"cebpf4jnsgd1na2vs0mg"},{"bike_id":"6ca6918b-54ca-42e0-9d2e-33baa77f669c","system_id":"levelo_inurba_marseille","lat":43.31167,"lon":5.38714,"is_reserved":false,"is_disabled":false,"rental_uris":{"android":"levelo://app?vid=6ca6918b-54ca-42e0-9d2e-33baa77f669c","ios":"levelo://app?vid=6ca6918b-54ca-42e0-9d2e-33baa77f669c"},"vehicle_type_id":"4","last_reported":1741100994,"current_range_meters":8800,"station_id":"ce4bgv12rcd13ifvqcp0","pricing_plan_id":"cebpf4jnsgd1na2vs0mg"},{"bike_id":"02984c24-f543-4d24-8c9e-3afa9d92984f","system_id":"levelo_inurba_marseille","lat":43.25573,"lon":5.38233,"is_reserved":false,"is_disabled":false,"rental_uris":{"android":"levelo://app?vid=02984c24-f543-4d24-8c9e-3afa9d92984f","ios":"levelo://app?vid=02984c24-f543-4d24-8c9e-3afa9d92984f"},"vehicle_type_id":"4","last_reported":1741100994,"current_range_meters":9200,"station_id":"ce4bhih2rcd13ifvqfs0","pricing_plan_id":"cebpf4jnsgd1na2vs0mg"},{"bike_id":"76022163-600a-4cff-acf5-e60af1506fd5","system_id":"levelo_inurba_marseille","lat":43.26778,"lon":5.39424,"is_reserved":false,"is_disabled":false,"rental_uris":{"android":"levelo://app?vid=76022163-600a-4cff-acf5-e60af1506fd5","ios":"levelo://app?vid=76022163-600a-4cff-acf5-e60af1506fd5"},"vehicle_type_id":"4","last_reported":1741100994,"current_range_meters":9200,"station_id":"ce4bhh12rcd13ifvqfg0","pricing_plan_id":"cebpf4jnsgd1na2vs0mg"},{"bike_id":"e0405c71-2dbc-4a5f-9c4c-aa1637b72445","system_id":"levelo_inurba_marseille","lat":43.27824,"lon":5.39207,"is_reserved":false,"is_disabled":false,"rental_uris":{"android":"levelo://app?vid=e0405c71-2dbc-4a5f-9c4c-aa1637b72445","ios":"levelo://app?vid=e0405c71-2dbc-4a5f-9c4c-aa1637b72445"},"vehicle_type_id":"4","last_reported":1741100994,"current_range_meters":8000,"station_id":"ce4bhjp2rcd13ifvqga0","pricing_plan_id":"cebpf4jnsgd1na2vs0mg"},{"bike_id":"abcff8c3-e618-4cad-9cd7-609d9b8253d5","system_id":"levelo_inurba_marseille","lat":43.28603,"lon":5.3706,"is_reserved":false,"is_disabled":false,"rental_uris":{"android":"levelo://app?vid=abcff8c3-e618-4cad-9cd7-609d9b8253d5","ios":"levelo://app?vid=abcff8c3-e618-4cad-9cd7-609d9b8253d5"},"vehicle_type_id":"4","last_reported":1741100994,"current_range_meters":9200,"station_id":"ce4bht12rcd13ifvqi60","pricing_plan_id":"cebpf4jnsgd1na2vs0mg"},{"bike_id":"3b73d8d4-923a-4308-81e5-52ed233d2804","system_id":"levelo_inurba_marseille","lat":43.23158,"lon":5.43707,"is_reserved":false,"is_disabled":false,"rental_uris":{"android":"levelo://app?vid=3b73d8d4-923a-4308-81e5-52ed233d2804","ios":"levelo://app?vid=3b73d8d4-923a-4308-81e5-52ed233d2804"},"vehicle_type_id":"4","last_reported":1741100994,"current_range_meters":9200,"station_id":"ce4bhmp2rcd13ifvqgog","pricing_plan_id":"cebpf4jnsgd1na2vs0mg"},{"bike_id":"36338203-a695-491a-8e47-01907a9bf566","system_id":"levelo_inurba_marseille","lat":43.29418,"lon":5.3862,"is_reserved":false,"is_disabled":false,"rental_uris":{"android":"levelo://app?vid=36338203-a695-491a-8e47-01907a9bf566","ios":"levelo://app?vid=36338203-a695-491a-8e47-01907a9bf566"},"vehicle_type_id":"4","last_reported":1741100994,"current_range_meters":8800,"station_id":"ce4bh2h2rcd13ifvqdh0","pricing_plan_id":"cebpf4jnsgd1na2vs0mg"},{"bike_id":"00662bd4-9dae-4757-af68-b76ab434f06e","system_id":"levelo_inurba_marseille","lat":43.28982,"lon":5.37827,"is_reserved":false,"is_disabled":true,"rental_uris":{"android":"levelo://app?vid=00662bd4-9dae-4757-af68-b76ab434f06e","ios":"levelo://app?vid=00662bd4-9dae-4757-af68-b76ab434f06e"},"vehicle_type_id":"4","last_reported":1741100994,"current_range_meters":9600,"station_id":"ce4bh9p2rcd13ifvqed0","pricing_plan_id":"cebpf4jnsgd1na2vs0mg"},{"bike_id":"8bb540ce-b02e-469f-837b-704201067038","system_id":"levelo_inurba_marseille","lat":43.24653,"lon":5.38167,"is_reserved":false,"is_disabled":false,"rental_uris":{"android":"levelo://app?vid=8bb540ce-b02e-469f-837b-704201067038","ios":"levelo://app?vid=8bb540ce-b02e-469f-837b-704201067038"},"vehicle_type_id":"4","last_reported":1741100994,"current_range_meters":9600,"station_id":"ce4bhih2rcd13ifvqfr0","pricing_plan_id":"cebpf4jnsgd1na2vs0mg"},{"bike_id":"98ef14dd-b2a1-4f31-95cb-187e347b871a","system_id":"levelo_inurba_marseille","lat":43.28457,"lon":5.35889,"is_reserved":false,"is_disabled":false,"rental_uris":{"android":"levelo://app?vid=98ef14dd-b2a1-4f31-95cb-187e347b871a","ios":"levelo://app?vid=98ef14dd-b2a1-4f31-95cb-187e347b871a"},"vehicle_type_id":"4","last_reported":1741100994,"current_range_meters":10000,"station_id":"ce4bhah2rcd13ifvqei0","pricing_plan_id":"cebpf4jnsgd1na2vs0mg"},{"bike_id":"ea51c01f-48c5-4a4c-8d2a-918b5a7a916b","system_id":"levelo_inurba_marseille","lat":43.27622,"lon":5.36107,"is_reserved":false,"is_disabled":false,"rental_uris":{"android":"levelo://app?vid=ea51c01f-48c5-4a4c-8d2a-918b5a7a916b","ios":"levelo://app?vid=ea51c01f-48c5-4a4c-8d2a-918b5a7a916b"},"vehicle_type_id":"4","last_reported":1741100994,"current_range_meters":9600,"station_id":"ce4bgj92rcd13ifvqbe0","pricing_plan_id":"cebpf4jnsgd1na2vs0mg"},{"bike_id":"a70e85e8-1c46-46a4-9364-36a8e08473a0","system_id":"levelo_inurba_marseille","lat":43.31713,"lon":5.40467,"is_reserved":false,"is_disabled":false,"rental_uris":{"android":"levelo://app?vid=a70e85e8-1c46-46a4-9364-36a8e08473a0","ios":"levelo://app?vid=a70e85e8-1c46-46a4-9364-36a8e08473a0"},"vehicle_type_id":"4","last_reported":1741100994,"current_range_meters":9600,"station_id":"ce4bh012rcd13ifvqd00","pricing_plan_id":"cebpf4jnsgd1na2vs0mg"},{"bike_id":"4aeb8d54-ca9f-42d1-962c-f4d94620b833","system_id":"levelo_inurba_marseille","lat":43.28709,"lon":5.37409,"is_reserved":false,"is_disabled":false,"rental_uris":{"android":"levelo://app?vid=4aeb8d54-ca9f-42d1-962c-f4d94620b833","ios":"levelo://app?vid=4aeb8d54-ca9f-42d1-962c-f4d94620b833"},"vehicle_type_id":"4","last_reported":1741100994,"current_range_meters":10000,"station_id":"ce4bh3p2rcd13ifvqdq0","pricing_plan_id":"cebpf4jnsgd1na2vs0mg"},{"bike_id":"0926da20-6d1c-4595-8f91-b723c03f6ce5","system_id":"levelo_inurba_marseille","lat":43.30421,"lon":5.39749,"is_reserved":false,"is_disabled":false,"rental_uris":{"android":"levelo://app?vid=0926da20-6d1c-4595-8f91-b723c03f6ce5","ios":"levelo://app?vid=0926da20-6d1c-4595-8f91-b723c03f6ce5"},"vehicle_type_id":"4","last_reported":1741100994,"current_range_meters":6000,"station_id":"ce4bh092rcd13ifvqd20","pricing_plan_id":"cebpf4jnsgd1na2vs0mg"},{"bike_id":"bddaf5ad-c00e-49e3-9dee-9f2da84b4ddf","system_id":"levelo_inurba_marseille","lat":43.30886,"lon":5.39644,"is_reserved":false,"is_disabled":false,"rental_uris":{"android":"levelo://app?vid=bddaf5ad-c00e-49e3-9dee-9f2da84b4ddf","ios":"levelo://app?vid=bddaf5ad-c00e-49e3-9dee-9f2da84b4ddf"},"vehicle_type_id":"4","last_reported":1741100994,"current_range_meters":10000,"station_id":"ce4bh012rcd13ifvqcv0","pricing_plan_id":"cebpf4jnsgd1na2vs0mg"},{"bike_id":"e7ec1ac1-2323-47bd-a2b5-7cd3afb282cf","system_id":"levelo_inurba_marseille","lat":43.2656,"lon":5.37292,"is_reserved":false,"is_disabled":false,"rental_uris":{"android":"levelo://app?vid=e7ec1ac1-2323-47bd-a2b5-7cd3afb282cf","ios":"levelo://app?vid=e7ec1ac1-2323-47bd-a2b5-7cd3afb282cf"},"vehicle_type_id":"4","last_reported":1741100994,"current_range_meters":10000,"station_id":"ce4bhg12rcd13ifvqf70","pricing_plan_id":"cebpf4jnsgd1na2vs0mg"},{"bike_id":"814c0a46-f261-460d-aff2-4ded48aacf69","system_id":"levelo_inurba_marseille","lat":43.28612,"lon":5.37077,"is_reserved":false,"is_disabled":false,"rental_uris":{"android":"levelo://app?vid=814c0a46-f261-460d-aff2-4ded48aacf69","ios":"levelo://app?vid=814c0a46-f261-460d-aff2-4ded48aacf69"},"vehicle_type_id":"4","last_reported":1741100994,"current_range_meters":10000,"station_id":"ce4bht12rcd13ifvqi60","pricing_plan_id":"cebpf4jnsgd1na2vs0mg"},{"bike_id":"bf97ac7b-9c34-4c20-aac3-9ebd296b4269","system_id":"levelo_inurba_marseille","lat":43.31079,"lon":5.38362,"is_reserved":false,"is_disabled":false,"rental_uris":{"android":"levelo://app?vid=bf97ac7b-9c34-4c20-aac3-9ebd296b4269","ios":"levelo://app?vid=bf97ac7b-9c34-4c20-aac3-9ebd296b4269"},"vehicle_type_id":"4","last_reported":1741100994,"current_range_meters":10000,"station_id":"ce4bgv92rcd13ifvqcr0","pricing_plan_id":"cebpf4jnsgd1na2vs0mg"},{"bike_id":"62385ea5-923d-4439-9149-e95cf63445d2","system_id":"levelo_inurba_marseille","lat":43.26212,"lon":5.37443,"is_reserved":false,"is_disabled":false,"rental_uris":{"android":"levelo://app?vid=62385ea5-923d-4439-9149-e95cf63445d2","ios":"levelo://app?vid=62385ea5-923d-4439-9149-e95cf63445d2"},"vehicle_type_id":"4","last_reported":1741100994,"current_range_meters":10000,"station_id":"ce4bhgp2rcd13ifvqfc0","pricing_plan_id":"cebpf4jnsgd1na2vs0mg"},{"bike_id":"d397688b-ab73-448f-92b9-a2a9588b40a4","system_id":"levelo_inurba_marseille","lat":43.23988,"lon":5.39705,"is_reserved":false,"is_disabled":false,"rental_uris":{"android":"levelo://app?vid=d397688b-ab73-448f-92b9-a2a9588b40a4","ios":"levelo://app?vid=d397688b-ab73-448f-92b9-a2a9588b40a4"},"vehicle_type_id":"4","last_reported":1741100994,"current_range_meters":10000,"station_id":"","pricing_plan_id":"cebpf4jnsgd1na2vs0mg"},{"bike_id":"53370df7-9791-4141-8ab6-479eee9f8d86","system_id":"levelo_inurba_marseille","lat":43.29877,"lon":5.4366,"is_reserved":false,"is_disabled":false,"rental_uris":{"android":"levelo://app?vid=53370df7-9791-4141-8ab6-479eee9f8d86","ios":"levelo://app?vid=53370df7-9791-4141-8ab6-479eee9f8d86"},"vehicle_type_id":"4","last_reported":1741100994,"current_range_meters":10000,"station_id":"ce4bhpp2rcd13ifvqhfg","pricing_plan_id":"cebpf4jnsgd1na2vs0mg"},{"bike_id":"7c2e9277-4903-4421-8909-4084106b3d11","system_id":"levelo_inurba_marseille","lat":43.26809,"lon":5.40268,"is_reserved":false,"is_disabled":false,"rental_uris":{"android":"levelo://app?vid=7c2e9277-4903-4421-8909-4084106b3d11","ios":"levelo://app?vid=7c2e9277-4903-4421-8909-4084106b3d11"},"vehicle_type_id":"4","last_reported":1741100994,"current_range_meters":10800,"station_id":"ce501612rcd8frsf0b60","pricing_plan_id":"cebpf4jnsgd1na2vs0mg"},{"bike_id":"c03e22ff-dd17-4109-a614-e1c938d12b1c","system_id":"levelo_inurba_marseille","lat":43.23155,"lon":5.43717,"is_reserved":false,"is_disabled":false,"rental_uris":{"android":"levelo://app?vid=c03e22ff-dd17-4109-a614-e1c938d12b1c","ios":"levelo://app?vid=c03e22ff-dd17-4109-a614-e1c938d12b1c"},"vehicle_type_id":"4","last_reported":1741100994,"current_range_meters":10800,"station_id":"ce4bhmp2rcd13ifvqgog","pricing_plan_id":"cebpf4jnsgd1na2vs0mg"},{"bike_id":"ee1d2ad1-36ca-49dd-a328-f2a9a9994ecb","system_id":"levelo_inurba_marseille","lat":43.31089,"lon":5.38129,"is_reserved":false,"is_disabled":false,"rental_uris":{"android":"levelo://app?vid=ee1d2ad1-36ca-49dd-a328-f2a9a9994ecb","ios":"levelo://app?vid=ee1d2ad1-36ca-49dd-a328-f2a9a9994ecb"},"vehicle_type_id":"4","last_reported":1741100994,"current_range_meters":10800,"station_id":"","pricing_plan_id":"cebpf4jnsgd1na2vs0mg"},{"bike_id":"b7b5cf88-104c-42d2-8851-12add2b78215","system_id":"levelo_inurba_marseille","lat":43.297883,"lon":5.370995,"is_reserved":false,"is_disabled":false,"rental_uris":{"android":"levelo://app?vid=b7b5cf88-104c-42d2-8851-12add2b78215","ios":"levelo://app?vid=b7b5cf88-104c-42d2-8851-12add2b78215"},"vehicle_type_id":"4","last_reported":1741100994,"current_range_meters":6800,"station_id":"ce4bgop2rcd13ifvqc1g","pricing_plan_id":"cebpf4jnsgd1na2vs0mg"},{"bike_id":"ebdd20df-967d-4d62-9608-54006cfcb6fa","system_id":"levelo_inurba_marseille","lat":43.265,"lon":5.39562,"is_reserved":false,"is_disabled":false,"rental_uris":{"android":"levelo://app?vid=ebdd20df-967d-4d62-9608-54006cfcb6fa","ios":"levelo://app?vid=ebdd20df-967d-4d62-9608-54006cfcb6fa"},"vehicle_type_id":"4","last_reported":1741100994,"current_range_meters":10800,"station_id":"ce4bhi12rcd13ifvqfq0","pricing_plan_id":"cebpf4jnsgd1na2vs0mg"},{"bike_id":"72859d9d-9ebb-43cd-952f-95c06e4620a0","system_id":"levelo_inurba_marseille","lat":43.28618,"lon":5.35107,"is_reserved":false,"is_disabled":false,"rental_uris":{"android":"levelo://app?vid=72859d9d-9ebb-43cd-952f-95c06e4620a0","ios":"levelo://app?vid=72859d9d-9ebb-43cd-952f-95c06e4620a0"},"vehicle_type_id":"4","last_reported":1741100994,"current_range_meters":10800,"station_id":"ce4bhch2rcd13ifvqeug","pricing_plan_id":"cebpf4jnsgd1na2vs0mg"},{"bike_id":"35482dac-1312-4f0e-90ed-4aea1d786cf7","system_id":"levelo_inurba_marseille","lat":43.23145,"lon":5.43707,"is_reserved":false,"is_disabled":false,"rental_uris":{"android":"levelo://app?vid=35482dac-1312-4f0e-90ed-4aea1d786cf7","ios":"levelo://app?vid=35482dac-1312-4f0e-90ed-4aea1d786cf7"},"vehicle_type_id":"4","last_reported":1741100994,"current_range_meters":10800,"station_id":"ce4bhmp2rcd13ifvqgog","pricing_plan_id":"cebpf4jnsgd1na2vs0mg"},{"bike_id":"fd44aafe-6b37-41b2-a536-3f2e76346282","system_id":"levelo_inurba_marseille","lat":43.29597,"lon":5.38117,"is_reserved":false,"is_disabled":false,"rental_uris":{"android":"levelo://app?vid=fd44aafe-6b37-41b2-a536-3f2e76346282","ios":"levelo://app?vid=fd44aafe-6b37-41b2-a536-3f2e76346282"},"vehicle_type_id":"4","last_reported":1741100994,"current_range_meters":11200,"station_id":"ce4bgl12rcd13ifvqbo0","pricing_plan_id":"cebpf4jnsgd1na2vs0mg"},{"bike_id":"e36f30c3-3fdf-4624-8046-214faf335221","system_id":"levelo_inurba_marseille","lat":43.30532,"lon":5.36535,"is_reserved":false,"is_disabled":false,"rental_uris":{"android":"levelo://app?vid=e36f30c3-3fdf-4624-8046-214faf335221","ios":"levelo://app?vid=e36f30c3-3fdf-4624-8046-214faf335221"},"vehicle_type_id":"4","last_reported":1741100994,"current_range_meters":10800,"station_id":"ce4bgs12rcd13ifvqcag","pricing_plan_id":"cebpf4jnsgd1na2vs0mg"},{"bike_id":"44a7153b-0fd7-4509-836b-676bbf84fb06","system_id":"levelo_inurba_marseille","lat":43.23193,"lon":5.35551,"is_reserved":false,"is_disabled":false,"rental_uris":{"android":"levelo://app?vid=44a7153b-0fd7-4509-836b-676bbf84fb06","ios":"levelo://app?vid=44a7153b-0fd7-4509-836b-676bbf84fb06"},"vehicle_type_id":"4","last_reported":1741100994,"current_range_meters":10800,"station_id":"ce4bhu92rcd13ifvqi70","pricing_plan_id":"cebpf4jnsgd1na2vs0mg"},{"bike_id":"35fbe5ec-7a72-4e97-8d8d-e4af33d04dcc","system_id":"levelo_inurba_marseille","lat":43.29596,"lon":5.38106,"is_reserved":false,"is_disabled":false,"rental_uris":{"android":"levelo://app?vid=35fbe5ec-7a72-4e97-8d8d-e4af33d04dcc","ios":"levelo://app?vid=35fbe5ec-7a72-4e97-8d8d-e4af33d04dcc"},"vehicle_type_id":"4","last_reported":1741100994,"current_range_meters":11200,"station_id":"ce4bgl12rcd13ifvqbo0","pricing_plan_id":"cebpf4jnsgd1na2vs0mg"},{"bike_id":"7858ba22-393d-47be-9185-1cd032c74098","system_id":"levelo_inurba_marseille","lat":43.30412,"lon":5.413,"is_reserved":false,"is_disabled":false,"rental_uris":{"android":"levelo://app?vid=7858ba22-393d-47be-9185-1cd032c74098","ios":"levelo://app?vid=7858ba22-393d-47be-9185-1cd032c74098"},"vehicle_type_id":"4","last_reported":1741100994,"current_range_meters":11200,"station_id":"ce4bhop2rcd13ifvqh8g","pricing_plan_id":"cebpf4jnsgd1na2vs0mg"},{"bike_id":"a2e9312b-d692-42a0-9823-fe0aab56075b","system_id":"levelo_inurba_marseille","lat":43.23168,"lon":5.43731,"is_reserved":false,"is_disabled":true,"rental_uris":{"android":"levelo://app?vid=a2e9312b-d692-42a0-9823-fe0aab56075b","ios":"levelo://app?vid=a2e9312b-d692-42a0-9823-fe0aab56075b"},"vehicle_type_id":"4","last_reported":1741100994,"current_range_meters":11200,"station_id":"ce4bhmp2rcd13ifvqgog","pricing_plan_id":"cebpf4jnsgd1na2vs0mg"},{"bike_id":"d72d2e26-ce47-4ad3-90ea-4eef2140ed5c","system_id":"levelo_inurba_marseille","lat":43.30881,"lon":5.37197,"is_reserved":false,"is_disabled":false,"rental_uris":{"android":"levelo://app?vid=d72d2e26-ce47-4ad3-90ea-4eef2140ed5c","ios":"levelo://app?vid=d72d2e26-ce47-4ad3-90ea-4eef2140ed5c"},"vehicle_type_id":"4","last_reported":1741100994,"current_range_meters":11600,"station_id":"ce4bguh2rcd13ifvqckg","pricing_plan_id":"cebpf4jnsgd1na2vs0mg"},{"bike_id":"96534ab7-4f6f-4c1c-9eeb-a2113adfd031","system_id":"levelo_inurba_marseille","lat":43.2718,"lon":5.40992,"is_reserved":false,"is_disabled":false,"rental_uris":{"android":"levelo://app?vid=96534ab7-4f6f-4c1c-9eeb-a2113adfd031","ios":"levelo://app?vid=96534ab7-4f6f-4c1c-9eeb-a2113adfd031"},"vehicle_type_id":"4","last_reported":1741100994,"current_range_meters":11600,"station_id":"ce4bhl12rcd13ifvqgf0","pricing_plan_id":"cebpf4jnsgd1na2vs0mg"},{"bike_id":"3337f8d3-294f-4174-abe7-8175587d9446","system_id":"levelo_inurba_marseille","lat":43.2706,"lon":5.4026,"is_reserved":false,"is_disabled":false,"rental_uris":{"android":"levelo://app?vid=3337f8d3-294f-4174-abe7-8175587d9446","ios":"levelo://app?vid=3337f8d3-294f-4174-abe7-8175587d9446"},"vehicle_type_id":"4","last_reported":1741100994,"current_range_meters":11600,"station_id":"ce4bhk92rcd13ifvqgc0","pricing_plan_id":"cebpf4jnsgd1na2vs0mg"},{"bike_id":"212be3cc-09ae-4063-9d09-83b8b6c708f5","system_id":"levelo_inurba_marseille","lat":43.27059,"lon":5.40263,"is_reserved":false,"is_disabled":false,"rental_uris":{"android":"levelo://app?vid=212be3cc-09ae-4063-9d09-83b8b6c708f5","ios":"levelo://app?vid=212be3cc-09ae-4063-9d09-83b8b6c708f5"},"vehicle_type_id":"4","last_reported":1741100994,"current_range_meters":11600,"station_id":"ce4bhk92rcd13ifvqgc0","pricing_plan_id":"cebpf4jnsgd1na2vs0mg"},{"bike_id":"6aedba2b-cb94-4a7b-a620-6e8ee215138e","system_id":"levelo_inurba_marseille","lat":43.27899,"lon":5.37996,"is_reserved":false,"is_disabled":false,"rental_uris":{"android":"levelo://app?vid=6aedba2b-cb94-4a7b-a620-6e8ee215138e","ios":"levelo://app?vid=6aedba2b-cb94-4a7b-a620-6e8ee215138e"},"vehicle_type_id":"4","last_reported":1741100994,"current_range_meters":11600,"station_id":"ce4bhf92rcd13ifvqf50","pricing_plan_id":"cebpf4jnsgd1na2vs0mg"},{"bike_id":"21b19842-9ad9-4db0-bc46-3d2827c0069e","system_id":"levelo_inurba_marseille","lat":43.23191,"lon":5.35567,"is_reserved":false,"is_disabled":false,"rental_uris":{"android":"levelo://app?vid=21b19842-9ad9-4db0-bc46-3d2827c0069e","ios":"levelo://app?vid=21b19842-9ad9-4db0-bc46-3d2827c0069e"},"vehicle_type_id":"4","last_reported":1741100994,"current_range_meters":11600,"station_id":"ce4bhu92rcd13ifvqi70","pricing_plan_id":"cebpf4jnsgd1na2vs0mg"},{"bike_id":"38178cec-d94f-410e-885a-f31f98c92e3d","system_id":"levelo_inurba_marseille","lat":43.28462,"lon":5.3589,"is_reserved":false,"is_disabled":false,"rental_uris":{"android":"levelo://app?vid=38178cec-d94f-410e-885a-f31f98c92e3d","ios":"levelo://app?vid=38178cec-d94f-410e-885a-f31f98c92e3d"},"vehicle_type_id":"4","last_reported":1741100994,"current_range_meters":10000,"station_id":"ce4bhah2rcd13ifvqei0","pricing_plan_id":"cebpf4jnsgd1na2vs0mg"},{"bike_id":"23a84f5c-d646-4594-9c7b-9e538c930aed","system_id":"levelo_inurba_marseille","lat":43.29024,"lon":5.38645,"is_reserved":false,"is_disabled":false,"rental_uris":{"android":"levelo://app?vid=23a84f5c-d646-4594-9c7b-9e538c930aed","ios":"levelo://app?vid=23a84f5c-d646-4594-9c7b-9e538c930aed"},"vehicle_type_id":"4","last_reported":1741100994,"current_range_meters":11600,"station_id":"ce4bh4p2rcd13ifvqe0g","pricing_plan_id":"cebpf4jnsgd1na2vs0mg"},{"bike_id":"0f25957b-cfc6-429b-ad50-1053da60a1d0","system_id":"levelo_inurba_marseille","lat":43.28411,"lon":5.35003,"is_reserved":false,"is_disabled":false,"rental_uris":{"android":"levelo://app?vid=0f25957b-cfc6-429b-ad50-1053da60a1d0","ios":"levelo://app?vid=0f25957b-cfc6-429b-ad50-1053da60a1d0"},"vehicle_type_id":"4","last_reported":1741100994,"current_range_meters":12000,"station_id":"ce4bhbh2rcd13ifvqepg","pricing_plan_id":"cebpf4jnsgd1na2vs0mg"},{"bike_id":"94fb1cc4-47f2-400a-bd11-75deb527bd72","system_id":"levelo_inurba_marseille","lat":43.28152,"lon":5.42634,"is_reserved":false,"is_disabled":false,"rental_uris":{"android":"levelo://app?vid=94fb1cc4-47f2-400a-bd11-75deb527bd72","ios":"levelo://app?vid=94fb1cc4-47f2-400a-bd11-75deb527bd72"},"vehicle_type_id":"4","last_reported":1741100994,"current_range_meters":12000,"station_id":"ce4bhnh2rcd13ifvqgug","pricing_plan_id":"cebpf4jnsgd1na2vs0mg"},{"bike_id":"9158c83d-aae6-4f40-adf3-15d2d242233b","system_id":"levelo_inurba_marseille","lat":43.27031,"lon":5.40247,"is_reserved":false,"is_disabled":false,"rental_uris":{"android":"levelo://app?vid=9158c83d-aae6-4f40-adf3-15d2d242233b","ios":"levelo://app?vid=9158c83d-aae6-4f40-adf3-15d2d242233b"},"vehicle_type_id":"4","last_reported":1741100994,"current_range_meters":12000,"station_id":"ce4bhk92rcd13ifvqgc0","pricing_plan_id":"cebpf4jnsgd1na2vs0mg"},{"bike_id":"18ffc8ee-572f-4f9f-aea0-f99d011c795b","system_id":"levelo_inurba_marseille","lat":43.27063,"lon":5.40258,"is_reserved":false,"is_disabled":false,"rental_uris":{"android":"levelo://app?vid=18ffc8ee-572f-4f9f-aea0-f99d011c795b","ios":"levelo://app?vid=18ffc8ee-572f-4f9f-aea0-f99d011c795b"},"vehicle_type_id":"4","last_reported":1741100994,"current_range_meters":12000,"station_id":"ce4bhk92rcd13ifvqgc0","pricing_plan_id":"cebpf4jnsgd1na2vs0mg"},{"bike_id":"b4be7809-cb97-4f42-ac2b-815ef1293ca3","system_id":"levelo_inurba_marseille","lat":43.2315,"lon":5.43719,"is_reserved":false,"is_disabled":false,"rental_uris":{"android":"levelo://app?vid=b4be7809-cb97-4f42-ac2b-815ef1293ca3","ios":"levelo://app?vid=b4be7809-cb97-4f42-ac2b-815ef1293ca3"},"vehicle_type_id":"4","last_reported":1741100994,"current_range_meters":12400,"station_id":"ce4bhmp2rcd13ifvqgog","pricing_plan_id":"cebpf4jnsgd1na2vs0mg"},{"bike_id":"95e78016-f0c4-493e-a34d-250e6be396b3","system_id":"levelo_inurba_marseille","lat":43.23204,"lon":5.3555,"is_reserved":false,"is_disabled":false,"rental_uris":{"android":"levelo://app?vid=95e78016-f0c4-493e-a34d-250e6be396b3","ios":"levelo://app?vid=95e78016-f0c4-493e-a34d-250e6be396b3"},"vehicle_type_id":"4","last_reported":1741100994,"current_range_meters":12400,"station_id":"ce4bhu92rcd13ifvqi70","pricing_plan_id":"cebpf4jnsgd1na2vs0mg"},{"bike_id":"2c5a92f4-a231-41f0-933a-ac5f26be730a","system_id":"levelo_inurba_marseille","lat":43.30153,"lon":5.37383,"is_reserved":false,"is_disabled":false,"rental_uris":{"android":"levelo://app?vid=2c5a92f4-a231-41f0-933a-ac5f26be730a","ios":"levelo://app?vid=2c5a92f4-a231-41f0-933a-ac5f26be730a"},"vehicle_type_id":"4","last_reported":1741100994,"current_range_meters":12800,"station_id":"ce4bgs92rcd13ifvqcc0","pricing_plan_id":"cebpf4jnsgd1na2vs0mg"},{"bike_id":"5e8b46a3-f56e-4c74-99c6-8907371b416a","system_id":"levelo_inurba_marseille","lat":43.23183,"lon":5.39979,"is_reserved":false,"is_disabled":false,"rental_uris":{"android":"levelo://app?vid=5e8b46a3-f56e-4c74-99c6-8907371b416a","ios":"levelo://app?vid=5e8b46a3-f56e-4c74-99c6-8907371b416a"},"vehicle_type_id":"4","last_reported":1741100994,"current_range_meters":12800,"station_id":"ce4bhn12rcd13ifvqgqg","pricing_plan_id":"cebpf4jnsgd1na2vs0mg"},{"bike_id":"cccf905b-381a-42f2-b7da-7d213b6cac4c","system_id":"levelo_inurba_marseille","lat":43.31166,"lon":5.38725,"is_reserved":false,"is_disabled":false,"rental_uris":{"android":"levelo://app?vid=cccf905b-381a-42f2-b7da-7d213b6cac4c","ios":"levelo://app?vid=cccf905b-381a-42f2-b7da-7d213b6cac4c"},"vehicle_type_id":"4","last_reported":1741100994,"current_range_meters":12000,"station_id":"ce4bgv12rcd13ifvqcp0","pricing_plan_id":"cebpf4jnsgd1na2vs0mg"},{"bike_id":"c39e2295-e7a5-4c5b-833a-007e71b3658e","system_id":"levelo_inurba_marseille","lat":43.30806,"lon":5.43528,"is_reserved":false,"is_disabled":false,"rental_uris":{"android":"levelo://app?vid=c39e2295-e7a5-4c5b-833a-007e71b3658e","ios":"levelo://app?vid=c39e2295-e7a5-4c5b-833a-007e71b3658e"},"vehicle_type_id":"4","last_reported":1741100994,"current_range_meters":12800,"station_id":"ce4bhph2rcd13ifvqheg","pricing_plan_id":"cebpf4jnsgd1na2vs0mg"},{"bike_id":"8ae4c27d-ada0-42d4-80b5-7b3c4c119119","system_id":"levelo_inurba_marseille","lat":43.31482,"lon":5.37308,"is_reserved":false,"is_disabled":false,"rental_uris":{"android":"levelo://app?vid=8ae4c27d-ada0-42d4-80b5-7b3c4c119119","ios":"levelo://app?vid=8ae4c27d-ada0-42d4-80b5-7b3c4c119119"},"vehicle_type_id":"4","last_reported":1741100994,"current_range_meters":12800,"station_id":"ce4bgt12rcd13ifvqcd0","pricing_plan_id":"cebpf4jnsgd1na2vs0mg"},{"bike_id":"c071924d-f264-4f4d-88d5-ee0248bc4584","system_id":"levelo_inurba_marseille","lat":43.29528,"lon":5.38553,"is_reserved":false,"is_disabled":false,"rental_uris":{"android":"levelo://app?vid=c071924d-f264-4f4d-88d5-ee0248bc4584","ios":"levelo://app?vid=c071924d-f264-4f4d-88d5-ee0248bc4584"},"vehicle_type_id":"4","last_reported":1741100994,"current_range_meters":12800,"station_id":"ce4bgih2rcd13ifvqba0","pricing_plan_id":"cebpf4jnsgd1na2vs0mg"},{"bike_id":"4ee1e0a9-c034-46a3-aac7-f244d32ddf38","system_id":"levelo_inurba_marseille","lat":43.27374,"lon":5.36257,"is_reserved":false,"is_disabled":false,"rental_uris":{"android":"levelo://app?vid=4ee1e0a9-c034-46a3-aac7-f244d32ddf38","ios":"levelo://app?vid=4ee1e0a9-c034-46a3-aac7-f244d32ddf38"},"vehicle_type_id":"4","last_reported":1741100994,"current_range_meters":12000,"station_id":"ce4bhbh2rcd13ifvqeo0","pricing_plan_id":"cebpf4jnsgd1na2vs0mg"},{"bike_id":"a2b9d686-216a-4f50-ae4b-e7710a444cd6","system_id":"levelo_inurba_marseille","lat":43.25018,"lon":5.38899,"is_reserved":false,"is_disabled":false,"rental_uris":{"android":"levelo://app?vid=a2b9d686-216a-4f50-ae4b-e7710a444cd6","ios":"levelo://app?vid=a2b9d686-216a-4f50-ae4b-e7710a444cd6"},"vehicle_type_id":"4","last_reported":1741100994,"current_range_meters":12800,"station_id":"ce4bhgp2rcd13ifvqfd0","pricing_plan_id":"cebpf4jnsgd1na2vs0mg"},{"bike_id":"50434b39-64cb-4f70-b367-86dbc7ba0a58","system_id":"levelo_inurba_marseille","lat":43.27093,"lon":5.363,"is_reserved":false,"is_disabled":false,"rental_uris":{"android":"levelo://app?vid=50434b39-64cb-4f70-b367-86dbc7ba0a58","ios":"levelo://app?vid=50434b39-64cb-4f70-b367-86dbc7ba0a58"},"vehicle_type_id":"4","last_reported":1741100994,"current_range_meters":12800,"station_id":"ce4bgj92rcd13ifvqbe0","pricing_plan_id":"cebpf4jnsgd1na2vs0mg"},{"bike_id":"51f6f578-8898-487a-9da7-ff3d6d379d1b","system_id":"levelo_inurba_marseille","lat":43.32088,"lon":5.36774,"is_reserved":false,"is_disabled":false,"rental_uris":{"android":"levelo://app?vid=51f6f578-8898-487a-9da7-ff3d6d379d1b","ios":"levelo://app?vid=51f6f578-8898-487a-9da7-ff3d6d379d1b"},"vehicle_type_id":"4","last_reported":1741100994,"current_range_meters":12800,"station_id":"ce4bhrh2rcd13ifvqhug","pricing_plan_id":"cebpf4jnsgd1na2vs0mg"},{"bike_id":"508b988e-5215-41fb-91fa-2f9c6cff83ba","system_id":"levelo_inurba_marseille","lat":43.28462,"lon":5.35858,"is_reserved":false,"is_disabled":false,"rental_uris":{"android":"levelo://app?vid=508b988e-5215-41fb-91fa-2f9c6cff83ba","ios":"levelo://app?vid=508b988e-5215-41fb-91fa-2f9c6cff83ba"},"vehicle_type_id":"4","last_reported":1741100994,"current_range_meters":13600,"station_id":"ce4bhah2rcd13ifvqei0","pricing_plan_id":"cebpf4jnsgd1na2vs0mg"},{"bike_id":"53b35001-fee4-4ffd-9b8c-e9c7a76700c3","system_id":"levelo_inurba_marseille","lat":43.23142,"lon":5.43729,"is_reserved":false,"is_disabled":false,"rental_uris":{"android":"levelo://app?vid=53b35001-fee4-4ffd-9b8c-e9c7a76700c3","ios":"levelo://app?vid=53b35001-fee4-4ffd-9b8c-e9c7a76700c3"},"vehicle_type_id":"4","last_reported":1741100994,"current_range_meters":13600,"station_id":"ce4bhmp2rcd13ifvqgog","pricing_plan_id":"cebpf4jnsgd1na2vs0mg"},{"bike_id":"e7e0f986-f0f9-4979-87fa-6a165460d4b7","system_id":"levelo_inurba_marseille","lat":43.27821,"lon":5.39206,"is_reserved":false,"is_disabled":false,"rental_uris":{"android":"levelo://app?vid=e7e0f986-f0f9-4979-87fa-6a165460d4b7","ios":"levelo://app?vid=e7e0f986-f0f9-4979-87fa-6a165460d4b7"},"vehicle_type_id":"4","last_reported":1741100994,"current_range_meters":13600,"station_id":"ce4bhjp2rcd13ifvqga0","pricing_plan_id":"cebpf4jnsgd1na2vs0mg"},{"bike_id":"9c048722-3e4a-4303-a4d4-37dea02faf02","system_id":"levelo_inurba_marseille","lat":43.29795,"lon":5.38131,"is_reserved":false,"is_disabled":false,"rental_uris":{"android":"levelo://app?vid=9c048722-3e4a-4303-a4d4-37dea02faf02","ios":"levelo://app?vid=9c048722-3e4a-4303-a4d4-37dea02faf02"},"vehicle_type_id":"4","last_reported":1741100994,"current_range_meters":13600,"station_id":"ce4bgip2rcd13ifvqbb0","pricing_plan_id":"cebpf4jnsgd1na2vs0mg"},{"bike_id":"3b1a2be8-40b6-4fdb-934d-2f6321c06e93","system_id":"levelo_inurba_marseille","lat":43.26492,"lon":5.39539,"is_reserved":false,"is_disabled":false,"rental_uris":{"android":"levelo://app?vid=3b1a2be8-40b6-4fdb-934d-2f6321c06e93","ios":"levelo://app?vid=3b1a2be8-40b6-4fdb-934d-2f6321c06e93"},"vehicle_type_id":"4","last_reported":1741100994,"current_range_meters":14000,"station_id":"ce4bhi12rcd13ifvqfq0","pricing_plan_id":"cebpf4jnsgd1na2vs0mg"},{"bike_id":"ab26feeb-f480-440e-b93f-4ba78d100304","system_id":"levelo_inurba_marseille","lat":43.31227,"lon":5.36861,"is_reserved":false,"is_disabled":false,"rental_uris":{"android":"levelo://app?vid=ab26feeb-f480-440e-b93f-4ba78d100304","ios":"levelo://app?vid=ab26feeb-f480-440e-b93f-4ba78d100304"},"vehicle_type_id":"4","last_reported":1741100994,"current_range_meters":14000,"station_id":"ce4bgl92rcd13ifvqbq0","pricing_plan_id":"cebpf4jnsgd1na2vs0mg"},{"bike_id":"4167f6bd-40b7-45c1-950d-68f467926bd6","system_id":"levelo_inurba_marseille","lat":43.28971,"lon":5.37849,"is_reserved":false,"is_disabled":true,"rental_uris":{"android":"levelo://app?vid=4167f6bd-40b7-45c1-950d-68f467926bd6","ios":"levelo://app?vid=4167f6bd-40b7-45c1-950d-68f467926bd6"},"vehicle_type_id":"4","last_reported":1741100994,"current_range_meters":14000,"station_id":"ce4bh9p2rcd13ifvqed0","pricing_plan_id":"cebpf4jnsgd1na2vs0mg"},{"bike_id":"dbde6629-5b50-436e-876b-b6df8c1869ad","system_id":"levelo_inurba_marseille","lat":43.27372,"lon":5.36252,"is_reserved":false,"is_disabled":false,"rental_uris":{"android":"levelo://app?vid=dbde6629-5b50-436e-876b-b6df8c1869ad","ios":"levelo://app?vid=dbde6629-5b50-436e-876b-b6df8c1869ad"},"vehicle_type_id":"4","last_reported":1741100994,"current_range_meters":12800,"station_id":"ce4bhbh2rcd13ifvqeo0","pricing_plan_id":"cebpf4jnsgd1na2vs0mg"},{"bike_id":"2c756862-4af4-4749-95c4-e1909c074d6c","system_id":"levelo_inurba_marseille","lat":43.28349,"lon":5.38108,"is_reserved":false,"is_disabled":false,"rental_uris":{"android":"levelo://app?vid=2c756862-4af4-4749-95c4-e1909c074d6c","ios":"levelo://app?vid=2c756862-4af4-4749-95c4-e1909c074d6c"},"vehicle_type_id":"4","last_reported":1741100994,"current_range_meters":14400,"station_id":"ce4bh412rcd13ifvqdr0","pricing_plan_id":"cebpf4jnsgd1na2vs0mg"},{"bike_id":"8ce98dda-f735-4c4f-b968-cb091a44a68c","system_id":"levelo_inurba_marseille","lat":43.28112,"lon":5.37837,"is_reserved":false,"is_disabled":false,"rental_uris":{"android":"levelo://app?vid=8ce98dda-f735-4c4f-b968-cb091a44a68c","ios":"levelo://app?vid=8ce98dda-f735-4c4f-b968-cb091a44a68c"},"vehicle_type_id":"4","last_reported":1741100994,"current_range_meters":14400,"station_id":"ce4bha12rcd13ifvqee0","pricing_plan_id":"cebpf4jnsgd1na2vs0mg"},{"bike_id":"eb017b8f-3af5-4ac8-a48a-db029d6a5993","system_id":"levelo_inurba_marseille","lat":43.31696,"lon":5.40473,"is_reserved":false,"is_disabled":false,"rental_uris":{"android":"levelo://app?vid=eb017b8f-3af5-4ac8-a48a-db029d6a5993","ios":"levelo://app?vid=eb017b8f-3af5-4ac8-a48a-db029d6a5993"},"vehicle_type_id":"4","last_reported":1741100994,"current_range_meters":14400,"station_id":"ce4bh012rcd13ifvqd00","pricing_plan_id":"cebpf4jnsgd1na2vs0mg"},{"bike_id":"5c3494f8-7793-4b5f-b134-fb39109d1c75","system_id":"levelo_inurba_marseille","lat":43.2961,"lon":5.37664,"is_reserved":false,"is_disabled":false,"rental_uris":{"android":"levelo://app?vid=5c3494f8-7793-4b5f-b134-fb39109d1c75","ios":"levelo://app?vid=5c3494f8-7793-4b5f-b134-fb39109d1c75"},"vehicle_type_id":"4","last_reported":1741100994,"current_range_meters":14400,"station_id":"","pricing_plan_id":"cebpf4jnsgd1na2vs0mg"},{"bike_id":"c840bf67-8766-42fa-a793-52a0ccbd5077","system_id":"levelo_inurba_marseille","lat":43.31365,"lon":5.36689,"is_reserved":false,"is_disabled":false,"rental_uris":{"android":"levelo://app?vid=c840bf67-8766-42fa-a793-52a0ccbd5077","ios":"levelo://app?vid=c840bf67-8766-42fa-a793-52a0ccbd5077"},"vehicle_type_id":"4","last_reported":1741100994,"current_range_meters":14400,"station_id":"ce4bgr92rcd13ifvqc6g","pricing_plan_id":"cebpf4jnsgd1na2vs0mg"},{"bike_id":"f8b34b05-3ce8-4023-b46a-493d367bd4f6","system_id":"levelo_inurba_marseille","lat":43.27185,"lon":5.4099,"is_reserved":false,"is_disabled":false,"rental_uris":{"android":"levelo://app?vid=f8b34b05-3ce8-4023-b46a-493d367bd4f6","ios":"levelo://app?vid=f8b34b05-3ce8-4023-b46a-493d367bd4f6"},"vehicle_type_id":"4","last_reported":1741100994,"current_range_meters":14400,"station_id":"ce4bhl12rcd13ifvqgf0","pricing_plan_id":"cebpf4jnsgd1na2vs0mg"},{"bike_id":"0eb9fef3-83c8-47c8-ad9e-cfe2998c47d1","system_id":"levelo_inurba_marseille","lat":43.31099,"lon":5.37552,"is_reserved":false,"is_disabled":false,"rental_uris":{"android":"levelo://app?vid=0eb9fef3-83c8-47c8-ad9e-cfe2998c47d1","ios":"levelo://app?vid=0eb9fef3-83c8-47c8-ad9e-cfe2998c47d1"},"vehicle_type_id":"4","last_reported":1741100994,"current_range_meters":14800,"station_id":"","pricing_plan_id":"cebpf4jnsgd1na2vs0mg"},{"bike_id":"e2561f86-c403-4b29-a057-bfc8bac05a51","system_id":"levelo_inurba_marseille","lat":43.30179,"lon":5.37416,"is_reserved":false,"is_disabled":false,"rental_uris":{"android":"levelo://app?vid=e2561f86-c403-4b29-a057-bfc8bac05a51","ios":"levelo://app?vid=e2561f86-c403-4b29-a057-bfc8bac05a51"},"vehicle_type_id":"4","last_reported":1741100994,"current_range_meters":14800,"station_id":"ce4bgs92rcd13ifvqcc0","pricing_plan_id":"cebpf4jnsgd1na2vs0mg"},{"bike_id":"d571166c-77a4-4a91-b051-9cc34ad31336","system_id":"levelo_inurba_marseille","lat":43.30173,"lon":5.39382,"is_reserved":false,"is_disabled":false,"rental_uris":{"android":"levelo://app?vid=d571166c-77a4-4a91-b051-9cc34ad31336","ios":"levelo://app?vid=d571166c-77a4-4a91-b051-9cc34ad31336"},"vehicle_type_id":"4","last_reported":1741100994,"current_range_meters":14800,"station_id":"","pricing_plan_id":"cebpf4jnsgd1na2vs0mg"},{"bike_id":"220fb6bc-bee9-4bd3-814d-c36622a0556a","system_id":"levelo_inurba_marseille","lat":43.29938,"lon":5.36548,"is_reserved":false,"is_disabled":false,"rental_uris":{"android":"levelo://app?vid=220fb6bc-bee9-4bd3-814d-c36622a0556a","ios":"levelo://app?vid=220fb6bc-bee9-4bd3-814d-c36622a0556a"},"vehicle_type_id":"4","last_reported":1741100994,"current_range_meters":14800,"station_id":"ce4bgm92rcd13ifvqbr0","pricing_plan_id":"cebpf4jnsgd1na2vs0mg"},{"bike_id":"3e7808f3-0c04-4991-9bad-c2eb66a1ffd3","system_id":"levelo_inurba_marseille","lat":43.2314,"lon":5.4371,"is_reserved":false,"is_disabled":false,"rental_uris":{"android":"levelo://app?vid=3e7808f3-0c04-4991-9bad-c2eb66a1ffd3","ios":"levelo://app?vid=3e7808f3-0c04-4991-9bad-c2eb66a1ffd3"},"vehicle_type_id":"4","last_reported":1741100994,"current_range_meters":14800,"station_id":"ce4bhmp2rcd13ifvqgog","pricing_plan_id":"cebpf4jnsgd1na2vs0mg"},{"bike_id":"4fc6e71c-d012-4f69-b598-c961f4c7820c","system_id":"levelo_inurba_marseille","lat":43.26501,"lon":5.39564,"is_reserved":false,"is_disabled":false,"rental_uris":{"android":"levelo://app?vid=4fc6e71c-d012-4f69-b598-c961f4c7820c","ios":"levelo://app?vid=4fc6e71c-d012-4f69-b598-c961f4c7820c"},"vehicle_type_id":"4","last_reported":1741100994,"current_range_meters":15200,"station_id":"ce4bhi12rcd13ifvqfq0","pricing_plan_id":"cebpf4jnsgd1na2vs0mg"},{"bike_id":"08e28076-e4cc-4bb3-b2d6-53a65e282a52","system_id":"levelo_inurba_marseille","lat":43.23156,"lon":5.43695,"is_reserved":false,"is_disabled":false,"rental_uris":{"android":"levelo://app?vid=08e28076-e4cc-4bb3-b2d6-53a65e282a52","ios":"levelo://app?vid=08e28076-e4cc-4bb3-b2d6-53a65e282a52"},"vehicle_type_id":"4","last_reported":1741100994,"current_range_meters":15200,"station_id":"ce4bhmp2rcd13ifvqgog","pricing_plan_id":"cebpf4jnsgd1na2vs0mg"},{"bike_id":"6dcbfb2b-4676-4562-8867-6903e4380b81","system_id":"levelo_inurba_marseille","lat":43.29895,"lon":5.39729,"is_reserved":false,"is_disabled":false,"rental_uris":{"android":"levelo://app?vid=6dcbfb2b-4676-4562-8867-6903e4380b81","ios":"levelo://app?vid=6dcbfb2b-4676-4562-8867-6903e4380b81"},"vehicle_type_id":"4","last_reported":1741100994,"current_range_meters":15200,"station_id":"ce4bh0h2rcd13ifvqd50","pricing_plan_id":"cebpf4jnsgd1na2vs0mg"},{"bike_id":"7cd5e07c-ad2a-4af8-99d9-77c41335ce79","system_id":"levelo_inurba_marseille","lat":43.24163,"lon":5.36397,"is_reserved":false,"is_disabled":false,"rental_uris":{"android":"levelo://app?vid=7cd5e07c-ad2a-4af8-99d9-77c41335ce79","ios":"levelo://app?vid=7cd5e07c-ad2a-4af8-99d9-77c41335ce79"},"vehicle_type_id":"4","last_reported":1741100994,"current_range_meters":15200,"station_id":"cpo36qri1sfpv3e86is0","pricing_plan_id":"cebpf4jnsgd1na2vs0mg"},{"bike_id":"2ce061b9-e530-464d-b6bc-965d4a9c7be8","system_id":"levelo_inurba_marseille","lat":43.33424,"lon":5.40058,"is_reserved":false,"is_disabled":false,"rental_uris":{"android":"levelo://app?vid=2ce061b9-e530-464d-b6bc-965d4a9c7be8","ios":"levelo://app?vid=2ce061b9-e530-464d-b6bc-965d4a9c7be8"},"vehicle_type_id":"4","last_reported":1741100994,"current_range_meters":15200,"station_id":"","pricing_plan_id":"cebpf4jnsgd1na2vs0mg"},{"bike_id":"d1dfb0b4-7760-400b-b437-85c24c17b5f7","system_id":"levelo_inurba_marseille","lat":43.23961,"lon":5.36661,"is_reserved":false,"is_disabled":false,"rental_uris":{"android":"levelo://app?vid=d1dfb0b4-7760-400b-b437-85c24c17b5f7","ios":"levelo://app?vid=d1dfb0b4-7760-400b-b437-85c24c17b5f7"},"vehicle_type_id":"4","last_reported":1741100994,"current_range_meters":15200,"station_id":"ce4bhi12rcd13ifvqfp0","pricing_plan_id":"cebpf4jnsgd1na2vs0mg"},{"bike_id":"cc946020-ca96-4a5c-a64f-95100a7f1999","system_id":"levelo_inurba_marseille","lat":43.30541,"lon":5.36708,"is_reserved":false,"is_disabled":false,"rental_uris":{"android":"levelo://app?vid=cc946020-ca96-4a5c-a64f-95100a7f1999","ios":"levelo://app?vid=cc946020-ca96-4a5c-a64f-95100a7f1999"},"vehicle_type_id":"4","last_reported":1741100994,"current_range_meters":15200,"station_id":"ce4bgrp2rcd13ifvqc9g","pricing_plan_id":"cebpf4jnsgd1na2vs0mg"},{"bike_id":"6b388295-ffaf-4ff0-9937-a4efb230d3e2","system_id":"levelo_inurba_marseille","lat":43.24168,"lon":5.36432,"is_reserved":false,"is_disabled":false,"rental_uris":{"android":"levelo://app?vid=6b388295-ffaf-4ff0-9937-a4efb230d3e2","ios":"levelo://app?vid=6b388295-ffaf-4ff0-9937-a4efb230d3e2"},"vehicle_type_id":"4","last_reported":1741100994,"current_range_meters":16000,"station_id":"cpo36qri1sfpv3e86is0","pricing_plan_id":"cebpf4jnsgd1na2vs0mg"},{"bike_id":"edbfbd9c-4fb6-4f99-8197-94d74a06498a","system_id":"levelo_inurba_marseille","lat":43.31229,"lon":5.36859,"is_reserved":false,"is_disabled":false,"rental_uris":{"android":"levelo://app?vid=edbfbd9c-4fb6-4f99-8197-94d74a06498a","ios":"levelo://app?vid=edbfbd9c-4fb6-4f99-8197-94d74a06498a"},"vehicle_type_id":"4","last_reported":1741100994,"current_range_meters":15200,"station_id":"ce4bgl92rcd13ifvqbq0","pricing_plan_id":"cebpf4jnsgd1na2vs0mg"},{"bike_id":"cb496853-36b1-44cf-ae52-f62222f24638","system_id":"levelo_inurba_marseille","lat":43.31505,"lon":5.37313,"is_reserved":false,"is_disabled":false,"rental_uris":{"android":"levelo://app?vid=cb496853-36b1-44cf-ae52-f62222f24638","ios":"levelo://app?vid=cb496853-36b1-44cf-ae52-f62222f24638"},"vehicle_type_id":"4","last_reported":1741100994,"current_range_meters":16000,"station_id":"ce4bgt12rcd13ifvqcd0","pricing_plan_id":"cebpf4jnsgd1na2vs0mg"},{"bike_id":"56f807c6-3a2a-48f0-b6b7-8d1081332169","system_id":"levelo_inurba_marseille","lat":43.31377,"lon":5.36711,"is_reserved":false,"is_disabled":false,"rental_uris":{"android":"levelo://app?vid=56f807c6-3a2a-48f0-b6b7-8d1081332169","ios":"levelo://app?vid=56f807c6-3a2a-48f0-b6b7-8d1081332169"},"vehicle_type_id":"4","last_reported":1741100994,"current_range_meters":16000,"station_id":"ce4bgr92rcd13ifvqc6g","pricing_plan_id":"cebpf4jnsgd1na2vs0mg"},{"bike_id":"e5f4b65c-909d-4a86-8248-5d250f892a09","system_id":"levelo_inurba_marseille","lat":43.30929,"lon":5.40148,"is_reserved":false,"is_disabled":false,"rental_uris":{"android":"levelo://app?vid=e5f4b65c-909d-4a86-8248-5d250f892a09","ios":"levelo://app?vid=e5f4b65c-909d-4a86-8248-5d250f892a09"},"vehicle_type_id":"4","last_reported":1741100994,"current_range_meters":16000,"station_id":"ce4bgvp2rcd13ifvqct0","pricing_plan_id":"cebpf4jnsgd1na2vs0mg"},{"bike_id":"2c52cd5a-30c0-4d3e-804e-0cb631170f69","system_id":"levelo_inurba_marseille","lat":43.26937,"lon":5.4026,"is_reserved":false,"is_disabled":false,"rental_uris":{"android":"levelo://app?vid=2c52cd5a-30c0-4d3e-804e-0cb631170f69","ios":"levelo://app?vid=2c52cd5a-30c0-4d3e-804e-0cb631170f69"},"vehicle_type_id":"4","last_reported":1741100994,"current_range_meters":14000,"station_id":"cjm6bp8fraef2m0cb0m0","pricing_plan_id":"cebpf4jnsgd1na2vs0mg"},{"bike_id":"9a6b1dcb-3594-4bb4-ab0b-6b30c24a905b","system_id":"levelo_inurba_marseille","lat":43.23153,"lon":5.43729,"is_reserved":false,"is_disabled":false,"rental_uris":{"android":"levelo://app?vid=9a6b1dcb-3594-4bb4-ab0b-6b30c24a905b","ios":"levelo://app?vid=9a6b1dcb-3594-4bb4-ab0b-6b30c24a905b"},"vehicle_type_id":"4","last_reported":1741100994,"current_range_meters":16000,"station_id":"ce4bhmp2rcd13ifvqgog","pricing_plan_id":"cebpf4jnsgd1na2vs0mg"},{"bike_id":"03d5bd23-db2c-4a3d-9573-a1403447f741","system_id":"levelo_inurba_marseille","lat":43.27816,"lon":5.4072,"is_reserved":false,"is_disabled":false,"rental_uris":{"android":"levelo://app?vid=03d5bd23-db2c-4a3d-9573-a1403447f741","ios":"levelo://app?vid=03d5bd23-db2c-4a3d-9573-a1403447f741"},"vehicle_type_id":"4","last_reported":1741100994,"current_range_meters":16000,"station_id":"ce4bhnh2rcd13ifvqgtg","pricing_plan_id":"cebpf4jnsgd1na2vs0mg"},{"bike_id":"732fea75-0bbb-46dd-a0a2-9856cd84deda","system_id":"levelo_inurba_marseille","lat":43.28759,"lon":5.37926,"is_reserved":false,"is_disabled":false,"rental_uris":{"android":"levelo://app?vid=732fea75-0bbb-46dd-a0a2-9856cd84deda","ios":"levelo://app?vid=732fea75-0bbb-46dd-a0a2-9856cd84deda"},"vehicle_type_id":"4","last_reported":1741100994,"current_range_meters":16000,"station_id":"ce4bh9p2rcd13ifvqec0","pricing_plan_id":"cebpf4jnsgd1na2vs0mg"},{"bike_id":"4aa0812c-e68d-459b-89b0-2f7e8318c21e","system_id":"levelo_inurba_marseille","lat":43.26568,"lon":5.39008,"is_reserved":false,"is_disabled":false,"rental_uris":{"android":"levelo://app?vid=4aa0812c-e68d-459b-89b0-2f7e8318c21e","ios":"levelo://app?vid=4aa0812c-e68d-459b-89b0-2f7e8318c21e"},"vehicle_type_id":"4","last_reported":1741100994,"current_range_meters":16000,"station_id":"ce4bhe12rcd13ifvqf30","pricing_plan_id":"cebpf4jnsgd1na2vs0mg"},{"bike_id":"1c3f8b67-47ba-4f3c-bf41-7765c877f532","system_id":"levelo_inurba_marseille","lat":43.27073,"lon":5.42286,"is_reserved":false,"is_disabled":false,"rental_uris":{"android":"levelo://app?vid=1c3f8b67-47ba-4f3c-bf41-7765c877f532","ios":"levelo://app?vid=1c3f8b67-47ba-4f3c-bf41-7765c877f532"},"vehicle_type_id":"4","last_reported":1741100994,"current_range_meters":16000,"station_id":"ce4bhk92rcd13ifvqgb0","pricing_plan_id":"cebpf4jnsgd1na2vs0mg"},{"bike_id":"22b507dc-75c6-49d7-b84b-513dedaad7cf","system_id":"levelo_inurba_marseille","lat":43.2315,"lon":5.43721,"is_reserved":false,"is_disabled":false,"rental_uris":{"android":"levelo://app?vid=22b507dc-75c6-49d7-b84b-513dedaad7cf","ios":"levelo://app?vid=22b507dc-75c6-49d7-b84b-513dedaad7cf"},"vehicle_type_id":"4","last_reported":1741100994,"current_range_meters":16400,"station_id":"ce4bhmp2rcd13ifvqgog","pricing_plan_id":"cebpf4jnsgd1na2vs0mg"},{"bike_id":"e27df6bd-ed90-4561-bc01-4b081cf7e47e","system_id":"levelo_inurba_marseille","lat":43.22935,"lon":5.35386,"is_reserved":false,"is_disabled":false,"rental_uris":{"android":"levelo://app?vid=e27df6bd-ed90-4561-bc01-4b081cf7e47e","ios":"levelo://app?vid=e27df6bd-ed90-4561-bc01-4b081cf7e47e"},"vehicle_type_id":"4","last_reported":1741100994,"current_range_meters":16000,"station_id":"cpo3532slgdg3j2ikp40","pricing_plan_id":"cebpf4jnsgd1na2vs0mg"},{"bike_id":"28096b7f-96ae-4ea2-8ceb-2396385a6306","system_id":"levelo_inurba_marseille","lat":43.24648,"lon":5.3888,"is_reserved":false,"is_disabled":true,"rental_uris":{"android":"levelo://app?vid=28096b7f-96ae-4ea2-8ceb-2396385a6306","ios":"levelo://app?vid=28096b7f-96ae-4ea2-8ceb-2396385a6306"},"vehicle_type_id":"4","last_reported":1741100994,"current_range_meters":16400,"station_id":"ce4bhg12rcd13ifvqf60","pricing_plan_id":"cebpf4jnsgd1na2vs0mg"},{"bike_id":"b36158c6-f1be-4616-86d4-570d60416818","system_id":"levelo_inurba_marseille","lat":43.27809,"lon":5.40713,"is_reserved":false,"is_disabled":false,"rental_uris":{"android":"levelo://app?vid=b36158c6-f1be-4616-86d4-570d60416818","ios":"levelo://app?vid=b36158c6-f1be-4616-86d4-570d60416818"},"vehicle_type_id":"4","last_reported":1741100994,"current_range_meters":16400,"station_id":"ce4bhnh2rcd13ifvqgtg","pricing_plan_id":"cebpf4jnsgd1na2vs0mg"},{"bike_id":"eb872df7-4a6d-4cb1-bb8d-1424f91a322c","system_id":"levelo_inurba_marseille","lat":43.29934,"lon":5.36554,"is_reserved":false,"is_disabled":false,"rental_uris":{"android":"levelo://app?vid=eb872df7-4a6d-4cb1-bb8d-1424f91a322c","ios":"levelo://app?vid=eb872df7-4a6d-4cb1-bb8d-1424f91a322c"},"vehicle_type_id":"4","last_reported":1741100994,"current_range_meters":16400,"station_id":"ce4bgm92rcd13ifvqbr0","pricing_plan_id":"cebpf4jnsgd1na2vs0mg"},{"bike_id":"7aa81538-4ce5-4ac2-84fe-ce3d166e7e36","system_id":"levelo_inurba_marseille","lat":43.2621,"lon":5.37443,"is_reserved":false,"is_disabled":false,"rental_uris":{"android":"levelo://app?vid=7aa81538-4ce5-4ac2-84fe-ce3d166e7e36","ios":"levelo://app?vid=7aa81538-4ce5-4ac2-84fe-ce3d166e7e36"},"vehicle_type_id":"4","last_reported":1741100994,"current_range_meters":16400,"station_id":"ce4bhgp2rcd13ifvqfc0","pricing_plan_id":"cebpf4jnsgd1na2vs0mg"},{"bike_id":"2c178348-dba0-4ce8-af92-213ec53d9efd","system_id":"levelo_inurba_marseille","lat":43.30884,"lon":5.39652,"is_reserved":false,"is_disabled":false,"rental_uris":{"android":"levelo://app?vid=2c178348-dba0-4ce8-af92-213ec53d9efd","ios":"levelo://app?vid=2c178348-dba0-4ce8-af92-213ec53d9efd"},"vehicle_type_id":"4","last_reported":1741100994,"current_range_meters":16800,"station_id":"ce4bh012rcd13ifvqcv0","pricing_plan_id":"cebpf4jnsgd1na2vs0mg"},{"bike_id":"1b7f2ecb-65f3-4ef5-bf39-3df691fb238e","system_id":"levelo_inurba_marseille","lat":43.2988,"lon":5.3972,"is_reserved":false,"is_disabled":false,"rental_uris":{"android":"levelo://app?vid=1b7f2ecb-65f3-4ef5-bf39-3df691fb238e","ios":"levelo://app?vid=1b7f2ecb-65f3-4ef5-bf39-3df691fb238e"},"vehicle_type_id":"4","last_reported":1741100994,"current_range_meters":16400,"station_id":"ce4bh0h2rcd13ifvqd50","pricing_plan_id":"cebpf4jnsgd1na2vs0mg"},{"bike_id":"94c45150-4794-4917-b075-efa6ea9bdc9b","system_id":"levelo_inurba_marseille","lat":43.26549,"lon":5.37305,"is_reserved":false,"is_disabled":false,"rental_uris":{"android":"levelo://app?vid=94c45150-4794-4917-b075-efa6ea9bdc9b","ios":"levelo://app?vid=94c45150-4794-4917-b075-efa6ea9bdc9b"},"vehicle_type_id":"4","last_reported":1741100994,"current_range_meters":16400,"station_id":"ce4bhg12rcd13ifvqf70","pricing_plan_id":"cebpf4jnsgd1na2vs0mg"},{"bike_id":"5bfb7fa0-7cf6-441e-8542-6a7ac3390e58","system_id":"levelo_inurba_marseille","lat":43.2957,"lon":5.39979,"is_reserved":false,"is_disabled":false,"rental_uris":{"android":"levelo://app?vid=5bfb7fa0-7cf6-441e-8542-6a7ac3390e58","ios":"levelo://app?vid=5bfb7fa0-7cf6-441e-8542-6a7ac3390e58"},"vehicle_type_id":"4","last_reported":1741100994,"current_range_meters":16000,"station_id":"ce4bh312rcd13ifvqdj0","pricing_plan_id":"cebpf4jnsgd1na2vs0mg"},{"bike_id":"31fbe9cc-00ec-4ca5-bdd2-4d87ea625816","system_id":"levelo_inurba_marseille","lat":43.30599,"lon":5.37217,"is_reserved":false,"is_disabled":false,"rental_uris":{"android":"levelo://app?vid=31fbe9cc-00ec-4ca5-bdd2-4d87ea625816","ios":"levelo://app?vid=31fbe9cc-00ec-4ca5-bdd2-4d87ea625816"},"vehicle_type_id":"4","last_reported":1741100994,"current_range_meters":16800,"station_id":"ce4bgqh2rcd13ifvqc4g","pricing_plan_id":"cebpf4jnsgd1na2vs0mg"},{"bike_id":"330426bc-0af9-4c3e-8e4c-6ec10833df11","system_id":"levelo_inurba_marseille","lat":43.29903,"lon":5.43673,"is_reserved":false,"is_disabled":false,"rental_uris":{"android":"levelo://app?vid=330426bc-0af9-4c3e-8e4c-6ec10833df11","ios":"levelo://app?vid=330426bc-0af9-4c3e-8e4c-6ec10833df11"},"vehicle_type_id":"4","last_reported":1741100994,"current_range_meters":16800,"station_id":"ce4bhpp2rcd13ifvqhfg","pricing_plan_id":"cebpf4jnsgd1na2vs0mg"},{"bike_id":"9cd993cb-2f5f-42ce-b5ab-d671c19f069d","system_id":"levelo_inurba_marseille","lat":43.3295,"lon":5.40219,"is_reserved":false,"is_disabled":false,"rental_uris":{"android":"levelo://app?vid=9cd993cb-2f5f-42ce-b5ab-d671c19f069d","ios":"levelo://app?vid=9cd993cb-2f5f-42ce-b5ab-d671c19f069d"},"vehicle_type_id":"4","last_reported":1741100994,"current_range_meters":17200,"station_id":"","pricing_plan_id":"cebpf4jnsgd1na2vs0mg"},{"bike_id":"2aa42611-b92d-451f-9264-4ee7f9248f4e","system_id":"levelo_inurba_marseille","lat":43.30532,"lon":5.36531,"is_reserved":false,"is_disabled":false,"rental_uris":{"android":"levelo://app?vid=2aa42611-b92d-451f-9264-4ee7f9248f4e","ios":"levelo://app?vid=2aa42611-b92d-451f-9264-4ee7f9248f4e"},"vehicle_type_id":"4","last_reported":1741100994,"current_range_meters":16800,"station_id":"ce4bgs12rcd13ifvqcag","pricing_plan_id":"cebpf4jnsgd1na2vs0mg"},{"bike_id":"c6762606-6123-4176-98c0-430a38ac0378","system_id":"levelo_inurba_marseille","lat":43.24763,"lon":5.41166,"is_reserved":false,"is_disabled":false,"rental_uris":{"android":"levelo://app?vid=c6762606-6123-4176-98c0-430a38ac0378","ios":"levelo://app?vid=c6762606-6123-4176-98c0-430a38ac0378"},"vehicle_type_id":"4","last_reported":1741100994,"current_range_meters":16800,"station_id":"","pricing_plan_id":"cebpf4jnsgd1na2vs0mg"},{"bike_id":"0887995a-7163-48cf-a17f-e3237da9ea00","system_id":"levelo_inurba_marseille","lat":43.23184,"lon":5.3999,"is_reserved":false,"is_disabled":false,"rental_uris":{"android":"levelo://app?vid=0887995a-7163-48cf-a17f-e3237da9ea00","ios":"levelo://app?vid=0887995a-7163-48cf-a17f-e3237da9ea00"},"vehicle_type_id":"4","last_reported":1741100994,"current_range_meters":16800,"station_id":"ce4bhn12rcd13ifvqgqg","pricing_plan_id":"cebpf4jnsgd1na2vs0mg"},{"bike_id":"264cfc58-e8d1-4127-98ee-90cc1da4063c","system_id":"levelo_inurba_marseille","lat":43.31328,"lon":5.39695,"is_reserved":false,"is_disabled":false,"rental_uris":{"android":"levelo://app?vid=264cfc58-e8d1-4127-98ee-90cc1da4063c","ios":"levelo://app?vid=264cfc58-e8d1-4127-98ee-90cc1da4063c"},"vehicle_type_id":"4","last_reported":1741100994,"current_range_meters":17200,"station_id":"ce4bgvp2rcd13ifvqcu0","pricing_plan_id":"cebpf4jnsgd1na2vs0mg"},{"bike_id":"c9aedfbd-ed4f-4da5-9011-bb295af4e39f","system_id":"levelo_inurba_marseille","lat":43.25921,"lon":5.40905,"is_reserved":false,"is_disabled":false,"rental_uris":{"android":"levelo://app?vid=c9aedfbd-ed4f-4da5-9011-bb295af4e39f","ios":"levelo://app?vid=c9aedfbd-ed4f-4da5-9011-bb295af4e39f"},"vehicle_type_id":"4","last_reported":1741100994,"current_range_meters":17200,"station_id":"ce4bhm92rcd13ifvqglg","pricing_plan_id":"cebpf4jnsgd1na2vs0mg"},{"bike_id":"59913f31-a035-4f89-97de-5554ff6a5b2e","system_id":"levelo_inurba_marseille","lat":43.26685,"lon":5.3827,"is_reserved":false,"is_disabled":false,"rental_uris":{"android":"levelo://app?vid=59913f31-a035-4f89-97de-5554ff6a5b2e","ios":"levelo://app?vid=59913f31-a035-4f89-97de-5554ff6a5b2e"},"vehicle_type_id":"4","last_reported":1741100994,"current_range_meters":17200,"station_id":"ce4bhg92rcd13ifvqf90","pricing_plan_id":"cebpf4jnsgd1na2vs0mg"},{"bike_id":"6d590dad-1ec7-4c9a-803e-211f7c42cd43","system_id":"levelo_inurba_marseille","lat":43.30092,"lon":5.40063,"is_reserved":false,"is_disabled":false,"rental_uris":{"android":"levelo://app?vid=6d590dad-1ec7-4c9a-803e-211f7c42cd43","ios":"levelo://app?vid=6d590dad-1ec7-4c9a-803e-211f7c42cd43"},"vehicle_type_id":"4","last_reported":1741100994,"current_range_meters":17200,"station_id":"","pricing_plan_id":"cebpf4jnsgd1na2vs0mg"},{"bike_id":"6a2b0cf1-e808-40be-ae07-ac62a48d5b1b","system_id":"levelo_inurba_marseille","lat":43.28214,"lon":5.40277,"is_reserved":false,"is_disabled":false,"rental_uris":{"android":"levelo://app?vid=6a2b0cf1-e808-40be-ae07-ac62a48d5b1b","ios":"levelo://app?vid=6a2b0cf1-e808-40be-ae07-ac62a48d5b1b"},"vehicle_type_id":"4","last_reported":1741100994,"current_range_meters":17200,"station_id":"","pricing_plan_id":"cebpf4jnsgd1na2vs0mg"},{"bike_id":"e1eaefa0-1b27-429c-8106-1b58c97f5e91","system_id":"levelo_inurba_marseille","lat":43.27073,"lon":5.42274,"is_reserved":false,"is_disabled":false,"rental_uris":{"android":"levelo://app?vid=e1eaefa0-1b27-429c-8106-1b58c97f5e91","ios":"levelo://app?vid=e1eaefa0-1b27-429c-8106-1b58c97f5e91"},"vehicle_type_id":"4","last_reported":1741100994,"current_range_meters":17200,"station_id":"ce4bhk92rcd13ifvqgb0","pricing_plan_id":"cebpf4jnsgd1na2vs0mg"},{"bike_id":"e8fb3957-55aa-4712-b8af-a6da8b77890f","system_id":"levelo_inurba_marseille","lat":43.30164,"lon":5.38101,"is_reserved":false,"is_disabled":false,"rental_uris":{"android":"levelo://app?vid=e8fb3957-55aa-4712-b8af-a6da8b77890f","ios":"levelo://app?vid=e8fb3957-55aa-4712-b8af-a6da8b77890f"},"vehicle_type_id":"4","last_reported":1741100994,"current_range_meters":17600,"station_id":"ce4bgjp2rcd13ifvqbh0","pricing_plan_id":"cebpf4jnsgd1na2vs0mg"},{"bike_id":"bcf6da8d-c59a-4bfd-8e70-31f062b9e36f","system_id":"levelo_inurba_marseille","lat":43.27557,"lon":5.38435,"is_reserved":false,"is_disabled":false,"rental_uris":{"android":"levelo://app?vid=bcf6da8d-c59a-4bfd-8e70-31f062b9e36f","ios":"levelo://app?vid=bcf6da8d-c59a-4bfd-8e70-31f062b9e36f"},"vehicle_type_id":"4","last_reported":1741100994,"current_range_meters":17600,"station_id":"ce4bhh92rcd13ifvqfi0","pricing_plan_id":"cebpf4jnsgd1na2vs0mg"},{"bike_id":"6aedb0d3-d884-4d92-97e0-d71e53cd4b15","system_id":"levelo_inurba_marseille","lat":43.30604,"lon":5.37221,"is_reserved":false,"is_disabled":false,"rental_uris":{"android":"levelo://app?vid=6aedb0d3-d884-4d92-97e0-d71e53cd4b15","ios":"levelo://app?vid=6aedb0d3-d884-4d92-97e0-d71e53cd4b15"},"vehicle_type_id":"4","last_reported":1741100994,"current_range_meters":17600,"station_id":"ce4bgqh2rcd13ifvqc4g","pricing_plan_id":"cebpf4jnsgd1na2vs0mg"},{"bike_id":"f55a5ed6-b35f-479f-b111-01a30eb1d544","system_id":"levelo_inurba_marseille","lat":43.25954,"lon":5.40803,"is_reserved":false,"is_disabled":false,"rental_uris":{"android":"levelo://app?vid=f55a5ed6-b35f-479f-b111-01a30eb1d544","ios":"levelo://app?vid=f55a5ed6-b35f-479f-b111-01a30eb1d544"},"vehicle_type_id":"4","last_reported":1741100994,"current_range_meters":17600,"station_id":"","pricing_plan_id":"cebpf4jnsgd1na2vs0mg"},{"bike_id":"faba34a5-5170-484c-a414-f6b11608f3d5","system_id":"levelo_inurba_marseille","lat":43.27801,"lon":5.40712,"is_reserved":false,"is_disabled":false,"rental_uris":{"android":"levelo://app?vid=faba34a5-5170-484c-a414-f6b11608f3d5","ios":"levelo://app?vid=faba34a5-5170-484c-a414-f6b11608f3d5"},"vehicle_type_id":"4","last_reported":1741100994,"current_range_meters":17600,"station_id":"ce4bhnh2rcd13ifvqgtg","pricing_plan_id":"cebpf4jnsgd1na2vs0mg"},{"bike_id":"5af3e5be-f7f6-4918-bac9-968b0797a961","system_id":"levelo_inurba_marseille","lat":43.28424,"lon":5.34987,"is_reserved":false,"is_disabled":false,"rental_uris":{"android":"levelo://app?vid=5af3e5be-f7f6-4918-bac9-968b0797a961","ios":"levelo://app?vid=5af3e5be-f7f6-4918-bac9-968b0797a961"},"vehicle_type_id":"4","last_reported":1741100994,"current_range_meters":17600,"station_id":"ce4bhbh2rcd13ifvqepg","pricing_plan_id":"cebpf4jnsgd1na2vs0mg"},{"bike_id":"fcb1f0d6-5dbd-44e4-91bd-858a8fe20c01","system_id":"levelo_inurba_marseille","lat":43.29795,"lon":5.38103,"is_reserved":false,"is_disabled":false,"rental_uris":{"android":"levelo://app?vid=fcb1f0d6-5dbd-44e4-91bd-858a8fe20c01","ios":"levelo://app?vid=fcb1f0d6-5dbd-44e4-91bd-858a8fe20c01"},"vehicle_type_id":"4","last_reported":1741100994,"current_range_meters":17600,"station_id":"ce4bgip2rcd13ifvqbb0","pricing_plan_id":"cebpf4jnsgd1na2vs0mg"},{"bike_id":"628f8358-db3c-45cd-81d1-44f86a63e568","system_id":"levelo_inurba_marseille","lat":43.232,"lon":5.35547,"is_reserved":false,"is_disabled":false,"rental_uris":{"android":"levelo://app?vid=628f8358-db3c-45cd-81d1-44f86a63e568","ios":"levelo://app?vid=628f8358-db3c-45cd-81d1-44f86a63e568"},"vehicle_type_id":"4","last_reported":1741100994,"current_range_meters":18000,"station_id":"ce4bhu92rcd13ifvqi70","pricing_plan_id":"cebpf4jnsgd1na2vs0mg"},{"bike_id":"459cf470-0e6a-4e2a-b65d-1f3608e597b0","system_id":"levelo_inurba_marseille","lat":43.301558,"lon":5.374161,"is_reserved":false,"is_disabled":false,"rental_uris":{"android":"levelo://app?vid=459cf470-0e6a-4e2a-b65d-1f3608e597b0","ios":"levelo://app?vid=459cf470-0e6a-4e2a-b65d-1f3608e597b0"},"vehicle_type_id":"4","last_reported":1741100994,"current_range_meters":18000,"station_id":"ce4bho12rcd13ifvqh1g","pricing_plan_id":"cebpf4jnsgd1na2vs0mg"},{"bike_id":"ee59b3a3-0f87-489f-91b5-15c91569f1b2","system_id":"levelo_inurba_marseille","lat":43.24171,"lon":5.36396,"is_reserved":false,"is_disabled":false,"rental_uris":{"android":"levelo://app?vid=ee59b3a3-0f87-489f-91b5-15c91569f1b2","ios":"levelo://app?vid=ee59b3a3-0f87-489f-91b5-15c91569f1b2"},"vehicle_type_id":"4","last_reported":1741100994,"current_range_meters":18000,"station_id":"cpo36qri1sfpv3e86is0","pricing_plan_id":"cebpf4jnsgd1na2vs0mg"},{"bike_id":"57cc304b-570e-47e0-b58a-584691de5475","system_id":"levelo_inurba_marseille","lat":43.27999,"lon":5.39995,"is_reserved":false,"is_disabled":false,"rental_uris":{"android":"levelo://app?vid=57cc304b-570e-47e0-b58a-584691de5475","ios":"levelo://app?vid=57cc304b-570e-47e0-b58a-584691de5475"},"vehicle_type_id":"4","last_reported":1741100994,"current_range_meters":18000,"station_id":"ce4bho92rcd13ifvqh4g","pricing_plan_id":"cebpf4jnsgd1na2vs0mg"},{"bike_id":"b53b31ad-b599-4470-907d-398f71167cdf","system_id":"levelo_inurba_marseille","lat":43.31481,"lon":5.37308,"is_reserved":false,"is_disabled":false,"rental_uris":{"android":"levelo://app?vid=b53b31ad-b599-4470-907d-398f71167cdf","ios":"levelo://app?vid=b53b31ad-b599-4470-907d-398f71167cdf"},"vehicle_type_id":"4","last_reported":1741100994,"current_range_meters":18000,"station_id":"ce4bgt12rcd13ifvqcd0","pricing_plan_id":"cebpf4jnsgd1na2vs0mg"},{"bike_id":"37481f92-6845-4b72-af9d-db26cc38fe12","system_id":"levelo_inurba_marseille","lat":43.23124,"lon":5.43698,"is_reserved":false,"is_disabled":false,"rental_uris":{"android":"levelo://app?vid=37481f92-6845-4b72-af9d-db26cc38fe12","ios":"levelo://app?vid=37481f92-6845-4b72-af9d-db26cc38fe12"},"vehicle_type_id":"4","last_reported":1741100994,"current_range_meters":18000,"station_id":"ce4bhmp2rcd13ifvqgog","pricing_plan_id":"cebpf4jnsgd1na2vs0mg"},{"bike_id":"d4eb6f0b-2cdd-4d60-8c1e-2d79e302a1bd","system_id":"levelo_inurba_marseille","lat":43.26227,"lon":5.4045,"is_reserved":false,"is_disabled":false,"rental_uris":{"android":"levelo://app?vid=d4eb6f0b-2cdd-4d60-8c1e-2d79e302a1bd","ios":"levelo://app?vid=d4eb6f0b-2cdd-4d60-8c1e-2d79e302a1bd"},"vehicle_type_id":"4","last_reported":1741100994,"current_range_meters":18800,"station_id":"ce4bhmh2rcd13ifvqgmg","pricing_plan_id":"cebpf4jnsgd1na2vs0mg"},{"bike_id":"d2c6bc69-ed6e-4290-8a0e-6471461adc09","system_id":"levelo_inurba_marseille","lat":43.30546,"lon":5.36524,"is_reserved":false,"is_disabled":false,"rental_uris":{"android":"levelo://app?vid=d2c6bc69-ed6e-4290-8a0e-6471461adc09","ios":"levelo://app?vid=d2c6bc69-ed6e-4290-8a0e-6471461adc09"},"vehicle_type_id":"4","last_reported":1741100994,"current_range_meters":18800,"station_id":"ce4bgs12rcd13ifvqcag","pricing_plan_id":"cebpf4jnsgd1na2vs0mg"},{"bike_id":"18328c90-0462-4a12-8e1e-03a825fd4396","system_id":"levelo_inurba_marseille","lat":43.29921,"lon":5.37472,"is_reserved":false,"is_disabled":false,"rental_uris":{"android":"levelo://app?vid=18328c90-0462-4a12-8e1e-03a825fd4396","ios":"levelo://app?vid=18328c90-0462-4a12-8e1e-03a825fd4396"},"vehicle_type_id":"4","last_reported":1741100994,"current_range_meters":18800,"station_id":"ce4bgjh2rcd13ifvqbg0","pricing_plan_id":"cebpf4jnsgd1na2vs0mg"},{"bike_id":"8dd64568-2e8d-4766-9157-3a44c5f79944","system_id":"levelo_inurba_marseille","lat":43.30558,"lon":5.36535,"is_reserved":false,"is_disabled":false,"rental_uris":{"android":"levelo://app?vid=8dd64568-2e8d-4766-9157-3a44c5f79944","ios":"levelo://app?vid=8dd64568-2e8d-4766-9157-3a44c5f79944"},"vehicle_type_id":"4","last_reported":1741100994,"current_range_meters":18800,"station_id":"ce4bgs12rcd13ifvqcag","pricing_plan_id":"cebpf4jnsgd1na2vs0mg"},{"bike_id":"dcc14af6-0440-402e-9ec6-3835c0cf4d8b","system_id":"levelo_inurba_marseille","lat":43.26955,"lon":5.38643,"is_reserved":false,"is_disabled":false,"rental_uris":{"android":"levelo://app?vid=dcc14af6-0440-402e-9ec6-3835c0cf4d8b","ios":"levelo://app?vid=dcc14af6-0440-402e-9ec6-3835c0cf4d8b"},"vehicle_type_id":"4","last_reported":1741100994,"current_range_meters":18800,"station_id":"ce4bhh92rcd13ifvqfh0","pricing_plan_id":"cebpf4jnsgd1na2vs0mg"},{"bike_id":"21e22bd9-ce2f-47c2-8742-58266144ad34","system_id":"levelo_inurba_marseille","lat":43.30518,"lon":5.36538,"is_reserved":false,"is_disabled":false,"rental_uris":{"android":"levelo://app?vid=21e22bd9-ce2f-47c2-8742-58266144ad34","ios":"levelo://app?vid=21e22bd9-ce2f-47c2-8742-58266144ad34"},"vehicle_type_id":"4","last_reported":1741100994,"current_range_meters":18800,"station_id":"ce4bgs12rcd13ifvqcag","pricing_plan_id":"cebpf4jnsgd1na2vs0mg"},{"bike_id":"8a30214a-2aaf-40bf-8db4-0cd8a21b844f","system_id":"levelo_inurba_marseille","lat":43.27061,"lon":5.40253,"is_reserved":false,"is_disabled":false,"rental_uris":{"android":"levelo://app?vid=8a30214a-2aaf-40bf-8db4-0cd8a21b844f","ios":"levelo://app?vid=8a30214a-2aaf-40bf-8db4-0cd8a21b844f"},"vehicle_type_id":"4","last_reported":1741100994,"current_range_meters":18800,"station_id":"ce4bhk92rcd13ifvqgc0","pricing_plan_id":"cebpf4jnsgd1na2vs0mg"},{"bike_id":"a7fdb7b9-1bc1-4687-abde-015d347a9641","system_id":"levelo_inurba_marseille","lat":43.29904,"lon":5.43669,"is_reserved":false,"is_disabled":false,"rental_uris":{"android":"levelo://app?vid=a7fdb7b9-1bc1-4687-abde-015d347a9641","ios":"levelo://app?vid=a7fdb7b9-1bc1-4687-abde-015d347a9641"},"vehicle_type_id":"4","last_reported":1741100994,"current_range_meters":18800,"station_id":"ce4bhpp2rcd13ifvqhfg","pricing_plan_id":"cebpf4jnsgd1na2vs0mg"},{"bike_id":"ea21b6fa-6446-4cfa-8a8e-543016744dbb","system_id":"levelo_inurba_marseille","lat":43.301317,"lon":5.387703,"is_reserved":false,"is_disabled":false,"rental_uris":{"android":"levelo://app?vid=ea21b6fa-6446-4cfa-8a8e-543016744dbb","ios":"levelo://app?vid=ea21b6fa-6446-4cfa-8a8e-543016744dbb"},"vehicle_type_id":"4","last_reported":1741100994,"current_range_meters":18800,"station_id":"ce4bgv12rcd13ifvqcp0","pricing_plan_id":"cebpf4jnsgd1na2vs0mg"},{"bike_id":"dbc958c9-b359-4140-80d7-1f164ada71f5","system_id":"levelo_inurba_marseille","lat":43.31506,"lon":5.3731,"is_reserved":false,"is_disabled":false,"rental_uris":{"android":"levelo://app?vid=dbc958c9-b359-4140-80d7-1f164ada71f5","ios":"levelo://app?vid=dbc958c9-b359-4140-80d7-1f164ada71f5"},"vehicle_type_id":"4","last_reported":1741100994,"current_range_meters":18800,"station_id":"ce4bgt12rcd13ifvqcd0","pricing_plan_id":"cebpf4jnsgd1na2vs0mg"},{"bike_id":"c4ccbf65-92cb-42ff-8d31-10da2dbb3242","system_id":"levelo_inurba_marseille","lat":43.30137,"lon":5.38794,"is_reserved":false,"is_disabled":false,"rental_uris":{"android":"levelo://app?vid=c4ccbf65-92cb-42ff-8d31-10da2dbb3242","ios":"levelo://app?vid=c4ccbf65-92cb-42ff-8d31-10da2dbb3242"},"vehicle_type_id":"4","last_reported":1741100994,"current_range_meters":17600,"station_id":"ce4bghh2rcd13ifvqb60","pricing_plan_id":"cebpf4jnsgd1na2vs0mg"},{"bike_id":"7dd8dab3-f894-4ed0-90ee-a15ee9062441","system_id":"levelo_inurba_marseille","lat":43.31327,"lon":5.39691,"is_reserved":false,"is_disabled":false,"rental_uris":{"android":"levelo://app?vid=7dd8dab3-f894-4ed0-90ee-a15ee9062441","ios":"levelo://app?vid=7dd8dab3-f894-4ed0-90ee-a15ee9062441"},"vehicle_type_id":"4","last_reported":1741100994,"current_range_meters":18000,"station_id":"ce4bgvp2rcd13ifvqcu0","pricing_plan_id":"cebpf4jnsgd1na2vs0mg"},{"bike_id":"c9e6218b-e80f-4165-b8e8-df9d45aac696","system_id":"levelo_inurba_marseille","lat":43.31708,"lon":5.4371,"is_reserved":false,"is_disabled":false,"rental_uris":{"android":"levelo://app?vid=c9e6218b-e80f-4165-b8e8-df9d45aac696","ios":"levelo://app?vid=c9e6218b-e80f-4165-b8e8-df9d45aac696"},"vehicle_type_id":"4","last_reported":1741100994,"current_range_meters":18800,"station_id":"ce4bhp92rcd13ifvqhcg","pricing_plan_id":"cebpf4jnsgd1na2vs0mg"},{"bike_id":"5852d44d-c98b-4c2d-ad7f-21bea669f8ee","system_id":"levelo_inurba_marseille","lat":43.31712,"lon":5.43709,"is_reserved":false,"is_disabled":false,"rental_uris":{"android":"levelo://app?vid=5852d44d-c98b-4c2d-ad7f-21bea669f8ee","ios":"levelo://app?vid=5852d44d-c98b-4c2d-ad7f-21bea669f8ee"},"vehicle_type_id":"4","last_reported":1741100994,"current_range_meters":18800,"station_id":"ce4bhp92rcd13ifvqhcg","pricing_plan_id":"cebpf4jnsgd1na2vs0mg"},{"bike_id":"ffc0798a-7ab5-4ef5-873d-f955e93b9dc5","system_id":"levelo_inurba_marseille","lat":43.31683,"lon":5.40473,"is_reserved":false,"is_disabled":false,"rental_uris":{"android":"levelo://app?vid=ffc0798a-7ab5-4ef5-873d-f955e93b9dc5","ios":"levelo://app?vid=ffc0798a-7ab5-4ef5-873d-f955e93b9dc5"},"vehicle_type_id":"4","last_reported":1741100994,"current_range_meters":19200,"station_id":"ce4bh012rcd13ifvqd00","pricing_plan_id":"cebpf4jnsgd1na2vs0mg"},{"bike_id":"0b797e2c-b233-4bb4-a096-4eda2093229e","system_id":"levelo_inurba_marseille","lat":43.24158,"lon":5.36415,"is_reserved":false,"is_disabled":false,"rental_uris":{"android":"levelo://app?vid=0b797e2c-b233-4bb4-a096-4eda2093229e","ios":"levelo://app?vid=0b797e2c-b233-4bb4-a096-4eda2093229e"},"vehicle_type_id":"4","last_reported":1741100994,"current_range_meters":19200,"station_id":"cpo36qri1sfpv3e86is0","pricing_plan_id":"cebpf4jnsgd1na2vs0mg"},{"bike_id":"c4a1b705-0a84-4ae8-9a5c-2098d70fba61","system_id":"levelo_inurba_marseille","lat":43.29621,"lon":5.37746,"is_reserved":false,"is_disabled":false,"rental_uris":{"android":"levelo://app?vid=c4a1b705-0a84-4ae8-9a5c-2098d70fba61","ios":"levelo://app?vid=c4a1b705-0a84-4ae8-9a5c-2098d70fba61"},"vehicle_type_id":"4","last_reported":1741100994,"current_range_meters":20800,"station_id":"ce4bgi92rcd13ifvqb90","pricing_plan_id":"cebpf4jnsgd1na2vs0mg"},{"bike_id":"09cd31f1-ce90-44d1-885f-9a130df58079","system_id":"levelo_inurba_marseille","lat":43.26562,"lon":5.37302,"is_reserved":false,"is_disabled":false,"rental_uris":{"android":"levelo://app?vid=09cd31f1-ce90-44d1-885f-9a130df58079","ios":"levelo://app?vid=09cd31f1-ce90-44d1-885f-9a130df58079"},"vehicle_type_id":"4","last_reported":1741100994,"current_range_meters":19200,"station_id":"ce4bhg12rcd13ifvqf70","pricing_plan_id":"cebpf4jnsgd1na2vs0mg"},{"bike_id":"11d5df44-abb6-4c77-a7e6-6c2d4e8eaef1","system_id":"levelo_inurba_marseille","lat":43.29028,"lon":5.38649,"is_reserved":false,"is_disabled":false,"rental_uris":{"android":"levelo://app?vid=11d5df44-abb6-4c77-a7e6-6c2d4e8eaef1","ios":"levelo://app?vid=11d5df44-abb6-4c77-a7e6-6c2d4e8eaef1"},"vehicle_type_id":"4","last_reported":1741100994,"current_range_meters":19200,"station_id":"ce4bh4p2rcd13ifvqe0g","pricing_plan_id":"cebpf4jnsgd1na2vs0mg"},{"bike_id":"ceafbcb3-5253-467f-8d5b-15203ddf6911","system_id":"levelo_inurba_marseille","lat":43.26688,"lon":5.38277,"is_reserved":false,"is_disabled":false,"rental_uris":{"android":"levelo://app?vid=ceafbcb3-5253-467f-8d5b-15203ddf6911","ios":"levelo://app?vid=ceafbcb3-5253-467f-8d5b-15203ddf6911"},"vehicle_type_id":"4","last_reported":1741100994,"current_range_meters":19200,"station_id":"ce4bhg92rcd13ifvqf90","pricing_plan_id":"cebpf4jnsgd1na2vs0mg"},{"bike_id":"8296fa51-b8f6-4e72-8a9d-2381bf4c761c","system_id":"levelo_inurba_marseille","lat":43.26684,"lon":5.38272,"is_reserved":false,"is_disabled":false,"rental_uris":{"android":"levelo://app?vid=8296fa51-b8f6-4e72-8a9d-2381bf4c761c","ios":"levelo://app?vid=8296fa51-b8f6-4e72-8a9d-2381bf4c761c"},"vehicle_type_id":"4","last_reported":1741100994,"current_range_meters":19200,"station_id":"ce4bhg92rcd13ifvqf90","pricing_plan_id":"cebpf4jnsgd1na2vs0mg"},{"bike_id":"882b8467-813f-4cec-a81c-72dc90387679","system_id":"levelo_inurba_marseille","lat":43.30182,"lon":5.36594,"is_reserved":false,"is_disabled":false,"rental_uris":{"android":"levelo://app?vid=882b8467-813f-4cec-a81c-72dc90387679","ios":"levelo://app?vid=882b8467-813f-4cec-a81c-72dc90387679"},"vehicle_type_id":"4","last_reported":1741100994,"current_range_meters":19200,"station_id":"ce4bgrh2rcd13ifvqc8g","pricing_plan_id":"cebpf4jnsgd1na2vs0mg"},{"bike_id":"90b03c3a-ea29-4db2-a12b-709f7fe7d8c0","system_id":"levelo_inurba_marseille","lat":43.28272,"lon":5.35072,"is_reserved":false,"is_disabled":false,"rental_uris":{"android":"levelo://app?vid=90b03c3a-ea29-4db2-a12b-709f7fe7d8c0","ios":"levelo://app?vid=90b03c3a-ea29-4db2-a12b-709f7fe7d8c0"},"vehicle_type_id":"4","last_reported":1741100994,"current_range_meters":19200,"station_id":"ce4bhbp2rcd13ifvqerg","pricing_plan_id":"cebpf4jnsgd1na2vs0mg"},