{"last_updated":1715418474,"ttl":30,"version":"2.2","data":{"bikes":[{"bike_id":"f6d2f723-70bd-47c8-b308-fea6e6d27e4a","system_id":"levelo_inurba_marseille","lat":43.313391,"lon":5.36706,"is_reserved":false,"is_disabled":false,"rental_uris":{"android":"levelo://app?vid=f6d2f723-70bd-47c8-b308-fea6e6d27e4a","ios":"levelo://app?vid=f6d2f723-70bd-47c8-b308-fea6e6d27e4a"},"vehicle_type_id":"4","last_reported":1715418474,"current_range_meters":15600,"station_id":"ce4bgr92rcd13ifvqc6g","pricing_plan_id":"cebpf4jnsgd1na2vs0mg"},{"bike_id":"56b15e6d-5108-4b11-bd5f-1040bad9620d","system_id":"levelo_inurba_marseille","lat":43.31341,"lon":5.367098,"is_reserved":false,"is_disabled":false,"rental_uris":{"android":"levelo://app?vid=56b15e6d-5108-4b11-bd5f-1040bad9620d","ios":"levelo://app?vid=56b15e6d-5108-4b11-bd5f-1040bad9620d"},"vehicle_type_id":"4","last_reported":1715418474,"current_range_meters":22400,"station_id":"ce4bgr92rcd13ifvqc6g","pricing_plan_id":"cebpf4jnsgd1na2vs0mg"},{"bike_id":"282ad801-19e6-44f1-a816-913cb93c7db3","system_id":"levelo_inurba_marseille","lat":43.313391,"lon":5.36706,"is_reserved":false,"is_disabled":false,"rental_uris":{"android":"levelo://app?vid=282ad801-19e6-44f1-a816-913cb93c7db3","ios":"levelo://app?vid=282ad801-19e6-44f1-a816-913cb93c7db3"},"vehicle_type_id":"4","last_reported":1715418474,"current_range_meters":29600,"station_id":"ce4bgr92rcd13ifvqc6g","pricing_plan_id":"cebpf4jnsgd1na2vs0mg"},{"bike_id":"b04a470c-1919-4adf-b90e-eba340bf3fbe","system_id":"levelo_inurba_marseille","lat":43.31341,"lon":5.367098,"is_reserved":false,"is_disabled":false,"rental_uris":{"android":"levelo://app?vid=b04a470c-1919-4adf-b90e-eba340bf3fbe","ios":"levelo://app?vid=b04a470c-1919-4adf-b90e-eba340bf3fbe"},"vehicle_type_id":"4","last_reported":1715418474,"current_range_meters":11600,"station_id":"ce4bgr92rcd13ifvqc6g","pricing_plan_id":"cebpf4jnsgd1na2vs0mg"},{"bike_id":"52fa4695-1955-4708-b8b7-10303d4381ff","system_id":"levelo_inurba_marseille","lat":43.312239,"lon":5.368562,"is_reserved":false,"is_disabled":false,"rental_uris":{"android":"levelo://app?vid=52fa4695-1955-4708-b8b7-10303d4381ff","ios":"levelo://app?vid=52fa4695-1955-4708-b8b7-10303d4381ff"},"vehicle_type_id":"4","last_reported":1715418474,"current_range_meters":20000,"station_id":"ce4bgl92rcd13ifvqbq0","pricing_plan_id":"cebpf4jnsgd1na2vs0mg"},{"bike_id":"b6d5adf7-e3cf-42dc-bd46-9e38f2887abe","system_id":"levelo_inurba_marseille","lat":43.3124,"lon":5.368579,"is_reserved":false,"is_disabled":false,"rental_uris":{"android":"levelo://app?vid=b6d5adf7-e3cf-42dc-bd46-9e38f2887abe","ios":"levelo://app?vid=b6d5adf7-e3cf-42dc-bd46-9e38f2887abe"},"vehicle_type_id":"4","last_reported":1715418474,"current_range_meters":7200,"station_id":"ce4bgl92rcd13ifvqbq0","pricing_plan_id":"cebpf4jnsgd1na2vs0mg"},{"bike_id":"c76d4102-ba8e-4ca9-9c2c-dc40d0057167","system_id":"levelo_inurba_marseille","lat":43.30909,"lon":5.36847,"is_reserved":false,"is_disabled":false,"rental_uris":{"android":"levelo://app?vid=c76d4102-ba8e-4ca9-9c2c-dc40d0057167","ios":"levelo://app?vid=c76d4102-ba8e-4ca9-9c2c-dc40d0057167"},"vehicle_type_id":"4","last_reported":1715418474,"current_range_meters":5600,"station_id":"ce4bgn92rcd13ifvqbvg","pricing_plan_id":"cebpf4jnsgd1na2vs0mg"},{"bike_id":"f44d7d5a-941d-425c-a011-7edb2b33720e","system_id":"levelo_inurba_marseille","lat":43.309076,"lon":5.368465,"is_reserved":false,"is_disabled":false,"rental_uris":{"android":"levelo://app?vid=f44d7d5a-941d-425c-a011-7edb2b33720e","ios":"levelo://app?vid=f44d7d5a-941d-425c-a011-7edb2b33720e"},"vehicle_type_id":"4","last_reported":1715418474,"current_range_meters":31600,"station_id":"ce4bgn92rcd13ifvqbvg","pricing_plan_id":"cebpf4jnsgd1na2vs0mg"},{"bike_id":"53fdb95c-e6a3-4fb1-ae6b-ee13096c10d5","system_id":"levelo_inurba_marseille","lat":43.314811,"lon":5.373103,"is_reserved":false,"is_disabled":false,"rental_uris":{"android":"levelo://app?vid=53fdb95c-e6a3-4fb1-ae6b-ee13096c10d5","ios":"levelo://app?vid=53fdb95c-e6a3-4fb1-ae6b-ee13096c10d5"},"vehicle_type_id":"4","last_reported":1715418474,"current_range_meters":31600,"station_id":"ce4bgt12rcd13ifvqcd0","pricing_plan_id":"cebpf4jnsgd1na2vs0mg"},{"bike_id":"62c26d35-3b2a-4abf-b55f-6d70c2c60d2c","system_id":"levelo_inurba_marseille","lat":43.309039,"lon":5.371797,"is_reserved":false,"is_disabled":false,"rental_uris":{"android":"levelo://app?vid=62c26d35-3b2a-4abf-b55f-6d70c2c60d2c","ios":"levelo://app?vid=62c26d35-3b2a-4abf-b55f-6d70c2c60d2c"},"vehicle_type_id":"4","last_reported":1715418474,"current_range_meters":29200,"station_id":"ce4bguh2rcd13ifvqckg","pricing_plan_id":"cebpf4jnsgd1na2vs0mg"},{"bike_id":"7c20c9d1-fecb-41c8-a98e-39692357282b","system_id":"levelo_inurba_marseille","lat":43.30552,"lon":5.367,"is_reserved":false,"is_disabled":false,"rental_uris":{"android":"levelo://app?vid=7c20c9d1-fecb-41c8-a98e-39692357282b","ios":"levelo://app?vid=7c20c9d1-fecb-41c8-a98e-39692357282b"},"vehicle_type_id":"4","last_reported":1715418474,"current_range_meters":21600,"station_id":"ce4bgrp2rcd13ifvqc9g","pricing_plan_id":"cebpf4jnsgd1na2vs0mg"},{"bike_id":"8d7cc90d-a23e-45dc-936c-2eb0838c77cb","system_id":"levelo_inurba_marseille","lat":43.305712,"lon":5.365641,"is_reserved":false,"is_disabled":false,"rental_uris":{"android":"levelo://app?vid=8d7cc90d-a23e-45dc-936c-2eb0838c77cb","ios":"levelo://app?vid=8d7cc90d-a23e-45dc-936c-2eb0838c77cb"},"vehicle_type_id":"4","last_reported":1715418474,"current_range_meters":28400,"station_id":"ce4bgs12rcd13ifvqcag","pricing_plan_id":"cebpf4jnsgd1na2vs0mg"},{"bike_id":"ee8d5bf0-b396-4b4c-9a72-1447f888939a","system_id":"levelo_inurba_marseille","lat":43.305712,"lon":5.365641,"is_reserved":false,"is_disabled":false,"rental_uris":{"android":"levelo://app?vid=ee8d5bf0-b396-4b4c-9a72-1447f888939a","ios":"levelo://app?vid=ee8d5bf0-b396-4b4c-9a72-1447f888939a"},"vehicle_type_id":"4","last_reported":1715418474,"current_range_meters":27200,"station_id":"ce4bgs12rcd13ifvqcag","pricing_plan_id":"cebpf4jnsgd1na2vs0mg"},{"bike_id":"7e752452-15f4-4b5b-80d1-56138e60dcdf","system_id":"levelo_inurba_marseille","lat":43.305706,"lon":5.365654,"is_reserved":false,"is_disabled":false,"rental_uris":{"android":"levelo://app?vid=7e752452-15f4-4b5b-80d1-56138e60dcdf","ios":"levelo://app?vid=7e752452-15f4-4b5b-80d1-56138e60dcdf"},"vehicle_type_id":"4","last_reported":1715418474,"current_range_meters":31200,"station_id":"ce4bgs12rcd13ifvqcag","pricing_plan_id":"cebpf4jnsgd1na2vs0mg"},{"bike_id":"e66e8812-f658-463c-b201-ba7030c19c32","system_id":"levelo_inurba_marseille","lat":43.30544,"lon":5.36709,"is_reserved":false,"is_disabled":false,"rental_uris":{"android":"levelo://app?vid=e66e8812-f658-463c-b201-ba7030c19c32","ios":"levelo://app?vid=e66e8812-f658-463c-b201-ba7030c19c32"},"vehicle_type_id":"4","last_reported":1715418474,"current_range_meters":31200,"station_id":"ce4bgrp2rcd13ifvqc9g","pricing_plan_id":"cebpf4jnsgd1na2vs0mg"},{"bike_id":"ccb9f6cd-7b60-437a-8b20-f283e18e9f19","system_id":"levelo_inurba_marseille","lat":43.305368,"lon":5.367343,"is_reserved":false,"is_disabled":false,"rental_uris":{"android":"levelo://app?vid=ccb9f6cd-7b60-437a-8b20-f283e18e9f19","ios":"levelo://app?vid=ccb9f6cd-7b60-437a-8b20-f283e18e9f19"},"vehicle_type_id":"4","last_reported":1715418474,"current_range_meters":28400,"station_id":"ce4bgrp2rcd13ifvqc9g","pricing_plan_id":"cebpf4jnsgd1na2vs0mg"},{"bike_id":"9ca71219-ac0d-4d66-9172-0310f3b06ff9","system_id":"levelo_inurba_marseille","lat":43.305714,"lon":5.365633,"is_reserved":false,"is_disabled":false,"rental_uris":{"android":"levelo://app?vid=9ca71219-ac0d-4d66-9172-0310f3b06ff9","ios":"levelo://app?vid=9ca71219-ac0d-4d66-9172-0310f3b06ff9"},"vehicle_type_id":"4","last_reported":1715418474,"current_range_meters":21600,"station_id":"ce4bgs12rcd13ifvqcag","pricing_plan_id":"cebpf4jnsgd1na2vs0mg"},{"bike_id":"935cb2c1-0686-42bb-8026-739d7285f7eb","system_id":"levelo_inurba_marseille","lat":43.305368,"lon":5.367343,"is_reserved":false,"is_disabled":false,"rental_uris":{"android":"levelo://app?vid=935cb2c1-0686-42bb-8026-739d7285f7eb","ios":"levelo://app?vid=935cb2c1-0686-42bb-8026-739d7285f7eb"},"vehicle_type_id":"4","last_reported":1715418474,"current_range_meters":24000,"station_id":"ce4bgrp2rcd13ifvqc9g","pricing_plan_id":"cebpf4jnsgd1na2vs0mg"},{"bike_id":"8caeca15-b250-4e39-9f7b-328cda7bba59","system_id":"levelo_inurba_marseille","lat":43.305714,"lon":5.365633,"is_reserved":false,"is_disabled":false,"rental_uris":{"android":"levelo://app?vid=8caeca15-b250-4e39-9f7b-328cda7bba59","ios":"levelo://app?vid=8caeca15-b250-4e39-9f7b-328cda7bba59"},"vehicle_type_id":"4","last_reported":1715418474,"current_range_meters":26000,"station_id":"ce4bgs12rcd13ifvqcag","pricing_plan_id":"cebpf4jnsgd1na2vs0mg"},{"bike_id":"bcdc9109-6371-4011-840b-bdbf6a0ffe89","system_id":"levelo_inurba_marseille","lat":43.305706,"lon":5.365654,"is_reserved":false,"is_disabled":false,"rental_uris":{"android":"levelo://app?vid=bcdc9109-6371-4011-840b-bdbf6a0ffe89","ios":"levelo://app?vid=bcdc9109-6371-4011-840b-bdbf6a0ffe89"},"vehicle_type_id":"4","last_reported":1715418474,"current_range_meters":23200,"station_id":"ce4bgs12rcd13ifvqcag","pricing_plan_id":"cebpf4jnsgd1na2vs0mg"},{"bike_id":"cc04455d-e73d-42a9-8dd5-17f59310b2b1","system_id":"levelo_inurba_marseille","lat":43.305714,"lon":5.365633,"is_reserved":false,"is_disabled":false,"rental_uris":{"android":"levelo://app?vid=cc04455d-e73d-42a9-8dd5-17f59310b2b1","ios":"levelo://app?vid=cc04455d-e73d-42a9-8dd5-17f59310b2b1"},"vehicle_type_id":"4","last_reported":1715418474,"current_range_meters":18000,"station_id":"ce4bgs12rcd13ifvqcag","pricing_plan_id":"cebpf4jnsgd1na2vs0mg"},{"bike_id":"1fb321ba-23a8-4242-baed-8c5041e2692d","system_id":"levelo_inurba_marseille","lat":43.305714,"lon":5.365633,"is_reserved":false,"is_disabled":false,"rental_uris":{"android":"levelo://app?vid=1fb321ba-23a8-4242-baed-8c5041e2692d","ios":"levelo://app?vid=1fb321ba-23a8-4242-baed-8c5041e2692d"},"vehicle_type_id":"4","last_reported":1715418474,"current_range_meters":27200,"station_id":"ce4bgs12rcd13ifvqcag","pricing_plan_id":"cebpf4jnsgd1na2vs0mg"},{"bike_id":"1f8fa029-58e4-4c83-aaed-268146ea54d4","system_id":"levelo_inurba_marseille","lat":43.305706,"lon":5.365654,"is_reserved":false,"is_disabled":false,"rental_uris":{"android":"levelo://app?vid=1f8fa029-58e4-4c83-aaed-268146ea54d4","ios":"levelo://app?vid=1f8fa029-58e4-4c83-aaed-268146ea54d4"},"vehicle_type_id":"4","last_reported":1715418474,"current_range_meters":15600,"station_id":"ce4bgs12rcd13ifvqcag","pricing_plan_id":"cebpf4jnsgd1na2vs0mg"},{"bike_id":"3601f6f1-dc5b-4978-ab9c-9611df0e8ecc","system_id":"levelo_inurba_marseille","lat":43.305706,"lon":5.365654,"is_reserved":false,"is_disabled":false,"rental_uris":{"android":"levelo://app?vid=3601f6f1-dc5b-4978-ab9c-9611df0e8ecc","ios":"levelo://app?vid=3601f6f1-dc5b-4978-ab9c-9611df0e8ecc"},"vehicle_type_id":"4","last_reported":1715418474,"current_range_meters":30400,"station_id":"ce4bgs12rcd13ifvqcag","pricing_plan_id":"cebpf4jnsgd1na2vs0mg"},{"bike_id":"88f8ae88-c451-4825-a391-8044ee59c796","system_id":"levelo_inurba_marseille","lat":43.305706,"lon":5.365654,"is_reserved":false,"is_disabled":false,"rental_uris":{"android":"levelo://app?vid=88f8ae88-c451-4825-a391-8044ee59c796","ios":"levelo://app?vid=88f8ae88-c451-4825-a391-8044ee59c796"},"vehicle_type_id":"4","last_reported":1715418474,"current_range_meters":26400,"station_id":"ce4bgs12rcd13ifvqcag","pricing_plan_id":"cebpf4jnsgd1na2vs0mg"},{"bike_id":"ee33bb18-54c8-4a4a-ae8a-5b892dc2bff5","system_id":"levelo_inurba_marseille","lat":43.305706,"lon":5.365654,"is_reserved":false,"is_disabled":false,"rental_uris":{"android":"levelo://app?vid=ee33bb18-54c8-4a4a-ae8a-5b892dc2bff5","ios":"levelo://app?vid=ee33bb18-54c8-4a4a-ae8a-5b892dc2bff5"},"vehicle_type_id":"4","last_reported":1715418474,"current_range_meters":31600,"station_id":"ce4bgs12rcd13ifvqcag","pricing_plan_id":"cebpf4jnsgd1na2vs0mg"},{"bike_id":"d04f10f3-8f10-4ee3-83ba-e5df7a34af93","system_id":"levelo_inurba_marseille","lat":43.305706,"lon":5.365654,"is_reserved":false,"is_disabled":false,"rental_uris":{"android":"levelo://app?vid=d04f10f3-8f10-4ee3-83ba-e5df7a34af93","ios":"levelo://app?vid=d04f10f3-8f10-4ee3-83ba-e5df7a34af93"},"vehicle_type_id":"4","last_reported":1715418474,"current_range_meters":3600,"station_id":"ce4bgs12rcd13ifvqcag","pricing_plan_id":"cebpf4jnsgd1na2vs0mg"},{"bike_id":"77fb2f70-4676-4787-8032-43241f4ad198","system_id":"levelo_inurba_marseille","lat":43.311131,"lon":5.377651,"is_reserved":false,"is_disabled":false,"rental_uris":{"android":"levelo://app?vid=77fb2f70-4676-4787-8032-43241f4ad198","ios":"levelo://app?vid=77fb2f70-4676-4787-8032-43241f4ad198"},"vehicle_type_id":"4","last_reported":1715418474,"current_range_meters":0,"station_id":"ce4bgt92rcd13ifvqcg0","pricing_plan_id":"cebpf4jnsgd1na2vs0mg"},{"bike_id":"cfd58f49-cc18-4073-9950-ffb544788a25","system_id":"levelo_inurba_marseille","lat":43.317075,"lon":5.377367,"is_reserved":false,"is_disabled":false,"rental_uris":{"android":"levelo://app?vid=cfd58f49-cc18-4073-9950-ffb544788a25","ios":"levelo://app?vid=cfd58f49-cc18-4073-9950-ffb544788a25"},"vehicle_type_id":"4","last_reported":1715418474,"current_range_meters":23200,"station_id":"ce4bgth2rcd13ifvqch0","pricing_plan_id":"cebpf4jnsgd1na2vs0mg"},{"bike_id":"a8420d12-5ea1-4553-ba77-74153419b9a1","system_id":"levelo_inurba_marseille","lat":43.307945,"lon":5.376487,"is_reserved":false,"is_disabled":false,"rental_uris":{"android":"levelo://app?vid=a8420d12-5ea1-4553-ba77-74153419b9a1","ios":"levelo://app?vid=a8420d12-5ea1-4553-ba77-74153419b9a1"},"vehicle_type_id":"4","last_reported":1715418474,"current_range_meters":31600,"station_id":"ce4bgv92rcd13ifvqcq0","pricing_plan_id":"cebpf4jnsgd1na2vs0mg"},{"bike_id":"3099147b-cba4-4fbc-8a62-a225f5fb3cf4","system_id":"levelo_inurba_marseille","lat":43.307945,"lon":5.376487,"is_reserved":false,"is_disabled":false,"rental_uris":{"android":"levelo://app?vid=3099147b-cba4-4fbc-8a62-a225f5fb3cf4","ios":"levelo://app?vid=3099147b-cba4-4fbc-8a62-a225f5fb3cf4"},"vehicle_type_id":"4","last_reported":1715418474,"current_range_meters":31600,"station_id":"ce4bgv92rcd13ifvqcq0","pricing_plan_id":"cebpf4jnsgd1na2vs0mg"},{"bike_id":"61ae4135-9675-4637-ad67-425215ec2c66","system_id":"levelo_inurba_marseille","lat":43.307945,"lon":5.376487,"is_reserved":false,"is_disabled":false,"rental_uris":{"android":"levelo://app?vid=61ae4135-9675-4637-ad67-425215ec2c66","ios":"levelo://app?vid=61ae4135-9675-4637-ad67-425215ec2c66"},"vehicle_type_id":"4","last_reported":1715418474,"current_range_meters":24800,"station_id":"ce4bgv92rcd13ifvqcq0","pricing_plan_id":"cebpf4jnsgd1na2vs0mg"},{"bike_id":"41706e30-f250-42e1-bcf4-f290514bae42","system_id":"levelo_inurba_marseille","lat":43.307945,"lon":5.376487,"is_reserved":false,"is_disabled":false,"rental_uris":{"android":"levelo://app?vid=41706e30-f250-42e1-bcf4-f290514bae42","ios":"levelo://app?vid=41706e30-f250-42e1-bcf4-f290514bae42"},"vehicle_type_id":"4","last_reported":1715418474,"current_range_meters":31200,"station_id":"ce4bgv92rcd13ifvqcq0","pricing_plan_id":"cebpf4jnsgd1na2vs0mg"},{"bike_id":"d134854c-6e66-436d-9446-77d1930c10fc","system_id":"levelo_inurba_marseille","lat":43.317075,"lon":5.377367,"is_reserved":false,"is_disabled":false,"rental_uris":{"android":"levelo://app?vid=d134854c-6e66-436d-9446-77d1930c10fc","ios":"levelo://app?vid=d134854c-6e66-436d-9446-77d1930c10fc"},"vehicle_type_id":"4","last_reported":1715418474,"current_range_meters":31600,"station_id":"ce4bgth2rcd13ifvqch0","pricing_plan_id":"cebpf4jnsgd1na2vs0mg"},{"bike_id":"922929c8-2087-415e-990b-cefa87671af9","system_id":"levelo_inurba_marseille","lat":43.303046,"lon":5.368981,"is_reserved":false,"is_disabled":false,"rental_uris":{"android":"levelo://app?vid=922929c8-2087-415e-990b-cefa87671af9","ios":"levelo://app?vid=922929c8-2087-415e-990b-cefa87671af9"},"vehicle_type_id":"4","last_reported":1715418474,"current_range_meters":23200,"station_id":"ce4bgqh2rcd13ifvqc5g","pricing_plan_id":"cebpf4jnsgd1na2vs0mg"},{"bike_id":"870de293-a3ef-417b-a927-2af4d15884ff","system_id":"levelo_inurba_marseille","lat":43.303046,"lon":5.368981,"is_reserved":false,"is_disabled":false,"rental_uris":{"android":"levelo://app?vid=870de293-a3ef-417b-a927-2af4d15884ff","ios":"levelo://app?vid=870de293-a3ef-417b-a927-2af4d15884ff"},"vehicle_type_id":"4","last_reported":1715418474,"current_range_meters":24400,"station_id":"ce4bgqh2rcd13ifvqc5g","pricing_plan_id":"cebpf4jnsgd1na2vs0mg"},{"bike_id":"078cb8ff-35a7-4ae4-8073-9ee9ab3cdfff","system_id":"levelo_inurba_marseille","lat":43.315293,"lon":5.380349,"is_reserved":false,"is_disabled":false,"rental_uris":{"android":"levelo://app?vid=078cb8ff-35a7-4ae4-8073-9ee9ab3cdfff","ios":"levelo://app?vid=078cb8ff-35a7-4ae4-8073-9ee9ab3cdfff"},"vehicle_type_id":"4","last_reported":1715418474,"current_range_meters":28000,"station_id":"ce4bhsp2rcd13ifvqi50","pricing_plan_id":"cebpf4jnsgd1na2vs0mg"},{"bike_id":"f9492ceb-afd4-4f2e-9909-201981bd463b","system_id":"levelo_inurba_marseille","lat":43.301939,"lon":5.366286,"is_reserved":false,"is_disabled":false,"rental_uris":{"android":"levelo://app?vid=f9492ceb-afd4-4f2e-9909-201981bd463b","ios":"levelo://app?vid=f9492ceb-afd4-4f2e-9909-201981bd463b"},"vehicle_type_id":"4","last_reported":1715418474,"current_range_meters":29200,"station_id":"ce4bgrh2rcd13ifvqc8g","pricing_plan_id":"cebpf4jnsgd1na2vs0mg"},{"bike_id":"a376424a-df0c-4ebf-92b2-f737e0fb551a","system_id":"levelo_inurba_marseille","lat":43.3018,"lon":5.366282,"is_reserved":false,"is_disabled":false,"rental_uris":{"android":"levelo://app?vid=a376424a-df0c-4ebf-92b2-f737e0fb551a","ios":"levelo://app?vid=a376424a-df0c-4ebf-92b2-f737e0fb551a"},"vehicle_type_id":"4","last_reported":1715418474,"current_range_meters":30400,"station_id":"","pricing_plan_id":"cebpf4jnsgd1na2vs0mg"},{"bike_id":"ca82bc66-6bb6-42d3-94ad-47625f7a2e3f","system_id":"levelo_inurba_marseille","lat":43.301939,"lon":5.366286,"is_reserved":false,"is_disabled":false,"rental_uris":{"android":"levelo://app?vid=ca82bc66-6bb6-42d3-94ad-47625f7a2e3f","ios":"levelo://app?vid=ca82bc66-6bb6-42d3-94ad-47625f7a2e3f"},"vehicle_type_id":"4","last_reported":1715418474,"current_range_meters":26400,"station_id":"ce4bgrh2rcd13ifvqc8g","pricing_plan_id":"cebpf4jnsgd1na2vs0mg"},{"bike_id":"97a90ae8-eccc-4636-b592-680f605ecfcc","system_id":"levelo_inurba_marseille","lat":43.304606,"lon":5.379026,"is_reserved":false,"is_disabled":false,"rental_uris":{"android":"levelo://app?vid=97a90ae8-eccc-4636-b592-680f605ecfcc","ios":"levelo://app?vid=97a90ae8-eccc-4636-b592-680f605ecfcc"},"vehicle_type_id":"4","last_reported":1715418474,"current_range_meters":4000,"station_id":"ce4bgup2rcd13ifvqcn0","pricing_plan_id":"cebpf4jnsgd1na2vs0mg"},{"bike_id":"1fa6606e-3f50-4fc3-ba0f-761bb0a964ec","system_id":"levelo_inurba_marseille","lat":43.304606,"lon":5.379026,"is_reserved":false,"is_disabled":false,"rental_uris":{"android":"levelo://app?vid=1fa6606e-3f50-4fc3-ba0f-761bb0a964ec","ios":"levelo://app?vid=1fa6606e-3f50-4fc3-ba0f-761bb0a964ec"},"vehicle_type_id":"4","last_reported":1715418474,"current_range_meters":11600,"station_id":"ce4bgup2rcd13ifvqcn0","pricing_plan_id":"cebpf4jnsgd1na2vs0mg"},{"bike_id":"be71878c-6926-4c9a-ae91-87c3d05789ab","system_id":"levelo_inurba_marseille","lat":43.304606,"lon":5.379026,"is_reserved":false,"is_disabled":false,"rental_uris":{"android":"levelo://app?vid=be71878c-6926-4c9a-ae91-87c3d05789ab","ios":"levelo://app?vid=be71878c-6926-4c9a-ae91-87c3d05789ab"},"vehicle_type_id":"4","last_reported":1715418474,"current_range_meters":0,"station_id":"ce4bgup2rcd13ifvqcn0","pricing_plan_id":"cebpf4jnsgd1na2vs0mg"},{"bike_id":"0db07f4c-50c2-4c31-ae15-1a11ebebe1f6","system_id":"levelo_inurba_marseille","lat":43.304606,"lon":5.379026,"is_reserved":false,"is_disabled":false,"rental_uris":{"android":"levelo://app?vid=0db07f4c-50c2-4c31-ae15-1a11ebebe1f6","ios":"levelo://app?vid=0db07f4c-50c2-4c31-ae15-1a11ebebe1f6"},"vehicle_type_id":"4","last_reported":1715418474,"current_range_meters":20800,"station_id":"ce4bgup2rcd13ifvqcn0","pricing_plan_id":"cebpf4jnsgd1na2vs0mg"},{"bike_id":"3269a82e-20fd-46cb-9087-cc49c8cec2db","system_id":"levelo_inurba_marseille","lat":43.32473,"lon":5.36559,"is_reserved":false,"is_disabled":false,"rental_uris":{"android":"levelo://app?vid=3269a82e-20fd-46cb-9087-cc49c8cec2db","ios":"levelo://app?vid=3269a82e-20fd-46cb-9087-cc49c8cec2db"},"vehicle_type_id":"4","last_reported":1715418474,"current_range_meters":6400,"station_id":"ce4bhs12rcd13ifvqhvg","pricing_plan_id":"cebpf4jnsgd1na2vs0mg"},{"bike_id":"9edc1e5e-3cad-4349-9fc4-c2b9b41d3cd6","system_id":"levelo_inurba_marseille","lat":43.324771,"lon":5.36557,"is_reserved":false,"is_disabled":false,"rental_uris":{"android":"levelo://app?vid=9edc1e5e-3cad-4349-9fc4-c2b9b41d3cd6","ios":"levelo://app?vid=9edc1e5e-3cad-4349-9fc4-c2b9b41d3cd6"},"vehicle_type_id":"4","last_reported":1715418474,"current_range_meters":20400,"station_id":"ce4bhs12rcd13ifvqhvg","pricing_plan_id":"cebpf4jnsgd1na2vs0mg"},{"bike_id":"afc8d308-4744-4764-ab26-c6a27109151f","system_id":"levelo_inurba_marseille","lat":43.324784,"lon":5.365765,"is_reserved":false,"is_disabled":false,"rental_uris":{"android":"levelo://app?vid=afc8d308-4744-4764-ab26-c6a27109151f","ios":"levelo://app?vid=afc8d308-4744-4764-ab26-c6a27109151f"},"vehicle_type_id":"4","last_reported":1715418474,"current_range_meters":0,"station_id":"ce4bhs12rcd13ifvqhvg","pricing_plan_id":"cebpf4jnsgd1na2vs0mg"},{"bike_id":"1db24b60-7d85-41f0-8ab3-6d020f60b67d","system_id":"levelo_inurba_marseille","lat":43.32478,"lon":5.36563,"is_reserved":false,"is_disabled":false,"rental_uris":{"android":"levelo://app?vid=1db24b60-7d85-41f0-8ab3-6d020f60b67d","ios":"levelo://app?vid=1db24b60-7d85-41f0-8ab3-6d020f60b67d"},"vehicle_type_id":"4","last_reported":1715418474,"current_range_meters":28400,"station_id":"ce4bhs12rcd13ifvqhvg","pricing_plan_id":"cebpf4jnsgd1na2vs0mg"},{"bike_id":"78f7d97c-e4eb-4ebc-88e2-08b2969fa253","system_id":"levelo_inurba_marseille","lat":43.324797,"lon":5.365738,"is_reserved":false,"is_disabled":false,"rental_uris":{"android":"levelo://app?vid=78f7d97c-e4eb-4ebc-88e2-08b2969fa253","ios":"levelo://app?vid=78f7d97c-e4eb-4ebc-88e2-08b2969fa253"},"vehicle_type_id":"4","last_reported":1715418474,"current_range_meters":400,"station_id":"ce4bhs12rcd13ifvqhvg","pricing_plan_id":"cebpf4jnsgd1na2vs0mg"},{"bike_id":"43d74cbd-e3cd-451f-9c64-78bfb99aca35","system_id":"levelo_inurba_marseille","lat":43.324771,"lon":5.36557,"is_reserved":false,"is_disabled":false,"rental_uris":{"android":"levelo://app?vid=43d74cbd-e3cd-451f-9c64-78bfb99aca35","ios":"levelo://app?vid=43d74cbd-e3cd-451f-9c64-78bfb99aca35"},"vehicle_type_id":"4","last_reported":1715418474,"current_range_meters":11600,"station_id":"ce4bhs12rcd13ifvqhvg","pricing_plan_id":"cebpf4jnsgd1na2vs0mg"},{"bike_id":"7b00989d-a1a1-441a-99e0-03ead47ac840","system_id":"levelo_inurba_marseille","lat":43.3248,"lon":5.36566,"is_reserved":false,"is_disabled":false,"rental_uris":{"android":"levelo://app?vid=7b00989d-a1a1-441a-99e0-03ead47ac840","ios":"levelo://app?vid=7b00989d-a1a1-441a-99e0-03ead47ac840"},"vehicle_type_id":"4","last_reported":1715418474,"current_range_meters":6400,"station_id":"ce4bhs12rcd13ifvqhvg","pricing_plan_id":"cebpf4jnsgd1na2vs0mg"},{"bike_id":"d065bf18-f066-4a7e-b7ca-f730ef21cd84","system_id":"levelo_inurba_marseille","lat":43.3248,"lon":5.36563,"is_reserved":false,"is_disabled":false,"rental_uris":{"android":"levelo://app?vid=d065bf18-f066-4a7e-b7ca-f730ef21cd84","ios":"levelo://app?vid=d065bf18-f066-4a7e-b7ca-f730ef21cd84"},"vehicle_type_id":"4","last_reported":1715418474,"current_range_meters":19600,"station_id":"ce4bhs12rcd13ifvqhvg","pricing_plan_id":"cebpf4jnsgd1na2vs0mg"},{"bike_id":"7d725402-757b-4cd9-84ff-6dd57d0cc79e","system_id":"levelo_inurba_marseille","lat":43.324807,"lon":5.365745,"is_reserved":false,"is_disabled":false,"rental_uris":{"android":"levelo://app?vid=7d725402-757b-4cd9-84ff-6dd57d0cc79e","ios":"levelo://app?vid=7d725402-757b-4cd9-84ff-6dd57d0cc79e"},"vehicle_type_id":"4","last_reported":1715418474,"current_range_meters":29600,"station_id":"ce4bhs12rcd13ifvqhvg","pricing_plan_id":"cebpf4jnsgd1na2vs0mg"},{"bike_id":"a7364010-c030-4dda-9787-1388278fadb5","system_id":"levelo_inurba_marseille","lat":43.324771,"lon":5.36557,"is_reserved":false,"is_disabled":false,"rental_uris":{"android":"levelo://app?vid=a7364010-c030-4dda-9787-1388278fadb5","ios":"levelo://app?vid=a7364010-c030-4dda-9787-1388278fadb5"},"vehicle_type_id":"4","last_reported":1715418474,"current_range_meters":0,"station_id":"ce4bhs12rcd13ifvqhvg","pricing_plan_id":"cebpf4jnsgd1na2vs0mg"},{"bike_id":"4f292309-8e70-423f-8286-cbad3763fa2c","system_id":"levelo_inurba_marseille","lat":43.324771,"lon":5.36557,"is_reserved":false,"is_disabled":false,"rental_uris":{"android":"levelo://app?vid=4f292309-8e70-423f-8286-cbad3763fa2c","ios":"levelo://app?vid=4f292309-8e70-423f-8286-cbad3763fa2c"},"vehicle_type_id":"4","last_reported":1715418474,"current_range_meters":24400,"station_id":"ce4bhs12rcd13ifvqhvg","pricing_plan_id":"cebpf4jnsgd1na2vs0mg"},{"bike_id":"ff9d51bd-c40f-466c-ab3b-08e1c9923b63","system_id":"levelo_inurba_marseille","lat":43.324771,"lon":5.36557,"is_reserved":false,"is_disabled":false,"rental_uris":{"android":"levelo://app?vid=ff9d51bd-c40f-466c-ab3b-08e1c9923b63","ios":"levelo://app?vid=ff9d51bd-c40f-466c-ab3b-08e1c9923b63"},"vehicle_type_id":"4","last_reported":1715418474,"current_range_meters":15600,"station_id":"ce4bhs12rcd13ifvqhvg","pricing_plan_id":"cebpf4jnsgd1na2vs0mg"},{"bike_id":"4c97fc0a-45dc-4748-a7da-9c4676c22f4d","system_id":"levelo_inurba_marseille","lat":43.32483,"lon":5.36564,"is_reserved":false,"is_disabled":false,"rental_uris":{"android":"levelo://app?vid=4c97fc0a-45dc-4748-a7da-9c4676c22f4d","ios":"levelo://app?vid=4c97fc0a-45dc-4748-a7da-9c4676c22f4d"},"vehicle_type_id":"4","last_reported":1715418474,"current_range_meters":2000,"station_id":"ce4bhs12rcd13ifvqhvg","pricing_plan_id":"cebpf4jnsgd1na2vs0mg"},{"bike_id":"fb3916e9-8f1f-4a0d-bb23-7c1c918476e4","system_id":"levelo_inurba_marseille","lat":43.32484,"lon":5.36564,"is_reserved":false,"is_disabled":false,"rental_uris":{"android":"levelo://app?vid=fb3916e9-8f1f-4a0d-bb23-7c1c918476e4","ios":"levelo://app?vid=fb3916e9-8f1f-4a0d-bb23-7c1c918476e4"},"vehicle_type_id":"4","last_reported":1715418474,"current_range_meters":30000,"station_id":"ce4bhs12rcd13ifvqhvg","pricing_plan_id":"cebpf4jnsgd1na2vs0mg"},{"bike_id":"62a5870d-12d7-4609-b3af-286379531473","system_id":"levelo_inurba_marseille","lat":43.324771,"lon":5.36557,"is_reserved":false,"is_disabled":false,"rental_uris":{"android":"levelo://app?vid=62a5870d-12d7-4609-b3af-286379531473","ios":"levelo://app?vid=62a5870d-12d7-4609-b3af-286379531473"},"vehicle_type_id":"4","last_reported":1715418474,"current_range_meters":24400,"station_id":"ce4bhs12rcd13ifvqhvg","pricing_plan_id":"cebpf4jnsgd1na2vs0mg"},{"bike_id":"d1916827-9a95-4069-bc95-e33750d75208","system_id":"levelo_inurba_marseille","lat":43.31065,"lon":5.38341,"is_reserved":false,"is_disabled":false,"rental_uris":{"android":"levelo://app?vid=d1916827-9a95-4069-bc95-e33750d75208","ios":"levelo://app?vid=d1916827-9a95-4069-bc95-e33750d75208"},"vehicle_type_id":"4","last_reported":1715418474,"current_range_meters":0,"station_id":"ce4bgv92rcd13ifvqcr0","pricing_plan_id":"cebpf4jnsgd1na2vs0mg"},{"bike_id":"5498828d-47a8-4808-bc53-d2c1d3fab3ae","system_id":"levelo_inurba_marseille","lat":43.310804,"lon":5.38359,"is_reserved":false,"is_disabled":false,"rental_uris":{"android":"levelo://app?vid=5498828d-47a8-4808-bc53-d2c1d3fab3ae","ios":"levelo://app?vid=5498828d-47a8-4808-bc53-d2c1d3fab3ae"},"vehicle_type_id":"4","last_reported":1715418474,"current_range_meters":5600,"station_id":"ce4bgv92rcd13ifvqcr0","pricing_plan_id":"cebpf4jnsgd1na2vs0mg"},{"bike_id":"5ffe3241-93bd-4a1b-bc21-9e52df0d73f7","system_id":"levelo_inurba_marseille","lat":43.302784,"lon":5.377158,"is_reserved":false,"is_disabled":false,"rental_uris":{"android":"levelo://app?vid=5ffe3241-93bd-4a1b-bc21-9e52df0d73f7","ios":"levelo://app?vid=5ffe3241-93bd-4a1b-bc21-9e52df0d73f7"},"vehicle_type_id":"4","last_reported":1715418474,"current_range_meters":5600,"station_id":"ce4bguh2rcd13ifvqcj0","pricing_plan_id":"cebpf4jnsgd1na2vs0mg"},{"bike_id":"cbdce37e-765a-427c-95b5-a7859b773c2f","system_id":"levelo_inurba_marseille","lat":43.302784,"lon":5.377158,"is_reserved":false,"is_disabled":false,"rental_uris":{"android":"levelo://app?vid=cbdce37e-765a-427c-95b5-a7859b773c2f","ios":"levelo://app?vid=cbdce37e-765a-427c-95b5-a7859b773c2f"},"vehicle_type_id":"4","last_reported":1715418474,"current_range_meters":0,"station_id":"ce4bguh2rcd13ifvqcj0","pricing_plan_id":"cebpf4jnsgd1na2vs0mg"},{"bike_id":"15921661-e3f2-4f6b-ba49-2ebb8504aec3","system_id":"levelo_inurba_marseille","lat":43.310804,"lon":5.38359,"is_reserved":false,"is_disabled":false,"rental_uris":{"android":"levelo://app?vid=15921661-e3f2-4f6b-ba49-2ebb8504aec3","ios":"levelo://app?vid=15921661-e3f2-4f6b-ba49-2ebb8504aec3"},"vehicle_type_id":"4","last_reported":1715418474,"current_range_meters":17200,"station_id":"ce4bgv92rcd13ifvqcr0","pricing_plan_id":"cebpf4jnsgd1na2vs0mg"},{"bike_id":"afe79b90-7ecf-48b7-8c89-87eea6056f87","system_id":"levelo_inurba_marseille","lat":43.310804,"lon":5.38359,"is_reserved":false,"is_disabled":false,"rental_uris":{"android":"levelo://app?vid=afe79b90-7ecf-48b7-8c89-87eea6056f87","ios":"levelo://app?vid=afe79b90-7ecf-48b7-8c89-87eea6056f87"},"vehicle_type_id":"4","last_reported":1715418474,"current_range_meters":29600,"station_id":"ce4bgv92rcd13ifvqcr0","pricing_plan_id":"cebpf4jnsgd1na2vs0mg"},{"bike_id":"db997140-48d9-435c-9a5c-49b96833e9a7","system_id":"levelo_inurba_marseille","lat":43.310804,"lon":5.38359,"is_reserved":false,"is_disabled":false,"rental_uris":{"android":"levelo://app?vid=db997140-48d9-435c-9a5c-49b96833e9a7","ios":"levelo://app?vid=db997140-48d9-435c-9a5c-49b96833e9a7"},"vehicle_type_id":"4","last_reported":1715418474,"current_range_meters":13200,"station_id":"ce4bgv92rcd13ifvqcr0","pricing_plan_id":"cebpf4jnsgd1na2vs0mg"},{"bike_id":"00a6b27e-6a1f-43a5-815d-8153699be27f","system_id":"levelo_inurba_marseille","lat":43.302784,"lon":5.377158,"is_reserved":false,"is_disabled":false,"rental_uris":{"android":"levelo://app?vid=00a6b27e-6a1f-43a5-815d-8153699be27f","ios":"levelo://app?vid=00a6b27e-6a1f-43a5-815d-8153699be27f"},"vehicle_type_id":"4","last_reported":1715418474,"current_range_meters":30800,"station_id":"ce4bguh2rcd13ifvqcj0","pricing_plan_id":"cebpf4jnsgd1na2vs0mg"},{"bike_id":"a0f91d9e-77b3-4878-a20b-a62b94262fd4","system_id":"levelo_inurba_marseille","lat":43.30143,"lon":5.37413,"is_reserved":false,"is_disabled":false,"rental_uris":{"android":"levelo://app?vid=a0f91d9e-77b3-4878-a20b-a62b94262fd4","ios":"levelo://app?vid=a0f91d9e-77b3-4878-a20b-a62b94262fd4"},"vehicle_type_id":"4","last_reported":1715418474,"current_range_meters":28000,"station_id":"ce4bgs92rcd13ifvqcc0","pricing_plan_id":"cebpf4jnsgd1na2vs0mg"},{"bike_id":"44e6e0d7-4ced-422f-be12-512b4d37c43c","system_id":"levelo_inurba_marseille","lat":43.30143,"lon":5.37413,"is_reserved":false,"is_disabled":false,"rental_uris":{"android":"levelo://app?vid=44e6e0d7-4ced-422f-be12-512b4d37c43c","ios":"levelo://app?vid=44e6e0d7-4ced-422f-be12-512b4d37c43c"},"vehicle_type_id":"4","last_reported":1715418474,"current_range_meters":10000,"station_id":"ce4bgs92rcd13ifvqcc0","pricing_plan_id":"cebpf4jnsgd1na2vs0mg"},{"bike_id":"4e867511-26d1-47ab-b67c-31d169a1ad3e","system_id":"levelo_inurba_marseille","lat":43.30143,"lon":5.37413,"is_reserved":false,"is_disabled":false,"rental_uris":{"android":"levelo://app?vid=4e867511-26d1-47ab-b67c-31d169a1ad3e","ios":"levelo://app?vid=4e867511-26d1-47ab-b67c-31d169a1ad3e"},"vehicle_type_id":"4","last_reported":1715418474,"current_range_meters":4800,"station_id":"ce4bgs92rcd13ifvqcc0","pricing_plan_id":"cebpf4jnsgd1na2vs0mg"},{"bike_id":"2f0f9d03-8f26-4e80-92e8-7a58e7d3aa56","system_id":"levelo_inurba_marseille","lat":43.301429,"lon":5.37413,"is_reserved":false,"is_disabled":false,"rental_uris":{"android":"levelo://app?vid=2f0f9d03-8f26-4e80-92e8-7a58e7d3aa56","ios":"levelo://app?vid=2f0f9d03-8f26-4e80-92e8-7a58e7d3aa56"},"vehicle_type_id":"4","last_reported":1715418474,"current_range_meters":12800,"station_id":"ce4bgs92rcd13ifvqcc0","pricing_plan_id":"cebpf4jnsgd1na2vs0mg"},{"bike_id":"7fa2db1f-703e-45d3-81f6-965f3cd75b85","system_id":"levelo_inurba_marseille","lat":43.30143,"lon":5.37413,"is_reserved":false,"is_disabled":false,"rental_uris":{"android":"levelo://app?vid=7fa2db1f-703e-45d3-81f6-965f3cd75b85","ios":"levelo://app?vid=7fa2db1f-703e-45d3-81f6-965f3cd75b85"},"vehicle_type_id":"4","last_reported":1715418474,"current_range_meters":12400,"station_id":"ce4bgs92rcd13ifvqcc0","pricing_plan_id":"cebpf4jnsgd1na2vs0mg"},{"bike_id":"34323117-1ad8-4fc0-a9a3-5cd67962dae2","system_id":"levelo_inurba_marseille","lat":43.30143,"lon":5.37413,"is_reserved":false,"is_disabled":false,"rental_uris":{"android":"levelo://app?vid=34323117-1ad8-4fc0-a9a3-5cd67962dae2","ios":"levelo://app?vid=34323117-1ad8-4fc0-a9a3-5cd67962dae2"},"vehicle_type_id":"4","last_reported":1715418474,"current_range_meters":31200,"station_id":"ce4bgs92rcd13ifvqcc0","pricing_plan_id":"cebpf4jnsgd1na2vs0mg"},{"bike_id":"215a2cad-d938-44ba-8972-b749306a8755","system_id":"levelo_inurba_marseille","lat":43.30143,"lon":5.37413,"is_reserved":false,"is_disabled":false,"rental_uris":{"android":"levelo://app?vid=215a2cad-d938-44ba-8972-b749306a8755","ios":"levelo://app?vid=215a2cad-d938-44ba-8972-b749306a8755"},"vehicle_type_id":"4","last_reported":1715418474,"current_range_meters":7200,"station_id":"ce4bgs92rcd13ifvqcc0","pricing_plan_id":"cebpf4jnsgd1na2vs0mg"},{"bike_id":"cd7f9394-8cac-412e-abaa-1ce7b7949255","system_id":"levelo_inurba_marseille","lat":43.30143,"lon":5.37413,"is_reserved":false,"is_disabled":false,"rental_uris":{"android":"levelo://app?vid=cd7f9394-8cac-412e-abaa-1ce7b7949255","ios":"levelo://app?vid=cd7f9394-8cac-412e-abaa-1ce7b7949255"},"vehicle_type_id":"4","last_reported":1715418474,"current_range_meters":16000,"station_id":"ce4bgs92rcd13ifvqcc0","pricing_plan_id":"cebpf4jnsgd1na2vs0mg"},{"bike_id":"ecab2d6d-fbf7-4093-8d41-b9aa2f272757","system_id":"levelo_inurba_marseille","lat":43.301429,"lon":5.37413,"is_reserved":false,"is_disabled":false,"rental_uris":{"android":"levelo://app?vid=ecab2d6d-fbf7-4093-8d41-b9aa2f272757","ios":"levelo://app?vid=ecab2d6d-fbf7-4093-8d41-b9aa2f272757"},"vehicle_type_id":"4","last_reported":1715418474,"current_range_meters":21600,"station_id":"ce4bgs92rcd13ifvqcc0","pricing_plan_id":"cebpf4jnsgd1na2vs0mg"},{"bike_id":"1d2175c8-b948-4f3f-aa61-4d4aa13cecb2","system_id":"levelo_inurba_marseille","lat":43.30143,"lon":5.37413,"is_reserved":false,"is_disabled":false,"rental_uris":{"android":"levelo://app?vid=1d2175c8-b948-4f3f-aa61-4d4aa13cecb2","ios":"levelo://app?vid=1d2175c8-b948-4f3f-aa61-4d4aa13cecb2"},"vehicle_type_id":"4","last_reported":1715418474,"current_range_meters":31600,"station_id":"ce4bgs92rcd13ifvqcc0","pricing_plan_id":"cebpf4jnsgd1na2vs0mg"},{"bike_id":"cd2992bb-8bbc-4a8c-bc91-ed53954f8965","system_id":"levelo_inurba_marseille","lat":43.31355,"lon":5.38497,"is_reserved":false,"is_disabled":false,"rental_uris":{"android":"levelo://app?vid=cd2992bb-8bbc-4a8c-bc91-ed53954f8965","ios":"levelo://app?vid=cd2992bb-8bbc-4a8c-bc91-ed53954f8965"},"vehicle_type_id":"4","last_reported":1715418474,"current_range_meters":22000,"station_id":"ce4bgt92rcd13ifvqcf0","pricing_plan_id":"cebpf4jnsgd1na2vs0mg"},{"bike_id":"975564c8-c6d4-4c3c-b6a4-231a643caee6","system_id":"levelo_inurba_marseille","lat":43.31368,"lon":5.38504,"is_reserved":false,"is_disabled":false,"rental_uris":{"android":"levelo://app?vid=975564c8-c6d4-4c3c-b6a4-231a643caee6","ios":"levelo://app?vid=975564c8-c6d4-4c3c-b6a4-231a643caee6"},"vehicle_type_id":"4","last_reported":1715418474,"current_range_meters":13600,"station_id":"ce4bgt92rcd13ifvqcf0","pricing_plan_id":"cebpf4jnsgd1na2vs0mg"},{"bike_id":"1c7cafee-e030-43eb-a330-eeb527a21816","system_id":"levelo_inurba_marseille","lat":43.299976,"lon":5.371692,"is_reserved":false,"is_disabled":false,"rental_uris":{"android":"levelo://app?vid=1c7cafee-e030-43eb-a330-eeb527a21816","ios":"levelo://app?vid=1c7cafee-e030-43eb-a330-eeb527a21816"},"vehicle_type_id":"4","last_reported":1715418474,"current_range_meters":19600,"station_id":"","pricing_plan_id":"cebpf4jnsgd1na2vs0mg"},{"bike_id":"7f951c83-deec-4d82-ac49-c753735aef30","system_id":"levelo_inurba_marseille","lat":43.29977,"lon":5.37172,"is_reserved":false,"is_disabled":false,"rental_uris":{"android":"levelo://app?vid=7f951c83-deec-4d82-ac49-c753735aef30","ios":"levelo://app?vid=7f951c83-deec-4d82-ac49-c753735aef30"},"vehicle_type_id":"4","last_reported":1715418474,"current_range_meters":24400,"station_id":"ce4bgr92rcd13ifvqc7g","pricing_plan_id":"cebpf4jnsgd1na2vs0mg"},{"bike_id":"50eb2588-24e6-4f79-84c8-6b17e702b47c","system_id":"levelo_inurba_marseille","lat":43.299222,"lon":5.365554,"is_reserved":false,"is_disabled":false,"rental_uris":{"android":"levelo://app?vid=50eb2588-24e6-4f79-84c8-6b17e702b47c","ios":"levelo://app?vid=50eb2588-24e6-4f79-84c8-6b17e702b47c"},"vehicle_type_id":"4","last_reported":1715418474,"current_range_meters":25600,"station_id":"ce4bgm92rcd13ifvqbr0","pricing_plan_id":"cebpf4jnsgd1na2vs0mg"},{"bike_id":"646d0e41-8f75-4a1c-afeb-46470e1ed3d5","system_id":"levelo_inurba_marseille","lat":43.299724,"lon":5.371829,"is_reserved":false,"is_disabled":false,"rental_uris":{"android":"levelo://app?vid=646d0e41-8f75-4a1c-afeb-46470e1ed3d5","ios":"levelo://app?vid=646d0e41-8f75-4a1c-afeb-46470e1ed3d5"},"vehicle_type_id":"4","last_reported":1715418474,"current_range_meters":6400,"station_id":"ce4bgr92rcd13ifvqc7g","pricing_plan_id":"cebpf4jnsgd1na2vs0mg"},{"bike_id":"ba477bc9-0632-4675-b6b1-26da6d7f8162","system_id":"levelo_inurba_marseille","lat":43.299724,"lon":5.371829,"is_reserved":false,"is_disabled":false,"rental_uris":{"android":"levelo://app?vid=ba477bc9-0632-4675-b6b1-26da6d7f8162","ios":"levelo://app?vid=ba477bc9-0632-4675-b6b1-26da6d7f8162"},"vehicle_type_id":"4","last_reported":1715418474,"current_range_meters":30400,"station_id":"ce4bgr92rcd13ifvqc7g","pricing_plan_id":"cebpf4jnsgd1na2vs0mg"},{"bike_id":"7cb13567-66ec-4f04-9f26-4f26a788014e","system_id":"levelo_inurba_marseille","lat":43.299222,"lon":5.365554,"is_reserved":false,"is_disabled":false,"rental_uris":{"android":"levelo://app?vid=7cb13567-66ec-4f04-9f26-4f26a788014e","ios":"levelo://app?vid=7cb13567-66ec-4f04-9f26-4f26a788014e"},"vehicle_type_id":"4","last_reported":1715418474,"current_range_meters":8800,"station_id":"ce4bgm92rcd13ifvqbr0","pricing_plan_id":"cebpf4jnsgd1na2vs0mg"},{"bike_id":"367a04dd-3ec1-4a55-82fd-555ccc9149f9","system_id":"levelo_inurba_marseille","lat":43.29965,"lon":5.37186,"is_reserved":false,"is_disabled":false,"rental_uris":{"android":"levelo://app?vid=367a04dd-3ec1-4a55-82fd-555ccc9149f9","ios":"levelo://app?vid=367a04dd-3ec1-4a55-82fd-555ccc9149f9"},"vehicle_type_id":"4","last_reported":1715418474,"current_range_meters":25200,"station_id":"ce4bgr92rcd13ifvqc7g","pricing_plan_id":"cebpf4jnsgd1na2vs0mg"},{"bike_id":"aec0714b-7ca9-4099-be71-85c19fb89f57","system_id":"levelo_inurba_marseille","lat":43.299222,"lon":5.365554,"is_reserved":false,"is_disabled":false,"rental_uris":{"android":"levelo://app?vid=aec0714b-7ca9-4099-be71-85c19fb89f57","ios":"levelo://app?vid=aec0714b-7ca9-4099-be71-85c19fb89f57"},"vehicle_type_id":"4","last_reported":1715418474,"current_range_meters":15200,"station_id":"ce4bgm92rcd13ifvqbr0","pricing_plan_id":"cebpf4jnsgd1na2vs0mg"},{"bike_id":"3648fddc-4105-4e71-88cd-cfca27ee476a","system_id":"levelo_inurba_marseille","lat":43.298433,"lon":5.362774,"is_reserved":false,"is_disabled":false,"rental_uris":{"android":"levelo://app?vid=3648fddc-4105-4e71-88cd-cfca27ee476a","ios":"levelo://app?vid=3648fddc-4105-4e71-88cd-cfca27ee476a"},"vehicle_type_id":"4","last_reported":1715418474,"current_range_meters":20000,"station_id":"ce4bgpp2rcd13ifvqc3g","pricing_plan_id":"cebpf4jnsgd1na2vs0mg"},{"bike_id":"6aa53d5e-c8b9-4a64-827d-be2cf426902d","system_id":"levelo_inurba_marseille","lat":43.298433,"lon":5.362774,"is_reserved":false,"is_disabled":false,"rental_uris":{"android":"levelo://app?vid=6aa53d5e-c8b9-4a64-827d-be2cf426902d","ios":"levelo://app?vid=6aa53d5e-c8b9-4a64-827d-be2cf426902d"},"vehicle_type_id":"4","last_reported":1715418474,"current_range_meters":7200,"station_id":"ce4bgpp2rcd13ifvqc3g","pricing_plan_id":"cebpf4jnsgd1na2vs0mg"},{"bike_id":"6b236764-b9f9-4ff5-9928-836a0b125b08","system_id":"levelo_inurba_marseille","lat":43.298433,"lon":5.362774,"is_reserved":false,"is_disabled":false,"rental_uris":{"android":"levelo://app?vid=6b236764-b9f9-4ff5-9928-836a0b125b08","ios":"levelo://app?vid=6b236764-b9f9-4ff5-9928-836a0b125b08"},"vehicle_type_id":"4","last_reported":1715418474,"current_range_meters":28800,"station_id":"ce4bgpp2rcd13ifvqc3g","pricing_plan_id":"cebpf4jnsgd1na2vs0mg"},{"bike_id":"ba47606c-d023-4e4d-a9c9-1ac00c74e554","system_id":"levelo_inurba_marseille","lat":43.298433,"lon":5.362774,"is_reserved":false,"is_disabled":false,"rental_uris":{"android":"levelo://app?vid=ba47606c-d023-4e4d-a9c9-1ac00c74e554","ios":"levelo://app?vid=ba47606c-d023-4e4d-a9c9-1ac00c74e554"},"vehicle_type_id":"4","last_reported":1715418474,"current_range_meters":28400,"station_id":"ce4bgpp2rcd13ifvqc3g","pricing_plan_id":"cebpf4jnsgd1na2vs0mg"},{"bike_id":"42797a23-1abf-4063-904c-dfd288b69050","system_id":"levelo_inurba_marseille","lat":43.298433,"lon":5.362774,"is_reserved":false,"is_disabled":false,"rental_uris":{"android":"levelo://app?vid=42797a23-1abf-4063-904c-dfd288b69050","ios":"levelo://app?vid=42797a23-1abf-4063-904c-dfd288b69050"},"vehicle_type_id":"4","last_reported":1715418474,"current_range_meters":0,"station_id":"ce4bgpp2rcd13ifvqc3g","pricing_plan_id":"cebpf4jnsgd1na2vs0mg"},{"bike_id":"28cd0685-e659-45dc-b41e-6cc48b5efd1d","system_id":"levelo_inurba_marseille","lat":43.298433,"lon":5.362774,"is_reserved":false,"is_disabled":false,"rental_uris":{"android":"levelo://app?vid=28cd0685-e659-45dc-b41e-6cc48b5efd1d","ios":"levelo://app?vid=28cd0685-e659-45dc-b41e-6cc48b5efd1d"},"vehicle_type_id":"4","last_reported":1715418474,"current_range_meters":9600,"station_id":"ce4bgpp2rcd13ifvqc3g","pricing_plan_id":"cebpf4jnsgd1na2vs0mg"},{"bike_id":"00c18ada-5796-49c4-8b37-7ad686193395","system_id":"levelo_inurba_marseille","lat":43.298433,"lon":5.362774,"is_reserved":false,"is_disabled":false,"rental_uris":{"android":"levelo://app?vid=00c18ada-5796-49c4-8b37-7ad686193395","ios":"levelo://app?vid=00c18ada-5796-49c4-8b37-7ad686193395"},"vehicle_type_id":"4","last_reported":1715418474,"current_range_meters":4000,"station_id":"ce4bgpp2rcd13ifvqc3g","pricing_plan_id":"cebpf4jnsgd1na2vs0mg"},{"bike_id":"208ebf21-eb14-451b-9f16-df4994ae8c5d","system_id":"levelo_inurba_marseille","lat":43.298433,"lon":5.362774,"is_reserved":false,"is_disabled":false,"rental_uris":{"android":"levelo://app?vid=208ebf21-eb14-451b-9f16-df4994ae8c5d","ios":"levelo://app?vid=208ebf21-eb14-451b-9f16-df4994ae8c5d"},"vehicle_type_id":"4","last_reported":1715418474,"current_range_meters":30800,"station_id":"ce4bgpp2rcd13ifvqc3g","pricing_plan_id":"cebpf4jnsgd1na2vs0mg"},{"bike_id":"69dba257-5a0d-421b-9fdc-6342ba8c8b3f","system_id":"levelo_inurba_marseille","lat":43.299243,"lon":5.374807,"is_reserved":false,"is_disabled":false,"rental_uris":{"android":"levelo://app?vid=69dba257-5a0d-421b-9fdc-6342ba8c8b3f","ios":"levelo://app?vid=69dba257-5a0d-421b-9fdc-6342ba8c8b3f"},"vehicle_type_id":"4","last_reported":1715418474,"current_range_meters":31600,"station_id":"ce4bgjh2rcd13ifvqbg0","pricing_plan_id":"cebpf4jnsgd1na2vs0mg"},{"bike_id":"8ff7ee73-9260-46d5-bb29-b7a58f5b1ac0","system_id":"levelo_inurba_marseille","lat":43.299243,"lon":5.374807,"is_reserved":false,"is_disabled":false,"rental_uris":{"android":"levelo://app?vid=8ff7ee73-9260-46d5-bb29-b7a58f5b1ac0","ios":"levelo://app?vid=8ff7ee73-9260-46d5-bb29-b7a58f5b1ac0"},"vehicle_type_id":"4","last_reported":1715418474,"current_range_meters":30400,"station_id":"ce4bgjh2rcd13ifvqbg0","pricing_plan_id":"cebpf4jnsgd1na2vs0mg"},{"bike_id":"81b1943d-067a-4c77-9b58-752b33abfdc8","system_id":"levelo_inurba_marseille","lat":43.299243,"lon":5.374807,"is_reserved":false,"is_disabled":false,"rental_uris":{"android":"levelo://app?vid=81b1943d-067a-4c77-9b58-752b33abfdc8","ios":"levelo://app?vid=81b1943d-067a-4c77-9b58-752b33abfdc8"},"vehicle_type_id":"4","last_reported":1715418474,"current_range_meters":30000,"station_id":"ce4bgjh2rcd13ifvqbg0","pricing_plan_id":"cebpf4jnsgd1na2vs0mg"},{"bike_id":"cb3ec482-0b24-4a3a-bd6b-3f61354d6d68","system_id":"levelo_inurba_marseille","lat":43.299243,"lon":5.374807,"is_reserved":false,"is_disabled":false,"rental_uris":{"android":"levelo://app?vid=cb3ec482-0b24-4a3a-bd6b-3f61354d6d68","ios":"levelo://app?vid=cb3ec482-0b24-4a3a-bd6b-3f61354d6d68"},"vehicle_type_id":"4","last_reported":1715418474,"current_range_meters":23600,"station_id":"ce4bgjh2rcd13ifvqbg0","pricing_plan_id":"cebpf4jnsgd1na2vs0mg"},{"bike_id":"60fd6149-187b-46bd-a9bf-b81b60234f69","system_id":"levelo_inurba_marseille","lat":43.299243,"lon":5.374807,"is_reserved":false,"is_disabled":false,"rental_uris":{"android":"levelo://app?vid=60fd6149-187b-46bd-a9bf-b81b60234f69","ios":"levelo://app?vid=60fd6149-187b-46bd-a9bf-b81b60234f69"},"vehicle_type_id":"4","last_reported":1715418474,"current_range_meters":29600,"station_id":"ce4bgjh2rcd13ifvqbg0","pricing_plan_id":"cebpf4jnsgd1na2vs0mg"},{"bike_id":"9d84286f-2518-408b-a8fb-f09c101a1771","system_id":"levelo_inurba_marseille","lat":43.298433,"lon":5.362774,"is_reserved":false,"is_disabled":false,"rental_uris":{"android":"levelo://app?vid=9d84286f-2518-408b-a8fb-f09c101a1771","ios":"levelo://app?vid=9d84286f-2518-408b-a8fb-f09c101a1771"},"vehicle_type_id":"4","last_reported":1715418474,"current_range_meters":0,"station_id":"ce4bgpp2rcd13ifvqc3g","pricing_plan_id":"cebpf4jnsgd1na2vs0mg"},{"bike_id":"81dda0f3-5d39-4e5f-8ce2-4d09ee6827b4","system_id":"levelo_inurba_marseille","lat":43.299243,"lon":5.374807,"is_reserved":false,"is_disabled":false,"rental_uris":{"android":"levelo://app?vid=81dda0f3-5d39-4e5f-8ce2-4d09ee6827b4","ios":"levelo://app?vid=81dda0f3-5d39-4e5f-8ce2-4d09ee6827b4"},"vehicle_type_id":"4","last_reported":1715418474,"current_range_meters":30400,"station_id":"ce4bgjh2rcd13ifvqbg0","pricing_plan_id":"cebpf4jnsgd1na2vs0mg"},{"bike_id":"788d0c54-4c7d-469e-8b60-a2eeabc63a57","system_id":"levelo_inurba_marseille","lat":43.299243,"lon":5.374807,"is_reserved":false,"is_disabled":false,"rental_uris":{"android":"levelo://app?vid=788d0c54-4c7d-469e-8b60-a2eeabc63a57","ios":"levelo://app?vid=788d0c54-4c7d-469e-8b60-a2eeabc63a57"},"vehicle_type_id":"4","last_reported":1715418474,"current_range_meters":22800,"station_id":"ce4bgjh2rcd13ifvqbg0","pricing_plan_id":"cebpf4jnsgd1na2vs0mg"},{"bike_id":"dad6be9f-76e6-4ffb-bcef-55b451cc67c8","system_id":"levelo_inurba_marseille","lat":43.298433,"lon":5.362774,"is_reserved":false,"is_disabled":false,"rental_uris":{"android":"levelo://app?vid=dad6be9f-76e6-4ffb-bcef-55b451cc67c8","ios":"levelo://app?vid=dad6be9f-76e6-4ffb-bcef-55b451cc67c8"},"vehicle_type_id":"4","last_reported":1715418474,"current_range_meters":31600,"station_id":"ce4bgpp2rcd13ifvqc3g","pricing_plan_id":"cebpf4jnsgd1na2vs0mg"},{"bike_id":"6f762ec5-376a-4b15-bcc2-ffb0746434ed","system_id":"levelo_inurba_marseille","lat":43.298433,"lon":5.362774,"is_reserved":false,"is_disabled":false,"rental_uris":{"android":"levelo://app?vid=6f762ec5-376a-4b15-bcc2-ffb0746434ed","ios":"levelo://app?vid=6f762ec5-376a-4b15-bcc2-ffb0746434ed"},"vehicle_type_id":"4","last_reported":1715418474,"current_range_meters":14800,"station_id":"ce4bgpp2rcd13ifvqc3g","pricing_plan_id":"cebpf4jnsgd1na2vs0mg"},{"bike_id":"51137f50-c6f9-4767-b8d3-0190819aed56","system_id":"levelo_inurba_marseille","lat":43.299243,"lon":5.374807,"is_reserved":false,"is_disabled":false,"rental_uris":{"android":"levelo://app?vid=51137f50-c6f9-4767-b8d3-0190819aed56","ios":"levelo://app?vid=51137f50-c6f9-4767-b8d3-0190819aed56"},"vehicle_type_id":"4","last_reported":1715418474,"current_range_meters":31200,"station_id":"ce4bgjh2rcd13ifvqbg0","pricing_plan_id":"cebpf4jnsgd1na2vs0mg"},{"bike_id":"4b13985a-2eb5-43c4-ad29-d853b4c61072","system_id":"levelo_inurba_marseille","lat":43.298433,"lon":5.362774,"is_reserved":false,"is_disabled":false,"rental_uris":{"android":"levelo://app?vid=4b13985a-2eb5-43c4-ad29-d853b4c61072","ios":"levelo://app?vid=4b13985a-2eb5-43c4-ad29-d853b4c61072"},"vehicle_type_id":"4","last_reported":1715418474,"current_range_meters":18800,"station_id":"ce4bgpp2rcd13ifvqc3g","pricing_plan_id":"cebpf4jnsgd1na2vs0mg"},{"bike_id":"6b7de999-e458-423d-9fcf-1d1a8368a46c","system_id":"levelo_inurba_marseille","lat":43.31181,"lon":5.3871,"is_reserved":false,"is_disabled":false,"rental_uris":{"android":"levelo://app?vid=6b7de999-e458-423d-9fcf-1d1a8368a46c","ios":"levelo://app?vid=6b7de999-e458-423d-9fcf-1d1a8368a46c"},"vehicle_type_id":"4","last_reported":1715418474,"current_range_meters":7600,"station_id":"ce4bgv12rcd13ifvqcp0","pricing_plan_id":"cebpf4jnsgd1na2vs0mg"},{"bike_id":"25520312-b931-47bc-9448-3d950a1d6842","system_id":"levelo_inurba_marseille","lat":43.298433,"lon":5.362774,"is_reserved":false,"is_disabled":false,"rental_uris":{"android":"levelo://app?vid=25520312-b931-47bc-9448-3d950a1d6842","ios":"levelo://app?vid=25520312-b931-47bc-9448-3d950a1d6842"},"vehicle_type_id":"4","last_reported":1715418474,"current_range_meters":31600,"station_id":"ce4bgpp2rcd13ifvqc3g","pricing_plan_id":"cebpf4jnsgd1na2vs0mg"},{"bike_id":"e860cb74-906a-4efc-888b-44afb0c9cea4","system_id":"levelo_inurba_marseille","lat":43.31167,"lon":5.38711,"is_reserved":false,"is_disabled":false,"rental_uris":{"android":"levelo://app?vid=e860cb74-906a-4efc-888b-44afb0c9cea4","ios":"levelo://app?vid=e860cb74-906a-4efc-888b-44afb0c9cea4"},"vehicle_type_id":"4","last_reported":1715418474,"current_range_meters":5200,"station_id":"ce4bgv12rcd13ifvqcp0","pricing_plan_id":"cebpf4jnsgd1na2vs0mg"},{"bike_id":"85092754-805d-4cd0-80dc-5f1e27d08b35","system_id":"levelo_inurba_marseille","lat":43.299243,"lon":5.374807,"is_reserved":false,"is_disabled":false,"rental_uris":{"android":"levelo://app?vid=85092754-805d-4cd0-80dc-5f1e27d08b35","ios":"levelo://app?vid=85092754-805d-4cd0-80dc-5f1e27d08b35"},"vehicle_type_id":"4","last_reported":1715418474,"current_range_meters":23600,"station_id":"ce4bgjh2rcd13ifvqbg0","pricing_plan_id":"cebpf4jnsgd1na2vs0mg"},{"bike_id":"0671c8ff-44b2-489f-9374-f1057e5d4e28","system_id":"levelo_inurba_marseille","lat":43.311722,"lon":5.387247,"is_reserved":false,"is_disabled":false,"rental_uris":{"android":"levelo://app?vid=0671c8ff-44b2-489f-9374-f1057e5d4e28","ios":"levelo://app?vid=0671c8ff-44b2-489f-9374-f1057e5d4e28"},"vehicle_type_id":"4","last_reported":1715418474,"current_range_meters":400,"station_id":"ce4bgv12rcd13ifvqcp0","pricing_plan_id":"cebpf4jnsgd1na2vs0mg"},{"bike_id":"8d138d4c-ad62-4ab2-8266-e2d760ba2399","system_id":"levelo_inurba_marseille","lat":43.311722,"lon":5.387247,"is_reserved":false,"is_disabled":false,"rental_uris":{"android":"levelo://app?vid=8d138d4c-ad62-4ab2-8266-e2d760ba2399","ios":"levelo://app?vid=8d138d4c-ad62-4ab2-8266-e2d760ba2399"},"vehicle_type_id":"4","last_reported":1715418474,"current_range_meters":31600,"station_id":"ce4bgv12rcd13ifvqcp0","pricing_plan_id":"cebpf4jnsgd1na2vs0mg"},{"bike_id":"b5095443-236e-4e24-900c-2f57c7aba148","system_id":"levelo_inurba_marseille","lat":43.311722,"lon":5.387247,"is_reserved":false,"is_disabled":false,"rental_uris":{"android":"levelo://app?vid=b5095443-236e-4e24-900c-2f57c7aba148","ios":"levelo://app?vid=b5095443-236e-4e24-900c-2f57c7aba148"},"vehicle_type_id":"4","last_reported":1715418474,"current_range_meters":31600,"station_id":"ce4bgv12rcd13ifvqcp0","pricing_plan_id":"cebpf4jnsgd1na2vs0mg"},{"bike_id":"961ddc9e-0aed-40f8-93fc-31816e082525","system_id":"levelo_inurba_marseille","lat":43.311722,"lon":5.387247,"is_reserved":false,"is_disabled":false,"rental_uris":{"android":"levelo://app?vid=961ddc9e-0aed-40f8-93fc-31816e082525","ios":"levelo://app?vid=961ddc9e-0aed-40f8-93fc-31816e082525"},"vehicle_type_id":"4","last_reported":1715418474,"current_range_meters":31600,"station_id":"ce4bgv12rcd13ifvqcp0","pricing_plan_id":"cebpf4jnsgd1na2vs0mg"},{"bike_id":"a5e487d1-207e-40d5-9390-43acbbb2e8cd","system_id":"levelo_inurba_marseille","lat":43.311722,"lon":5.387247,"is_reserved":false,"is_disabled":false,"rental_uris":{"android":"levelo://app?vid=a5e487d1-207e-40d5-9390-43acbbb2e8cd","ios":"levelo://app?vid=a5e487d1-207e-40d5-9390-43acbbb2e8cd"},"vehicle_type_id":"4","last_reported":1715418474,"current_range_meters":21200,"station_id":"ce4bgv12rcd13ifvqcp0","pricing_plan_id":"cebpf4jnsgd1na2vs0mg"},{"bike_id":"2af359cc-bdf4-4402-9cf9-a3c09c9f1006","system_id":"levelo_inurba_marseille","lat":43.297774,"lon":5.370875,"is_reserved":false,"is_disabled":false,"rental_uris":{"android":"levelo://app?vid=2af359cc-bdf4-4402-9cf9-a3c09c9f1006","ios":"levelo://app?vid=2af359cc-bdf4-4402-9cf9-a3c09c9f1006"},"vehicle_type_id":"4","last_reported":1715418474,"current_range_meters":31200,"station_id":"ce4bgop2rcd13ifvqc1g","pricing_plan_id":"cebpf4jnsgd1na2vs0mg"},{"bike_id":"8bb12fa7-9475-4eca-9f19-abe44c575167","system_id":"levelo_inurba_marseille","lat":43.297774,"lon":5.370875,"is_reserved":false,"is_disabled":false,"rental_uris":{"android":"levelo://app?vid=8bb12fa7-9475-4eca-9f19-abe44c575167","ios":"levelo://app?vid=8bb12fa7-9475-4eca-9f19-abe44c575167"},"vehicle_type_id":"4","last_reported":1715418474,"current_range_meters":26800,"station_id":"ce4bgop2rcd13ifvqc1g","pricing_plan_id":"cebpf4jnsgd1na2vs0mg"},{"bike_id":"25f093e4-7b87-44bd-a7ba-bb4896fb62e3","system_id":"levelo_inurba_marseille","lat":43.29712,"lon":5.3662,"is_reserved":false,"is_disabled":false,"rental_uris":{"android":"levelo://app?vid=25f093e4-7b87-44bd-a7ba-bb4896fb62e3","ios":"levelo://app?vid=25f093e4-7b87-44bd-a7ba-bb4896fb62e3"},"vehicle_type_id":"4","last_reported":1715418474,"current_range_meters":26400,"station_id":"ce4bgn12rcd13ifvqbt0","pricing_plan_id":"cebpf4jnsgd1na2vs0mg"},{"bike_id":"0a8e66c6-193f-4eaf-9f9c-c04f3efb5f7f","system_id":"levelo_inurba_marseille","lat":43.297163,"lon":5.365866,"is_reserved":false,"is_disabled":false,"rental_uris":{"android":"levelo://app?vid=0a8e66c6-193f-4eaf-9f9c-c04f3efb5f7f","ios":"levelo://app?vid=0a8e66c6-193f-4eaf-9f9c-c04f3efb5f7f"},"vehicle_type_id":"4","last_reported":1715418474,"current_range_meters":31600,"station_id":"ce4bgn12rcd13ifvqbt0","pricing_plan_id":"cebpf4jnsgd1na2vs0mg"},{"bike_id":"7a772d55-fd96-459b-b1f1-4e732b5d0c79","system_id":"levelo_inurba_marseille","lat":43.297163,"lon":5.365866,"is_reserved":false,"is_disabled":false,"rental_uris":{"android":"levelo://app?vid=7a772d55-fd96-459b-b1f1-4e732b5d0c79","ios":"levelo://app?vid=7a772d55-fd96-459b-b1f1-4e732b5d0c79"},"vehicle_type_id":"4","last_reported":1715418474,"current_range_meters":6800,"station_id":"ce4bgn12rcd13ifvqbt0","pricing_plan_id":"cebpf4jnsgd1na2vs0mg"},{"bike_id":"d9eb89a7-17a7-49b3-bfca-1db2cb0a3321","system_id":"levelo_inurba_marseille","lat":43.297163,"lon":5.365866,"is_reserved":false,"is_disabled":false,"rental_uris":{"android":"levelo://app?vid=d9eb89a7-17a7-49b3-bfca-1db2cb0a3321","ios":"levelo://app?vid=d9eb89a7-17a7-49b3-bfca-1db2cb0a3321"},"vehicle_type_id":"4","last_reported":1715418474,"current_range_meters":6800,"station_id":"ce4bgn12rcd13ifvqbt0","pricing_plan_id":"cebpf4jnsgd1na2vs0mg"},{"bike_id":"ee9655f6-c8d1-4039-91fe-92791effed4a","system_id":"levelo_inurba_marseille","lat":43.297163,"lon":5.365866,"is_reserved":false,"is_disabled":false,"rental_uris":{"android":"levelo://app?vid=ee9655f6-c8d1-4039-91fe-92791effed4a","ios":"levelo://app?vid=ee9655f6-c8d1-4039-91fe-92791effed4a"},"vehicle_type_id":"4","last_reported":1715418474,"current_range_meters":26000,"station_id":"ce4bgn12rcd13ifvqbt0","pricing_plan_id":"cebpf4jnsgd1na2vs0mg"},{"bike_id":"3e7256d4-28e9-4df7-8c1f-786af3aaef2f","system_id":"levelo_inurba_marseille","lat":43.297163,"lon":5.365866,"is_reserved":false,"is_disabled":false,"rental_uris":{"android":"levelo://app?vid=3e7256d4-28e9-4df7-8c1f-786af3aaef2f","ios":"levelo://app?vid=3e7256d4-28e9-4df7-8c1f-786af3aaef2f"},"vehicle_type_id":"4","last_reported":1715418474,"current_range_meters":10400,"station_id":"ce4bgn12rcd13ifvqbt0","pricing_plan_id":"cebpf4jnsgd1na2vs0mg"},{"bike_id":"2e6b251f-b136-4a80-970c-9fd4e9c1c397","system_id":"levelo_inurba_marseille","lat":43.32804,"lon":5.37513,"is_reserved":false,"is_disabled":false,"rental_uris":{"android":"levelo://app?vid=2e6b251f-b136-4a80-970c-9fd4e9c1c397","ios":"levelo://app?vid=2e6b251f-b136-4a80-970c-9fd4e9c1c397"},"vehicle_type_id":"4","last_reported":1715418474,"current_range_meters":29600,"station_id":"","pricing_plan_id":"cebpf4jnsgd1na2vs0mg"},{"bike_id":"637ce875-eb0b-47e0-a76e-993ed5a3e439","system_id":"levelo_inurba_marseille","lat":43.2968,"lon":5.37291,"is_reserved":false,"is_disabled":false,"rental_uris":{"android":"levelo://app?vid=637ce875-eb0b-47e0-a76e-993ed5a3e439","ios":"levelo://app?vid=637ce875-eb0b-47e0-a76e-993ed5a3e439"},"vehicle_type_id":"4","last_reported":1715418474,"current_range_meters":16400,"station_id":"ce4bgk12rcd13ifvqbj0","pricing_plan_id":"cebpf4jnsgd1na2vs0mg"},{"bike_id":"4219b76f-0db6-4c93-a9f2-67ef0296e9a5","system_id":"levelo_inurba_marseille","lat":43.296131,"lon":5.370791,"is_reserved":false,"is_disabled":false,"rental_uris":{"android":"levelo://app?vid=4219b76f-0db6-4c93-a9f2-67ef0296e9a5","ios":"levelo://app?vid=4219b76f-0db6-4c93-a9f2-67ef0296e9a5"},"vehicle_type_id":"4","last_reported":1715418474,"current_range_meters":24800,"station_id":"ce4bgnh2rcd13ifvqc0g","pricing_plan_id":"cebpf4jnsgd1na2vs0mg"},{"bike_id":"b58f489b-e7f9-4d86-9fbe-897876c8d087","system_id":"levelo_inurba_marseille","lat":43.296129,"lon":5.370777,"is_reserved":false,"is_disabled":false,"rental_uris":{"android":"levelo://app?vid=b58f489b-e7f9-4d86-9fbe-897876c8d087","ios":"levelo://app?vid=b58f489b-e7f9-4d86-9fbe-897876c8d087"},"vehicle_type_id":"4","last_reported":1715418474,"current_range_meters":14000,"station_id":"ce4bgnh2rcd13ifvqc0g","pricing_plan_id":"cebpf4jnsgd1na2vs0mg"},{"bike_id":"a22db68c-c509-47da-b81c-08f35e2f7a7f","system_id":"levelo_inurba_marseille","lat":43.296131,"lon":5.370791,"is_reserved":false,"is_disabled":false,"rental_uris":{"android":"levelo://app?vid=a22db68c-c509-47da-b81c-08f35e2f7a7f","ios":"levelo://app?vid=a22db68c-c509-47da-b81c-08f35e2f7a7f"},"vehicle_type_id":"4","last_reported":1715418474,"current_range_meters":27200,"station_id":"ce4bgnh2rcd13ifvqc0g","pricing_plan_id":"cebpf4jnsgd1na2vs0mg"},{"bike_id":"c4764be0-c5e0-4d96-9969-3bcf7dac14f1","system_id":"levelo_inurba_marseille","lat":43.296131,"lon":5.370791,"is_reserved":false,"is_disabled":false,"rental_uris":{"android":"levelo://app?vid=c4764be0-c5e0-4d96-9969-3bcf7dac14f1","ios":"levelo://app?vid=c4764be0-c5e0-4d96-9969-3bcf7dac14f1"},"vehicle_type_id":"4","last_reported":1715418474,"current_range_meters":23200,"station_id":"ce4bgnh2rcd13ifvqc0g","pricing_plan_id":"cebpf4jnsgd1na2vs0mg"},{"bike_id":"4517a639-941e-41ce-a9fa-e3177a42a53e","system_id":"levelo_inurba_marseille","lat":43.29573,"lon":5.367355,"is_reserved":false,"is_disabled":false,"rental_uris":{"android":"levelo://app?vid=4517a639-941e-41ce-a9fa-e3177a42a53e","ios":"levelo://app?vid=4517a639-941e-41ce-a9fa-e3177a42a53e"},"vehicle_type_id":"4","last_reported":1715418474,"current_range_meters":14800,"station_id":"ce4bgph2rcd13ifvqc2g","pricing_plan_id":"cebpf4jnsgd1na2vs0mg"},{"bike_id":"a5a59dfd-57f0-46d0-91d7-7ef034454d67","system_id":"levelo_inurba_marseille","lat":43.296131,"lon":5.370791,"is_reserved":false,"is_disabled":false,"rental_uris":{"android":"levelo://app?vid=a5a59dfd-57f0-46d0-91d7-7ef034454d67","ios":"levelo://app?vid=a5a59dfd-57f0-46d0-91d7-7ef034454d67"},"vehicle_type_id":"4","last_reported":1715418474,"current_range_meters":12400,"station_id":"ce4bgnh2rcd13ifvqc0g","pricing_plan_id":"cebpf4jnsgd1na2vs0mg"},{"bike_id":"7458d0cb-0a8a-4e2f-9563-95b44789423b","system_id":"levelo_inurba_marseille","lat":43.29573,"lon":5.367355,"is_reserved":false,"is_disabled":false,"rental_uris":{"android":"levelo://app?vid=7458d0cb-0a8a-4e2f-9563-95b44789423b","ios":"levelo://app?vid=7458d0cb-0a8a-4e2f-9563-95b44789423b"},"vehicle_type_id":"4","last_reported":1715418474,"current_range_meters":9200,"station_id":"ce4bgph2rcd13ifvqc2g","pricing_plan_id":"cebpf4jnsgd1na2vs0mg"},{"bike_id":"d60fff00-f7f0-4010-ac9f-e455fa0f0ff1","system_id":"levelo_inurba_marseille","lat":43.296129,"lon":5.370777,"is_reserved":false,"is_disabled":false,"rental_uris":{"android":"levelo://app?vid=d60fff00-f7f0-4010-ac9f-e455fa0f0ff1","ios":"levelo://app?vid=d60fff00-f7f0-4010-ac9f-e455fa0f0ff1"},"vehicle_type_id":"4","last_reported":1715418474,"current_range_meters":24400,"station_id":"ce4bgnh2rcd13ifvqc0g","pricing_plan_id":"cebpf4jnsgd1na2vs0mg"},{"bike_id":"e4a48da5-503a-4b91-8340-39debba2bbf3","system_id":"levelo_inurba_marseille","lat":43.296131,"lon":5.370773,"is_reserved":false,"is_disabled":false,"rental_uris":{"android":"levelo://app?vid=e4a48da5-503a-4b91-8340-39debba2bbf3","ios":"levelo://app?vid=e4a48da5-503a-4b91-8340-39debba2bbf3"},"vehicle_type_id":"4","last_reported":1715418474,"current_range_meters":21200,"station_id":"ce4bgnh2rcd13ifvqc0g","pricing_plan_id":"cebpf4jnsgd1na2vs0mg"},{"bike_id":"f4111379-ab46-458b-9b9c-03e2310a2b01","system_id":"levelo_inurba_marseille","lat":43.296129,"lon":5.370777,"is_reserved":false,"is_disabled":false,"rental_uris":{"android":"levelo://app?vid=f4111379-ab46-458b-9b9c-03e2310a2b01","ios":"levelo://app?vid=f4111379-ab46-458b-9b9c-03e2310a2b01"},"vehicle_type_id":"4","last_reported":1715418474,"current_range_meters":31600,"station_id":"ce4bgnh2rcd13ifvqc0g","pricing_plan_id":"cebpf4jnsgd1na2vs0mg"},{"bike_id":"ca3f5ad5-e304-4191-ab53-6f888e46aa50","system_id":"levelo_inurba_marseille","lat":43.29573,"lon":5.367355,"is_reserved":false,"is_disabled":false,"rental_uris":{"android":"levelo://app?vid=ca3f5ad5-e304-4191-ab53-6f888e46aa50","ios":"levelo://app?vid=ca3f5ad5-e304-4191-ab53-6f888e46aa50"},"vehicle_type_id":"4","last_reported":1715418474,"current_range_meters":7200,"station_id":"ce4bgph2rcd13ifvqc2g","pricing_plan_id":"cebpf4jnsgd1na2vs0mg"},{"bike_id":"b5a8e3aa-429a-408b-ad7f-c1e5f6377e30","system_id":"levelo_inurba_marseille","lat":43.29573,"lon":5.367355,"is_reserved":false,"is_disabled":false,"rental_uris":{"android":"levelo://app?vid=b5a8e3aa-429a-408b-ad7f-c1e5f6377e30","ios":"levelo://app?vid=b5a8e3aa-429a-408b-ad7f-c1e5f6377e30"},"vehicle_type_id":"4","last_reported":1715418474,"current_range_meters":25200,"station_id":"ce4bgph2rcd13ifvqc2g","pricing_plan_id":"cebpf4jnsgd1na2vs0mg"},{"bike_id":"e994a3fb-b032-44a8-b045-c75c94bddde3","system_id":"levelo_inurba_marseille","lat":43.29573,"lon":5.367355,"is_reserved":false,"is_disabled":false,"rental_uris":{"android":"levelo://app?vid=e994a3fb-b032-44a8-b045-c75c94bddde3","ios":"levelo://app?vid=e994a3fb-b032-44a8-b045-c75c94bddde3"},"vehicle_type_id":"4","last_reported":1715418474,"current_range_meters":400,"station_id":"ce4bgph2rcd13ifvqc2g","pricing_plan_id":"cebpf4jnsgd1na2vs0mg"},{"bike_id":"85d5cd83-0765-406b-baf0-76d9fb958a7f","system_id":"levelo_inurba_marseille","lat":43.29573,"lon":5.367355,"is_reserved":false,"is_disabled":false,"rental_uris":{"android":"levelo://app?vid=85d5cd83-0765-406b-baf0-76d9fb958a7f","ios":"levelo://app?vid=85d5cd83-0765-406b-baf0-76d9fb958a7f"},"vehicle_type_id":"4","last_reported":1715418474,"current_range_meters":13600,"station_id":"ce4bgph2rcd13ifvqc2g","pricing_plan_id":"cebpf4jnsgd1na2vs0mg"},{"bike_id":"32e10575-e12f-4fa0-a604-1d3b519ba157","system_id":"levelo_inurba_marseille","lat":43.29573,"lon":5.367355,"is_reserved":false,"is_disabled":false,"rental_uris":{"android":"levelo://app?vid=32e10575-e12f-4fa0-a604-1d3b519ba157","ios":"levelo://app?vid=32e10575-e12f-4fa0-a604-1d3b519ba157"},"vehicle_type_id":"4","last_reported":1715418474,"current_range_meters":16800,"station_id":"ce4bgph2rcd13ifvqc2g","pricing_plan_id":"cebpf4jnsgd1na2vs0mg"},{"bike_id":"00d7147c-7c49-41ff-81ff-1772010b6afb","system_id":"levelo_inurba_marseille","lat":43.29573,"lon":5.367355,"is_reserved":false,"is_disabled":false,"rental_uris":{"android":"levelo://app?vid=00d7147c-7c49-41ff-81ff-1772010b6afb","ios":"levelo://app?vid=00d7147c-7c49-41ff-81ff-1772010b6afb"},"vehicle_type_id":"4","last_reported":1715418474,"current_range_meters":15200,"station_id":"ce4bgph2rcd13ifvqc2g","pricing_plan_id":"cebpf4jnsgd1na2vs0mg"},{"bike_id":"844fae6f-a9d4-4369-a408-48ed536b5cc6","system_id":"levelo_inurba_marseille","lat":43.32342,"lon":5.38511,"is_reserved":false,"is_disabled":false,"rental_uris":{"android":"levelo://app?vid=844fae6f-a9d4-4369-a408-48ed536b5cc6","ios":"levelo://app?vid=844fae6f-a9d4-4369-a408-48ed536b5cc6"},"vehicle_type_id":"4","last_reported":1715418474,"current_range_meters":14800,"station_id":"","pricing_plan_id":"cebpf4jnsgd1na2vs0mg"},{"bike_id":"c1d2aa82-c14b-4c15-be29-106706bdbad6","system_id":"levelo_inurba_marseille","lat":43.309675,"lon":5.389947,"is_reserved":false,"is_disabled":false,"rental_uris":{"android":"levelo://app?vid=c1d2aa82-c14b-4c15-be29-106706bdbad6","ios":"levelo://app?vid=c1d2aa82-c14b-4c15-be29-106706bdbad6"},"vehicle_type_id":"4","last_reported":1715418474,"current_range_meters":28800,"station_id":"ce4bgup2rcd13ifvqco0","pricing_plan_id":"cebpf4jnsgd1na2vs0mg"},{"bike_id":"a9fa4846-fc91-4220-a040-4666a89ab34c","system_id":"levelo_inurba_marseille","lat":43.296921,"lon":5.376579,"is_reserved":false,"is_disabled":false,"rental_uris":{"android":"levelo://app?vid=a9fa4846-fc91-4220-a040-4666a89ab34c","ios":"levelo://app?vid=a9fa4846-fc91-4220-a040-4666a89ab34c"},"vehicle_type_id":"4","last_reported":1715418474,"current_range_meters":14800,"station_id":"ce4bgkh2rcd13ifvqbl0","pricing_plan_id":"cebpf4jnsgd1na2vs0mg"},{"bike_id":"4aa1e76a-1c8c-4243-b7aa-3eeaedca8009","system_id":"levelo_inurba_marseille","lat":43.296921,"lon":5.376579,"is_reserved":false,"is_disabled":false,"rental_uris":{"android":"levelo://app?vid=4aa1e76a-1c8c-4243-b7aa-3eeaedca8009","ios":"levelo://app?vid=4aa1e76a-1c8c-4243-b7aa-3eeaedca8009"},"vehicle_type_id":"4","last_reported":1715418474,"current_range_meters":5200,"station_id":"ce4bgkh2rcd13ifvqbl0","pricing_plan_id":"cebpf4jnsgd1na2vs0mg"},{"bike_id":"0e4984fc-e8a3-4f2f-83a6-b936665ef2be","system_id":"levelo_inurba_marseille","lat":43.29726,"lon":5.37691,"is_reserved":false,"is_disabled":false,"rental_uris":{"android":"levelo://app?vid=0e4984fc-e8a3-4f2f-83a6-b936665ef2be","ios":"levelo://app?vid=0e4984fc-e8a3-4f2f-83a6-b936665ef2be"},"vehicle_type_id":"4","last_reported":1715418474,"current_range_meters":8800,"station_id":"","pricing_plan_id":"cebpf4jnsgd1na2vs0mg"},{"bike_id":"cad9da96-8757-4808-a733-777e1b4e7378","system_id":"levelo_inurba_marseille","lat":43.296921,"lon":5.376579,"is_reserved":false,"is_disabled":false,"rental_uris":{"android":"levelo://app?vid=cad9da96-8757-4808-a733-777e1b4e7378","ios":"levelo://app?vid=cad9da96-8757-4808-a733-777e1b4e7378"},"vehicle_type_id":"4","last_reported":1715418474,"current_range_meters":11200,"station_id":"ce4bgkh2rcd13ifvqbl0","pricing_plan_id":"cebpf4jnsgd1na2vs0mg"},{"bike_id":"7206d92e-5fea-4a74-bf2b-4e51078e14d1","system_id":"levelo_inurba_marseille","lat":43.296935,"lon":5.376544,"is_reserved":false,"is_disabled":false,"rental_uris":{"android":"levelo://app?vid=7206d92e-5fea-4a74-bf2b-4e51078e14d1","ios":"levelo://app?vid=7206d92e-5fea-4a74-bf2b-4e51078e14d1"},"vehicle_type_id":"4","last_reported":1715418474,"current_range_meters":27200,"station_id":"ce4bgkh2rcd13ifvqbl0","pricing_plan_id":"cebpf4jnsgd1na2vs0mg"},{"bike_id":"0c2f2d4f-87ca-498b-b30a-dfe8054f401f","system_id":"levelo_inurba_marseille","lat":43.29907,"lon":5.38125,"is_reserved":false,"is_disabled":false,"rental_uris":{"android":"levelo://app?vid=0c2f2d4f-87ca-498b-b30a-dfe8054f401f","ios":"levelo://app?vid=0c2f2d4f-87ca-498b-b30a-dfe8054f401f"},"vehicle_type_id":"4","last_reported":1715418474,"current_range_meters":30800,"station_id":"ce4bgj12rcd13ifvqbc0","pricing_plan_id":"cebpf4jnsgd1na2vs0mg"},{"bike_id":"64c71efd-8bc9-4a3b-8cba-d9f87a8c5698","system_id":"levelo_inurba_marseille","lat":43.309589,"lon":5.390258,"is_reserved":false,"is_disabled":false,"rental_uris":{"android":"levelo://app?vid=64c71efd-8bc9-4a3b-8cba-d9f87a8c5698","ios":"levelo://app?vid=64c71efd-8bc9-4a3b-8cba-d9f87a8c5698"},"vehicle_type_id":"4","last_reported":1715418474,"current_range_meters":17600,"station_id":"ce4bgup2rcd13ifvqco0","pricing_plan_id":"cebpf4jnsgd1na2vs0mg"},{"bike_id":"a95c982b-538d-415b-baf2-e34e6fa8280f","system_id":"levelo_inurba_marseille","lat":43.296935,"lon":5.376544,"is_reserved":false,"is_disabled":false,"rental_uris":{"android":"levelo://app?vid=a95c982b-538d-415b-baf2-e34e6fa8280f","ios":"levelo://app?vid=a95c982b-538d-415b-baf2-e34e6fa8280f"},"vehicle_type_id":"4","last_reported":1715418474,"current_range_meters":5200,"station_id":"ce4bgkh2rcd13ifvqbl0","pricing_plan_id":"cebpf4jnsgd1na2vs0mg"},{"bike_id":"bdea34ca-6c17-4756-b595-71d8295e099d","system_id":"levelo_inurba_marseille","lat":43.309589,"lon":5.390258,"is_reserved":false,"is_disabled":false,"rental_uris":{"android":"levelo://app?vid=bdea34ca-6c17-4756-b595-71d8295e099d","ios":"levelo://app?vid=bdea34ca-6c17-4756-b595-71d8295e099d"},"vehicle_type_id":"4","last_reported":1715418474,"current_range_meters":12000,"station_id":"ce4bgup2rcd13ifvqco0","pricing_plan_id":"cebpf4jnsgd1na2vs0mg"},{"bike_id":"925dbb3c-dbf2-4589-9d3e-41b46f26bd36","system_id":"levelo_inurba_marseille","lat":43.309589,"lon":5.390258,"is_reserved":false,"is_disabled":false,"rental_uris":{"android":"levelo://app?vid=925dbb3c-dbf2-4589-9d3e-41b46f26bd36","ios":"levelo://app?vid=925dbb3c-dbf2-4589-9d3e-41b46f26bd36"},"vehicle_type_id":"4","last_reported":1715418474,"current_range_meters":30400,"station_id":"ce4bgup2rcd13ifvqco0","pricing_plan_id":"cebpf4jnsgd1na2vs0mg"},{"bike_id":"a6255944-9a22-4fd1-a634-48e0f62e6426","system_id":"levelo_inurba_marseille","lat":43.30958,"lon":5.390477,"is_reserved":false,"is_disabled":false,"rental_uris":{"android":"levelo://app?vid=a6255944-9a22-4fd1-a634-48e0f62e6426","ios":"levelo://app?vid=a6255944-9a22-4fd1-a634-48e0f62e6426"},"vehicle_type_id":"4","last_reported":1715418474,"current_range_meters":8000,"station_id":"ce4bgup2rcd13ifvqco0","pricing_plan_id":"cebpf4jnsgd1na2vs0mg"},{"bike_id":"31293367-5a8f-4066-8853-bb864d21b4ae","system_id":"levelo_inurba_marseille","lat":43.309589,"lon":5.390258,"is_reserved":false,"is_disabled":false,"rental_uris":{"android":"levelo://app?vid=31293367-5a8f-4066-8853-bb864d21b4ae","ios":"levelo://app?vid=31293367-5a8f-4066-8853-bb864d21b4ae"},"vehicle_type_id":"4","last_reported":1715418474,"current_range_meters":12800,"station_id":"ce4bgup2rcd13ifvqco0","pricing_plan_id":"cebpf4jnsgd1na2vs0mg"},{"bike_id":"f9ae49c7-1bc7-41e2-8877-f5dbc0bf400a","system_id":"levelo_inurba_marseille","lat":43.295748,"lon":5.37522,"is_reserved":false,"is_disabled":false,"rental_uris":{"android":"levelo://app?vid=f9ae49c7-1bc7-41e2-8877-f5dbc0bf400a","ios":"levelo://app?vid=f9ae49c7-1bc7-41e2-8877-f5dbc0bf400a"},"vehicle_type_id":"4","last_reported":1715418474,"current_range_meters":27200,"station_id":"ce4bgh92rcd13ifvqb50","pricing_plan_id":"cebpf4jnsgd1na2vs0mg"},{"bike_id":"40e17e01-14f0-4869-b25d-cd7949fa89e7","system_id":"levelo_inurba_marseille","lat":43.298037,"lon":5.381066,"is_reserved":false,"is_disabled":false,"rental_uris":{"android":"levelo://app?vid=40e17e01-14f0-4869-b25d-cd7949fa89e7","ios":"levelo://app?vid=40e17e01-14f0-4869-b25d-cd7949fa89e7"},"vehicle_type_id":"4","last_reported":1715418474,"current_range_meters":17600,"station_id":"ce4bgip2rcd13ifvqbb0","pricing_plan_id":"cebpf4jnsgd1na2vs0mg"},{"bike_id":"3e858494-0b08-433d-b212-903a9d07cb46","system_id":"levelo_inurba_marseille","lat":43.295748,"lon":5.37522,"is_reserved":false,"is_disabled":false,"rental_uris":{"android":"levelo://app?vid=3e858494-0b08-433d-b212-903a9d07cb46","ios":"levelo://app?vid=3e858494-0b08-433d-b212-903a9d07cb46"},"vehicle_type_id":"4","last_reported":1715418474,"current_range_meters":6400,"station_id":"ce4bgh92rcd13ifvqb50","pricing_plan_id":"cebpf4jnsgd1na2vs0mg"},{"bike_id":"45d297ca-ea01-4790-abc5-1ba9e8e2fcbc","system_id":"levelo_inurba_marseille","lat":43.295748,"lon":5.37522,"is_reserved":false,"is_disabled":false,"rental_uris":{"android":"levelo://app?vid=45d297ca-ea01-4790-abc5-1ba9e8e2fcbc","ios":"levelo://app?vid=45d297ca-ea01-4790-abc5-1ba9e8e2fcbc"},"vehicle_type_id":"4","last_reported":1715418474,"current_range_meters":23600,"station_id":"ce4bgh92rcd13ifvqb50","pricing_plan_id":"cebpf4jnsgd1na2vs0mg"},{"bike_id":"aef04633-d92e-4fe0-802e-09f1ae2bceac","system_id":"levelo_inurba_marseille","lat":43.29569,"lon":5.37518,"is_reserved":false,"is_disabled":false,"rental_uris":{"android":"levelo://app?vid=aef04633-d92e-4fe0-802e-09f1ae2bceac","ios":"levelo://app?vid=aef04633-d92e-4fe0-802e-09f1ae2bceac"},"vehicle_type_id":"4","last_reported":1715418474,"current_range_meters":6000,"station_id":"ce4bgh92rcd13ifvqb50","pricing_plan_id":"cebpf4jnsgd1na2vs0mg"},{"bike_id":"ed5c8ecd-2a30-4fc0-9478-1f5c8fc62835","system_id":"levelo_inurba_marseille","lat":43.304278,"lon":5.388868,"is_reserved":false,"is_disabled":false,"rental_uris":{"android":"levelo://app?vid=ed5c8ecd-2a30-4fc0-9478-1f5c8fc62835","ios":"levelo://app?vid=ed5c8ecd-2a30-4fc0-9478-1f5c8fc62835"},"vehicle_type_id":"4","last_reported":1715418474,"current_range_meters":9600,"station_id":"ce4bgk12rcd13ifvqbi0","pricing_plan_id":"cebpf4jnsgd1na2vs0mg"},{"bike_id":"b89de4d5-1c30-47cd-aa7e-93ad82eacf4c","system_id":"levelo_inurba_marseille","lat":43.296277,"lon":5.377108,"is_reserved":false,"is_disabled":false,"rental_uris":{"android":"levelo://app?vid=b89de4d5-1c30-47cd-aa7e-93ad82eacf4c","ios":"levelo://app?vid=b89de4d5-1c30-47cd-aa7e-93ad82eacf4c"},"vehicle_type_id":"4","last_reported":1715418474,"current_range_meters":10400,"station_id":"ce4bgi92rcd13ifvqb90","pricing_plan_id":"cebpf4jnsgd1na2vs0mg"},{"bike_id":"fc90ce9a-b673-499d-b35f-b5634630e526","system_id":"levelo_inurba_marseille","lat":43.295279,"lon":5.375048,"is_reserved":false,"is_disabled":false,"rental_uris":{"android":"levelo://app?vid=fc90ce9a-b673-499d-b35f-b5634630e526","ios":"levelo://app?vid=fc90ce9a-b673-499d-b35f-b5634630e526"},"vehicle_type_id":"4","last_reported":1715418474,"current_range_meters":28800,"station_id":"ce4bgkp2rcd13ifvqbmg","pricing_plan_id":"cebpf4jnsgd1na2vs0mg"},{"bike_id":"6e6ae791-a2a2-45e1-bfaf-63531dee1537","system_id":"levelo_inurba_marseille","lat":43.299707,"lon":5.384859,"is_reserved":false,"is_disabled":false,"rental_uris":{"android":"levelo://app?vid=6e6ae791-a2a2-45e1-bfaf-63531dee1537","ios":"levelo://app?vid=6e6ae791-a2a2-45e1-bfaf-63531dee1537"},"vehicle_type_id":"4","last_reported":1715418474,"current_range_meters":25600,"station_id":"ce4bgj92rcd13ifvqbd0","pricing_plan_id":"cebpf4jnsgd1na2vs0mg"},{"bike_id":"e58204d5-c028-4d86-8516-b67be2d96cc4","system_id":"levelo_inurba_marseille","lat":43.295279,"lon":5.375048,"is_reserved":false,"is_disabled":false,"rental_uris":{"android":"levelo://app?vid=e58204d5-c028-4d86-8516-b67be2d96cc4","ios":"levelo://app?vid=e58204d5-c028-4d86-8516-b67be2d96cc4"},"vehicle_type_id":"4","last_reported":1715418474,"current_range_meters":22400,"station_id":"ce4bgkp2rcd13ifvqbmg","pricing_plan_id":"cebpf4jnsgd1na2vs0mg"},{"bike_id":"a1e39b85-8b53-41b6-9958-7d1ea464abb1","system_id":"levelo_inurba_marseille","lat":43.29519,"lon":5.37505,"is_reserved":false,"is_disabled":false,"rental_uris":{"android":"levelo://app?vid=a1e39b85-8b53-41b6-9958-7d1ea464abb1","ios":"levelo://app?vid=a1e39b85-8b53-41b6-9958-7d1ea464abb1"},"vehicle_type_id":"4","last_reported":1715418474,"current_range_meters":26000,"station_id":"ce4bgkp2rcd13ifvqbmg","pricing_plan_id":"cebpf4jnsgd1na2vs0mg"},{"bike_id":"2cd313f8-0b2b-4546-b8df-b759d9aa0ff2","system_id":"levelo_inurba_marseille","lat":43.29513,"lon":5.37498,"is_reserved":false,"is_disabled":false,"rental_uris":{"android":"levelo://app?vid=2cd313f8-0b2b-4546-b8df-b759d9aa0ff2","ios":"levelo://app?vid=2cd313f8-0b2b-4546-b8df-b759d9aa0ff2"},"vehicle_type_id":"4","last_reported":1715418474,"current_range_meters":15200,"station_id":"ce4bgkp2rcd13ifvqbmg","pricing_plan_id":"cebpf4jnsgd1na2vs0mg"},{"bike_id":"a8052a6f-6438-4a55-8e1b-b01b5778eb10","system_id":"levelo_inurba_marseille","lat":43.295279,"lon":5.375048,"is_reserved":false,"is_disabled":false,"rental_uris":{"android":"levelo://app?vid=a8052a6f-6438-4a55-8e1b-b01b5778eb10","ios":"levelo://app?vid=a8052a6f-6438-4a55-8e1b-b01b5778eb10"},"vehicle_type_id":"4","last_reported":1715418474,"current_range_meters":32000,"station_id":"ce4bgkp2rcd13ifvqbmg","pricing_plan_id":"cebpf4jnsgd1na2vs0mg"},{"bike_id":"3eb364c0-1b7c-42bb-9844-848184f2efcf","system_id":"levelo_inurba_marseille","lat":43.299724,"lon":5.384848,"is_reserved":false,"is_disabled":false,"rental_uris":{"android":"levelo://app?vid=3eb364c0-1b7c-42bb-9844-848184f2efcf","ios":"levelo://app?vid=3eb364c0-1b7c-42bb-9844-848184f2efcf"},"vehicle_type_id":"4","last_reported":1715418474,"current_range_meters":23200,"station_id":"ce4bgj92rcd13ifvqbd0","pricing_plan_id":"cebpf4jnsgd1na2vs0mg"},{"bike_id":"153b9573-3408-4563-9879-60f3edbdac67","system_id":"levelo_inurba_marseille","lat":43.323671,"lon":5.38884,"is_reserved":false,"is_disabled":false,"rental_uris":{"android":"levelo://app?vid=153b9573-3408-4563-9879-60f3edbdac67","ios":"levelo://app?vid=153b9573-3408-4563-9879-60f3edbdac67"},"vehicle_type_id":"4","last_reported":1715418474,"current_range_meters":29600,"station_id":"ce4bhqp2rcd13ifvqhog","pricing_plan_id":"cebpf4jnsgd1na2vs0mg"},{"bike_id":"50914f7b-cb85-41b3-bdae-d32d7e85b6b0","system_id":"levelo_inurba_marseille","lat":43.32367,"lon":5.388836,"is_reserved":false,"is_disabled":false,"rental_uris":{"android":"levelo://app?vid=50914f7b-cb85-41b3-bdae-d32d7e85b6b0","ios":"levelo://app?vid=50914f7b-cb85-41b3-bdae-d32d7e85b6b0"},"vehicle_type_id":"4","last_reported":1715418474,"current_range_meters":22800,"station_id":"ce4bhqp2rcd13ifvqhog","pricing_plan_id":"cebpf4jnsgd1na2vs0mg"},{"bike_id":"9fbde272-63d5-47f1-9e8c-cb327cfdec9d","system_id":"levelo_inurba_marseille","lat":43.293259,"lon":5.371586,"is_reserved":false,"is_disabled":false,"rental_uris":{"android":"levelo://app?vid=9fbde272-63d5-47f1-9e8c-cb327cfdec9d","ios":"levelo://app?vid=9fbde272-63d5-47f1-9e8c-cb327cfdec9d"},"vehicle_type_id":"4","last_reported":1715418474,"current_range_meters":30800,"station_id":"ce4bgh92rcd13ifvqb40","pricing_plan_id":"cebpf4jnsgd1na2vs0mg"},{"bike_id":"12c01938-fe5c-4011-84dc-dcd40fa7fecc","system_id":"levelo_inurba_marseille","lat":43.293259,"lon":5.371586,"is_reserved":false,"is_disabled":false,"rental_uris":{"android":"levelo://app?vid=12c01938-fe5c-4011-84dc-dcd40fa7fecc","ios":"levelo://app?vid=12c01938-fe5c-4011-84dc-dcd40fa7fecc"},"vehicle_type_id":"4","last_reported":1715418474,"current_range_meters":29200,"station_id":"ce4bgh92rcd13ifvqb40","pricing_plan_id":"cebpf4jnsgd1na2vs0mg"},{"bike_id":"c179faf5-0051-4847-8dcd-5cbaf2905fb6","system_id":"levelo_inurba_marseille","lat":43.29407,"lon":5.37652,"is_reserved":false,"is_disabled":false,"rental_uris":{"android":"levelo://app?vid=c179faf5-0051-4847-8dcd-5cbaf2905fb6","ios":"levelo://app?vid=c179faf5-0051-4847-8dcd-5cbaf2905fb6"},"vehicle_type_id":"4","last_reported":1715418474,"current_range_meters":1200,"station_id":"","pricing_plan_id":"cebpf4jnsgd1na2vs0mg"},{"bike_id":"af2c1367-0b04-43e7-8ccf-66cf8423a1a2","system_id":"levelo_inurba_marseille","lat":43.293259,"lon":5.371586,"is_reserved":false,"is_disabled":false,"rental_uris":{"android":"levelo://app?vid=af2c1367-0b04-43e7-8ccf-66cf8423a1a2","ios":"levelo://app?vid=af2c1367-0b04-43e7-8ccf-66cf8423a1a2"},"vehicle_type_id":"4","last_reported":1715418474,"current_range_meters":0,"station_id":"ce4bgh92rcd13ifvqb40","pricing_plan_id":"cebpf4jnsgd1na2vs0mg"},{"bike_id":"7c024f1b-a289-44c7-90f8-9ea7703c12d4","system_id":"levelo_inurba_marseille","lat":43.292749,"lon":5.368402,"is_reserved":false,"is_disabled":false,"rental_uris":{"android":"levelo://app?vid=7c024f1b-a289-44c7-90f8-9ea7703c12d4","ios":"levelo://app?vid=7c024f1b-a289-44c7-90f8-9ea7703c12d4"},"vehicle_type_id":"4","last_reported":1715418474,"current_range_meters":28800,"station_id":"ce4bhbp2rcd13ifvqesg","pricing_plan_id":"cebpf4jnsgd1na2vs0mg"},{"bike_id":"79259ca2-1bb2-4f51-a724-be1c889ee595","system_id":"levelo_inurba_marseille","lat":43.292749,"lon":5.368402,"is_reserved":false,"is_disabled":false,"rental_uris":{"android":"levelo://app?vid=79259ca2-1bb2-4f51-a724-be1c889ee595","ios":"levelo://app?vid=79259ca2-1bb2-4f51-a724-be1c889ee595"},"vehicle_type_id":"4","last_reported":1715418474,"current_range_meters":400,"station_id":"ce4bhbp2rcd13ifvqesg","pricing_plan_id":"cebpf4jnsgd1na2vs0mg"},{"bike_id":"f657bc57-d517-4da0-8361-3d8bc4bfc00e","system_id":"levelo_inurba_marseille","lat":43.292749,"lon":5.368402,"is_reserved":false,"is_disabled":false,"rental_uris":{"android":"levelo://app?vid=f657bc57-d517-4da0-8361-3d8bc4bfc00e","ios":"levelo://app?vid=f657bc57-d517-4da0-8361-3d8bc4bfc00e"},"vehicle_type_id":"4","last_reported":1715418474,"current_range_meters":0,"station_id":"ce4bhbp2rcd13ifvqesg","pricing_plan_id":"cebpf4jnsgd1na2vs0mg"},{"bike_id":"5ac74762-7032-422c-926f-84788b232668","system_id":"levelo_inurba_marseille","lat":43.292749,"lon":5.368402,"is_reserved":false,"is_disabled":false,"rental_uris":{"android":"levelo://app?vid=5ac74762-7032-422c-926f-84788b232668","ios":"levelo://app?vid=5ac74762-7032-422c-926f-84788b232668"},"vehicle_type_id":"4","last_reported":1715418474,"current_range_meters":28000,"station_id":"ce4bhbp2rcd13ifvqesg","pricing_plan_id":"cebpf4jnsgd1na2vs0mg"},{"bike_id":"5aaa5bdd-fc53-4532-94d8-4e2def2b85f3","system_id":"levelo_inurba_marseille","lat":43.292749,"lon":5.368402,"is_reserved":false,"is_disabled":false,"rental_uris":{"android":"levelo://app?vid=5aaa5bdd-fc53-4532-94d8-4e2def2b85f3","ios":"levelo://app?vid=5aaa5bdd-fc53-4532-94d8-4e2def2b85f3"},"vehicle_type_id":"4","last_reported":1715418474,"current_range_meters":31200,"station_id":"ce4bhbp2rcd13ifvqesg","pricing_plan_id":"cebpf4jnsgd1na2vs0mg"},{"bike_id":"5d70f438-06a5-48a6-ba8d-f758fc347158","system_id":"levelo_inurba_marseille","lat":43.292749,"lon":5.368402,"is_reserved":false,"is_disabled":false,"rental_uris":{"android":"levelo://app?vid=5d70f438-06a5-48a6-ba8d-f758fc347158","ios":"levelo://app?vid=5d70f438-06a5-48a6-ba8d-f758fc347158"},"vehicle_type_id":"4","last_reported":1715418474,"current_range_meters":2400,"station_id":"ce4bhbp2rcd13ifvqesg","pricing_plan_id":"cebpf4jnsgd1na2vs0mg"},{"bike_id":"2a922798-23c0-421f-baa2-76c841946507","system_id":"levelo_inurba_marseille","lat":43.292749,"lon":5.368402,"is_reserved":false,"is_disabled":false,"rental_uris":{"android":"levelo://app?vid=2a922798-23c0-421f-baa2-76c841946507","ios":"levelo://app?vid=2a922798-23c0-421f-baa2-76c841946507"},"vehicle_type_id":"4","last_reported":1715418474,"current_range_meters":26400,"station_id":"ce4bhbp2rcd13ifvqesg","pricing_plan_id":"cebpf4jnsgd1na2vs0mg"},{"bike_id":"96873a8d-6596-4286-821e-ca0de5349c07","system_id":"levelo_inurba_marseille","lat":43.293009,"lon":5.374584,"is_reserved":false,"is_disabled":false,"rental_uris":{"android":"levelo://app?vid=96873a8d-6596-4286-821e-ca0de5349c07","ios":"levelo://app?vid=96873a8d-6596-4286-821e-ca0de5349c07"},"vehicle_type_id":"4","last_reported":1715418474,"current_range_meters":18000,"station_id":"ce4bgi12rcd13ifvqb70","pricing_plan_id":"cebpf4jnsgd1na2vs0mg"},{"bike_id":"0e54430b-3c0b-4b2b-8f05-0771f33b73f3","system_id":"levelo_inurba_marseille","lat":43.293028,"lon":5.374522,"is_reserved":false,"is_disabled":false,"rental_uris":{"android":"levelo://app?vid=0e54430b-3c0b-4b2b-8f05-0771f33b73f3","ios":"levelo://app?vid=0e54430b-3c0b-4b2b-8f05-0771f33b73f3"},"vehicle_type_id":"4","last_reported":1715418474,"current_range_meters":31200,"station_id":"ce4bgi12rcd13ifvqb70","pricing_plan_id":"cebpf4jnsgd1na2vs0mg"},{"bike_id":"641da5e5-ad37-4cfe-8647-7cb37dee27a1","system_id":"levelo_inurba_marseille","lat":43.29294,"lon":5.37436,"is_reserved":false,"is_disabled":false,"rental_uris":{"android":"levelo://app?vid=641da5e5-ad37-4cfe-8647-7cb37dee27a1","ios":"levelo://app?vid=641da5e5-ad37-4cfe-8647-7cb37dee27a1"},"vehicle_type_id":"4","last_reported":1715418474,"current_range_meters":8000,"station_id":"ce4bgi12rcd13ifvqb70","pricing_plan_id":"cebpf4jnsgd1na2vs0mg"},{"bike_id":"8339e3dd-3be7-4134-abef-c004464c4dfc","system_id":"levelo_inurba_marseille","lat":43.305994,"lon":5.393687,"is_reserved":false,"is_disabled":false,"rental_uris":{"android":"levelo://app?vid=8339e3dd-3be7-4134-abef-c004464c4dfc","ios":"levelo://app?vid=8339e3dd-3be7-4134-abef-c004464c4dfc"},"vehicle_type_id":"4","last_reported":1715418474,"current_range_meters":25200,"station_id":"ce4bh0p2rcd13ifvqd80","pricing_plan_id":"cebpf4jnsgd1na2vs0mg"},{"bike_id":"2d4c5581-ed72-4a33-aa34-44c0b1cb5831","system_id":"levelo_inurba_marseille","lat":43.305994,"lon":5.393687,"is_reserved":false,"is_disabled":false,"rental_uris":{"android":"levelo://app?vid=2d4c5581-ed72-4a33-aa34-44c0b1cb5831","ios":"levelo://app?vid=2d4c5581-ed72-4a33-aa34-44c0b1cb5831"},"vehicle_type_id":"4","last_reported":1715418474,"current_range_meters":25200,"station_id":"ce4bh0p2rcd13ifvqd80","pricing_plan_id":"cebpf4jnsgd1na2vs0mg"},{"bike_id":"2225e69d-3a2e-4dbb-bbf9-35aff3903635","system_id":"levelo_inurba_marseille","lat":43.29295,"lon":5.3746,"is_reserved":false,"is_disabled":false,"rental_uris":{"android":"levelo://app?vid=2225e69d-3a2e-4dbb-bbf9-35aff3903635","ios":"levelo://app?vid=2225e69d-3a2e-4dbb-bbf9-35aff3903635"},"vehicle_type_id":"4","last_reported":1715418474,"current_range_meters":0,"station_id":"ce4bgi12rcd13ifvqb70","pricing_plan_id":"cebpf4jnsgd1na2vs0mg"},{"bike_id":"4ee99407-8f45-4d9e-97c9-3689aa216e6e","system_id":"levelo_inurba_marseille","lat":43.305994,"lon":5.393687,"is_reserved":false,"is_disabled":false,"rental_uris":{"android":"levelo://app?vid=4ee99407-8f45-4d9e-97c9-3689aa216e6e","ios":"levelo://app?vid=4ee99407-8f45-4d9e-97c9-3689aa216e6e"},"vehicle_type_id":"4","last_reported":1715418474,"current_range_meters":18800,"station_id":"ce4bh0p2rcd13ifvqd80","pricing_plan_id":"cebpf4jnsgd1na2vs0mg"},{"bike_id":"4b250d05-7c16-47b7-ad6c-6a719a0cf55e","system_id":"levelo_inurba_marseille","lat":43.293009,"lon":5.374584,"is_reserved":false,"is_disabled":false,"rental_uris":{"android":"levelo://app?vid=4b250d05-7c16-47b7-ad6c-6a719a0cf55e","ios":"levelo://app?vid=4b250d05-7c16-47b7-ad6c-6a719a0cf55e"},"vehicle_type_id":"4","last_reported":1715418474,"current_range_meters":26400,"station_id":"ce4bgi12rcd13ifvqb70","pricing_plan_id":"cebpf4jnsgd1na2vs0mg"},{"bike_id":"52bd06a6-a88e-4f29-8236-da26f7476ab0","system_id":"levelo_inurba_marseille","lat":43.303002,"lon":5.392142,"is_reserved":false,"is_disabled":false,"rental_uris":{"android":"levelo://app?vid=52bd06a6-a88e-4f29-8236-da26f7476ab0","ios":"levelo://app?vid=52bd06a6-a88e-4f29-8236-da26f7476ab0"},"vehicle_type_id":"4","last_reported":1715418474,"current_range_meters":21200,"station_id":"ce4bgkh2rcd13ifvqbk0","pricing_plan_id":"cebpf4jnsgd1na2vs0mg"},{"bike_id":"91a27e2e-fdd7-4cb2-99a3-a72de0d2a690","system_id":"levelo_inurba_marseille","lat":43.302992,"lon":5.392136,"is_reserved":false,"is_disabled":false,"rental_uris":{"android":"levelo://app?vid=91a27e2e-fdd7-4cb2-99a3-a72de0d2a690","ios":"levelo://app?vid=91a27e2e-fdd7-4cb2-99a3-a72de0d2a690"},"vehicle_type_id":"4","last_reported":1715418474,"current_range_meters":24000,"station_id":"ce4bgkh2rcd13ifvqbk0","pricing_plan_id":"cebpf4jnsgd1na2vs0mg"},{"bike_id":"375eccd9-ddb7-4b07-a784-14cd43bec6b2","system_id":"levelo_inurba_marseille","lat":43.303002,"lon":5.392142,"is_reserved":false,"is_disabled":false,"rental_uris":{"android":"levelo://app?vid=375eccd9-ddb7-4b07-a784-14cd43bec6b2","ios":"levelo://app?vid=375eccd9-ddb7-4b07-a784-14cd43bec6b2"},"vehicle_type_id":"4","last_reported":1715418474,"current_range_meters":27600,"station_id":"ce4bgkh2rcd13ifvqbk0","pricing_plan_id":"cebpf4jnsgd1na2vs0mg"},{"bike_id":"2bea2be7-1afd-48fa-b3bc-821a690e01a3","system_id":"levelo_inurba_marseille","lat":43.303002,"lon":5.392142,"is_reserved":false,"is_disabled":false,"rental_uris":{"android":"levelo://app?vid=2bea2be7-1afd-48fa-b3bc-821a690e01a3","ios":"levelo://app?vid=2bea2be7-1afd-48fa-b3bc-821a690e01a3"},"vehicle_type_id":"4","last_reported":1715418474,"current_range_meters":0,"station_id":"ce4bgkh2rcd13ifvqbk0","pricing_plan_id":"cebpf4jnsgd1na2vs0mg"},{"bike_id":"fc0cacc3-7b99-4bab-9076-95cb2d7a04f3","system_id":"levelo_inurba_marseille","lat":43.2936,"lon":5.37835,"is_reserved":false,"is_disabled":false,"rental_uris":{"android":"levelo://app?vid=fc0cacc3-7b99-4bab-9076-95cb2d7a04f3","ios":"levelo://app?vid=fc0cacc3-7b99-4bab-9076-95cb2d7a04f3"},"vehicle_type_id":"4","last_reported":1715418474,"current_range_meters":19200,"station_id":"ce4bgjh2rcd13ifvqbf0","pricing_plan_id":"cebpf4jnsgd1na2vs0mg"},{"bike_id":"c7e20b36-dacf-4d91-9bba-96b3d07befc2","system_id":"levelo_inurba_marseille","lat":43.302992,"lon":5.392136,"is_reserved":false,"is_disabled":false,"rental_uris":{"android":"levelo://app?vid=c7e20b36-dacf-4d91-9bba-96b3d07befc2","ios":"levelo://app?vid=c7e20b36-dacf-4d91-9bba-96b3d07befc2"},"vehicle_type_id":"4","last_reported":1715418474,"current_range_meters":400,"station_id":"ce4bgkh2rcd13ifvqbk0","pricing_plan_id":"cebpf4jnsgd1na2vs0mg"},{"bike_id":"125af44a-0b73-4378-91cf-abf2b6564a4c","system_id":"levelo_inurba_marseille","lat":43.2936,"lon":5.37835,"is_reserved":false,"is_disabled":false,"rental_uris":{"android":"levelo://app?vid=125af44a-0b73-4378-91cf-abf2b6564a4c","ios":"levelo://app?vid=125af44a-0b73-4378-91cf-abf2b6564a4c"},"vehicle_type_id":"4","last_reported":1715418474,"current_range_meters":0,"station_id":"ce4bgjh2rcd13ifvqbf0","pricing_plan_id":"cebpf4jnsgd1na2vs0mg"},{"bike_id":"b321ad83-216b-40da-ab76-be7e5baedaf3","system_id":"levelo_inurba_marseille","lat":43.2936,"lon":5.37835,"is_reserved":false,"is_disabled":false,"rental_uris":{"android":"levelo://app?vid=b321ad83-216b-40da-ab76-be7e5baedaf3","ios":"levelo://app?vid=b321ad83-216b-40da-ab76-be7e5baedaf3"},"vehicle_type_id":"4","last_reported":1715418474,"current_range_meters":30400,"station_id":"ce4bgjh2rcd13ifvqbf0","pricing_plan_id":"cebpf4jnsgd1na2vs0mg"},{"bike_id":"7582b00c-9f60-4a25-8b83-831bf59e310c","system_id":"levelo_inurba_marseille","lat":43.2936,"lon":5.37835,"is_reserved":false,"is_disabled":false,"rental_uris":{"android":"levelo://app?vid=7582b00c-9f60-4a25-8b83-831bf59e310c","ios":"levelo://app?vid=7582b00c-9f60-4a25-8b83-831bf59e310c"},"vehicle_type_id":"4","last_reported":1715418474,"current_range_meters":22400,"station_id":"ce4bgjh2rcd13ifvqbf0","pricing_plan_id":"cebpf4jnsgd1na2vs0mg"},{"bike_id":"2933dc0f-2e24-4a05-b940-e034d31ef9b2","system_id":"levelo_inurba_marseille","lat":43.292311,"lon":5.360731,"is_reserved":false,"is_disabled":false,"rental_uris":{"android":"levelo://app?vid=2933dc0f-2e24-4a05-b940-e034d31ef9b2","ios":"levelo://app?vid=2933dc0f-2e24-4a05-b940-e034d31ef9b2"},"vehicle_type_id":"4","last_reported":1715418474,"current_range_meters":24800,"station_id":"ce4bhbh2rcd13ifvqeqg","pricing_plan_id":"cebpf4jnsgd1na2vs0mg"},{"bike_id":"fc5179b0-240b-4855-b3d9-4b955ce8e9c5","system_id":"levelo_inurba_marseille","lat":43.292311,"lon":5.360731,"is_reserved":false,"is_disabled":false,"rental_uris":{"android":"levelo://app?vid=fc5179b0-240b-4855-b3d9-4b955ce8e9c5","ios":"levelo://app?vid=fc5179b0-240b-4855-b3d9-4b955ce8e9c5"},"vehicle_type_id":"4","last_reported":1715418474,"current_range_meters":22800,"station_id":"ce4bhbh2rcd13ifvqeqg","pricing_plan_id":"cebpf4jnsgd1na2vs0mg"},{"bike_id":"9a56169e-f3dd-4842-b222-b33cc2176e96","system_id":"levelo_inurba_marseille","lat":43.292262,"lon":5.360609,"is_reserved":false,"is_disabled":false,"rental_uris":{"android":"levelo://app?vid=9a56169e-f3dd-4842-b222-b33cc2176e96","ios":"levelo://app?vid=9a56169e-f3dd-4842-b222-b33cc2176e96"},"vehicle_type_id":"4","last_reported":1715418474,"current_range_meters":26800,"station_id":"ce4bhbh2rcd13ifvqeqg","pricing_plan_id":"cebpf4jnsgd1na2vs0mg"},{"bike_id":"25e564da-7367-46e6-a762-a338a3938231","system_id":"levelo_inurba_marseille","lat":43.292311,"lon":5.360731,"is_reserved":false,"is_disabled":false,"rental_uris":{"android":"levelo://app?vid=25e564da-7367-46e6-a762-a338a3938231","ios":"levelo://app?vid=25e564da-7367-46e6-a762-a338a3938231"},"vehicle_type_id":"4","last_reported":1715418474,"current_range_meters":31600,"station_id":"ce4bhbh2rcd13ifvqeqg","pricing_plan_id":"cebpf4jnsgd1na2vs0mg"},{"bike_id":"a85afad0-600c-4a55-96bd-f7c721b8623f","system_id":"levelo_inurba_marseille","lat":43.292222,"lon":5.360659,"is_reserved":false,"is_disabled":false,"rental_uris":{"android":"levelo://app?vid=a85afad0-600c-4a55-96bd-f7c721b8623f","ios":"levelo://app?vid=a85afad0-600c-4a55-96bd-f7c721b8623f"},"vehicle_type_id":"4","last_reported":1715418474,"current_range_meters":30400,"station_id":"ce4bhbh2rcd13ifvqeqg","pricing_plan_id":"cebpf4jnsgd1na2vs0mg"},{"bike_id":"b0aab7ee-ab29-4284-a447-0aa33b7c607c","system_id":"levelo_inurba_marseille","lat":43.292311,"lon":5.360731,"is_reserved":false,"is_disabled":false,"rental_uris":{"android":"levelo://app?vid=b0aab7ee-ab29-4284-a447-0aa33b7c607c","ios":"levelo://app?vid=b0aab7ee-ab29-4284-a447-0aa33b7c607c"},"vehicle_type_id":"4","last_reported":1715418474,"current_range_meters":30000,"station_id":"ce4bhbh2rcd13ifvqeqg","pricing_plan_id":"cebpf4jnsgd1na2vs0mg"},{"bike_id":"4135f504-45a2-4175-ba5e-9ac4db2b132b","system_id":"levelo_inurba_marseille","lat":43.2922,"lon":5.3606,"is_reserved":false,"is_disabled":false,"rental_uris":{"android":"levelo://app?vid=4135f504-45a2-4175-ba5e-9ac4db2b132b","ios":"levelo://app?vid=4135f504-45a2-4175-ba5e-9ac4db2b132b"},"vehicle_type_id":"4","last_reported":1715418474,"current_range_meters":4800,"station_id":"ce4bhbh2rcd13ifvqeqg","pricing_plan_id":"cebpf4jnsgd1na2vs0mg"},{"bike_id":"211b0e47-726a-41eb-99b9-0ff3437b788d","system_id":"levelo_inurba_marseille","lat":43.2922,"lon":5.36057,"is_reserved":false,"is_disabled":false,"rental_uris":{"android":"levelo://app?vid=211b0e47-726a-41eb-99b9-0ff3437b788d","ios":"levelo://app?vid=211b0e47-726a-41eb-99b9-0ff3437b788d"},"vehicle_type_id":"4","last_reported":1715418474,"current_range_meters":29600,"station_id":"ce4bhbh2rcd13ifvqeqg","pricing_plan_id":"cebpf4jnsgd1na2vs0mg"},{"bike_id":"a4ab3bf0-95e9-4d79-8a48-5834b344a9e9","system_id":"levelo_inurba_marseille","lat":43.29219,"lon":5.36061,"is_reserved":false,"is_disabled":false,"rental_uris":{"android":"levelo://app?vid=a4ab3bf0-95e9-4d79-8a48-5834b344a9e9","ios":"levelo://app?vid=a4ab3bf0-95e9-4d79-8a48-5834b344a9e9"},"vehicle_type_id":"4","last_reported":1715418474,"current_range_meters":12000,"station_id":"ce4bhbh2rcd13ifvqeqg","pricing_plan_id":"cebpf4jnsgd1na2vs0mg"},{"bike_id":"e4ad0de8-9af2-4dcc-9ada-470bb9535fe5","system_id":"levelo_inurba_marseille","lat":43.292311,"lon":5.360731,"is_reserved":false,"is_disabled":false,"rental_uris":{"android":"levelo://app?vid=e4ad0de8-9af2-4dcc-9ada-470bb9535fe5","ios":"levelo://app?vid=e4ad0de8-9af2-4dcc-9ada-470bb9535fe5"},"vehicle_type_id":"4","last_reported":1715418474,"current_range_meters":25200,"station_id":"ce4bhbh2rcd13ifvqeqg","pricing_plan_id":"cebpf4jnsgd1na2vs0mg"},{"bike_id":"aa5a670d-3a0f-495b-bd44-da9601167884","system_id":"levelo_inurba_marseille","lat":43.29201,"lon":5.35801,"is_reserved":false,"is_disabled":false,"rental_uris":{"android":"levelo://app?vid=aa5a670d-3a0f-495b-bd44-da9601167884","ios":"levelo://app?vid=aa5a670d-3a0f-495b-bd44-da9601167884"},"vehicle_type_id":"4","last_reported":1715418474,"current_range_meters":22000,"station_id":"ce4bhb12rcd13ifvqel0","pricing_plan_id":"cebpf4jnsgd1na2vs0mg"},{"bike_id":"ce3f80ae-1710-4f3d-a933-400c48926223","system_id":"levelo_inurba_marseille","lat":43.291994,"lon":5.357886,"is_reserved":false,"is_disabled":false,"rental_uris":{"android":"levelo://app?vid=ce3f80ae-1710-4f3d-a933-400c48926223","ios":"levelo://app?vid=ce3f80ae-1710-4f3d-a933-400c48926223"},"vehicle_type_id":"4","last_reported":1715418474,"current_range_meters":400,"station_id":"ce4bhb12rcd13ifvqel0","pricing_plan_id":"cebpf4jnsgd1na2vs0mg"},{"bike_id":"3001b987-7694-4736-8e23-70321fa1b6d4","system_id":"levelo_inurba_marseille","lat":43.309047,"lon":5.396551,"is_reserved":false,"is_disabled":false,"rental_uris":{"android":"levelo://app?vid=3001b987-7694-4736-8e23-70321fa1b6d4","ios":"levelo://app?vid=3001b987-7694-4736-8e23-70321fa1b6d4"},"vehicle_type_id":"4","last_reported":1715418474,"current_range_meters":31600,"station_id":"ce4bh012rcd13ifvqcv0","pricing_plan_id":"cebpf4jnsgd1na2vs0mg"},{"bike_id":"fc00926f-190d-4f3b-a67b-a8f13d3040b7","system_id":"levelo_inurba_marseille","lat":43.292005,"lon":5.357875,"is_reserved":false,"is_disabled":false,"rental_uris":{"android":"levelo://app?vid=fc00926f-190d-4f3b-a67b-a8f13d3040b7","ios":"levelo://app?vid=fc00926f-190d-4f3b-a67b-a8f13d3040b7"},"vehicle_type_id":"4","last_reported":1715418474,"current_range_meters":31600,"station_id":"ce4bhb12rcd13ifvqel0","pricing_plan_id":"cebpf4jnsgd1na2vs0mg"},{"bike_id":"8f00a8fc-da00-4758-af5b-a5f3019f2e2e","system_id":"levelo_inurba_marseille","lat":43.291994,"lon":5.357886,"is_reserved":false,"is_disabled":false,"rental_uris":{"android":"levelo://app?vid=8f00a8fc-da00-4758-af5b-a5f3019f2e2e","ios":"levelo://app?vid=8f00a8fc-da00-4758-af5b-a5f3019f2e2e"},"vehicle_type_id":"4","last_reported":1715418474,"current_range_meters":18800,"station_id":"ce4bhb12rcd13ifvqel0","pricing_plan_id":"cebpf4jnsgd1na2vs0mg"},{"bike_id":"486b1708-998b-45ac-95ad-08b61c702722","system_id":"levelo_inurba_marseille","lat":43.303837,"lon":5.418724,"is_reserved":false,"is_disabled":false,"rental_uris":{"android":"levelo://app?vid=486b1708-998b-45ac-95ad-08b61c702722","ios":"levelo://app?vid=486b1708-998b-45ac-95ad-08b61c702722"},"vehicle_type_id":"4","last_reported":1715418474,"current_range_meters":7200,"station_id":"ce4bhop2rcd13ifvqh7g","pricing_plan_id":"cebpf4jnsgd1na2vs0mg"},{"bike_id":"22ab7472-b49e-4290-8a02-28cf058bf8f9","system_id":"levelo_inurba_marseille","lat":43.31328,"lon":5.39688,"is_reserved":false,"is_disabled":false,"rental_uris":{"android":"levelo://app?vid=22ab7472-b49e-4290-8a02-28cf058bf8f9","ios":"levelo://app?vid=22ab7472-b49e-4290-8a02-28cf058bf8f9"},"vehicle_type_id":"4","last_reported":1715418474,"current_range_meters":12800,"station_id":"ce4bgvp2rcd13ifvqcu0","pricing_plan_id":"cebpf4jnsgd1na2vs0mg"},{"bike_id":"93936097-dd22-4f2b-be84-c7c18dc923a7","system_id":"levelo_inurba_marseille","lat":43.31332,"lon":5.39688,"is_reserved":false,"is_disabled":false,"rental_uris":{"android":"levelo://app?vid=93936097-dd22-4f2b-be84-c7c18dc923a7","ios":"levelo://app?vid=93936097-dd22-4f2b-be84-c7c18dc923a7"},"vehicle_type_id":"4","last_reported":1715418474,"current_range_meters":14800,"station_id":"ce4bgvp2rcd13ifvqcu0","pricing_plan_id":"cebpf4jnsgd1na2vs0mg"},