{"last_updated":1744034977,"ttl":60,"version":"2.2","data":{"bikes":[{"bike_id":"ff12d1f8-6a91-4c6e-bf69-98f1d7d06e02","system_id":"levelo_inurba_marseille","lat":43.29876,"lon":5.39731,"is_reserved":false,"is_disabled":false,"rental_uris":{"android":"levelo://app?vid=ff12d1f8-6a91-4c6e-bf69-98f1d7d06e02","ios":"levelo://app?vid=ff12d1f8-6a91-4c6e-bf69-98f1d7d06e02"},"vehicle_type_id":"4","last_reported":1744034977,"current_range_meters":3200,"station_id":"ce4bh0h2rcd13ifvqd50","pricing_plan_id":"cebpf4jnsgd1na2vs0mg"},{"bike_id":"49368b2b-3ffa-490a-be22-044141c376dd","system_id":"levelo_inurba_marseille","lat":43.26555,"lon":5.37284,"is_reserved":false,"is_disabled":false,"rental_uris":{"android":"levelo://app?vid=49368b2b-3ffa-490a-be22-044141c376dd","ios":"levelo://app?vid=49368b2b-3ffa-490a-be22-044141c376dd"},"vehicle_type_id":"4","last_reported":1744034977,"current_range_meters":3200,"station_id":"ce4bhg12rcd13ifvqf70","pricing_plan_id":"cebpf4jnsgd1na2vs0mg"},{"bike_id":"46aaf249-f504-46ae-93ce-7245839b78b5","system_id":"levelo_inurba_marseille","lat":43.262031,"lon":5.379203,"is_reserved":false,"is_disabled":true,"rental_uris":{"android":"levelo://app?vid=46aaf249-f504-46ae-93ce-7245839b78b5","ios":"levelo://app?vid=46aaf249-f504-46ae-93ce-7245839b78b5"},"vehicle_type_id":"4","last_reported":1744034977,"current_range_meters":3600,"station_id":"ce4bhjp2rcd13ifvqg90","pricing_plan_id":"cebpf4jnsgd1na2vs0mg"},{"bike_id":"139bb8b1-7ecc-4b71-b2d0-47079de169e4","system_id":"levelo_inurba_marseille","lat":43.28367,"lon":5.38643,"is_reserved":false,"is_disabled":false,"rental_uris":{"android":"levelo://app?vid=139bb8b1-7ecc-4b71-b2d0-47079de169e4","ios":"levelo://app?vid=139bb8b1-7ecc-4b71-b2d0-47079de169e4"},"vehicle_type_id":"4","last_reported":1744034977,"current_range_meters":3600,"station_id":"ce4bh492rcd13ifvqdvg","pricing_plan_id":"cebpf4jnsgd1na2vs0mg"},{"bike_id":"eb79d1f9-7c91-4ea2-b5f8-796189743e1a","system_id":"levelo_inurba_marseille","lat":43.34249,"lon":5.38086,"is_reserved":false,"is_disabled":false,"rental_uris":{"android":"levelo://app?vid=eb79d1f9-7c91-4ea2-b5f8-796189743e1a","ios":"levelo://app?vid=eb79d1f9-7c91-4ea2-b5f8-796189743e1a"},"vehicle_type_id":"4","last_reported":1744034977,"current_range_meters":4000,"station_id":"","pricing_plan_id":"cebpf4jnsgd1na2vs0mg"},{"bike_id":"a74fbfa2-bc06-41ed-9dcd-572717136efa","system_id":"levelo_inurba_marseille","lat":43.30279,"lon":5.39187,"is_reserved":false,"is_disabled":false,"rental_uris":{"android":"levelo://app?vid=a74fbfa2-bc06-41ed-9dcd-572717136efa","ios":"levelo://app?vid=a74fbfa2-bc06-41ed-9dcd-572717136efa"},"vehicle_type_id":"4","last_reported":1744034977,"current_range_meters":4000,"station_id":"ce4bgkh2rcd13ifvqbk0","pricing_plan_id":"cebpf4jnsgd1na2vs0mg"},{"bike_id":"bcf1b580-b50f-4ab3-ab25-42a9b076fd83","system_id":"levelo_inurba_marseille","lat":43.30883,"lon":5.39659,"is_reserved":false,"is_disabled":false,"rental_uris":{"android":"levelo://app?vid=bcf1b580-b50f-4ab3-ab25-42a9b076fd83","ios":"levelo://app?vid=bcf1b580-b50f-4ab3-ab25-42a9b076fd83"},"vehicle_type_id":"4","last_reported":1744034977,"current_range_meters":4000,"station_id":"ce4bh012rcd13ifvqcv0","pricing_plan_id":"cebpf4jnsgd1na2vs0mg"},{"bike_id":"4815b711-7def-4ca4-828f-f82d5b3e3191","system_id":"levelo_inurba_marseille","lat":43.23143,"lon":5.43729,"is_reserved":false,"is_disabled":false,"rental_uris":{"android":"levelo://app?vid=4815b711-7def-4ca4-828f-f82d5b3e3191","ios":"levelo://app?vid=4815b711-7def-4ca4-828f-f82d5b3e3191"},"vehicle_type_id":"4","last_reported":1744034977,"current_range_meters":4000,"station_id":"ce4bhmp2rcd13ifvqgog","pricing_plan_id":"cebpf4jnsgd1na2vs0mg"},{"bike_id":"c0b0410f-5314-48d4-95ac-1537f54023c5","system_id":"levelo_inurba_marseille","lat":43.29881,"lon":5.39742,"is_reserved":false,"is_disabled":false,"rental_uris":{"android":"levelo://app?vid=c0b0410f-5314-48d4-95ac-1537f54023c5","ios":"levelo://app?vid=c0b0410f-5314-48d4-95ac-1537f54023c5"},"vehicle_type_id":"4","last_reported":1744034977,"current_range_meters":4800,"station_id":"ce4bh0h2rcd13ifvqd50","pricing_plan_id":"cebpf4jnsgd1na2vs0mg"},{"bike_id":"7f71aa38-457b-4d7d-afbc-e7e9defe6333","system_id":"levelo_inurba_marseille","lat":43.29417,"lon":5.38632,"is_reserved":false,"is_disabled":false,"rental_uris":{"android":"levelo://app?vid=7f71aa38-457b-4d7d-afbc-e7e9defe6333","ios":"levelo://app?vid=7f71aa38-457b-4d7d-afbc-e7e9defe6333"},"vehicle_type_id":"4","last_reported":1744034977,"current_range_meters":4800,"station_id":"ce4bh2h2rcd13ifvqdh0","pricing_plan_id":"cebpf4jnsgd1na2vs0mg"},{"bike_id":"2f26e68b-fdc1-4a31-9a3f-f23e9875b77b","system_id":"levelo_inurba_marseille","lat":43.26028,"lon":5.3755,"is_reserved":false,"is_disabled":false,"rental_uris":{"android":"levelo://app?vid=2f26e68b-fdc1-4a31-9a3f-f23e9875b77b","ios":"levelo://app?vid=2f26e68b-fdc1-4a31-9a3f-f23e9875b77b"},"vehicle_type_id":"4","last_reported":1744034977,"current_range_meters":4800,"station_id":"ce4bhgh2rcd13ifvqfa0","pricing_plan_id":"cebpf4jnsgd1na2vs0mg"},{"bike_id":"da4370d5-cf7c-4774-81ab-bcabe9729a80","system_id":"levelo_inurba_marseille","lat":43.28481,"lon":5.38418,"is_reserved":false,"is_disabled":false,"rental_uris":{"android":"levelo://app?vid=da4370d5-cf7c-4774-81ab-bcabe9729a80","ios":"levelo://app?vid=da4370d5-cf7c-4774-81ab-bcabe9729a80"},"vehicle_type_id":"4","last_reported":1744034977,"current_range_meters":5600,"station_id":"ce4bh512rcd13ifvqe3g","pricing_plan_id":"cebpf4jnsgd1na2vs0mg"},{"bike_id":"09a436dd-d6be-469b-abfe-86ad31f10216","system_id":"levelo_inurba_marseille","lat":43.3031,"lon":5.39215,"is_reserved":false,"is_disabled":false,"rental_uris":{"android":"levelo://app?vid=09a436dd-d6be-469b-abfe-86ad31f10216","ios":"levelo://app?vid=09a436dd-d6be-469b-abfe-86ad31f10216"},"vehicle_type_id":"4","last_reported":1744034977,"current_range_meters":5600,"station_id":"ce4bgkh2rcd13ifvqbk0","pricing_plan_id":"cebpf4jnsgd1na2vs0mg"},{"bike_id":"991343ab-5465-4eac-bd8e-f58a2337f627","system_id":"levelo_inurba_marseille","lat":43.29333,"lon":5.37128,"is_reserved":false,"is_disabled":false,"rental_uris":{"android":"levelo://app?vid=991343ab-5465-4eac-bd8e-f58a2337f627","ios":"levelo://app?vid=991343ab-5465-4eac-bd8e-f58a2337f627"},"vehicle_type_id":"4","last_reported":1744034977,"current_range_meters":5600,"station_id":"","pricing_plan_id":"cebpf4jnsgd1na2vs0mg"},{"bike_id":"38ae81b3-edcc-4763-8880-8b0fde623123","system_id":"levelo_inurba_marseille","lat":43.23153,"lon":5.43724,"is_reserved":false,"is_disabled":false,"rental_uris":{"android":"levelo://app?vid=38ae81b3-edcc-4763-8880-8b0fde623123","ios":"levelo://app?vid=38ae81b3-edcc-4763-8880-8b0fde623123"},"vehicle_type_id":"4","last_reported":1744034977,"current_range_meters":5600,"station_id":"ce4bhmp2rcd13ifvqgog","pricing_plan_id":"cebpf4jnsgd1na2vs0mg"},{"bike_id":"ce6a6d2c-e7ec-4365-a3f4-ce460c70e39d","system_id":"levelo_inurba_marseille","lat":43.27499,"lon":5.42454,"is_reserved":false,"is_disabled":false,"rental_uris":{"android":"levelo://app?vid=ce6a6d2c-e7ec-4365-a3f4-ce460c70e39d","ios":"levelo://app?vid=ce6a6d2c-e7ec-4365-a3f4-ce460c70e39d"},"vehicle_type_id":"4","last_reported":1744034977,"current_range_meters":5600,"station_id":"ce4bhn92rcd13ifvqgrg","pricing_plan_id":"cebpf4jnsgd1na2vs0mg"},{"bike_id":"41232f3a-02c7-455a-9094-853e267a4f64","system_id":"levelo_inurba_marseille","lat":43.29602,"lon":5.37715,"is_reserved":false,"is_disabled":false,"rental_uris":{"android":"levelo://app?vid=41232f3a-02c7-455a-9094-853e267a4f64","ios":"levelo://app?vid=41232f3a-02c7-455a-9094-853e267a4f64"},"vehicle_type_id":"4","last_reported":1744034977,"current_range_meters":6000,"station_id":"ce4bgi92rcd13ifvqb90","pricing_plan_id":"cebpf4jnsgd1na2vs0mg"},{"bike_id":"bce37b8c-258b-4fc8-86bd-d158ddf5f7a2","system_id":"levelo_inurba_marseille","lat":43.301289,"lon":5.374224,"is_reserved":false,"is_disabled":false,"rental_uris":{"android":"levelo://app?vid=bce37b8c-258b-4fc8-86bd-d158ddf5f7a2","ios":"levelo://app?vid=bce37b8c-258b-4fc8-86bd-d158ddf5f7a2"},"vehicle_type_id":"4","last_reported":1744034977,"current_range_meters":6000,"station_id":"ce4bgs92rcd13ifvqcc0","pricing_plan_id":"cebpf4jnsgd1na2vs0mg"},{"bike_id":"85b5802f-c53f-4b16-a2b8-76aacc9ae178","system_id":"levelo_inurba_marseille","lat":43.22937,"lon":5.35379,"is_reserved":false,"is_disabled":false,"rental_uris":{"android":"levelo://app?vid=85b5802f-c53f-4b16-a2b8-76aacc9ae178","ios":"levelo://app?vid=85b5802f-c53f-4b16-a2b8-76aacc9ae178"},"vehicle_type_id":"4","last_reported":1744034977,"current_range_meters":6000,"station_id":"cpo3532slgdg3j2ikp40","pricing_plan_id":"cebpf4jnsgd1na2vs0mg"},{"bike_id":"1d6f3057-f8f7-4009-89c3-a3edbfb45073","system_id":"levelo_inurba_marseille","lat":43.28152,"lon":5.42647,"is_reserved":false,"is_disabled":false,"rental_uris":{"android":"levelo://app?vid=1d6f3057-f8f7-4009-89c3-a3edbfb45073","ios":"levelo://app?vid=1d6f3057-f8f7-4009-89c3-a3edbfb45073"},"vehicle_type_id":"4","last_reported":1744034977,"current_range_meters":6400,"station_id":"ce4bhnh2rcd13ifvqgug","pricing_plan_id":"cebpf4jnsgd1na2vs0mg"},{"bike_id":"75bc9335-a6df-4be2-8e1a-6141b03de27d","system_id":"levelo_inurba_marseille","lat":43.267836,"lon":5.39416,"is_reserved":false,"is_disabled":false,"rental_uris":{"android":"levelo://app?vid=75bc9335-a6df-4be2-8e1a-6141b03de27d","ios":"levelo://app?vid=75bc9335-a6df-4be2-8e1a-6141b03de27d"},"vehicle_type_id":"4","last_reported":1744034977,"current_range_meters":6400,"station_id":"ce4bhh12rcd13ifvqfg0","pricing_plan_id":"cebpf4jnsgd1na2vs0mg"},{"bike_id":"02233a5b-7bf2-47f6-9c3d-aa69ced550b2","system_id":"levelo_inurba_marseille","lat":43.29988,"lon":5.37136,"is_reserved":false,"is_disabled":false,"rental_uris":{"android":"levelo://app?vid=02233a5b-7bf2-47f6-9c3d-aa69ced550b2","ios":"levelo://app?vid=02233a5b-7bf2-47f6-9c3d-aa69ced550b2"},"vehicle_type_id":"4","last_reported":1744034977,"current_range_meters":6400,"station_id":"ce4bgr92rcd13ifvqc7g","pricing_plan_id":"cebpf4jnsgd1na2vs0mg"},{"bike_id":"95b38897-978d-4d4c-bc50-79fd5f5b35af","system_id":"levelo_inurba_marseille","lat":43.30541,"lon":5.36716,"is_reserved":false,"is_disabled":false,"rental_uris":{"android":"levelo://app?vid=95b38897-978d-4d4c-bc50-79fd5f5b35af","ios":"levelo://app?vid=95b38897-978d-4d4c-bc50-79fd5f5b35af"},"vehicle_type_id":"4","last_reported":1744034977,"current_range_meters":6400,"station_id":"ce4bgrp2rcd13ifvqc9g","pricing_plan_id":"cebpf4jnsgd1na2vs0mg"},{"bike_id":"888b8564-6b5f-4a4f-859b-20f4726f3537","system_id":"levelo_inurba_marseille","lat":43.2658,"lon":5.39007,"is_reserved":false,"is_disabled":false,"rental_uris":{"android":"levelo://app?vid=888b8564-6b5f-4a4f-859b-20f4726f3537","ios":"levelo://app?vid=888b8564-6b5f-4a4f-859b-20f4726f3537"},"vehicle_type_id":"4","last_reported":1744034977,"current_range_meters":6400,"station_id":"ce4bhe12rcd13ifvqf30","pricing_plan_id":"cebpf4jnsgd1na2vs0mg"},{"bike_id":"ad4d36ee-4ace-4017-b1a2-48c4f7e23651","system_id":"levelo_inurba_marseille","lat":43.25877,"lon":5.40883,"is_reserved":false,"is_disabled":false,"rental_uris":{"android":"levelo://app?vid=ad4d36ee-4ace-4017-b1a2-48c4f7e23651","ios":"levelo://app?vid=ad4d36ee-4ace-4017-b1a2-48c4f7e23651"},"vehicle_type_id":"4","last_reported":1744034977,"current_range_meters":6400,"station_id":"","pricing_plan_id":"cebpf4jnsgd1na2vs0mg"},{"bike_id":"33455205-ab4a-4189-a49c-dfe86ae13355","system_id":"levelo_inurba_marseille","lat":43.251,"lon":5.4035,"is_reserved":false,"is_disabled":false,"rental_uris":{"android":"levelo://app?vid=33455205-ab4a-4189-a49c-dfe86ae13355","ios":"levelo://app?vid=33455205-ab4a-4189-a49c-dfe86ae13355"},"vehicle_type_id":"4","last_reported":1744034977,"current_range_meters":6800,"station_id":"ce4bhlh2rcd13ifvqgig","pricing_plan_id":"cebpf4jnsgd1na2vs0mg"},{"bike_id":"78b3607c-752b-4eec-84a9-828d22c99255","system_id":"levelo_inurba_marseille","lat":43.28924,"lon":5.38401,"is_reserved":false,"is_disabled":false,"rental_uris":{"android":"levelo://app?vid=78b3607c-752b-4eec-84a9-828d22c99255","ios":"levelo://app?vid=78b3607c-752b-4eec-84a9-828d22c99255"},"vehicle_type_id":"4","last_reported":1744034977,"current_range_meters":6800,"station_id":"ce4bh612rcd13ifvqe6g","pricing_plan_id":"cebpf4jnsgd1na2vs0mg"},{"bike_id":"599cd34c-20ae-429b-a3d3-757fcae68040","system_id":"levelo_inurba_marseille","lat":43.31239,"lon":5.36844,"is_reserved":false,"is_disabled":false,"rental_uris":{"android":"levelo://app?vid=599cd34c-20ae-429b-a3d3-757fcae68040","ios":"levelo://app?vid=599cd34c-20ae-429b-a3d3-757fcae68040"},"vehicle_type_id":"4","last_reported":1744034977,"current_range_meters":6800,"station_id":"ce4bgl92rcd13ifvqbq0","pricing_plan_id":"cebpf4jnsgd1na2vs0mg"},{"bike_id":"da2d057d-b3e2-4a7b-8f1b-e83ff2e14dcf","system_id":"levelo_inurba_marseille","lat":43.25,"lon":5.38929,"is_reserved":false,"is_disabled":false,"rental_uris":{"android":"levelo://app?vid=da2d057d-b3e2-4a7b-8f1b-e83ff2e14dcf","ios":"levelo://app?vid=da2d057d-b3e2-4a7b-8f1b-e83ff2e14dcf"},"vehicle_type_id":"4","last_reported":1744034977,"current_range_meters":6800,"station_id":"ce4bhgp2rcd13ifvqfd0","pricing_plan_id":"cebpf4jnsgd1na2vs0mg"},{"bike_id":"9451db43-aac8-4c9f-83f8-881c49333870","system_id":"levelo_inurba_marseille","lat":43.30531,"lon":5.3654,"is_reserved":false,"is_disabled":false,"rental_uris":{"android":"levelo://app?vid=9451db43-aac8-4c9f-83f8-881c49333870","ios":"levelo://app?vid=9451db43-aac8-4c9f-83f8-881c49333870"},"vehicle_type_id":"4","last_reported":1744034977,"current_range_meters":6800,"station_id":"ce4bgs12rcd13ifvqcag","pricing_plan_id":"cebpf4jnsgd1na2vs0mg"},{"bike_id":"5dbf4d5b-2a52-48ff-8fb8-0d5e608bf03c","system_id":"levelo_inurba_marseille","lat":43.28926,"lon":5.38398,"is_reserved":false,"is_disabled":false,"rental_uris":{"android":"levelo://app?vid=5dbf4d5b-2a52-48ff-8fb8-0d5e608bf03c","ios":"levelo://app?vid=5dbf4d5b-2a52-48ff-8fb8-0d5e608bf03c"},"vehicle_type_id":"4","last_reported":1744034977,"current_range_meters":6800,"station_id":"ce4bh612rcd13ifvqe6g","pricing_plan_id":"cebpf4jnsgd1na2vs0mg"},{"bike_id":"c5839f54-bef9-4a08-b316-2e6cff1ea8d7","system_id":"levelo_inurba_marseille","lat":43.23136,"lon":5.43727,"is_reserved":false,"is_disabled":false,"rental_uris":{"android":"levelo://app?vid=c5839f54-bef9-4a08-b316-2e6cff1ea8d7","ios":"levelo://app?vid=c5839f54-bef9-4a08-b316-2e6cff1ea8d7"},"vehicle_type_id":"4","last_reported":1744034977,"current_range_meters":6800,"station_id":"ce4bhmp2rcd13ifvqgog","pricing_plan_id":"cebpf4jnsgd1na2vs0mg"},{"bike_id":"9328c0bb-8514-4f11-b381-7069c9a74645","system_id":"levelo_inurba_marseille","lat":43.30545,"lon":5.36535,"is_reserved":false,"is_disabled":false,"rental_uris":{"android":"levelo://app?vid=9328c0bb-8514-4f11-b381-7069c9a74645","ios":"levelo://app?vid=9328c0bb-8514-4f11-b381-7069c9a74645"},"vehicle_type_id":"4","last_reported":1744034977,"current_range_meters":6800,"station_id":"ce4bgs12rcd13ifvqcag","pricing_plan_id":"cebpf4jnsgd1na2vs0mg"},{"bike_id":"1f8d1e21-f657-42c0-bf7b-10b968483646","system_id":"levelo_inurba_marseille","lat":43.31235,"lon":5.36861,"is_reserved":false,"is_disabled":false,"rental_uris":{"android":"levelo://app?vid=1f8d1e21-f657-42c0-bf7b-10b968483646","ios":"levelo://app?vid=1f8d1e21-f657-42c0-bf7b-10b968483646"},"vehicle_type_id":"4","last_reported":1744034977,"current_range_meters":6800,"station_id":"ce4bgl92rcd13ifvqbq0","pricing_plan_id":"cebpf4jnsgd1na2vs0mg"},{"bike_id":"104fa708-46b3-4372-bb3d-5a274078b566","system_id":"levelo_inurba_marseille","lat":43.23163,"lon":5.4367,"is_reserved":false,"is_disabled":false,"rental_uris":{"android":"levelo://app?vid=104fa708-46b3-4372-bb3d-5a274078b566","ios":"levelo://app?vid=104fa708-46b3-4372-bb3d-5a274078b566"},"vehicle_type_id":"4","last_reported":1744034977,"current_range_meters":6800,"station_id":"ce4bhmp2rcd13ifvqgog","pricing_plan_id":"cebpf4jnsgd1na2vs0mg"},{"bike_id":"c114fa13-24e1-48f9-bc1f-e90e8583879f","system_id":"levelo_inurba_marseille","lat":43.30297,"lon":5.36898,"is_reserved":false,"is_disabled":false,"rental_uris":{"android":"levelo://app?vid=c114fa13-24e1-48f9-bc1f-e90e8583879f","ios":"levelo://app?vid=c114fa13-24e1-48f9-bc1f-e90e8583879f"},"vehicle_type_id":"4","last_reported":1744034977,"current_range_meters":6800,"station_id":"ce4bgqh2rcd13ifvqc5g","pricing_plan_id":"cebpf4jnsgd1na2vs0mg"},{"bike_id":"136b6e45-ee21-453e-aa22-e07947db9071","system_id":"levelo_inurba_marseille","lat":43.23152,"lon":5.43702,"is_reserved":false,"is_disabled":true,"rental_uris":{"android":"levelo://app?vid=136b6e45-ee21-453e-aa22-e07947db9071","ios":"levelo://app?vid=136b6e45-ee21-453e-aa22-e07947db9071"},"vehicle_type_id":"4","last_reported":1744034977,"current_range_meters":6800,"station_id":"ce4bhmp2rcd13ifvqgog","pricing_plan_id":"cebpf4jnsgd1na2vs0mg"},{"bike_id":"a51d6eb8-c4cc-475f-9b58-8569f9db7d33","system_id":"levelo_inurba_marseille","lat":43.30535,"lon":5.36704,"is_reserved":false,"is_disabled":false,"rental_uris":{"android":"levelo://app?vid=a51d6eb8-c4cc-475f-9b58-8569f9db7d33","ios":"levelo://app?vid=a51d6eb8-c4cc-475f-9b58-8569f9db7d33"},"vehicle_type_id":"4","last_reported":1744034977,"current_range_meters":7200,"station_id":"ce4bgrp2rcd13ifvqc9g","pricing_plan_id":"cebpf4jnsgd1na2vs0mg"},{"bike_id":"6b79c190-08a0-493c-b3e0-7480ca940237","system_id":"levelo_inurba_marseille","lat":43.25928,"lon":5.40921,"is_reserved":false,"is_disabled":false,"rental_uris":{"android":"levelo://app?vid=6b79c190-08a0-493c-b3e0-7480ca940237","ios":"levelo://app?vid=6b79c190-08a0-493c-b3e0-7480ca940237"},"vehicle_type_id":"4","last_reported":1744034977,"current_range_meters":7200,"station_id":"ce4bhm92rcd13ifvqglg","pricing_plan_id":"cebpf4jnsgd1na2vs0mg"},{"bike_id":"eb3e148a-ca72-4987-82c4-a76fbd3dc65b","system_id":"levelo_inurba_marseille","lat":43.2925,"lon":5.3763,"is_reserved":false,"is_disabled":false,"rental_uris":{"android":"levelo://app?vid=eb3e148a-ca72-4987-82c4-a76fbd3dc65b","ios":"levelo://app?vid=eb3e148a-ca72-4987-82c4-a76fbd3dc65b"},"vehicle_type_id":"4","last_reported":1744034977,"current_range_meters":7200,"station_id":"ce4bgi12rcd13ifvqb80","pricing_plan_id":"cebpf4jnsgd1na2vs0mg"},{"bike_id":"00393ee2-317d-4e98-a30d-fd25773ef49f","system_id":"levelo_inurba_marseille","lat":43.3522,"lon":5.35785,"is_reserved":false,"is_disabled":false,"rental_uris":{"android":"levelo://app?vid=00393ee2-317d-4e98-a30d-fd25773ef49f","ios":"levelo://app?vid=00393ee2-317d-4e98-a30d-fd25773ef49f"},"vehicle_type_id":"4","last_reported":1744034977,"current_range_meters":7200,"station_id":"","pricing_plan_id":"cebpf4jnsgd1na2vs0mg"},{"bike_id":"0c518c74-102e-4c4b-87b8-f37363116b3d","system_id":"levelo_inurba_marseille","lat":43.26556,"lon":5.37297,"is_reserved":false,"is_disabled":false,"rental_uris":{"android":"levelo://app?vid=0c518c74-102e-4c4b-87b8-f37363116b3d","ios":"levelo://app?vid=0c518c74-102e-4c4b-87b8-f37363116b3d"},"vehicle_type_id":"4","last_reported":1744034977,"current_range_meters":7200,"station_id":"ce4bhg12rcd13ifvqf70","pricing_plan_id":"cebpf4jnsgd1na2vs0mg"},{"bike_id":"aba5e844-f429-4fca-8fbd-34616f5265a2","system_id":"levelo_inurba_marseille","lat":43.28155,"lon":5.42654,"is_reserved":false,"is_disabled":false,"rental_uris":{"android":"levelo://app?vid=aba5e844-f429-4fca-8fbd-34616f5265a2","ios":"levelo://app?vid=aba5e844-f429-4fca-8fbd-34616f5265a2"},"vehicle_type_id":"4","last_reported":1744034977,"current_range_meters":7200,"station_id":"ce4bhnh2rcd13ifvqgug","pricing_plan_id":"cebpf4jnsgd1na2vs0mg"},{"bike_id":"d66890eb-a849-4361-8afb-8574c3836f73","system_id":"levelo_inurba_marseille","lat":43.260744,"lon":5.387201,"is_reserved":false,"is_disabled":false,"rental_uris":{"android":"levelo://app?vid=d66890eb-a849-4361-8afb-8574c3836f73","ios":"levelo://app?vid=d66890eb-a849-4361-8afb-8574c3836f73"},"vehicle_type_id":"4","last_reported":1744034977,"current_range_meters":7200,"station_id":"","pricing_plan_id":"cebpf4jnsgd1na2vs0mg"},{"bike_id":"fd2f06a4-2823-4523-8dc6-e5a759a1abc7","system_id":"levelo_inurba_marseille","lat":43.29257,"lon":5.37625,"is_reserved":false,"is_disabled":false,"rental_uris":{"android":"levelo://app?vid=fd2f06a4-2823-4523-8dc6-e5a759a1abc7","ios":"levelo://app?vid=fd2f06a4-2823-4523-8dc6-e5a759a1abc7"},"vehicle_type_id":"4","last_reported":1744034977,"current_range_meters":8000,"station_id":"ce4bgi12rcd13ifvqb80","pricing_plan_id":"cebpf4jnsgd1na2vs0mg"},{"bike_id":"0c232eb5-b9be-4736-8187-917fe948a238","system_id":"levelo_inurba_marseille","lat":43.28036,"lon":5.36939,"is_reserved":false,"is_disabled":false,"rental_uris":{"android":"levelo://app?vid=0c232eb5-b9be-4736-8187-917fe948a238","ios":"levelo://app?vid=0c232eb5-b9be-4736-8187-917fe948a238"},"vehicle_type_id":"4","last_reported":1744034977,"current_range_meters":8000,"station_id":"ce4bha12rcd13ifvqef0","pricing_plan_id":"cebpf4jnsgd1na2vs0mg"},{"bike_id":"2cd7ef9b-a726-4134-9830-a54c0abc7b06","system_id":"levelo_inurba_marseille","lat":43.24178,"lon":5.39718,"is_reserved":false,"is_disabled":false,"rental_uris":{"android":"levelo://app?vid=2cd7ef9b-a726-4134-9830-a54c0abc7b06","ios":"levelo://app?vid=2cd7ef9b-a726-4134-9830-a54c0abc7b06"},"vehicle_type_id":"4","last_reported":1744034977,"current_range_meters":8000,"station_id":"ce4bhn12rcd13ifvqgpg","pricing_plan_id":"cebpf4jnsgd1na2vs0mg"},{"bike_id":"f56fa8c2-6991-4db5-9b1b-225fe2c50caf","system_id":"levelo_inurba_marseille","lat":43.28157,"lon":5.42676,"is_reserved":false,"is_disabled":false,"rental_uris":{"android":"levelo://app?vid=f56fa8c2-6991-4db5-9b1b-225fe2c50caf","ios":"levelo://app?vid=f56fa8c2-6991-4db5-9b1b-225fe2c50caf"},"vehicle_type_id":"4","last_reported":1744034977,"current_range_meters":8000,"station_id":"ce4bhnh2rcd13ifvqgug","pricing_plan_id":"cebpf4jnsgd1na2vs0mg"},{"bike_id":"41282a5d-1ece-4ca2-b291-4a23767104b8","system_id":"levelo_inurba_marseille","lat":43.29564,"lon":5.37511,"is_reserved":false,"is_disabled":false,"rental_uris":{"android":"levelo://app?vid=41282a5d-1ece-4ca2-b291-4a23767104b8","ios":"levelo://app?vid=41282a5d-1ece-4ca2-b291-4a23767104b8"},"vehicle_type_id":"4","last_reported":1744034977,"current_range_meters":8000,"station_id":"ce4bgh92rcd13ifvqb50","pricing_plan_id":"cebpf4jnsgd1na2vs0mg"},{"bike_id":"351b921a-1463-4cf6-859d-ca5bd51a6e76","system_id":"levelo_inurba_marseille","lat":43.31776,"lon":5.36843,"is_reserved":false,"is_disabled":false,"rental_uris":{"android":"levelo://app?vid=351b921a-1463-4cf6-859d-ca5bd51a6e76","ios":"levelo://app?vid=351b921a-1463-4cf6-859d-ca5bd51a6e76"},"vehicle_type_id":"4","last_reported":1744034977,"current_range_meters":8000,"station_id":"","pricing_plan_id":"cebpf4jnsgd1na2vs0mg"},{"bike_id":"c7f769a0-9ae3-4891-a95a-079fb88a4ee7","system_id":"levelo_inurba_marseille","lat":43.2511,"lon":5.40321,"is_reserved":false,"is_disabled":false,"rental_uris":{"android":"levelo://app?vid=c7f769a0-9ae3-4891-a95a-079fb88a4ee7","ios":"levelo://app?vid=c7f769a0-9ae3-4891-a95a-079fb88a4ee7"},"vehicle_type_id":"4","last_reported":1744034977,"current_range_meters":8000,"station_id":"ce4bhlh2rcd13ifvqgig","pricing_plan_id":"cebpf4jnsgd1na2vs0mg"},{"bike_id":"372eae65-470f-4fa6-9ccd-a00833a51555","system_id":"levelo_inurba_marseille","lat":43.337444,"lon":5.374475,"is_reserved":false,"is_disabled":false,"rental_uris":{"android":"levelo://app?vid=372eae65-470f-4fa6-9ccd-a00833a51555","ios":"levelo://app?vid=372eae65-470f-4fa6-9ccd-a00833a51555"},"vehicle_type_id":"4","last_reported":1744034977,"current_range_meters":8400,"station_id":"ce4bgr92rcd13ifvqc7g","pricing_plan_id":"cebpf4jnsgd1na2vs0mg"},{"bike_id":"d81731cb-b0d1-475b-a4f1-b5ca80a4c267","system_id":"levelo_inurba_marseille","lat":43.3055,"lon":5.36535,"is_reserved":false,"is_disabled":false,"rental_uris":{"android":"levelo://app?vid=d81731cb-b0d1-475b-a4f1-b5ca80a4c267","ios":"levelo://app?vid=d81731cb-b0d1-475b-a4f1-b5ca80a4c267"},"vehicle_type_id":"4","last_reported":1744034977,"current_range_meters":8400,"station_id":"ce4bgs12rcd13ifvqcag","pricing_plan_id":"cebpf4jnsgd1na2vs0mg"},{"bike_id":"2e8d1dd1-9f49-4bda-8a2f-654b7665bb8f","system_id":"levelo_inurba_marseille","lat":43.25065,"lon":5.39512,"is_reserved":false,"is_disabled":false,"rental_uris":{"android":"levelo://app?vid=2e8d1dd1-9f49-4bda-8a2f-654b7665bb8f","ios":"levelo://app?vid=2e8d1dd1-9f49-4bda-8a2f-654b7665bb8f"},"vehicle_type_id":"4","last_reported":1744034977,"current_range_meters":8400,"station_id":"ce4bhm12rcd13ifvqgkg","pricing_plan_id":"cebpf4jnsgd1na2vs0mg"},{"bike_id":"b2ce3151-1be3-4046-b98f-0837259de796","system_id":"levelo_inurba_marseille","lat":43.2315,"lon":5.43711,"is_reserved":false,"is_disabled":false,"rental_uris":{"android":"levelo://app?vid=b2ce3151-1be3-4046-b98f-0837259de796","ios":"levelo://app?vid=b2ce3151-1be3-4046-b98f-0837259de796"},"vehicle_type_id":"4","last_reported":1744034977,"current_range_meters":8400,"station_id":"ce4bhmp2rcd13ifvqgog","pricing_plan_id":"cebpf4jnsgd1na2vs0mg"},{"bike_id":"49d42c37-2fdc-4f8d-9bf6-5d87fcac8d17","system_id":"levelo_inurba_marseille","lat":43.303009,"lon":5.369034,"is_reserved":false,"is_disabled":false,"rental_uris":{"android":"levelo://app?vid=49d42c37-2fdc-4f8d-9bf6-5d87fcac8d17","ios":"levelo://app?vid=49d42c37-2fdc-4f8d-9bf6-5d87fcac8d17"},"vehicle_type_id":"4","last_reported":1744034977,"current_range_meters":8400,"station_id":"ce4bgqh2rcd13ifvqc5g","pricing_plan_id":"cebpf4jnsgd1na2vs0mg"},{"bike_id":"c3e6d442-6282-4c88-9f90-93d85aff9e76","system_id":"levelo_inurba_marseille","lat":43.28161,"lon":5.42647,"is_reserved":false,"is_disabled":false,"rental_uris":{"android":"levelo://app?vid=c3e6d442-6282-4c88-9f90-93d85aff9e76","ios":"levelo://app?vid=c3e6d442-6282-4c88-9f90-93d85aff9e76"},"vehicle_type_id":"4","last_reported":1744034977,"current_range_meters":8400,"station_id":"ce4bhnh2rcd13ifvqgug","pricing_plan_id":"cebpf4jnsgd1na2vs0mg"},{"bike_id":"af318776-33ce-4a6b-8483-1796d2426eaf","system_id":"levelo_inurba_marseille","lat":43.29619,"lon":5.4058,"is_reserved":false,"is_disabled":false,"rental_uris":{"android":"levelo://app?vid=af318776-33ce-4a6b-8483-1796d2426eaf","ios":"levelo://app?vid=af318776-33ce-4a6b-8483-1796d2426eaf"},"vehicle_type_id":"4","last_reported":1744034977,"current_range_meters":6800,"station_id":"ce4bh0h2rcd13ifvqd60","pricing_plan_id":"cebpf4jnsgd1na2vs0mg"},{"bike_id":"c992832c-0a46-4a1a-97f9-05996e49a6b9","system_id":"levelo_inurba_marseille","lat":43.255,"lon":5.37654,"is_reserved":false,"is_disabled":false,"rental_uris":{"android":"levelo://app?vid=c992832c-0a46-4a1a-97f9-05996e49a6b9","ios":"levelo://app?vid=c992832c-0a46-4a1a-97f9-05996e49a6b9"},"vehicle_type_id":"4","last_reported":1744034977,"current_range_meters":12400,"station_id":"ce4bhh12rcd13ifvqff0","pricing_plan_id":"cebpf4jnsgd1na2vs0mg"},{"bike_id":"2d6b3f3e-921f-45af-809c-090b5ad1e09f","system_id":"levelo_inurba_marseille","lat":43.26182,"lon":5.37928,"is_reserved":false,"is_disabled":false,"rental_uris":{"android":"levelo://app?vid=2d6b3f3e-921f-45af-809c-090b5ad1e09f","ios":"levelo://app?vid=2d6b3f3e-921f-45af-809c-090b5ad1e09f"},"vehicle_type_id":"4","last_reported":1744034977,"current_range_meters":8400,"station_id":"ce4bhjp2rcd13ifvqg90","pricing_plan_id":"cebpf4jnsgd1na2vs0mg"},{"bike_id":"606675f6-9cae-427a-83c9-8a064752327b","system_id":"levelo_inurba_marseille","lat":43.32359,"lon":5.367505,"is_reserved":false,"is_disabled":false,"rental_uris":{"android":"levelo://app?vid=606675f6-9cae-427a-83c9-8a064752327b","ios":"levelo://app?vid=606675f6-9cae-427a-83c9-8a064752327b"},"vehicle_type_id":"4","last_reported":1744034977,"current_range_meters":8400,"station_id":"ce4bhsh2rcd13ifvqi2g","pricing_plan_id":"cebpf4jnsgd1na2vs0mg"},{"bike_id":"8a38320c-a733-4cf5-8c8e-152497fe8f8f","system_id":"levelo_inurba_marseille","lat":43.281514,"lon":5.426364,"is_reserved":false,"is_disabled":false,"rental_uris":{"android":"levelo://app?vid=8a38320c-a733-4cf5-8c8e-152497fe8f8f","ios":"levelo://app?vid=8a38320c-a733-4cf5-8c8e-152497fe8f8f"},"vehicle_type_id":"4","last_reported":1744034977,"current_range_meters":8800,"station_id":"ce4bhnh2rcd13ifvqgug","pricing_plan_id":"cebpf4jnsgd1na2vs0mg"},{"bike_id":"5da9cace-cf96-4930-b2bd-715a8ff7a452","system_id":"levelo_inurba_marseille","lat":43.292609,"lon":5.409009,"is_reserved":false,"is_disabled":false,"rental_uris":{"android":"levelo://app?vid=5da9cace-cf96-4930-b2bd-715a8ff7a452","ios":"levelo://app?vid=5da9cace-cf96-4930-b2bd-715a8ff7a452"},"vehicle_type_id":"4","last_reported":1744034977,"current_range_meters":8400,"station_id":"ce4bh192rcd13ifvqdc0","pricing_plan_id":"cebpf4jnsgd1na2vs0mg"},{"bike_id":"e0aaaea9-eadf-4f8e-a365-03e1aeed1a0f","system_id":"levelo_inurba_marseille","lat":43.27946,"lon":5.4103,"is_reserved":false,"is_disabled":false,"rental_uris":{"android":"levelo://app?vid=e0aaaea9-eadf-4f8e-a365-03e1aeed1a0f","ios":"levelo://app?vid=e0aaaea9-eadf-4f8e-a365-03e1aeed1a0f"},"vehicle_type_id":"4","last_reported":1744034977,"current_range_meters":8800,"station_id":"ce4bhnp2rcd13ifvqh0g","pricing_plan_id":"cebpf4jnsgd1na2vs0mg"},{"bike_id":"a959694d-18ce-4d80-917f-23c91ed81065","system_id":"levelo_inurba_marseille","lat":43.29893,"lon":5.43648,"is_reserved":false,"is_disabled":false,"rental_uris":{"android":"levelo://app?vid=a959694d-18ce-4d80-917f-23c91ed81065","ios":"levelo://app?vid=a959694d-18ce-4d80-917f-23c91ed81065"},"vehicle_type_id":"4","last_reported":1744034977,"current_range_meters":8800,"station_id":"ce4bhpp2rcd13ifvqhfg","pricing_plan_id":"cebpf4jnsgd1na2vs0mg"},{"bike_id":"516d1131-8d22-4c00-9743-8f8296b9be79","system_id":"levelo_inurba_marseille","lat":43.2549,"lon":5.376457,"is_reserved":false,"is_disabled":true,"rental_uris":{"android":"levelo://app?vid=516d1131-8d22-4c00-9743-8f8296b9be79","ios":"levelo://app?vid=516d1131-8d22-4c00-9743-8f8296b9be79"},"vehicle_type_id":"4","last_reported":1744034977,"current_range_meters":8800,"station_id":"ce4bhh12rcd13ifvqff0","pricing_plan_id":"cebpf4jnsgd1na2vs0mg"},{"bike_id":"561fc01a-2ca6-4526-b310-a780b2699a12","system_id":"levelo_inurba_marseille","lat":43.295322,"lon":5.390636,"is_reserved":false,"is_disabled":false,"rental_uris":{"android":"levelo://app?vid=561fc01a-2ca6-4526-b310-a780b2699a12","ios":"levelo://app?vid=561fc01a-2ca6-4526-b310-a780b2699a12"},"vehicle_type_id":"4","last_reported":1744034977,"current_range_meters":8800,"station_id":"ce4bh3p2rcd13ifvqdp0","pricing_plan_id":"cebpf4jnsgd1na2vs0mg"},{"bike_id":"03459487-5609-45d6-8672-77ad1a4c94a5","system_id":"levelo_inurba_marseille","lat":43.23154,"lon":5.43698,"is_reserved":false,"is_disabled":false,"rental_uris":{"android":"levelo://app?vid=03459487-5609-45d6-8672-77ad1a4c94a5","ios":"levelo://app?vid=03459487-5609-45d6-8672-77ad1a4c94a5"},"vehicle_type_id":"4","last_reported":1744034977,"current_range_meters":9200,"station_id":"ce4bhmp2rcd13ifvqgog","pricing_plan_id":"cebpf4jnsgd1na2vs0mg"},{"bike_id":"45aba047-a215-471c-a693-ba0966fecf5c","system_id":"levelo_inurba_marseille","lat":43.2656,"lon":5.37285,"is_reserved":false,"is_disabled":false,"rental_uris":{"android":"levelo://app?vid=45aba047-a215-471c-a693-ba0966fecf5c","ios":"levelo://app?vid=45aba047-a215-471c-a693-ba0966fecf5c"},"vehicle_type_id":"4","last_reported":1744034977,"current_range_meters":9200,"station_id":"ce4bhg12rcd13ifvqf70","pricing_plan_id":"cebpf4jnsgd1na2vs0mg"},{"bike_id":"298db965-e305-4b18-8431-6a5ac8388e4d","system_id":"levelo_inurba_marseille","lat":43.30311,"lon":5.36893,"is_reserved":false,"is_disabled":false,"rental_uris":{"android":"levelo://app?vid=298db965-e305-4b18-8431-6a5ac8388e4d","ios":"levelo://app?vid=298db965-e305-4b18-8431-6a5ac8388e4d"},"vehicle_type_id":"4","last_reported":1744034977,"current_range_meters":9200,"station_id":"ce4bgqh2rcd13ifvqc5g","pricing_plan_id":"cebpf4jnsgd1na2vs0mg"},{"bike_id":"3a6cf4dd-4a04-48a6-bbfb-6b1ea18759b5","system_id":"levelo_inurba_marseille","lat":43.32363,"lon":5.36753,"is_reserved":false,"is_disabled":false,"rental_uris":{"android":"levelo://app?vid=3a6cf4dd-4a04-48a6-bbfb-6b1ea18759b5","ios":"levelo://app?vid=3a6cf4dd-4a04-48a6-bbfb-6b1ea18759b5"},"vehicle_type_id":"4","last_reported":1744034977,"current_range_meters":9200,"station_id":"ce4bhsh2rcd13ifvqi2g","pricing_plan_id":"cebpf4jnsgd1na2vs0mg"},{"bike_id":"755acd57-59ea-49ed-ad6a-698107bd5c37","system_id":"levelo_inurba_marseille","lat":43.32363,"lon":5.36766,"is_reserved":false,"is_disabled":false,"rental_uris":{"android":"levelo://app?vid=755acd57-59ea-49ed-ad6a-698107bd5c37","ios":"levelo://app?vid=755acd57-59ea-49ed-ad6a-698107bd5c37"},"vehicle_type_id":"4","last_reported":1744034977,"current_range_meters":9200,"station_id":"ce4bhsh2rcd13ifvqi2g","pricing_plan_id":"cebpf4jnsgd1na2vs0mg"},{"bike_id":"84664750-914f-4773-92f0-ec08ad702917","system_id":"levelo_inurba_marseille","lat":43.26971,"lon":5.36617,"is_reserved":false,"is_disabled":false,"rental_uris":{"android":"levelo://app?vid=84664750-914f-4773-92f0-ec08ad702917","ios":"levelo://app?vid=84664750-914f-4773-92f0-ec08ad702917"},"vehicle_type_id":"4","last_reported":1744034977,"current_range_meters":9200,"station_id":"ce4bgvp2rcd13ifvqcu0","pricing_plan_id":"cebpf4jnsgd1na2vs0mg"},{"bike_id":"1e81c4d2-6637-42bf-8d6d-5d37c0fe2360","system_id":"levelo_inurba_marseille","lat":43.32109,"lon":5.36776,"is_reserved":false,"is_disabled":false,"rental_uris":{"android":"levelo://app?vid=1e81c4d2-6637-42bf-8d6d-5d37c0fe2360","ios":"levelo://app?vid=1e81c4d2-6637-42bf-8d6d-5d37c0fe2360"},"vehicle_type_id":"4","last_reported":1744034977,"current_range_meters":9200,"station_id":"ce4bhrh2rcd13ifvqhug","pricing_plan_id":"cebpf4jnsgd1na2vs0mg"},{"bike_id":"bc0b9b7a-28ff-4d98-81f7-d0f15bd1c9cf","system_id":"levelo_inurba_marseille","lat":43.3361,"lon":5.41031,"is_reserved":false,"is_disabled":false,"rental_uris":{"android":"levelo://app?vid=bc0b9b7a-28ff-4d98-81f7-d0f15bd1c9cf","ios":"levelo://app?vid=bc0b9b7a-28ff-4d98-81f7-d0f15bd1c9cf"},"vehicle_type_id":"4","last_reported":1744034977,"current_range_meters":9200,"station_id":"ce4bhqh2rcd13ifvqhmg","pricing_plan_id":"cebpf4jnsgd1na2vs0mg"},{"bike_id":"30d5b6fd-145b-4041-920c-19ab3e510d96","system_id":"levelo_inurba_marseille","lat":43.28618,"lon":5.35107,"is_reserved":false,"is_disabled":false,"rental_uris":{"android":"levelo://app?vid=30d5b6fd-145b-4041-920c-19ab3e510d96","ios":"levelo://app?vid=30d5b6fd-145b-4041-920c-19ab3e510d96"},"vehicle_type_id":"4","last_reported":1744034977,"current_range_meters":9200,"station_id":"ce4bhch2rcd13ifvqeug","pricing_plan_id":"cebpf4jnsgd1na2vs0mg"},{"bike_id":"6196ae68-ec43-4906-96af-d13787861ce6","system_id":"levelo_inurba_marseille","lat":43.30929,"lon":5.40149,"is_reserved":false,"is_disabled":false,"rental_uris":{"android":"levelo://app?vid=6196ae68-ec43-4906-96af-d13787861ce6","ios":"levelo://app?vid=6196ae68-ec43-4906-96af-d13787861ce6"},"vehicle_type_id":"4","last_reported":1744034977,"current_range_meters":9600,"station_id":"ce4bgvp2rcd13ifvqct0","pricing_plan_id":"cebpf4jnsgd1na2vs0mg"},{"bike_id":"87bda883-ac94-49fc-94c2-3a86e52b4f97","system_id":"levelo_inurba_marseille","lat":43.30726,"lon":5.38331,"is_reserved":false,"is_disabled":false,"rental_uris":{"android":"levelo://app?vid=87bda883-ac94-49fc-94c2-3a86e52b4f97","ios":"levelo://app?vid=87bda883-ac94-49fc-94c2-3a86e52b4f97"},"vehicle_type_id":"4","last_reported":1744034977,"current_range_meters":9600,"station_id":"","pricing_plan_id":"cebpf4jnsgd1na2vs0mg"},{"bike_id":"d893a78a-9318-483a-996e-9bec91fd98dc","system_id":"levelo_inurba_marseille","lat":43.31702,"lon":5.43705,"is_reserved":false,"is_disabled":false,"rental_uris":{"android":"levelo://app?vid=d893a78a-9318-483a-996e-9bec91fd98dc","ios":"levelo://app?vid=d893a78a-9318-483a-996e-9bec91fd98dc"},"vehicle_type_id":"4","last_reported":1744034977,"current_range_meters":9600,"station_id":"ce4bhp92rcd13ifvqhcg","pricing_plan_id":"cebpf4jnsgd1na2vs0mg"},{"bike_id":"a95cb240-3d82-4f20-8a18-5a840fa83e82","system_id":"levelo_inurba_marseille","lat":43.2846,"lon":5.3589,"is_reserved":false,"is_disabled":false,"rental_uris":{"android":"levelo://app?vid=a95cb240-3d82-4f20-8a18-5a840fa83e82","ios":"levelo://app?vid=a95cb240-3d82-4f20-8a18-5a840fa83e82"},"vehicle_type_id":"4","last_reported":1744034977,"current_range_meters":9600,"station_id":"ce4bhah2rcd13ifvqei0","pricing_plan_id":"cebpf4jnsgd1na2vs0mg"},{"bike_id":"d7b481fe-6365-4d7c-93c2-9ccfdf489091","system_id":"levelo_inurba_marseille","lat":43.31075,"lon":5.38358,"is_reserved":false,"is_disabled":false,"rental_uris":{"android":"levelo://app?vid=d7b481fe-6365-4d7c-93c2-9ccfdf489091","ios":"levelo://app?vid=d7b481fe-6365-4d7c-93c2-9ccfdf489091"},"vehicle_type_id":"4","last_reported":1744034977,"current_range_meters":9600,"station_id":"ce4bgv92rcd13ifvqcr0","pricing_plan_id":"cebpf4jnsgd1na2vs0mg"},{"bike_id":"bc9617d1-973c-4627-ae95-51775fedcaed","system_id":"levelo_inurba_marseille","lat":43.24386,"lon":5.37061,"is_reserved":false,"is_disabled":false,"rental_uris":{"android":"levelo://app?vid=bc9617d1-973c-4627-ae95-51775fedcaed","ios":"levelo://app?vid=bc9617d1-973c-4627-ae95-51775fedcaed"},"vehicle_type_id":"4","last_reported":1744034977,"current_range_meters":9600,"station_id":"ce4bhhh2rcd13ifvqfk0","pricing_plan_id":"cebpf4jnsgd1na2vs0mg"},{"bike_id":"2792a039-510e-4906-af10-7134d11b05be","system_id":"levelo_inurba_marseille","lat":43.2783,"lon":5.39216,"is_reserved":false,"is_disabled":false,"rental_uris":{"android":"levelo://app?vid=2792a039-510e-4906-af10-7134d11b05be","ios":"levelo://app?vid=2792a039-510e-4906-af10-7134d11b05be"},"vehicle_type_id":"4","last_reported":1744034977,"current_range_meters":10000,"station_id":"ce4bhjp2rcd13ifvqga0","pricing_plan_id":"cebpf4jnsgd1na2vs0mg"},{"bike_id":"9f57c526-6a18-4d9f-9d1d-9438ceb14a96","system_id":"levelo_inurba_marseille","lat":43.30227,"lon":5.39483,"is_reserved":false,"is_disabled":false,"rental_uris":{"android":"levelo://app?vid=9f57c526-6a18-4d9f-9d1d-9438ceb14a96","ios":"levelo://app?vid=9f57c526-6a18-4d9f-9d1d-9438ceb14a96"},"vehicle_type_id":"4","last_reported":1744034977,"current_range_meters":10000,"station_id":"ce4bh0p2rcd13ifvqd70","pricing_plan_id":"cebpf4jnsgd1na2vs0mg"},{"bike_id":"fdd01719-d588-4b93-bcd2-62faf6a7b31f","system_id":"levelo_inurba_marseille","lat":43.24083,"lon":5.37751,"is_reserved":false,"is_disabled":false,"rental_uris":{"android":"levelo://app?vid=fdd01719-d588-4b93-bcd2-62faf6a7b31f","ios":"levelo://app?vid=fdd01719-d588-4b93-bcd2-62faf6a7b31f"},"vehicle_type_id":"4","last_reported":1744034977,"current_range_meters":10000,"station_id":"ce4bhnp2rcd13ifvqgvg","pricing_plan_id":"cebpf4jnsgd1na2vs0mg"},{"bike_id":"7d96f494-759f-4ffd-918b-71427f821ba3","system_id":"levelo_inurba_marseille","lat":43.28268,"lon":5.35058,"is_reserved":false,"is_disabled":false,"rental_uris":{"android":"levelo://app?vid=7d96f494-759f-4ffd-918b-71427f821ba3","ios":"levelo://app?vid=7d96f494-759f-4ffd-918b-71427f821ba3"},"vehicle_type_id":"4","last_reported":1744034977,"current_range_meters":10000,"station_id":"ce4bhbp2rcd13ifvqerg","pricing_plan_id":"cebpf4jnsgd1na2vs0mg"},{"bike_id":"5faf711e-5b6a-47b6-9cfe-d94056c3d827","system_id":"levelo_inurba_marseille","lat":43.30889,"lon":5.39645,"is_reserved":false,"is_disabled":false,"rental_uris":{"android":"levelo://app?vid=5faf711e-5b6a-47b6-9cfe-d94056c3d827","ios":"levelo://app?vid=5faf711e-5b6a-47b6-9cfe-d94056c3d827"},"vehicle_type_id":"4","last_reported":1744034977,"current_range_meters":9200,"station_id":"ce4bh012rcd13ifvqcv0","pricing_plan_id":"cebpf4jnsgd1na2vs0mg"},{"bike_id":"36d9300d-4553-4800-ba2e-29206ceb086a","system_id":"levelo_inurba_marseille","lat":43.3055,"lon":5.36544,"is_reserved":false,"is_disabled":false,"rental_uris":{"android":"levelo://app?vid=36d9300d-4553-4800-ba2e-29206ceb086a","ios":"levelo://app?vid=36d9300d-4553-4800-ba2e-29206ceb086a"},"vehicle_type_id":"4","last_reported":1744034977,"current_range_meters":10000,"station_id":"ce4bgs12rcd13ifvqcag","pricing_plan_id":"cebpf4jnsgd1na2vs0mg"},{"bike_id":"cc057f14-b1e1-4dee-b107-8741c01c5964","system_id":"levelo_inurba_marseille","lat":43.3209,"lon":5.36796,"is_reserved":false,"is_disabled":true,"rental_uris":{"android":"levelo://app?vid=cc057f14-b1e1-4dee-b107-8741c01c5964","ios":"levelo://app?vid=cc057f14-b1e1-4dee-b107-8741c01c5964"},"vehicle_type_id":"4","last_reported":1744034977,"current_range_meters":10000,"station_id":"ce4bhrh2rcd13ifvqhug","pricing_plan_id":"cebpf4jnsgd1na2vs0mg"},{"bike_id":"ce42d550-ed29-4126-abcc-c5ee9fd434dd","system_id":"levelo_inurba_marseille","lat":43.30299,"lon":5.39191,"is_reserved":false,"is_disabled":false,"rental_uris":{"android":"levelo://app?vid=ce42d550-ed29-4126-abcc-c5ee9fd434dd","ios":"levelo://app?vid=ce42d550-ed29-4126-abcc-c5ee9fd434dd"},"vehicle_type_id":"4","last_reported":1744034977,"current_range_meters":10800,"station_id":"ce4bgkh2rcd13ifvqbk0","pricing_plan_id":"cebpf4jnsgd1na2vs0mg"},{"bike_id":"f0d398b3-0e99-4a60-9edf-0e289b418a47","system_id":"levelo_inurba_marseille","lat":43.30545,"lon":5.36519,"is_reserved":false,"is_disabled":false,"rental_uris":{"android":"levelo://app?vid=f0d398b3-0e99-4a60-9edf-0e289b418a47","ios":"levelo://app?vid=f0d398b3-0e99-4a60-9edf-0e289b418a47"},"vehicle_type_id":"4","last_reported":1744034977,"current_range_meters":10800,"station_id":"ce4bgs12rcd13ifvqcag","pricing_plan_id":"cebpf4jnsgd1na2vs0mg"},{"bike_id":"2a6c70b7-3280-4c58-9c17-d39c1ef6b670","system_id":"levelo_inurba_marseille","lat":43.32316,"lon":5.36732,"is_reserved":false,"is_disabled":false,"rental_uris":{"android":"levelo://app?vid=2a6c70b7-3280-4c58-9c17-d39c1ef6b670","ios":"levelo://app?vid=2a6c70b7-3280-4c58-9c17-d39c1ef6b670"},"vehicle_type_id":"4","last_reported":1744034977,"current_range_meters":10800,"station_id":"ce4bhsh2rcd13ifvqi2g","pricing_plan_id":"cebpf4jnsgd1na2vs0mg"},{"bike_id":"750bc9c2-8244-4f27-a571-77c62d7d6b92","system_id":"levelo_inurba_marseille","lat":43.31272,"lon":5.37754,"is_reserved":false,"is_disabled":false,"rental_uris":{"android":"levelo://app?vid=750bc9c2-8244-4f27-a571-77c62d7d6b92","ios":"levelo://app?vid=750bc9c2-8244-4f27-a571-77c62d7d6b92"},"vehicle_type_id":"4","last_reported":1744034977,"current_range_meters":10800,"station_id":"","pricing_plan_id":"cebpf4jnsgd1na2vs0mg"},{"bike_id":"9389f907-78e2-4c8e-b008-de9739faa63f","system_id":"levelo_inurba_marseille","lat":43.33144,"lon":5.39399,"is_reserved":false,"is_disabled":false,"rental_uris":{"android":"levelo://app?vid=9389f907-78e2-4c8e-b008-de9739faa63f","ios":"levelo://app?vid=9389f907-78e2-4c8e-b008-de9739faa63f"},"vehicle_type_id":"4","last_reported":1744034977,"current_range_meters":10800,"station_id":"","pricing_plan_id":"cebpf4jnsgd1na2vs0mg"},{"bike_id":"1d218ff5-da10-4d41-a676-b43c1c254d72","system_id":"levelo_inurba_marseille","lat":43.25726,"lon":5.41098,"is_reserved":false,"is_disabled":false,"rental_uris":{"android":"levelo://app?vid=1d218ff5-da10-4d41-a676-b43c1c254d72","ios":"levelo://app?vid=1d218ff5-da10-4d41-a676-b43c1c254d72"},"vehicle_type_id":"4","last_reported":1744034977,"current_range_meters":10800,"station_id":"ce4bhkp2rcd13ifvqgd0","pricing_plan_id":"cebpf4jnsgd1na2vs0mg"},{"bike_id":"55ee1d26-baee-48f8-91b1-8392f000eb51","system_id":"levelo_inurba_marseille","lat":43.27374,"lon":5.36259,"is_reserved":false,"is_disabled":false,"rental_uris":{"android":"levelo://app?vid=55ee1d26-baee-48f8-91b1-8392f000eb51","ios":"levelo://app?vid=55ee1d26-baee-48f8-91b1-8392f000eb51"},"vehicle_type_id":"4","last_reported":1744034977,"current_range_meters":10800,"station_id":"ce4bhbh2rcd13ifvqeo0","pricing_plan_id":"cebpf4jnsgd1na2vs0mg"},{"bike_id":"7b3646e0-cbf2-40de-92a8-c829ec618775","system_id":"levelo_inurba_marseille","lat":43.319953,"lon":5.38161,"is_reserved":false,"is_disabled":true,"rental_uris":{"android":"levelo://app?vid=7b3646e0-cbf2-40de-92a8-c829ec618775","ios":"levelo://app?vid=7b3646e0-cbf2-40de-92a8-c829ec618775"},"vehicle_type_id":"4","last_reported":1744034977,"current_range_meters":10800,"station_id":"ce4bhr12rcd13ifvqhpg","pricing_plan_id":"cebpf4jnsgd1na2vs0mg"},{"bike_id":"804b1649-85c4-4b5a-9828-678386b14395","system_id":"levelo_inurba_marseille","lat":43.26058,"lon":5.39395,"is_reserved":false,"is_disabled":false,"rental_uris":{"android":"levelo://app?vid=804b1649-85c4-4b5a-9828-678386b14395","ios":"levelo://app?vid=804b1649-85c4-4b5a-9828-678386b14395"},"vehicle_type_id":"4","last_reported":1744034977,"current_range_meters":10800,"station_id":"ce4bhh92rcd13ifvqfj0","pricing_plan_id":"cebpf4jnsgd1na2vs0mg"},{"bike_id":"59d8b013-9382-40f1-a545-389f70f540c7","system_id":"levelo_inurba_marseille","lat":43.27919,"lon":5.39577,"is_reserved":false,"is_disabled":false,"rental_uris":{"android":"levelo://app?vid=59d8b013-9382-40f1-a545-389f70f540c7","ios":"levelo://app?vid=59d8b013-9382-40f1-a545-389f70f540c7"},"vehicle_type_id":"4","last_reported":1744034977,"current_range_meters":10800,"station_id":"ce4bhf92rcd13ifvqf40","pricing_plan_id":"cebpf4jnsgd1na2vs0mg"},{"bike_id":"543e8a52-25b8-474c-a2e7-31d0c99c8646","system_id":"levelo_inurba_marseille","lat":43.2419,"lon":5.39701,"is_reserved":false,"is_disabled":false,"rental_uris":{"android":"levelo://app?vid=543e8a52-25b8-474c-a2e7-31d0c99c8646","ios":"levelo://app?vid=543e8a52-25b8-474c-a2e7-31d0c99c8646"},"vehicle_type_id":"4","last_reported":1744034977,"current_range_meters":10800,"station_id":"ce4bhn12rcd13ifvqgpg","pricing_plan_id":"cebpf4jnsgd1na2vs0mg"},{"bike_id":"712b7929-bd47-4a01-b6d3-7b86876f5b98","system_id":"levelo_inurba_marseille","lat":43.21185,"lon":5.35075,"is_reserved":false,"is_disabled":false,"rental_uris":{"android":"levelo://app?vid=712b7929-bd47-4a01-b6d3-7b86876f5b98","ios":"levelo://app?vid=712b7929-bd47-4a01-b6d3-7b86876f5b98"},"vehicle_type_id":"4","last_reported":1744034977,"current_range_meters":10800,"station_id":"","pricing_plan_id":"cebpf4jnsgd1na2vs0mg"},{"bike_id":"60e666a5-c72f-4ad1-8049-0e6775087d89","system_id":"levelo_inurba_marseille","lat":43.267795,"lon":5.3942,"is_reserved":false,"is_disabled":false,"rental_uris":{"android":"levelo://app?vid=60e666a5-c72f-4ad1-8049-0e6775087d89","ios":"levelo://app?vid=60e666a5-c72f-4ad1-8049-0e6775087d89"},"vehicle_type_id":"4","last_reported":1744034977,"current_range_meters":11200,"station_id":"","pricing_plan_id":"cebpf4jnsgd1na2vs0mg"},{"bike_id":"c1307e79-ca78-4bfe-8fd5-79f0ef0158c3","system_id":"levelo_inurba_marseille","lat":43.29104,"lon":5.38144,"is_reserved":false,"is_disabled":false,"rental_uris":{"android":"levelo://app?vid=c1307e79-ca78-4bfe-8fd5-79f0ef0158c3","ios":"levelo://app?vid=c1307e79-ca78-4bfe-8fd5-79f0ef0158c3"},"vehicle_type_id":"4","last_reported":1744034977,"current_range_meters":11200,"station_id":"ce4bh512rcd13ifvqe2g","pricing_plan_id":"cebpf4jnsgd1na2vs0mg"},{"bike_id":"12425cca-6005-4551-b93b-c9d101d401a3","system_id":"levelo_inurba_marseille","lat":43.30449,"lon":5.38903,"is_reserved":false,"is_disabled":false,"rental_uris":{"android":"levelo://app?vid=12425cca-6005-4551-b93b-c9d101d401a3","ios":"levelo://app?vid=12425cca-6005-4551-b93b-c9d101d401a3"},"vehicle_type_id":"4","last_reported":1744034977,"current_range_meters":11200,"station_id":"ce4bgk12rcd13ifvqbi0","pricing_plan_id":"cebpf4jnsgd1na2vs0mg"},{"bike_id":"a50b172f-056b-4f3b-bbcf-8f61568c9059","system_id":"levelo_inurba_marseille","lat":43.31172,"lon":5.38727,"is_reserved":false,"is_disabled":false,"rental_uris":{"android":"levelo://app?vid=a50b172f-056b-4f3b-bbcf-8f61568c9059","ios":"levelo://app?vid=a50b172f-056b-4f3b-bbcf-8f61568c9059"},"vehicle_type_id":"4","last_reported":1744034977,"current_range_meters":11200,"station_id":"ce4bgv12rcd13ifvqcp0","pricing_plan_id":"cebpf4jnsgd1na2vs0mg"},{"bike_id":"b4ec1d07-b635-4d07-b9c5-46f433256f14","system_id":"levelo_inurba_marseille","lat":43.26556,"lon":5.37281,"is_reserved":false,"is_disabled":false,"rental_uris":{"android":"levelo://app?vid=b4ec1d07-b635-4d07-b9c5-46f433256f14","ios":"levelo://app?vid=b4ec1d07-b635-4d07-b9c5-46f433256f14"},"vehicle_type_id":"4","last_reported":1744034977,"current_range_meters":11200,"station_id":"ce4bhg12rcd13ifvqf70","pricing_plan_id":"cebpf4jnsgd1na2vs0mg"},{"bike_id":"e9a596d0-9521-48b8-b33c-aa63c1bf9b83","system_id":"levelo_inurba_marseille","lat":43.309517,"lon":5.390284,"is_reserved":false,"is_disabled":false,"rental_uris":{"android":"levelo://app?vid=e9a596d0-9521-48b8-b33c-aa63c1bf9b83","ios":"levelo://app?vid=e9a596d0-9521-48b8-b33c-aa63c1bf9b83"},"vehicle_type_id":"4","last_reported":1744034977,"current_range_meters":11200,"station_id":"ce4bgup2rcd13ifvqco0","pricing_plan_id":"cebpf4jnsgd1na2vs0mg"},{"bike_id":"7e1b6a3d-58ec-44af-a745-ef3d905a50bb","system_id":"levelo_inurba_marseille","lat":43.26198,"lon":5.37962,"is_reserved":false,"is_disabled":false,"rental_uris":{"android":"levelo://app?vid=7e1b6a3d-58ec-44af-a745-ef3d905a50bb","ios":"levelo://app?vid=7e1b6a3d-58ec-44af-a745-ef3d905a50bb"},"vehicle_type_id":"4","last_reported":1744034977,"current_range_meters":11600,"station_id":"ce4bhjp2rcd13ifvqg90","pricing_plan_id":"cebpf4jnsgd1na2vs0mg"},{"bike_id":"900b15cc-9d25-4d2d-8d73-14cd6009cae9","system_id":"levelo_inurba_marseille","lat":43.26682,"lon":5.38273,"is_reserved":false,"is_disabled":false,"rental_uris":{"android":"levelo://app?vid=900b15cc-9d25-4d2d-8d73-14cd6009cae9","ios":"levelo://app?vid=900b15cc-9d25-4d2d-8d73-14cd6009cae9"},"vehicle_type_id":"4","last_reported":1744034977,"current_range_meters":11600,"station_id":"ce4bhg92rcd13ifvqf90","pricing_plan_id":"cebpf4jnsgd1na2vs0mg"},{"bike_id":"e53b9e9b-ac51-4f70-ad60-ed3149b8c178","system_id":"levelo_inurba_marseille","lat":43.31316,"lon":5.37356,"is_reserved":false,"is_disabled":false,"rental_uris":{"android":"levelo://app?vid=e53b9e9b-ac51-4f70-ad60-ed3149b8c178","ios":"levelo://app?vid=e53b9e9b-ac51-4f70-ad60-ed3149b8c178"},"vehicle_type_id":"4","last_reported":1744034977,"current_range_meters":11600,"station_id":"","pricing_plan_id":"cebpf4jnsgd1na2vs0mg"},{"bike_id":"b3955141-b4e4-46ef-9f72-2d6ddb89ac2c","system_id":"levelo_inurba_marseille","lat":43.23158,"lon":5.43701,"is_reserved":false,"is_disabled":false,"rental_uris":{"android":"levelo://app?vid=b3955141-b4e4-46ef-9f72-2d6ddb89ac2c","ios":"levelo://app?vid=b3955141-b4e4-46ef-9f72-2d6ddb89ac2c"},"vehicle_type_id":"4","last_reported":1744034977,"current_range_meters":11600,"station_id":"ce4bhmp2rcd13ifvqgog","pricing_plan_id":"cebpf4jnsgd1na2vs0mg"},{"bike_id":"ffcd0336-cb5b-4b6c-89e3-9cdef0c66924","system_id":"levelo_inurba_marseille","lat":43.26792,"lon":5.39414,"is_reserved":false,"is_disabled":false,"rental_uris":{"android":"levelo://app?vid=ffcd0336-cb5b-4b6c-89e3-9cdef0c66924","ios":"levelo://app?vid=ffcd0336-cb5b-4b6c-89e3-9cdef0c66924"},"vehicle_type_id":"4","last_reported":1744034977,"current_range_meters":14000,"station_id":"ce4bhh12rcd13ifvqfg0","pricing_plan_id":"cebpf4jnsgd1na2vs0mg"},{"bike_id":"bb304eac-cd9e-4d16-9844-d0a1f2076716","system_id":"levelo_inurba_marseille","lat":43.29417,"lon":5.38626,"is_reserved":false,"is_disabled":false,"rental_uris":{"android":"levelo://app?vid=bb304eac-cd9e-4d16-9844-d0a1f2076716","ios":"levelo://app?vid=bb304eac-cd9e-4d16-9844-d0a1f2076716"},"vehicle_type_id":"4","last_reported":1744034977,"current_range_meters":11600,"station_id":"ce4bh2h2rcd13ifvqdh0","pricing_plan_id":"cebpf4jnsgd1na2vs0mg"},{"bike_id":"2e59f577-f7e1-49d8-9989-24672f3797eb","system_id":"levelo_inurba_marseille","lat":43.29621,"lon":5.37156,"is_reserved":false,"is_disabled":false,"rental_uris":{"android":"levelo://app?vid=2e59f577-f7e1-49d8-9989-24672f3797eb","ios":"levelo://app?vid=2e59f577-f7e1-49d8-9989-24672f3797eb"},"vehicle_type_id":"4","last_reported":1744034977,"current_range_meters":11600,"station_id":"ce4bgnh2rcd13ifvqc0g","pricing_plan_id":"cebpf4jnsgd1na2vs0mg"},{"bike_id":"dc85d6c6-146e-4ef9-b1d1-21f53e5a9912","system_id":"levelo_inurba_marseille","lat":43.28465,"lon":5.35889,"is_reserved":false,"is_disabled":false,"rental_uris":{"android":"levelo://app?vid=dc85d6c6-146e-4ef9-b1d1-21f53e5a9912","ios":"levelo://app?vid=dc85d6c6-146e-4ef9-b1d1-21f53e5a9912"},"vehicle_type_id":"4","last_reported":1744034977,"current_range_meters":10000,"station_id":"ce4bhah2rcd13ifvqei0","pricing_plan_id":"cebpf4jnsgd1na2vs0mg"},{"bike_id":"965debe4-081f-4ce1-a884-fcf3ae2cc3a4","system_id":"levelo_inurba_marseille","lat":43.23154,"lon":5.43717,"is_reserved":false,"is_disabled":false,"rental_uris":{"android":"levelo://app?vid=965debe4-081f-4ce1-a884-fcf3ae2cc3a4","ios":"levelo://app?vid=965debe4-081f-4ce1-a884-fcf3ae2cc3a4"},"vehicle_type_id":"4","last_reported":1744034977,"current_range_meters":12000,"station_id":"ce4bhmp2rcd13ifvqgog","pricing_plan_id":"cebpf4jnsgd1na2vs0mg"},{"bike_id":"f6badd6d-7c01-4364-a05b-585cb882162b","system_id":"levelo_inurba_marseille","lat":43.23154,"lon":5.43703,"is_reserved":false,"is_disabled":false,"rental_uris":{"android":"levelo://app?vid=f6badd6d-7c01-4364-a05b-585cb882162b","ios":"levelo://app?vid=f6badd6d-7c01-4364-a05b-585cb882162b"},"vehicle_type_id":"4","last_reported":1744034977,"current_range_meters":12000,"station_id":"ce4bhmp2rcd13ifvqgog","pricing_plan_id":"cebpf4jnsgd1na2vs0mg"},{"bike_id":"f3e1697d-6322-4b7c-bcd9-bfaaba5adcfb","system_id":"levelo_inurba_marseille","lat":43.31995,"lon":5.38151,"is_reserved":false,"is_disabled":true,"rental_uris":{"android":"levelo://app?vid=f3e1697d-6322-4b7c-bcd9-bfaaba5adcfb","ios":"levelo://app?vid=f3e1697d-6322-4b7c-bcd9-bfaaba5adcfb"},"vehicle_type_id":"4","last_reported":1744034977,"current_range_meters":12000,"station_id":"ce4bhr12rcd13ifvqhpg","pricing_plan_id":"cebpf4jnsgd1na2vs0mg"},{"bike_id":"cc04bd1a-08e4-4179-96af-ec251ae135b2","system_id":"levelo_inurba_marseille","lat":43.2996,"lon":5.40142,"is_reserved":false,"is_disabled":false,"rental_uris":{"android":"levelo://app?vid=cc04bd1a-08e4-4179-96af-ec251ae135b2","ios":"levelo://app?vid=cc04bd1a-08e4-4179-96af-ec251ae135b2"},"vehicle_type_id":"4","last_reported":1744034977,"current_range_meters":12400,"station_id":"","pricing_plan_id":"cebpf4jnsgd1na2vs0mg"},{"bike_id":"006cc00b-8a6e-4559-ad62-40acf7f5a40b","system_id":"levelo_inurba_marseille","lat":43.3054,"lon":5.38431,"is_reserved":false,"is_disabled":false,"rental_uris":{"android":"levelo://app?vid=006cc00b-8a6e-4559-ad62-40acf7f5a40b","ios":"levelo://app?vid=006cc00b-8a6e-4559-ad62-40acf7f5a40b"},"vehicle_type_id":"4","last_reported":1744034977,"current_range_meters":12400,"station_id":"ce4bgg92rcd13ifvqb30","pricing_plan_id":"cebpf4jnsgd1na2vs0mg"},{"bike_id":"02ce3d88-5ce2-4b09-969e-0c716cee53da","system_id":"levelo_inurba_marseille","lat":43.3053,"lon":5.36558,"is_reserved":false,"is_disabled":false,"rental_uris":{"android":"levelo://app?vid=02ce3d88-5ce2-4b09-969e-0c716cee53da","ios":"levelo://app?vid=02ce3d88-5ce2-4b09-969e-0c716cee53da"},"vehicle_type_id":"4","last_reported":1744034977,"current_range_meters":12800,"station_id":"ce4bgs12rcd13ifvqcag","pricing_plan_id":"cebpf4jnsgd1na2vs0mg"},{"bike_id":"986b92f2-a331-4105-b2b7-f182d43ebeba","system_id":"levelo_inurba_marseille","lat":43.30294,"lon":5.39213,"is_reserved":false,"is_disabled":false,"rental_uris":{"android":"levelo://app?vid=986b92f2-a331-4105-b2b7-f182d43ebeba","ios":"levelo://app?vid=986b92f2-a331-4105-b2b7-f182d43ebeba"},"vehicle_type_id":"4","last_reported":1744034977,"current_range_meters":12400,"station_id":"ce4bgkh2rcd13ifvqbk0","pricing_plan_id":"cebpf4jnsgd1na2vs0mg"},{"bike_id":"4e63bc7f-b907-45ea-bc67-f61c9be2b9d6","system_id":"levelo_inurba_marseille","lat":43.29972,"lon":5.38485,"is_reserved":false,"is_disabled":true,"rental_uris":{"android":"levelo://app?vid=4e63bc7f-b907-45ea-bc67-f61c9be2b9d6","ios":"levelo://app?vid=4e63bc7f-b907-45ea-bc67-f61c9be2b9d6"},"vehicle_type_id":"4","last_reported":1744034977,"current_range_meters":12400,"station_id":"ce4bgj92rcd13ifvqbd0","pricing_plan_id":"cebpf4jnsgd1na2vs0mg"},{"bike_id":"8127a379-abcb-448e-b192-b2b588a12b57","system_id":"levelo_inurba_marseille","lat":43.25732,"lon":5.41091,"is_reserved":false,"is_disabled":false,"rental_uris":{"android":"levelo://app?vid=8127a379-abcb-448e-b192-b2b588a12b57","ios":"levelo://app?vid=8127a379-abcb-448e-b192-b2b588a12b57"},"vehicle_type_id":"4","last_reported":1744034977,"current_range_meters":12400,"station_id":"ce4bhkp2rcd13ifvqgd0","pricing_plan_id":"cebpf4jnsgd1na2vs0mg"},{"bike_id":"56fb2c91-0c55-4102-b062-cccb04491296","system_id":"levelo_inurba_marseille","lat":43.309262,"lon":5.401375,"is_reserved":false,"is_disabled":false,"rental_uris":{"android":"levelo://app?vid=56fb2c91-0c55-4102-b062-cccb04491296","ios":"levelo://app?vid=56fb2c91-0c55-4102-b062-cccb04491296"},"vehicle_type_id":"4","last_reported":1744034977,"current_range_meters":12400,"station_id":"ce4bh2h2rcd13ifvqdh0","pricing_plan_id":"cebpf4jnsgd1na2vs0mg"},{"bike_id":"6bb42352-d3ad-4a2f-9f21-9eb6cc41e5ff","system_id":"levelo_inurba_marseille","lat":43.312253,"lon":5.368686,"is_reserved":false,"is_disabled":false,"rental_uris":{"android":"levelo://app?vid=6bb42352-d3ad-4a2f-9f21-9eb6cc41e5ff","ios":"levelo://app?vid=6bb42352-d3ad-4a2f-9f21-9eb6cc41e5ff"},"vehicle_type_id":"4","last_reported":1744034977,"current_range_meters":12800,"station_id":"ce4bgl92rcd13ifvqbq0","pricing_plan_id":"cebpf4jnsgd1na2vs0mg"},{"bike_id":"94459cb6-3de5-4c4f-ae3d-b6d2b91771a1","system_id":"levelo_inurba_marseille","lat":43.28999,"lon":5.35586,"is_reserved":false,"is_disabled":false,"rental_uris":{"android":"levelo://app?vid=94459cb6-3de5-4c4f-ae3d-b6d2b91771a1","ios":"levelo://app?vid=94459cb6-3de5-4c4f-ae3d-b6d2b91771a1"},"vehicle_type_id":"4","last_reported":1744034977,"current_range_meters":12800,"station_id":"ce4bhb92rcd13ifvqen0","pricing_plan_id":"cebpf4jnsgd1na2vs0mg"},{"bike_id":"2ae53631-3ad6-42b4-b6bc-634a61acefd1","system_id":"levelo_inurba_marseille","lat":43.25121,"lon":5.40316,"is_reserved":false,"is_disabled":false,"rental_uris":{"android":"levelo://app?vid=2ae53631-3ad6-42b4-b6bc-634a61acefd1","ios":"levelo://app?vid=2ae53631-3ad6-42b4-b6bc-634a61acefd1"},"vehicle_type_id":"4","last_reported":1744034977,"current_range_meters":12800,"station_id":"ce4bhlh2rcd13ifvqgig","pricing_plan_id":"cebpf4jnsgd1na2vs0mg"},{"bike_id":"90c2aee2-21c3-41cf-a66d-db2b66bd7b08","system_id":"levelo_inurba_marseille","lat":43.26789,"lon":5.39413,"is_reserved":false,"is_disabled":false,"rental_uris":{"android":"levelo://app?vid=90c2aee2-21c3-41cf-a66d-db2b66bd7b08","ios":"levelo://app?vid=90c2aee2-21c3-41cf-a66d-db2b66bd7b08"},"vehicle_type_id":"4","last_reported":1744034977,"current_range_meters":12800,"station_id":"ce4bhh12rcd13ifvqfg0","pricing_plan_id":"cebpf4jnsgd1na2vs0mg"},{"bike_id":"257d1c02-5396-419e-a612-6a8a1704493e","system_id":"levelo_inurba_marseille","lat":43.29016,"lon":5.37543,"is_reserved":false,"is_disabled":true,"rental_uris":{"android":"levelo://app?vid=257d1c02-5396-419e-a612-6a8a1704493e","ios":"levelo://app?vid=257d1c02-5396-419e-a612-6a8a1704493e"},"vehicle_type_id":"4","last_reported":1744034977,"current_range_meters":12800,"station_id":"ce4bh692rcd13ifvqe90","pricing_plan_id":"cebpf4jnsgd1na2vs0mg"},{"bike_id":"19224d95-e048-4cbb-8884-43e0e6b3db9b","system_id":"levelo_inurba_marseille","lat":43.29858,"lon":5.3974,"is_reserved":false,"is_disabled":true,"rental_uris":{"android":"levelo://app?vid=19224d95-e048-4cbb-8884-43e0e6b3db9b","ios":"levelo://app?vid=19224d95-e048-4cbb-8884-43e0e6b3db9b"},"vehicle_type_id":"4","last_reported":1744034977,"current_range_meters":12800,"station_id":"ce4bh0h2rcd13ifvqd50","pricing_plan_id":"cebpf4jnsgd1na2vs0mg"},{"bike_id":"886cd2a0-9d6b-4b84-9289-90a246a3fa11","system_id":"levelo_inurba_marseille","lat":43.31273,"lon":5.36832,"is_reserved":false,"is_disabled":false,"rental_uris":{"android":"levelo://app?vid=886cd2a0-9d6b-4b84-9289-90a246a3fa11","ios":"levelo://app?vid=886cd2a0-9d6b-4b84-9289-90a246a3fa11"},"vehicle_type_id":"4","last_reported":1744034977,"current_range_meters":12800,"station_id":"ce4bgl92rcd13ifvqbq0","pricing_plan_id":"cebpf4jnsgd1na2vs0mg"},{"bike_id":"ed5fc82a-e7ad-4fed-947b-a5b2ae84e056","system_id":"levelo_inurba_marseille","lat":43.26194,"lon":5.37446,"is_reserved":false,"is_disabled":false,"rental_uris":{"android":"levelo://app?vid=ed5fc82a-e7ad-4fed-947b-a5b2ae84e056","ios":"levelo://app?vid=ed5fc82a-e7ad-4fed-947b-a5b2ae84e056"},"vehicle_type_id":"4","last_reported":1744034977,"current_range_meters":13600,"station_id":"ce4bhgp2rcd13ifvqfc0","pricing_plan_id":"cebpf4jnsgd1na2vs0mg"},{"bike_id":"3f3f4fd5-a405-4364-b114-6d3d993e5aa2","system_id":"levelo_inurba_marseille","lat":43.30545,"lon":5.36536,"is_reserved":false,"is_disabled":false,"rental_uris":{"android":"levelo://app?vid=3f3f4fd5-a405-4364-b114-6d3d993e5aa2","ios":"levelo://app?vid=3f3f4fd5-a405-4364-b114-6d3d993e5aa2"},"vehicle_type_id":"4","last_reported":1744034977,"current_range_meters":13600,"station_id":"ce4bgs12rcd13ifvqcag","pricing_plan_id":"cebpf4jnsgd1na2vs0mg"},{"bike_id":"82f28cf6-556c-431d-a12b-bd3ce5fc2f28","system_id":"levelo_inurba_marseille","lat":43.27503,"lon":5.37755,"is_reserved":false,"is_disabled":false,"rental_uris":{"android":"levelo://app?vid=82f28cf6-556c-431d-a12b-bd3ce5fc2f28","ios":"levelo://app?vid=82f28cf6-556c-431d-a12b-bd3ce5fc2f28"},"vehicle_type_id":"4","last_reported":1744034977,"current_range_meters":13600,"station_id":"","pricing_plan_id":"cebpf4jnsgd1na2vs0mg"},{"bike_id":"4662f2c9-aa99-4430-b56d-3b091c848158","system_id":"levelo_inurba_marseille","lat":43.26169,"lon":5.3752,"is_reserved":false,"is_disabled":false,"rental_uris":{"android":"levelo://app?vid=4662f2c9-aa99-4430-b56d-3b091c848158","ios":"levelo://app?vid=4662f2c9-aa99-4430-b56d-3b091c848158"},"vehicle_type_id":"4","last_reported":1744034977,"current_range_meters":13600,"station_id":"","pricing_plan_id":"cebpf4jnsgd1na2vs0mg"},{"bike_id":"3576b946-70b3-456f-a60a-d98e227f015c","system_id":"levelo_inurba_marseille","lat":43.30119,"lon":5.38212,"is_reserved":false,"is_disabled":false,"rental_uris":{"android":"levelo://app?vid=3576b946-70b3-456f-a60a-d98e227f015c","ios":"levelo://app?vid=3576b946-70b3-456f-a60a-d98e227f015c"},"vehicle_type_id":"4","last_reported":1744034977,"current_range_meters":13600,"station_id":"ce4bgup2rcd13ifvqcn0","pricing_plan_id":"cebpf4jnsgd1na2vs0mg"},{"bike_id":"06098088-5dcb-450a-8bf9-edb81fcbccdf","system_id":"levelo_inurba_marseille","lat":43.2962,"lon":5.37166,"is_reserved":false,"is_disabled":false,"rental_uris":{"android":"levelo://app?vid=06098088-5dcb-450a-8bf9-edb81fcbccdf","ios":"levelo://app?vid=06098088-5dcb-450a-8bf9-edb81fcbccdf"},"vehicle_type_id":"4","last_reported":1744034977,"current_range_meters":14000,"station_id":"ce4bgnh2rcd13ifvqc0g","pricing_plan_id":"cebpf4jnsgd1na2vs0mg"},{"bike_id":"ddb2a2ac-bb00-4161-9f2f-3ca20c29b015","system_id":"levelo_inurba_marseille","lat":43.25121,"lon":5.4032,"is_reserved":false,"is_disabled":false,"rental_uris":{"android":"levelo://app?vid=ddb2a2ac-bb00-4161-9f2f-3ca20c29b015","ios":"levelo://app?vid=ddb2a2ac-bb00-4161-9f2f-3ca20c29b015"},"vehicle_type_id":"4","last_reported":1744034977,"current_range_meters":14000,"station_id":"ce4bhlh2rcd13ifvqgig","pricing_plan_id":"cebpf4jnsgd1na2vs0mg"},{"bike_id":"240509e4-9366-4202-b9d5-8338d881c22c","system_id":"levelo_inurba_marseille","lat":43.27205,"lon":5.39192,"is_reserved":false,"is_disabled":false,"rental_uris":{"android":"levelo://app?vid=240509e4-9366-4202-b9d5-8338d881c22c","ios":"levelo://app?vid=240509e4-9366-4202-b9d5-8338d881c22c"},"vehicle_type_id":"4","last_reported":1744034977,"current_range_meters":14000,"station_id":"ce4bhhp2rcd13ifvqfm0","pricing_plan_id":"cebpf4jnsgd1na2vs0mg"},{"bike_id":"de98718e-5aa8-4934-8f69-7da6b3087489","system_id":"levelo_inurba_marseille","lat":43.309423,"lon":5.390433,"is_reserved":false,"is_disabled":false,"rental_uris":{"android":"levelo://app?vid=de98718e-5aa8-4934-8f69-7da6b3087489","ios":"levelo://app?vid=de98718e-5aa8-4934-8f69-7da6b3087489"},"vehicle_type_id":"4","last_reported":1744034977,"current_range_meters":14000,"station_id":"ce4bgup2rcd13ifvqco0","pricing_plan_id":"cebpf4jnsgd1na2vs0mg"},{"bike_id":"92a1d5fe-b2e8-4e3c-94aa-61e0e2abcbd9","system_id":"levelo_inurba_marseille","lat":43.30471,"lon":5.37905,"is_reserved":false,"is_disabled":false,"rental_uris":{"android":"levelo://app?vid=92a1d5fe-b2e8-4e3c-94aa-61e0e2abcbd9","ios":"levelo://app?vid=92a1d5fe-b2e8-4e3c-94aa-61e0e2abcbd9"},"vehicle_type_id":"4","last_reported":1744034977,"current_range_meters":14400,"station_id":"ce4bgup2rcd13ifvqcn0","pricing_plan_id":"cebpf4jnsgd1na2vs0mg"},{"bike_id":"f17ce36f-e80a-4732-89e2-7a7dfab19d87","system_id":"levelo_inurba_marseille","lat":43.29893,"lon":5.43644,"is_reserved":false,"is_disabled":false,"rental_uris":{"android":"levelo://app?vid=f17ce36f-e80a-4732-89e2-7a7dfab19d87","ios":"levelo://app?vid=f17ce36f-e80a-4732-89e2-7a7dfab19d87"},"vehicle_type_id":"4","last_reported":1744034977,"current_range_meters":14400,"station_id":"ce4bhpp2rcd13ifvqhfg","pricing_plan_id":"cebpf4jnsgd1na2vs0mg"},{"bike_id":"6c1d93a4-799f-4360-ae22-75d4736d2fbe","system_id":"levelo_inurba_marseille","lat":43.29416,"lon":5.38608,"is_reserved":false,"is_disabled":false,"rental_uris":{"android":"levelo://app?vid=6c1d93a4-799f-4360-ae22-75d4736d2fbe","ios":"levelo://app?vid=6c1d93a4-799f-4360-ae22-75d4736d2fbe"},"vehicle_type_id":"4","last_reported":1744034977,"current_range_meters":14400,"station_id":"ce4bh2h2rcd13ifvqdh0","pricing_plan_id":"cebpf4jnsgd1na2vs0mg"},{"bike_id":"2d5724c1-c3a3-4973-8447-ea4ccd685d7b","system_id":"levelo_inurba_marseille","lat":43.28441,"lon":5.39206,"is_reserved":false,"is_disabled":false,"rental_uris":{"android":"levelo://app?vid=2d5724c1-c3a3-4973-8447-ea4ccd685d7b","ios":"levelo://app?vid=2d5724c1-c3a3-4973-8447-ea4ccd685d7b"},"vehicle_type_id":"4","last_reported":1744034977,"current_range_meters":14400,"station_id":"ce4bhoh2rcd13ifvqh5g","pricing_plan_id":"cebpf4jnsgd1na2vs0mg"},{"bike_id":"3274ecb6-bbfb-45d2-a20f-184689810142","system_id":"levelo_inurba_marseille","lat":43.30272,"lon":5.37711,"is_reserved":false,"is_disabled":false,"rental_uris":{"android":"levelo://app?vid=3274ecb6-bbfb-45d2-a20f-184689810142","ios":"levelo://app?vid=3274ecb6-bbfb-45d2-a20f-184689810142"},"vehicle_type_id":"4","last_reported":1744034977,"current_range_meters":14400,"station_id":"ce4bguh2rcd13ifvqcj0","pricing_plan_id":"cebpf4jnsgd1na2vs0mg"},{"bike_id":"8c7e1379-c6f8-4126-a450-64198a860390","system_id":"levelo_inurba_marseille","lat":43.2962,"lon":5.37151,"is_reserved":false,"is_disabled":false,"rental_uris":{"android":"levelo://app?vid=8c7e1379-c6f8-4126-a450-64198a860390","ios":"levelo://app?vid=8c7e1379-c6f8-4126-a450-64198a860390"},"vehicle_type_id":"4","last_reported":1744034977,"current_range_meters":14400,"station_id":"ce4bgnh2rcd13ifvqc0g","pricing_plan_id":"cebpf4jnsgd1na2vs0mg"},{"bike_id":"4b9dfe05-0e60-423c-af4b-3ef6e8cad4ce","system_id":"levelo_inurba_marseille","lat":43.25119,"lon":5.40328,"is_reserved":false,"is_disabled":true,"rental_uris":{"android":"levelo://app?vid=4b9dfe05-0e60-423c-af4b-3ef6e8cad4ce","ios":"levelo://app?vid=4b9dfe05-0e60-423c-af4b-3ef6e8cad4ce"},"vehicle_type_id":"4","last_reported":1744034977,"current_range_meters":14400,"station_id":"ce4bhlh2rcd13ifvqgig","pricing_plan_id":"cebpf4jnsgd1na2vs0mg"},{"bike_id":"b366cf6c-fbd0-411a-b29e-39b85ef0e2de","system_id":"levelo_inurba_marseille","lat":43.30189,"lon":5.36619,"is_reserved":false,"is_disabled":false,"rental_uris":{"android":"levelo://app?vid=b366cf6c-fbd0-411a-b29e-39b85ef0e2de","ios":"levelo://app?vid=b366cf6c-fbd0-411a-b29e-39b85ef0e2de"},"vehicle_type_id":"4","last_reported":1744034977,"current_range_meters":14400,"station_id":"ce4bgrh2rcd13ifvqc8g","pricing_plan_id":"cebpf4jnsgd1na2vs0mg"},{"bike_id":"1d085f39-182d-4cda-bb2c-ac3d5d3220d2","system_id":"levelo_inurba_marseille","lat":43.23148,"lon":5.43738,"is_reserved":false,"is_disabled":false,"rental_uris":{"android":"levelo://app?vid=1d085f39-182d-4cda-bb2c-ac3d5d3220d2","ios":"levelo://app?vid=1d085f39-182d-4cda-bb2c-ac3d5d3220d2"},"vehicle_type_id":"4","last_reported":1744034977,"current_range_meters":14800,"station_id":"ce4bhmp2rcd13ifvqgog","pricing_plan_id":"cebpf4jnsgd1na2vs0mg"},{"bike_id":"ec7d3251-d53b-4874-b96d-6dae899b6aa1","system_id":"levelo_inurba_marseille","lat":43.27209,"lon":5.39191,"is_reserved":false,"is_disabled":true,"rental_uris":{"android":"levelo://app?vid=ec7d3251-d53b-4874-b96d-6dae899b6aa1","ios":"levelo://app?vid=ec7d3251-d53b-4874-b96d-6dae899b6aa1"},"vehicle_type_id":"4","last_reported":1744034977,"current_range_meters":14800,"station_id":"ce4bhhp2rcd13ifvqfm0","pricing_plan_id":"cebpf4jnsgd1na2vs0mg"},{"bike_id":"fb9f6b16-b64d-4eb9-b329-0548a57bc9c5","system_id":"levelo_inurba_marseille","lat":43.30087,"lon":5.39096,"is_reserved":false,"is_disabled":false,"rental_uris":{"android":"levelo://app?vid=fb9f6b16-b64d-4eb9-b329-0548a57bc9c5","ios":"levelo://app?vid=fb9f6b16-b64d-4eb9-b329-0548a57bc9c5"},"vehicle_type_id":"4","last_reported":1744034977,"current_range_meters":15200,"station_id":"ce4bh192rcd13ifvqdb0","pricing_plan_id":"cebpf4jnsgd1na2vs0mg"},{"bike_id":"d0047bb2-33f3-43f7-be8e-3f8a7bb68fcd","system_id":"levelo_inurba_marseille","lat":43.302159,"lon":5.394687,"is_reserved":false,"is_disabled":false,"rental_uris":{"android":"levelo://app?vid=d0047bb2-33f3-43f7-be8e-3f8a7bb68fcd","ios":"levelo://app?vid=d0047bb2-33f3-43f7-be8e-3f8a7bb68fcd"},"vehicle_type_id":"4","last_reported":1744034977,"current_range_meters":15200,"station_id":"ce4bh0p2rcd13ifvqd70","pricing_plan_id":"cebpf4jnsgd1na2vs0mg"},{"bike_id":"4e4d35af-4fa5-49f7-9c3d-dabae2af772b","system_id":"levelo_inurba_marseille","lat":43.26934,"lon":5.38922,"is_reserved":false,"is_disabled":false,"rental_uris":{"android":"levelo://app?vid=4e4d35af-4fa5-49f7-9c3d-dabae2af772b","ios":"levelo://app?vid=4e4d35af-4fa5-49f7-9c3d-dabae2af772b"},"vehicle_type_id":"4","last_reported":1744034977,"current_range_meters":15200,"station_id":"ce4bhhh2rcd13ifvqfl0","pricing_plan_id":"cebpf4jnsgd1na2vs0mg"},{"bike_id":"cc65c360-2c51-477e-b733-399e2ec581d2","system_id":"levelo_inurba_marseille","lat":43.27819,"lon":5.40709,"is_reserved":false,"is_disabled":false,"rental_uris":{"android":"levelo://app?vid=cc65c360-2c51-477e-b733-399e2ec581d2","ios":"levelo://app?vid=cc65c360-2c51-477e-b733-399e2ec581d2"},"vehicle_type_id":"4","last_reported":1744034977,"current_range_meters":15200,"station_id":"ce4bhnh2rcd13ifvqgtg","pricing_plan_id":"cebpf4jnsgd1na2vs0mg"},{"bike_id":"828b6a5f-a1cf-463c-a374-257c6f525bd6","system_id":"levelo_inurba_marseille","lat":43.29302,"lon":5.37469,"is_reserved":false,"is_disabled":false,"rental_uris":{"android":"levelo://app?vid=828b6a5f-a1cf-463c-a374-257c6f525bd6","ios":"levelo://app?vid=828b6a5f-a1cf-463c-a374-257c6f525bd6"},"vehicle_type_id":"4","last_reported":1744034977,"current_range_meters":15200,"station_id":"ce4bgi12rcd13ifvqb70","pricing_plan_id":"cebpf4jnsgd1na2vs0mg"},{"bike_id":"9fbc0bf8-ad47-4fcb-983b-44403751bd7d","system_id":"levelo_inurba_marseille","lat":43.26789,"lon":5.39412,"is_reserved":false,"is_disabled":false,"rental_uris":{"android":"levelo://app?vid=9fbc0bf8-ad47-4fcb-983b-44403751bd7d","ios":"levelo://app?vid=9fbc0bf8-ad47-4fcb-983b-44403751bd7d"},"vehicle_type_id":"4","last_reported":1744034977,"current_range_meters":16000,"station_id":"ce4bhh12rcd13ifvqfg0","pricing_plan_id":"cebpf4jnsgd1na2vs0mg"},{"bike_id":"0aa02c49-cbb3-4907-a588-f754056f3ba8","system_id":"levelo_inurba_marseille","lat":43.30795,"lon":5.38137,"is_reserved":false,"is_disabled":true,"rental_uris":{"android":"levelo://app?vid=0aa02c49-cbb3-4907-a588-f754056f3ba8","ios":"levelo://app?vid=0aa02c49-cbb3-4907-a588-f754056f3ba8"},"vehicle_type_id":"4","last_reported":1744034977,"current_range_meters":16000,"station_id":"ce4bgt12rcd13ifvqce0","pricing_plan_id":"cebpf4jnsgd1na2vs0mg"},{"bike_id":"140bcc9c-7a15-47b1-a546-a2322d7111c7","system_id":"levelo_inurba_marseille","lat":43.312376,"lon":5.368699,"is_reserved":false,"is_disabled":false,"rental_uris":{"android":"levelo://app?vid=140bcc9c-7a15-47b1-a546-a2322d7111c7","ios":"levelo://app?vid=140bcc9c-7a15-47b1-a546-a2322d7111c7"},"vehicle_type_id":"4","last_reported":1744034977,"current_range_meters":16000,"station_id":"ce4bgl92rcd13ifvqbq0","pricing_plan_id":"cebpf4jnsgd1na2vs0mg"},{"bike_id":"889763a9-aa13-4a71-bb0c-e1cb1d4e9045","system_id":"levelo_inurba_marseille","lat":43.30908,"lon":5.36854,"is_reserved":false,"is_disabled":false,"rental_uris":{"android":"levelo://app?vid=889763a9-aa13-4a71-bb0c-e1cb1d4e9045","ios":"levelo://app?vid=889763a9-aa13-4a71-bb0c-e1cb1d4e9045"},"vehicle_type_id":"4","last_reported":1744034977,"current_range_meters":16000,"station_id":"ce4bgn92rcd13ifvqbvg","pricing_plan_id":"cebpf4jnsgd1na2vs0mg"},{"bike_id":"baa53add-6023-4f0e-b0ce-b090301266db","system_id":"levelo_inurba_marseille","lat":43.254929,"lon":5.376472,"is_reserved":false,"is_disabled":false,"rental_uris":{"android":"levelo://app?vid=baa53add-6023-4f0e-b0ce-b090301266db","ios":"levelo://app?vid=baa53add-6023-4f0e-b0ce-b090301266db"},"vehicle_type_id":"4","last_reported":1744034977,"current_range_meters":16000,"station_id":"ce4bhh12rcd13ifvqff0","pricing_plan_id":"cebpf4jnsgd1na2vs0mg"},{"bike_id":"f99b8a11-8bff-429c-bb7a-4d599ee2107a","system_id":"levelo_inurba_marseille","lat":43.29094,"lon":5.38149,"is_reserved":false,"is_disabled":false,"rental_uris":{"android":"levelo://app?vid=f99b8a11-8bff-429c-bb7a-4d599ee2107a","ios":"levelo://app?vid=f99b8a11-8bff-429c-bb7a-4d599ee2107a"},"vehicle_type_id":"4","last_reported":1744034977,"current_range_meters":16000,"station_id":"ce4bh512rcd13ifvqe2g","pricing_plan_id":"cebpf4jnsgd1na2vs0mg"},{"bike_id":"67f9198a-5c42-4888-8679-ed9fff871b15","system_id":"levelo_inurba_marseille","lat":43.25103,"lon":5.40327,"is_reserved":false,"is_disabled":false,"rental_uris":{"android":"levelo://app?vid=67f9198a-5c42-4888-8679-ed9fff871b15","ios":"levelo://app?vid=67f9198a-5c42-4888-8679-ed9fff871b15"},"vehicle_type_id":"4","last_reported":1744034977,"current_range_meters":16000,"station_id":"ce4bhlh2rcd13ifvqgig","pricing_plan_id":"cebpf4jnsgd1na2vs0mg"},{"bike_id":"cd8e6ed4-8fbd-441d-9af3-022ebd94bc10","system_id":"levelo_inurba_marseille","lat":43.30534,"lon":5.36523,"is_reserved":false,"is_disabled":false,"rental_uris":{"android":"levelo://app?vid=cd8e6ed4-8fbd-441d-9af3-022ebd94bc10","ios":"levelo://app?vid=cd8e6ed4-8fbd-441d-9af3-022ebd94bc10"},"vehicle_type_id":"4","last_reported":1744034977,"current_range_meters":16000,"station_id":"ce4bgs12rcd13ifvqcag","pricing_plan_id":"cebpf4jnsgd1na2vs0mg"},{"bike_id":"2f0c8524-1f08-49e2-bb39-ddaa7e87c316","system_id":"levelo_inurba_marseille","lat":43.28457,"lon":5.35888,"is_reserved":false,"is_disabled":false,"rental_uris":{"android":"levelo://app?vid=2f0c8524-1f08-49e2-bb39-ddaa7e87c316","ios":"levelo://app?vid=2f0c8524-1f08-49e2-bb39-ddaa7e87c316"},"vehicle_type_id":"4","last_reported":1744034977,"current_range_meters":16000,"station_id":"ce4bhah2rcd13ifvqei0","pricing_plan_id":"cebpf4jnsgd1na2vs0mg"},{"bike_id":"85a159b7-27d1-4d22-8b19-1e63f8cd5fa7","system_id":"levelo_inurba_marseille","lat":43.30555,"lon":5.36537,"is_reserved":false,"is_disabled":false,"rental_uris":{"android":"levelo://app?vid=85a159b7-27d1-4d22-8b19-1e63f8cd5fa7","ios":"levelo://app?vid=85a159b7-27d1-4d22-8b19-1e63f8cd5fa7"},"vehicle_type_id":"4","last_reported":1744034977,"current_range_meters":16000,"station_id":"ce4bgs12rcd13ifvqcag","pricing_plan_id":"cebpf4jnsgd1na2vs0mg"},{"bike_id":"93e3fd92-d65f-4f36-ba40-a3e5476ebc87","system_id":"levelo_inurba_marseille","lat":43.30665,"lon":5.36612,"is_reserved":false,"is_disabled":false,"rental_uris":{"android":"levelo://app?vid=93e3fd92-d65f-4f36-ba40-a3e5476ebc87","ios":"levelo://app?vid=93e3fd92-d65f-4f36-ba40-a3e5476ebc87"},"vehicle_type_id":"4","last_reported":1744034977,"current_range_meters":16400,"station_id":"","pricing_plan_id":"cebpf4jnsgd1na2vs0mg"},{"bike_id":"2a5c32c7-0a26-46cc-81c7-606ad8c62b2c","system_id":"levelo_inurba_marseille","lat":43.28459,"lon":5.35893,"is_reserved":false,"is_disabled":false,"rental_uris":{"android":"levelo://app?vid=2a5c32c7-0a26-46cc-81c7-606ad8c62b2c","ios":"levelo://app?vid=2a5c32c7-0a26-46cc-81c7-606ad8c62b2c"},"vehicle_type_id":"4","last_reported":1744034977,"current_range_meters":16400,"station_id":"ce4bhah2rcd13ifvqei0","pricing_plan_id":"cebpf4jnsgd1na2vs0mg"},{"bike_id":"61cd41de-07c4-4597-a74e-0c712a9e4d87","system_id":"levelo_inurba_marseille","lat":43.229248,"lon":5.353723,"is_reserved":false,"is_disabled":true,"rental_uris":{"android":"levelo://app?vid=61cd41de-07c4-4597-a74e-0c712a9e4d87","ios":"levelo://app?vid=61cd41de-07c4-4597-a74e-0c712a9e4d87"},"vehicle_type_id":"4","last_reported":1744034977,"current_range_meters":16400,"station_id":"cpo3532slgdg3j2ikp40","pricing_plan_id":"cebpf4jnsgd1na2vs0mg"},{"bike_id":"68d1cc33-0218-451e-8e10-d32225c21263","system_id":"levelo_inurba_marseille","lat":43.23155,"lon":5.43725,"is_reserved":false,"is_disabled":true,"rental_uris":{"android":"levelo://app?vid=68d1cc33-0218-451e-8e10-d32225c21263","ios":"levelo://app?vid=68d1cc33-0218-451e-8e10-d32225c21263"},"vehicle_type_id":"4","last_reported":1744034977,"current_range_meters":16400,"station_id":"ce4bhmp2rcd13ifvqgog","pricing_plan_id":"cebpf4jnsgd1na2vs0mg"},{"bike_id":"22c9bc46-16b6-4103-8155-1d079b5aea8c","system_id":"levelo_inurba_marseille","lat":43.26501,"lon":5.3953,"is_reserved":false,"is_disabled":false,"rental_uris":{"android":"levelo://app?vid=22c9bc46-16b6-4103-8155-1d079b5aea8c","ios":"levelo://app?vid=22c9bc46-16b6-4103-8155-1d079b5aea8c"},"vehicle_type_id":"4","last_reported":1744034977,"current_range_meters":16400,"station_id":"ce4bhi12rcd13ifvqfq0","pricing_plan_id":"cebpf4jnsgd1na2vs0mg"},{"bike_id":"3e602309-c2cc-49c9-984b-ceb6bc2fb252","system_id":"levelo_inurba_marseille","lat":43.3053,"lon":5.36545,"is_reserved":false,"is_disabled":false,"rental_uris":{"android":"levelo://app?vid=3e602309-c2cc-49c9-984b-ceb6bc2fb252","ios":"levelo://app?vid=3e602309-c2cc-49c9-984b-ceb6bc2fb252"},"vehicle_type_id":"4","last_reported":1744034977,"current_range_meters":16400,"station_id":"ce4bgs12rcd13ifvqcag","pricing_plan_id":"cebpf4jnsgd1na2vs0mg"},{"bike_id":"a2b55975-55e4-4a3f-8af7-2c27ff45ed68","system_id":"levelo_inurba_marseille","lat":43.28147,"lon":5.4264,"is_reserved":false,"is_disabled":true,"rental_uris":{"android":"levelo://app?vid=a2b55975-55e4-4a3f-8af7-2c27ff45ed68","ios":"levelo://app?vid=a2b55975-55e4-4a3f-8af7-2c27ff45ed68"},"vehicle_type_id":"4","last_reported":1744034977,"current_range_meters":16800,"station_id":"ce4bhnh2rcd13ifvqgug","pricing_plan_id":"cebpf4jnsgd1na2vs0mg"},{"bike_id":"9c40b217-5619-473c-8908-4ff1499fbfe0","system_id":"levelo_inurba_marseille","lat":43.27841,"lon":5.3921,"is_reserved":false,"is_disabled":false,"rental_uris":{"android":"levelo://app?vid=9c40b217-5619-473c-8908-4ff1499fbfe0","ios":"levelo://app?vid=9c40b217-5619-473c-8908-4ff1499fbfe0"},"vehicle_type_id":"4","last_reported":1744034977,"current_range_meters":16800,"station_id":"ce4bhjp2rcd13ifvqga0","pricing_plan_id":"cebpf4jnsgd1na2vs0mg"},{"bike_id":"4e7856fd-1121-4895-ac45-838f693e5e86","system_id":"levelo_inurba_marseille","lat":43.31681,"lon":5.40477,"is_reserved":false,"is_disabled":false,"rental_uris":{"android":"levelo://app?vid=4e7856fd-1121-4895-ac45-838f693e5e86","ios":"levelo://app?vid=4e7856fd-1121-4895-ac45-838f693e5e86"},"vehicle_type_id":"4","last_reported":1744034977,"current_range_meters":16800,"station_id":"ce4bh012rcd13ifvqd00","pricing_plan_id":"cebpf4jnsgd1na2vs0mg"},{"bike_id":"9e0829d0-dc9c-45ad-978e-48b61761a490","system_id":"levelo_inurba_marseille","lat":43.3096,"lon":5.39031,"is_reserved":false,"is_disabled":false,"rental_uris":{"android":"levelo://app?vid=9e0829d0-dc9c-45ad-978e-48b61761a490","ios":"levelo://app?vid=9e0829d0-dc9c-45ad-978e-48b61761a490"},"vehicle_type_id":"4","last_reported":1744034977,"current_range_meters":16800,"station_id":"ce4bgup2rcd13ifvqco0","pricing_plan_id":"cebpf4jnsgd1na2vs0mg"},{"bike_id":"566f1454-45ce-4c4e-a9ac-dca5c1118b66","system_id":"levelo_inurba_marseille","lat":43.28491,"lon":5.3842,"is_reserved":false,"is_disabled":false,"rental_uris":{"android":"levelo://app?vid=566f1454-45ce-4c4e-a9ac-dca5c1118b66","ios":"levelo://app?vid=566f1454-45ce-4c4e-a9ac-dca5c1118b66"},"vehicle_type_id":"4","last_reported":1744034977,"current_range_meters":16800,"station_id":"ce4bh512rcd13ifvqe3g","pricing_plan_id":"cebpf4jnsgd1na2vs0mg"},{"bike_id":"2f48ec57-d212-4e94-8bdf-81b7a8f04386","system_id":"levelo_inurba_marseille","lat":43.27173,"lon":5.39194,"is_reserved":false,"is_disabled":true,"rental_uris":{"android":"levelo://app?vid=2f48ec57-d212-4e94-8bdf-81b7a8f04386","ios":"levelo://app?vid=2f48ec57-d212-4e94-8bdf-81b7a8f04386"},"vehicle_type_id":"4","last_reported":1744034977,"current_range_meters":16800,"station_id":"ce4bhhp2rcd13ifvqfm0","pricing_plan_id":"cebpf4jnsgd1na2vs0mg"},{"bike_id":"f7ca4b30-e7d0-48eb-925a-fb767126bfcd","system_id":"levelo_inurba_marseille","lat":43.32536,"lon":5.41467,"is_reserved":false,"is_disabled":false,"rental_uris":{"android":"levelo://app?vid=f7ca4b30-e7d0-48eb-925a-fb767126bfcd","ios":"levelo://app?vid=f7ca4b30-e7d0-48eb-925a-fb767126bfcd"},"vehicle_type_id":"4","last_reported":1744034977,"current_range_meters":16800,"station_id":"ce4bhq12rcd13ifvqhhg","pricing_plan_id":"cebpf4jnsgd1na2vs0mg"},{"bike_id":"351863ca-8a8c-44f1-9dd7-49fd8388172d","system_id":"levelo_inurba_marseille","lat":43.24177,"lon":5.39726,"is_reserved":false,"is_disabled":false,"rental_uris":{"android":"levelo://app?vid=351863ca-8a8c-44f1-9dd7-49fd8388172d","ios":"levelo://app?vid=351863ca-8a8c-44f1-9dd7-49fd8388172d"},"vehicle_type_id":"4","last_reported":1744034977,"current_range_meters":16800,"station_id":"ce4bhn12rcd13ifvqgpg","pricing_plan_id":"cebpf4jnsgd1na2vs0mg"},{"bike_id":"14c5945b-9f21-4257-953d-5dccdef6b204","system_id":"levelo_inurba_marseille","lat":43.30088,"lon":5.39103,"is_reserved":false,"is_disabled":false,"rental_uris":{"android":"levelo://app?vid=14c5945b-9f21-4257-953d-5dccdef6b204","ios":"levelo://app?vid=14c5945b-9f21-4257-953d-5dccdef6b204"},"vehicle_type_id":"4","last_reported":1744034977,"current_range_meters":17200,"station_id":"ce4bh192rcd13ifvqdb0","pricing_plan_id":"cebpf4jnsgd1na2vs0mg"},{"bike_id":"f1d35fdc-ea55-419c-a21d-6f6ba4df9fd9","system_id":"levelo_inurba_marseille","lat":43.2621,"lon":5.37441,"is_reserved":false,"is_disabled":false,"rental_uris":{"android":"levelo://app?vid=f1d35fdc-ea55-419c-a21d-6f6ba4df9fd9","ios":"levelo://app?vid=f1d35fdc-ea55-419c-a21d-6f6ba4df9fd9"},"vehicle_type_id":"4","last_reported":1744034977,"current_range_meters":17200,"station_id":"ce4bhgp2rcd13ifvqfc0","pricing_plan_id":"cebpf4jnsgd1na2vs0mg"},{"bike_id":"68974242-f54d-4612-9010-bea45265be43","system_id":"levelo_inurba_marseille","lat":43.29627,"lon":5.40595,"is_reserved":false,"is_disabled":false,"rental_uris":{"android":"levelo://app?vid=68974242-f54d-4612-9010-bea45265be43","ios":"levelo://app?vid=68974242-f54d-4612-9010-bea45265be43"},"vehicle_type_id":"4","last_reported":1744034977,"current_range_meters":17200,"station_id":"ce4bh0h2rcd13ifvqd60","pricing_plan_id":"cebpf4jnsgd1na2vs0mg"},{"bike_id":"15169cf8-39b6-4e4b-a6e0-6bc70655980f","system_id":"levelo_inurba_marseille","lat":43.29277,"lon":5.40111,"is_reserved":false,"is_disabled":false,"rental_uris":{"android":"levelo://app?vid=15169cf8-39b6-4e4b-a6e0-6bc70655980f","ios":"levelo://app?vid=15169cf8-39b6-4e4b-a6e0-6bc70655980f"},"vehicle_type_id":"4","last_reported":1744034977,"current_range_meters":17200,"station_id":"ce4bh312rcd13ifvqdk0","pricing_plan_id":"cebpf4jnsgd1na2vs0mg"},{"bike_id":"31caec0d-0132-4187-ac77-5de1480dbc70","system_id":"levelo_inurba_marseille","lat":43.297804,"lon":5.371114,"is_reserved":false,"is_disabled":false,"rental_uris":{"android":"levelo://app?vid=31caec0d-0132-4187-ac77-5de1480dbc70","ios":"levelo://app?vid=31caec0d-0132-4187-ac77-5de1480dbc70"},"vehicle_type_id":"4","last_reported":1744034977,"current_range_meters":17200,"station_id":"ce4bgop2rcd13ifvqc1g","pricing_plan_id":"cebpf4jnsgd1na2vs0mg"},{"bike_id":"737cf36e-6ed6-4154-baf7-0c9f340f3341","system_id":"levelo_inurba_marseille","lat":43.270582,"lon":5.402646,"is_reserved":false,"is_disabled":false,"rental_uris":{"android":"levelo://app?vid=737cf36e-6ed6-4154-baf7-0c9f340f3341","ios":"levelo://app?vid=737cf36e-6ed6-4154-baf7-0c9f340f3341"},"vehicle_type_id":"4","last_reported":1744034977,"current_range_meters":17200,"station_id":"ce4bhk92rcd13ifvqgc0","pricing_plan_id":"cebpf4jnsgd1na2vs0mg"},{"bike_id":"8f333a5d-e8da-4cda-bb41-03f7c0064f1f","system_id":"levelo_inurba_marseille","lat":43.28663,"lon":5.3635,"is_reserved":false,"is_disabled":false,"rental_uris":{"android":"levelo://app?vid=8f333a5d-e8da-4cda-bb41-03f7c0064f1f","ios":"levelo://app?vid=8f333a5d-e8da-4cda-bb41-03f7c0064f1f"},"vehicle_type_id":"4","last_reported":1744034977,"current_range_meters":17200,"station_id":"ce4bhah2rcd13ifvqej0","pricing_plan_id":"cebpf4jnsgd1na2vs0mg"},{"bike_id":"d01814b3-39f1-4bf5-905f-07c6028f7394","system_id":"levelo_inurba_marseille","lat":43.32115,"lon":5.36771,"is_reserved":false,"is_disabled":false,"rental_uris":{"android":"levelo://app?vid=d01814b3-39f1-4bf5-905f-07c6028f7394","ios":"levelo://app?vid=d01814b3-39f1-4bf5-905f-07c6028f7394"},"vehicle_type_id":"4","last_reported":1744034977,"current_range_meters":17200,"station_id":"ce4bhrh2rcd13ifvqhug","pricing_plan_id":"cebpf4jnsgd1na2vs0mg"},{"bike_id":"45d83681-f2eb-4a39-a20c-4022ba893ea0","system_id":"levelo_inurba_marseille","lat":43.33919,"lon":5.39225,"is_reserved":false,"is_disabled":false,"rental_uris":{"android":"levelo://app?vid=45d83681-f2eb-4a39-a20c-4022ba893ea0","ios":"levelo://app?vid=45d83681-f2eb-4a39-a20c-4022ba893ea0"},"vehicle_type_id":"4","last_reported":1744034977,"current_range_meters":17200,"station_id":"","pricing_plan_id":"cebpf4jnsgd1na2vs0mg"},{"bike_id":"e79c6e6f-6e69-45a1-afdc-6114d756c546","system_id":"levelo_inurba_marseille","lat":43.29276,"lon":5.40116,"is_reserved":false,"is_disabled":false,"rental_uris":{"android":"levelo://app?vid=e79c6e6f-6e69-45a1-afdc-6114d756c546","ios":"levelo://app?vid=e79c6e6f-6e69-45a1-afdc-6114d756c546"},"vehicle_type_id":"4","last_reported":1744034977,"current_range_meters":17600,"station_id":"ce4bh312rcd13ifvqdk0","pricing_plan_id":"cebpf4jnsgd1na2vs0mg"},{"bike_id":"aeba91d2-98aa-4036-81b1-0b8e63dbd882","system_id":"levelo_inurba_marseille","lat":43.25015,"lon":5.38922,"is_reserved":false,"is_disabled":false,"rental_uris":{"android":"levelo://app?vid=aeba91d2-98aa-4036-81b1-0b8e63dbd882","ios":"levelo://app?vid=aeba91d2-98aa-4036-81b1-0b8e63dbd882"},"vehicle_type_id":"4","last_reported":1744034977,"current_range_meters":17600,"station_id":"ce4bhgp2rcd13ifvqfd0","pricing_plan_id":"cebpf4jnsgd1na2vs0mg"},{"bike_id":"365a018e-b6de-4cd4-9126-985bd6ab0ef5","system_id":"levelo_inurba_marseille","lat":43.31245,"lon":5.36846,"is_reserved":false,"is_disabled":false,"rental_uris":{"android":"levelo://app?vid=365a018e-b6de-4cd4-9126-985bd6ab0ef5","ios":"levelo://app?vid=365a018e-b6de-4cd4-9126-985bd6ab0ef5"},"vehicle_type_id":"4","last_reported":1744034977,"current_range_meters":17600,"station_id":"ce4bgl92rcd13ifvqbq0","pricing_plan_id":"cebpf4jnsgd1na2vs0mg"},{"bike_id":"2648462b-7ad3-4447-9fce-7523db55d597","system_id":"levelo_inurba_marseille","lat":43.27997,"lon":5.41661,"is_reserved":false,"is_disabled":false,"rental_uris":{"android":"levelo://app?vid=2648462b-7ad3-4447-9fce-7523db55d597","ios":"levelo://app?vid=2648462b-7ad3-4447-9fce-7523db55d597"},"vehicle_type_id":"4","last_reported":1744034977,"current_range_meters":17600,"station_id":"ce4bho12rcd13ifvqh1g","pricing_plan_id":"cebpf4jnsgd1na2vs0mg"},{"bike_id":"527bcf9d-ba25-4556-8d95-0bf5a415688c","system_id":"levelo_inurba_marseille","lat":43.25937,"lon":5.40906,"is_reserved":false,"is_disabled":false,"rental_uris":{"android":"levelo://app?vid=527bcf9d-ba25-4556-8d95-0bf5a415688c","ios":"levelo://app?vid=527bcf9d-ba25-4556-8d95-0bf5a415688c"},"vehicle_type_id":"4","last_reported":1744034977,"current_range_meters":17600,"station_id":"ce4bhm92rcd13ifvqglg","pricing_plan_id":"cebpf4jnsgd1na2vs0mg"},{"bike_id":"ee8db2f4-8abb-4292-8f94-9ed577f0a85e","system_id":"levelo_inurba_marseille","lat":43.27374,"lon":5.36259,"is_reserved":false,"is_disabled":false,"rental_uris":{"android":"levelo://app?vid=ee8db2f4-8abb-4292-8f94-9ed577f0a85e","ios":"levelo://app?vid=ee8db2f4-8abb-4292-8f94-9ed577f0a85e"},"vehicle_type_id":"4","last_reported":1744034977,"current_range_meters":17600,"station_id":"ce4bhbh2rcd13ifvqeo0","pricing_plan_id":"cebpf4jnsgd1na2vs0mg"},{"bike_id":"5f9d16aa-61b1-4636-8345-61a4681dbeec","system_id":"levelo_inurba_marseille","lat":43.305428,"lon":5.365306,"is_reserved":false,"is_disabled":false,"rental_uris":{"android":"levelo://app?vid=5f9d16aa-61b1-4636-8345-61a4681dbeec","ios":"levelo://app?vid=5f9d16aa-61b1-4636-8345-61a4681dbeec"},"vehicle_type_id":"4","last_reported":1744034977,"current_range_meters":18000,"station_id":"ce4bgs12rcd13ifvqcag","pricing_plan_id":"cebpf4jnsgd1na2vs0mg"},{"bike_id":"18ae1de2-79f2-455b-b6b2-7aa5961382f4","system_id":"levelo_inurba_marseille","lat":43.302125,"lon":5.394725,"is_reserved":false,"is_disabled":false,"rental_uris":{"android":"levelo://app?vid=18ae1de2-79f2-455b-b6b2-7aa5961382f4","ios":"levelo://app?vid=18ae1de2-79f2-455b-b6b2-7aa5961382f4"},"vehicle_type_id":"4","last_reported":1744034977,"current_range_meters":18000,"station_id":"ce4bh0p2rcd13ifvqd70","pricing_plan_id":"cebpf4jnsgd1na2vs0mg"},{"bike_id":"5963202a-9c08-4e04-9f07-c30eb7aa3bbe","system_id":"levelo_inurba_marseille","lat":43.31212,"lon":5.36868,"is_reserved":false,"is_disabled":false,"rental_uris":{"android":"levelo://app?vid=5963202a-9c08-4e04-9f07-c30eb7aa3bbe","ios":"levelo://app?vid=5963202a-9c08-4e04-9f07-c30eb7aa3bbe"},"vehicle_type_id":"4","last_reported":1744034977,"current_range_meters":18000,"station_id":"ce4bgl92rcd13ifvqbq0","pricing_plan_id":"cebpf4jnsgd1na2vs0mg"},{"bike_id":"d752b5c1-fdcf-4864-9a6e-c3cb8dab3734","system_id":"levelo_inurba_marseille","lat":43.30541,"lon":5.36603,"is_reserved":false,"is_disabled":false,"rental_uris":{"android":"levelo://app?vid=d752b5c1-fdcf-4864-9a6e-c3cb8dab3734","ios":"levelo://app?vid=d752b5c1-fdcf-4864-9a6e-c3cb8dab3734"},"vehicle_type_id":"4","last_reported":1744034977,"current_range_meters":18000,"station_id":"ce4bgs12rcd13ifvqcag","pricing_plan_id":"cebpf4jnsgd1na2vs0mg"},{"bike_id":"3fdcef7f-82ac-4035-9a94-d3748a8f0516","system_id":"levelo_inurba_marseille","lat":43.29535,"lon":5.38547,"is_reserved":false,"is_disabled":false,"rental_uris":{"android":"levelo://app?vid=3fdcef7f-82ac-4035-9a94-d3748a8f0516","ios":"levelo://app?vid=3fdcef7f-82ac-4035-9a94-d3748a8f0516"},"vehicle_type_id":"4","last_reported":1744034977,"current_range_meters":18000,"station_id":"ce4bgih2rcd13ifvqba0","pricing_plan_id":"cebpf4jnsgd1na2vs0mg"},{"bike_id":"fbe27213-9351-4c47-8819-a8eeb6a2201b","system_id":"levelo_inurba_marseille","lat":43.28428,"lon":5.375,"is_reserved":false,"is_disabled":false,"rental_uris":{"android":"levelo://app?vid=fbe27213-9351-4c47-8819-a8eeb6a2201b","ios":"levelo://app?vid=fbe27213-9351-4c47-8819-a8eeb6a2201b"},"vehicle_type_id":"4","last_reported":1744034977,"current_range_meters":18000,"station_id":"ce4bh412rcd13ifvqds0","pricing_plan_id":"cebpf4jnsgd1na2vs0mg"},{"bike_id":"66783d6d-f4a4-4ee4-8754-7071fbcbb047","system_id":"levelo_inurba_marseille","lat":43.30534,"lon":5.36558,"is_reserved":false,"is_disabled":false,"rental_uris":{"android":"levelo://app?vid=66783d6d-f4a4-4ee4-8754-7071fbcbb047","ios":"levelo://app?vid=66783d6d-f4a4-4ee4-8754-7071fbcbb047"},"vehicle_type_id":"4","last_reported":1744034977,"current_range_meters":18800,"station_id":"","pricing_plan_id":"cebpf4jnsgd1na2vs0mg"},{"bike_id":"9861ac41-71b6-443b-86fd-c17680c9c37a","system_id":"levelo_inurba_marseille","lat":43.28932,"lon":5.38402,"is_reserved":false,"is_disabled":false,"rental_uris":{"android":"levelo://app?vid=9861ac41-71b6-443b-86fd-c17680c9c37a","ios":"levelo://app?vid=9861ac41-71b6-443b-86fd-c17680c9c37a"},"vehicle_type_id":"4","last_reported":1744034977,"current_range_meters":18800,"station_id":"ce4bh612rcd13ifvqe6g","pricing_plan_id":"cebpf4jnsgd1na2vs0mg"},{"bike_id":"67f5402e-84ba-4cca-bae1-1308d8bfce95","system_id":"levelo_inurba_marseille","lat":43.32355,"lon":5.36759,"is_reserved":false,"is_disabled":false,"rental_uris":{"android":"levelo://app?vid=67f5402e-84ba-4cca-bae1-1308d8bfce95","ios":"levelo://app?vid=67f5402e-84ba-4cca-bae1-1308d8bfce95"},"vehicle_type_id":"4","last_reported":1744034977,"current_range_meters":18800,"station_id":"ce4bhsh2rcd13ifvqi2g","pricing_plan_id":"cebpf4jnsgd1na2vs0mg"},{"bike_id":"d41a164c-6af8-4344-bffb-3b3c38a6d184","system_id":"levelo_inurba_marseille","lat":43.30538,"lon":5.36533,"is_reserved":false,"is_disabled":true,"rental_uris":{"android":"levelo://app?vid=d41a164c-6af8-4344-bffb-3b3c38a6d184","ios":"levelo://app?vid=d41a164c-6af8-4344-bffb-3b3c38a6d184"},"vehicle_type_id":"4","last_reported":1744034977,"current_range_meters":18800,"station_id":"ce4bgs12rcd13ifvqcag","pricing_plan_id":"cebpf4jnsgd1na2vs0mg"},{"bike_id":"e7729465-8806-4b24-9ebf-8ba2843de1b3","system_id":"levelo_inurba_marseille","lat":43.29259,"lon":5.38444,"is_reserved":false,"is_disabled":false,"rental_uris":{"android":"levelo://app?vid=e7729465-8806-4b24-9ebf-8ba2843de1b3","ios":"levelo://app?vid=e7729465-8806-4b24-9ebf-8ba2843de1b3"},"vehicle_type_id":"4","last_reported":1744034977,"current_range_meters":18800,"station_id":"ce4bh692rcd13ifvqea0","pricing_plan_id":"cebpf4jnsgd1na2vs0mg"},{"bike_id":"a997e44e-773a-4d66-b83c-0423915a7e7b","system_id":"levelo_inurba_marseille","lat":43.3265,"lon":5.41461,"is_reserved":false,"is_disabled":false,"rental_uris":{"android":"levelo://app?vid=a997e44e-773a-4d66-b83c-0423915a7e7b","ios":"levelo://app?vid=a997e44e-773a-4d66-b83c-0423915a7e7b"},"vehicle_type_id":"4","last_reported":1744034977,"current_range_meters":18800,"station_id":"ce4bhq12rcd13ifvqhhg","pricing_plan_id":"cebpf4jnsgd1na2vs0mg"},{"bike_id":"af24e20d-cd14-47b0-8e42-24aa1cee57db","system_id":"levelo_inurba_marseille","lat":43.27489,"lon":5.42444,"is_reserved":false,"is_disabled":false,"rental_uris":{"android":"levelo://app?vid=af24e20d-cd14-47b0-8e42-24aa1cee57db","ios":"levelo://app?vid=af24e20d-cd14-47b0-8e42-24aa1cee57db"},"vehicle_type_id":"4","last_reported":1744034977,"current_range_meters":18800,"station_id":"ce4bhn92rcd13ifvqgrg","pricing_plan_id":"cebpf4jnsgd1na2vs0mg"},{"bike_id":"723dc171-e4cf-423f-b7fc-71cc2ff9fdd1","system_id":"levelo_inurba_marseille","lat":43.30537,"lon":5.36709,"is_reserved":false,"is_disabled":false,"rental_uris":{"android":"levelo://app?vid=723dc171-e4cf-423f-b7fc-71cc2ff9fdd1","ios":"levelo://app?vid=723dc171-e4cf-423f-b7fc-71cc2ff9fdd1"},"vehicle_type_id":"4","last_reported":1744034977,"current_range_meters":19200,"station_id":"ce4bgrp2rcd13ifvqc9g","pricing_plan_id":"cebpf4jnsgd1na2vs0mg"},{"bike_id":"6b168bbf-2c37-442e-af25-ca2d4813f9d1","system_id":"levelo_inurba_marseille","lat":43.29419,"lon":5.38622,"is_reserved":false,"is_disabled":false,"rental_uris":{"android":"levelo://app?vid=6b168bbf-2c37-442e-af25-ca2d4813f9d1","ios":"levelo://app?vid=6b168bbf-2c37-442e-af25-ca2d4813f9d1"},"vehicle_type_id":"4","last_reported":1744034977,"current_range_meters":19200,"station_id":"ce4bh2h2rcd13ifvqdh0","pricing_plan_id":"cebpf4jnsgd1na2vs0mg"},{"bike_id":"cd43cdc7-c5e2-4f24-aab0-478f8b8d671b","system_id":"levelo_inurba_marseille","lat":43.32466,"lon":5.36574,"is_reserved":false,"is_disabled":false,"rental_uris":{"android":"levelo://app?vid=cd43cdc7-c5e2-4f24-aab0-478f8b8d671b","ios":"levelo://app?vid=cd43cdc7-c5e2-4f24-aab0-478f8b8d671b"},"vehicle_type_id":"4","last_reported":1744034977,"current_range_meters":19200,"station_id":"ce4bhs12rcd13ifvqhvg","pricing_plan_id":"cebpf4jnsgd1na2vs0mg"},{"bike_id":"a31d4f8f-790c-4692-9560-b52cede71e74","system_id":"levelo_inurba_marseille","lat":43.3091,"lon":5.36861,"is_reserved":false,"is_disabled":false,"rental_uris":{"android":"levelo://app?vid=a31d4f8f-790c-4692-9560-b52cede71e74","ios":"levelo://app?vid=a31d4f8f-790c-4692-9560-b52cede71e74"},"vehicle_type_id":"4","last_reported":1744034977,"current_range_meters":19200,"station_id":"ce4bgn92rcd13ifvqbvg","pricing_plan_id":"cebpf4jnsgd1na2vs0mg"},{"bike_id":"bc2de91d-e1f6-45e3-8cfe-38230312ef6a","system_id":"levelo_inurba_marseille","lat":43.30806,"lon":5.38154,"is_reserved":false,"is_disabled":false,"rental_uris":{"android":"levelo://app?vid=bc2de91d-e1f6-45e3-8cfe-38230312ef6a","ios":"levelo://app?vid=bc2de91d-e1f6-45e3-8cfe-38230312ef6a"},"vehicle_type_id":"4","last_reported":1744034977,"current_range_meters":19200,"station_id":"ce4bgt12rcd13ifvqce0","pricing_plan_id":"cebpf4jnsgd1na2vs0mg"},{"bike_id":"a42623f1-7d9d-4864-85d2-4a06e4d58336","system_id":"levelo_inurba_marseille","lat":43.31229,"lon":5.36863,"is_reserved":false,"is_disabled":false,"rental_uris":{"android":"levelo://app?vid=a42623f1-7d9d-4864-85d2-4a06e4d58336","ios":"levelo://app?vid=a42623f1-7d9d-4864-85d2-4a06e4d58336"},"vehicle_type_id":"4","last_reported":1744034977,"current_range_meters":19200,"station_id":"ce4bgl92rcd13ifvqbq0","pricing_plan_id":"cebpf4jnsgd1na2vs0mg"},{"bike_id":"473e0814-9744-41ad-88ac-4e3b79f01bf3","system_id":"levelo_inurba_marseille","lat":43.31217,"lon":5.36862,"is_reserved":false,"is_disabled":false,"rental_uris":{"android":"levelo://app?vid=473e0814-9744-41ad-88ac-4e3b79f01bf3","ios":"levelo://app?vid=473e0814-9744-41ad-88ac-4e3b79f01bf3"},"vehicle_type_id":"4","last_reported":1744034977,"current_range_meters":19600,"station_id":"ce4bgl92rcd13ifvqbq0","pricing_plan_id":"cebpf4jnsgd1na2vs0mg"},{"bike_id":"1ca7d0c4-b7aa-4350-ad9f-4e24c2ba029a","system_id":"levelo_inurba_marseille","lat":43.30349,"lon":5.42468,"is_reserved":false,"is_disabled":true,"rental_uris":{"android":"levelo://app?vid=1ca7d0c4-b7aa-4350-ad9f-4e24c2ba029a","ios":"levelo://app?vid=1ca7d0c4-b7aa-4350-ad9f-4e24c2ba029a"},"vehicle_type_id":"4","last_reported":1744034977,"current_range_meters":19600,"station_id":"","pricing_plan_id":"cebpf4jnsgd1na2vs0mg"},{"bike_id":"e2f79613-1ca7-434d-bacf-09897e49bc33","system_id":"levelo_inurba_marseille","lat":43.26058,"lon":5.39395,"is_reserved":false,"is_disabled":false,"rental_uris":{"android":"levelo://app?vid=e2f79613-1ca7-434d-bacf-09897e49bc33","ios":"levelo://app?vid=e2f79613-1ca7-434d-bacf-09897e49bc33"},"vehicle_type_id":"4","last_reported":1744034977,"current_range_meters":19600,"station_id":"ce4bhh92rcd13ifvqfj0","pricing_plan_id":"cebpf4jnsgd1na2vs0mg"},{"bike_id":"c4cf8064-491f-47c1-92a7-460fc3547c15","system_id":"levelo_inurba_marseille","lat":43.28077,"lon":5.3967,"is_reserved":false,"is_disabled":false,"rental_uris":{"android":"levelo://app?vid=c4cf8064-491f-47c1-92a7-460fc3547c15","ios":"levelo://app?vid=c4cf8064-491f-47c1-92a7-460fc3547c15"},"vehicle_type_id":"4","last_reported":1744034977,"current_range_meters":19600,"station_id":"ce4bho12rcd13ifvqh2g","pricing_plan_id":"cebpf4jnsgd1na2vs0mg"},{"bike_id":"7fd6ab25-e74f-4c7c-8ca8-6e7f685d3498","system_id":"levelo_inurba_marseille","lat":43.25075,"lon":5.3952,"is_reserved":false,"is_disabled":false,"rental_uris":{"android":"levelo://app?vid=7fd6ab25-e74f-4c7c-8ca8-6e7f685d3498","ios":"levelo://app?vid=7fd6ab25-e74f-4c7c-8ca8-6e7f685d3498"},"vehicle_type_id":"4","last_reported":1744034977,"current_range_meters":19600,"station_id":"ce4bhm12rcd13ifvqgkg","pricing_plan_id":"cebpf4jnsgd1na2vs0mg"},{"bike_id":"077ee2ba-06aa-4ff0-9755-bf12c495ca35","system_id":"levelo_inurba_marseille","lat":43.21752,"lon":5.34602,"is_reserved":false,"is_disabled":false,"rental_uris":{"android":"levelo://app?vid=077ee2ba-06aa-4ff0-9755-bf12c495ca35","ios":"levelo://app?vid=077ee2ba-06aa-4ff0-9755-bf12c495ca35"},