{"last_updated":1768006698,"ttl":60,"version":"2.2","data":{"bikes":[{"bike_id":"a215a59a-3cf3-428a-87ba-d7024610ac70","system_id":"levelo_inurba_marseille","lat":43.28718,"lon":5.39975,"is_reserved":false,"is_disabled":false,"rental_uris":{"android":"levelo://app?vid=a215a59a-3cf3-428a-87ba-d7024610ac70","ios":"levelo://app?vid=a215a59a-3cf3-428a-87ba-d7024610ac70"},"vehicle_type_id":"4","last_reported":1768006698,"current_range_meters":2800,"station_id":"ce4bho92rcd13ifvqh3g","pricing_plan_id":"cebpf4jnsgd1na2vs0mg"},{"bike_id":"3ad56679-b9b4-4690-81a3-16ea0c7e734a","system_id":"levelo_inurba_marseille","lat":43.308785,"lon":5.39654,"is_reserved":false,"is_disabled":false,"rental_uris":{"android":"levelo://app?vid=3ad56679-b9b4-4690-81a3-16ea0c7e734a","ios":"levelo://app?vid=3ad56679-b9b4-4690-81a3-16ea0c7e734a"},"vehicle_type_id":"4","last_reported":1768006698,"current_range_meters":2800,"station_id":"ce4bh012rcd13ifvqcv0","pricing_plan_id":"cebpf4jnsgd1na2vs0mg"},{"bike_id":"528852f0-b3e1-4361-91fd-d35d5de704d7","system_id":"levelo_inurba_marseille","lat":43.25515,"lon":5.37637,"is_reserved":false,"is_disabled":false,"rental_uris":{"android":"levelo://app?vid=528852f0-b3e1-4361-91fd-d35d5de704d7","ios":"levelo://app?vid=528852f0-b3e1-4361-91fd-d35d5de704d7"},"vehicle_type_id":"4","last_reported":1768006698,"current_range_meters":2800,"station_id":"ce4bhh12rcd13ifvqff0","pricing_plan_id":"cebpf4jnsgd1na2vs0mg"},{"bike_id":"07ce38ef-b77b-4e60-8d32-d85f5b3b47f2","system_id":"levelo_inurba_marseille","lat":43.3235,"lon":5.3674,"is_reserved":false,"is_disabled":false,"rental_uris":{"android":"levelo://app?vid=07ce38ef-b77b-4e60-8d32-d85f5b3b47f2","ios":"levelo://app?vid=07ce38ef-b77b-4e60-8d32-d85f5b3b47f2"},"vehicle_type_id":"4","last_reported":1768006698,"current_range_meters":2800,"station_id":"ce4bhsh2rcd13ifvqi2g","pricing_plan_id":"cebpf4jnsgd1na2vs0mg"},{"bike_id":"68513fb0-4842-494c-af07-70cf04b1a746","system_id":"levelo_inurba_marseille","lat":43.29647,"lon":5.378,"is_reserved":false,"is_disabled":true,"rental_uris":{"android":"levelo://app?vid=68513fb0-4842-494c-af07-70cf04b1a746","ios":"levelo://app?vid=68513fb0-4842-494c-af07-70cf04b1a746"},"vehicle_type_id":"4","last_reported":1768006698,"current_range_meters":2800,"station_id":"","pricing_plan_id":"cebpf4jnsgd1na2vs0mg"},{"bike_id":"00bf2578-c2e7-4693-bdfc-aa0da096cebc","system_id":"levelo_inurba_marseille","lat":43.2533,"lon":5.42162,"is_reserved":false,"is_disabled":false,"rental_uris":{"android":"levelo://app?vid=00bf2578-c2e7-4693-bdfc-aa0da096cebc","ios":"levelo://app?vid=00bf2578-c2e7-4693-bdfc-aa0da096cebc"},"vehicle_type_id":"4","last_reported":1768006698,"current_range_meters":2800,"station_id":"st_d2m65c5bi1j21697t3ng","pricing_plan_id":"cebpf4jnsgd1na2vs0mg"},{"bike_id":"0bb6e065-a70a-4665-ad4a-8f4905111162","system_id":"levelo_inurba_marseille","lat":43.25938,"lon":5.40892,"is_reserved":false,"is_disabled":false,"rental_uris":{"android":"levelo://app?vid=0bb6e065-a70a-4665-ad4a-8f4905111162","ios":"levelo://app?vid=0bb6e065-a70a-4665-ad4a-8f4905111162"},"vehicle_type_id":"4","last_reported":1768006698,"current_range_meters":2800,"station_id":"ce4bhm92rcd13ifvqglg","pricing_plan_id":"cebpf4jnsgd1na2vs0mg"},{"bike_id":"73311dd9-ce76-4424-880c-4c44988d4f09","system_id":"levelo_inurba_marseille","lat":43.24952,"lon":5.40499,"is_reserved":false,"is_disabled":false,"rental_uris":{"android":"levelo://app?vid=73311dd9-ce76-4424-880c-4c44988d4f09","ios":"levelo://app?vid=73311dd9-ce76-4424-880c-4c44988d4f09"},"vehicle_type_id":"4","last_reported":1768006698,"current_range_meters":2800,"station_id":"st_d2ngiaodas8pm72gd1h0","pricing_plan_id":"cebpf4jnsgd1na2vs0mg"},{"bike_id":"577b404b-63b1-4b8e-82e8-29162d5c26c7","system_id":"levelo_inurba_marseille","lat":43.3251,"lon":5.36504,"is_reserved":false,"is_disabled":false,"rental_uris":{"android":"levelo://app?vid=577b404b-63b1-4b8e-82e8-29162d5c26c7","ios":"levelo://app?vid=577b404b-63b1-4b8e-82e8-29162d5c26c7"},"vehicle_type_id":"4","last_reported":1768006698,"current_range_meters":2800,"station_id":"","pricing_plan_id":"cebpf4jnsgd1na2vs0mg"},{"bike_id":"e87775d5-5cda-4cd7-8236-ab25add9f605","system_id":"levelo_inurba_marseille","lat":43.2835,"lon":5.381023,"is_reserved":false,"is_disabled":false,"rental_uris":{"android":"levelo://app?vid=e87775d5-5cda-4cd7-8236-ab25add9f605","ios":"levelo://app?vid=e87775d5-5cda-4cd7-8236-ab25add9f605"},"vehicle_type_id":"4","last_reported":1768006698,"current_range_meters":2800,"station_id":"ce4bh412rcd13ifvqdr0","pricing_plan_id":"cebpf4jnsgd1na2vs0mg"},{"bike_id":"11385dab-e966-45da-8f53-8dee531d77b2","system_id":"levelo_inurba_marseille","lat":43.25562,"lon":5.38254,"is_reserved":false,"is_disabled":false,"rental_uris":{"android":"levelo://app?vid=11385dab-e966-45da-8f53-8dee531d77b2","ios":"levelo://app?vid=11385dab-e966-45da-8f53-8dee531d77b2"},"vehicle_type_id":"4","last_reported":1768006698,"current_range_meters":2800,"station_id":"ce4bhih2rcd13ifvqfs0","pricing_plan_id":"cebpf4jnsgd1na2vs0mg"},{"bike_id":"36c3097c-2122-4b98-a149-c16b13fb82b9","system_id":"levelo_inurba_marseille","lat":43.26063,"lon":5.39374,"is_reserved":false,"is_disabled":false,"rental_uris":{"android":"levelo://app?vid=36c3097c-2122-4b98-a149-c16b13fb82b9","ios":"levelo://app?vid=36c3097c-2122-4b98-a149-c16b13fb82b9"},"vehicle_type_id":"4","last_reported":1768006698,"current_range_meters":2800,"station_id":"ce4bhh92rcd13ifvqfj0","pricing_plan_id":"cebpf4jnsgd1na2vs0mg"},{"bike_id":"203901a8-7796-462c-b8ca-ce985701687f","system_id":"levelo_inurba_marseille","lat":43.280447,"lon":5.399277,"is_reserved":false,"is_disabled":false,"rental_uris":{"android":"levelo://app?vid=203901a8-7796-462c-b8ca-ce985701687f","ios":"levelo://app?vid=203901a8-7796-462c-b8ca-ce985701687f"},"vehicle_type_id":"4","last_reported":1768006698,"current_range_meters":2800,"station_id":"","pricing_plan_id":"cebpf4jnsgd1na2vs0mg"},{"bike_id":"e357c14c-113c-4953-a62c-a387de649c30","system_id":"levelo_inurba_marseille","lat":43.30207,"lon":5.39458,"is_reserved":false,"is_disabled":false,"rental_uris":{"android":"levelo://app?vid=e357c14c-113c-4953-a62c-a387de649c30","ios":"levelo://app?vid=e357c14c-113c-4953-a62c-a387de649c30"},"vehicle_type_id":"4","last_reported":1768006698,"current_range_meters":3200,"station_id":"ce4bh0p2rcd13ifvqd70","pricing_plan_id":"cebpf4jnsgd1na2vs0mg"},{"bike_id":"a947241a-d3af-4302-a18c-3fd572da3e9b","system_id":"levelo_inurba_marseille","lat":43.2602,"lon":5.37568,"is_reserved":false,"is_disabled":false,"rental_uris":{"android":"levelo://app?vid=a947241a-d3af-4302-a18c-3fd572da3e9b","ios":"levelo://app?vid=a947241a-d3af-4302-a18c-3fd572da3e9b"},"vehicle_type_id":"4","last_reported":1768006698,"current_range_meters":3200,"station_id":"ce4bhgh2rcd13ifvqfa0","pricing_plan_id":"cebpf4jnsgd1na2vs0mg"},{"bike_id":"afbfc22c-0163-4e0f-bc46-9fcb146cdab6","system_id":"levelo_inurba_marseille","lat":43.26945,"lon":5.40233,"is_reserved":false,"is_disabled":false,"rental_uris":{"android":"levelo://app?vid=afbfc22c-0163-4e0f-bc46-9fcb146cdab6","ios":"levelo://app?vid=afbfc22c-0163-4e0f-bc46-9fcb146cdab6"},"vehicle_type_id":"4","last_reported":1768006698,"current_range_meters":3200,"station_id":"cjm6bp8fraef2m0cb0m0","pricing_plan_id":"cebpf4jnsgd1na2vs0mg"},{"bike_id":"53cf3160-7dda-42ad-bc9b-1dee361a523c","system_id":"levelo_inurba_marseille","lat":43.26202,"lon":5.37472,"is_reserved":false,"is_disabled":false,"rental_uris":{"android":"levelo://app?vid=53cf3160-7dda-42ad-bc9b-1dee361a523c","ios":"levelo://app?vid=53cf3160-7dda-42ad-bc9b-1dee361a523c"},"vehicle_type_id":"4","last_reported":1768006698,"current_range_meters":3200,"station_id":"ce4bhgp2rcd13ifvqfc0","pricing_plan_id":"cebpf4jnsgd1na2vs0mg"},{"bike_id":"ec3093f0-4c47-4441-ab67-b085e3a7eb15","system_id":"levelo_inurba_marseille","lat":43.24682,"lon":5.38161,"is_reserved":false,"is_disabled":false,"rental_uris":{"android":"levelo://app?vid=ec3093f0-4c47-4441-ab67-b085e3a7eb15","ios":"levelo://app?vid=ec3093f0-4c47-4441-ab67-b085e3a7eb15"},"vehicle_type_id":"4","last_reported":1768006698,"current_range_meters":3200,"station_id":"ce4bhih2rcd13ifvqfr0","pricing_plan_id":"cebpf4jnsgd1na2vs0mg"},{"bike_id":"e4df723d-5713-46e5-bbd2-6513a624238e","system_id":"levelo_inurba_marseille","lat":43.26788,"lon":5.39415,"is_reserved":false,"is_disabled":true,"rental_uris":{"android":"levelo://app?vid=e4df723d-5713-46e5-bbd2-6513a624238e","ios":"levelo://app?vid=e4df723d-5713-46e5-bbd2-6513a624238e"},"vehicle_type_id":"4","last_reported":1768006698,"current_range_meters":3200,"station_id":"ce4bhh12rcd13ifvqfg0","pricing_plan_id":"cebpf4jnsgd1na2vs0mg"},{"bike_id":"52c545a6-4990-49e9-b5f1-ef579ddc71f3","system_id":"levelo_inurba_marseille","lat":43.25566,"lon":5.38231,"is_reserved":false,"is_disabled":false,"rental_uris":{"android":"levelo://app?vid=52c545a6-4990-49e9-b5f1-ef579ddc71f3","ios":"levelo://app?vid=52c545a6-4990-49e9-b5f1-ef579ddc71f3"},"vehicle_type_id":"4","last_reported":1768006698,"current_range_meters":3200,"station_id":"ce4bhih2rcd13ifvqfs0","pricing_plan_id":"cebpf4jnsgd1na2vs0mg"},{"bike_id":"e4b543e4-7198-4112-93ae-6c25b36bd4a3","system_id":"levelo_inurba_marseille","lat":43.23776,"lon":5.36632,"is_reserved":false,"is_disabled":false,"rental_uris":{"android":"levelo://app?vid=e4b543e4-7198-4112-93ae-6c25b36bd4a3","ios":"levelo://app?vid=e4b543e4-7198-4112-93ae-6c25b36bd4a3"},"vehicle_type_id":"4","last_reported":1768006698,"current_range_meters":3200,"station_id":"st_d3nk18o9ro0c73en2l3g","pricing_plan_id":"cebpf4jnsgd1na2vs0mg"},{"bike_id":"31447a0e-5f20-40ed-81c7-81b3e7eb8db6","system_id":"levelo_inurba_marseille","lat":43.31372,"lon":5.38582,"is_reserved":false,"is_disabled":false,"rental_uris":{"android":"levelo://app?vid=31447a0e-5f20-40ed-81c7-81b3e7eb8db6","ios":"levelo://app?vid=31447a0e-5f20-40ed-81c7-81b3e7eb8db6"},"vehicle_type_id":"4","last_reported":1768006698,"current_range_meters":3200,"station_id":"","pricing_plan_id":"cebpf4jnsgd1na2vs0mg"},{"bike_id":"afe7603b-8ae5-4773-9c35-715a117e2a15","system_id":"levelo_inurba_marseille","lat":43.299238,"lon":5.365437,"is_reserved":false,"is_disabled":false,"rental_uris":{"android":"levelo://app?vid=afe7603b-8ae5-4773-9c35-715a117e2a15","ios":"levelo://app?vid=afe7603b-8ae5-4773-9c35-715a117e2a15"},"vehicle_type_id":"4","last_reported":1768006698,"current_range_meters":3200,"station_id":"ce4bgm92rcd13ifvqbr0","pricing_plan_id":"cebpf4jnsgd1na2vs0mg"},{"bike_id":"c399a74d-879f-47b3-8e54-0476c2dd2dcc","system_id":"levelo_inurba_marseille","lat":43.286117,"lon":5.399019,"is_reserved":false,"is_disabled":true,"rental_uris":{"android":"levelo://app?vid=c399a74d-879f-47b3-8e54-0476c2dd2dcc","ios":"levelo://app?vid=c399a74d-879f-47b3-8e54-0476c2dd2dcc"},"vehicle_type_id":"4","last_reported":1768006698,"current_range_meters":3200,"station_id":"st_d4a7ka997mjs738ck50g","pricing_plan_id":"cebpf4jnsgd1na2vs0mg"},{"bike_id":"748e6a5e-97a9-489d-8fdc-20f62045411a","system_id":"levelo_inurba_marseille","lat":43.28896,"lon":5.39679,"is_reserved":false,"is_disabled":false,"rental_uris":{"android":"levelo://app?vid=748e6a5e-97a9-489d-8fdc-20f62045411a","ios":"levelo://app?vid=748e6a5e-97a9-489d-8fdc-20f62045411a"},"vehicle_type_id":"4","last_reported":1768006698,"current_range_meters":3200,"station_id":"","pricing_plan_id":"cebpf4jnsgd1na2vs0mg"},{"bike_id":"693222f7-c18e-4d01-9402-fefa951d9f09","system_id":"levelo_inurba_marseille","lat":43.28394,"lon":5.37496,"is_reserved":false,"is_disabled":false,"rental_uris":{"android":"levelo://app?vid=693222f7-c18e-4d01-9402-fefa951d9f09","ios":"levelo://app?vid=693222f7-c18e-4d01-9402-fefa951d9f09"},"vehicle_type_id":"4","last_reported":1768006698,"current_range_meters":3200,"station_id":"ce4bh412rcd13ifvqds0","pricing_plan_id":"cebpf4jnsgd1na2vs0mg"},{"bike_id":"9b21fb58-1ca0-4226-bc9d-2eb45c91c4c6","system_id":"levelo_inurba_marseille","lat":43.22553,"lon":5.41619,"is_reserved":false,"is_disabled":false,"rental_uris":{"android":"levelo://app?vid=9b21fb58-1ca0-4226-bc9d-2eb45c91c4c6","ios":"levelo://app?vid=9b21fb58-1ca0-4226-bc9d-2eb45c91c4c6"},"vehicle_type_id":"4","last_reported":1768006698,"current_range_meters":3200,"station_id":"st_d2o4gvlbi1j2169b742g","pricing_plan_id":"cebpf4jnsgd1na2vs0mg"},{"bike_id":"0be2933b-3376-4854-8e8b-e51b6e23ecc1","system_id":"levelo_inurba_marseille","lat":43.292265,"lon":5.360651,"is_reserved":false,"is_disabled":false,"rental_uris":{"android":"levelo://app?vid=0be2933b-3376-4854-8e8b-e51b6e23ecc1","ios":"levelo://app?vid=0be2933b-3376-4854-8e8b-e51b6e23ecc1"},"vehicle_type_id":"4","last_reported":1768006698,"current_range_meters":3600,"station_id":"ce4bhbh2rcd13ifvqeqg","pricing_plan_id":"cebpf4jnsgd1na2vs0mg"},{"bike_id":"b2a3da8f-bf56-4eb9-9359-d00614059d44","system_id":"levelo_inurba_marseille","lat":43.29063,"lon":5.38089,"is_reserved":false,"is_disabled":false,"rental_uris":{"android":"levelo://app?vid=b2a3da8f-bf56-4eb9-9359-d00614059d44","ios":"levelo://app?vid=b2a3da8f-bf56-4eb9-9359-d00614059d44"},"vehicle_type_id":"4","last_reported":1768006698,"current_range_meters":3600,"station_id":"","pricing_plan_id":"cebpf4jnsgd1na2vs0mg"},{"bike_id":"9fdd34ea-0c2a-4211-ae95-575d4112e3e7","system_id":"levelo_inurba_marseille","lat":43.31467,"lon":5.37298,"is_reserved":false,"is_disabled":false,"rental_uris":{"android":"levelo://app?vid=9fdd34ea-0c2a-4211-ae95-575d4112e3e7","ios":"levelo://app?vid=9fdd34ea-0c2a-4211-ae95-575d4112e3e7"},"vehicle_type_id":"4","last_reported":1768006698,"current_range_meters":3600,"station_id":"ce4bgt12rcd13ifvqcd0","pricing_plan_id":"cebpf4jnsgd1na2vs0mg"},{"bike_id":"6bdb1e98-0651-4f53-a59d-01b45d58ae98","system_id":"levelo_inurba_marseille","lat":43.29261,"lon":5.40895,"is_reserved":false,"is_disabled":false,"rental_uris":{"android":"levelo://app?vid=6bdb1e98-0651-4f53-a59d-01b45d58ae98","ios":"levelo://app?vid=6bdb1e98-0651-4f53-a59d-01b45d58ae98"},"vehicle_type_id":"4","last_reported":1768006698,"current_range_meters":3600,"station_id":"ce4bh192rcd13ifvqdc0","pricing_plan_id":"cebpf4jnsgd1na2vs0mg"},{"bike_id":"af340257-4078-42d0-8bd5-edfd71295dd3","system_id":"levelo_inurba_marseille","lat":43.30877,"lon":5.3965,"is_reserved":false,"is_disabled":false,"rental_uris":{"android":"levelo://app?vid=af340257-4078-42d0-8bd5-edfd71295dd3","ios":"levelo://app?vid=af340257-4078-42d0-8bd5-edfd71295dd3"},"vehicle_type_id":"4","last_reported":1768006698,"current_range_meters":3600,"station_id":"ce4bh012rcd13ifvqcv0","pricing_plan_id":"cebpf4jnsgd1na2vs0mg"},{"bike_id":"51e75024-13a9-4e45-959f-58b49884710f","system_id":"levelo_inurba_marseille","lat":43.28443,"lon":5.35861,"is_reserved":false,"is_disabled":false,"rental_uris":{"android":"levelo://app?vid=51e75024-13a9-4e45-959f-58b49884710f","ios":"levelo://app?vid=51e75024-13a9-4e45-959f-58b49884710f"},"vehicle_type_id":"4","last_reported":1768006698,"current_range_meters":3600,"station_id":"ce4bhah2rcd13ifvqei0","pricing_plan_id":"cebpf4jnsgd1na2vs0mg"},{"bike_id":"85ec619e-5ea0-4fca-a7de-dd41384f5c43","system_id":"levelo_inurba_marseille","lat":43.26556,"lon":5.37296,"is_reserved":false,"is_disabled":false,"rental_uris":{"android":"levelo://app?vid=85ec619e-5ea0-4fca-a7de-dd41384f5c43","ios":"levelo://app?vid=85ec619e-5ea0-4fca-a7de-dd41384f5c43"},"vehicle_type_id":"4","last_reported":1768006698,"current_range_meters":3600,"station_id":"ce4bhg12rcd13ifvqf70","pricing_plan_id":"cebpf4jnsgd1na2vs0mg"},{"bike_id":"d564640e-8980-4d50-9141-d01b2d41a726","system_id":"levelo_inurba_marseille","lat":43.24136,"lon":5.3644,"is_reserved":false,"is_disabled":false,"rental_uris":{"android":"levelo://app?vid=d564640e-8980-4d50-9141-d01b2d41a726","ios":"levelo://app?vid=d564640e-8980-4d50-9141-d01b2d41a726"},"vehicle_type_id":"4","last_reported":1768006698,"current_range_meters":3600,"station_id":"cpo36qri1sfpv3e86is0","pricing_plan_id":"cebpf4jnsgd1na2vs0mg"},{"bike_id":"4e41aa3b-9162-476b-82f4-857ae55d1a75","system_id":"levelo_inurba_marseille","lat":43.32359,"lon":5.36765,"is_reserved":false,"is_disabled":false,"rental_uris":{"android":"levelo://app?vid=4e41aa3b-9162-476b-82f4-857ae55d1a75","ios":"levelo://app?vid=4e41aa3b-9162-476b-82f4-857ae55d1a75"},"vehicle_type_id":"4","last_reported":1768006698,"current_range_meters":3600,"station_id":"ce4bhsh2rcd13ifvqi2g","pricing_plan_id":"cebpf4jnsgd1na2vs0mg"},{"bike_id":"cbe65856-5ba6-4124-b28a-88b800522b7f","system_id":"levelo_inurba_marseille","lat":43.25581,"lon":5.38228,"is_reserved":false,"is_disabled":false,"rental_uris":{"android":"levelo://app?vid=cbe65856-5ba6-4124-b28a-88b800522b7f","ios":"levelo://app?vid=cbe65856-5ba6-4124-b28a-88b800522b7f"},"vehicle_type_id":"4","last_reported":1768006698,"current_range_meters":3600,"station_id":"ce4bhih2rcd13ifvqfs0","pricing_plan_id":"cebpf4jnsgd1na2vs0mg"},{"bike_id":"1ef08d50-1295-4aab-90c8-d0f14942e52f","system_id":"levelo_inurba_marseille","lat":43.29582,"lon":5.39972,"is_reserved":false,"is_disabled":false,"rental_uris":{"android":"levelo://app?vid=1ef08d50-1295-4aab-90c8-d0f14942e52f","ios":"levelo://app?vid=1ef08d50-1295-4aab-90c8-d0f14942e52f"},"vehicle_type_id":"4","last_reported":1768006698,"current_range_meters":3600,"station_id":"ce4bh312rcd13ifvqdj0","pricing_plan_id":"cebpf4jnsgd1na2vs0mg"},{"bike_id":"9a84455d-66b0-4d3f-8c81-d289293761d8","system_id":"levelo_inurba_marseille","lat":43.241688,"lon":5.364018,"is_reserved":false,"is_disabled":false,"rental_uris":{"android":"levelo://app?vid=9a84455d-66b0-4d3f-8c81-d289293761d8","ios":"levelo://app?vid=9a84455d-66b0-4d3f-8c81-d289293761d8"},"vehicle_type_id":"4","last_reported":1768006698,"current_range_meters":3600,"station_id":"cpo36qri1sfpv3e86is0","pricing_plan_id":"cebpf4jnsgd1na2vs0mg"},{"bike_id":"efa4c1c5-fbe5-4c79-8d6a-2c6c123dd0f0","system_id":"levelo_inurba_marseille","lat":43.27855,"lon":5.39213,"is_reserved":false,"is_disabled":true,"rental_uris":{"android":"levelo://app?vid=efa4c1c5-fbe5-4c79-8d6a-2c6c123dd0f0","ios":"levelo://app?vid=efa4c1c5-fbe5-4c79-8d6a-2c6c123dd0f0"},"vehicle_type_id":"4","last_reported":1768006698,"current_range_meters":4000,"station_id":"ce4bhjp2rcd13ifvqga0","pricing_plan_id":"cebpf4jnsgd1na2vs0mg"},{"bike_id":"0eb5c5de-e526-4531-ad17-62b9b5ba50f9","system_id":"levelo_inurba_marseille","lat":43.231891,"lon":5.355571,"is_reserved":false,"is_disabled":false,"rental_uris":{"android":"levelo://app?vid=0eb5c5de-e526-4531-ad17-62b9b5ba50f9","ios":"levelo://app?vid=0eb5c5de-e526-4531-ad17-62b9b5ba50f9"},"vehicle_type_id":"4","last_reported":1768006698,"current_range_meters":4000,"station_id":"ce4bhu92rcd13ifvqi70","pricing_plan_id":"cebpf4jnsgd1na2vs0mg"},{"bike_id":"0e88ece3-ad23-4872-bee3-7b34b990c621","system_id":"levelo_inurba_marseille","lat":43.30273,"lon":5.37425,"is_reserved":false,"is_disabled":false,"rental_uris":{"android":"levelo://app?vid=0e88ece3-ad23-4872-bee3-7b34b990c621","ios":"levelo://app?vid=0e88ece3-ad23-4872-bee3-7b34b990c621"},"vehicle_type_id":"4","last_reported":1768006698,"current_range_meters":4000,"station_id":"","pricing_plan_id":"cebpf4jnsgd1na2vs0mg"},{"bike_id":"7f240926-2d0b-4f7b-8cab-55d0b76fd25d","system_id":"levelo_inurba_marseille","lat":43.31489,"lon":5.37277,"is_reserved":false,"is_disabled":false,"rental_uris":{"android":"levelo://app?vid=7f240926-2d0b-4f7b-8cab-55d0b76fd25d","ios":"levelo://app?vid=7f240926-2d0b-4f7b-8cab-55d0b76fd25d"},"vehicle_type_id":"4","last_reported":1768006698,"current_range_meters":4000,"station_id":"ce4bgt12rcd13ifvqcd0","pricing_plan_id":"cebpf4jnsgd1na2vs0mg"},{"bike_id":"fe1c5ba6-9dfb-49b8-9d88-1560d3b3e626","system_id":"levelo_inurba_marseille","lat":43.31168,"lon":5.38704,"is_reserved":false,"is_disabled":false,"rental_uris":{"android":"levelo://app?vid=fe1c5ba6-9dfb-49b8-9d88-1560d3b3e626","ios":"levelo://app?vid=fe1c5ba6-9dfb-49b8-9d88-1560d3b3e626"},"vehicle_type_id":"4","last_reported":1768006698,"current_range_meters":4000,"station_id":"ce4bgv12rcd13ifvqcp0","pricing_plan_id":"cebpf4jnsgd1na2vs0mg"},{"bike_id":"7a2db32e-cf3a-409e-bb36-047869209912","system_id":"levelo_inurba_marseille","lat":43.26214,"lon":5.37449,"is_reserved":false,"is_disabled":false,"rental_uris":{"android":"levelo://app?vid=7a2db32e-cf3a-409e-bb36-047869209912","ios":"levelo://app?vid=7a2db32e-cf3a-409e-bb36-047869209912"},"vehicle_type_id":"4","last_reported":1768006698,"current_range_meters":4000,"station_id":"ce4bhgp2rcd13ifvqfc0","pricing_plan_id":"cebpf4jnsgd1na2vs0mg"},{"bike_id":"c83a89ec-ead4-45e2-8b4f-13c69f631cb6","system_id":"levelo_inurba_marseille","lat":43.250213,"lon":5.389192,"is_reserved":false,"is_disabled":true,"rental_uris":{"android":"levelo://app?vid=c83a89ec-ead4-45e2-8b4f-13c69f631cb6","ios":"levelo://app?vid=c83a89ec-ead4-45e2-8b4f-13c69f631cb6"},"vehicle_type_id":"4","last_reported":1768006698,"current_range_meters":4000,"station_id":"ce4bhgp2rcd13ifvqfd0","pricing_plan_id":"cebpf4jnsgd1na2vs0mg"},{"bike_id":"2ce5425d-5b38-4acd-a6e9-bb0d6532119b","system_id":"levelo_inurba_marseille","lat":43.29908,"lon":5.43666,"is_reserved":false,"is_disabled":false,"rental_uris":{"android":"levelo://app?vid=2ce5425d-5b38-4acd-a6e9-bb0d6532119b","ios":"levelo://app?vid=2ce5425d-5b38-4acd-a6e9-bb0d6532119b"},"vehicle_type_id":"4","last_reported":1768006698,"current_range_meters":4000,"station_id":"ce4bhpp2rcd13ifvqhfg","pricing_plan_id":"cebpf4jnsgd1na2vs0mg"},{"bike_id":"0d6a9a04-1891-48de-b8dc-a5fb353d9b7e","system_id":"levelo_inurba_marseille","lat":43.28975,"lon":5.35804,"is_reserved":false,"is_disabled":false,"rental_uris":{"android":"levelo://app?vid=0d6a9a04-1891-48de-b8dc-a5fb353d9b7e","ios":"levelo://app?vid=0d6a9a04-1891-48de-b8dc-a5fb353d9b7e"},"vehicle_type_id":"4","last_reported":1768006698,"current_range_meters":4000,"station_id":"","pricing_plan_id":"cebpf4jnsgd1na2vs0mg"},{"bike_id":"2c98c6a5-f1fd-4899-8151-8c4d1f353ea6","system_id":"levelo_inurba_marseille","lat":43.30257,"lon":5.400755,"is_reserved":false,"is_disabled":false,"rental_uris":{"android":"levelo://app?vid=2c98c6a5-f1fd-4899-8151-8c4d1f353ea6","ios":"levelo://app?vid=2c98c6a5-f1fd-4899-8151-8c4d1f353ea6"},"vehicle_type_id":"4","last_reported":1768006698,"current_range_meters":4000,"station_id":"ce4bgvh2rcd13ifvqcs0","pricing_plan_id":"cebpf4jnsgd1na2vs0mg"},{"bike_id":"84be322d-3f5a-42b3-b4ff-9332fdae0ce8","system_id":"levelo_inurba_marseille","lat":43.331685,"lon":5.376967,"is_reserved":false,"is_disabled":false,"rental_uris":{"android":"levelo://app?vid=84be322d-3f5a-42b3-b4ff-9332fdae0ce8","ios":"levelo://app?vid=84be322d-3f5a-42b3-b4ff-9332fdae0ce8"},"vehicle_type_id":"4","last_reported":1768006698,"current_range_meters":4000,"station_id":"st_d46cu089ee8s73dldbu0","pricing_plan_id":"cebpf4jnsgd1na2vs0mg"},{"bike_id":"ca4c6a60-0f61-4f6d-ac20-4ded5e462329","system_id":"levelo_inurba_marseille","lat":43.29764,"lon":5.37259,"is_reserved":false,"is_disabled":false,"rental_uris":{"android":"levelo://app?vid=ca4c6a60-0f61-4f6d-ac20-4ded5e462329","ios":"levelo://app?vid=ca4c6a60-0f61-4f6d-ac20-4ded5e462329"},"vehicle_type_id":"4","last_reported":1768006698,"current_range_meters":4000,"station_id":"","pricing_plan_id":"cebpf4jnsgd1na2vs0mg"},{"bike_id":"646850c4-76a9-4310-8b82-c29cf95fd77c","system_id":"levelo_inurba_marseille","lat":43.28946,"lon":5.36399,"is_reserved":false,"is_disabled":false,"rental_uris":{"android":"levelo://app?vid=646850c4-76a9-4310-8b82-c29cf95fd77c","ios":"levelo://app?vid=646850c4-76a9-4310-8b82-c29cf95fd77c"},"vehicle_type_id":"4","last_reported":1768006698,"current_range_meters":4000,"station_id":"ce4bhc92rcd13ifvqetg","pricing_plan_id":"cebpf4jnsgd1na2vs0mg"},{"bike_id":"d5c29c18-7a27-4023-8927-8003cd0b16af","system_id":"levelo_inurba_marseille","lat":43.2617,"lon":5.37488,"is_reserved":false,"is_disabled":false,"rental_uris":{"android":"levelo://app?vid=d5c29c18-7a27-4023-8927-8003cd0b16af","ios":"levelo://app?vid=d5c29c18-7a27-4023-8927-8003cd0b16af"},"vehicle_type_id":"4","last_reported":1768006698,"current_range_meters":4000,"station_id":"ce4bhgp2rcd13ifvqfc0","pricing_plan_id":"cebpf4jnsgd1na2vs0mg"},{"bike_id":"c424fe9e-9c21-4bdd-a79f-e18c4907a967","system_id":"levelo_inurba_marseille","lat":43.30193,"lon":5.39475,"is_reserved":false,"is_disabled":false,"rental_uris":{"android":"levelo://app?vid=c424fe9e-9c21-4bdd-a79f-e18c4907a967","ios":"levelo://app?vid=c424fe9e-9c21-4bdd-a79f-e18c4907a967"},"vehicle_type_id":"4","last_reported":1768006698,"current_range_meters":4000,"station_id":"ce4bh0p2rcd13ifvqd70","pricing_plan_id":"cebpf4jnsgd1na2vs0mg"},{"bike_id":"0e7e919c-83a3-45be-90bf-dcf29db4b4ea","system_id":"levelo_inurba_marseille","lat":43.32343,"lon":5.36721,"is_reserved":false,"is_disabled":false,"rental_uris":{"android":"levelo://app?vid=0e7e919c-83a3-45be-90bf-dcf29db4b4ea","ios":"levelo://app?vid=0e7e919c-83a3-45be-90bf-dcf29db4b4ea"},"vehicle_type_id":"4","last_reported":1768006698,"current_range_meters":4400,"station_id":"ce4bhsh2rcd13ifvqi2g","pricing_plan_id":"cebpf4jnsgd1na2vs0mg"},{"bike_id":"19c90349-756f-4679-a530-ebef5565e237","system_id":"levelo_inurba_marseille","lat":43.323639,"lon":5.367473,"is_reserved":false,"is_disabled":false,"rental_uris":{"android":"levelo://app?vid=19c90349-756f-4679-a530-ebef5565e237","ios":"levelo://app?vid=19c90349-756f-4679-a530-ebef5565e237"},"vehicle_type_id":"4","last_reported":1768006698,"current_range_meters":4400,"station_id":"ce4bhsh2rcd13ifvqi2g","pricing_plan_id":"cebpf4jnsgd1na2vs0mg"},{"bike_id":"500ce305-2b9a-46a3-a579-379ae2c92155","system_id":"levelo_inurba_marseille","lat":43.29229,"lon":5.40917,"is_reserved":false,"is_disabled":false,"rental_uris":{"android":"levelo://app?vid=500ce305-2b9a-46a3-a579-379ae2c92155","ios":"levelo://app?vid=500ce305-2b9a-46a3-a579-379ae2c92155"},"vehicle_type_id":"4","last_reported":1768006698,"current_range_meters":4400,"station_id":"ce4bh192rcd13ifvqdc0","pricing_plan_id":"cebpf4jnsgd1na2vs0mg"},{"bike_id":"576ee14a-a8c8-455d-a7d2-3ffcb40cf234","system_id":"levelo_inurba_marseille","lat":43.337741,"lon":5.374793,"is_reserved":false,"is_disabled":false,"rental_uris":{"android":"levelo://app?vid=576ee14a-a8c8-455d-a7d2-3ffcb40cf234","ios":"levelo://app?vid=576ee14a-a8c8-455d-a7d2-3ffcb40cf234"},"vehicle_type_id":"4","last_reported":1768006698,"current_range_meters":4400,"station_id":"","pricing_plan_id":"cebpf4jnsgd1na2vs0mg"},{"bike_id":"f7801273-c96c-43fd-a30f-81edefa6ef2d","system_id":"levelo_inurba_marseille","lat":43.25859,"lon":5.39912,"is_reserved":false,"is_disabled":false,"rental_uris":{"android":"levelo://app?vid=f7801273-c96c-43fd-a30f-81edefa6ef2d","ios":"levelo://app?vid=f7801273-c96c-43fd-a30f-81edefa6ef2d"},"vehicle_type_id":"4","last_reported":1768006698,"current_range_meters":4400,"station_id":"ce4bhl92rcd13ifvqghg","pricing_plan_id":"cebpf4jnsgd1na2vs0mg"},{"bike_id":"94a0ffb0-3efd-45e1-8229-f2d0303bc622","system_id":"levelo_inurba_marseille","lat":43.26778,"lon":5.4034,"is_reserved":false,"is_disabled":false,"rental_uris":{"android":"levelo://app?vid=94a0ffb0-3efd-45e1-8229-f2d0303bc622","ios":"levelo://app?vid=94a0ffb0-3efd-45e1-8229-f2d0303bc622"},"vehicle_type_id":"4","last_reported":1768006698,"current_range_meters":4400,"station_id":"","pricing_plan_id":"cebpf4jnsgd1na2vs0mg"},{"bike_id":"2a0030df-4c50-443e-8acb-7dc78d6f6c82","system_id":"levelo_inurba_marseille","lat":43.290097,"lon":5.356048,"is_reserved":false,"is_disabled":false,"rental_uris":{"android":"levelo://app?vid=2a0030df-4c50-443e-8acb-7dc78d6f6c82","ios":"levelo://app?vid=2a0030df-4c50-443e-8acb-7dc78d6f6c82"},"vehicle_type_id":"4","last_reported":1768006698,"current_range_meters":4400,"station_id":"ce4bhb92rcd13ifvqen0","pricing_plan_id":"cebpf4jnsgd1na2vs0mg"},{"bike_id":"c27f5d14-cab3-4763-b92a-83ad3b0fa3d9","system_id":"levelo_inurba_marseille","lat":43.29263,"lon":5.37534,"is_reserved":false,"is_disabled":false,"rental_uris":{"android":"levelo://app?vid=c27f5d14-cab3-4763-b92a-83ad3b0fa3d9","ios":"levelo://app?vid=c27f5d14-cab3-4763-b92a-83ad3b0fa3d9"},"vehicle_type_id":"4","last_reported":1768006698,"current_range_meters":4400,"station_id":"","pricing_plan_id":"cebpf4jnsgd1na2vs0mg"},{"bike_id":"b529d055-2100-4767-ba0c-9f12cbe900c9","system_id":"levelo_inurba_marseille","lat":43.23779,"lon":5.3664,"is_reserved":false,"is_disabled":false,"rental_uris":{"android":"levelo://app?vid=b529d055-2100-4767-ba0c-9f12cbe900c9","ios":"levelo://app?vid=b529d055-2100-4767-ba0c-9f12cbe900c9"},"vehicle_type_id":"4","last_reported":1768006698,"current_range_meters":4400,"station_id":"st_d3nk18o9ro0c73en2l3g","pricing_plan_id":"cebpf4jnsgd1na2vs0mg"},{"bike_id":"2516d7d7-b641-4086-8a72-7ee655c90f66","system_id":"levelo_inurba_marseille","lat":43.29139,"lon":5.37166,"is_reserved":false,"is_disabled":false,"rental_uris":{"android":"levelo://app?vid=2516d7d7-b641-4086-8a72-7ee655c90f66","ios":"levelo://app?vid=2516d7d7-b641-4086-8a72-7ee655c90f66"},"vehicle_type_id":"4","last_reported":1768006698,"current_range_meters":4400,"station_id":"ce4bha92rcd13ifvqeh0","pricing_plan_id":"cebpf4jnsgd1na2vs0mg"},{"bike_id":"c103346d-3384-4b83-9ff8-dff851f4fdfe","system_id":"levelo_inurba_marseille","lat":43.31365,"lon":5.38045,"is_reserved":false,"is_disabled":false,"rental_uris":{"android":"levelo://app?vid=c103346d-3384-4b83-9ff8-dff851f4fdfe","ios":"levelo://app?vid=c103346d-3384-4b83-9ff8-dff851f4fdfe"},"vehicle_type_id":"4","last_reported":1768006698,"current_range_meters":4400,"station_id":"","pricing_plan_id":"cebpf4jnsgd1na2vs0mg"},{"bike_id":"61a67d5c-3c03-49eb-b785-afd5c367f8ec","system_id":"levelo_inurba_marseille","lat":43.2582,"lon":5.39446,"is_reserved":false,"is_disabled":false,"rental_uris":{"android":"levelo://app?vid=61a67d5c-3c03-49eb-b785-afd5c367f8ec","ios":"levelo://app?vid=61a67d5c-3c03-49eb-b785-afd5c367f8ec"},"vehicle_type_id":"4","last_reported":1768006698,"current_range_meters":4800,"station_id":"ce4bhip2rcd13ifvqft0","pricing_plan_id":"cebpf4jnsgd1na2vs0mg"},{"bike_id":"aa186435-cc03-4095-aab3-165e1212d005","system_id":"levelo_inurba_marseille","lat":43.32348,"lon":5.36741,"is_reserved":false,"is_disabled":false,"rental_uris":{"android":"levelo://app?vid=aa186435-cc03-4095-aab3-165e1212d005","ios":"levelo://app?vid=aa186435-cc03-4095-aab3-165e1212d005"},"vehicle_type_id":"4","last_reported":1768006698,"current_range_meters":4800,"station_id":"ce4bhsh2rcd13ifvqi2g","pricing_plan_id":"cebpf4jnsgd1na2vs0mg"},{"bike_id":"932bdde5-918a-45bf-afa9-f44b41912215","system_id":"levelo_inurba_marseille","lat":43.29876,"lon":5.39736,"is_reserved":false,"is_disabled":false,"rental_uris":{"android":"levelo://app?vid=932bdde5-918a-45bf-afa9-f44b41912215","ios":"levelo://app?vid=932bdde5-918a-45bf-afa9-f44b41912215"},"vehicle_type_id":"4","last_reported":1768006698,"current_range_meters":4800,"station_id":"ce4bh0h2rcd13ifvqd50","pricing_plan_id":"cebpf4jnsgd1na2vs0mg"},{"bike_id":"645210fa-1f8d-4358-8422-5e41d9e4b56c","system_id":"levelo_inurba_marseille","lat":43.26371,"lon":5.41058,"is_reserved":false,"is_disabled":false,"rental_uris":{"android":"levelo://app?vid=645210fa-1f8d-4358-8422-5e41d9e4b56c","ios":"levelo://app?vid=645210fa-1f8d-4358-8422-5e41d9e4b56c"},"vehicle_type_id":"4","last_reported":1768006698,"current_range_meters":4800,"station_id":"st_d4e5ca6na9uc73bfl5fg","pricing_plan_id":"cebpf4jnsgd1na2vs0mg"},{"bike_id":"18afa7e5-a060-43b9-bd3e-ab224bbb7669","system_id":"levelo_inurba_marseille","lat":43.28859,"lon":5.42521,"is_reserved":false,"is_disabled":false,"rental_uris":{"android":"levelo://app?vid=18afa7e5-a060-43b9-bd3e-ab224bbb7669","ios":"levelo://app?vid=18afa7e5-a060-43b9-bd3e-ab224bbb7669"},"vehicle_type_id":"4","last_reported":1768006698,"current_range_meters":4800,"station_id":"st_d3b462108ojc7389ooeg","pricing_plan_id":"cebpf4jnsgd1na2vs0mg"},{"bike_id":"7873a432-75ba-46ba-a34c-4dc6ef756fe4","system_id":"levelo_inurba_marseille","lat":43.31285,"lon":5.40185,"is_reserved":false,"is_disabled":false,"rental_uris":{"android":"levelo://app?vid=7873a432-75ba-46ba-a34c-4dc6ef756fe4","ios":"levelo://app?vid=7873a432-75ba-46ba-a34c-4dc6ef756fe4"},"vehicle_type_id":"4","last_reported":1768006698,"current_range_meters":4800,"station_id":"ce4bh092rcd13ifvqd30","pricing_plan_id":"cebpf4jnsgd1na2vs0mg"},{"bike_id":"dfcd32c4-56f4-4b1e-bfe2-85e324ac24fb","system_id":"levelo_inurba_marseille","lat":43.27371,"lon":5.36258,"is_reserved":false,"is_disabled":false,"rental_uris":{"android":"levelo://app?vid=dfcd32c4-56f4-4b1e-bfe2-85e324ac24fb","ios":"levelo://app?vid=dfcd32c4-56f4-4b1e-bfe2-85e324ac24fb"},"vehicle_type_id":"4","last_reported":1768006698,"current_range_meters":4800,"station_id":"ce4bhbh2rcd13ifvqeo0","pricing_plan_id":"cebpf4jnsgd1na2vs0mg"},{"bike_id":"49693813-6422-4c0b-883f-2f9444f40ff2","system_id":"levelo_inurba_marseille","lat":43.254884,"lon":5.376503,"is_reserved":false,"is_disabled":false,"rental_uris":{"android":"levelo://app?vid=49693813-6422-4c0b-883f-2f9444f40ff2","ios":"levelo://app?vid=49693813-6422-4c0b-883f-2f9444f40ff2"},"vehicle_type_id":"4","last_reported":1768006698,"current_range_meters":4800,"station_id":"ce4bhh12rcd13ifvqff0","pricing_plan_id":"cebpf4jnsgd1na2vs0mg"},{"bike_id":"38f34c0b-018a-4a87-9b2b-2105aec61656","system_id":"levelo_inurba_marseille","lat":43.2417,"lon":5.39729,"is_reserved":false,"is_disabled":false,"rental_uris":{"android":"levelo://app?vid=38f34c0b-018a-4a87-9b2b-2105aec61656","ios":"levelo://app?vid=38f34c0b-018a-4a87-9b2b-2105aec61656"},"vehicle_type_id":"4","last_reported":1768006698,"current_range_meters":4800,"station_id":"ce4bhn12rcd13ifvqgpg","pricing_plan_id":"cebpf4jnsgd1na2vs0mg"},{"bike_id":"027e0bbd-8c02-488f-85fd-304e5764166d","system_id":"levelo_inurba_marseille","lat":43.28856,"lon":5.38227,"is_reserved":false,"is_disabled":false,"rental_uris":{"android":"levelo://app?vid=027e0bbd-8c02-488f-85fd-304e5764166d","ios":"levelo://app?vid=027e0bbd-8c02-488f-85fd-304e5764166d"},"vehicle_type_id":"4","last_reported":1768006698,"current_range_meters":4800,"station_id":"","pricing_plan_id":"cebpf4jnsgd1na2vs0mg"},{"bike_id":"d495d3f4-e1c4-435d-99af-12f3f7a2674e","system_id":"levelo_inurba_marseille","lat":43.24167,"lon":5.36394,"is_reserved":false,"is_disabled":false,"rental_uris":{"android":"levelo://app?vid=d495d3f4-e1c4-435d-99af-12f3f7a2674e","ios":"levelo://app?vid=d495d3f4-e1c4-435d-99af-12f3f7a2674e"},"vehicle_type_id":"4","last_reported":1768006698,"current_range_meters":4800,"station_id":"cpo36qri1sfpv3e86is0","pricing_plan_id":"cebpf4jnsgd1na2vs0mg"},{"bike_id":"07701276-5d4f-4f62-ad0d-874e566281e0","system_id":"levelo_inurba_marseille","lat":43.30314,"lon":5.3689,"is_reserved":false,"is_disabled":false,"rental_uris":{"android":"levelo://app?vid=07701276-5d4f-4f62-ad0d-874e566281e0","ios":"levelo://app?vid=07701276-5d4f-4f62-ad0d-874e566281e0"},"vehicle_type_id":"4","last_reported":1768006698,"current_range_meters":4800,"station_id":"ce4bgqh2rcd13ifvqc5g","pricing_plan_id":"cebpf4jnsgd1na2vs0mg"},{"bike_id":"1b660a72-d44a-422a-8b10-f9f280267de1","system_id":"levelo_inurba_marseille","lat":43.29528,"lon":5.39048,"is_reserved":false,"is_disabled":false,"rental_uris":{"android":"levelo://app?vid=1b660a72-d44a-422a-8b10-f9f280267de1","ios":"levelo://app?vid=1b660a72-d44a-422a-8b10-f9f280267de1"},"vehicle_type_id":"4","last_reported":1768006698,"current_range_meters":4800,"station_id":"ce4bh3p2rcd13ifvqdp0","pricing_plan_id":"cebpf4jnsgd1na2vs0mg"},{"bike_id":"4c3bd91d-5b37-464b-8989-7f58124eb9e3","system_id":"levelo_inurba_marseille","lat":43.30244,"lon":5.37394,"is_reserved":false,"is_disabled":false,"rental_uris":{"android":"levelo://app?vid=4c3bd91d-5b37-464b-8989-7f58124eb9e3","ios":"levelo://app?vid=4c3bd91d-5b37-464b-8989-7f58124eb9e3"},"vehicle_type_id":"4","last_reported":1768006698,"current_range_meters":4800,"station_id":"","pricing_plan_id":"cebpf4jnsgd1na2vs0mg"},{"bike_id":"e48a0a1d-139d-4eae-9bc8-4eb881e00720","system_id":"levelo_inurba_marseille","lat":43.32358,"lon":5.36751,"is_reserved":false,"is_disabled":false,"rental_uris":{"android":"levelo://app?vid=e48a0a1d-139d-4eae-9bc8-4eb881e00720","ios":"levelo://app?vid=e48a0a1d-139d-4eae-9bc8-4eb881e00720"},"vehicle_type_id":"4","last_reported":1768006698,"current_range_meters":4800,"station_id":"ce4bhsh2rcd13ifvqi2g","pricing_plan_id":"cebpf4jnsgd1na2vs0mg"},{"bike_id":"0300afac-912a-4bda-b7af-7e061ba01547","system_id":"levelo_inurba_marseille","lat":43.31036,"lon":5.37186,"is_reserved":false,"is_disabled":false,"rental_uris":{"android":"levelo://app?vid=0300afac-912a-4bda-b7af-7e061ba01547","ios":"levelo://app?vid=0300afac-912a-4bda-b7af-7e061ba01547"},"vehicle_type_id":"4","last_reported":1768006698,"current_range_meters":4800,"station_id":"st_d4kl2rp97mjs73e7tdfg","pricing_plan_id":"cebpf4jnsgd1na2vs0mg"},{"bike_id":"044abb97-4928-4aba-806c-31b9269c8ba3","system_id":"levelo_inurba_marseille","lat":43.28432,"lon":5.39185,"is_reserved":false,"is_disabled":false,"rental_uris":{"android":"levelo://app?vid=044abb97-4928-4aba-806c-31b9269c8ba3","ios":"levelo://app?vid=044abb97-4928-4aba-806c-31b9269c8ba3"},"vehicle_type_id":"4","last_reported":1768006698,"current_range_meters":4800,"station_id":"ce4bhoh2rcd13ifvqh5g","pricing_plan_id":"cebpf4jnsgd1na2vs0mg"},{"bike_id":"77609f6c-a0ae-4a06-a2d6-469590bc28dc","system_id":"levelo_inurba_marseille","lat":43.29315,"lon":5.37157,"is_reserved":false,"is_disabled":false,"rental_uris":{"android":"levelo://app?vid=77609f6c-a0ae-4a06-a2d6-469590bc28dc","ios":"levelo://app?vid=77609f6c-a0ae-4a06-a2d6-469590bc28dc"},"vehicle_type_id":"4","last_reported":1768006698,"current_range_meters":5600,"station_id":"ce4bgh92rcd13ifvqb40","pricing_plan_id":"cebpf4jnsgd1na2vs0mg"},{"bike_id":"c8e24aea-453f-4d30-9492-339a817afb22","system_id":"levelo_inurba_marseille","lat":43.244065,"lon":5.370671,"is_reserved":false,"is_disabled":false,"rental_uris":{"android":"levelo://app?vid=c8e24aea-453f-4d30-9492-339a817afb22","ios":"levelo://app?vid=c8e24aea-453f-4d30-9492-339a817afb22"},"vehicle_type_id":"4","last_reported":1768006698,"current_range_meters":5600,"station_id":"ce4bhhh2rcd13ifvqfk0","pricing_plan_id":"cebpf4jnsgd1na2vs0mg"},{"bike_id":"e0338060-ce0a-4822-8d71-f2c1872544f8","system_id":"levelo_inurba_marseille","lat":43.28404,"lon":5.34979,"is_reserved":false,"is_disabled":false,"rental_uris":{"android":"levelo://app?vid=e0338060-ce0a-4822-8d71-f2c1872544f8","ios":"levelo://app?vid=e0338060-ce0a-4822-8d71-f2c1872544f8"},"vehicle_type_id":"4","last_reported":1768006698,"current_range_meters":5600,"station_id":"ce4bhbh2rcd13ifvqepg","pricing_plan_id":"cebpf4jnsgd1na2vs0mg"},{"bike_id":"e8237869-6bc1-4aff-8e00-c83ace1ecdfb","system_id":"levelo_inurba_marseille","lat":43.225335,"lon":5.348347,"is_reserved":false,"is_disabled":false,"rental_uris":{"android":"levelo://app?vid=e8237869-6bc1-4aff-8e00-c83ace1ecdfb","ios":"levelo://app?vid=e8237869-6bc1-4aff-8e00-c83ace1ecdfb"},"vehicle_type_id":"4","last_reported":1768006698,"current_range_meters":5600,"station_id":"","pricing_plan_id":"cebpf4jnsgd1na2vs0mg"},{"bike_id":"486e3358-5ad4-47dd-8cf9-949675911464","system_id":"levelo_inurba_marseille","lat":43.25585,"lon":5.38203,"is_reserved":false,"is_disabled":false,"rental_uris":{"android":"levelo://app?vid=486e3358-5ad4-47dd-8cf9-949675911464","ios":"levelo://app?vid=486e3358-5ad4-47dd-8cf9-949675911464"},"vehicle_type_id":"4","last_reported":1768006698,"current_range_meters":5600,"station_id":"ce4bhih2rcd13ifvqfs0","pricing_plan_id":"cebpf4jnsgd1na2vs0mg"},{"bike_id":"3b0c044b-cff7-4737-b3af-017df77671fe","system_id":"levelo_inurba_marseille","lat":43.27995,"lon":5.41672,"is_reserved":false,"is_disabled":false,"rental_uris":{"android":"levelo://app?vid=3b0c044b-cff7-4737-b3af-017df77671fe","ios":"levelo://app?vid=3b0c044b-cff7-4737-b3af-017df77671fe"},"vehicle_type_id":"4","last_reported":1768006698,"current_range_meters":5600,"station_id":"ce4bho12rcd13ifvqh1g","pricing_plan_id":"cebpf4jnsgd1na2vs0mg"},{"bike_id":"67b9dd9e-bb9f-4fe5-95f7-5392f2e13e32","system_id":"levelo_inurba_marseille","lat":43.29003,"lon":5.38629,"is_reserved":false,"is_disabled":false,"rental_uris":{"android":"levelo://app?vid=67b9dd9e-bb9f-4fe5-95f7-5392f2e13e32","ios":"levelo://app?vid=67b9dd9e-bb9f-4fe5-95f7-5392f2e13e32"},"vehicle_type_id":"4","last_reported":1768006698,"current_range_meters":5600,"station_id":"ce4bh4p2rcd13ifvqe0g","pricing_plan_id":"cebpf4jnsgd1na2vs0mg"},{"bike_id":"93ce2607-a763-4d17-a9c2-6cad6a0bf4ef","system_id":"levelo_inurba_marseille","lat":43.28686,"lon":5.38679,"is_reserved":false,"is_disabled":false,"rental_uris":{"android":"levelo://app?vid=93ce2607-a763-4d17-a9c2-6cad6a0bf4ef","ios":"levelo://app?vid=93ce2607-a763-4d17-a9c2-6cad6a0bf4ef"},"vehicle_type_id":"4","last_reported":1768006698,"current_range_meters":5600,"station_id":"ce4bh492rcd13ifvqdug","pricing_plan_id":"cebpf4jnsgd1na2vs0mg"},{"bike_id":"262a8fec-bd27-46e9-aad8-6268adcdc681","system_id":"levelo_inurba_marseille","lat":43.212,"lon":5.35082,"is_reserved":false,"is_disabled":false,"rental_uris":{"android":"levelo://app?vid=262a8fec-bd27-46e9-aad8-6268adcdc681","ios":"levelo://app?vid=262a8fec-bd27-46e9-aad8-6268adcdc681"},"vehicle_type_id":"4","last_reported":1768006698,"current_range_meters":5600,"station_id":"st_cvj6sg6p6f1abm77japg","pricing_plan_id":"cebpf4jnsgd1na2vs0mg"},{"bike_id":"002cfa58-ee9a-4741-b4a8-900c11b34678","system_id":"levelo_inurba_marseille","lat":43.28484,"lon":5.38429,"is_reserved":false,"is_disabled":false,"rental_uris":{"android":"levelo://app?vid=002cfa58-ee9a-4741-b4a8-900c11b34678","ios":"levelo://app?vid=002cfa58-ee9a-4741-b4a8-900c11b34678"},"vehicle_type_id":"4","last_reported":1768006698,"current_range_meters":5600,"station_id":"ce4bh512rcd13ifvqe3g","pricing_plan_id":"cebpf4jnsgd1na2vs0mg"},{"bike_id":"f58d6f7b-cbb0-4399-a343-55040a73d9f6","system_id":"levelo_inurba_marseille","lat":43.25338,"lon":5.42155,"is_reserved":false,"is_disabled":false,"rental_uris":{"android":"levelo://app?vid=f58d6f7b-cbb0-4399-a343-55040a73d9f6","ios":"levelo://app?vid=f58d6f7b-cbb0-4399-a343-55040a73d9f6"},"vehicle_type_id":"4","last_reported":1768006698,"current_range_meters":5600,"station_id":"st_d2m65c5bi1j21697t3ng","pricing_plan_id":"cebpf4jnsgd1na2vs0mg"},{"bike_id":"d5b11fb8-6192-47fb-aadc-4bb75715f25d","system_id":"levelo_inurba_marseille","lat":43.26952,"lon":5.39835,"is_reserved":false,"is_disabled":false,"rental_uris":{"android":"levelo://app?vid=d5b11fb8-6192-47fb-aadc-4bb75715f25d","ios":"levelo://app?vid=d5b11fb8-6192-47fb-aadc-4bb75715f25d"},"vehicle_type_id":"4","last_reported":1768006698,"current_range_meters":5600,"station_id":"","pricing_plan_id":"cebpf4jnsgd1na2vs0mg"},{"bike_id":"04742994-af96-4c6b-b407-de45538bd09b","system_id":"levelo_inurba_marseille","lat":43.28238,"lon":5.43055,"is_reserved":false,"is_disabled":false,"rental_uris":{"android":"levelo://app?vid=04742994-af96-4c6b-b407-de45538bd09b","ios":"levelo://app?vid=04742994-af96-4c6b-b407-de45538bd09b"},"vehicle_type_id":"4","last_reported":1768006698,"current_range_meters":5600,"station_id":"","pricing_plan_id":"cebpf4jnsgd1na2vs0mg"},{"bike_id":"d62b1dd7-04ea-48f5-a204-d6921ceaf13e","system_id":"levelo_inurba_marseille","lat":43.24165,"lon":5.36392,"is_reserved":false,"is_disabled":false,"rental_uris":{"android":"levelo://app?vid=d62b1dd7-04ea-48f5-a204-d6921ceaf13e","ios":"levelo://app?vid=d62b1dd7-04ea-48f5-a204-d6921ceaf13e"},"vehicle_type_id":"4","last_reported":1768006698,"current_range_meters":5600,"station_id":"cpo36qri1sfpv3e86is0","pricing_plan_id":"cebpf4jnsgd1na2vs0mg"},{"bike_id":"4e9846d2-24e1-4e1b-98f3-9ea1c41ada4f","system_id":"levelo_inurba_marseille","lat":43.295296,"lon":5.385395,"is_reserved":false,"is_disabled":false,"rental_uris":{"android":"levelo://app?vid=4e9846d2-24e1-4e1b-98f3-9ea1c41ada4f","ios":"levelo://app?vid=4e9846d2-24e1-4e1b-98f3-9ea1c41ada4f"},"vehicle_type_id":"4","last_reported":1768006698,"current_range_meters":5600,"station_id":"ce4bgih2rcd13ifvqba0","pricing_plan_id":"cebpf4jnsgd1na2vs0mg"},{"bike_id":"d849dd67-6c6c-49ff-8890-cba8f9d66595","system_id":"levelo_inurba_marseille","lat":43.24832,"lon":5.37449,"is_reserved":false,"is_disabled":false,"rental_uris":{"android":"levelo://app?vid=d849dd67-6c6c-49ff-8890-cba8f9d66595","ios":"levelo://app?vid=d849dd67-6c6c-49ff-8890-cba8f9d66595"},"vehicle_type_id":"4","last_reported":1768006698,"current_range_meters":5600,"station_id":"ce4bhgh2rcd13ifvqfb0","pricing_plan_id":"cebpf4jnsgd1na2vs0mg"},{"bike_id":"7d50baf1-e702-4bc4-8ad1-ca576e44cfe3","system_id":"levelo_inurba_marseille","lat":43.24643,"lon":5.43151,"is_reserved":false,"is_disabled":false,"rental_uris":{"android":"levelo://app?vid=7d50baf1-e702-4bc4-8ad1-ca576e44cfe3","ios":"levelo://app?vid=7d50baf1-e702-4bc4-8ad1-ca576e44cfe3"},"vehicle_type_id":"4","last_reported":1768006698,"current_range_meters":5600,"station_id":"st_d2m6c4gdas8pm72e190g","pricing_plan_id":"cebpf4jnsgd1na2vs0mg"},{"bike_id":"3dca468e-6ec0-49db-ae60-bf6cea9fdd64","system_id":"levelo_inurba_marseille","lat":43.32559,"lon":5.41429,"is_reserved":false,"is_disabled":false,"rental_uris":{"android":"levelo://app?vid=3dca468e-6ec0-49db-ae60-bf6cea9fdd64","ios":"levelo://app?vid=3dca468e-6ec0-49db-ae60-bf6cea9fdd64"},"vehicle_type_id":"4","last_reported":1768006698,"current_range_meters":5600,"station_id":"ce4bhq12rcd13ifvqhhg","pricing_plan_id":"cebpf4jnsgd1na2vs0mg"},{"bike_id":"569b0032-d7de-4ef5-ac08-24b2ac42db20","system_id":"levelo_inurba_marseille","lat":43.26542,"lon":5.3729,"is_reserved":false,"is_disabled":false,"rental_uris":{"android":"levelo://app?vid=569b0032-d7de-4ef5-ac08-24b2ac42db20","ios":"levelo://app?vid=569b0032-d7de-4ef5-ac08-24b2ac42db20"},"vehicle_type_id":"4","last_reported":1768006698,"current_range_meters":6000,"station_id":"ce4bhg12rcd13ifvqf70","pricing_plan_id":"cebpf4jnsgd1na2vs0mg"},{"bike_id":"e75e2c3e-d799-431c-b611-47c8636c7eba","system_id":"levelo_inurba_marseille","lat":43.30968,"lon":5.38642,"is_reserved":false,"is_disabled":false,"rental_uris":{"android":"levelo://app?vid=e75e2c3e-d799-431c-b611-47c8636c7eba","ios":"levelo://app?vid=e75e2c3e-d799-431c-b611-47c8636c7eba"},"vehicle_type_id":"4","last_reported":1768006698,"current_range_meters":6000,"station_id":"","pricing_plan_id":"cebpf4jnsgd1na2vs0mg"},{"bike_id":"bd78d29c-c760-450d-bc73-3e8bb1aa3e1f","system_id":"levelo_inurba_marseille","lat":43.32362,"lon":5.36725,"is_reserved":false,"is_disabled":false,"rental_uris":{"android":"levelo://app?vid=bd78d29c-c760-450d-bc73-3e8bb1aa3e1f","ios":"levelo://app?vid=bd78d29c-c760-450d-bc73-3e8bb1aa3e1f"},"vehicle_type_id":"4","last_reported":1768006698,"current_range_meters":6000,"station_id":"ce4bhsh2rcd13ifvqi2g","pricing_plan_id":"cebpf4jnsgd1na2vs0mg"},{"bike_id":"b64e452a-bec0-47a7-9fd3-b6c2486866f5","system_id":"levelo_inurba_marseille","lat":43.28469,"lon":5.48407,"is_reserved":false,"is_disabled":false,"rental_uris":{"android":"levelo://app?vid=b64e452a-bec0-47a7-9fd3-b6c2486866f5","ios":"levelo://app?vid=b64e452a-bec0-47a7-9fd3-b6c2486866f5"},"vehicle_type_id":"4","last_reported":1768006698,"current_range_meters":6000,"station_id":"","pricing_plan_id":"cebpf4jnsgd1na2vs0mg"},{"bike_id":"ed27761f-ddf8-4ca6-ad7f-042a477fd7ea","system_id":"levelo_inurba_marseille","lat":43.29449,"lon":5.37408,"is_reserved":false,"is_disabled":false,"rental_uris":{"android":"levelo://app?vid=ed27761f-ddf8-4ca6-ad7f-042a477fd7ea","ios":"levelo://app?vid=ed27761f-ddf8-4ca6-ad7f-042a477fd7ea"},"vehicle_type_id":"4","last_reported":1768006698,"current_range_meters":6000,"station_id":"","pricing_plan_id":"cebpf4jnsgd1na2vs0mg"},{"bike_id":"acf9b465-5657-433f-abd2-b0a7dddb60bc","system_id":"levelo_inurba_marseille","lat":43.26537,"lon":5.373,"is_reserved":false,"is_disabled":false,"rental_uris":{"android":"levelo://app?vid=acf9b465-5657-433f-abd2-b0a7dddb60bc","ios":"levelo://app?vid=acf9b465-5657-433f-abd2-b0a7dddb60bc"},"vehicle_type_id":"4","last_reported":1768006698,"current_range_meters":6000,"station_id":"ce4bhg12rcd13ifvqf70","pricing_plan_id":"cebpf4jnsgd1na2vs0mg"},{"bike_id":"d0c5aa26-d77a-4047-bf56-c6c68bc7105d","system_id":"levelo_inurba_marseille","lat":43.32113,"lon":5.36767,"is_reserved":false,"is_disabled":false,"rental_uris":{"android":"levelo://app?vid=d0c5aa26-d77a-4047-bf56-c6c68bc7105d","ios":"levelo://app?vid=d0c5aa26-d77a-4047-bf56-c6c68bc7105d"},"vehicle_type_id":"4","last_reported":1768006698,"current_range_meters":6000,"station_id":"ce4bhrh2rcd13ifvqhug","pricing_plan_id":"cebpf4jnsgd1na2vs0mg"},{"bike_id":"6fad9ca1-61fd-4cab-8c8e-75dda08e921f","system_id":"levelo_inurba_marseille","lat":43.31939,"lon":5.37337,"is_reserved":false,"is_disabled":false,"rental_uris":{"android":"levelo://app?vid=6fad9ca1-61fd-4cab-8c8e-75dda08e921f","ios":"levelo://app?vid=6fad9ca1-61fd-4cab-8c8e-75dda08e921f"},"vehicle_type_id":"4","last_reported":1768006698,"current_range_meters":6000,"station_id":"","pricing_plan_id":"cebpf4jnsgd1na2vs0mg"},{"bike_id":"7a59dc88-c855-4639-92cb-3517efabcf0b","system_id":"levelo_inurba_marseille","lat":43.237825,"lon":5.36634,"is_reserved":false,"is_disabled":false,"rental_uris":{"android":"levelo://app?vid=7a59dc88-c855-4639-92cb-3517efabcf0b","ios":"levelo://app?vid=7a59dc88-c855-4639-92cb-3517efabcf0b"},"vehicle_type_id":"4","last_reported":1768006698,"current_range_meters":6000,"station_id":"st_d3nk18o9ro0c73en2l3g","pricing_plan_id":"cebpf4jnsgd1na2vs0mg"},{"bike_id":"db3e228c-00d6-4d78-8f82-b7c128d3aff3","system_id":"levelo_inurba_marseille","lat":43.29545,"lon":5.37512,"is_reserved":false,"is_disabled":false,"rental_uris":{"android":"levelo://app?vid=db3e228c-00d6-4d78-8f82-b7c128d3aff3","ios":"levelo://app?vid=db3e228c-00d6-4d78-8f82-b7c128d3aff3"},"vehicle_type_id":"4","last_reported":1768006698,"current_range_meters":6000,"station_id":"ce4bgkp2rcd13ifvqbmg","pricing_plan_id":"cebpf4jnsgd1na2vs0mg"},{"bike_id":"4441289c-4ef4-4ca7-9070-afae9668e7bd","system_id":"levelo_inurba_marseille","lat":43.309292,"lon":5.40137,"is_reserved":false,"is_disabled":false,"rental_uris":{"android":"levelo://app?vid=4441289c-4ef4-4ca7-9070-afae9668e7bd","ios":"levelo://app?vid=4441289c-4ef4-4ca7-9070-afae9668e7bd"},"vehicle_type_id":"4","last_reported":1768006698,"current_range_meters":6000,"station_id":"ce4bgvp2rcd13ifvqct0","pricing_plan_id":"cebpf4jnsgd1na2vs0mg"},{"bike_id":"9b076845-e1e8-4752-b386-b5def7863454","system_id":"levelo_inurba_marseille","lat":43.2958,"lon":5.39977,"is_reserved":false,"is_disabled":false,"rental_uris":{"android":"levelo://app?vid=9b076845-e1e8-4752-b386-b5def7863454","ios":"levelo://app?vid=9b076845-e1e8-4752-b386-b5def7863454"},"vehicle_type_id":"4","last_reported":1768006698,"current_range_meters":6000,"station_id":"ce4bh312rcd13ifvqdj0","pricing_plan_id":"cebpf4jnsgd1na2vs0mg"},{"bike_id":"7556ec87-ee82-453f-8a43-79b64208618a","system_id":"levelo_inurba_marseille","lat":43.21195,"lon":5.35068,"is_reserved":false,"is_disabled":false,"rental_uris":{"android":"levelo://app?vid=7556ec87-ee82-453f-8a43-79b64208618a","ios":"levelo://app?vid=7556ec87-ee82-453f-8a43-79b64208618a"},"vehicle_type_id":"4","last_reported":1768006698,"current_range_meters":6000,"station_id":"st_cvj6sg6p6f1abm77japg","pricing_plan_id":"cebpf4jnsgd1na2vs0mg"},{"bike_id":"d0d265a1-c3bd-4d94-b629-d97e8755c4d9","system_id":"levelo_inurba_marseille","lat":43.27192,"lon":5.40978,"is_reserved":false,"is_disabled":false,"rental_uris":{"android":"levelo://app?vid=d0d265a1-c3bd-4d94-b629-d97e8755c4d9","ios":"levelo://app?vid=d0d265a1-c3bd-4d94-b629-d97e8755c4d9"},"vehicle_type_id":"4","last_reported":1768006698,"current_range_meters":6000,"station_id":"ce4bhl12rcd13ifvqgf0","pricing_plan_id":"cebpf4jnsgd1na2vs0mg"},{"bike_id":"e78923fd-61c1-423d-b508-7e6a481c6dfb","system_id":"levelo_inurba_marseille","lat":43.26238,"lon":5.40461,"is_reserved":false,"is_disabled":false,"rental_uris":{"android":"levelo://app?vid=e78923fd-61c1-423d-b508-7e6a481c6dfb","ios":"levelo://app?vid=e78923fd-61c1-423d-b508-7e6a481c6dfb"},"vehicle_type_id":"4","last_reported":1768006698,"current_range_meters":6000,"station_id":"ce4bhmh2rcd13ifvqgmg","pricing_plan_id":"cebpf4jnsgd1na2vs0mg"},{"bike_id":"8b697a24-51a2-452a-93c9-5c0c040134d0","system_id":"levelo_inurba_marseille","lat":43.32221,"lon":5.39441,"is_reserved":false,"is_disabled":false,"rental_uris":{"android":"levelo://app?vid=8b697a24-51a2-452a-93c9-5c0c040134d0","ios":"levelo://app?vid=8b697a24-51a2-452a-93c9-5c0c040134d0"},"vehicle_type_id":"4","last_reported":1768006698,"current_range_meters":6000,"station_id":"","pricing_plan_id":"cebpf4jnsgd1na2vs0mg"},{"bike_id":"07429402-0d1d-4ec3-8e1e-7f0c93177e43","system_id":"levelo_inurba_marseille","lat":43.24816,"lon":5.3746,"is_reserved":false,"is_disabled":false,"rental_uris":{"android":"levelo://app?vid=07429402-0d1d-4ec3-8e1e-7f0c93177e43","ios":"levelo://app?vid=07429402-0d1d-4ec3-8e1e-7f0c93177e43"},"vehicle_type_id":"4","last_reported":1768006698,"current_range_meters":6000,"station_id":"ce4bhgh2rcd13ifvqfb0","pricing_plan_id":"cebpf4jnsgd1na2vs0mg"},{"bike_id":"7b122468-a21e-4032-904d-147eb0f3f6d4","system_id":"levelo_inurba_marseille","lat":43.33147,"lon":5.38136,"is_reserved":false,"is_disabled":false,"rental_uris":{"android":"levelo://app?vid=7b122468-a21e-4032-904d-147eb0f3f6d4","ios":"levelo://app?vid=7b122468-a21e-4032-904d-147eb0f3f6d4"},"vehicle_type_id":"4","last_reported":1768006698,"current_range_meters":6000,"station_id":"","pricing_plan_id":"cebpf4jnsgd1na2vs0mg"},{"bike_id":"ff14a00b-7523-4e64-a50f-051c3e1f7713","system_id":"levelo_inurba_marseille","lat":43.262215,"lon":5.404446,"is_reserved":false,"is_disabled":false,"rental_uris":{"android":"levelo://app?vid=ff14a00b-7523-4e64-a50f-051c3e1f7713","ios":"levelo://app?vid=ff14a00b-7523-4e64-a50f-051c3e1f7713"},"vehicle_type_id":"4","last_reported":1768006698,"current_range_meters":6000,"station_id":"ce4bh4p2rcd13ifvqe0g","pricing_plan_id":"cebpf4jnsgd1na2vs0mg"},{"bike_id":"84acd35f-eff0-4eb4-9fef-a2e6695dc9e6","system_id":"levelo_inurba_marseille","lat":43.29185,"lon":5.35834,"is_reserved":false,"is_disabled":false,"rental_uris":{"android":"levelo://app?vid=84acd35f-eff0-4eb4-9fef-a2e6695dc9e6","ios":"levelo://app?vid=84acd35f-eff0-4eb4-9fef-a2e6695dc9e6"},"vehicle_type_id":"4","last_reported":1768006698,"current_range_meters":6000,"station_id":"ce4bhb12rcd13ifvqel0","pricing_plan_id":"cebpf4jnsgd1na2vs0mg"},{"bike_id":"fd48e571-84d1-4634-93d8-d8ba04b7bdf8","system_id":"levelo_inurba_marseille","lat":43.310764,"lon":5.383496,"is_reserved":false,"is_disabled":false,"rental_uris":{"android":"levelo://app?vid=fd48e571-84d1-4634-93d8-d8ba04b7bdf8","ios":"levelo://app?vid=fd48e571-84d1-4634-93d8-d8ba04b7bdf8"},"vehicle_type_id":"4","last_reported":1768006698,"current_range_meters":6000,"station_id":"ce4bgv92rcd13ifvqcr0","pricing_plan_id":"cebpf4jnsgd1na2vs0mg"},{"bike_id":"3f7468ab-5944-415e-ae52-0d12060acb9e","system_id":"levelo_inurba_marseille","lat":43.28936,"lon":5.39643,"is_reserved":false,"is_disabled":true,"rental_uris":{"android":"levelo://app?vid=3f7468ab-5944-415e-ae52-0d12060acb9e","ios":"levelo://app?vid=3f7468ab-5944-415e-ae52-0d12060acb9e"},"vehicle_type_id":"4","last_reported":1768006698,"current_range_meters":6400,"station_id":"ce4bh3h2rcd13ifvqdn0","pricing_plan_id":"cebpf4jnsgd1na2vs0mg"},{"bike_id":"b01b28d2-3f19-4003-9ec3-2602e6f718f6","system_id":"levelo_inurba_marseille","lat":43.30495,"lon":5.37625,"is_reserved":false,"is_disabled":false,"rental_uris":{"android":"levelo://app?vid=b01b28d2-3f19-4003-9ec3-2602e6f718f6","ios":"levelo://app?vid=b01b28d2-3f19-4003-9ec3-2602e6f718f6"},"vehicle_type_id":"4","last_reported":1768006698,"current_range_meters":6400,"station_id":"","pricing_plan_id":"cebpf4jnsgd1na2vs0mg"},{"bike_id":"ff4d3f0c-f4ca-4e9d-a96d-386990436f7f","system_id":"levelo_inurba_marseille","lat":43.32361,"lon":5.3674,"is_reserved":false,"is_disabled":false,"rental_uris":{"android":"levelo://app?vid=ff4d3f0c-f4ca-4e9d-a96d-386990436f7f","ios":"levelo://app?vid=ff4d3f0c-f4ca-4e9d-a96d-386990436f7f"},"vehicle_type_id":"4","last_reported":1768006698,"current_range_meters":6400,"station_id":"ce4bhsh2rcd13ifvqi2g","pricing_plan_id":"cebpf4jnsgd1na2vs0mg"},{"bike_id":"2f148a40-08c3-4821-bb26-bd90d7a0c233","system_id":"levelo_inurba_marseille","lat":43.243962,"lon":5.370747,"is_reserved":false,"is_disabled":false,"rental_uris":{"android":"levelo://app?vid=2f148a40-08c3-4821-bb26-bd90d7a0c233","ios":"levelo://app?vid=2f148a40-08c3-4821-bb26-bd90d7a0c233"},"vehicle_type_id":"4","last_reported":1768006698,"current_range_meters":6400,"station_id":"ce4bhhh2rcd13ifvqfk0","pricing_plan_id":"cebpf4jnsgd1na2vs0mg"},{"bike_id":"865555d8-70a3-48c4-b89b-4cd7680516d4","system_id":"levelo_inurba_marseille","lat":43.23187,"lon":5.35548,"is_reserved":false,"is_disabled":false,"rental_uris":{"android":"levelo://app?vid=865555d8-70a3-48c4-b89b-4cd7680516d4","ios":"levelo://app?vid=865555d8-70a3-48c4-b89b-4cd7680516d4"},"vehicle_type_id":"4","last_reported":1768006698,"current_range_meters":6400,"station_id":"ce4bhu92rcd13ifvqi70","pricing_plan_id":"cebpf4jnsgd1na2vs0mg"},{"bike_id":"8b4c74ab-fc8d-4504-aa83-252995e99ec9","system_id":"levelo_inurba_marseille","lat":43.312092,"lon":5.368384,"is_reserved":false,"is_disabled":false,"rental_uris":{"android":"levelo://app?vid=8b4c74ab-fc8d-4504-aa83-252995e99ec9","ios":"levelo://app?vid=8b4c74ab-fc8d-4504-aa83-252995e99ec9"},"vehicle_type_id":"4","last_reported":1768006698,"current_range_meters":6400,"station_id":"ce4bgl92rcd13ifvqbq0","pricing_plan_id":"cebpf4jnsgd1na2vs0mg"},{"bike_id":"edf9ef2b-78e7-402e-b2e7-1f5952a3485d","system_id":"levelo_inurba_marseille","lat":43.25505,"lon":5.37663,"is_reserved":false,"is_disabled":false,"rental_uris":{"android":"levelo://app?vid=edf9ef2b-78e7-402e-b2e7-1f5952a3485d","ios":"levelo://app?vid=edf9ef2b-78e7-402e-b2e7-1f5952a3485d"},"vehicle_type_id":"4","last_reported":1768006698,"current_range_meters":6400,"station_id":"ce4bhh12rcd13ifvqff0","pricing_plan_id":"cebpf4jnsgd1na2vs0mg"},{"bike_id":"78e548d8-0265-46e8-a56e-2159545c3d74","system_id":"levelo_inurba_marseille","lat":43.287052,"lon":5.373886,"is_reserved":false,"is_disabled":false,"rental_uris":{"android":"levelo://app?vid=78e548d8-0265-46e8-a56e-2159545c3d74","ios":"levelo://app?vid=78e548d8-0265-46e8-a56e-2159545c3d74"},"vehicle_type_id":"4","last_reported":1768006698,"current_range_meters":6400,"station_id":"ce4bh3p2rcd13ifvqdq0","pricing_plan_id":"cebpf4jnsgd1na2vs0mg"},{"bike_id":"24fd1209-d399-4ee0-89bd-9c6e7402ed28","system_id":"levelo_inurba_marseille","lat":43.28042,"lon":5.36955,"is_reserved":false,"is_disabled":false,"rental_uris":{"android":"levelo://app?vid=24fd1209-d399-4ee0-89bd-9c6e7402ed28","ios":"levelo://app?vid=24fd1209-d399-4ee0-89bd-9c6e7402ed28"},"vehicle_type_id":"4","last_reported":1768006698,"current_range_meters":6400,"station_id":"ce4bha12rcd13ifvqef0","pricing_plan_id":"cebpf4jnsgd1na2vs0mg"},{"bike_id":"f0cec7c6-cefa-4b79-8fab-f387d0611846","system_id":"levelo_inurba_marseille","lat":43.299652,"lon":5.372212,"is_reserved":false,"is_disabled":false,"rental_uris":{"android":"levelo://app?vid=f0cec7c6-cefa-4b79-8fab-f387d0611846","ios":"levelo://app?vid=f0cec7c6-cefa-4b79-8fab-f387d0611846"},"vehicle_type_id":"4","last_reported":1768006698,"current_range_meters":6400,"station_id":"ce4bgr92rcd13ifvqc7g","pricing_plan_id":"cebpf4jnsgd1na2vs0mg"},{"bike_id":"d336d32f-a9ab-4eb1-9637-d3fa585ead55","system_id":"levelo_inurba_marseille","lat":43.29486,"lon":5.43299,"is_reserved":false,"is_disabled":false,"rental_uris":{"android":"levelo://app?vid=d336d32f-a9ab-4eb1-9637-d3fa585ead55","ios":"levelo://app?vid=d336d32f-a9ab-4eb1-9637-d3fa585ead55"},"vehicle_type_id":"4","last_reported":1768006698,"current_range_meters":6400,"station_id":"st_d3j5ugp08ojc73fj9d10","pricing_plan_id":"cebpf4jnsgd1na2vs0mg"},{"bike_id":"813744c2-32d8-4783-8fd8-cb01e5ee70e2","system_id":"levelo_inurba_marseille","lat":43.3028,"lon":5.37262,"is_reserved":false,"is_disabled":false,"rental_uris":{"android":"levelo://app?vid=813744c2-32d8-4783-8fd8-cb01e5ee70e2","ios":"levelo://app?vid=813744c2-32d8-4783-8fd8-cb01e5ee70e2"},"vehicle_type_id":"4","last_reported":1768006698,"current_range_meters":6400,"station_id":"","pricing_plan_id":"cebpf4jnsgd1na2vs0mg"},{"bike_id":"6fbb2449-a2f8-43a3-9652-fc415bd595ca","system_id":"levelo_inurba_marseille","lat":43.30928,"lon":5.40145,"is_reserved":false,"is_disabled":false,"rental_uris":{"android":"levelo://app?vid=6fbb2449-a2f8-43a3-9652-fc415bd595ca","ios":"levelo://app?vid=6fbb2449-a2f8-43a3-9652-fc415bd595ca"},"vehicle_type_id":"4","last_reported":1768006698,"current_range_meters":6400,"station_id":"ce4bgvp2rcd13ifvqct0","pricing_plan_id":"cebpf4jnsgd1na2vs0mg"},{"bike_id":"803b75a8-1115-4454-b3d0-9468a98fc0c6","system_id":"levelo_inurba_marseille","lat":43.294871,"lon":5.409298,"is_reserved":false,"is_disabled":false,"rental_uris":{"android":"levelo://app?vid=803b75a8-1115-4454-b3d0-9468a98fc0c6","ios":"levelo://app?vid=803b75a8-1115-4454-b3d0-9468a98fc0c6"},"vehicle_type_id":"4","last_reported":1768006698,"current_range_meters":6400,"station_id":"","pricing_plan_id":"cebpf4jnsgd1na2vs0mg"},{"bike_id":"27e80021-86dc-4a82-a09d-0e62278e4820","system_id":"levelo_inurba_marseille","lat":43.29051,"lon":5.3592,"is_reserved":false,"is_disabled":false,"rental_uris":{"android":"levelo://app?vid=27e80021-86dc-4a82-a09d-0e62278e4820","ios":"levelo://app?vid=27e80021-86dc-4a82-a09d-0e62278e4820"},"vehicle_type_id":"4","last_reported":1768006698,"current_range_meters":6400,"station_id":"ce4bha92rcd13ifvqeg0","pricing_plan_id":"cebpf4jnsgd1na2vs0mg"},{"bike_id":"2416829d-3f10-4954-bbb3-bc994a74f29a","system_id":"levelo_inurba_marseille","lat":43.25579,"lon":5.38231,"is_reserved":false,"is_disabled":false,"rental_uris":{"android":"levelo://app?vid=2416829d-3f10-4954-bbb3-bc994a74f29a","ios":"levelo://app?vid=2416829d-3f10-4954-bbb3-bc994a74f29a"},"vehicle_type_id":"4","last_reported":1768006698,"current_range_meters":6400,"station_id":"","pricing_plan_id":"cebpf4jnsgd1na2vs0mg"},{"bike_id":"0545e863-d76c-4ff3-8e82-b5fc48f3c2f0","system_id":"levelo_inurba_marseille","lat":43.28697,"lon":5.37433,"is_reserved":false,"is_disabled":false,"rental_uris":{"android":"levelo://app?vid=0545e863-d76c-4ff3-8e82-b5fc48f3c2f0","ios":"levelo://app?vid=0545e863-d76c-4ff3-8e82-b5fc48f3c2f0"},"vehicle_type_id":"4","last_reported":1768006698,"current_range_meters":6400,"station_id":"ce4bh3p2rcd13ifvqdq0","pricing_plan_id":"cebpf4jnsgd1na2vs0mg"},{"bike_id":"85264b74-5b04-4dbe-94c6-abdbdfeafcf0","system_id":"levelo_inurba_marseille","lat":43.28475,"lon":5.48397,"is_reserved":false,"is_disabled":false,"rental_uris":{"android":"levelo://app?vid=85264b74-5b04-4dbe-94c6-abdbdfeafcf0","ios":"levelo://app?vid=85264b74-5b04-4dbe-94c6-abdbdfeafcf0"},"vehicle_type_id":"4","last_reported":1768006698,"current_range_meters":6400,"station_id":"","pricing_plan_id":"cebpf4jnsgd1na2vs0mg"},{"bike_id":"c2fe1391-a7e3-4e41-aa91-4e42f88a58d2","system_id":"levelo_inurba_marseille","lat":43.295666,"lon":5.422669,"is_reserved":false,"is_disabled":false,"rental_uris":{"android":"levelo://app?vid=c2fe1391-a7e3-4e41-aa91-4e42f88a58d2","ios":"levelo://app?vid=c2fe1391-a7e3-4e41-aa91-4e42f88a58d2"},"vehicle_type_id":"4","last_reported":1768006698,"current_range_meters":6400,"station_id":"ce4bhph2rcd13ifvqhdg","pricing_plan_id":"cebpf4jnsgd1na2vs0mg"},{"bike_id":"44ba5636-cada-4aed-81b4-84b346c45e10","system_id":"levelo_inurba_marseille","lat":43.25583,"lon":5.38229,"is_reserved":false,"is_disabled":false,"rental_uris":{"android":"levelo://app?vid=44ba5636-cada-4aed-81b4-84b346c45e10","ios":"levelo://app?vid=44ba5636-cada-4aed-81b4-84b346c45e10"},"vehicle_type_id":"4","last_reported":1768006698,"current_range_meters":6400,"station_id":"ce4bhih2rcd13ifvqfs0","pricing_plan_id":"cebpf4jnsgd1na2vs0mg"},{"bike_id":"30e7f41a-5c10-4e1c-aeed-da83a0262221","system_id":"levelo_inurba_marseille","lat":43.27372,"lon":5.36248,"is_reserved":false,"is_disabled":false,"rental_uris":{"android":"levelo://app?vid=30e7f41a-5c10-4e1c-aeed-da83a0262221","ios":"levelo://app?vid=30e7f41a-5c10-4e1c-aeed-da83a0262221"},"vehicle_type_id":"4","last_reported":1768006698,"current_range_meters":6400,"station_id":"ce4bhbh2rcd13ifvqeo0","pricing_plan_id":"cebpf4jnsgd1na2vs0mg"},{"bike_id":"cc6a42bd-dd7c-4c64-b69f-e5073a2adae2","system_id":"levelo_inurba_marseille","lat":43.21747,"lon":5.34594,"is_reserved":false,"is_disabled":false,"rental_uris":{"android":"levelo://app?vid=cc6a42bd-dd7c-4c64-b69f-e5073a2adae2","ios":"levelo://app?vid=cc6a42bd-dd7c-4c64-b69f-e5073a2adae2"},"vehicle_type_id":"4","last_reported":1768006698,"current_range_meters":6800,"station_id":"st_cvj6r9ubvosntc0bgbag","pricing_plan_id":"cebpf4jnsgd1na2vs0mg"},{"bike_id":"f7df1521-8a91-4b2d-b31b-894fbd8f101a","system_id":"levelo_inurba_marseille","lat":43.321086,"lon":5.367905,"is_reserved":false,"is_disabled":false,"rental_uris":{"android":"levelo://app?vid=f7df1521-8a91-4b2d-b31b-894fbd8f101a","ios":"levelo://app?vid=f7df1521-8a91-4b2d-b31b-894fbd8f101a"},"vehicle_type_id":"4","last_reported":1768006698,"current_range_meters":6800,"station_id":"ce4bhrh2rcd13ifvqhug","pricing_plan_id":"cebpf4jnsgd1na2vs0mg"},{"bike_id":"2a8ed17c-7b37-4a12-a72e-ddd6d37fc4f0","system_id":"levelo_inurba_marseille","lat":43.295038,"lon":5.4007,"is_reserved":false,"is_disabled":true,"rental_uris":{"android":"levelo://app?vid=2a8ed17c-7b37-4a12-a72e-ddd6d37fc4f0","ios":"levelo://app?vid=2a8ed17c-7b37-4a12-a72e-ddd6d37fc4f0"},"vehicle_type_id":"4","last_reported":1768006698,"current_range_meters":6800,"station_id":"","pricing_plan_id":"cebpf4jnsgd1na2vs0mg"},{"bike_id":"791edebb-2b4f-4141-8cb6-d2d1e1b4fb81","system_id":"levelo_inurba_marseille","lat":43.30366,"lon":5.4189,"is_reserved":false,"is_disabled":false,"rental_uris":{"android":"levelo://app?vid=791edebb-2b4f-4141-8cb6-d2d1e1b4fb81","ios":"levelo://app?vid=791edebb-2b4f-4141-8cb6-d2d1e1b4fb81"},"vehicle_type_id":"4","last_reported":1768006698,"current_range_meters":6800,"station_id":"ce4bhop2rcd13ifvqh7g","pricing_plan_id":"cebpf4jnsgd1na2vs0mg"},{"bike_id":"4d1dbbc4-a3c7-40b2-b35d-57af536f6f9a","system_id":"levelo_inurba_marseille","lat":43.28615,"lon":5.35104,"is_reserved":false,"is_disabled":false,"rental_uris":{"android":"levelo://app?vid=4d1dbbc4-a3c7-40b2-b35d-57af536f6f9a","ios":"levelo://app?vid=4d1dbbc4-a3c7-40b2-b35d-57af536f6f9a"},"vehicle_type_id":"4","last_reported":1768006698,"current_range_meters":6800,"station_id":"ce4bhch2rcd13ifvqeug","pricing_plan_id":"cebpf4jnsgd1na2vs0mg"},{"bike_id":"ba2c17c1-c497-488b-ae00-e96360117923","system_id":"levelo_inurba_marseille","lat":43.298738,"lon":5.375641,"is_reserved":false,"is_disabled":false,"rental_uris":{"android":"levelo://app?vid=ba2c17c1-c497-488b-ae00-e96360117923","ios":"levelo://app?vid=ba2c17c1-c497-488b-ae00-e96360117923"},"vehicle_type_id":"4","last_reported":1768006698,"current_range_meters":6800,"station_id":"","pricing_plan_id":"cebpf4jnsgd1na2vs0mg"},{"bike_id":"2e4bd346-2ef6-4ed8-9714-fdcc0b54b9d0","system_id":"levelo_inurba_marseille","lat":43.2481,"lon":5.37454,"is_reserved":false,"is_disabled":false,"rental_uris":{"android":"levelo://app?vid=2e4bd346-2ef6-4ed8-9714-fdcc0b54b9d0","ios":"levelo://app?vid=2e4bd346-2ef6-4ed8-9714-fdcc0b54b9d0"},"vehicle_type_id":"4","last_reported":1768006698,"current_range_meters":6800,"station_id":"ce4bhgh2rcd13ifvqfb0","pricing_plan_id":"cebpf4jnsgd1na2vs0mg"},{"bike_id":"3e5fc2d0-da88-4ec6-a163-762560dd4d24","system_id":"levelo_inurba_marseille","lat":43.3013,"lon":5.39817,"is_reserved":false,"is_disabled":false,"rental_uris":{"android":"levelo://app?vid=3e5fc2d0-da88-4ec6-a163-762560dd4d24","ios":"levelo://app?vid=3e5fc2d0-da88-4ec6-a163-762560dd4d24"},"vehicle_type_id":"4","last_reported":1768006698,"current_range_meters":6800,"station_id":"ce4bh0h2rcd13ifvqd40","pricing_plan_id":"cebpf4jnsgd1na2vs0mg"},{"bike_id":"a9cbba6c-7c04-45fc-82a0-cf0e0a14936d","system_id":"levelo_inurba_marseille","lat":43.28151,"lon":5.42633,"is_reserved":false,"is_disabled":false,"rental_uris":{"android":"levelo://app?vid=a9cbba6c-7c04-45fc-82a0-cf0e0a14936d","ios":"levelo://app?vid=a9cbba6c-7c04-45fc-82a0-cf0e0a14936d"},"vehicle_type_id":"4","last_reported":1768006698,"current_range_meters":6800,"station_id":"ce4bhnh2rcd13ifvqgug","pricing_plan_id":"cebpf4jnsgd1na2vs0mg"},{"bike_id":"853263ca-9164-4425-83ed-bd96c0a9b45a","system_id":"levelo_inurba_marseille","lat":43.32734,"lon":5.39243,"is_reserved":false,"is_disabled":false,"rental_uris":{"android":"levelo://app?vid=853263ca-9164-4425-83ed-bd96c0a9b45a","ios":"levelo://app?vid=853263ca-9164-4425-83ed-bd96c0a9b45a"},"vehicle_type_id":"4","last_reported":1768006698,"current_range_meters":6800,"station_id":"","pricing_plan_id":"cebpf4jnsgd1na2vs0mg"},{"bike_id":"eb6bac7c-ea47-4981-b38d-8116727e3c2f","system_id":"levelo_inurba_marseille","lat":43.278232,"lon":5.407039,"is_reserved":false,"is_disabled":false,"rental_uris":{"android":"levelo://app?vid=eb6bac7c-ea47-4981-b38d-8116727e3c2f","ios":"levelo://app?vid=eb6bac7c-ea47-4981-b38d-8116727e3c2f"},"vehicle_type_id":"4","last_reported":1768006698,"current_range_meters":6800,"station_id":"ce4bhnh2rcd13ifvqgtg","pricing_plan_id":"cebpf4jnsgd1na2vs0mg"},{"bike_id":"a6587fc2-d977-4e48-9cf2-37447cd6f5ac","system_id":"levelo_inurba_marseille","lat":43.24162,"lon":5.36403,"is_reserved":false,"is_disabled":false,"rental_uris":{"android":"levelo://app?vid=a6587fc2-d977-4e48-9cf2-37447cd6f5ac","ios":"levelo://app?vid=a6587fc2-d977-4e48-9cf2-37447cd6f5ac"},"vehicle_type_id":"4","last_reported":1768006698,"current_range_meters":6800,"station_id":"cpo36qri1sfpv3e86is0","pricing_plan_id":"cebpf4jnsgd1na2vs0mg"},{"bike_id":"81215cde-4e71-4cdc-9680-de9e0429ab9a","system_id":"levelo_inurba_marseille","lat":43.278291,"lon":5.407123,"is_reserved":false,"is_disabled":false,"rental_uris":{"android":"levelo://app?vid=81215cde-4e71-4cdc-9680-de9e0429ab9a","ios":"levelo://app?vid=81215cde-4e71-4cdc-9680-de9e0429ab9a"},"vehicle_type_id":"4","last_reported":1768006698,"current_range_meters":6800,"station_id":"ce4bhnh2rcd13ifvqgtg","pricing_plan_id":"cebpf4jnsgd1na2vs0mg"},{"bike_id":"e392ddce-a8dd-4c6b-93ce-65562f55661b","system_id":"levelo_inurba_marseille","lat":43.309271,"lon":5.401603,"is_reserved":false,"is_disabled":false,"rental_uris":{"android":"levelo://app?vid=e392ddce-a8dd-4c6b-93ce-65562f55661b","ios":"levelo://app?vid=e392ddce-a8dd-4c6b-93ce-65562f55661b"},"vehicle_type_id":"4","last_reported":1768006698,"current_range_meters":6800,"station_id":"ce4bgvp2rcd13ifvqct0","pricing_plan_id":"cebpf4jnsgd1na2vs0mg"},{"bike_id":"271e9008-09ad-4888-9eb5-ba917a1e4dd6","system_id":"levelo_inurba_marseille","lat":43.25818,"lon":5.39442,"is_reserved":false,"is_disabled":false,"rental_uris":{"android":"levelo://app?vid=271e9008-09ad-4888-9eb5-ba917a1e4dd6","ios":"levelo://app?vid=271e9008-09ad-4888-9eb5-ba917a1e4dd6"},"vehicle_type_id":"4","last_reported":1768006698,"current_range_meters":6800,"station_id":"ce4bhip2rcd13ifvqft0","pricing_plan_id":"cebpf4jnsgd1na2vs0mg"},{"bike_id":"8c9c7d2f-2964-4558-96e9-0e1ea8fcd3c7","system_id":"levelo_inurba_marseille","lat":43.22558,"lon":5.41625,"is_reserved":false,"is_disabled":false,"rental_uris":{"android":"levelo://app?vid=8c9c7d2f-2964-4558-96e9-0e1ea8fcd3c7","ios":"levelo://app?vid=8c9c7d2f-2964-4558-96e9-0e1ea8fcd3c7"},"vehicle_type_id":"4","last_reported":1768006698,"current_range_meters":6800,"station_id":"st_d2o4gvlbi1j2169b742g","pricing_plan_id":"cebpf4jnsgd1na2vs0mg"},{"bike_id":"d2e2418d-c3ed-4fd0-88de-90fe98564ba8","system_id":"levelo_inurba_marseille","lat":43.32132,"lon":5.3677,"is_reserved":false,"is_disabled":false,"rental_uris":{"android":"levelo://app?vid=d2e2418d-c3ed-4fd0-88de-90fe98564ba8","ios":"levelo://app?vid=d2e2418d-c3ed-4fd0-88de-90fe98564ba8"},"vehicle_type_id":"4","last_reported":1768006698,"current_range_meters":6800,"station_id":"ce4bhrh2rcd13ifvqhug","pricing_plan_id":"cebpf4jnsgd1na2vs0mg"},{"bike_id":"72c4e195-225f-406f-ba7b-fb6834e7650b","system_id":"levelo_inurba_marseille","lat":43.31571,"lon":5.36897,"is_reserved":false,"is_disabled":false,"rental_uris":{"android":"levelo://app?vid=72c4e195-225f-406f-ba7b-fb6834e7650b","ios":"levelo://app?vid=72c4e195-225f-406f-ba7b-fb6834e7650b"},"vehicle_type_id":"4","last_reported":1768006698,"current_range_meters":6800,"station_id":"","pricing_plan_id":"cebpf4jnsgd1na2vs0mg"},{"bike_id":"f582e2e5-a25e-4250-97d6-4e6a824e9461","system_id":"levelo_inurba_marseille","lat":43.30537,"lon":5.36702,"is_reserved":false,"is_disabled":false,"rental_uris":{"android":"levelo://app?vid=f582e2e5-a25e-4250-97d6-4e6a824e9461","ios":"levelo://app?vid=f582e2e5-a25e-4250-97d6-4e6a824e9461"},"vehicle_type_id":"4","last_reported":1768006698,"current_range_meters":6800,"station_id":"ce4bgrp2rcd13ifvqc9g","pricing_plan_id":"cebpf4jnsgd1na2vs0mg"},{"bike_id":"3784f2bf-f44f-44f4-a8be-e3b125ce0193","system_id":"levelo_inurba_marseille","lat":43.27101,"lon":5.40514,"is_reserved":false,"is_disabled":false,"rental_uris":{"android":"levelo://app?vid=3784f2bf-f44f-44f4-a8be-e3b125ce0193","ios":"levelo://app?vid=3784f2bf-f44f-44f4-a8be-e3b125ce0193"},"vehicle_type_id":"4","last_reported":1768006698,"current_range_meters":6800,"station_id":"","pricing_plan_id":"cebpf4jnsgd1na2vs0mg"},{"bike_id":"5c2032db-5cd6-48f0-a665-79317f183c90","system_id":"levelo_inurba_marseille","lat":43.296356,"lon":5.40602,"is_reserved":false,"is_disabled":false,"rental_uris":{"android":"levelo://app?vid=5c2032db-5cd6-48f0-a665-79317f183c90","ios":"levelo://app?vid=5c2032db-5cd6-48f0-a665-79317f183c90"},"vehicle_type_id":"4","last_reported":1768006698,"current_range_meters":6800,"station_id":"ce4bh0h2rcd13ifvqd60","pricing_plan_id":"cebpf4jnsgd1na2vs0mg"},{"bike_id":"9be47716-b6c4-4f6e-b3d9-238d6399366b","system_id":"levelo_inurba_marseille","lat":43.31401,"lon":5.40437,"is_reserved":false,"is_disabled":false,"rental_uris":{"android":"levelo://app?vid=9be47716-b6c4-4f6e-b3d9-238d6399366b","ios":"levelo://app?vid=9be47716-b6c4-4f6e-b3d9-238d6399366b"},"vehicle_type_id":"4","last_reported":1768006698,"current_range_meters":6800,"station_id":"","pricing_plan_id":"cebpf4jnsgd1na2vs0mg"},{"bike_id":"a9fccba9-b754-4ee7-accb-83ed7cce913f","system_id":"levelo_inurba_marseille","lat":43.23164,"lon":5.43703,"is_reserved":false,"is_disabled":false,"rental_uris":{"android":"levelo://app?vid=a9fccba9-b754-4ee7-accb-83ed7cce913f","ios":"levelo://app?vid=a9fccba9-b754-4ee7-accb-83ed7cce913f"},"vehicle_type_id":"4","last_reported":1768006698,"current_range_meters":7200,"station_id":"ce4bhmp2rcd13ifvqgog","pricing_plan_id":"cebpf4jnsgd1na2vs0mg"},{"bike_id":"5980b3a2-5419-48d2-924e-88db4c2aadcf","system_id":"levelo_inurba_marseille","lat":43.231874,"lon":5.39986,"is_reserved":false,"is_disabled":false,"rental_uris":{"android":"levelo://app?vid=5980b3a2-5419-48d2-924e-88db4c2aadcf","ios":"levelo://app?vid=5980b3a2-5419-48d2-924e-88db4c2aadcf"},"vehicle_type_id":"4","last_reported":1768006698,"current_range_meters":7200,"station_id":"ce4bhn12rcd13ifvqgqg","pricing_plan_id":"cebpf4jnsgd1na2vs0mg"},{"bike_id":"f4049db7-b663-4b74-9659-1609ed0f1a6e","system_id":"levelo_inurba_marseille","lat":43.31333,"lon":5.39711,"is_reserved":false,"is_disabled":false,"rental_uris":{"android":"levelo://app?vid=f4049db7-b663-4b74-9659-1609ed0f1a6e","ios":"levelo://app?vid=f4049db7-b663-4b74-9659-1609ed0f1a6e"},"vehicle_type_id":"4","last_reported":1768006698,"current_range_meters":7200,"station_id":"ce4bgvp2rcd13ifvqcu0","pricing_plan_id":"cebpf4jnsgd1na2vs0mg"},{"bike_id":"939c67ce-6377-4aee-8e6c-8ad0908b5630","system_id":"levelo_inurba_marseille","lat":43.25333,"lon":5.42175,"is_reserved":false,"is_disabled":false,"rental_uris":{"android":"levelo://app?vid=939c67ce-6377-4aee-8e6c-8ad0908b5630","ios":"levelo://app?vid=939c67ce-6377-4aee-8e6c-8ad0908b5630"},"vehicle_type_id":"4","last_reported":1768006698,"current_range_meters":7200,"station_id":"st_d2m65c5bi1j21697t3ng","pricing_plan_id":"cebpf4jnsgd1na2vs0mg"},{"bike_id":"76be208d-1c48-440b-b830-1e599a1a2370","system_id":"levelo_inurba_marseille","lat":43.26365,"lon":5.41084,"is_reserved":false,"is_disabled":false,"rental_uris":{"android":"levelo://app?vid=76be208d-1c48-440b-b830-1e599a1a2370","ios":"levelo://app?vid=76be208d-1c48-440b-b830-1e599a1a2370"},"vehicle_type_id":"4","last_reported":1768006698,"current_range_meters":7200,"station_id":"st_d4e5ca6na9uc73bfl5fg","pricing_plan_id":"cebpf4jnsgd1na2vs0mg"},{"bike_id":"5b6cc84f-cd6a-4b03-81fc-76f2cab24601","system_id":"levelo_inurba_marseille","lat":43.32378,"lon":5.36724,"is_reserved":false,"is_disabled":false,"rental_uris":{"android":"levelo://app?vid=5b6cc84f-cd6a-4b03-81fc-76f2cab24601","ios":"levelo://app?vid=5b6cc84f-cd6a-4b03-81fc-76f2cab24601"},"vehicle_type_id":"4","last_reported":1768006698,"current_range_meters":7200,"station_id":"","pricing_plan_id":"cebpf4jnsgd1na2vs0mg"},{"bike_id":"8f138434-00e6-4b29-8b46-6b8a31350fba","system_id":"levelo_inurba_marseille","lat":43.281999,"lon":5.390933,"is_reserved":false,"is_disabled":false,"rental_uris":{"android":"levelo://app?vid=8f138434-00e6-4b29-8b46-6b8a31350fba","ios":"levelo://app?vid=8f138434-00e6-4b29-8b46-6b8a31350fba"},"vehicle_type_id":"4","last_reported":1768006698,"current_range_meters":7200,"station_id":"ce4bhn92rcd13ifvqgsg","pricing_plan_id":"cebpf4jnsgd1na2vs0mg"},{"bike_id":"23d25c2f-1713-44f4-812e-c08229251eed","system_id":"levelo_inurba_marseille","lat":43.243956,"lon":5.37069,"is_reserved":false,"is_disabled":false,"rental_uris":{"android":"levelo://app?vid=23d25c2f-1713-44f4-812e-c08229251eed","ios":"levelo://app?vid=23d25c2f-1713-44f4-812e-c08229251eed"},"vehicle_type_id":"4","last_reported":1768006698,"current_range_meters":7200,"station_id":"ce4bhhh2rcd13ifvqfk0","pricing_plan_id":"cebpf4jnsgd1na2vs0mg"},{"bike_id":"4750dde3-1068-4d1c-91ff-e24a2c661d15","system_id":"levelo_inurba_marseille","lat":43.301228,"lon":5.431107,"is_reserved":false,"is_disabled":false,"rental_uris":{"android":"levelo://app?vid=4750dde3-1068-4d1c-91ff-e24a2c661d15","ios":"levelo://app?vid=4750dde3-1068-4d1c-91ff-e24a2c661d15"},"vehicle_type_id":"4","last_reported":1768006698,"current_range_meters":7200,"station_id":"st_d3js3co5814s73ftftug","pricing_plan_id":"cebpf4jnsgd1na2vs0mg"},{"bike_id":"d8cc2012-fcaa-45db-b2d4-57df92f817eb","system_id":"levelo_inurba_marseille","lat":43.290203,"lon":5.381466,"is_reserved":false,"is_disabled":false,"rental_uris":{"android":"levelo://app?vid=d8cc2012-fcaa-45db-b2d4-57df92f817eb","ios":"levelo://app?vid=d8cc2012-fcaa-45db-b2d4-57df92f817eb"},"vehicle_type_id":"4","last_reported":1768006698,"current_range_meters":7200,"station_id":"ce4bh4p2rcd13ifvqe1g","pricing_plan_id":"cebpf4jnsgd1na2vs0mg"},{"bike_id":"92ad100a-d0aa-41d8-9d40-cec876c596d1","system_id":"levelo_inurba_marseille","lat":43.293115,"lon":5.371751,"is_reserved":false,"is_disabled":false,"rental_uris":{"android":"levelo://app?vid=92ad100a-d0aa-41d8-9d40-cec876c596d1","ios":"levelo://app?vid=92ad100a-d0aa-41d8-9d40-cec876c596d1"},"vehicle_type_id":"4","last_reported":1768006698,"current_range_meters":7200,"station_id":"ce4bgh92rcd13ifvqb40","pricing_plan_id":"cebpf4jnsgd1na2vs0mg"},{"bike_id":"07a64454-6ccc-4399-bb05-db92d5dab39b","system_id":"levelo_inurba_marseille","lat":43.27058,"lon":5.38313,"is_reserved":false,"is_disabled":false,"rental_uris":{"android":"levelo://app?vid=07a64454-6ccc-4399-bb05-db92d5dab39b","ios":"levelo://app?vid=07a64454-6ccc-4399-bb05-db92d5dab39b"},"vehicle_type_id":"4","last_reported":1768006698,"current_range_meters":7200,"station_id":"st_d3n2fo6cfp8s73cte1j0","pricing_plan_id":"cebpf4jnsgd1na2vs0mg"},{"bike_id":"e984a252-4013-4ecc-97a0-f289f83e28e6","system_id":"levelo_inurba_marseille","lat":43.31153,"lon":5.38725,"is_reserved":false,"is_disabled":false,"rental_uris":{"android":"levelo://app?vid=e984a252-4013-4ecc-97a0-f289f83e28e6","ios":"levelo://app?vid=e984a252-4013-4ecc-97a0-f289f83e28e6"},"vehicle_type_id":"4","last_reported":1768006698,"current_range_meters":7200,"station_id":"ce4bgv12rcd13ifvqcp0","pricing_plan_id":"cebpf4jnsgd1na2vs0mg"},{"bike_id":"ffd0d41d-4a56-4cbd-a28a-b4ddf2d3da3f","system_id":"levelo_inurba_marseille","lat":43.27819,"lon":5.40725,"is_reserved":false,"is_disabled":false,"rental_uris":{"android":"levelo://app?vid=ffd0d41d-4a56-4cbd-a28a-b4ddf2d3da3f","ios":"levelo://app?vid=ffd0d41d-4a56-4cbd-a28a-b4ddf2d3da3f"},"vehicle_type_id":"4","last_reported":1768006698,"current_range_meters":7200,"station_id":"ce4bhnh2rcd13ifvqgtg","pricing_plan_id":"cebpf4jnsgd1na2vs0mg"},{"bike_id":"2bb9456c-986c-4ee6-989a-52298feb0bd4","system_id":"levelo_inurba_marseille","lat":43.304194,"lon":5.412871,"is_reserved":false,"is_disabled":false,"rental_uris":{"android":"levelo://app?vid=2bb9456c-986c-4ee6-989a-52298feb0bd4","ios":"levelo://app?vid=2bb9456c-986c-4ee6-989a-52298feb0bd4"},"vehicle_type_id":"4","last_reported":1768006698,"current_range_meters":7200,"station_id":"ce4bhop2rcd13ifvqh8g","pricing_plan_id":"cebpf4jnsgd1na2vs0mg"},{"bike_id":"871ea672-28a3-433d-8910-c19697496fe9","system_id":"levelo_inurba_marseille","lat":43.308893,"lon":5.37195,"is_reserved":false,"is_disabled":false,"rental_uris":{"android":"levelo://app?vid=871ea672-28a3-433d-8910-c19697496fe9","ios":"levelo://app?vid=871ea672-28a3-433d-8910-c19697496fe9"},"vehicle_type_id":"4","last_reported":1768006698,"current_range_meters":7200,"station_id":"ce4bguh2rcd13ifvqckg","pricing_plan_id":"cebpf4jnsgd1na2vs0mg"},{"bike_id":"d2e43a61-8f0d-4394-91f9-14dadf5d2b6f","system_id":"levelo_inurba_marseille","lat":43.29242,"lon":5.40923,"is_reserved":false,"is_disabled":false,"rental_uris":{"android":"levelo://app?vid=d2e43a61-8f0d-4394-91f9-14dadf5d2b6f","ios":"levelo://app?vid=d2e43a61-8f0d-4394-91f9-14dadf5d2b6f"},"vehicle_type_id":"4","last_reported":1768006698,"current_range_meters":7200,"station_id":"ce4bh192rcd13ifvqdc0","pricing_plan_id":"cebpf4jnsgd1na2vs0mg"},{"bike_id":"a335aaf2-664c-41df-8ef9-54967a404ae7","system_id":"levelo_inurba_marseille","lat":43.305495,"lon":5.384217,"is_reserved":false,"is_disabled":false,"rental_uris":{"android":"levelo://app?vid=a335aaf2-664c-41df-8ef9-54967a404ae7","ios":"levelo://app?vid=a335aaf2-664c-41df-8ef9-54967a404ae7"},"vehicle_type_id":"4","last_reported":1768006698,"current_range_meters":7200,"station_id":"ce4bgg92rcd13ifvqb30","pricing_plan_id":"cebpf4jnsgd1na2vs0mg"},{"bike_id":"2c99ca2a-2d34-408f-b3b0-e976a2d316d6","system_id":"levelo_inurba_marseille","lat":43.31713,"lon":5.437043,"is_reserved":false,"is_disabled":false,"rental_uris":{"android":"levelo://app?vid=2c99ca2a-2d34-408f-b3b0-e976a2d316d6","ios":"levelo://app?vid=2c99ca2a-2d34-408f-b3b0-e976a2d316d6"},"vehicle_type_id":"4","last_reported":1768006698,"current_range_meters":7200,"station_id":"","pricing_plan_id":"cebpf4jnsgd1na2vs0mg"},{"bike_id":"015c40ff-ccdb-43f0-8f4f-c4761b65940c","system_id":"levelo_inurba_marseille","lat":43.22924,"lon":5.35375,"is_reserved":false,"is_disabled":false,"rental_uris":{"android":"levelo://app?vid=015c40ff-ccdb-43f0-8f4f-c4761b65940c","ios":"levelo://app?vid=015c40ff-ccdb-43f0-8f4f-c4761b65940c"},"vehicle_type_id":"4","last_reported":1768006698,"current_range_meters":7200,"station_id":"cpo3532slgdg3j2ikp40","pricing_plan_id":"cebpf4jnsgd1na2vs0mg"},{"bike_id":"c1cef419-075c-4150-989b-bab45b081dcc","system_id":"levelo_inurba_marseille","lat":43.30215,"lon":5.40032,"is_reserved":false,"is_disabled":false,"rental_uris":{"android":"levelo://app?vid=c1cef419-075c-4150-989b-bab45b081dcc","ios":"levelo://app?vid=c1cef419-075c-4150-989b-bab45b081dcc"},"vehicle_type_id":"4","last_reported":1768006698,"current_range_meters":7200,"station_id":"ce4bgvh2rcd13ifvqcs0","pricing_plan_id":"cebpf4jnsgd1na2vs0mg"},{"bike_id":"e288dd09-a719-4af9-97ac-ef72cf8ca56d","system_id":"levelo_inurba_marseille","lat":43.24956,"lon":5.40502,"is_reserved":false,"is_disabled":false,"rental_uris":{"android":"levelo://app?vid=e288dd09-a719-4af9-97ac-ef72cf8ca56d","ios":"levelo://app?vid=e288dd09-a719-4af9-97ac-ef72cf8ca56d"},"vehicle_type_id":"4","last_reported":1768006698,"current_range_meters":7200,"station_id":"st_d2ngiaodas8pm72gd1h0","pricing_plan_id":"cebpf4jnsgd1na2vs0mg"},{"bike_id":"18c99692-3ca0-436c-9ab1-5135473130c4","system_id":"levelo_inurba_marseille","lat":43.23783,"lon":5.36637,"is_reserved":false,"is_disabled":false,"rental_uris":{"android":"levelo://app?vid=18c99692-3ca0-436c-9ab1-5135473130c4","ios":"levelo://app?vid=18c99692-3ca0-436c-9ab1-5135473130c4"},"vehicle_type_id":"4","last_reported":1768006698,"current_range_meters":8000,"station_id":"st_d3nk18o9ro0c73en2l3g","pricing_plan_id":"cebpf4jnsgd1na2vs0mg"},{"bike_id":"7deafa62-2732-4aa2-bc38-f08dbd462943","system_id":"levelo_inurba_marseille","lat":43.29023,"lon":5.38665,"is_reserved":false,"is_disabled":false,"rental_uris":{"android":"levelo://app?vid=7deafa62-2732-4aa2-bc38-f08dbd462943","ios":"levelo://app?vid=7deafa62-2732-4aa2-bc38-f08dbd462943"},"vehicle_type_id":"4","last_reported":1768006698,"current_range_meters":8000,"station_id":"ce4bh4p2rcd13ifvqe0g","pricing_plan_id":"cebpf4jnsgd1na2vs0mg"},{"bike_id":"7d98cf31-a440-4cb1-9c1a-925b7cf02ff8","system_id":"levelo_inurba_marseille","lat":43.2657,"lon":5.40331,"is_reserved":false,"is_disabled":false,"rental_uris":{"android":"levelo://app?vid=7d98cf31-a440-4cb1-9c1a-925b7cf02ff8","ios":"levelo://app?vid=7d98cf31-a440-4cb1-9c1a-925b7cf02ff8"},"vehicle_type_id":"4","last_reported":1768006698,"current_range_meters":8000,"station_id":"ce4bhmp2rcd13ifvqgng","pricing_plan_id":"cebpf4jnsgd1na2vs0mg"},{"bike_id":"8f6c4c1e-e47c-4a1f-a7a0-d3f75a03fcd5","system_id":"levelo_inurba_marseille","lat":43.25074,"lon":5.40345,"is_reserved":false,"is_disabled":false,"rental_uris":{"android":"levelo://app?vid=8f6c4c1e-e47c-4a1f-a7a0-d3f75a03fcd5","ios":"levelo://app?vid=8f6c4c1e-e47c-4a1f-a7a0-d3f75a03fcd5"},"vehicle_type_id":"4","last_reported":1768006698,"current_range_meters":8000,"station_id":"ce4bhlh2rcd13ifvqgig","pricing_plan_id":"cebpf4jnsgd1na2vs0mg"},{"bike_id":"74541618-4b87-4446-b2b6-a40cad2a7689","system_id":"levelo_inurba_marseille","lat":43.30882,"lon":5.39658,"is_reserved":false,"is_disabled":false,"rental_uris":{"android":"levelo://app?vid=74541618-4b87-4446-b2b6-a40cad2a7689","ios":"levelo://app?vid=74541618-4b87-4446-b2b6-a40cad2a7689"},"vehicle_type_id":"4","last_reported":1768006698,"current_range_meters":8000,"station_id":"ce4bh012rcd13ifvqcv0","pricing_plan_id":"cebpf4jnsgd1na2vs0mg"},{"bike_id":"b8cda8e4-fc94-4a5c-acb8-5e9533973f5b","system_id":"levelo_inurba_marseille","lat":43.25118,"lon":5.40326,"is_reserved":false,"is_disabled":false,"rental_uris":{"android":"levelo://app?vid=b8cda8e4-fc94-4a5c-acb8-5e9533973f5b","ios":"levelo://app?vid=b8cda8e4-fc94-4a5c-acb8-5e9533973f5b"},"vehicle_type_id":"4","last_reported":1768006698,"current_range_meters":8000,"station_id":"ce4bhlh2rcd13ifvqgig","pricing_plan_id":"cebpf4jnsgd1na2vs0mg"},{"bike_id":"d0b3031b-3e7d-4ed4-9a5b-5beafd20ab49","system_id":"levelo_inurba_marseille","lat":43.29775,"lon":5.42773,"is_reserved":false,"is_disabled":false,"rental_uris":{"android":"levelo://app?vid=d0b3031b-3e7d-4ed4-9a5b-5beafd20ab49","ios":"levelo://app?vid=d0b3031b-3e7d-4ed4-9a5b-5beafd20ab49"},"vehicle_type_id":"4","last_reported":1768006698,"current_range_meters":8000,"station_id":"st_d3md5207bmas73dh9klg","pricing_plan_id":"cebpf4jnsgd1na2vs0mg"},{"bike_id":"50c3ef0e-1a4a-429a-8acc-0df9b73d0d2b","system_id":"levelo_inurba_marseille","lat":43.23769,"lon":5.36617,"is_reserved":false,"is_disabled":false,"rental_uris":{"android":"levelo://app?vid=50c3ef0e-1a4a-429a-8acc-0df9b73d0d2b","ios":"levelo://app?vid=50c3ef0e-1a4a-429a-8acc-0df9b73d0d2b"},"vehicle_type_id":"4","last_reported":1768006698,"current_range_meters":8000,"station_id":"st_d3nk18o9ro0c73en2l3g","pricing_plan_id":"cebpf4jnsgd1na2vs0mg"},{"bike_id":"d2ed3aab-3f8d-4e66-aab9-6a1fa66c8f25","system_id":"levelo_inurba_marseille","lat":43.313676,"lon":5.384916,"is_reserved":false,"is_disabled":false,"rental_uris":{"android":"levelo://app?vid=d2ed3aab-3f8d-4e66-aab9-6a1fa66c8f25","ios":"levelo://app?vid=d2ed3aab-3f8d-4e66-aab9-6a1fa66c8f25"},"vehicle_type_id":"4","last_reported":1768006698,"current_range_meters":8000,"station_id":"ce4bgt92rcd13ifvqcf0","pricing_plan_id":"cebpf4jnsgd1na2vs0mg"},{"bike_id":"341ffd04-9f22-43c9-8a92-b65afe9e6bf5","system_id":"levelo_inurba_marseille","lat":43.292502,"lon":5.384348,"is_reserved":false,"is_disabled":true,"rental_uris":{"android":"levelo://app?vid=341ffd04-9f22-43c9-8a92-b65afe9e6bf5","ios":"levelo://app?vid=341ffd04-9f22-43c9-8a92-b65afe9e6bf5"},"vehicle_type_id":"4","last_reported":1768006698,"current_range_meters":8000,"station_id":"ce4bh692rcd13ifvqea0","pricing_plan_id":"cebpf4jnsgd1na2vs0mg"},{"bike_id":"8b8fcd5b-3bef-4589-b807-3a246b4ee9c4","system_id":"levelo_inurba_marseille","lat":43.273803,"lon":5.362562,"is_reserved":false,"is_disabled":false,"rental_uris":{"android":"levelo://app?vid=8b8fcd5b-3bef-4589-b807-3a246b4ee9c4","ios":"levelo://app?vid=8b8fcd5b-3bef-4589-b807-3a246b4ee9c4"},"vehicle_type_id":"4","last_reported":1768006698,"current_range_meters":8000,"station_id":"ce4bhbh2rcd13ifvqeo0","pricing_plan_id":"cebpf4jnsgd1na2vs0mg"},{"bike_id":"a8601da2-2020-4b9c-a126-4ba0f95f13ae","system_id":"levelo_inurba_marseille","lat":43.240631,"lon":5.377667,"is_reserved":false,"is_disabled":false,"rental_uris":{"android":"levelo://app?vid=a8601da2-2020-4b9c-a126-4ba0f95f13ae","ios":"levelo://app?vid=a8601da2-2020-4b9c-a126-4ba0f95f13ae"},"vehicle_type_id":"4","last_reported":1768006698,"current_range_meters":8000,"station_id":"ce4bhnp2rcd13ifvqgvg","pricing_plan_id":"cebpf4jnsgd1na2vs0mg"},{"bike_id":"37335263-0ba0-41e1-bf1f-92d8ddde73f2","system_id":"levelo_inurba_marseille","lat":43.25596,"lon":5.3824,"is_reserved":false,"is_disabled":false,"rental_uris":{"android":"levelo://app?vid=37335263-0ba0-41e1-bf1f-92d8ddde73f2","ios":"levelo://app?vid=37335263-0ba0-41e1-bf1f-92d8ddde73f2"},"vehicle_type_id":"4","last_reported":1768006698,"current_range_meters":8000,"station_id":"ce4bhih2rcd13ifvqfs0","pricing_plan_id":"cebpf4jnsgd1na2vs0mg"},{"bike_id":"76e4e42b-ff1f-4fe8-a54e-d42a16767785","system_id":"levelo_inurba_marseille","lat":43.260297,"lon":5.375586,"is_reserved":false,"is_disabled":true,"rental_uris":{"android":"levelo://app?vid=76e4e42b-ff1f-4fe8-a54e-d42a16767785","ios":"levelo://app?vid=76e4e42b-ff1f-4fe8-a54e-d42a16767785"},"vehicle_type_id":"4","last_reported":1768006698,"current_range_meters":8000,"station_id":"ce4bhgh2rcd13ifvqfa0","pricing_plan_id":"cebpf4jnsgd1na2vs0mg"},{"bike_id":"07ddf1b5-bcab-4acd-beb5-2d170db3f9c2","system_id":"levelo_inurba_marseille","lat":43.28688,"lon":5.37406,"is_reserved":false,"is_disabled":false,"rental_uris":{"android":"levelo://app?vid=07ddf1b5-bcab-4acd-beb5-2d170db3f9c2","ios":"levelo://app?vid=07ddf1b5-bcab-4acd-beb5-2d170db3f9c2"},"vehicle_type_id":"4","last_reported":1768006698,"current_range_meters":8000,"station_id":"ce4bh3p2rcd13ifvqdq0","pricing_plan_id":"cebpf4jnsgd1na2vs0mg"},{"bike_id":"0d766240-8416-4864-ac60-8bf893bba867","system_id":"levelo_inurba_marseille","lat":43.28665,"lon":5.37224,"is_reserved":false,"is_disabled":false,"rental_uris":{"android":"levelo://app?vid=0d766240-8416-4864-ac60-8bf893bba867","ios":"levelo://app?vid=0d766240-8416-4864-ac60-8bf893bba867"},"vehicle_type_id":"4","last_reported":1768006698,"current_range_meters":8000,"station_id":"","pricing_plan_id":"cebpf4jnsgd1na2vs0mg"},{"bike_id":"a35a07e6-7d61-40c1-8140-fe4a15aa048f","system_id":"levelo_inurba_marseille","lat":43.257274,"lon":5.411161,"is_reserved":false,"is_disabled":false,"rental_uris":{"android":"levelo://app?vid=a35a07e6-7d61-40c1-8140-fe4a15aa048f","ios":"levelo://app?vid=a35a07e6-7d61-40c1-8140-fe4a15aa048f"},"vehicle_type_id":"4","last_reported":1768006698,"current_range_meters":8000,"station_id":"ce4bhkp2rcd13ifvqgd0","pricing_plan_id":"cebpf4jnsgd1na2vs0mg"},{"bike_id":"42a28056-19ca-43e7-88e3-95ddef663760","system_id":"levelo_inurba_marseille","lat":43.27391,"lon":5.36287,"is_reserved":false,"is_disabled":false,"rental_uris":{"android":"levelo://app?vid=42a28056-19ca-43e7-88e3-95ddef663760","ios":"levelo://app?vid=42a28056-19ca-43e7-88e3-95ddef663760"},"vehicle_type_id":"4","last_reported":1768006698,"current_range_meters":8000,"station_id":"ce4bhbh2rcd13ifvqeo0","pricing_plan_id":"cebpf4jnsgd1na2vs0mg"},{"bike_id":"5524341e-641e-442f-849f-a931fdf72ad1","system_id":"levelo_inurba_marseille","lat":43.28412,"lon":5.37527,"is_reserved":false,"is_disabled":true,"rental_uris":{"android":"levelo://app?vid=5524341e-641e-442f-849f-a931fdf72ad1","ios":"levelo://app?vid=5524341e-641e-442f-849f-a931fdf72ad1"},"vehicle_type_id":"4","last_reported":1768006698,"current_range_meters":8000,"station_id":"ce4bh412rcd13ifvqds0","pricing_plan_id":"cebpf4jnsgd1na2vs0mg"},{"bike_id":"7c640365-b299-4181-8ff3-7c6e721a595a","system_id":"levelo_inurba_marseille","lat":43.31173,"lon":5.38713,"is_reserved":false,"is_disabled":false,"rental_uris":{"android":"levelo://app?vid=7c640365-b299-4181-8ff3-7c6e721a595a","ios":"levelo://app?vid=7c640365-b299-4181-8ff3-7c6e721a595a"},"vehicle_type_id":"4","last_reported":1768006698,"current_range_meters":8000,"station_id":"ce4bgv12rcd13ifvqcp0","pricing_plan_id":"cebpf4jnsgd1na2vs0mg"},{"bike_id":"77dac1c7-2c2b-4b7d-a17f-fc17465b83b7","system_id":"levelo_inurba_marseille","lat":43.24807,"lon":5.37431,"is_reserved":false,"is_disabled":false,"rental_uris":{"android":"levelo://app?vid=77dac1c7-2c2b-4b7d-a17f-fc17465b83b7","ios":"levelo://app?vid=77dac1c7-2c2b-4b7d-a17f-fc17465b83b7"},"vehicle_type_id":"4","last_reported":1768006698,"current_range_meters":8000,"station_id":"ce4bhgh2rcd13ifvqfb0","pricing_plan_id":"cebpf4jnsgd1na2vs0mg"},{"bike_id":"63039f94-7c0b-492d-82c3-8dfe919cb0f8","system_id":"levelo_inurba_marseille","lat":43.28908,"lon":5.38402,"is_reserved":false,"is_disabled":false,"rental_uris":{"android":"levelo://app?vid=63039f94-7c0b-492d-82c3-8dfe919cb0f8","ios":"levelo://app?vid=63039f94-7c0b-492d-82c3-8dfe919cb0f8"},"vehicle_type_id":"4","last_reported":1768006698,"current_range_meters":8000,"station_id":"ce4bh612rcd13ifvqe6g","pricing_plan_id":"cebpf4jnsgd1na2vs0mg"},{"bike_id":"706874b1-1a91-436a-a68b-caab7feaaf4b","system_id":"levelo_inurba_marseille","lat":43.301273,"lon":5.431108,"is_reserved":false,"is_disabled":false,"rental_uris":{"android":"levelo://app?vid=706874b1-1a91-436a-a68b-caab7feaaf4b","ios":"levelo://app?vid=706874b1-1a91-436a-a68b-caab7feaaf4b"},"vehicle_type_id":"4","last_reported":1768006698,"current_range_meters":8400,"station_id":"st_d3js3co5814s73ftftug","pricing_plan_id":"cebpf4jnsgd1na2vs0mg"},{"bike_id":"7b614eb9-ac4b-4cd3-97d4-d21490e2142a","system_id":"levelo_inurba_marseille","lat":43.29759,"lon":5.42773,"is_reserved":false,"is_disabled":false,"rental_uris":{"android":"levelo://app?vid=7b614eb9-ac4b-4cd3-97d4-d21490e2142a","ios":"levelo://app?vid=7b614eb9-ac4b-4cd3-97d4-d21490e2142a"},"vehicle_type_id":"4","last_reported":1768006698,"current_range_meters":8400,"station_id":"st_d3md5207bmas73dh9klg","pricing_plan_id":"cebpf4jnsgd1na2vs0mg"},{"bike_id":"2a282b80-7b90-4dc8-964e-70060a433be7","system_id":"levelo_inurba_marseille","lat":43.23192,"lon":5.355564,"is_reserved":false,"is_disabled":false,"rental_uris":{"android":"levelo://app?vid=2a282b80-7b90-4dc8-964e-70060a433be7","ios":"levelo://app?vid=2a282b80-7b90-4dc8-964e-70060a433be7"},"vehicle_type_id":"4","last_reported":1768006698,"current_range_meters":8400,"station_id":"ce4bhu92rcd13ifvqi70","pricing_plan_id":"cebpf4jnsgd1na2vs0mg"},{"bike_id":"a31a5e09-760d-4df0-a42c-5ad4c665a29b","system_id":"levelo_inurba_marseille","lat":43.25494,"lon":5.37675,"is_reserved":false,"is_disabled":false,"rental_uris":{"android":"levelo://app?vid=a31a5e09-760d-4df0-a42c-5ad4c665a29b","ios":"levelo://app?vid=a31a5e09-760d-4df0-a42c-5ad4c665a29b"},"vehicle_type_id":"4","last_reported":1768006698,"current_range_meters":8400,"station_id":"ce4bhh12rcd13ifvqff0","pricing_plan_id":"cebpf4jnsgd1na2vs0mg"},{"bike_id":"655a9b99-52a8-4faf-885c-a661e20365be","system_id":"levelo_inurba_marseille","lat":43.260607,"lon":5.393993,"is_reserved":false,"is_disabled":false,"rental_uris":{"android":"levelo://app?vid=655a9b99-52a8-4faf-885c-a661e20365be","ios":"levelo://app?vid=655a9b99-52a8-4faf-885c-a661e20365be"},"vehicle_type_id":"4","last_reported":1768006698,"current_range_meters":8400,"station_id":"ce4bhh92rcd13ifvqfj0","pricing_plan_id":"cebpf4jnsgd1na2vs0mg"},{"bike_id":"fb54c922-73a4-4918-a766-b56f627742d6","system_id":"levelo_inurba_marseille","lat":43.24393,"lon":5.37059,"is_reserved":false,"is_disabled":false,"rental_uris":{"android":"levelo://app?vid=fb54c922-73a4-4918-a766-b56f627742d6","ios":"levelo://app?vid=fb54c922-73a4-4918-a766-b56f627742d6"},"vehicle_type_id":"4","last_reported":1768006698,"current_range_meters":8400,"station_id":"ce4bhhh2rcd13ifvqfk0","pricing_plan_id":"cebpf4jnsgd1na2vs0mg"},{"bike_id":"daf57677-cc93-44ea-b6dc-832701b9304c","system_id":"levelo_inurba_marseille","lat":43.29551,"lon":5.37571,"is_reserved":false,"is_disabled":false,"rental_uris":{"android":"levelo://app?vid=daf57677-cc93-44ea-b6dc-832701b9304c","ios":"levelo://app?vid=daf57677-cc93-44ea-b6dc-832701b9304c"},"vehicle_type_id":"4","last_reported":1768006698,"current_range_meters":8400,"station_id":"ce4bgh92rcd13ifvqb50","pricing_plan_id":"cebpf4jnsgd1na2vs0mg"},{"bike_id":"77ec842d-d920-4ce7-8f6b-45a2f3b882c4","system_id":"levelo_inurba_marseille","lat":43.27812,"lon":5.40716,"is_reserved":false,"is_disabled":false,"rental_uris":{"android":"levelo://app?vid=77ec842d-d920-4ce7-8f6b-45a2f3b882c4","ios":"levelo://app?vid=77ec842d-d920-4ce7-8f6b-45a2f3b882c4"},"vehicle_type_id":"4","last_reported":1768006698,"current_range_meters":8400,"station_id":"ce4bhnh2rcd13ifvqgtg","pricing_plan_id":"cebpf4jnsgd1na2vs0mg"},{"bike_id":"a9a97530-f4ae-45c7-bbe9-02cb7807c19a","system_id":"levelo_inurba_marseille","lat":43.312755,"lon":5.401676,"is_reserved":false,"is_disabled":false,"rental_uris":{"android":"levelo://app?vid=a9a97530-f4ae-45c7-bbe9-02cb7807c19a","ios":"levelo://app?vid=a9a97530-f4ae-45c7-bbe9-02cb7807c19a"},"vehicle_type_id":"4","last_reported":1768006698,"current_range_meters":8400,"station_id":"","pricing_plan_id":"cebpf4jnsgd1na2vs0mg"},{"bike_id":"1444e0da-7b27-4f48-bdfa-30ab980c9925","system_id":"levelo_inurba_marseille","lat":43.259214,"lon":5.409048,"is_reserved":false,"is_disabled":false,"rental_uris":{"android":"levelo://app?vid=1444e0da-7b27-4f48-bdfa-30ab980c9925","ios":"levelo://app?vid=1444e0da-7b27-4f48-bdfa-30ab980c9925"},"vehicle_type_id":"4","last_reported":1768006698,"current_range_meters":8400,"station_id":"ce4bhm92rcd13ifvqglg","pricing_plan_id":"cebpf4jnsgd1na2vs0mg"},{"bike_id":"9ab8ec0b-173e-483a-a609-e947f01d9af1","system_id":"levelo_inurba_marseille","lat":43.29307,"lon":5.37167,"is_reserved":false,"is_disabled":false,"rental_uris":{"android":"levelo://app?vid=9ab8ec0b-173e-483a-a609-e947f01d9af1","ios":"levelo://app?vid=9ab8ec0b-173e-483a-a609-e947f01d9af1"},"vehicle_type_id":"4","last_reported":1768006698,"current_range_meters":8400,"station_id":"ce4bgh92rcd13ifvqb40","pricing_plan_id":"cebpf4jnsgd1na2vs0mg"},{"bike_id":"5fcb247a-afaf-4f3a-9951-ba3b1a50553c","system_id":"levelo_inurba_marseille","lat":43.28858,"lon":5.42515,"is_reserved":false,"is_disabled":false,"rental_uris":{"android":"levelo://app?vid=5fcb247a-afaf-4f3a-9951-ba3b1a50553c","ios":"levelo://app?vid=5fcb247a-afaf-4f3a-9951-ba3b1a50553c"},"vehicle_type_id":"4","last_reported":1768006698,"current_range_meters":8400,"station_id":"st_d3b462108ojc7389ooeg","pricing_plan_id":"cebpf4jnsgd1na2vs0mg"},