{"last_updated":1683385548,"ttl":30,"version":"2.2","data":{"bikes":[{"bike_id":"6965e59d-65bb-4732-b9e2-31967522d237","system_id":"levelo_inurba_marseille","lat":43.312239,"lon":5.368562,"is_reserved":false,"is_disabled":false,"rental_uris":{"android":"levelo://app?vid=6965e59d-65bb-4732-b9e2-31967522d237","ios":"levelo://app?vid=6965e59d-65bb-4732-b9e2-31967522d237"},"vehicle_type_id":"4","last_reported":1683385549,"current_range_meters":21600,"station_id":"ce4bgl92rcd13ifvqbq0","pricing_plan_id":"free"},{"bike_id":"a4caac17-e0a3-412f-96ad-c77201f6c4d7","system_id":"levelo_inurba_marseille","lat":43.314811,"lon":5.373103,"is_reserved":false,"is_disabled":false,"rental_uris":{"android":"levelo://app?vid=a4caac17-e0a3-412f-96ad-c77201f6c4d7","ios":"levelo://app?vid=a4caac17-e0a3-412f-96ad-c77201f6c4d7"},"vehicle_type_id":"4","last_reported":1683385549,"current_range_meters":28800,"station_id":"ce4bgt12rcd13ifvqcd0","pricing_plan_id":"free"},{"bike_id":"caea2489-5a5d-4f00-8e78-8c319f8ed68e","system_id":"levelo_inurba_marseille","lat":43.3057,"lon":5.36553,"is_reserved":false,"is_disabled":false,"rental_uris":{"android":"levelo://app?vid=caea2489-5a5d-4f00-8e78-8c319f8ed68e","ios":"levelo://app?vid=caea2489-5a5d-4f00-8e78-8c319f8ed68e"},"vehicle_type_id":"4","last_reported":1683385549,"current_range_meters":6000,"station_id":"","pricing_plan_id":"free"},{"bike_id":"29e56eea-1207-46fd-a112-d8e7a3a1af2e","system_id":"levelo_inurba_marseille","lat":43.305989,"lon":5.37225,"is_reserved":false,"is_disabled":false,"rental_uris":{"android":"levelo://app?vid=29e56eea-1207-46fd-a112-d8e7a3a1af2e","ios":"levelo://app?vid=29e56eea-1207-46fd-a112-d8e7a3a1af2e"},"vehicle_type_id":"4","last_reported":1683385549,"current_range_meters":15200,"station_id":"ce4bgqh2rcd13ifvqc4g","pricing_plan_id":"free"},{"bike_id":"ad3b32ed-d985-4190-b487-ee7ddca15acb","system_id":"levelo_inurba_marseille","lat":43.305989,"lon":5.37225,"is_reserved":false,"is_disabled":false,"rental_uris":{"android":"levelo://app?vid=ad3b32ed-d985-4190-b487-ee7ddca15acb","ios":"levelo://app?vid=ad3b32ed-d985-4190-b487-ee7ddca15acb"},"vehicle_type_id":"4","last_reported":1683385549,"current_range_meters":14800,"station_id":"ce4bgqh2rcd13ifvqc4g","pricing_plan_id":"free"},{"bike_id":"7e39bad2-0d6f-452a-a4b9-77daca51a6ee","system_id":"levelo_inurba_marseille","lat":43.30599,"lon":5.37236,"is_reserved":false,"is_disabled":false,"rental_uris":{"android":"levelo://app?vid=7e39bad2-0d6f-452a-a4b9-77daca51a6ee","ios":"levelo://app?vid=7e39bad2-0d6f-452a-a4b9-77daca51a6ee"},"vehicle_type_id":"4","last_reported":1683385549,"current_range_meters":13600,"station_id":"ce4bgqh2rcd13ifvqc4g","pricing_plan_id":"free"},{"bike_id":"0ad25ce9-38ca-4157-9bf8-7d44d3449c96","system_id":"levelo_inurba_marseille","lat":43.305989,"lon":5.37225,"is_reserved":false,"is_disabled":false,"rental_uris":{"android":"levelo://app?vid=0ad25ce9-38ca-4157-9bf8-7d44d3449c96","ios":"levelo://app?vid=0ad25ce9-38ca-4157-9bf8-7d44d3449c96"},"vehicle_type_id":"4","last_reported":1683385549,"current_range_meters":18400,"station_id":"ce4bgqh2rcd13ifvqc4g","pricing_plan_id":"free"},{"bike_id":"121bcd91-5f14-460c-a875-40e2214d56a2","system_id":"levelo_inurba_marseille","lat":43.317075,"lon":5.377367,"is_reserved":false,"is_disabled":false,"rental_uris":{"android":"levelo://app?vid=121bcd91-5f14-460c-a875-40e2214d56a2","ios":"levelo://app?vid=121bcd91-5f14-460c-a875-40e2214d56a2"},"vehicle_type_id":"4","last_reported":1683385549,"current_range_meters":30000,"station_id":"ce4bgth2rcd13ifvqch0","pricing_plan_id":"free"},{"bike_id":"245c1e28-3e9d-4163-a52a-9dcd1d6daa13","system_id":"levelo_inurba_marseille","lat":43.317075,"lon":5.377367,"is_reserved":false,"is_disabled":false,"rental_uris":{"android":"levelo://app?vid=245c1e28-3e9d-4163-a52a-9dcd1d6daa13","ios":"levelo://app?vid=245c1e28-3e9d-4163-a52a-9dcd1d6daa13"},"vehicle_type_id":"4","last_reported":1683385549,"current_range_meters":31200,"station_id":"ce4bgth2rcd13ifvqch0","pricing_plan_id":"free"},{"bike_id":"2114a6b2-e574-42fa-a3ce-a7c7154196b6","system_id":"levelo_inurba_marseille","lat":43.317075,"lon":5.377367,"is_reserved":false,"is_disabled":false,"rental_uris":{"android":"levelo://app?vid=2114a6b2-e574-42fa-a3ce-a7c7154196b6","ios":"levelo://app?vid=2114a6b2-e574-42fa-a3ce-a7c7154196b6"},"vehicle_type_id":"4","last_reported":1683385549,"current_range_meters":31200,"station_id":"ce4bgth2rcd13ifvqch0","pricing_plan_id":"free"},{"bike_id":"5a1ebad7-4fa1-40e7-91f8-f01754aa2117","system_id":"levelo_inurba_marseille","lat":43.30313,"lon":5.36455,"is_reserved":false,"is_disabled":false,"rental_uris":{"android":"levelo://app?vid=5a1ebad7-4fa1-40e7-91f8-f01754aa2117","ios":"levelo://app?vid=5a1ebad7-4fa1-40e7-91f8-f01754aa2117"},"vehicle_type_id":"4","last_reported":1683385549,"current_range_meters":6800,"station_id":"","pricing_plan_id":"free"},{"bike_id":"fee54fe4-9541-4d4e-aa71-b798a36c10ff","system_id":"levelo_inurba_marseille","lat":43.315293,"lon":5.380349,"is_reserved":false,"is_disabled":false,"rental_uris":{"android":"levelo://app?vid=fee54fe4-9541-4d4e-aa71-b798a36c10ff","ios":"levelo://app?vid=fee54fe4-9541-4d4e-aa71-b798a36c10ff"},"vehicle_type_id":"4","last_reported":1683385549,"current_range_meters":24000,"station_id":"ce4bhsp2rcd13ifvqi50","pricing_plan_id":"free"},{"bike_id":"8dea4a5a-ad07-414d-baa0-f03eacfc7963","system_id":"levelo_inurba_marseille","lat":43.30792,"lon":5.38141,"is_reserved":false,"is_disabled":false,"rental_uris":{"android":"levelo://app?vid=8dea4a5a-ad07-414d-baa0-f03eacfc7963","ios":"levelo://app?vid=8dea4a5a-ad07-414d-baa0-f03eacfc7963"},"vehicle_type_id":"4","last_reported":1683385549,"current_range_meters":0,"station_id":"ce4bgt12rcd13ifvqce0","pricing_plan_id":"free"},{"bike_id":"30d041d6-bbcb-4833-93f1-41f178a2c028","system_id":"levelo_inurba_marseille","lat":43.304606,"lon":5.379026,"is_reserved":false,"is_disabled":false,"rental_uris":{"android":"levelo://app?vid=30d041d6-bbcb-4833-93f1-41f178a2c028","ios":"levelo://app?vid=30d041d6-bbcb-4833-93f1-41f178a2c028"},"vehicle_type_id":"4","last_reported":1683385549,"current_range_meters":22000,"station_id":"ce4bgup2rcd13ifvqcn0","pricing_plan_id":"free"},{"bike_id":"3f607c52-7ece-4661-8577-6740886dbf1b","system_id":"levelo_inurba_marseille","lat":43.304606,"lon":5.379026,"is_reserved":false,"is_disabled":false,"rental_uris":{"android":"levelo://app?vid=3f607c52-7ece-4661-8577-6740886dbf1b","ios":"levelo://app?vid=3f607c52-7ece-4661-8577-6740886dbf1b"},"vehicle_type_id":"4","last_reported":1683385549,"current_range_meters":22400,"station_id":"ce4bgup2rcd13ifvqcn0","pricing_plan_id":"free"},{"bike_id":"f6c64a9d-d5f6-48c4-8a81-960fe0f29fb2","system_id":"levelo_inurba_marseille","lat":43.31365,"lon":5.38518,"is_reserved":false,"is_disabled":false,"rental_uris":{"android":"levelo://app?vid=f6c64a9d-d5f6-48c4-8a81-960fe0f29fb2","ios":"levelo://app?vid=f6c64a9d-d5f6-48c4-8a81-960fe0f29fb2"},"vehicle_type_id":"4","last_reported":1683385549,"current_range_meters":17600,"station_id":"","pricing_plan_id":"free"},{"bike_id":"7eddbeb7-7c95-43e7-8316-75ae2caaf55b","system_id":"levelo_inurba_marseille","lat":43.299222,"lon":5.365554,"is_reserved":false,"is_disabled":false,"rental_uris":{"android":"levelo://app?vid=7eddbeb7-7c95-43e7-8316-75ae2caaf55b","ios":"levelo://app?vid=7eddbeb7-7c95-43e7-8316-75ae2caaf55b"},"vehicle_type_id":"4","last_reported":1683385549,"current_range_meters":20800,"station_id":"ce4bgm92rcd13ifvqbr0","pricing_plan_id":"free"},{"bike_id":"bcf12486-4d40-4884-969b-2c19f244a968","system_id":"levelo_inurba_marseille","lat":43.29892,"lon":5.36688,"is_reserved":false,"is_disabled":false,"rental_uris":{"android":"levelo://app?vid=bcf12486-4d40-4884-969b-2c19f244a968","ios":"levelo://app?vid=bcf12486-4d40-4884-969b-2c19f244a968"},"vehicle_type_id":"4","last_reported":1683385549,"current_range_meters":0,"station_id":"","pricing_plan_id":"free"},{"bike_id":"9a8cb2cd-7757-4f79-b6cf-f301b5954263","system_id":"levelo_inurba_marseille","lat":43.30044,"lon":5.37633,"is_reserved":false,"is_disabled":false,"rental_uris":{"android":"levelo://app?vid=9a8cb2cd-7757-4f79-b6cf-f301b5954263","ios":"levelo://app?vid=9a8cb2cd-7757-4f79-b6cf-f301b5954263"},"vehicle_type_id":"4","last_reported":1683385549,"current_range_meters":22000,"station_id":"","pricing_plan_id":"free"},{"bike_id":"04cb9e6c-7880-47a8-921a-d0bf94d9fcf8","system_id":"levelo_inurba_marseille","lat":43.299243,"lon":5.37481,"is_reserved":false,"is_disabled":false,"rental_uris":{"android":"levelo://app?vid=04cb9e6c-7880-47a8-921a-d0bf94d9fcf8","ios":"levelo://app?vid=04cb9e6c-7880-47a8-921a-d0bf94d9fcf8"},"vehicle_type_id":"4","last_reported":1683385549,"current_range_meters":18400,"station_id":"ce4bgjh2rcd13ifvqbg0","pricing_plan_id":"free"},{"bike_id":"aba50e0b-5c25-48f4-bd6d-440f8726f1f3","system_id":"levelo_inurba_marseille","lat":43.3029,"lon":5.38188,"is_reserved":false,"is_disabled":false,"rental_uris":{"android":"levelo://app?vid=aba50e0b-5c25-48f4-bd6d-440f8726f1f3","ios":"levelo://app?vid=aba50e0b-5c25-48f4-bd6d-440f8726f1f3"},"vehicle_type_id":"4","last_reported":1683385549,"current_range_meters":7200,"station_id":"","pricing_plan_id":"free"},{"bike_id":"2a1de36d-0f92-48ac-ac82-11272a1b25ba","system_id":"levelo_inurba_marseille","lat":43.299243,"lon":5.37481,"is_reserved":false,"is_disabled":false,"rental_uris":{"android":"levelo://app?vid=2a1de36d-0f92-48ac-ac82-11272a1b25ba","ios":"levelo://app?vid=2a1de36d-0f92-48ac-ac82-11272a1b25ba"},"vehicle_type_id":"4","last_reported":1683385549,"current_range_meters":16400,"station_id":"ce4bgjh2rcd13ifvqbg0","pricing_plan_id":"free"},{"bike_id":"3a050134-0f78-4c90-b6d5-2553f632554d","system_id":"levelo_inurba_marseille","lat":43.299243,"lon":5.37481,"is_reserved":false,"is_disabled":false,"rental_uris":{"android":"levelo://app?vid=3a050134-0f78-4c90-b6d5-2553f632554d","ios":"levelo://app?vid=3a050134-0f78-4c90-b6d5-2553f632554d"},"vehicle_type_id":"4","last_reported":1683385549,"current_range_meters":1600,"station_id":"ce4bgjh2rcd13ifvqbg0","pricing_plan_id":"free"},{"bike_id":"68c0e3ac-4fc9-4e78-bb36-c8127ae317fe","system_id":"levelo_inurba_marseille","lat":43.311722,"lon":5.387247,"is_reserved":false,"is_disabled":false,"rental_uris":{"android":"levelo://app?vid=68c0e3ac-4fc9-4e78-bb36-c8127ae317fe","ios":"levelo://app?vid=68c0e3ac-4fc9-4e78-bb36-c8127ae317fe"},"vehicle_type_id":"4","last_reported":1683385549,"current_range_meters":26000,"station_id":"ce4bgv12rcd13ifvqcp0","pricing_plan_id":"free"},{"bike_id":"d697a0f2-aeec-4334-b68c-25fa38a35739","system_id":"levelo_inurba_marseille","lat":43.311722,"lon":5.387247,"is_reserved":false,"is_disabled":false,"rental_uris":{"android":"levelo://app?vid=d697a0f2-aeec-4334-b68c-25fa38a35739","ios":"levelo://app?vid=d697a0f2-aeec-4334-b68c-25fa38a35739"},"vehicle_type_id":"4","last_reported":1683385549,"current_range_meters":24800,"station_id":"ce4bgv12rcd13ifvqcp0","pricing_plan_id":"free"},{"bike_id":"26d4c3eb-893c-43ae-9cd7-34a0923dcf69","system_id":"levelo_inurba_marseille","lat":43.299243,"lon":5.37481,"is_reserved":false,"is_disabled":false,"rental_uris":{"android":"levelo://app?vid=26d4c3eb-893c-43ae-9cd7-34a0923dcf69","ios":"levelo://app?vid=26d4c3eb-893c-43ae-9cd7-34a0923dcf69"},"vehicle_type_id":"4","last_reported":1683385549,"current_range_meters":12000,"station_id":"ce4bgjh2rcd13ifvqbg0","pricing_plan_id":"free"},{"bike_id":"1dda8530-c073-457a-9abb-5431c8d4945d","system_id":"levelo_inurba_marseille","lat":43.297794,"lon":5.370888,"is_reserved":false,"is_disabled":false,"rental_uris":{"android":"levelo://app?vid=1dda8530-c073-457a-9abb-5431c8d4945d","ios":"levelo://app?vid=1dda8530-c073-457a-9abb-5431c8d4945d"},"vehicle_type_id":"4","last_reported":1683385549,"current_range_meters":23200,"station_id":"ce4bgop2rcd13ifvqc1g","pricing_plan_id":"free"},{"bike_id":"503dbd52-d702-49cd-b837-25a878da88db","system_id":"levelo_inurba_marseille","lat":43.297794,"lon":5.370888,"is_reserved":false,"is_disabled":false,"rental_uris":{"android":"levelo://app?vid=503dbd52-d702-49cd-b837-25a878da88db","ios":"levelo://app?vid=503dbd52-d702-49cd-b837-25a878da88db"},"vehicle_type_id":"4","last_reported":1683385549,"current_range_meters":15600,"station_id":"ce4bgop2rcd13ifvqc1g","pricing_plan_id":"free"},{"bike_id":"934445bc-111d-41db-b60a-9206156f34d0","system_id":"levelo_inurba_marseille","lat":43.297774,"lon":5.370875,"is_reserved":false,"is_disabled":false,"rental_uris":{"android":"levelo://app?vid=934445bc-111d-41db-b60a-9206156f34d0","ios":"levelo://app?vid=934445bc-111d-41db-b60a-9206156f34d0"},"vehicle_type_id":"4","last_reported":1683385549,"current_range_meters":20400,"station_id":"ce4bgop2rcd13ifvqc1g","pricing_plan_id":"free"},{"bike_id":"fa495c37-f7d4-465f-a146-0169143d7693","system_id":"levelo_inurba_marseille","lat":43.328371,"lon":5.366912,"is_reserved":false,"is_disabled":false,"rental_uris":{"android":"levelo://app?vid=fa495c37-f7d4-465f-a146-0169143d7693","ios":"levelo://app?vid=fa495c37-f7d4-465f-a146-0169143d7693"},"vehicle_type_id":"4","last_reported":1683385549,"current_range_meters":14400,"station_id":"ce4bhs92rcd13ifvqi0g","pricing_plan_id":"free"},{"bike_id":"09054360-699d-4577-bd1c-984ceec4cb01","system_id":"levelo_inurba_marseille","lat":43.328371,"lon":5.366912,"is_reserved":false,"is_disabled":false,"rental_uris":{"android":"levelo://app?vid=09054360-699d-4577-bd1c-984ceec4cb01","ios":"levelo://app?vid=09054360-699d-4577-bd1c-984ceec4cb01"},"vehicle_type_id":"4","last_reported":1683385549,"current_range_meters":7600,"station_id":"ce4bhs92rcd13ifvqi0g","pricing_plan_id":"free"},{"bike_id":"cb03d0a7-8198-46ba-b8e4-07d3539f0078","system_id":"levelo_inurba_marseille","lat":43.328371,"lon":5.366912,"is_reserved":false,"is_disabled":false,"rental_uris":{"android":"levelo://app?vid=cb03d0a7-8198-46ba-b8e4-07d3539f0078","ios":"levelo://app?vid=cb03d0a7-8198-46ba-b8e4-07d3539f0078"},"vehicle_type_id":"4","last_reported":1683385549,"current_range_meters":18800,"station_id":"ce4bhs92rcd13ifvqi0g","pricing_plan_id":"free"},{"bike_id":"aafcc005-5e38-4c52-a10d-6d0f89f0012b","system_id":"levelo_inurba_marseille","lat":43.302008,"lon":5.394694,"is_reserved":false,"is_disabled":false,"rental_uris":{"android":"levelo://app?vid=aafcc005-5e38-4c52-a10d-6d0f89f0012b","ios":"levelo://app?vid=aafcc005-5e38-4c52-a10d-6d0f89f0012b"},"vehicle_type_id":"4","last_reported":1683385549,"current_range_meters":4800,"station_id":"ce4bh0p2rcd13ifvqd70","pricing_plan_id":"free"},{"bike_id":"12be0f19-b0f2-4d2b-af42-2de588415228","system_id":"levelo_inurba_marseille","lat":43.29584,"lon":5.36744,"is_reserved":false,"is_disabled":false,"rental_uris":{"android":"levelo://app?vid=12be0f19-b0f2-4d2b-af42-2de588415228","ios":"levelo://app?vid=12be0f19-b0f2-4d2b-af42-2de588415228"},"vehicle_type_id":"4","last_reported":1683385549,"current_range_meters":0,"station_id":"","pricing_plan_id":"free"},{"bike_id":"2d191100-69f2-4775-ae46-d0ce02b8a7a9","system_id":"levelo_inurba_marseille","lat":43.29573,"lon":5.367355,"is_reserved":false,"is_disabled":false,"rental_uris":{"android":"levelo://app?vid=2d191100-69f2-4775-ae46-d0ce02b8a7a9","ios":"levelo://app?vid=2d191100-69f2-4775-ae46-d0ce02b8a7a9"},"vehicle_type_id":"4","last_reported":1683385549,"current_range_meters":10400,"station_id":"ce4bgph2rcd13ifvqc2g","pricing_plan_id":"free"},{"bike_id":"59311f82-5338-4890-8937-e86aba917333","system_id":"levelo_inurba_marseille","lat":43.299028,"lon":5.381509,"is_reserved":false,"is_disabled":false,"rental_uris":{"android":"levelo://app?vid=59311f82-5338-4890-8937-e86aba917333","ios":"levelo://app?vid=59311f82-5338-4890-8937-e86aba917333"},"vehicle_type_id":"4","last_reported":1683385549,"current_range_meters":400,"station_id":"ce4bgj12rcd13ifvqbc0","pricing_plan_id":"free"},{"bike_id":"bd418652-dba9-481a-90b8-9b9985de1049","system_id":"levelo_inurba_marseille","lat":43.309589,"lon":5.390258,"is_reserved":false,"is_disabled":false,"rental_uris":{"android":"levelo://app?vid=bd418652-dba9-481a-90b8-9b9985de1049","ios":"levelo://app?vid=bd418652-dba9-481a-90b8-9b9985de1049"},"vehicle_type_id":"4","last_reported":1683385549,"current_range_meters":22800,"station_id":"ce4bgup2rcd13ifvqco0","pricing_plan_id":"free"},{"bike_id":"52d79e26-030c-4211-b097-9ace811de4e4","system_id":"levelo_inurba_marseille","lat":43.31198,"lon":5.39071,"is_reserved":false,"is_disabled":false,"rental_uris":{"android":"levelo://app?vid=52d79e26-030c-4211-b097-9ace811de4e4","ios":"levelo://app?vid=52d79e26-030c-4211-b097-9ace811de4e4"},"vehicle_type_id":"4","last_reported":1683385549,"current_range_meters":30400,"station_id":"","pricing_plan_id":"free"},{"bike_id":"704b2757-fa24-4913-9436-ab8fd538e00a","system_id":"levelo_inurba_marseille","lat":43.309589,"lon":5.390258,"is_reserved":false,"is_disabled":false,"rental_uris":{"android":"levelo://app?vid=704b2757-fa24-4913-9436-ab8fd538e00a","ios":"levelo://app?vid=704b2757-fa24-4913-9436-ab8fd538e00a"},"vehicle_type_id":"4","last_reported":1683385549,"current_range_meters":28800,"station_id":"ce4bgup2rcd13ifvqco0","pricing_plan_id":"free"},{"bike_id":"27d6ebf0-73c9-48f8-af39-fee9e35e7f2e","system_id":"levelo_inurba_marseille","lat":43.30949,"lon":5.39048,"is_reserved":false,"is_disabled":false,"rental_uris":{"android":"levelo://app?vid=27d6ebf0-73c9-48f8-af39-fee9e35e7f2e","ios":"levelo://app?vid=27d6ebf0-73c9-48f8-af39-fee9e35e7f2e"},"vehicle_type_id":"4","last_reported":1683385549,"current_range_meters":27200,"station_id":"ce4bgup2rcd13ifvqco0","pricing_plan_id":"free"},{"bike_id":"6245d845-b2e5-46e3-93fe-c41fb32dff4f","system_id":"levelo_inurba_marseille","lat":43.317557,"lon":5.390173,"is_reserved":false,"is_disabled":false,"rental_uris":{"android":"levelo://app?vid=6245d845-b2e5-46e3-93fe-c41fb32dff4f","ios":"levelo://app?vid=6245d845-b2e5-46e3-93fe-c41fb32dff4f"},"vehicle_type_id":"4","last_reported":1683385549,"current_range_meters":0,"station_id":"ce4bhqp2rcd13ifvqhng","pricing_plan_id":"free"},{"bike_id":"5a986945-8b3d-4384-8749-6580af4bc46b","system_id":"levelo_inurba_marseille","lat":43.317557,"lon":5.390173,"is_reserved":false,"is_disabled":false,"rental_uris":{"android":"levelo://app?vid=5a986945-8b3d-4384-8749-6580af4bc46b","ios":"levelo://app?vid=5a986945-8b3d-4384-8749-6580af4bc46b"},"vehicle_type_id":"4","last_reported":1683385549,"current_range_meters":21600,"station_id":"ce4bhqp2rcd13ifvqhng","pricing_plan_id":"free"},{"bike_id":"c76a7372-3d91-4ad9-909f-2f26f00db560","system_id":"levelo_inurba_marseille","lat":43.317557,"lon":5.390173,"is_reserved":false,"is_disabled":false,"rental_uris":{"android":"levelo://app?vid=c76a7372-3d91-4ad9-909f-2f26f00db560","ios":"levelo://app?vid=c76a7372-3d91-4ad9-909f-2f26f00db560"},"vehicle_type_id":"4","last_reported":1683385549,"current_range_meters":28400,"station_id":"ce4bhqp2rcd13ifvqhng","pricing_plan_id":"free"},{"bike_id":"114bf342-1496-4a5a-bd43-1beb8894787a","system_id":"levelo_inurba_marseille","lat":43.317557,"lon":5.390173,"is_reserved":false,"is_disabled":false,"rental_uris":{"android":"levelo://app?vid=114bf342-1496-4a5a-bd43-1beb8894787a","ios":"levelo://app?vid=114bf342-1496-4a5a-bd43-1beb8894787a"},"vehicle_type_id":"4","last_reported":1683385549,"current_range_meters":24000,"station_id":"ce4bhqp2rcd13ifvqhng","pricing_plan_id":"free"},{"bike_id":"60c66c87-4ca4-4156-b8a6-eda8bd157ca4","system_id":"levelo_inurba_marseille","lat":43.317557,"lon":5.390173,"is_reserved":false,"is_disabled":false,"rental_uris":{"android":"levelo://app?vid=60c66c87-4ca4-4156-b8a6-eda8bd157ca4","ios":"levelo://app?vid=60c66c87-4ca4-4156-b8a6-eda8bd157ca4"},"vehicle_type_id":"4","last_reported":1683385549,"current_range_meters":14800,"station_id":"ce4bhqp2rcd13ifvqhng","pricing_plan_id":"free"},{"bike_id":"5e26388f-afcc-4ebc-9b1c-d20adac7f39a","system_id":"levelo_inurba_marseille","lat":43.317557,"lon":5.390173,"is_reserved":false,"is_disabled":false,"rental_uris":{"android":"levelo://app?vid=5e26388f-afcc-4ebc-9b1c-d20adac7f39a","ios":"levelo://app?vid=5e26388f-afcc-4ebc-9b1c-d20adac7f39a"},"vehicle_type_id":"4","last_reported":1683385549,"current_range_meters":20800,"station_id":"ce4bhqp2rcd13ifvqhng","pricing_plan_id":"free"},{"bike_id":"fd46298b-4f99-48ab-8a8f-236ba3b49a12","system_id":"levelo_inurba_marseille","lat":43.304278,"lon":5.388868,"is_reserved":false,"is_disabled":false,"rental_uris":{"android":"levelo://app?vid=fd46298b-4f99-48ab-8a8f-236ba3b49a12","ios":"levelo://app?vid=fd46298b-4f99-48ab-8a8f-236ba3b49a12"},"vehicle_type_id":"4","last_reported":1683385549,"current_range_meters":6400,"station_id":"ce4bgk12rcd13ifvqbi0","pricing_plan_id":"free"},{"bike_id":"f0dcfd84-4222-444a-b26d-9f99a892695b","system_id":"levelo_inurba_marseille","lat":43.31453,"lon":5.39262,"is_reserved":false,"is_disabled":false,"rental_uris":{"android":"levelo://app?vid=f0dcfd84-4222-444a-b26d-9f99a892695b","ios":"levelo://app?vid=f0dcfd84-4222-444a-b26d-9f99a892695b"},"vehicle_type_id":"4","last_reported":1683385549,"current_range_meters":6800,"station_id":"","pricing_plan_id":"free"},{"bike_id":"1ce98d37-5027-46d9-86cd-323fb36b85f6","system_id":"levelo_inurba_marseille","lat":43.29279,"lon":5.36846,"is_reserved":false,"is_disabled":false,"rental_uris":{"android":"levelo://app?vid=1ce98d37-5027-46d9-86cd-323fb36b85f6","ios":"levelo://app?vid=1ce98d37-5027-46d9-86cd-323fb36b85f6"},"vehicle_type_id":"4","last_reported":1683385549,"current_range_meters":16800,"station_id":"ce4bhbp2rcd13ifvqesg","pricing_plan_id":"free"},{"bike_id":"f9478ee4-ba68-45a3-816e-a33d0b5e78aa","system_id":"levelo_inurba_marseille","lat":43.293009,"lon":5.374584,"is_reserved":false,"is_disabled":false,"rental_uris":{"android":"levelo://app?vid=f9478ee4-ba68-45a3-816e-a33d0b5e78aa","ios":"levelo://app?vid=f9478ee4-ba68-45a3-816e-a33d0b5e78aa"},"vehicle_type_id":"4","last_reported":1683385549,"current_range_meters":27600,"station_id":"ce4bgi12rcd13ifvqb70","pricing_plan_id":"free"},{"bike_id":"7d8152b5-8111-46cb-8e07-51b981cd3566","system_id":"levelo_inurba_marseille","lat":43.29295,"lon":5.37473,"is_reserved":false,"is_disabled":false,"rental_uris":{"android":"levelo://app?vid=7d8152b5-8111-46cb-8e07-51b981cd3566","ios":"levelo://app?vid=7d8152b5-8111-46cb-8e07-51b981cd3566"},"vehicle_type_id":"4","last_reported":1683385549,"current_range_meters":6400,"station_id":"ce4bgi12rcd13ifvqb70","pricing_plan_id":"free"},{"bike_id":"b2e681f2-a66d-4013-b218-c6088a341f70","system_id":"levelo_inurba_marseille","lat":43.292663,"lon":5.376394,"is_reserved":false,"is_disabled":false,"rental_uris":{"android":"levelo://app?vid=b2e681f2-a66d-4013-b218-c6088a341f70","ios":"levelo://app?vid=b2e681f2-a66d-4013-b218-c6088a341f70"},"vehicle_type_id":"4","last_reported":1683385549,"current_range_meters":6400,"station_id":"ce4bgi12rcd13ifvqb80","pricing_plan_id":"free"},{"bike_id":"a73cab27-21a7-471b-999f-26b16db879e9","system_id":"levelo_inurba_marseille","lat":43.292663,"lon":5.376389,"is_reserved":false,"is_disabled":false,"rental_uris":{"android":"levelo://app?vid=a73cab27-21a7-471b-999f-26b16db879e9","ios":"levelo://app?vid=a73cab27-21a7-471b-999f-26b16db879e9"},"vehicle_type_id":"4","last_reported":1683385549,"current_range_meters":0,"station_id":"ce4bgi12rcd13ifvqb80","pricing_plan_id":"free"},{"bike_id":"faab5a62-cbab-41d5-9a5f-60c32434b02a","system_id":"levelo_inurba_marseille","lat":43.29173,"lon":5.37092,"is_reserved":false,"is_disabled":false,"rental_uris":{"android":"levelo://app?vid=faab5a62-cbab-41d5-9a5f-60c32434b02a","ios":"levelo://app?vid=faab5a62-cbab-41d5-9a5f-60c32434b02a"},"vehicle_type_id":"4","last_reported":1683385549,"current_range_meters":10800,"station_id":"","pricing_plan_id":"free"},{"bike_id":"181dad99-c843-47b9-9391-ecf018f884f8","system_id":"levelo_inurba_marseille","lat":43.31332,"lon":5.3969,"is_reserved":false,"is_disabled":false,"rental_uris":{"android":"levelo://app?vid=181dad99-c843-47b9-9391-ecf018f884f8","ios":"levelo://app?vid=181dad99-c843-47b9-9391-ecf018f884f8"},"vehicle_type_id":"4","last_reported":1683385549,"current_range_meters":22000,"station_id":"","pricing_plan_id":"free"},{"bike_id":"d95562d7-40f3-4e35-8d5e-4632d679ae55","system_id":"levelo_inurba_marseille","lat":43.313291,"lon":5.396838,"is_reserved":false,"is_disabled":false,"rental_uris":{"android":"levelo://app?vid=d95562d7-40f3-4e35-8d5e-4632d679ae55","ios":"levelo://app?vid=d95562d7-40f3-4e35-8d5e-4632d679ae55"},"vehicle_type_id":"4","last_reported":1683385549,"current_range_meters":0,"station_id":"ce4bgvp2rcd13ifvqcu0","pricing_plan_id":"free"},{"bike_id":"aec73838-2cc2-4421-a3dd-624941a49ec0","system_id":"levelo_inurba_marseille","lat":43.309038,"lon":5.396546,"is_reserved":false,"is_disabled":false,"rental_uris":{"android":"levelo://app?vid=aec73838-2cc2-4421-a3dd-624941a49ec0","ios":"levelo://app?vid=aec73838-2cc2-4421-a3dd-624941a49ec0"},"vehicle_type_id":"4","last_reported":1683385549,"current_range_meters":5600,"station_id":"ce4bh012rcd13ifvqcv0","pricing_plan_id":"free"},{"bike_id":"2773205e-6048-4d14-ad3d-c7f650b848c2","system_id":"levelo_inurba_marseille","lat":43.29529,"lon":5.385581,"is_reserved":false,"is_disabled":false,"rental_uris":{"android":"levelo://app?vid=2773205e-6048-4d14-ad3d-c7f650b848c2","ios":"levelo://app?vid=2773205e-6048-4d14-ad3d-c7f650b848c2"},"vehicle_type_id":"4","last_reported":1683385549,"current_range_meters":26000,"station_id":"ce4bgih2rcd13ifvqba0","pricing_plan_id":"free"},{"bike_id":"9d3df8ee-1dbc-4746-9ee5-6a562d401891","system_id":"levelo_inurba_marseille","lat":43.29529,"lon":5.385581,"is_reserved":false,"is_disabled":false,"rental_uris":{"android":"levelo://app?vid=9d3df8ee-1dbc-4746-9ee5-6a562d401891","ios":"levelo://app?vid=9d3df8ee-1dbc-4746-9ee5-6a562d401891"},"vehicle_type_id":"4","last_reported":1683385549,"current_range_meters":17600,"station_id":"ce4bgih2rcd13ifvqba0","pricing_plan_id":"free"},{"bike_id":"57d7dfca-1f7c-4cff-ab90-dc4691ac07dc","system_id":"levelo_inurba_marseille","lat":43.30214,"lon":5.39466,"is_reserved":false,"is_disabled":false,"rental_uris":{"android":"levelo://app?vid=57d7dfca-1f7c-4cff-ab90-dc4691ac07dc","ios":"levelo://app?vid=57d7dfca-1f7c-4cff-ab90-dc4691ac07dc"},"vehicle_type_id":"4","last_reported":1683385549,"current_range_meters":16400,"station_id":"ce4bh0p2rcd13ifvqd70","pricing_plan_id":"free"},{"bike_id":"2e0bc317-a048-41b8-804b-f6ba710018a5","system_id":"levelo_inurba_marseille","lat":43.292644,"lon":5.384257,"is_reserved":false,"is_disabled":false,"rental_uris":{"android":"levelo://app?vid=2e0bc317-a048-41b8-804b-f6ba710018a5","ios":"levelo://app?vid=2e0bc317-a048-41b8-804b-f6ba710018a5"},"vehicle_type_id":"4","last_reported":1683385549,"current_range_meters":23200,"station_id":"ce4bh692rcd13ifvqea0","pricing_plan_id":"free"},{"bike_id":"e59eb0be-07af-4f71-b41e-748272030b0d","system_id":"levelo_inurba_marseille","lat":43.292644,"lon":5.384257,"is_reserved":false,"is_disabled":false,"rental_uris":{"android":"levelo://app?vid=e59eb0be-07af-4f71-b41e-748272030b0d","ios":"levelo://app?vid=e59eb0be-07af-4f71-b41e-748272030b0d"},"vehicle_type_id":"4","last_reported":1683385549,"current_range_meters":24400,"station_id":"ce4bh692rcd13ifvqea0","pricing_plan_id":"free"},{"bike_id":"0778133c-aab6-4f55-b844-2ab48c2a4a7f","system_id":"levelo_inurba_marseille","lat":43.290104,"lon":5.356111,"is_reserved":false,"is_disabled":false,"rental_uris":{"android":"levelo://app?vid=0778133c-aab6-4f55-b844-2ab48c2a4a7f","ios":"levelo://app?vid=0778133c-aab6-4f55-b844-2ab48c2a4a7f"},"vehicle_type_id":"4","last_reported":1683385549,"current_range_meters":18800,"station_id":"ce4bhb92rcd13ifvqen0","pricing_plan_id":"free"},{"bike_id":"c7d204ce-6619-491c-8812-dc4b0a6a663b","system_id":"levelo_inurba_marseille","lat":43.33041,"lon":5.38917,"is_reserved":false,"is_disabled":false,"rental_uris":{"android":"levelo://app?vid=c7d204ce-6619-491c-8812-dc4b0a6a663b","ios":"levelo://app?vid=c7d204ce-6619-491c-8812-dc4b0a6a663b"},"vehicle_type_id":"4","last_reported":1683385549,"current_range_meters":28800,"station_id":"ce4bhr92rcd13ifvqhrg","pricing_plan_id":"free"},{"bike_id":"10a8eeb7-4f93-4e8d-81bd-f27d3d4ef515","system_id":"levelo_inurba_marseille","lat":43.33041,"lon":5.38918,"is_reserved":false,"is_disabled":false,"rental_uris":{"android":"levelo://app?vid=10a8eeb7-4f93-4e8d-81bd-f27d3d4ef515","ios":"levelo://app?vid=10a8eeb7-4f93-4e8d-81bd-f27d3d4ef515"},"vehicle_type_id":"4","last_reported":1683385549,"current_range_meters":26000,"station_id":"ce4bhr92rcd13ifvqhrg","pricing_plan_id":"free"},{"bike_id":"4da2ea4c-0587-4161-8586-452f9bca890c","system_id":"levelo_inurba_marseille","lat":43.33045,"lon":5.38912,"is_reserved":false,"is_disabled":false,"rental_uris":{"android":"levelo://app?vid=4da2ea4c-0587-4161-8586-452f9bca890c","ios":"levelo://app?vid=4da2ea4c-0587-4161-8586-452f9bca890c"},"vehicle_type_id":"4","last_reported":1683385549,"current_range_meters":19600,"station_id":"ce4bhr92rcd13ifvqhrg","pricing_plan_id":"free"},{"bike_id":"935e2486-a02b-4dc5-8bf6-451d3f17a2ec","system_id":"levelo_inurba_marseille","lat":43.290104,"lon":5.356111,"is_reserved":false,"is_disabled":false,"rental_uris":{"android":"levelo://app?vid=935e2486-a02b-4dc5-8bf6-451d3f17a2ec","ios":"levelo://app?vid=935e2486-a02b-4dc5-8bf6-451d3f17a2ec"},"vehicle_type_id":"4","last_reported":1683385549,"current_range_meters":400,"station_id":"ce4bhb92rcd13ifvqen0","pricing_plan_id":"free"},{"bike_id":"d6233f8b-531d-433b-b8e9-589e3920c098","system_id":"levelo_inurba_marseille","lat":43.33044,"lon":5.38915,"is_reserved":false,"is_disabled":false,"rental_uris":{"android":"levelo://app?vid=d6233f8b-531d-433b-b8e9-589e3920c098","ios":"levelo://app?vid=d6233f8b-531d-433b-b8e9-589e3920c098"},"vehicle_type_id":"4","last_reported":1683385549,"current_range_meters":21200,"station_id":"ce4bhr92rcd13ifvqhrg","pricing_plan_id":"free"},{"bike_id":"da86836b-d020-456b-ad95-a73c452d8db8","system_id":"levelo_inurba_marseille","lat":43.33041,"lon":5.3892,"is_reserved":false,"is_disabled":false,"rental_uris":{"android":"levelo://app?vid=da86836b-d020-456b-ad95-a73c452d8db8","ios":"levelo://app?vid=da86836b-d020-456b-ad95-a73c452d8db8"},"vehicle_type_id":"4","last_reported":1683385549,"current_range_meters":24800,"station_id":"ce4bhr92rcd13ifvqhrg","pricing_plan_id":"free"},{"bike_id":"496fc879-c6a2-4335-9eab-2fdd6a6f8bf1","system_id":"levelo_inurba_marseille","lat":43.33042,"lon":5.38921,"is_reserved":false,"is_disabled":false,"rental_uris":{"android":"levelo://app?vid=496fc879-c6a2-4335-9eab-2fdd6a6f8bf1","ios":"levelo://app?vid=496fc879-c6a2-4335-9eab-2fdd6a6f8bf1"},"vehicle_type_id":"4","last_reported":1683385549,"current_range_meters":16400,"station_id":"ce4bhr92rcd13ifvqhrg","pricing_plan_id":"free"},{"bike_id":"d364d2ad-2c66-4587-a79b-ee0314a1a93f","system_id":"levelo_inurba_marseille","lat":43.33043,"lon":5.3892,"is_reserved":false,"is_disabled":false,"rental_uris":{"android":"levelo://app?vid=d364d2ad-2c66-4587-a79b-ee0314a1a93f","ios":"levelo://app?vid=d364d2ad-2c66-4587-a79b-ee0314a1a93f"},"vehicle_type_id":"4","last_reported":1683385549,"current_range_meters":17200,"station_id":"ce4bhr92rcd13ifvqhrg","pricing_plan_id":"free"},{"bike_id":"c6d8bc85-5d48-4175-a0b2-78b2152265a7","system_id":"levelo_inurba_marseille","lat":43.33044,"lon":5.3892,"is_reserved":false,"is_disabled":false,"rental_uris":{"android":"levelo://app?vid=c6d8bc85-5d48-4175-a0b2-78b2152265a7","ios":"levelo://app?vid=c6d8bc85-5d48-4175-a0b2-78b2152265a7"},"vehicle_type_id":"4","last_reported":1683385549,"current_range_meters":4000,"station_id":"ce4bhr92rcd13ifvqhrg","pricing_plan_id":"free"},{"bike_id":"8cd5e1e4-e937-439c-bf8a-43fbaac45a10","system_id":"levelo_inurba_marseille","lat":43.33046,"lon":5.38918,"is_reserved":false,"is_disabled":false,"rental_uris":{"android":"levelo://app?vid=8cd5e1e4-e937-439c-bf8a-43fbaac45a10","ios":"levelo://app?vid=8cd5e1e4-e937-439c-bf8a-43fbaac45a10"},"vehicle_type_id":"4","last_reported":1683385549,"current_range_meters":23200,"station_id":"ce4bhr92rcd13ifvqhrg","pricing_plan_id":"free"},{"bike_id":"2a4c9986-79e6-473a-9088-a22214a8de69","system_id":"levelo_inurba_marseille","lat":43.33046,"lon":5.38918,"is_reserved":false,"is_disabled":false,"rental_uris":{"android":"levelo://app?vid=2a4c9986-79e6-473a-9088-a22214a8de69","ios":"levelo://app?vid=2a4c9986-79e6-473a-9088-a22214a8de69"},"vehicle_type_id":"4","last_reported":1683385549,"current_range_meters":16000,"station_id":"ce4bhr92rcd13ifvqhrg","pricing_plan_id":"free"},{"bike_id":"bf0579df-f5ac-4df6-825b-9575a36dcebc","system_id":"levelo_inurba_marseille","lat":43.290995,"lon":5.381361,"is_reserved":false,"is_disabled":false,"rental_uris":{"android":"levelo://app?vid=bf0579df-f5ac-4df6-825b-9575a36dcebc","ios":"levelo://app?vid=bf0579df-f5ac-4df6-825b-9575a36dcebc"},"vehicle_type_id":"4","last_reported":1683385549,"current_range_meters":0,"station_id":"ce4bh512rcd13ifvqe2g","pricing_plan_id":"free"},{"bike_id":"b25f6e77-9a55-4cbb-80d3-20c460de279f","system_id":"levelo_inurba_marseille","lat":43.289741,"lon":5.378306,"is_reserved":false,"is_disabled":false,"rental_uris":{"android":"levelo://app?vid=b25f6e77-9a55-4cbb-80d3-20c460de279f","ios":"levelo://app?vid=b25f6e77-9a55-4cbb-80d3-20c460de279f"},"vehicle_type_id":"4","last_reported":1683385549,"current_range_meters":22800,"station_id":"ce4bh9p2rcd13ifvqed0","pricing_plan_id":"free"},{"bike_id":"0b01641d-fe47-4065-82f9-c9ed40eb6a30","system_id":"levelo_inurba_marseille","lat":43.28856,"lon":5.358371,"is_reserved":false,"is_disabled":false,"rental_uris":{"android":"levelo://app?vid=0b01641d-fe47-4065-82f9-c9ed40eb6a30","ios":"levelo://app?vid=0b01641d-fe47-4065-82f9-c9ed40eb6a30"},"vehicle_type_id":"4","last_reported":1683385549,"current_range_meters":26800,"station_id":"ce4bhb12rcd13ifvqem0","pricing_plan_id":"free"},{"bike_id":"34320fce-24bb-4291-be42-2c361aed67f0","system_id":"levelo_inurba_marseille","lat":43.33742,"lon":5.37446,"is_reserved":false,"is_disabled":false,"rental_uris":{"android":"levelo://app?vid=34320fce-24bb-4291-be42-2c361aed67f0","ios":"levelo://app?vid=34320fce-24bb-4291-be42-2c361aed67f0"},"vehicle_type_id":"4","last_reported":1683385549,"current_range_meters":23600,"station_id":"","pricing_plan_id":"free"},{"bike_id":"d1338cde-b3d1-46b1-8800-7a50c92c327c","system_id":"levelo_inurba_marseille","lat":43.3375,"lon":5.3743,"is_reserved":false,"is_disabled":false,"rental_uris":{"android":"levelo://app?vid=d1338cde-b3d1-46b1-8800-7a50c92c327c","ios":"levelo://app?vid=d1338cde-b3d1-46b1-8800-7a50c92c327c"},"vehicle_type_id":"4","last_reported":1683385549,"current_range_meters":26800,"station_id":"","pricing_plan_id":"free"},{"bike_id":"cc5900b6-b927-49fc-82db-4d13a3d02316","system_id":"levelo_inurba_marseille","lat":43.33752,"lon":5.37486,"is_reserved":false,"is_disabled":false,"rental_uris":{"android":"levelo://app?vid=cc5900b6-b927-49fc-82db-4d13a3d02316","ios":"levelo://app?vid=cc5900b6-b927-49fc-82db-4d13a3d02316"},"vehicle_type_id":"4","last_reported":1683385549,"current_range_meters":26000,"station_id":"","pricing_plan_id":"free"},{"bike_id":"ab7b8dc5-9722-47e7-8a78-100d1a674f6d","system_id":"levelo_inurba_marseille","lat":43.33758,"lon":5.37465,"is_reserved":false,"is_disabled":false,"rental_uris":{"android":"levelo://app?vid=ab7b8dc5-9722-47e7-8a78-100d1a674f6d","ios":"levelo://app?vid=ab7b8dc5-9722-47e7-8a78-100d1a674f6d"},"vehicle_type_id":"4","last_reported":1683385549,"current_range_meters":6400,"station_id":"","pricing_plan_id":"free"},{"bike_id":"20083ae5-f09f-4d10-9758-3cdd331d6a45","system_id":"levelo_inurba_marseille","lat":43.33765,"lon":5.37456,"is_reserved":false,"is_disabled":false,"rental_uris":{"android":"levelo://app?vid=20083ae5-f09f-4d10-9758-3cdd331d6a45","ios":"levelo://app?vid=20083ae5-f09f-4d10-9758-3cdd331d6a45"},"vehicle_type_id":"4","last_reported":1683385549,"current_range_meters":15600,"station_id":"","pricing_plan_id":"free"},{"bike_id":"db84b57a-c242-4d31-93f3-e9f12005c4b3","system_id":"levelo_inurba_marseille","lat":43.33762,"lon":5.37494,"is_reserved":false,"is_disabled":false,"rental_uris":{"android":"levelo://app?vid=db84b57a-c242-4d31-93f3-e9f12005c4b3","ios":"levelo://app?vid=db84b57a-c242-4d31-93f3-e9f12005c4b3"},"vehicle_type_id":"4","last_reported":1683385549,"current_range_meters":26800,"station_id":"","pricing_plan_id":"free"},{"bike_id":"40ba26cc-0e2c-4f46-b375-c7956ddb51e9","system_id":"levelo_inurba_marseille","lat":43.301117,"lon":5.398795,"is_reserved":false,"is_disabled":false,"rental_uris":{"android":"levelo://app?vid=40ba26cc-0e2c-4f46-b375-c7956ddb51e9","ios":"levelo://app?vid=40ba26cc-0e2c-4f46-b375-c7956ddb51e9"},"vehicle_type_id":"4","last_reported":1683385549,"current_range_meters":17200,"station_id":"ce4bh0h2rcd13ifvqd40","pricing_plan_id":"free"},{"bike_id":"c452a78d-8a25-4dac-a034-b406e8dd2a51","system_id":"levelo_inurba_marseille","lat":43.28776,"lon":5.35889,"is_reserved":false,"is_disabled":false,"rental_uris":{"android":"levelo://app?vid=c452a78d-8a25-4dac-a034-b406e8dd2a51","ios":"levelo://app?vid=c452a78d-8a25-4dac-a034-b406e8dd2a51"},"vehicle_type_id":"4","last_reported":1683385549,"current_range_meters":4800,"station_id":"","pricing_plan_id":"free"},{"bike_id":"29bb6b35-87b4-4f5d-8b5f-0aed6508825a","system_id":"levelo_inurba_marseille","lat":43.286591,"lon":5.363346,"is_reserved":false,"is_disabled":false,"rental_uris":{"android":"levelo://app?vid=29bb6b35-87b4-4f5d-8b5f-0aed6508825a","ios":"levelo://app?vid=29bb6b35-87b4-4f5d-8b5f-0aed6508825a"},"vehicle_type_id":"4","last_reported":1683385549,"current_range_meters":0,"station_id":"ce4bhah2rcd13ifvqej0","pricing_plan_id":"free"},{"bike_id":"3ee186dd-eb63-4aeb-9e18-77e31af85d4c","system_id":"levelo_inurba_marseille","lat":43.298681,"lon":5.397225,"is_reserved":false,"is_disabled":false,"rental_uris":{"android":"levelo://app?vid=3ee186dd-eb63-4aeb-9e18-77e31af85d4c","ios":"levelo://app?vid=3ee186dd-eb63-4aeb-9e18-77e31af85d4c"},"vehicle_type_id":"4","last_reported":1683385549,"current_range_meters":14000,"station_id":"ce4bh0h2rcd13ifvqd50","pricing_plan_id":"free"},{"bike_id":"93350c45-b50a-45bc-bda8-a381773e30c1","system_id":"levelo_inurba_marseille","lat":43.30773,"lon":5.40285,"is_reserved":false,"is_disabled":false,"rental_uris":{"android":"levelo://app?vid=93350c45-b50a-45bc-bda8-a381773e30c1","ios":"levelo://app?vid=93350c45-b50a-45bc-bda8-a381773e30c1"},"vehicle_type_id":"4","last_reported":1683385549,"current_range_meters":16400,"station_id":"","pricing_plan_id":"free"},{"bike_id":"0482d551-027f-4e91-b229-ca66650482a1","system_id":"levelo_inurba_marseille","lat":43.302759,"lon":5.400793,"is_reserved":false,"is_disabled":false,"rental_uris":{"android":"levelo://app?vid=0482d551-027f-4e91-b229-ca66650482a1","ios":"levelo://app?vid=0482d551-027f-4e91-b229-ca66650482a1"},"vehicle_type_id":"4","last_reported":1683385549,"current_range_meters":11200,"station_id":"ce4bgvh2rcd13ifvqcs0","pricing_plan_id":"free"},{"bike_id":"67302e52-9967-42f9-9b5a-17ed58b779c4","system_id":"levelo_inurba_marseille","lat":43.28609,"lon":5.37062,"is_reserved":false,"is_disabled":false,"rental_uris":{"android":"levelo://app?vid=67302e52-9967-42f9-9b5a-17ed58b779c4","ios":"levelo://app?vid=67302e52-9967-42f9-9b5a-17ed58b779c4"},"vehicle_type_id":"4","last_reported":1683385549,"current_range_meters":31200,"station_id":"ce4bht12rcd13ifvqi60","pricing_plan_id":"free"},{"bike_id":"ce27c941-d1c1-4483-aef4-1e86f48d5d94","system_id":"levelo_inurba_marseille","lat":43.316517,"lon":5.404375,"is_reserved":false,"is_disabled":false,"rental_uris":{"android":"levelo://app?vid=ce27c941-d1c1-4483-aef4-1e86f48d5d94","ios":"levelo://app?vid=ce27c941-d1c1-4483-aef4-1e86f48d5d94"},"vehicle_type_id":"4","last_reported":1683385549,"current_range_meters":2000,"station_id":"ce4bh012rcd13ifvqd00","pricing_plan_id":"free"},{"bike_id":"d785bc52-fd46-4609-bcdc-83c8e9d69924","system_id":"levelo_inurba_marseille","lat":43.316523,"lon":5.404367,"is_reserved":false,"is_disabled":false,"rental_uris":{"android":"levelo://app?vid=d785bc52-fd46-4609-bcdc-83c8e9d69924","ios":"levelo://app?vid=d785bc52-fd46-4609-bcdc-83c8e9d69924"},"vehicle_type_id":"4","last_reported":1683385549,"current_range_meters":26000,"station_id":"ce4bh012rcd13ifvqd00","pricing_plan_id":"free"},{"bike_id":"829ade32-340e-4c6b-bc27-a55efced1569","system_id":"levelo_inurba_marseille","lat":43.316517,"lon":5.404375,"is_reserved":false,"is_disabled":false,"rental_uris":{"android":"levelo://app?vid=829ade32-340e-4c6b-bc27-a55efced1569","ios":"levelo://app?vid=829ade32-340e-4c6b-bc27-a55efced1569"},"vehicle_type_id":"4","last_reported":1683385549,"current_range_meters":30000,"station_id":"ce4bh012rcd13ifvqd00","pricing_plan_id":"free"},{"bike_id":"91846b9b-8df2-4caa-9ec4-e4cdfba73ed6","system_id":"levelo_inurba_marseille","lat":43.284538,"lon":5.358657,"is_reserved":false,"is_disabled":false,"rental_uris":{"android":"levelo://app?vid=91846b9b-8df2-4caa-9ec4-e4cdfba73ed6","ios":"levelo://app?vid=91846b9b-8df2-4caa-9ec4-e4cdfba73ed6"},"vehicle_type_id":"4","last_reported":1683385549,"current_range_meters":6400,"station_id":"ce4bhah2rcd13ifvqei0","pricing_plan_id":"free"},{"bike_id":"d40f6121-67ee-40ee-9dd9-e1b4e7351f54","system_id":"levelo_inurba_marseille","lat":43.284538,"lon":5.358657,"is_reserved":false,"is_disabled":false,"rental_uris":{"android":"levelo://app?vid=d40f6121-67ee-40ee-9dd9-e1b4e7351f54","ios":"levelo://app?vid=d40f6121-67ee-40ee-9dd9-e1b4e7351f54"},"vehicle_type_id":"4","last_reported":1683385549,"current_range_meters":4400,"station_id":"ce4bhah2rcd13ifvqei0","pricing_plan_id":"free"},{"bike_id":"7cc08887-121b-49de-b1c3-5011f07abcf3","system_id":"levelo_inurba_marseille","lat":43.28459,"lon":5.35883,"is_reserved":false,"is_disabled":false,"rental_uris":{"android":"levelo://app?vid=7cc08887-121b-49de-b1c3-5011f07abcf3","ios":"levelo://app?vid=7cc08887-121b-49de-b1c3-5011f07abcf3"},"vehicle_type_id":"4","last_reported":1683385549,"current_range_meters":4000,"station_id":"ce4bhah2rcd13ifvqei0","pricing_plan_id":"free"},{"bike_id":"bc0f967c-8e91-406f-b7c2-d7c9a016c036","system_id":"levelo_inurba_marseille","lat":43.28623,"lon":5.35103,"is_reserved":false,"is_disabled":false,"rental_uris":{"android":"levelo://app?vid=bc0f967c-8e91-406f-b7c2-d7c9a016c036","ios":"levelo://app?vid=bc0f967c-8e91-406f-b7c2-d7c9a016c036"},"vehicle_type_id":"4","last_reported":1683385549,"current_range_meters":11600,"station_id":"","pricing_plan_id":"free"},{"bike_id":"7d86bcc6-27c3-4a96-ab09-7d5b81dad5e9","system_id":"levelo_inurba_marseille","lat":43.28622,"lon":5.35106,"is_reserved":false,"is_disabled":false,"rental_uris":{"android":"levelo://app?vid=7d86bcc6-27c3-4a96-ab09-7d5b81dad5e9","ios":"levelo://app?vid=7d86bcc6-27c3-4a96-ab09-7d5b81dad5e9"},"vehicle_type_id":"4","last_reported":1683385549,"current_range_meters":28000,"station_id":"","pricing_plan_id":"free"},{"bike_id":"3994061e-d1a9-49bb-9705-cefca2bab53c","system_id":"levelo_inurba_marseille","lat":43.2862,"lon":5.35109,"is_reserved":false,"is_disabled":false,"rental_uris":{"android":"levelo://app?vid=3994061e-d1a9-49bb-9705-cefca2bab53c","ios":"levelo://app?vid=3994061e-d1a9-49bb-9705-cefca2bab53c"},"vehicle_type_id":"4","last_reported":1683385549,"current_range_meters":19200,"station_id":"","pricing_plan_id":"free"},{"bike_id":"a6cf8a0e-3ec3-430e-a8ab-48f8e095166d","system_id":"levelo_inurba_marseille","lat":43.28621,"lon":5.35103,"is_reserved":false,"is_disabled":false,"rental_uris":{"android":"levelo://app?vid=a6cf8a0e-3ec3-430e-a8ab-48f8e095166d","ios":"levelo://app?vid=a6cf8a0e-3ec3-430e-a8ab-48f8e095166d"},"vehicle_type_id":"4","last_reported":1683385549,"current_range_meters":24400,"station_id":"","pricing_plan_id":"free"},{"bike_id":"0bd992fd-d666-46aa-9946-23dcee9071a5","system_id":"levelo_inurba_marseille","lat":43.28619,"lon":5.35109,"is_reserved":false,"is_disabled":false,"rental_uris":{"android":"levelo://app?vid=0bd992fd-d666-46aa-9946-23dcee9071a5","ios":"levelo://app?vid=0bd992fd-d666-46aa-9946-23dcee9071a5"},"vehicle_type_id":"4","last_reported":1683385549,"current_range_meters":22400,"station_id":"","pricing_plan_id":"free"},{"bike_id":"679efeb3-928a-4297-ac37-cc4a47c8ffc6","system_id":"levelo_inurba_marseille","lat":43.285856,"lon":5.350771,"is_reserved":false,"is_disabled":false,"rental_uris":{"android":"levelo://app?vid=679efeb3-928a-4297-ac37-cc4a47c8ffc6","ios":"levelo://app?vid=679efeb3-928a-4297-ac37-cc4a47c8ffc6"},"vehicle_type_id":"4","last_reported":1683385549,"current_range_meters":21600,"station_id":"ce4bhch2rcd13ifvqeug","pricing_plan_id":"free"},{"bike_id":"08fe1a4e-3b8d-48c5-8c52-fcc35430df13","system_id":"levelo_inurba_marseille","lat":43.285856,"lon":5.350771,"is_reserved":false,"is_disabled":false,"rental_uris":{"android":"levelo://app?vid=08fe1a4e-3b8d-48c5-8c52-fcc35430df13","ios":"levelo://app?vid=08fe1a4e-3b8d-48c5-8c52-fcc35430df13"},"vehicle_type_id":"4","last_reported":1683385549,"current_range_meters":28400,"station_id":"ce4bhch2rcd13ifvqeug","pricing_plan_id":"free"},{"bike_id":"e4a19edc-ca2b-4ae4-8542-3cecd8a40e48","system_id":"levelo_inurba_marseille","lat":43.28609,"lon":5.35108,"is_reserved":false,"is_disabled":false,"rental_uris":{"android":"levelo://app?vid=e4a19edc-ca2b-4ae4-8542-3cecd8a40e48","ios":"levelo://app?vid=e4a19edc-ca2b-4ae4-8542-3cecd8a40e48"},"vehicle_type_id":"4","last_reported":1683385549,"current_range_meters":0,"station_id":"","pricing_plan_id":"free"},{"bike_id":"ae4e9836-be37-4c2f-95e6-da275d265615","system_id":"levelo_inurba_marseille","lat":43.29652,"lon":5.40035,"is_reserved":false,"is_disabled":false,"rental_uris":{"android":"levelo://app?vid=ae4e9836-be37-4c2f-95e6-da275d265615","ios":"levelo://app?vid=ae4e9836-be37-4c2f-95e6-da275d265615"},"vehicle_type_id":"4","last_reported":1683385549,"current_range_meters":29200,"station_id":"","pricing_plan_id":"free"},{"bike_id":"63946b54-83c4-47bc-951a-2c9c8d3d6644","system_id":"levelo_inurba_marseille","lat":43.286595,"lon":5.386795,"is_reserved":false,"is_disabled":false,"rental_uris":{"android":"levelo://app?vid=63946b54-83c4-47bc-951a-2c9c8d3d6644","ios":"levelo://app?vid=63946b54-83c4-47bc-951a-2c9c8d3d6644"},"vehicle_type_id":"4","last_reported":1683385549,"current_range_meters":25600,"station_id":"ce4bh492rcd13ifvqdug","pricing_plan_id":"free"},{"bike_id":"d9fa5747-b732-4253-857e-c898414ad422","system_id":"levelo_inurba_marseille","lat":43.286595,"lon":5.386795,"is_reserved":false,"is_disabled":false,"rental_uris":{"android":"levelo://app?vid=d9fa5747-b732-4253-857e-c898414ad422","ios":"levelo://app?vid=d9fa5747-b732-4253-857e-c898414ad422"},"vehicle_type_id":"4","last_reported":1683385549,"current_range_meters":1200,"station_id":"ce4bh492rcd13ifvqdug","pricing_plan_id":"free"},{"bike_id":"42434331-52d1-415a-999e-ebea2809a804","system_id":"levelo_inurba_marseille","lat":43.286595,"lon":5.386795,"is_reserved":false,"is_disabled":false,"rental_uris":{"android":"levelo://app?vid=42434331-52d1-415a-999e-ebea2809a804","ios":"levelo://app?vid=42434331-52d1-415a-999e-ebea2809a804"},"vehicle_type_id":"4","last_reported":1683385549,"current_range_meters":10800,"station_id":"ce4bh492rcd13ifvqdug","pricing_plan_id":"free"},{"bike_id":"e4ff37a6-6d8e-410e-a885-62fae0af62b4","system_id":"levelo_inurba_marseille","lat":43.28664,"lon":5.38671,"is_reserved":false,"is_disabled":false,"rental_uris":{"android":"levelo://app?vid=e4ff37a6-6d8e-410e-a885-62fae0af62b4","ios":"levelo://app?vid=e4ff37a6-6d8e-410e-a885-62fae0af62b4"},"vehicle_type_id":"4","last_reported":1683385549,"current_range_meters":18400,"station_id":"ce4bh492rcd13ifvqdug","pricing_plan_id":"free"},{"bike_id":"9d15d15c-61cc-4e44-9fdd-13284d8c4606","system_id":"levelo_inurba_marseille","lat":43.337168,"lon":5.391825,"is_reserved":false,"is_disabled":false,"rental_uris":{"android":"levelo://app?vid=9d15d15c-61cc-4e44-9fdd-13284d8c4606","ios":"levelo://app?vid=9d15d15c-61cc-4e44-9fdd-13284d8c4606"},"vehicle_type_id":"4","last_reported":1683385549,"current_range_meters":30800,"station_id":"ce4bhr92rcd13ifvqhsg","pricing_plan_id":"free"},{"bike_id":"27865f6e-c046-4416-9233-48156b6bae2c","system_id":"levelo_inurba_marseille","lat":43.337168,"lon":5.391825,"is_reserved":false,"is_disabled":false,"rental_uris":{"android":"levelo://app?vid=27865f6e-c046-4416-9233-48156b6bae2c","ios":"levelo://app?vid=27865f6e-c046-4416-9233-48156b6bae2c"},"vehicle_type_id":"4","last_reported":1683385549,"current_range_meters":27200,"station_id":"ce4bhr92rcd13ifvqhsg","pricing_plan_id":"free"},{"bike_id":"bff45db0-8068-4648-ad77-86c507a1b75d","system_id":"levelo_inurba_marseille","lat":43.33717,"lon":5.391857,"is_reserved":false,"is_disabled":false,"rental_uris":{"android":"levelo://app?vid=bff45db0-8068-4648-ad77-86c507a1b75d","ios":"levelo://app?vid=bff45db0-8068-4648-ad77-86c507a1b75d"},"vehicle_type_id":"4","last_reported":1683385549,"current_range_meters":10000,"station_id":"ce4bhr92rcd13ifvqhsg","pricing_plan_id":"free"},{"bike_id":"e1c21658-38b6-4599-8770-7a5e72b09fbf","system_id":"levelo_inurba_marseille","lat":43.323464,"lon":5.406297,"is_reserved":false,"is_disabled":false,"rental_uris":{"android":"levelo://app?vid=e1c21658-38b6-4599-8770-7a5e72b09fbf","ios":"levelo://app?vid=e1c21658-38b6-4599-8770-7a5e72b09fbf"},"vehicle_type_id":"4","last_reported":1683385549,"current_range_meters":18800,"station_id":"ce4bhq92rcd13ifvqhjg","pricing_plan_id":"free"},{"bike_id":"c9c4f49a-801c-4a26-8233-f9fb4c97e2ff","system_id":"levelo_inurba_marseille","lat":43.33717,"lon":5.391857,"is_reserved":false,"is_disabled":false,"rental_uris":{"android":"levelo://app?vid=c9c4f49a-801c-4a26-8233-f9fb4c97e2ff","ios":"levelo://app?vid=c9c4f49a-801c-4a26-8233-f9fb4c97e2ff"},"vehicle_type_id":"4","last_reported":1683385549,"current_range_meters":4800,"station_id":"ce4bhr92rcd13ifvqhsg","pricing_plan_id":"free"},{"bike_id":"f6fae6a8-6de7-4b64-80a2-202e07d90cfd","system_id":"levelo_inurba_marseille","lat":43.32343,"lon":5.40625,"is_reserved":false,"is_disabled":false,"rental_uris":{"android":"levelo://app?vid=f6fae6a8-6de7-4b64-80a2-202e07d90cfd","ios":"levelo://app?vid=f6fae6a8-6de7-4b64-80a2-202e07d90cfd"},"vehicle_type_id":"4","last_reported":1683385549,"current_range_meters":31600,"station_id":"ce4bhq92rcd13ifvqhjg","pricing_plan_id":"free"},{"bike_id":"ad3cdfdb-0864-4cce-8a5d-05a05de94244","system_id":"levelo_inurba_marseille","lat":43.30076,"lon":5.40577,"is_reserved":false,"is_disabled":false,"rental_uris":{"android":"levelo://app?vid=ad3cdfdb-0864-4cce-8a5d-05a05de94244","ios":"levelo://app?vid=ad3cdfdb-0864-4cce-8a5d-05a05de94244"},"vehicle_type_id":"4","last_reported":1683385549,"current_range_meters":20400,"station_id":"","pricing_plan_id":"free"},{"bike_id":"dfeff4eb-4931-4877-a25f-6857c57a7882","system_id":"levelo_inurba_marseille","lat":43.28463,"lon":5.38415,"is_reserved":false,"is_disabled":false,"rental_uris":{"android":"levelo://app?vid=dfeff4eb-4931-4877-a25f-6857c57a7882","ios":"levelo://app?vid=dfeff4eb-4931-4877-a25f-6857c57a7882"},"vehicle_type_id":"4","last_reported":1683385549,"current_range_meters":17200,"station_id":"ce4bh512rcd13ifvqe3g","pricing_plan_id":"free"},{"bike_id":"9d696162-a417-4141-8951-243305fcdd01","system_id":"levelo_inurba_marseille","lat":43.284219,"lon":5.3497,"is_reserved":false,"is_disabled":false,"rental_uris":{"android":"levelo://app?vid=9d696162-a417-4141-8951-243305fcdd01","ios":"levelo://app?vid=9d696162-a417-4141-8951-243305fcdd01"},"vehicle_type_id":"4","last_reported":1683385549,"current_range_meters":12000,"station_id":"ce4bhbh2rcd13ifvqepg","pricing_plan_id":"free"},{"bike_id":"0e15b775-de10-46e9-8c5d-4f549cb4b769","system_id":"levelo_inurba_marseille","lat":43.284219,"lon":5.3497,"is_reserved":false,"is_disabled":false,"rental_uris":{"android":"levelo://app?vid=0e15b775-de10-46e9-8c5d-4f549cb4b769","ios":"levelo://app?vid=0e15b775-de10-46e9-8c5d-4f549cb4b769"},"vehicle_type_id":"4","last_reported":1683385549,"current_range_meters":23600,"station_id":"ce4bhbh2rcd13ifvqepg","pricing_plan_id":"free"},{"bike_id":"318608f6-3705-488e-af70-c11ba0524914","system_id":"levelo_inurba_marseille","lat":43.284217,"lon":5.349697,"is_reserved":false,"is_disabled":false,"rental_uris":{"android":"levelo://app?vid=318608f6-3705-488e-af70-c11ba0524914","ios":"levelo://app?vid=318608f6-3705-488e-af70-c11ba0524914"},"vehicle_type_id":"4","last_reported":1683385549,"current_range_meters":18000,"station_id":"ce4bhbh2rcd13ifvqepg","pricing_plan_id":"free"},{"bike_id":"fbadce77-2f26-4d87-865a-366e6b325e4a","system_id":"levelo_inurba_marseille","lat":43.284219,"lon":5.3497,"is_reserved":false,"is_disabled":false,"rental_uris":{"android":"levelo://app?vid=fbadce77-2f26-4d87-865a-366e6b325e4a","ios":"levelo://app?vid=fbadce77-2f26-4d87-865a-366e6b325e4a"},"vehicle_type_id":"4","last_reported":1683385549,"current_range_meters":11600,"station_id":"ce4bhbh2rcd13ifvqepg","pricing_plan_id":"free"},{"bike_id":"1b85cd22-1415-49a9-9f4d-255f1e8a1260","system_id":"levelo_inurba_marseille","lat":43.284219,"lon":5.3497,"is_reserved":false,"is_disabled":false,"rental_uris":{"android":"levelo://app?vid=1b85cd22-1415-49a9-9f4d-255f1e8a1260","ios":"levelo://app?vid=1b85cd22-1415-49a9-9f4d-255f1e8a1260"},"vehicle_type_id":"4","last_reported":1683385549,"current_range_meters":16800,"station_id":"ce4bhbh2rcd13ifvqepg","pricing_plan_id":"free"},{"bike_id":"8547291d-c29a-4423-8db5-b76d88096b7a","system_id":"levelo_inurba_marseille","lat":43.284219,"lon":5.3497,"is_reserved":false,"is_disabled":false,"rental_uris":{"android":"levelo://app?vid=8547291d-c29a-4423-8db5-b76d88096b7a","ios":"levelo://app?vid=8547291d-c29a-4423-8db5-b76d88096b7a"},"vehicle_type_id":"4","last_reported":1683385549,"current_range_meters":20800,"station_id":"ce4bhbh2rcd13ifvqepg","pricing_plan_id":"free"},{"bike_id":"b03f8d37-07d3-4e3c-9c63-ff653ec9ebc9","system_id":"levelo_inurba_marseille","lat":43.284217,"lon":5.349697,"is_reserved":false,"is_disabled":false,"rental_uris":{"android":"levelo://app?vid=b03f8d37-07d3-4e3c-9c63-ff653ec9ebc9","ios":"levelo://app?vid=b03f8d37-07d3-4e3c-9c63-ff653ec9ebc9"},"vehicle_type_id":"4","last_reported":1683385549,"current_range_meters":22400,"station_id":"ce4bhbh2rcd13ifvqepg","pricing_plan_id":"free"},{"bike_id":"6e6f4414-79ad-4a70-82bb-813f2493c815","system_id":"levelo_inurba_marseille","lat":43.2843,"lon":5.34978,"is_reserved":false,"is_disabled":false,"rental_uris":{"android":"levelo://app?vid=6e6f4414-79ad-4a70-82bb-813f2493c815","ios":"levelo://app?vid=6e6f4414-79ad-4a70-82bb-813f2493c815"},"vehicle_type_id":"4","last_reported":1683385549,"current_range_meters":5600,"station_id":"ce4bhbh2rcd13ifvqepg","pricing_plan_id":"free"},{"bike_id":"c0a56788-9ced-4c80-85d7-004fd0f56f5c","system_id":"levelo_inurba_marseille","lat":43.284219,"lon":5.3497,"is_reserved":false,"is_disabled":false,"rental_uris":{"android":"levelo://app?vid=c0a56788-9ced-4c80-85d7-004fd0f56f5c","ios":"levelo://app?vid=c0a56788-9ced-4c80-85d7-004fd0f56f5c"},"vehicle_type_id":"4","last_reported":1683385549,"current_range_meters":20400,"station_id":"ce4bhbh2rcd13ifvqepg","pricing_plan_id":"free"},{"bike_id":"30fcb283-2802-4702-8b67-e6ff0d2ddf11","system_id":"levelo_inurba_marseille","lat":43.284217,"lon":5.349697,"is_reserved":false,"is_disabled":false,"rental_uris":{"android":"levelo://app?vid=30fcb283-2802-4702-8b67-e6ff0d2ddf11","ios":"levelo://app?vid=30fcb283-2802-4702-8b67-e6ff0d2ddf11"},"vehicle_type_id":"4","last_reported":1683385549,"current_range_meters":21200,"station_id":"ce4bhbh2rcd13ifvqepg","pricing_plan_id":"free"},{"bike_id":"c3388586-ebf9-490c-a31e-ecfe1a8cea07","system_id":"levelo_inurba_marseille","lat":43.284217,"lon":5.349697,"is_reserved":false,"is_disabled":false,"rental_uris":{"android":"levelo://app?vid=c3388586-ebf9-490c-a31e-ecfe1a8cea07","ios":"levelo://app?vid=c3388586-ebf9-490c-a31e-ecfe1a8cea07"},"vehicle_type_id":"4","last_reported":1683385549,"current_range_meters":0,"station_id":"ce4bhbh2rcd13ifvqepg","pricing_plan_id":"free"},{"bike_id":"8862f436-bd6f-4dec-b0dd-f94dfa389fc7","system_id":"levelo_inurba_marseille","lat":43.28427,"lon":5.34978,"is_reserved":false,"is_disabled":false,"rental_uris":{"android":"levelo://app?vid=8862f436-bd6f-4dec-b0dd-f94dfa389fc7","ios":"levelo://app?vid=8862f436-bd6f-4dec-b0dd-f94dfa389fc7"},"vehicle_type_id":"4","last_reported":1683385549,"current_range_meters":20400,"station_id":"ce4bhbh2rcd13ifvqepg","pricing_plan_id":"free"},{"bike_id":"5811dced-71cd-4dbc-8815-9b65f5150948","system_id":"levelo_inurba_marseille","lat":43.284217,"lon":5.349697,"is_reserved":false,"is_disabled":false,"rental_uris":{"android":"levelo://app?vid=5811dced-71cd-4dbc-8815-9b65f5150948","ios":"levelo://app?vid=5811dced-71cd-4dbc-8815-9b65f5150948"},"vehicle_type_id":"4","last_reported":1683385549,"current_range_meters":31200,"station_id":"ce4bhbh2rcd13ifvqepg","pricing_plan_id":"free"},{"bike_id":"b5e8c6b4-9504-48fa-92ab-da463b3a5774","system_id":"levelo_inurba_marseille","lat":43.284219,"lon":5.3497,"is_reserved":false,"is_disabled":false,"rental_uris":{"android":"levelo://app?vid=b5e8c6b4-9504-48fa-92ab-da463b3a5774","ios":"levelo://app?vid=b5e8c6b4-9504-48fa-92ab-da463b3a5774"},"vehicle_type_id":"4","last_reported":1683385549,"current_range_meters":20000,"station_id":"ce4bhbh2rcd13ifvqepg","pricing_plan_id":"free"},{"bike_id":"ce88c4c1-a809-4a96-a75f-738db3d890f8","system_id":"levelo_inurba_marseille","lat":43.284217,"lon":5.349697,"is_reserved":false,"is_disabled":false,"rental_uris":{"android":"levelo://app?vid=ce88c4c1-a809-4a96-a75f-738db3d890f8","ios":"levelo://app?vid=ce88c4c1-a809-4a96-a75f-738db3d890f8"},"vehicle_type_id":"4","last_reported":1683385549,"current_range_meters":15200,"station_id":"ce4bhbh2rcd13ifvqepg","pricing_plan_id":"free"},{"bike_id":"a6c02902-2341-412d-b2be-2a0ab7107ffc","system_id":"levelo_inurba_marseille","lat":43.284219,"lon":5.3497,"is_reserved":false,"is_disabled":false,"rental_uris":{"android":"levelo://app?vid=a6c02902-2341-412d-b2be-2a0ab7107ffc","ios":"levelo://app?vid=a6c02902-2341-412d-b2be-2a0ab7107ffc"},"vehicle_type_id":"4","last_reported":1683385549,"current_range_meters":11600,"station_id":"ce4bhbh2rcd13ifvqepg","pricing_plan_id":"free"},{"bike_id":"a7ea350b-3c03-4177-92b9-3f202579f8c0","system_id":"levelo_inurba_marseille","lat":43.284217,"lon":5.349697,"is_reserved":false,"is_disabled":false,"rental_uris":{"android":"levelo://app?vid=a7ea350b-3c03-4177-92b9-3f202579f8c0","ios":"levelo://app?vid=a7ea350b-3c03-4177-92b9-3f202579f8c0"},"vehicle_type_id":"4","last_reported":1683385549,"current_range_meters":22400,"station_id":"ce4bhbh2rcd13ifvqepg","pricing_plan_id":"free"},{"bike_id":"288b48ab-74b2-4706-8be6-daa88d0ad8e5","system_id":"levelo_inurba_marseille","lat":43.284217,"lon":5.349697,"is_reserved":false,"is_disabled":false,"rental_uris":{"android":"levelo://app?vid=288b48ab-74b2-4706-8be6-daa88d0ad8e5","ios":"levelo://app?vid=288b48ab-74b2-4706-8be6-daa88d0ad8e5"},"vehicle_type_id":"4","last_reported":1683385549,"current_range_meters":4800,"station_id":"ce4bhbh2rcd13ifvqepg","pricing_plan_id":"free"},{"bike_id":"bda0ff5b-3bc0-4617-8d14-b7c48fb50f7c","system_id":"levelo_inurba_marseille","lat":43.284219,"lon":5.3497,"is_reserved":false,"is_disabled":false,"rental_uris":{"android":"levelo://app?vid=bda0ff5b-3bc0-4617-8d14-b7c48fb50f7c","ios":"levelo://app?vid=bda0ff5b-3bc0-4617-8d14-b7c48fb50f7c"},"vehicle_type_id":"4","last_reported":1683385549,"current_range_meters":20800,"station_id":"ce4bhbh2rcd13ifvqepg","pricing_plan_id":"free"},{"bike_id":"4a6af45b-f8f5-4acd-b478-a36d7c9b86ca","system_id":"levelo_inurba_marseille","lat":43.284217,"lon":5.349697,"is_reserved":false,"is_disabled":false,"rental_uris":{"android":"levelo://app?vid=4a6af45b-f8f5-4acd-b478-a36d7c9b86ca","ios":"levelo://app?vid=4a6af45b-f8f5-4acd-b478-a36d7c9b86ca"},"vehicle_type_id":"4","last_reported":1683385549,"current_range_meters":21600,"station_id":"ce4bhbh2rcd13ifvqepg","pricing_plan_id":"free"},{"bike_id":"03ed9e86-02cd-48cc-97f2-c357df2810b2","system_id":"levelo_inurba_marseille","lat":43.2842,"lon":5.34982,"is_reserved":false,"is_disabled":false,"rental_uris":{"android":"levelo://app?vid=03ed9e86-02cd-48cc-97f2-c357df2810b2","ios":"levelo://app?vid=03ed9e86-02cd-48cc-97f2-c357df2810b2"},"vehicle_type_id":"4","last_reported":1683385549,"current_range_meters":12000,"station_id":"ce4bhbh2rcd13ifvqepg","pricing_plan_id":"free"},{"bike_id":"abdeba67-8ec6-4c41-9536-c0aaf0a1094d","system_id":"levelo_inurba_marseille","lat":43.284219,"lon":5.3497,"is_reserved":false,"is_disabled":false,"rental_uris":{"android":"levelo://app?vid=abdeba67-8ec6-4c41-9536-c0aaf0a1094d","ios":"levelo://app?vid=abdeba67-8ec6-4c41-9536-c0aaf0a1094d"},"vehicle_type_id":"4","last_reported":1683385549,"current_range_meters":1200,"station_id":"ce4bhbh2rcd13ifvqepg","pricing_plan_id":"free"},{"bike_id":"fcd07d6c-bcab-442c-b57b-92faca246ce0","system_id":"levelo_inurba_marseille","lat":43.28418,"lon":5.34974,"is_reserved":false,"is_disabled":false,"rental_uris":{"android":"levelo://app?vid=fcd07d6c-bcab-442c-b57b-92faca246ce0","ios":"levelo://app?vid=fcd07d6c-bcab-442c-b57b-92faca246ce0"},"vehicle_type_id":"4","last_reported":1683385549,"current_range_meters":22400,"station_id":"ce4bhbh2rcd13ifvqepg","pricing_plan_id":"free"},{"bike_id":"d6bac8e7-4ca5-4bab-a4fd-1047cdca099d","system_id":"levelo_inurba_marseille","lat":43.284159,"lon":5.349798,"is_reserved":false,"is_disabled":false,"rental_uris":{"android":"levelo://app?vid=d6bac8e7-4ca5-4bab-a4fd-1047cdca099d","ios":"levelo://app?vid=d6bac8e7-4ca5-4bab-a4fd-1047cdca099d"},"vehicle_type_id":"4","last_reported":1683385549,"current_range_meters":7200,"station_id":"","pricing_plan_id":"free"},{"bike_id":"216069f8-2597-4d85-9571-68e58d806aea","system_id":"levelo_inurba_marseille","lat":43.284217,"lon":5.349697,"is_reserved":false,"is_disabled":false,"rental_uris":{"android":"levelo://app?vid=216069f8-2597-4d85-9571-68e58d806aea","ios":"levelo://app?vid=216069f8-2597-4d85-9571-68e58d806aea"},"vehicle_type_id":"4","last_reported":1683385549,"current_range_meters":28400,"station_id":"ce4bhbh2rcd13ifvqepg","pricing_plan_id":"free"},{"bike_id":"924db15e-75f7-4753-8b8a-270c111bb3b5","system_id":"levelo_inurba_marseille","lat":43.289363,"lon":5.396322,"is_reserved":false,"is_disabled":false,"rental_uris":{"android":"levelo://app?vid=924db15e-75f7-4753-8b8a-270c111bb3b5","ios":"levelo://app?vid=924db15e-75f7-4753-8b8a-270c111bb3b5"},"vehicle_type_id":"4","last_reported":1683385549,"current_range_meters":12000,"station_id":"ce4bh3h2rcd13ifvqdn0","pricing_plan_id":"free"},{"bike_id":"c514c1d0-8d86-40c1-9720-a2d50243ee5c","system_id":"levelo_inurba_marseille","lat":43.28277,"lon":5.35088,"is_reserved":false,"is_disabled":false,"rental_uris":{"android":"levelo://app?vid=c514c1d0-8d86-40c1-9720-a2d50243ee5c","ios":"levelo://app?vid=c514c1d0-8d86-40c1-9720-a2d50243ee5c"},"vehicle_type_id":"4","last_reported":1683385549,"current_range_meters":12400,"station_id":"","pricing_plan_id":"free"},{"bike_id":"6d40bbc9-2bb7-4cf8-a162-bdf581636fa2","system_id":"levelo_inurba_marseille","lat":43.2828,"lon":5.35075,"is_reserved":false,"is_disabled":false,"rental_uris":{"android":"levelo://app?vid=6d40bbc9-2bb7-4cf8-a162-bdf581636fa2","ios":"levelo://app?vid=6d40bbc9-2bb7-4cf8-a162-bdf581636fa2"},"vehicle_type_id":"4","last_reported":1683385549,"current_range_meters":18400,"station_id":"ce4bhbp2rcd13ifvqerg","pricing_plan_id":"free"},{"bike_id":"6ddc989f-d326-4de5-8233-b3a549cde405","system_id":"levelo_inurba_marseille","lat":43.28278,"lon":5.35077,"is_reserved":false,"is_disabled":false,"rental_uris":{"android":"levelo://app?vid=6ddc989f-d326-4de5-8233-b3a549cde405","ios":"levelo://app?vid=6ddc989f-d326-4de5-8233-b3a549cde405"},"vehicle_type_id":"4","last_reported":1683385549,"current_range_meters":24800,"station_id":"","pricing_plan_id":"free"},{"bike_id":"aa100625-4f9b-449b-a8ca-1ec5d7f0fd13","system_id":"levelo_inurba_marseille","lat":43.28277,"lon":5.35078,"is_reserved":false,"is_disabled":false,"rental_uris":{"android":"levelo://app?vid=aa100625-4f9b-449b-a8ca-1ec5d7f0fd13","ios":"levelo://app?vid=aa100625-4f9b-449b-a8ca-1ec5d7f0fd13"},"vehicle_type_id":"4","last_reported":1683385549,"current_range_meters":19200,"station_id":"ce4bhbp2rcd13ifvqerg","pricing_plan_id":"free"},{"bike_id":"ce6305bb-862c-4bf3-89df-585ae8dbc8aa","system_id":"levelo_inurba_marseille","lat":43.28275,"lon":5.35085,"is_reserved":false,"is_disabled":false,"rental_uris":{"android":"levelo://app?vid=ce6305bb-862c-4bf3-89df-585ae8dbc8aa","ios":"levelo://app?vid=ce6305bb-862c-4bf3-89df-585ae8dbc8aa"},"vehicle_type_id":"4","last_reported":1683385549,"current_range_meters":27600,"station_id":"ce4bhbp2rcd13ifvqerg","pricing_plan_id":"free"},{"bike_id":"93405c77-107d-4be2-9a6a-42a255a4624f","system_id":"levelo_inurba_marseille","lat":43.28281,"lon":5.35064,"is_reserved":false,"is_disabled":false,"rental_uris":{"android":"levelo://app?vid=93405c77-107d-4be2-9a6a-42a255a4624f","ios":"levelo://app?vid=93405c77-107d-4be2-9a6a-42a255a4624f"},"vehicle_type_id":"4","last_reported":1683385549,"current_range_meters":30000,"station_id":"ce4bhbp2rcd13ifvqerg","pricing_plan_id":"free"},{"bike_id":"74a5fc15-c251-455f-8682-948c2486e0d6","system_id":"levelo_inurba_marseille","lat":43.28278,"lon":5.3507,"is_reserved":false,"is_disabled":false,"rental_uris":{"android":"levelo://app?vid=74a5fc15-c251-455f-8682-948c2486e0d6","ios":"levelo://app?vid=74a5fc15-c251-455f-8682-948c2486e0d6"},"vehicle_type_id":"4","last_reported":1683385549,"current_range_meters":9200,"station_id":"ce4bhbp2rcd13ifvqerg","pricing_plan_id":"free"},{"bike_id":"bef124a0-7b6f-4570-a214-5ba1ce3c82a6","system_id":"levelo_inurba_marseille","lat":43.28279,"lon":5.35066,"is_reserved":false,"is_disabled":false,"rental_uris":{"android":"levelo://app?vid=bef124a0-7b6f-4570-a214-5ba1ce3c82a6","ios":"levelo://app?vid=bef124a0-7b6f-4570-a214-5ba1ce3c82a6"},"vehicle_type_id":"4","last_reported":1683385549,"current_range_meters":20400,"station_id":"ce4bhbp2rcd13ifvqerg","pricing_plan_id":"free"},{"bike_id":"2eed68fd-6ede-4014-bf81-3d7f31a93495","system_id":"levelo_inurba_marseille","lat":43.28279,"lon":5.35065,"is_reserved":false,"is_disabled":false,"rental_uris":{"android":"levelo://app?vid=2eed68fd-6ede-4014-bf81-3d7f31a93495","ios":"levelo://app?vid=2eed68fd-6ede-4014-bf81-3d7f31a93495"},"vehicle_type_id":"4","last_reported":1683385549,"current_range_meters":24800,"station_id":"ce4bhbp2rcd13ifvqerg","pricing_plan_id":"free"},{"bike_id":"1ed17f4a-585e-45d7-86da-5a21fa1e1312","system_id":"levelo_inurba_marseille","lat":43.28275,"lon":5.35072,"is_reserved":false,"is_disabled":false,"rental_uris":{"android":"levelo://app?vid=1ed17f4a-585e-45d7-86da-5a21fa1e1312","ios":"levelo://app?vid=1ed17f4a-585e-45d7-86da-5a21fa1e1312"},"vehicle_type_id":"4","last_reported":1683385549,"current_range_meters":0,"station_id":"ce4bhbp2rcd13ifvqerg","pricing_plan_id":"free"},{"bike_id":"2ea9ba8f-6452-48e2-8e6b-88686f355616","system_id":"levelo_inurba_marseille","lat":43.28274,"lon":5.35074,"is_reserved":false,"is_disabled":false,"rental_uris":{"android":"levelo://app?vid=2ea9ba8f-6452-48e2-8e6b-88686f355616","ios":"levelo://app?vid=2ea9ba8f-6452-48e2-8e6b-88686f355616"},"vehicle_type_id":"4","last_reported":1683385549,"current_range_meters":17200,"station_id":"ce4bhbp2rcd13ifvqerg","pricing_plan_id":"free"},{"bike_id":"9a6f2856-131c-40d8-89ff-7c3b14e41ddd","system_id":"levelo_inurba_marseille","lat":43.28273,"lon":5.35077,"is_reserved":false,"is_disabled":false,"rental_uris":{"android":"levelo://app?vid=9a6f2856-131c-40d8-89ff-7c3b14e41ddd","ios":"levelo://app?vid=9a6f2856-131c-40d8-89ff-7c3b14e41ddd"},"vehicle_type_id":"4","last_reported":1683385549,"current_range_meters":21600,"station_id":"ce4bhbp2rcd13ifvqerg","pricing_plan_id":"free"},{"bike_id":"eed26149-a32b-47dc-a5ee-20d3e3f63807","system_id":"levelo_inurba_marseille","lat":43.28279,"lon":5.35056,"is_reserved":false,"is_disabled":false,"rental_uris":{"android":"levelo://app?vid=eed26149-a32b-47dc-a5ee-20d3e3f63807","ios":"levelo://app?vid=eed26149-a32b-47dc-a5ee-20d3e3f63807"},"vehicle_type_id":"4","last_reported":1683385549,"current_range_meters":26400,"station_id":"ce4bhbp2rcd13ifvqerg","pricing_plan_id":"free"},{"bike_id":"37adb2ac-01e4-4903-81cf-5d241783ea85","system_id":"levelo_inurba_marseille","lat":43.28276,"lon":5.35066,"is_reserved":false,"is_disabled":false,"rental_uris":{"android":"levelo://app?vid=37adb2ac-01e4-4903-81cf-5d241783ea85","ios":"levelo://app?vid=37adb2ac-01e4-4903-81cf-5d241783ea85"},"vehicle_type_id":"4","last_reported":1683385549,"current_range_meters":4400,"station_id":"ce4bhbp2rcd13ifvqerg","pricing_plan_id":"free"},{"bike_id":"e7b2b402-657b-41be-b47f-21e60e457afc","system_id":"levelo_inurba_marseille","lat":43.282754,"lon":5.350519,"is_reserved":false,"is_disabled":false,"rental_uris":{"android":"levelo://app?vid=e7b2b402-657b-41be-b47f-21e60e457afc","ios":"levelo://app?vid=e7b2b402-657b-41be-b47f-21e60e457afc"},"vehicle_type_id":"4","last_reported":1683385549,"current_range_meters":31200,"station_id":"ce4bhbp2rcd13ifvqerg","pricing_plan_id":"free"},{"bike_id":"1eeff18b-8487-430e-aefa-95f876474265","system_id":"levelo_inurba_marseille","lat":43.28271,"lon":5.35082,"is_reserved":false,"is_disabled":false,"rental_uris":{"android":"levelo://app?vid=1eeff18b-8487-430e-aefa-95f876474265","ios":"levelo://app?vid=1eeff18b-8487-430e-aefa-95f876474265"},"vehicle_type_id":"4","last_reported":1683385549,"current_range_meters":16000,"station_id":"ce4bhbp2rcd13ifvqerg","pricing_plan_id":"free"},{"bike_id":"2de62c45-2beb-4021-adf5-b9effae4ad3d","system_id":"levelo_inurba_marseille","lat":43.28274,"lon":5.3507,"is_reserved":false,"is_disabled":false,"rental_uris":{"android":"levelo://app?vid=2de62c45-2beb-4021-adf5-b9effae4ad3d","ios":"levelo://app?vid=2de62c45-2beb-4021-adf5-b9effae4ad3d"},"vehicle_type_id":"4","last_reported":1683385549,"current_range_meters":800,"station_id":"ce4bhbp2rcd13ifvqerg","pricing_plan_id":"free"},{"bike_id":"0bd1418a-93b1-4444-8b79-6313ef8b49b8","system_id":"levelo_inurba_marseille","lat":43.28279,"lon":5.35051,"is_reserved":false,"is_disabled":false,"rental_uris":{"android":"levelo://app?vid=0bd1418a-93b1-4444-8b79-6313ef8b49b8","ios":"levelo://app?vid=0bd1418a-93b1-4444-8b79-6313ef8b49b8"},"vehicle_type_id":"4","last_reported":1683385549,"current_range_meters":24800,"station_id":"ce4bhbp2rcd13ifvqerg","pricing_plan_id":"free"},{"bike_id":"6f1f4fe7-4e95-453a-9900-8c8ddc8c32c5","system_id":"levelo_inurba_marseille","lat":43.28277,"lon":5.35057,"is_reserved":false,"is_disabled":false,"rental_uris":{"android":"levelo://app?vid=6f1f4fe7-4e95-453a-9900-8c8ddc8c32c5","ios":"levelo://app?vid=6f1f4fe7-4e95-453a-9900-8c8ddc8c32c5"},"vehicle_type_id":"4","last_reported":1683385549,"current_range_meters":30000,"station_id":"ce4bhbp2rcd13ifvqerg","pricing_plan_id":"free"},{"bike_id":"fa949c2d-1c62-4874-b1e4-a3a5b975e6ec","system_id":"levelo_inurba_marseille","lat":43.282744,"lon":5.350533,"is_reserved":false,"is_disabled":false,"rental_uris":{"android":"levelo://app?vid=fa949c2d-1c62-4874-b1e4-a3a5b975e6ec","ios":"levelo://app?vid=fa949c2d-1c62-4874-b1e4-a3a5b975e6ec"},"vehicle_type_id":"4","last_reported":1683385549,"current_range_meters":31200,"station_id":"ce4bhbp2rcd13ifvqerg","pricing_plan_id":"free"},{"bike_id":"31cc8283-daa3-449e-8a0b-018563f8a8b8","system_id":"levelo_inurba_marseille","lat":43.28271,"lon":5.35076,"is_reserved":false,"is_disabled":false,"rental_uris":{"android":"levelo://app?vid=31cc8283-daa3-449e-8a0b-018563f8a8b8","ios":"levelo://app?vid=31cc8283-daa3-449e-8a0b-018563f8a8b8"},"vehicle_type_id":"4","last_reported":1683385549,"current_range_meters":26000,"station_id":"ce4bhbp2rcd13ifvqerg","pricing_plan_id":"free"},{"bike_id":"ff6b8d54-8d9a-4850-8688-52faa0cfc205","system_id":"levelo_inurba_marseille","lat":43.28274,"lon":5.35063,"is_reserved":false,"is_disabled":false,"rental_uris":{"android":"levelo://app?vid=ff6b8d54-8d9a-4850-8688-52faa0cfc205","ios":"levelo://app?vid=ff6b8d54-8d9a-4850-8688-52faa0cfc205"},"vehicle_type_id":"4","last_reported":1683385549,"current_range_meters":21600,"station_id":"ce4bhbp2rcd13ifvqerg","pricing_plan_id":"free"},{"bike_id":"a0aae788-96f6-466f-a9ad-fd4f24f5539e","system_id":"levelo_inurba_marseille","lat":43.28271,"lon":5.35073,"is_reserved":false,"is_disabled":false,"rental_uris":{"android":"levelo://app?vid=a0aae788-96f6-466f-a9ad-fd4f24f5539e","ios":"levelo://app?vid=a0aae788-96f6-466f-a9ad-fd4f24f5539e"},"vehicle_type_id":"4","last_reported":1683385549,"current_range_meters":28800,"station_id":"","pricing_plan_id":"free"},{"bike_id":"4428d255-14ed-4715-bd58-6a7276098ab3","system_id":"levelo_inurba_marseille","lat":43.28275,"lon":5.35059,"is_reserved":false,"is_disabled":false,"rental_uris":{"android":"levelo://app?vid=4428d255-14ed-4715-bd58-6a7276098ab3","ios":"levelo://app?vid=4428d255-14ed-4715-bd58-6a7276098ab3"},"vehicle_type_id":"4","last_reported":1683385549,"current_range_meters":21200,"station_id":"ce4bhbp2rcd13ifvqerg","pricing_plan_id":"free"},{"bike_id":"f981e861-0c26-4526-aaf4-1f850d5344a9","system_id":"levelo_inurba_marseille","lat":43.2827,"lon":5.35074,"is_reserved":false,"is_disabled":false,"rental_uris":{"android":"levelo://app?vid=f981e861-0c26-4526-aaf4-1f850d5344a9","ios":"levelo://app?vid=f981e861-0c26-4526-aaf4-1f850d5344a9"},"vehicle_type_id":"4","last_reported":1683385549,"current_range_meters":24800,"station_id":"ce4bhbp2rcd13ifvqerg","pricing_plan_id":"free"},{"bike_id":"e51e46d7-62b9-477c-a5e6-1e9aeb5e6886","system_id":"levelo_inurba_marseille","lat":43.28272,"lon":5.35067,"is_reserved":false,"is_disabled":false,"rental_uris":{"android":"levelo://app?vid=e51e46d7-62b9-477c-a5e6-1e9aeb5e6886","ios":"levelo://app?vid=e51e46d7-62b9-477c-a5e6-1e9aeb5e6886"},"vehicle_type_id":"4","last_reported":1683385549,"current_range_meters":24000,"station_id":"ce4bhbp2rcd13ifvqerg","pricing_plan_id":"free"},{"bike_id":"cfc28a59-d0eb-4fa5-a034-88c4f221cf39","system_id":"levelo_inurba_marseille","lat":43.28271,"lon":5.35069,"is_reserved":false,"is_disabled":false,"rental_uris":{"android":"levelo://app?vid=cfc28a59-d0eb-4fa5-a034-88c4f221cf39","ios":"levelo://app?vid=cfc28a59-d0eb-4fa5-a034-88c4f221cf39"},"vehicle_type_id":"4","last_reported":1683385549,"current_range_meters":16800,"station_id":"ce4bhbp2rcd13ifvqerg","pricing_plan_id":"free"},{"bike_id":"a90a6b08-4032-4be4-8217-18dd8c000d82","system_id":"levelo_inurba_marseille","lat":43.282744,"lon":5.350533,"is_reserved":false,"is_disabled":false,"rental_uris":{"android":"levelo://app?vid=a90a6b08-4032-4be4-8217-18dd8c000d82","ios":"levelo://app?vid=a90a6b08-4032-4be4-8217-18dd8c000d82"},"vehicle_type_id":"4","last_reported":1683385549,"current_range_meters":18000,"station_id":"ce4bhbp2rcd13ifvqerg","pricing_plan_id":"free"},{"bike_id":"96b58442-cd93-49e7-a7df-ef2933a9a239","system_id":"levelo_inurba_marseille","lat":43.28269,"lon":5.35073,"is_reserved":false,"is_disabled":false,"rental_uris":{"android":"levelo://app?vid=96b58442-cd93-49e7-a7df-ef2933a9a239","ios":"levelo://app?vid=96b58442-cd93-49e7-a7df-ef2933a9a239"},"vehicle_type_id":"4","last_reported":1683385549,"current_range_meters":4400,"station_id":"ce4bhbp2rcd13ifvqerg","pricing_plan_id":"free"},{"bike_id":"4ea584a9-6994-45ac-9515-5779999be258","system_id":"levelo_inurba_marseille","lat":43.28271,"lon":5.35066,"is_reserved":false,"is_disabled":false,"rental_uris":{"android":"levelo://app?vid=4ea584a9-6994-45ac-9515-5779999be258","ios":"levelo://app?vid=4ea584a9-6994-45ac-9515-5779999be258"},"vehicle_type_id":"4","last_reported":1683385549,"current_range_meters":18000,"station_id":"ce4bhbp2rcd13ifvqerg","pricing_plan_id":"free"},{"bike_id":"bfb9ae10-b8ea-48b7-8cd7-3d08bd45e0e3","system_id":"levelo_inurba_marseille","lat":43.282744,"lon":5.350533,"is_reserved":false,"is_disabled":false,"rental_uris":{"android":"levelo://app?vid=bfb9ae10-b8ea-48b7-8cd7-3d08bd45e0e3","ios":"levelo://app?vid=bfb9ae10-b8ea-48b7-8cd7-3d08bd45e0e3"},"vehicle_type_id":"4","last_reported":1683385549,"current_range_meters":31200,"station_id":"ce4bhbp2rcd13ifvqerg","pricing_plan_id":"free"},{"bike_id":"ff2a590d-49d7-47e0-9536-a03de9dc62b2","system_id":"levelo_inurba_marseille","lat":43.28272,"lon":5.35059,"is_reserved":false,"is_disabled":false,"rental_uris":{"android":"levelo://app?vid=ff2a590d-49d7-47e0-9536-a03de9dc62b2","ios":"levelo://app?vid=ff2a590d-49d7-47e0-9536-a03de9dc62b2"},"vehicle_type_id":"4","last_reported":1683385549,"current_range_meters":0,"station_id":"","pricing_plan_id":"free"},{"bike_id":"7fb5129d-a81a-4109-aa04-f3c5e687a881","system_id":"levelo_inurba_marseille","lat":43.28271,"lon":5.35058,"is_reserved":false,"is_disabled":false,"rental_uris":{"android":"levelo://app?vid=7fb5129d-a81a-4109-aa04-f3c5e687a881","ios":"levelo://app?vid=7fb5129d-a81a-4109-aa04-f3c5e687a881"},"vehicle_type_id":"4","last_reported":1683385549,"current_range_meters":26400,"station_id":"ce4bhbp2rcd13ifvqerg","pricing_plan_id":"free"},{"bike_id":"76242f32-c407-44d4-84d7-fa1d50b0f9dc","system_id":"levelo_inurba_marseille","lat":43.32444,"lon":5.40831,"is_reserved":false,"is_disabled":false,"rental_uris":{"android":"levelo://app?vid=76242f32-c407-44d4-84d7-fa1d50b0f9dc","ios":"levelo://app?vid=76242f32-c407-44d4-84d7-fa1d50b0f9dc"},"vehicle_type_id":"4","last_reported":1683385549,"current_range_meters":2800,"station_id":"","pricing_plan_id":"free"},{"bike_id":"956c6544-f50d-49fe-86b5-3535b76da1be","system_id":"levelo_inurba_marseille","lat":43.28265,"lon":5.35074,"is_reserved":false,"is_disabled":false,"rental_uris":{"android":"levelo://app?vid=956c6544-f50d-49fe-86b5-3535b76da1be","ios":"levelo://app?vid=956c6544-f50d-49fe-86b5-3535b76da1be"},"vehicle_type_id":"4","last_reported":1683385549,"current_range_meters":11200,"station_id":"ce4bhbp2rcd13ifvqerg","pricing_plan_id":"free"},{"bike_id":"26161395-36c3-45f8-8ef5-24e1e986b891","system_id":"levelo_inurba_marseille","lat":43.28267,"lon":5.35064,"is_reserved":false,"is_disabled":false,"rental_uris":{"android":"levelo://app?vid=26161395-36c3-45f8-8ef5-24e1e986b891","ios":"levelo://app?vid=26161395-36c3-45f8-8ef5-24e1e986b891"},"vehicle_type_id":"4","last_reported":1683385549,"current_range_meters":11200,"station_id":"ce4bhbp2rcd13ifvqerg","pricing_plan_id":"free"},{"bike_id":"453397aa-2fcb-4576-8d7d-b8b7e21c558d","system_id":"levelo_inurba_marseille","lat":43.28263,"lon":5.3507,"is_reserved":false,"is_disabled":false,"rental_uris":{"android":"levelo://app?vid=453397aa-2fcb-4576-8d7d-b8b7e21c558d","ios":"levelo://app?vid=453397aa-2fcb-4576-8d7d-b8b7e21c558d"},"vehicle_type_id":"4","last_reported":1683385549,"current_range_meters":5200,"station_id":"ce4bhbp2rcd13ifvqerg","pricing_plan_id":"free"},{"bike_id":"b33c1332-f7e4-4d09-b07b-2bcb4e5a761d","system_id":"levelo_inurba_marseille","lat":43.283502,"lon":5.386471,"is_reserved":false,"is_disabled":false,"rental_uris":{"android":"levelo://app?vid=b33c1332-f7e4-4d09-b07b-2bcb4e5a761d","ios":"levelo://app?vid=b33c1332-f7e4-4d09-b07b-2bcb4e5a761d"},"vehicle_type_id":"4","last_reported":1683385549,"current_range_meters":18000,"station_id":"ce4bh492rcd13ifvqdvg","pricing_plan_id":"free"},{"bike_id":"ae4c57ab-1085-4123-b50d-2f3bfa68e1de","system_id":"levelo_inurba_marseille","lat":43.282744,"lon":5.350533,"is_reserved":false,"is_disabled":false,"rental_uris":{"android":"levelo://app?vid=ae4c57ab-1085-4123-b50d-2f3bfa68e1de","ios":"levelo://app?vid=ae4c57ab-1085-4123-b50d-2f3bfa68e1de"},"vehicle_type_id":"4","last_reported":1683385549,"current_range_meters":0,"station_id":"ce4bhbp2rcd13ifvqerg","pricing_plan_id":"free"},{"bike_id":"c4340e39-d67c-4721-81aa-dcb3ce750d23","system_id":"levelo_inurba_marseille","lat":43.282615,"lon":5.350545,"is_reserved":false,"is_disabled":false,"rental_uris":{"android":"levelo://app?vid=c4340e39-d67c-4721-81aa-dcb3ce750d23","ios":"levelo://app?vid=c4340e39-d67c-4721-81aa-dcb3ce750d23"},"vehicle_type_id":"4","last_reported":1683385549,"current_range_meters":18400,"station_id":"ce4bhbp2rcd13ifvqerg","pricing_plan_id":"free"},{"bike_id":"8d8cee22-38bc-40f2-a1d7-6ccfcc2769ef","system_id":"levelo_inurba_marseille","lat":43.280382,"lon":5.369291,"is_reserved":false,"is_disabled":false,"rental_uris":{"android":"levelo://app?vid=8d8cee22-38bc-40f2-a1d7-6ccfcc2769ef","ios":"levelo://app?vid=8d8cee22-38bc-40f2-a1d7-6ccfcc2769ef"},"vehicle_type_id":"4","last_reported":1683385549,"current_range_meters":29200,"station_id":"ce4bha12rcd13ifvqef0","pricing_plan_id":"free"},{"bike_id":"4196b876-cbec-4ec7-a07e-6a11cbd96bad","system_id":"levelo_inurba_marseille","lat":43.28039,"lon":5.369297,"is_reserved":false,"is_disabled":false,"rental_uris":{"android":"levelo://app?vid=4196b876-cbec-4ec7-a07e-6a11cbd96bad","ios":"levelo://app?vid=4196b876-cbec-4ec7-a07e-6a11cbd96bad"},"vehicle_type_id":"4","last_reported":1683385549,"current_range_meters":20800,"station_id":"ce4bha12rcd13ifvqef0","pricing_plan_id":"free"},{"bike_id":"98c39b1c-9e7a-44ec-a8ea-ac75789a6a6c","system_id":"levelo_inurba_marseille","lat":43.280382,"lon":5.369291,"is_reserved":false,"is_disabled":false,"rental_uris":{"android":"levelo://app?vid=98c39b1c-9e7a-44ec-a8ea-ac75789a6a6c","ios":"levelo://app?vid=98c39b1c-9e7a-44ec-a8ea-ac75789a6a6c"},"vehicle_type_id":"4","last_reported":1683385549,"current_range_meters":29200,"station_id":"ce4bha12rcd13ifvqef0","pricing_plan_id":"free"},{"bike_id":"bc8b220c-1d8d-4dc7-8a6f-cbfacece3bdf","system_id":"levelo_inurba_marseille","lat":43.28035,"lon":5.3694,"is_reserved":false,"is_disabled":false,"rental_uris":{"android":"levelo://app?vid=bc8b220c-1d8d-4dc7-8a6f-cbfacece3bdf","ios":"levelo://app?vid=bc8b220c-1d8d-4dc7-8a6f-cbfacece3bdf"},"vehicle_type_id":"4","last_reported":1683385549,"current_range_meters":13600,"station_id":"ce4bha12rcd13ifvqef0","pricing_plan_id":"free"},{"bike_id":"448923da-16af-4535-9691-0892c9566af3","system_id":"levelo_inurba_marseille","lat":43.29041,"lon":5.399634,"is_reserved":false,"is_disabled":false,"rental_uris":{"android":"levelo://app?vid=448923da-16af-4535-9691-0892c9566af3","ios":"levelo://app?vid=448923da-16af-4535-9691-0892c9566af3"},"vehicle_type_id":"4","last_reported":1683385549,"current_range_meters":10400,"station_id":"ce4bh392rcd13ifvqdm0","pricing_plan_id":"free"},{"bike_id":"0239ed20-9ce4-4efa-9839-16546c23af03","system_id":"levelo_inurba_marseille","lat":43.281044,"lon":5.378308,"is_reserved":false,"is_disabled":false,"rental_uris":{"android":"levelo://app?vid=0239ed20-9ce4-4efa-9839-16546c23af03","ios":"levelo://app?vid=0239ed20-9ce4-4efa-9839-16546c23af03"},"vehicle_type_id":"4","last_reported":1683385549,"current_range_meters":6000,"station_id":"ce4bha12rcd13ifvqee0","pricing_plan_id":"free"},{"bike_id":"07c80538-d2c0-4d6d-8bd3-b64bcf35487c","system_id":"levelo_inurba_marseille","lat":43.281044,"lon":5.378308,"is_reserved":false,"is_disabled":false,"rental_uris":{"android":"levelo://app?vid=07c80538-d2c0-4d6d-8bd3-b64bcf35487c","ios":"levelo://app?vid=07c80538-d2c0-4d6d-8bd3-b64bcf35487c"},"vehicle_type_id":"4","last_reported":1683385549,"current_range_meters":30800,"station_id":"ce4bha12rcd13ifvqee0","pricing_plan_id":"free"},{"bike_id":"37736fca-bd96-44f2-aa87-c080d4ef2999","system_id":"levelo_inurba_marseille","lat":43.296263,"lon":5.40601,"is_reserved":false,"is_disabled":false,"rental_uris":{"android":"levelo://app?vid=37736fca-bd96-44f2-aa87-c080d4ef2999","ios":"levelo://app?vid=37736fca-bd96-44f2-aa87-c080d4ef2999"},"vehicle_type_id":"4","last_reported":1683385549,"current_range_meters":14400,"station_id":"ce4bh0h2rcd13ifvqd60","pricing_plan_id":"free"},{"bike_id":"e6302b62-392a-4575-9d03-ecde3bd4bae1","system_id":"levelo_inurba_marseille","lat":43.296263,"lon":5.40601,"is_reserved":false,"is_disabled":false,"rental_uris":{"android":"levelo://app?vid=e6302b62-392a-4575-9d03-ecde3bd4bae1","ios":"levelo://app?vid=e6302b62-392a-4575-9d03-ecde3bd4bae1"},"vehicle_type_id":"4","last_reported":1683385549,"current_range_meters":24400,"station_id":"ce4bh0h2rcd13ifvqd60","pricing_plan_id":"free"},{"bike_id":"76adce47-7819-4334-987c-c4ff83771ee8","system_id":"levelo_inurba_marseille","lat":43.281044,"lon":5.378308,"is_reserved":false,"is_disabled":false,"rental_uris":{"android":"levelo://app?vid=76adce47-7819-4334-987c-c4ff83771ee8","ios":"levelo://app?vid=76adce47-7819-4334-987c-c4ff83771ee8"},"vehicle_type_id":"4","last_reported":1683385549,"current_range_meters":15600,"station_id":"ce4bha12rcd13ifvqee0","pricing_plan_id":"free"},{"bike_id":"7a2fdbe6-2e2f-4eec-86d0-fa38ca2c640a","system_id":"levelo_inurba_marseille","lat":43.281044,"lon":5.378308,"is_reserved":false,"is_disabled":false,"rental_uris":{"android":"levelo://app?vid=7a2fdbe6-2e2f-4eec-86d0-fa38ca2c640a","ios":"levelo://app?vid=7a2fdbe6-2e2f-4eec-86d0-fa38ca2c640a"},"vehicle_type_id":"4","last_reported":1683385549,"current_range_meters":21200,"station_id":"ce4bha12rcd13ifvqee0","pricing_plan_id":"free"},{"bike_id":"9a4ed083-5bfd-40c5-b495-c95688238c39","system_id":"levelo_inurba_marseille","lat":43.281044,"lon":5.378308,"is_reserved":false,"is_disabled":false,"rental_uris":{"android":"levelo://app?vid=9a4ed083-5bfd-40c5-b495-c95688238c39","ios":"levelo://app?vid=9a4ed083-5bfd-40c5-b495-c95688238c39"},"vehicle_type_id":"4","last_reported":1683385549,"current_range_meters":22400,"station_id":"ce4bha12rcd13ifvqee0","pricing_plan_id":"free"},{"bike_id":"8bf71a73-dcf7-48c4-b3e6-8b7c5ff5daf6","system_id":"levelo_inurba_marseille","lat":43.281044,"lon":5.378308,"is_reserved":false,"is_disabled":false,"rental_uris":{"android":"levelo://app?vid=8bf71a73-dcf7-48c4-b3e6-8b7c5ff5daf6","ios":"levelo://app?vid=8bf71a73-dcf7-48c4-b3e6-8b7c5ff5daf6"},"vehicle_type_id":"4","last_reported":1683385549,"current_range_meters":31200,"station_id":"ce4bha12rcd13ifvqee0","pricing_plan_id":"free"},{"bike_id":"366d7521-6ba2-4933-ae30-999c588848b6","system_id":"levelo_inurba_marseille","lat":43.281008,"lon":5.378338,"is_reserved":false,"is_disabled":false,"rental_uris":{"android":"levelo://app?vid=366d7521-6ba2-4933-ae30-999c588848b6","ios":"levelo://app?vid=366d7521-6ba2-4933-ae30-999c588848b6"},"vehicle_type_id":"4","last_reported":1683385549,"current_range_meters":31200,"station_id":"ce4bha12rcd13ifvqee0","pricing_plan_id":"free"},{"bike_id":"cd4f9e4a-956a-4dd2-a5fd-435a7e2bd592","system_id":"levelo_inurba_marseille","lat":43.281044,"lon":5.378308,"is_reserved":false,"is_disabled":false,"rental_uris":{"android":"levelo://app?vid=cd4f9e4a-956a-4dd2-a5fd-435a7e2bd592","ios":"levelo://app?vid=cd4f9e4a-956a-4dd2-a5fd-435a7e2bd592"},"vehicle_type_id":"4","last_reported":1683385549,"current_range_meters":24400,"station_id":"ce4bha12rcd13ifvqee0","pricing_plan_id":"free"},{"bike_id":"809fcb09-90cd-400e-afc0-5451099c699b","system_id":"levelo_inurba_marseille","lat":43.29156,"lon":5.40384,"is_reserved":false,"is_disabled":false,"rental_uris":{"android":"levelo://app?vid=809fcb09-90cd-400e-afc0-5451099c699b","ios":"levelo://app?vid=809fcb09-90cd-400e-afc0-5451099c699b"},"vehicle_type_id":"4","last_reported":1683385549,"current_range_meters":14400,"station_id":"","pricing_plan_id":"free"},{"bike_id":"22502af6-1263-4908-ace4-f70b153eb2b1","system_id":"levelo_inurba_marseille","lat":43.30423,"lon":5.41286,"is_reserved":false,"is_disabled":false,"rental_uris":{"android":"levelo://app?vid=22502af6-1263-4908-ace4-f70b153eb2b1","ios":"levelo://app?vid=22502af6-1263-4908-ace4-f70b153eb2b1"},"vehicle_type_id":"4","last_reported":1683385549,"current_range_meters":15600,"station_id":"ce4bhop2rcd13ifvqh8g","pricing_plan_id":"free"},{"bike_id":"2d1f61ce-a598-4f5c-bbf2-13d3eb40128e","system_id":"levelo_inurba_marseille","lat":43.287154,"lon":5.399979,"is_reserved":false,"is_disabled":false,"rental_uris":{"android":"levelo://app?vid=2d1f61ce-a598-4f5c-bbf2-13d3eb40128e","ios":"levelo://app?vid=2d1f61ce-a598-4f5c-bbf2-13d3eb40128e"},"vehicle_type_id":"4","last_reported":1683385549,"current_range_meters":24000,"station_id":"ce4bho92rcd13ifvqh3g","pricing_plan_id":"free"},{"bike_id":"e3eda7ed-2e31-4d6d-90f6-b9c76d326779","system_id":"levelo_inurba_marseille","lat":43.2796,"lon":5.38713,"is_reserved":false,"is_disabled":false,"rental_uris":{"android":"levelo://app?vid=e3eda7ed-2e31-4d6d-90f6-b9c76d326779","ios":"levelo://app?vid=e3eda7ed-2e31-4d6d-90f6-b9c76d326779"},"vehicle_type_id":"4","last_reported":1683385549,"current_range_meters":29600,"station_id":"","pricing_plan_id":"free"},{"bike_id":"9bf65a54-5301-40d5-8048-d4cd6c3a5e39","system_id":"levelo_inurba_marseille","lat":43.325233,"lon":5.414318,"is_reserved":false,"is_disabled":false,"rental_uris":{"android":"levelo://app?vid=9bf65a54-5301-40d5-8048-d4cd6c3a5e39","ios":"levelo://app?vid=9bf65a54-5301-40d5-8048-d4cd6c3a5e39"},"vehicle_type_id":"4","last_reported":1683385549,"current_range_meters":14000,"station_id":"ce4bhq12rcd13ifvqhhg","pricing_plan_id":"free"},{"bike_id":"6ad0a137-cc5e-4b47-8a4a-48bd462bddfd","system_id":"levelo_inurba_marseille","lat":43.27618,"lon":5.361009,"is_reserved":false,"is_disabled":false,"rental_uris":{"android":"levelo://app?vid=6ad0a137-cc5e-4b47-8a4a-48bd462bddfd","ios":"levelo://app?vid=6ad0a137-cc5e-4b47-8a4a-48bd462bddfd"},"vehicle_type_id":"4","last_reported":1683385549,"current_range_meters":18800,"station_id":"ce4bgj92rcd13ifvqbe0","pricing_plan_id":"free"},{"bike_id":"c96a8630-1f58-4886-ab93-5f330faa7bfc","system_id":"levelo_inurba_marseille","lat":43.27618,"lon":5.361009,"is_reserved":false,"is_disabled":false,"rental_uris":{"android":"levelo://app?vid=c96a8630-1f58-4886-ab93-5f330faa7bfc","ios":"levelo://app?vid=c96a8630-1f58-4886-ab93-5f330faa7bfc"},"vehicle_type_id":"4","last_reported":1683385549,"current_range_meters":10400,"station_id":"ce4bgj92rcd13ifvqbe0","pricing_plan_id":"free"},{"bike_id":"6c2cc3df-f895-43e1-8237-89ec5cc429ac","system_id":"levelo_inurba_marseille","lat":43.27624,"lon":5.36106,"is_reserved":false,"is_disabled":false,"rental_uris":{"android":"levelo://app?vid=6c2cc3df-f895-43e1-8237-89ec5cc429ac","ios":"levelo://app?vid=6c2cc3df-f895-43e1-8237-89ec5cc429ac"},"vehicle_type_id":"4","last_reported":1683385549,"current_range_meters":14800,"station_id":"ce4bgj92rcd13ifvqbe0","pricing_plan_id":"free"},{"bike_id":"55e241b3-6d19-4dcd-80ee-95fe200a76a2","system_id":"levelo_inurba_marseille","lat":43.27618,"lon":5.361009,"is_reserved":false,"is_disabled":false,"rental_uris":{"android":"levelo://app?vid=55e241b3-6d19-4dcd-80ee-95fe200a76a2","ios":"levelo://app?vid=55e241b3-6d19-4dcd-80ee-95fe200a76a2"},"vehicle_type_id":"4","last_reported":1683385549,"current_range_meters":16400,"station_id":"ce4bgj92rcd13ifvqbe0","pricing_plan_id":"free"},{"bike_id":"1de0a93a-7b84-4b98-b859-e7e23d87c527","system_id":"levelo_inurba_marseille","lat":43.27618,"lon":5.361009,"is_reserved":false,"is_disabled":false,"rental_uris":{"android":"levelo://app?vid=1de0a93a-7b84-4b98-b859-e7e23d87c527","ios":"levelo://app?vid=1de0a93a-7b84-4b98-b859-e7e23d87c527"},"vehicle_type_id":"4","last_reported":1683385549,"current_range_meters":16000,"station_id":"ce4bgj92rcd13ifvqbe0","pricing_plan_id":"free"},{"bike_id":"ebe3c18f-a6d4-44d6-9a55-57cd3c73fa5a","system_id":"levelo_inurba_marseille","lat":43.325233,"lon":5.414318,"is_reserved":false,"is_disabled":false,"rental_uris":{"android":"levelo://app?vid=ebe3c18f-a6d4-44d6-9a55-57cd3c73fa5a","ios":"levelo://app?vid=ebe3c18f-a6d4-44d6-9a55-57cd3c73fa5a"},"vehicle_type_id":"4","last_reported":1683385549,"current_range_meters":18800,"station_id":"ce4bhq12rcd13ifvqhhg","pricing_plan_id":"free"},{"bike_id":"e490ea83-bf86-4ad8-a1a7-c40f62929beb","system_id":"levelo_inurba_marseille","lat":43.27618,"lon":5.361009,"is_reserved":false,"is_disabled":false,"rental_uris":{"android":"levelo://app?vid=e490ea83-bf86-4ad8-a1a7-c40f62929beb","ios":"levelo://app?vid=e490ea83-bf86-4ad8-a1a7-c40f62929beb"},"vehicle_type_id":"4","last_reported":1683385549,"current_range_meters":11600,"station_id":"ce4bgj92rcd13ifvqbe0","pricing_plan_id":"free"},{"bike_id":"8e6d3246-4ae5-41e8-8226-7bf0c222f36b","system_id":"levelo_inurba_marseille","lat":43.27618,"lon":5.361009,"is_reserved":false,"is_disabled":false,"rental_uris":{"android":"levelo://app?vid=8e6d3246-4ae5-41e8-8226-7bf0c222f36b","ios":"levelo://app?vid=8e6d3246-4ae5-41e8-8226-7bf0c222f36b"},"vehicle_type_id":"4","last_reported":1683385549,"current_range_meters":16400,"station_id":"ce4bgj92rcd13ifvqbe0","pricing_plan_id":"free"},{"bike_id":"a2d4b7c0-4958-448a-967b-7631549097f3","system_id":"levelo_inurba_marseille","lat":43.27621,"lon":5.36109,"is_reserved":false,"is_disabled":false,"rental_uris":{"android":"levelo://app?vid=a2d4b7c0-4958-448a-967b-7631549097f3","ios":"levelo://app?vid=a2d4b7c0-4958-448a-967b-7631549097f3"},"vehicle_type_id":"4","last_reported":1683385549,"current_range_meters":9200,"station_id":"ce4bgj92rcd13ifvqbe0","pricing_plan_id":"free"},{"bike_id":"2441a436-10f3-4a0f-89b8-7be930d2e51f","system_id":"levelo_inurba_marseille","lat":43.27618,"lon":5.361009,"is_reserved":false,"is_disabled":false,"rental_uris":{"android":"levelo://app?vid=2441a436-10f3-4a0f-89b8-7be930d2e51f","ios":"levelo://app?vid=2441a436-10f3-4a0f-89b8-7be930d2e51f"},"vehicle_type_id":"4","last_reported":1683385549,"current_range_meters":12000,"station_id":"ce4bgj92rcd13ifvqbe0","pricing_plan_id":"free"},{"bike_id":"8356987d-35f4-4be8-b865-4c8b2047de66","system_id":"levelo_inurba_marseille","lat":43.27621,"lon":5.36103,"is_reserved":false,"is_disabled":false,"rental_uris":{"android":"levelo://app?vid=8356987d-35f4-4be8-b865-4c8b2047de66","ios":"levelo://app?vid=8356987d-35f4-4be8-b865-4c8b2047de66"},"vehicle_type_id":"4","last_reported":1683385549,"current_range_meters":20000,"station_id":"ce4bgj92rcd13ifvqbe0","pricing_plan_id":"free"},{"bike_id":"d777686e-15e8-4e66-86c2-2e01e22129ca","system_id":"levelo_inurba_marseille","lat":43.27618,"lon":5.361009,"is_reserved":false,"is_disabled":false,"rental_uris":{"android":"levelo://app?vid=d777686e-15e8-4e66-86c2-2e01e22129ca","ios":"levelo://app?vid=d777686e-15e8-4e66-86c2-2e01e22129ca"},"vehicle_type_id":"4","last_reported":1683385549,"current_range_meters":7200,"station_id":"ce4bgj92rcd13ifvqbe0","pricing_plan_id":"free"},{"bike_id":"44b83a81-5e72-40b9-b545-1cfe76e8fc8b","system_id":"levelo_inurba_marseille","lat":43.27618,"lon":5.361009,"is_reserved":false,"is_disabled":false,"rental_uris":{"android":"levelo://app?vid=44b83a81-5e72-40b9-b545-1cfe76e8fc8b","ios":"levelo://app?vid=44b83a81-5e72-40b9-b545-1cfe76e8fc8b"},"vehicle_type_id":"4","last_reported":1683385549,"current_range_meters":24400,"station_id":"ce4bgj92rcd13ifvqbe0","pricing_plan_id":"free"},{"bike_id":"8fcdcf01-9615-42b6-b5c8-ede1f9d5c8d7","system_id":"levelo_inurba_marseille","lat":43.27619,"lon":5.36104,"is_reserved":false,"is_disabled":false,"rental_uris":{"android":"levelo://app?vid=8fcdcf01-9615-42b6-b5c8-ede1f9d5c8d7","ios":"levelo://app?vid=8fcdcf01-9615-42b6-b5c8-ede1f9d5c8d7"},"vehicle_type_id":"4","last_reported":1683385549,"current_range_meters":3200,"station_id":"ce4bgj92rcd13ifvqbe0","pricing_plan_id":"free"},{"bike_id":"df9eed09-8ce2-4901-96e7-d3fc0894d3e1","system_id":"levelo_inurba_marseille","lat":43.325233,"lon":5.414318,"is_reserved":false,"is_disabled":false,"rental_uris":{"android":"levelo://app?vid=df9eed09-8ce2-4901-96e7-d3fc0894d3e1","ios":"levelo://app?vid=df9eed09-8ce2-4901-96e7-d3fc0894d3e1"},"vehicle_type_id":"4","last_reported":1683385549,"current_range_meters":12000,"station_id":"ce4bhq12rcd13ifvqhhg","pricing_plan_id":"free"},{"bike_id":"0aa7aefe-109b-444c-8574-42618cdd771c","system_id":"levelo_inurba_marseille","lat":43.27618,"lon":5.36108,"is_reserved":false,"is_disabled":false,"rental_uris":{"android":"levelo://app?vid=0aa7aefe-109b-444c-8574-42618cdd771c","ios":"levelo://app?vid=0aa7aefe-109b-444c-8574-42618cdd771c"},"vehicle_type_id":"4","last_reported":1683385549,"current_range_meters":24400,"station_id":"ce4bgj92rcd13ifvqbe0","pricing_plan_id":"free"},{"bike_id":"98961180-7f92-408c-b6e1-cda4bbf02393","system_id":"levelo_inurba_marseille","lat":43.27617,"lon":5.36111,"is_reserved":false,"is_disabled":false,"rental_uris":{"android":"levelo://app?vid=98961180-7f92-408c-b6e1-cda4bbf02393","ios":"levelo://app?vid=98961180-7f92-408c-b6e1-cda4bbf02393"},"vehicle_type_id":"4","last_reported":1683385549,"current_range_meters":0,"station_id":"ce4bgj92rcd13ifvqbe0","pricing_plan_id":"free"},{"bike_id":"fb97ad37-55d1-4a96-a45b-c0a50f83acb9","system_id":"levelo_inurba_marseille","lat":43.27617,"lon":5.36109,"is_reserved":false,"is_disabled":false,"rental_uris":{"android":"levelo://app?vid=fb97ad37-55d1-4a96-a45b-c0a50f83acb9","ios":"levelo://app?vid=fb97ad37-55d1-4a96-a45b-c0a50f83acb9"},"vehicle_type_id":"4","last_reported":1683385549,"current_range_meters":1600,"station_id":"ce4bgj92rcd13ifvqbe0","pricing_plan_id":"free"},{"bike_id":"3a85fcb1-ad2a-4f95-b44d-50ada945b2fb","system_id":"levelo_inurba_marseille","lat":43.325233,"lon":5.414318,"is_reserved":false,"is_disabled":false,"rental_uris":{"android":"levelo://app?vid=3a85fcb1-ad2a-4f95-b44d-50ada945b2fb","ios":"levelo://app?vid=3a85fcb1-ad2a-4f95-b44d-50ada945b2fb"},"vehicle_type_id":"4","last_reported":1683385549,"current_range_meters":31200,"station_id":"ce4bhq12rcd13ifvqhhg","pricing_plan_id":"free"},{"bike_id":"efb17069-6085-47eb-882d-4c27a63d1f21","system_id":"levelo_inurba_marseille","lat":43.325233,"lon":5.414318,"is_reserved":false,"is_disabled":false,"rental_uris":{"android":"levelo://app?vid=efb17069-6085-47eb-882d-4c27a63d1f21","ios":"levelo://app?vid=efb17069-6085-47eb-882d-4c27a63d1f21"},"vehicle_type_id":"4","last_reported":1683385549,"current_range_meters":30000,"station_id":"ce4bhq12rcd13ifvqhhg","pricing_plan_id":"free"},{"bike_id":"d6887d1d-c4a6-4fd7-83f3-ed1664f51a0f","system_id":"levelo_inurba_marseille","lat":43.325233,"lon":5.414318,"is_reserved":false,"is_disabled":false,"rental_uris":{"android":"levelo://app?vid=d6887d1d-c4a6-4fd7-83f3-ed1664f51a0f","ios":"levelo://app?vid=d6887d1d-c4a6-4fd7-83f3-ed1664f51a0f"},"vehicle_type_id":"4","last_reported":1683385549,"current_range_meters":31200,"station_id":"ce4bhq12rcd13ifvqhhg","pricing_plan_id":"free"},{"bike_id":"3e407023-f785-4cc1-a98b-2acc52f38322","system_id":"levelo_inurba_marseille","lat":43.32555,"lon":5.4145,"is_reserved":false,"is_disabled":false,"rental_uris":{"android":"levelo://app?vid=3e407023-f785-4cc1-a98b-2acc52f38322","ios":"levelo://app?vid=3e407023-f785-4cc1-a98b-2acc52f38322"},"vehicle_type_id":"4","last_reported":1683385549,"current_range_meters":29200,"station_id":"","pricing_plan_id":"free"},{"bike_id":"8fc5ea19-49b5-436a-ad21-9771754b8f53","system_id":"levelo_inurba_marseille","lat":43.280784,"lon":5.396622,"is_reserved":false,"is_disabled":false,"rental_uris":{"android":"levelo://app?vid=8fc5ea19-49b5-436a-ad21-9771754b8f53","ios":"levelo://app?vid=8fc5ea19-49b5-436a-ad21-9771754b8f53"},"vehicle_type_id":"4","last_reported":1683385549,"current_range_meters":12800,"station_id":"ce4bho12rcd13ifvqh2g","pricing_plan_id":"free"},{"bike_id":"30e1c3e6-e565-4641-a884-199dcb9e714f","system_id":"levelo_inurba_marseille","lat":43.28079,"lon":5.39663,"is_reserved":false,"is_disabled":false,"rental_uris":{"android":"levelo://app?vid=30e1c3e6-e565-4641-a884-199dcb9e714f","ios":"levelo://app?vid=30e1c3e6-e565-4641-a884-199dcb9e714f"},"vehicle_type_id":"4","last_reported":1683385549,"current_range_meters":2000,"station_id":"ce4bho12rcd13ifvqh2g","pricing_plan_id":"free"},{"bike_id":"fbcf77ab-0ef8-4e03-8eae-4a26f5de480b","system_id":"levelo_inurba_marseille","lat":43.27387,"lon":5.36261,"is_reserved":false,"is_disabled":false,"rental_uris":{"android":"levelo://app?vid=fbcf77ab-0ef8-4e03-8eae-4a26f5de480b","ios":"levelo://app?vid=fbcf77ab-0ef8-4e03-8eae-4a26f5de480b"},"vehicle_type_id":"4","last_reported":1683385549,"current_range_meters":12000,"station_id":"","pricing_plan_id":"free"},