{"last_updated":1684994938,"ttl":30,"version":"2.2","data":{"bikes":[{"bike_id":"85c73a90-66de-434e-b698-7d80915eb59f","system_id":"levelo_inurba_marseille","lat":43.31341,"lon":5.367098,"is_reserved":false,"is_disabled":false,"rental_uris":{"android":"levelo://app?vid=85c73a90-66de-434e-b698-7d80915eb59f","ios":"levelo://app?vid=85c73a90-66de-434e-b698-7d80915eb59f"},"vehicle_type_id":"4","last_reported":1684994939,"current_range_meters":28400,"station_id":"ce4bgr92rcd13ifvqc6g","pricing_plan_id":"free"},{"bike_id":"c7196536-9b0a-4dcd-a747-b9a6353a191a","system_id":"levelo_inurba_marseille","lat":43.31341,"lon":5.367098,"is_reserved":false,"is_disabled":false,"rental_uris":{"android":"levelo://app?vid=c7196536-9b0a-4dcd-a747-b9a6353a191a","ios":"levelo://app?vid=c7196536-9b0a-4dcd-a747-b9a6353a191a"},"vehicle_type_id":"4","last_reported":1684994939,"current_range_meters":30000,"station_id":"ce4bgr92rcd13ifvqc6g","pricing_plan_id":"free"},{"bike_id":"057874b2-e801-4ed3-9143-b0ecbb73e206","system_id":"levelo_inurba_marseille","lat":43.312239,"lon":5.368562,"is_reserved":false,"is_disabled":false,"rental_uris":{"android":"levelo://app?vid=057874b2-e801-4ed3-9143-b0ecbb73e206","ios":"levelo://app?vid=057874b2-e801-4ed3-9143-b0ecbb73e206"},"vehicle_type_id":"4","last_reported":1684994939,"current_range_meters":16000,"station_id":"ce4bgl92rcd13ifvqbq0","pricing_plan_id":"free"},{"bike_id":"7b5c99ab-fe4f-4d0a-92df-752ed5837304","system_id":"levelo_inurba_marseille","lat":43.312239,"lon":5.368562,"is_reserved":false,"is_disabled":false,"rental_uris":{"android":"levelo://app?vid=7b5c99ab-fe4f-4d0a-92df-752ed5837304","ios":"levelo://app?vid=7b5c99ab-fe4f-4d0a-92df-752ed5837304"},"vehicle_type_id":"4","last_reported":1684994939,"current_range_meters":28800,"station_id":"ce4bgl92rcd13ifvqbq0","pricing_plan_id":"free"},{"bike_id":"d99c1bcf-74e3-41bb-a740-5ce155c3fa73","system_id":"levelo_inurba_marseille","lat":43.312239,"lon":5.368562,"is_reserved":false,"is_disabled":false,"rental_uris":{"android":"levelo://app?vid=d99c1bcf-74e3-41bb-a740-5ce155c3fa73","ios":"levelo://app?vid=d99c1bcf-74e3-41bb-a740-5ce155c3fa73"},"vehicle_type_id":"4","last_reported":1684994939,"current_range_meters":29600,"station_id":"ce4bgl92rcd13ifvqbq0","pricing_plan_id":"free"},{"bike_id":"25a036b0-264d-441d-a165-67f667e28bea","system_id":"levelo_inurba_marseille","lat":43.312239,"lon":5.368562,"is_reserved":false,"is_disabled":false,"rental_uris":{"android":"levelo://app?vid=25a036b0-264d-441d-a165-67f667e28bea","ios":"levelo://app?vid=25a036b0-264d-441d-a165-67f667e28bea"},"vehicle_type_id":"4","last_reported":1684994939,"current_range_meters":5600,"station_id":"ce4bgl92rcd13ifvqbq0","pricing_plan_id":"free"},{"bike_id":"e9eb63ae-c7e8-4c73-856a-3bd06ff94387","system_id":"levelo_inurba_marseille","lat":43.314811,"lon":5.373103,"is_reserved":false,"is_disabled":false,"rental_uris":{"android":"levelo://app?vid=e9eb63ae-c7e8-4c73-856a-3bd06ff94387","ios":"levelo://app?vid=e9eb63ae-c7e8-4c73-856a-3bd06ff94387"},"vehicle_type_id":"4","last_reported":1684994939,"current_range_meters":20800,"station_id":"ce4bgt12rcd13ifvqcd0","pricing_plan_id":"free"},{"bike_id":"f8966b47-09c1-4b05-9bee-a4ff20941229","system_id":"levelo_inurba_marseille","lat":43.314811,"lon":5.373103,"is_reserved":false,"is_disabled":false,"rental_uris":{"android":"levelo://app?vid=f8966b47-09c1-4b05-9bee-a4ff20941229","ios":"levelo://app?vid=f8966b47-09c1-4b05-9bee-a4ff20941229"},"vehicle_type_id":"4","last_reported":1684994939,"current_range_meters":23600,"station_id":"ce4bgt12rcd13ifvqcd0","pricing_plan_id":"free"},{"bike_id":"22359316-89b0-4cb3-bb78-25311ced38c2","system_id":"levelo_inurba_marseille","lat":43.314811,"lon":5.373103,"is_reserved":false,"is_disabled":false,"rental_uris":{"android":"levelo://app?vid=22359316-89b0-4cb3-bb78-25311ced38c2","ios":"levelo://app?vid=22359316-89b0-4cb3-bb78-25311ced38c2"},"vehicle_type_id":"4","last_reported":1684994939,"current_range_meters":9200,"station_id":"ce4bgt12rcd13ifvqcd0","pricing_plan_id":"free"},{"bike_id":"bb54a62a-1a06-409c-88da-c9c9f546d579","system_id":"levelo_inurba_marseille","lat":43.314811,"lon":5.373103,"is_reserved":false,"is_disabled":false,"rental_uris":{"android":"levelo://app?vid=bb54a62a-1a06-409c-88da-c9c9f546d579","ios":"levelo://app?vid=bb54a62a-1a06-409c-88da-c9c9f546d579"},"vehicle_type_id":"4","last_reported":1684994939,"current_range_meters":25200,"station_id":"ce4bgt12rcd13ifvqcd0","pricing_plan_id":"free"},{"bike_id":"70585f29-5943-4f0e-8df8-0125e64e20e2","system_id":"levelo_inurba_marseille","lat":43.314811,"lon":5.373104,"is_reserved":false,"is_disabled":false,"rental_uris":{"android":"levelo://app?vid=70585f29-5943-4f0e-8df8-0125e64e20e2","ios":"levelo://app?vid=70585f29-5943-4f0e-8df8-0125e64e20e2"},"vehicle_type_id":"4","last_reported":1684994939,"current_range_meters":27600,"station_id":"ce4bgt12rcd13ifvqcd0","pricing_plan_id":"free"},{"bike_id":"c5a815fa-b736-4851-b927-1235c1be17db","system_id":"levelo_inurba_marseille","lat":43.308614,"lon":5.372098,"is_reserved":false,"is_disabled":false,"rental_uris":{"android":"levelo://app?vid=c5a815fa-b736-4851-b927-1235c1be17db","ios":"levelo://app?vid=c5a815fa-b736-4851-b927-1235c1be17db"},"vehicle_type_id":"4","last_reported":1684994939,"current_range_meters":10400,"station_id":"ce4bguh2rcd13ifvqckg","pricing_plan_id":"free"},{"bike_id":"8f28eeb1-a911-48a7-995c-cb1d14aa267e","system_id":"levelo_inurba_marseille","lat":43.308614,"lon":5.372098,"is_reserved":false,"is_disabled":false,"rental_uris":{"android":"levelo://app?vid=8f28eeb1-a911-48a7-995c-cb1d14aa267e","ios":"levelo://app?vid=8f28eeb1-a911-48a7-995c-cb1d14aa267e"},"vehicle_type_id":"4","last_reported":1684994939,"current_range_meters":16800,"station_id":"ce4bguh2rcd13ifvqckg","pricing_plan_id":"free"},{"bike_id":"d37e1392-9bb2-4f13-84da-1c1f0dd03fcd","system_id":"levelo_inurba_marseille","lat":43.308614,"lon":5.372098,"is_reserved":false,"is_disabled":false,"rental_uris":{"android":"levelo://app?vid=d37e1392-9bb2-4f13-84da-1c1f0dd03fcd","ios":"levelo://app?vid=d37e1392-9bb2-4f13-84da-1c1f0dd03fcd"},"vehicle_type_id":"4","last_reported":1684994939,"current_range_meters":21200,"station_id":"ce4bguh2rcd13ifvqckg","pricing_plan_id":"free"},{"bike_id":"59bd5b83-2d77-408e-8974-af509c7db483","system_id":"levelo_inurba_marseille","lat":43.308614,"lon":5.372098,"is_reserved":false,"is_disabled":false,"rental_uris":{"android":"levelo://app?vid=59bd5b83-2d77-408e-8974-af509c7db483","ios":"levelo://app?vid=59bd5b83-2d77-408e-8974-af509c7db483"},"vehicle_type_id":"4","last_reported":1684994939,"current_range_meters":24000,"station_id":"ce4bguh2rcd13ifvqckg","pricing_plan_id":"free"},{"bike_id":"448e90fb-3e74-4c73-9ab3-e34b065ac61a","system_id":"levelo_inurba_marseille","lat":43.308614,"lon":5.372098,"is_reserved":false,"is_disabled":false,"rental_uris":{"android":"levelo://app?vid=448e90fb-3e74-4c73-9ab3-e34b065ac61a","ios":"levelo://app?vid=448e90fb-3e74-4c73-9ab3-e34b065ac61a"},"vehicle_type_id":"4","last_reported":1684994939,"current_range_meters":18800,"station_id":"ce4bguh2rcd13ifvqckg","pricing_plan_id":"free"},{"bike_id":"c138181f-48ac-4415-a593-05e777911b4d","system_id":"levelo_inurba_marseille","lat":43.30676,"lon":5.36697,"is_reserved":false,"is_disabled":false,"rental_uris":{"android":"levelo://app?vid=c138181f-48ac-4415-a593-05e777911b4d","ios":"levelo://app?vid=c138181f-48ac-4415-a593-05e777911b4d"},"vehicle_type_id":"4","last_reported":1684994939,"current_range_meters":24800,"station_id":"","pricing_plan_id":"free"},{"bike_id":"02a0f9d8-bdbb-4ef9-9dc0-93d124765f29","system_id":"levelo_inurba_marseille","lat":43.305368,"lon":5.367343,"is_reserved":false,"is_disabled":false,"rental_uris":{"android":"levelo://app?vid=02a0f9d8-bdbb-4ef9-9dc0-93d124765f29","ios":"levelo://app?vid=02a0f9d8-bdbb-4ef9-9dc0-93d124765f29"},"vehicle_type_id":"4","last_reported":1684994939,"current_range_meters":28400,"station_id":"ce4bgrp2rcd13ifvqc9g","pricing_plan_id":"free"},{"bike_id":"d2572ef8-1392-48e4-a969-e484a0edd11e","system_id":"levelo_inurba_marseille","lat":43.305706,"lon":5.365654,"is_reserved":false,"is_disabled":false,"rental_uris":{"android":"levelo://app?vid=d2572ef8-1392-48e4-a969-e484a0edd11e","ios":"levelo://app?vid=d2572ef8-1392-48e4-a969-e484a0edd11e"},"vehicle_type_id":"4","last_reported":1684994939,"current_range_meters":26400,"station_id":"ce4bgs12rcd13ifvqcag","pricing_plan_id":"free"},{"bike_id":"ffd5c177-d890-4e61-8234-19ef4660c40b","system_id":"levelo_inurba_marseille","lat":43.305368,"lon":5.367343,"is_reserved":false,"is_disabled":false,"rental_uris":{"android":"levelo://app?vid=ffd5c177-d890-4e61-8234-19ef4660c40b","ios":"levelo://app?vid=ffd5c177-d890-4e61-8234-19ef4660c40b"},"vehicle_type_id":"4","last_reported":1684994939,"current_range_meters":3200,"station_id":"ce4bgrp2rcd13ifvqc9g","pricing_plan_id":"free"},{"bike_id":"b23155bd-ac8f-434f-b5ad-ff3d9de593d8","system_id":"levelo_inurba_marseille","lat":43.305706,"lon":5.365654,"is_reserved":false,"is_disabled":false,"rental_uris":{"android":"levelo://app?vid=b23155bd-ac8f-434f-b5ad-ff3d9de593d8","ios":"levelo://app?vid=b23155bd-ac8f-434f-b5ad-ff3d9de593d8"},"vehicle_type_id":"4","last_reported":1684994939,"current_range_meters":27200,"station_id":"ce4bgs12rcd13ifvqcag","pricing_plan_id":"free"},{"bike_id":"c90d46c6-b661-4a39-898c-edffff943bc4","system_id":"levelo_inurba_marseille","lat":43.305706,"lon":5.365654,"is_reserved":false,"is_disabled":false,"rental_uris":{"android":"levelo://app?vid=c90d46c6-b661-4a39-898c-edffff943bc4","ios":"levelo://app?vid=c90d46c6-b661-4a39-898c-edffff943bc4"},"vehicle_type_id":"4","last_reported":1684994939,"current_range_meters":24000,"station_id":"ce4bgs12rcd13ifvqcag","pricing_plan_id":"free"},{"bike_id":"f61d83f0-a44c-4f9f-ac1f-32df5151a940","system_id":"levelo_inurba_marseille","lat":43.305706,"lon":5.365654,"is_reserved":false,"is_disabled":false,"rental_uris":{"android":"levelo://app?vid=f61d83f0-a44c-4f9f-ac1f-32df5151a940","ios":"levelo://app?vid=f61d83f0-a44c-4f9f-ac1f-32df5151a940"},"vehicle_type_id":"4","last_reported":1684994939,"current_range_meters":26400,"station_id":"ce4bgs12rcd13ifvqcag","pricing_plan_id":"free"},{"bike_id":"09ceac73-97db-4c6f-8d50-d2c4cf6d4faa","system_id":"levelo_inurba_marseille","lat":43.305706,"lon":5.365654,"is_reserved":false,"is_disabled":false,"rental_uris":{"android":"levelo://app?vid=09ceac73-97db-4c6f-8d50-d2c4cf6d4faa","ios":"levelo://app?vid=09ceac73-97db-4c6f-8d50-d2c4cf6d4faa"},"vehicle_type_id":"4","last_reported":1684994939,"current_range_meters":20400,"station_id":"ce4bgs12rcd13ifvqcag","pricing_plan_id":"free"},{"bike_id":"09e4bba3-8add-421d-9ad8-3897c98e6147","system_id":"levelo_inurba_marseille","lat":43.305989,"lon":5.37225,"is_reserved":false,"is_disabled":false,"rental_uris":{"android":"levelo://app?vid=09e4bba3-8add-421d-9ad8-3897c98e6147","ios":"levelo://app?vid=09e4bba3-8add-421d-9ad8-3897c98e6147"},"vehicle_type_id":"4","last_reported":1684994939,"current_range_meters":30000,"station_id":"ce4bgqh2rcd13ifvqc4g","pricing_plan_id":"free"},{"bike_id":"e931c3ea-7192-4157-b83a-c628d8587582","system_id":"levelo_inurba_marseille","lat":43.305989,"lon":5.37225,"is_reserved":false,"is_disabled":false,"rental_uris":{"android":"levelo://app?vid=e931c3ea-7192-4157-b83a-c628d8587582","ios":"levelo://app?vid=e931c3ea-7192-4157-b83a-c628d8587582"},"vehicle_type_id":"4","last_reported":1684994939,"current_range_meters":25600,"station_id":"ce4bgqh2rcd13ifvqc4g","pricing_plan_id":"free"},{"bike_id":"f5746c07-eaa6-442d-a330-45e5ff3264ee","system_id":"levelo_inurba_marseille","lat":43.31122,"lon":5.37773,"is_reserved":false,"is_disabled":false,"rental_uris":{"android":"levelo://app?vid=f5746c07-eaa6-442d-a330-45e5ff3264ee","ios":"levelo://app?vid=f5746c07-eaa6-442d-a330-45e5ff3264ee"},"vehicle_type_id":"4","last_reported":1684994939,"current_range_meters":27200,"station_id":"ce4bgt92rcd13ifvqcg0","pricing_plan_id":"free"},{"bike_id":"1e3654da-4ca8-4941-8c9e-d7ae66415c19","system_id":"levelo_inurba_marseille","lat":43.317075,"lon":5.377367,"is_reserved":false,"is_disabled":false,"rental_uris":{"android":"levelo://app?vid=1e3654da-4ca8-4941-8c9e-d7ae66415c19","ios":"levelo://app?vid=1e3654da-4ca8-4941-8c9e-d7ae66415c19"},"vehicle_type_id":"4","last_reported":1684994939,"current_range_meters":22800,"station_id":"ce4bgth2rcd13ifvqch0","pricing_plan_id":"free"},{"bike_id":"2ab4639f-70ee-4cae-8aea-667b4c6c63d0","system_id":"levelo_inurba_marseille","lat":43.317075,"lon":5.377367,"is_reserved":false,"is_disabled":false,"rental_uris":{"android":"levelo://app?vid=2ab4639f-70ee-4cae-8aea-667b4c6c63d0","ios":"levelo://app?vid=2ab4639f-70ee-4cae-8aea-667b4c6c63d0"},"vehicle_type_id":"4","last_reported":1684994939,"current_range_meters":18800,"station_id":"ce4bgth2rcd13ifvqch0","pricing_plan_id":"free"},{"bike_id":"16e7282a-4eed-47c3-83b3-d7e0dee6c006","system_id":"levelo_inurba_marseille","lat":43.317075,"lon":5.377367,"is_reserved":false,"is_disabled":false,"rental_uris":{"android":"levelo://app?vid=16e7282a-4eed-47c3-83b3-d7e0dee6c006","ios":"levelo://app?vid=16e7282a-4eed-47c3-83b3-d7e0dee6c006"},"vehicle_type_id":"4","last_reported":1684994939,"current_range_meters":23600,"station_id":"ce4bgth2rcd13ifvqch0","pricing_plan_id":"free"},{"bike_id":"68553df9-2b4c-4244-a834-2447f191355a","system_id":"levelo_inurba_marseille","lat":43.317075,"lon":5.377367,"is_reserved":false,"is_disabled":false,"rental_uris":{"android":"levelo://app?vid=68553df9-2b4c-4244-a834-2447f191355a","ios":"levelo://app?vid=68553df9-2b4c-4244-a834-2447f191355a"},"vehicle_type_id":"4","last_reported":1684994939,"current_range_meters":7600,"station_id":"ce4bgth2rcd13ifvqch0","pricing_plan_id":"free"},{"bike_id":"8d3b898a-41aa-4f28-b1a2-33ce656ae17f","system_id":"levelo_inurba_marseille","lat":43.317075,"lon":5.377367,"is_reserved":false,"is_disabled":false,"rental_uris":{"android":"levelo://app?vid=8d3b898a-41aa-4f28-b1a2-33ce656ae17f","ios":"levelo://app?vid=8d3b898a-41aa-4f28-b1a2-33ce656ae17f"},"vehicle_type_id":"4","last_reported":1684994939,"current_range_meters":20800,"station_id":"ce4bgth2rcd13ifvqch0","pricing_plan_id":"free"},{"bike_id":"fd38c318-e10c-4ea0-8386-140691495f8d","system_id":"levelo_inurba_marseille","lat":43.31713,"lon":5.37832,"is_reserved":false,"is_disabled":false,"rental_uris":{"android":"levelo://app?vid=fd38c318-e10c-4ea0-8386-140691495f8d","ios":"levelo://app?vid=fd38c318-e10c-4ea0-8386-140691495f8d"},"vehicle_type_id":"4","last_reported":1684994939,"current_range_meters":29600,"station_id":"","pricing_plan_id":"free"},{"bike_id":"e6d095ef-2b84-4614-9036-dcde0d40e77b","system_id":"levelo_inurba_marseille","lat":43.315289,"lon":5.380349,"is_reserved":false,"is_disabled":false,"rental_uris":{"android":"levelo://app?vid=e6d095ef-2b84-4614-9036-dcde0d40e77b","ios":"levelo://app?vid=e6d095ef-2b84-4614-9036-dcde0d40e77b"},"vehicle_type_id":"4","last_reported":1684994939,"current_range_meters":31200,"station_id":"ce4bhsp2rcd13ifvqi50","pricing_plan_id":"free"},{"bike_id":"b7409f09-2a8a-4570-aae9-bdb6db678b58","system_id":"levelo_inurba_marseille","lat":43.315289,"lon":5.380349,"is_reserved":false,"is_disabled":false,"rental_uris":{"android":"levelo://app?vid=b7409f09-2a8a-4570-aae9-bdb6db678b58","ios":"levelo://app?vid=b7409f09-2a8a-4570-aae9-bdb6db678b58"},"vehicle_type_id":"4","last_reported":1684994939,"current_range_meters":18400,"station_id":"ce4bhsp2rcd13ifvqi50","pricing_plan_id":"free"},{"bike_id":"6d6f9f90-e329-45d1-97a2-dad532edd73d","system_id":"levelo_inurba_marseille","lat":43.315293,"lon":5.380349,"is_reserved":false,"is_disabled":false,"rental_uris":{"android":"levelo://app?vid=6d6f9f90-e329-45d1-97a2-dad532edd73d","ios":"levelo://app?vid=6d6f9f90-e329-45d1-97a2-dad532edd73d"},"vehicle_type_id":"4","last_reported":1684994939,"current_range_meters":30000,"station_id":"ce4bhsp2rcd13ifvqi50","pricing_plan_id":"free"},{"bike_id":"685cb26c-6a9e-4705-bb05-7c4222f8cf2e","system_id":"levelo_inurba_marseille","lat":43.308012,"lon":5.381511,"is_reserved":false,"is_disabled":false,"rental_uris":{"android":"levelo://app?vid=685cb26c-6a9e-4705-bb05-7c4222f8cf2e","ios":"levelo://app?vid=685cb26c-6a9e-4705-bb05-7c4222f8cf2e"},"vehicle_type_id":"4","last_reported":1684994939,"current_range_meters":2800,"station_id":"ce4bgt12rcd13ifvqce0","pricing_plan_id":"free"},{"bike_id":"a37433d2-2d7a-4259-b151-e938f1d0965f","system_id":"levelo_inurba_marseille","lat":43.308012,"lon":5.381511,"is_reserved":false,"is_disabled":false,"rental_uris":{"android":"levelo://app?vid=a37433d2-2d7a-4259-b151-e938f1d0965f","ios":"levelo://app?vid=a37433d2-2d7a-4259-b151-e938f1d0965f"},"vehicle_type_id":"4","last_reported":1684994939,"current_range_meters":0,"station_id":"ce4bgt12rcd13ifvqce0","pricing_plan_id":"free"},{"bike_id":"3725c0fa-bd69-45c5-a7ab-70c8aab98b64","system_id":"levelo_inurba_marseille","lat":43.30801,"lon":5.38154,"is_reserved":false,"is_disabled":false,"rental_uris":{"android":"levelo://app?vid=3725c0fa-bd69-45c5-a7ab-70c8aab98b64","ios":"levelo://app?vid=3725c0fa-bd69-45c5-a7ab-70c8aab98b64"},"vehicle_type_id":"4","last_reported":1684994939,"current_range_meters":11600,"station_id":"ce4bgt12rcd13ifvqce0","pricing_plan_id":"free"},{"bike_id":"df875f4d-24e8-44cc-840a-4148250efd5f","system_id":"levelo_inurba_marseille","lat":43.308012,"lon":5.381511,"is_reserved":false,"is_disabled":false,"rental_uris":{"android":"levelo://app?vid=df875f4d-24e8-44cc-840a-4148250efd5f","ios":"levelo://app?vid=df875f4d-24e8-44cc-840a-4148250efd5f"},"vehicle_type_id":"4","last_reported":1684994939,"current_range_meters":22400,"station_id":"ce4bgt12rcd13ifvqce0","pricing_plan_id":"free"},{"bike_id":"5a7a7e37-5a2a-43b9-b38c-6cfc67fb7f20","system_id":"levelo_inurba_marseille","lat":43.304606,"lon":5.379026,"is_reserved":false,"is_disabled":false,"rental_uris":{"android":"levelo://app?vid=5a7a7e37-5a2a-43b9-b38c-6cfc67fb7f20","ios":"levelo://app?vid=5a7a7e37-5a2a-43b9-b38c-6cfc67fb7f20"},"vehicle_type_id":"4","last_reported":1684994939,"current_range_meters":31200,"station_id":"ce4bgup2rcd13ifvqcn0","pricing_plan_id":"free"},{"bike_id":"c02a0467-3193-4071-aa54-2c2d5edadcde","system_id":"levelo_inurba_marseille","lat":43.304606,"lon":5.379026,"is_reserved":false,"is_disabled":false,"rental_uris":{"android":"levelo://app?vid=c02a0467-3193-4071-aa54-2c2d5edadcde","ios":"levelo://app?vid=c02a0467-3193-4071-aa54-2c2d5edadcde"},"vehicle_type_id":"4","last_reported":1684994939,"current_range_meters":24800,"station_id":"ce4bgup2rcd13ifvqcn0","pricing_plan_id":"free"},{"bike_id":"7c8e47f6-8e85-4c65-be72-08727df199da","system_id":"levelo_inurba_marseille","lat":43.304606,"lon":5.379026,"is_reserved":false,"is_disabled":false,"rental_uris":{"android":"levelo://app?vid=7c8e47f6-8e85-4c65-be72-08727df199da","ios":"levelo://app?vid=7c8e47f6-8e85-4c65-be72-08727df199da"},"vehicle_type_id":"4","last_reported":1684994939,"current_range_meters":30000,"station_id":"ce4bgup2rcd13ifvqcn0","pricing_plan_id":"free"},{"bike_id":"94f072e2-85ff-4596-bbb0-710894775dab","system_id":"levelo_inurba_marseille","lat":43.304606,"lon":5.379026,"is_reserved":false,"is_disabled":false,"rental_uris":{"android":"levelo://app?vid=94f072e2-85ff-4596-bbb0-710894775dab","ios":"levelo://app?vid=94f072e2-85ff-4596-bbb0-710894775dab"},"vehicle_type_id":"4","last_reported":1684994939,"current_range_meters":26800,"station_id":"ce4bgup2rcd13ifvqcn0","pricing_plan_id":"free"},{"bike_id":"3ce72408-9dbb-4eb3-8baa-4f703f1ffe77","system_id":"levelo_inurba_marseille","lat":43.3047,"lon":5.3791,"is_reserved":false,"is_disabled":false,"rental_uris":{"android":"levelo://app?vid=3ce72408-9dbb-4eb3-8baa-4f703f1ffe77","ios":"levelo://app?vid=3ce72408-9dbb-4eb3-8baa-4f703f1ffe77"},"vehicle_type_id":"4","last_reported":1684994939,"current_range_meters":8400,"station_id":"ce4bgup2rcd13ifvqcn0","pricing_plan_id":"free"},{"bike_id":"c95c124c-90ad-4b4a-bbbc-da3d70626f4a","system_id":"levelo_inurba_marseille","lat":43.30461,"lon":5.37901,"is_reserved":false,"is_disabled":false,"rental_uris":{"android":"levelo://app?vid=c95c124c-90ad-4b4a-bbbc-da3d70626f4a","ios":"levelo://app?vid=c95c124c-90ad-4b4a-bbbc-da3d70626f4a"},"vehicle_type_id":"4","last_reported":1684994939,"current_range_meters":21200,"station_id":"ce4bgup2rcd13ifvqcn0","pricing_plan_id":"free"},{"bike_id":"1cbbfd2c-be43-4475-a6fd-1b03aeb75cce","system_id":"levelo_inurba_marseille","lat":43.304606,"lon":5.379026,"is_reserved":false,"is_disabled":false,"rental_uris":{"android":"levelo://app?vid=1cbbfd2c-be43-4475-a6fd-1b03aeb75cce","ios":"levelo://app?vid=1cbbfd2c-be43-4475-a6fd-1b03aeb75cce"},"vehicle_type_id":"4","last_reported":1684994939,"current_range_meters":24800,"station_id":"ce4bgup2rcd13ifvqcn0","pricing_plan_id":"free"},{"bike_id":"cf2f3eb4-6f4f-4a50-b605-72765a8ff72b","system_id":"levelo_inurba_marseille","lat":43.304606,"lon":5.379026,"is_reserved":false,"is_disabled":false,"rental_uris":{"android":"levelo://app?vid=cf2f3eb4-6f4f-4a50-b605-72765a8ff72b","ios":"levelo://app?vid=cf2f3eb4-6f4f-4a50-b605-72765a8ff72b"},"vehicle_type_id":"4","last_reported":1684994939,"current_range_meters":31200,"station_id":"ce4bgup2rcd13ifvqcn0","pricing_plan_id":"free"},{"bike_id":"cb79e689-3bb0-430f-95c7-107aeee7d1fc","system_id":"levelo_inurba_marseille","lat":43.30464,"lon":5.37907,"is_reserved":false,"is_disabled":false,"rental_uris":{"android":"levelo://app?vid=cb79e689-3bb0-430f-95c7-107aeee7d1fc","ios":"levelo://app?vid=cb79e689-3bb0-430f-95c7-107aeee7d1fc"},"vehicle_type_id":"4","last_reported":1684994939,"current_range_meters":32000,"station_id":"ce4bgup2rcd13ifvqcn0","pricing_plan_id":"free"},{"bike_id":"c55ca39e-0e57-4098-bcf7-7ef12d439714","system_id":"levelo_inurba_marseille","lat":43.304606,"lon":5.379026,"is_reserved":false,"is_disabled":false,"rental_uris":{"android":"levelo://app?vid=c55ca39e-0e57-4098-bcf7-7ef12d439714","ios":"levelo://app?vid=c55ca39e-0e57-4098-bcf7-7ef12d439714"},"vehicle_type_id":"4","last_reported":1684994939,"current_range_meters":29600,"station_id":"ce4bgup2rcd13ifvqcn0","pricing_plan_id":"free"},{"bike_id":"eec77564-be71-45b0-919f-020c6ecb7dc6","system_id":"levelo_inurba_marseille","lat":43.304606,"lon":5.379026,"is_reserved":false,"is_disabled":false,"rental_uris":{"android":"levelo://app?vid=eec77564-be71-45b0-919f-020c6ecb7dc6","ios":"levelo://app?vid=eec77564-be71-45b0-919f-020c6ecb7dc6"},"vehicle_type_id":"4","last_reported":1684994939,"current_range_meters":26800,"station_id":"ce4bgup2rcd13ifvqcn0","pricing_plan_id":"free"},{"bike_id":"4a04b2b5-e6b7-4dde-a6fa-a015924ab68d","system_id":"levelo_inurba_marseille","lat":43.304606,"lon":5.379026,"is_reserved":false,"is_disabled":false,"rental_uris":{"android":"levelo://app?vid=4a04b2b5-e6b7-4dde-a6fa-a015924ab68d","ios":"levelo://app?vid=4a04b2b5-e6b7-4dde-a6fa-a015924ab68d"},"vehicle_type_id":"4","last_reported":1684994939,"current_range_meters":31200,"station_id":"ce4bgup2rcd13ifvqcn0","pricing_plan_id":"free"},{"bike_id":"a0248350-052f-404c-90ba-b179a2ae40d1","system_id":"levelo_inurba_marseille","lat":43.304606,"lon":5.379026,"is_reserved":false,"is_disabled":false,"rental_uris":{"android":"levelo://app?vid=a0248350-052f-404c-90ba-b179a2ae40d1","ios":"levelo://app?vid=a0248350-052f-404c-90ba-b179a2ae40d1"},"vehicle_type_id":"4","last_reported":1684994939,"current_range_meters":20000,"station_id":"ce4bgup2rcd13ifvqcn0","pricing_plan_id":"free"},{"bike_id":"b61a68e2-6000-4bdb-9bc4-3598198ea889","system_id":"levelo_inurba_marseille","lat":43.304606,"lon":5.379026,"is_reserved":false,"is_disabled":false,"rental_uris":{"android":"levelo://app?vid=b61a68e2-6000-4bdb-9bc4-3598198ea889","ios":"levelo://app?vid=b61a68e2-6000-4bdb-9bc4-3598198ea889"},"vehicle_type_id":"4","last_reported":1684994939,"current_range_meters":22800,"station_id":"ce4bgup2rcd13ifvqcn0","pricing_plan_id":"free"},{"bike_id":"4e814b18-bd40-456c-8834-f45cc5994bd7","system_id":"levelo_inurba_marseille","lat":43.304606,"lon":5.379026,"is_reserved":false,"is_disabled":false,"rental_uris":{"android":"levelo://app?vid=4e814b18-bd40-456c-8834-f45cc5994bd7","ios":"levelo://app?vid=4e814b18-bd40-456c-8834-f45cc5994bd7"},"vehicle_type_id":"4","last_reported":1684994939,"current_range_meters":23600,"station_id":"ce4bgup2rcd13ifvqcn0","pricing_plan_id":"free"},{"bike_id":"d729e021-9952-4f30-863b-3ac93e0c55da","system_id":"levelo_inurba_marseille","lat":43.304606,"lon":5.379026,"is_reserved":false,"is_disabled":false,"rental_uris":{"android":"levelo://app?vid=d729e021-9952-4f30-863b-3ac93e0c55da","ios":"levelo://app?vid=d729e021-9952-4f30-863b-3ac93e0c55da"},"vehicle_type_id":"4","last_reported":1684994939,"current_range_meters":31200,"station_id":"ce4bgup2rcd13ifvqcn0","pricing_plan_id":"free"},{"bike_id":"178ea4d4-ab73-4fca-9c86-ad9c5a1f27b7","system_id":"levelo_inurba_marseille","lat":43.304606,"lon":5.379026,"is_reserved":false,"is_disabled":false,"rental_uris":{"android":"levelo://app?vid=178ea4d4-ab73-4fca-9c86-ad9c5a1f27b7","ios":"levelo://app?vid=178ea4d4-ab73-4fca-9c86-ad9c5a1f27b7"},"vehicle_type_id":"4","last_reported":1684994939,"current_range_meters":27200,"station_id":"ce4bgup2rcd13ifvqcn0","pricing_plan_id":"free"},{"bike_id":"8bb56673-fd2c-4d78-aaa0-f4cebb8bc57c","system_id":"levelo_inurba_marseille","lat":43.304606,"lon":5.379026,"is_reserved":false,"is_disabled":false,"rental_uris":{"android":"levelo://app?vid=8bb56673-fd2c-4d78-aaa0-f4cebb8bc57c","ios":"levelo://app?vid=8bb56673-fd2c-4d78-aaa0-f4cebb8bc57c"},"vehicle_type_id":"4","last_reported":1684994939,"current_range_meters":21200,"station_id":"ce4bgup2rcd13ifvqcn0","pricing_plan_id":"free"},{"bike_id":"0c16b689-5eb7-4047-b146-cf7cc5f141e7","system_id":"levelo_inurba_marseille","lat":43.304606,"lon":5.379026,"is_reserved":false,"is_disabled":false,"rental_uris":{"android":"levelo://app?vid=0c16b689-5eb7-4047-b146-cf7cc5f141e7","ios":"levelo://app?vid=0c16b689-5eb7-4047-b146-cf7cc5f141e7"},"vehicle_type_id":"4","last_reported":1684994939,"current_range_meters":24000,"station_id":"ce4bgup2rcd13ifvqcn0","pricing_plan_id":"free"},{"bike_id":"9a29564c-69a0-42ee-ab99-3cd51f582827","system_id":"levelo_inurba_marseille","lat":43.30471,"lon":5.37923,"is_reserved":false,"is_disabled":false,"rental_uris":{"android":"levelo://app?vid=9a29564c-69a0-42ee-ab99-3cd51f582827","ios":"levelo://app?vid=9a29564c-69a0-42ee-ab99-3cd51f582827"},"vehicle_type_id":"4","last_reported":1684994939,"current_range_meters":4400,"station_id":"ce4bgup2rcd13ifvqcn0","pricing_plan_id":"free"},{"bike_id":"fec61e95-eee6-47da-bb41-60634a74c235","system_id":"levelo_inurba_marseille","lat":43.304606,"lon":5.379026,"is_reserved":false,"is_disabled":false,"rental_uris":{"android":"levelo://app?vid=fec61e95-eee6-47da-bb41-60634a74c235","ios":"levelo://app?vid=fec61e95-eee6-47da-bb41-60634a74c235"},"vehicle_type_id":"4","last_reported":1684994939,"current_range_meters":31600,"station_id":"ce4bgup2rcd13ifvqcn0","pricing_plan_id":"free"},{"bike_id":"61b3f1c8-9e81-4c83-91a9-a325676d777d","system_id":"levelo_inurba_marseille","lat":43.304606,"lon":5.379026,"is_reserved":false,"is_disabled":false,"rental_uris":{"android":"levelo://app?vid=61b3f1c8-9e81-4c83-91a9-a325676d777d","ios":"levelo://app?vid=61b3f1c8-9e81-4c83-91a9-a325676d777d"},"vehicle_type_id":"4","last_reported":1684994939,"current_range_meters":20800,"station_id":"ce4bgup2rcd13ifvqcn0","pricing_plan_id":"free"},{"bike_id":"a332f4e9-4d0c-49a0-9f99-b4404667d111","system_id":"levelo_inurba_marseille","lat":43.304606,"lon":5.379026,"is_reserved":false,"is_disabled":false,"rental_uris":{"android":"levelo://app?vid=a332f4e9-4d0c-49a0-9f99-b4404667d111","ios":"levelo://app?vid=a332f4e9-4d0c-49a0-9f99-b4404667d111"},"vehicle_type_id":"4","last_reported":1684994939,"current_range_meters":20800,"station_id":"ce4bgup2rcd13ifvqcn0","pricing_plan_id":"free"},{"bike_id":"3c7aabc1-1d39-4aa8-8909-6b5de9004449","system_id":"levelo_inurba_marseille","lat":43.304606,"lon":5.379026,"is_reserved":false,"is_disabled":false,"rental_uris":{"android":"levelo://app?vid=3c7aabc1-1d39-4aa8-8909-6b5de9004449","ios":"levelo://app?vid=3c7aabc1-1d39-4aa8-8909-6b5de9004449"},"vehicle_type_id":"4","last_reported":1684994939,"current_range_meters":29600,"station_id":"ce4bgup2rcd13ifvqcn0","pricing_plan_id":"free"},{"bike_id":"2f01cb36-349c-4859-b538-24e077673e47","system_id":"levelo_inurba_marseille","lat":43.30464,"lon":5.3792,"is_reserved":false,"is_disabled":false,"rental_uris":{"android":"levelo://app?vid=2f01cb36-349c-4859-b538-24e077673e47","ios":"levelo://app?vid=2f01cb36-349c-4859-b538-24e077673e47"},"vehicle_type_id":"4","last_reported":1684994939,"current_range_meters":27600,"station_id":"ce4bgup2rcd13ifvqcn0","pricing_plan_id":"free"},{"bike_id":"03b4299c-f167-453f-8aeb-351c5deb18f9","system_id":"levelo_inurba_marseille","lat":43.304606,"lon":5.379026,"is_reserved":false,"is_disabled":false,"rental_uris":{"android":"levelo://app?vid=03b4299c-f167-453f-8aeb-351c5deb18f9","ios":"levelo://app?vid=03b4299c-f167-453f-8aeb-351c5deb18f9"},"vehicle_type_id":"4","last_reported":1684994939,"current_range_meters":24800,"station_id":"ce4bgup2rcd13ifvqcn0","pricing_plan_id":"free"},{"bike_id":"4ee640e5-5e8b-44e4-a823-3e1c84f24e28","system_id":"levelo_inurba_marseille","lat":43.30459,"lon":5.37916,"is_reserved":false,"is_disabled":false,"rental_uris":{"android":"levelo://app?vid=4ee640e5-5e8b-44e4-a823-3e1c84f24e28","ios":"levelo://app?vid=4ee640e5-5e8b-44e4-a823-3e1c84f24e28"},"vehicle_type_id":"4","last_reported":1684994939,"current_range_meters":18400,"station_id":"ce4bgup2rcd13ifvqcn0","pricing_plan_id":"free"},{"bike_id":"c2753820-8c3f-4b36-b195-3fbd1d1d7104","system_id":"levelo_inurba_marseille","lat":43.304606,"lon":5.379026,"is_reserved":false,"is_disabled":false,"rental_uris":{"android":"levelo://app?vid=c2753820-8c3f-4b36-b195-3fbd1d1d7104","ios":"levelo://app?vid=c2753820-8c3f-4b36-b195-3fbd1d1d7104"},"vehicle_type_id":"4","last_reported":1684994939,"current_range_meters":24800,"station_id":"ce4bgup2rcd13ifvqcn0","pricing_plan_id":"free"},{"bike_id":"d91d74fb-f6d4-4a20-8e52-3d25c1e8f3ae","system_id":"levelo_inurba_marseille","lat":43.304606,"lon":5.379026,"is_reserved":false,"is_disabled":false,"rental_uris":{"android":"levelo://app?vid=d91d74fb-f6d4-4a20-8e52-3d25c1e8f3ae","ios":"levelo://app?vid=d91d74fb-f6d4-4a20-8e52-3d25c1e8f3ae"},"vehicle_type_id":"4","last_reported":1684994939,"current_range_meters":32000,"station_id":"ce4bgup2rcd13ifvqcn0","pricing_plan_id":"free"},{"bike_id":"88715556-756f-4e5d-a278-e51ab229bcd6","system_id":"levelo_inurba_marseille","lat":43.30146,"lon":5.37422,"is_reserved":false,"is_disabled":false,"rental_uris":{"android":"levelo://app?vid=88715556-756f-4e5d-a278-e51ab229bcd6","ios":"levelo://app?vid=88715556-756f-4e5d-a278-e51ab229bcd6"},"vehicle_type_id":"4","last_reported":1684994939,"current_range_meters":31200,"station_id":"","pricing_plan_id":"free"},{"bike_id":"eebe2585-a7bc-46b4-8ccd-3ecc65d48c0d","system_id":"levelo_inurba_marseille","lat":43.30136,"lon":5.37428,"is_reserved":false,"is_disabled":false,"rental_uris":{"android":"levelo://app?vid=eebe2585-a7bc-46b4-8ccd-3ecc65d48c0d","ios":"levelo://app?vid=eebe2585-a7bc-46b4-8ccd-3ecc65d48c0d"},"vehicle_type_id":"4","last_reported":1684994939,"current_range_meters":28400,"station_id":"","pricing_plan_id":"free"},{"bike_id":"ca6734a0-a0ee-4445-bc44-dc7854a1d3b0","system_id":"levelo_inurba_marseille","lat":43.319935,"lon":5.381699,"is_reserved":false,"is_disabled":false,"rental_uris":{"android":"levelo://app?vid=ca6734a0-a0ee-4445-bc44-dc7854a1d3b0","ios":"levelo://app?vid=ca6734a0-a0ee-4445-bc44-dc7854a1d3b0"},"vehicle_type_id":"4","last_reported":1684994939,"current_range_meters":11600,"station_id":"ce4bhr12rcd13ifvqhpg","pricing_plan_id":"free"},{"bike_id":"d0086ee5-2c76-40c6-ac41-971c5ff57f75","system_id":"levelo_inurba_marseille","lat":43.319935,"lon":5.381699,"is_reserved":false,"is_disabled":false,"rental_uris":{"android":"levelo://app?vid=d0086ee5-2c76-40c6-ac41-971c5ff57f75","ios":"levelo://app?vid=d0086ee5-2c76-40c6-ac41-971c5ff57f75"},"vehicle_type_id":"4","last_reported":1684994939,"current_range_meters":18000,"station_id":"ce4bhr12rcd13ifvqhpg","pricing_plan_id":"free"},{"bike_id":"b06b8421-bbaa-499d-a461-99fecf739d8f","system_id":"levelo_inurba_marseille","lat":43.319935,"lon":5.381699,"is_reserved":false,"is_disabled":false,"rental_uris":{"android":"levelo://app?vid=b06b8421-bbaa-499d-a461-99fecf739d8f","ios":"levelo://app?vid=b06b8421-bbaa-499d-a461-99fecf739d8f"},"vehicle_type_id":"4","last_reported":1684994939,"current_range_meters":10000,"station_id":"ce4bhr12rcd13ifvqhpg","pricing_plan_id":"free"},{"bike_id":"e5571f58-adb6-49b7-8c86-2d757ae8e1a0","system_id":"levelo_inurba_marseille","lat":43.319935,"lon":5.381699,"is_reserved":false,"is_disabled":false,"rental_uris":{"android":"levelo://app?vid=e5571f58-adb6-49b7-8c86-2d757ae8e1a0","ios":"levelo://app?vid=e5571f58-adb6-49b7-8c86-2d757ae8e1a0"},"vehicle_type_id":"4","last_reported":1684994939,"current_range_meters":23600,"station_id":"ce4bhr12rcd13ifvqhpg","pricing_plan_id":"free"},{"bike_id":"109d5d5d-8830-4262-8e4d-b8392815c711","system_id":"levelo_inurba_marseille","lat":43.313571,"lon":5.384829,"is_reserved":false,"is_disabled":false,"rental_uris":{"android":"levelo://app?vid=109d5d5d-8830-4262-8e4d-b8392815c711","ios":"levelo://app?vid=109d5d5d-8830-4262-8e4d-b8392815c711"},"vehicle_type_id":"4","last_reported":1684994939,"current_range_meters":25200,"station_id":"ce4bgt92rcd13ifvqcf0","pricing_plan_id":"free"},{"bike_id":"d4b0c2b6-4e7a-43aa-b1a1-ee583cc5e17a","system_id":"levelo_inurba_marseille","lat":43.313571,"lon":5.384829,"is_reserved":false,"is_disabled":false,"rental_uris":{"android":"levelo://app?vid=d4b0c2b6-4e7a-43aa-b1a1-ee583cc5e17a","ios":"levelo://app?vid=d4b0c2b6-4e7a-43aa-b1a1-ee583cc5e17a"},"vehicle_type_id":"4","last_reported":1684994939,"current_range_meters":28400,"station_id":"ce4bgt92rcd13ifvqcf0","pricing_plan_id":"free"},{"bike_id":"8723ab54-b2ea-48bb-8c88-15fb0e1ebaa4","system_id":"levelo_inurba_marseille","lat":43.299222,"lon":5.365554,"is_reserved":false,"is_disabled":false,"rental_uris":{"android":"levelo://app?vid=8723ab54-b2ea-48bb-8c88-15fb0e1ebaa4","ios":"levelo://app?vid=8723ab54-b2ea-48bb-8c88-15fb0e1ebaa4"},"vehicle_type_id":"4","last_reported":1684994939,"current_range_meters":22400,"station_id":"ce4bgm92rcd13ifvqbr0","pricing_plan_id":"free"},{"bike_id":"0b1c2851-686f-4e64-a930-3a03b3eef689","system_id":"levelo_inurba_marseille","lat":43.299222,"lon":5.365554,"is_reserved":false,"is_disabled":false,"rental_uris":{"android":"levelo://app?vid=0b1c2851-686f-4e64-a930-3a03b3eef689","ios":"levelo://app?vid=0b1c2851-686f-4e64-a930-3a03b3eef689"},"vehicle_type_id":"4","last_reported":1684994939,"current_range_meters":27600,"station_id":"ce4bgm92rcd13ifvqbr0","pricing_plan_id":"free"},{"bike_id":"cc1d6553-704e-4785-85b5-f887a9368567","system_id":"levelo_inurba_marseille","lat":43.299243,"lon":5.374807,"is_reserved":false,"is_disabled":false,"rental_uris":{"android":"levelo://app?vid=cc1d6553-704e-4785-85b5-f887a9368567","ios":"levelo://app?vid=cc1d6553-704e-4785-85b5-f887a9368567"},"vehicle_type_id":"4","last_reported":1684994939,"current_range_meters":27200,"station_id":"ce4bgjh2rcd13ifvqbg0","pricing_plan_id":"free"},{"bike_id":"2a0221ad-bdef-4900-b792-f8b540edfa8f","system_id":"levelo_inurba_marseille","lat":43.311722,"lon":5.387247,"is_reserved":false,"is_disabled":false,"rental_uris":{"android":"levelo://app?vid=2a0221ad-bdef-4900-b792-f8b540edfa8f","ios":"levelo://app?vid=2a0221ad-bdef-4900-b792-f8b540edfa8f"},"vehicle_type_id":"4","last_reported":1684994939,"current_range_meters":30000,"station_id":"ce4bgv12rcd13ifvqcp0","pricing_plan_id":"free"},{"bike_id":"b79e81cc-c4e9-445e-88e5-ddb09a56de28","system_id":"levelo_inurba_marseille","lat":43.311722,"lon":5.387247,"is_reserved":false,"is_disabled":false,"rental_uris":{"android":"levelo://app?vid=b79e81cc-c4e9-445e-88e5-ddb09a56de28","ios":"levelo://app?vid=b79e81cc-c4e9-445e-88e5-ddb09a56de28"},"vehicle_type_id":"4","last_reported":1684994939,"current_range_meters":30800,"station_id":"ce4bgv12rcd13ifvqcp0","pricing_plan_id":"free"},{"bike_id":"06d97226-790c-4cce-b2d2-f9b56c25339f","system_id":"levelo_inurba_marseille","lat":43.311722,"lon":5.387247,"is_reserved":false,"is_disabled":false,"rental_uris":{"android":"levelo://app?vid=06d97226-790c-4cce-b2d2-f9b56c25339f","ios":"levelo://app?vid=06d97226-790c-4cce-b2d2-f9b56c25339f"},"vehicle_type_id":"4","last_reported":1684994939,"current_range_meters":28400,"station_id":"ce4bgv12rcd13ifvqcp0","pricing_plan_id":"free"},{"bike_id":"65c49fca-29d5-422c-8b90-ee0679ccfae0","system_id":"levelo_inurba_marseille","lat":43.311722,"lon":5.387247,"is_reserved":false,"is_disabled":false,"rental_uris":{"android":"levelo://app?vid=65c49fca-29d5-422c-8b90-ee0679ccfae0","ios":"levelo://app?vid=65c49fca-29d5-422c-8b90-ee0679ccfae0"},"vehicle_type_id":"4","last_reported":1684994939,"current_range_meters":27200,"station_id":"ce4bgv12rcd13ifvqcp0","pricing_plan_id":"free"},{"bike_id":"6593734c-6b45-42e5-9029-536c9d67ca03","system_id":"levelo_inurba_marseille","lat":43.311722,"lon":5.387247,"is_reserved":false,"is_disabled":false,"rental_uris":{"android":"levelo://app?vid=6593734c-6b45-42e5-9029-536c9d67ca03","ios":"levelo://app?vid=6593734c-6b45-42e5-9029-536c9d67ca03"},"vehicle_type_id":"4","last_reported":1684994939,"current_range_meters":29200,"station_id":"ce4bgv12rcd13ifvqcp0","pricing_plan_id":"free"},{"bike_id":"79ea4606-c6a1-48e7-b04e-6e98630b3459","system_id":"levelo_inurba_marseille","lat":43.311722,"lon":5.387247,"is_reserved":false,"is_disabled":false,"rental_uris":{"android":"levelo://app?vid=79ea4606-c6a1-48e7-b04e-6e98630b3459","ios":"levelo://app?vid=79ea4606-c6a1-48e7-b04e-6e98630b3459"},"vehicle_type_id":"4","last_reported":1684994939,"current_range_meters":31200,"station_id":"ce4bgv12rcd13ifvqcp0","pricing_plan_id":"free"},{"bike_id":"222af222-eb78-44de-9b83-1cd69aaa2759","system_id":"levelo_inurba_marseille","lat":43.299243,"lon":5.37481,"is_reserved":false,"is_disabled":false,"rental_uris":{"android":"levelo://app?vid=222af222-eb78-44de-9b83-1cd69aaa2759","ios":"levelo://app?vid=222af222-eb78-44de-9b83-1cd69aaa2759"},"vehicle_type_id":"4","last_reported":1684994939,"current_range_meters":31200,"station_id":"ce4bgjh2rcd13ifvqbg0","pricing_plan_id":"free"},{"bike_id":"07d0f5f8-594a-4c99-bd5f-efd86e16327f","system_id":"levelo_inurba_marseille","lat":43.328371,"lon":5.366912,"is_reserved":false,"is_disabled":false,"rental_uris":{"android":"levelo://app?vid=07d0f5f8-594a-4c99-bd5f-efd86e16327f","ios":"levelo://app?vid=07d0f5f8-594a-4c99-bd5f-efd86e16327f"},"vehicle_type_id":"4","last_reported":1684994939,"current_range_meters":13200,"station_id":"ce4bhs92rcd13ifvqi0g","pricing_plan_id":"free"},{"bike_id":"2292cdce-ce5f-4b3b-842d-726dc358d7ee","system_id":"levelo_inurba_marseille","lat":43.328371,"lon":5.366912,"is_reserved":false,"is_disabled":false,"rental_uris":{"android":"levelo://app?vid=2292cdce-ce5f-4b3b-842d-726dc358d7ee","ios":"levelo://app?vid=2292cdce-ce5f-4b3b-842d-726dc358d7ee"},"vehicle_type_id":"4","last_reported":1684994939,"current_range_meters":0,"station_id":"ce4bhs92rcd13ifvqi0g","pricing_plan_id":"free"},{"bike_id":"0bcf9f5e-41b0-4efd-81f8-d1adca95ca0b","system_id":"levelo_inurba_marseille","lat":43.328371,"lon":5.366912,"is_reserved":false,"is_disabled":false,"rental_uris":{"android":"levelo://app?vid=0bcf9f5e-41b0-4efd-81f8-d1adca95ca0b","ios":"levelo://app?vid=0bcf9f5e-41b0-4efd-81f8-d1adca95ca0b"},"vehicle_type_id":"4","last_reported":1684994939,"current_range_meters":4400,"station_id":"ce4bhs92rcd13ifvqi0g","pricing_plan_id":"free"},{"bike_id":"e4aeaa28-9c61-48df-b063-bd1d4b46cc64","system_id":"levelo_inurba_marseille","lat":43.328371,"lon":5.366912,"is_reserved":false,"is_disabled":false,"rental_uris":{"android":"levelo://app?vid=e4aeaa28-9c61-48df-b063-bd1d4b46cc64","ios":"levelo://app?vid=e4aeaa28-9c61-48df-b063-bd1d4b46cc64"},"vehicle_type_id":"4","last_reported":1684994939,"current_range_meters":20400,"station_id":"ce4bhs92rcd13ifvqi0g","pricing_plan_id":"free"},{"bike_id":"fad50468-bff6-4eb0-bc39-08e7203bec60","system_id":"levelo_inurba_marseille","lat":43.328371,"lon":5.366912,"is_reserved":false,"is_disabled":false,"rental_uris":{"android":"levelo://app?vid=fad50468-bff6-4eb0-bc39-08e7203bec60","ios":"levelo://app?vid=fad50468-bff6-4eb0-bc39-08e7203bec60"},"vehicle_type_id":"4","last_reported":1684994939,"current_range_meters":18800,"station_id":"ce4bhs92rcd13ifvqi0g","pricing_plan_id":"free"},{"bike_id":"4fe812b5-a152-4f6f-a5e4-5b2d482ba70f","system_id":"levelo_inurba_marseille","lat":43.328371,"lon":5.366912,"is_reserved":false,"is_disabled":false,"rental_uris":{"android":"levelo://app?vid=4fe812b5-a152-4f6f-a5e4-5b2d482ba70f","ios":"levelo://app?vid=4fe812b5-a152-4f6f-a5e4-5b2d482ba70f"},"vehicle_type_id":"4","last_reported":1684994939,"current_range_meters":20400,"station_id":"ce4bhs92rcd13ifvqi0g","pricing_plan_id":"free"},{"bike_id":"ad17dd2b-683a-4dea-a970-dd374a5056a9","system_id":"levelo_inurba_marseille","lat":43.305994,"lon":5.393687,"is_reserved":false,"is_disabled":false,"rental_uris":{"android":"levelo://app?vid=ad17dd2b-683a-4dea-a970-dd374a5056a9","ios":"levelo://app?vid=ad17dd2b-683a-4dea-a970-dd374a5056a9"},"vehicle_type_id":"4","last_reported":1684994939,"current_range_meters":22800,"station_id":"ce4bh0p2rcd13ifvqd80","pricing_plan_id":"free"},{"bike_id":"df1880ac-d231-4326-8b39-c3d013dbb8ca","system_id":"levelo_inurba_marseille","lat":43.3151,"lon":5.38914,"is_reserved":false,"is_disabled":false,"rental_uris":{"android":"levelo://app?vid=df1880ac-d231-4326-8b39-c3d013dbb8ca","ios":"levelo://app?vid=df1880ac-d231-4326-8b39-c3d013dbb8ca"},"vehicle_type_id":"4","last_reported":1684994939,"current_range_meters":24400,"station_id":"","pricing_plan_id":"free"},{"bike_id":"4cb27807-1007-4c6e-a74e-3baa0fb8c9ea","system_id":"levelo_inurba_marseille","lat":43.296129,"lon":5.370777,"is_reserved":false,"is_disabled":false,"rental_uris":{"android":"levelo://app?vid=4cb27807-1007-4c6e-a74e-3baa0fb8c9ea","ios":"levelo://app?vid=4cb27807-1007-4c6e-a74e-3baa0fb8c9ea"},"vehicle_type_id":"4","last_reported":1684994939,"current_range_meters":26400,"station_id":"ce4bgnh2rcd13ifvqc0g","pricing_plan_id":"free"},{"bike_id":"c1deb0c2-b281-40c1-9849-5cc7814987e5","system_id":"levelo_inurba_marseille","lat":43.296131,"lon":5.370773,"is_reserved":false,"is_disabled":false,"rental_uris":{"android":"levelo://app?vid=c1deb0c2-b281-40c1-9849-5cc7814987e5","ios":"levelo://app?vid=c1deb0c2-b281-40c1-9849-5cc7814987e5"},"vehicle_type_id":"4","last_reported":1684994939,"current_range_meters":30000,"station_id":"ce4bgnh2rcd13ifvqc0g","pricing_plan_id":"free"},{"bike_id":"ab3d2a27-8557-4913-b72d-52cd747a45fe","system_id":"levelo_inurba_marseille","lat":43.296129,"lon":5.370777,"is_reserved":false,"is_disabled":false,"rental_uris":{"android":"levelo://app?vid=ab3d2a27-8557-4913-b72d-52cd747a45fe","ios":"levelo://app?vid=ab3d2a27-8557-4913-b72d-52cd747a45fe"},"vehicle_type_id":"4","last_reported":1684994939,"current_range_meters":22800,"station_id":"ce4bgnh2rcd13ifvqc0g","pricing_plan_id":"free"},{"bike_id":"6d92b8ce-a246-48eb-a54e-e04c17de80ba","system_id":"levelo_inurba_marseille","lat":43.296131,"lon":5.370773,"is_reserved":false,"is_disabled":false,"rental_uris":{"android":"levelo://app?vid=6d92b8ce-a246-48eb-a54e-e04c17de80ba","ios":"levelo://app?vid=6d92b8ce-a246-48eb-a54e-e04c17de80ba"},"vehicle_type_id":"4","last_reported":1684994939,"current_range_meters":30000,"station_id":"ce4bgnh2rcd13ifvqc0g","pricing_plan_id":"free"},{"bike_id":"287908f5-73bb-4505-98c0-048d3cd90521","system_id":"levelo_inurba_marseille","lat":43.296129,"lon":5.370777,"is_reserved":false,"is_disabled":false,"rental_uris":{"android":"levelo://app?vid=287908f5-73bb-4505-98c0-048d3cd90521","ios":"levelo://app?vid=287908f5-73bb-4505-98c0-048d3cd90521"},"vehicle_type_id":"4","last_reported":1684994939,"current_range_meters":32000,"station_id":"ce4bgnh2rcd13ifvqc0g","pricing_plan_id":"free"},{"bike_id":"35aea008-f538-4863-bf8e-3da6bf2695fc","system_id":"levelo_inurba_marseille","lat":43.296129,"lon":5.370777,"is_reserved":false,"is_disabled":false,"rental_uris":{"android":"levelo://app?vid=35aea008-f538-4863-bf8e-3da6bf2695fc","ios":"levelo://app?vid=35aea008-f538-4863-bf8e-3da6bf2695fc"},"vehicle_type_id":"4","last_reported":1684994939,"current_range_meters":26000,"station_id":"ce4bgnh2rcd13ifvqc0g","pricing_plan_id":"free"},{"bike_id":"6ea43424-809f-4fcd-be48-015eeb261281","system_id":"levelo_inurba_marseille","lat":43.296131,"lon":5.370773,"is_reserved":false,"is_disabled":false,"rental_uris":{"android":"levelo://app?vid=6ea43424-809f-4fcd-be48-015eeb261281","ios":"levelo://app?vid=6ea43424-809f-4fcd-be48-015eeb261281"},"vehicle_type_id":"4","last_reported":1684994939,"current_range_meters":31200,"station_id":"ce4bgnh2rcd13ifvqc0g","pricing_plan_id":"free"},{"bike_id":"1929dd6c-0c88-4476-a50c-d9577327fef8","system_id":"levelo_inurba_marseille","lat":43.29573,"lon":5.367355,"is_reserved":false,"is_disabled":false,"rental_uris":{"android":"levelo://app?vid=1929dd6c-0c88-4476-a50c-d9577327fef8","ios":"levelo://app?vid=1929dd6c-0c88-4476-a50c-d9577327fef8"},"vehicle_type_id":"4","last_reported":1684994939,"current_range_meters":4800,"station_id":"ce4bgph2rcd13ifvqc2g","pricing_plan_id":"free"},{"bike_id":"c1ec7047-1e6d-4c8b-ad64-5755a04afd61","system_id":"levelo_inurba_marseille","lat":43.296131,"lon":5.370773,"is_reserved":false,"is_disabled":false,"rental_uris":{"android":"levelo://app?vid=c1ec7047-1e6d-4c8b-ad64-5755a04afd61","ios":"levelo://app?vid=c1ec7047-1e6d-4c8b-ad64-5755a04afd61"},"vehicle_type_id":"4","last_reported":1684994939,"current_range_meters":31200,"station_id":"ce4bgnh2rcd13ifvqc0g","pricing_plan_id":"free"},{"bike_id":"276e8684-5df0-487d-a846-8933fb6a8ad0","system_id":"levelo_inurba_marseille","lat":43.296129,"lon":5.370777,"is_reserved":false,"is_disabled":false,"rental_uris":{"android":"levelo://app?vid=276e8684-5df0-487d-a846-8933fb6a8ad0","ios":"levelo://app?vid=276e8684-5df0-487d-a846-8933fb6a8ad0"},"vehicle_type_id":"4","last_reported":1684994939,"current_range_meters":31600,"station_id":"ce4bgnh2rcd13ifvqc0g","pricing_plan_id":"free"},{"bike_id":"7187ccfd-8c7a-4cc5-91e7-248a68a678e4","system_id":"levelo_inurba_marseille","lat":43.31682,"lon":5.38957,"is_reserved":false,"is_disabled":false,"rental_uris":{"android":"levelo://app?vid=7187ccfd-8c7a-4cc5-91e7-248a68a678e4","ios":"levelo://app?vid=7187ccfd-8c7a-4cc5-91e7-248a68a678e4"},"vehicle_type_id":"4","last_reported":1684994939,"current_range_meters":2800,"station_id":"","pricing_plan_id":"free"},{"bike_id":"253bb9d2-b1fb-40bd-8593-eea7fc182d35","system_id":"levelo_inurba_marseille","lat":43.296921,"lon":5.376579,"is_reserved":false,"is_disabled":false,"rental_uris":{"android":"levelo://app?vid=253bb9d2-b1fb-40bd-8593-eea7fc182d35","ios":"levelo://app?vid=253bb9d2-b1fb-40bd-8593-eea7fc182d35"},"vehicle_type_id":"4","last_reported":1684994939,"current_range_meters":30800,"station_id":"ce4bgkh2rcd13ifvqbl0","pricing_plan_id":"free"},{"bike_id":"0d70907d-5545-4589-a434-5bdae0859f29","system_id":"levelo_inurba_marseille","lat":43.29908,"lon":5.38134,"is_reserved":false,"is_disabled":false,"rental_uris":{"android":"levelo://app?vid=0d70907d-5545-4589-a434-5bdae0859f29","ios":"levelo://app?vid=0d70907d-5545-4589-a434-5bdae0859f29"},"vehicle_type_id":"4","last_reported":1684994939,"current_range_meters":5200,"station_id":"ce4bgj12rcd13ifvqbc0","pricing_plan_id":"free"},{"bike_id":"99e5e744-88b0-497d-a8a8-789155426ac0","system_id":"levelo_inurba_marseille","lat":43.29911,"lon":5.38151,"is_reserved":false,"is_disabled":false,"rental_uris":{"android":"levelo://app?vid=99e5e744-88b0-497d-a8a8-789155426ac0","ios":"levelo://app?vid=99e5e744-88b0-497d-a8a8-789155426ac0"},"vehicle_type_id":"4","last_reported":1684994939,"current_range_meters":25200,"station_id":"ce4bgj12rcd13ifvqbc0","pricing_plan_id":"free"},{"bike_id":"133d562a-0894-449f-bc4f-94d1b5d193a6","system_id":"levelo_inurba_marseille","lat":43.299028,"lon":5.381509,"is_reserved":false,"is_disabled":false,"rental_uris":{"android":"levelo://app?vid=133d562a-0894-449f-bc4f-94d1b5d193a6","ios":"levelo://app?vid=133d562a-0894-449f-bc4f-94d1b5d193a6"},"vehicle_type_id":"4","last_reported":1684994939,"current_range_meters":28800,"station_id":"ce4bgj12rcd13ifvqbc0","pricing_plan_id":"free"},{"bike_id":"8fa3dd59-27bb-4909-a756-0b0d77234adf","system_id":"levelo_inurba_marseille","lat":43.317557,"lon":5.390173,"is_reserved":false,"is_disabled":false,"rental_uris":{"android":"levelo://app?vid=8fa3dd59-27bb-4909-a756-0b0d77234adf","ios":"levelo://app?vid=8fa3dd59-27bb-4909-a756-0b0d77234adf"},"vehicle_type_id":"4","last_reported":1684994939,"current_range_meters":29200,"station_id":"ce4bhqp2rcd13ifvqhng","pricing_plan_id":"free"},{"bike_id":"d790ed0a-72d7-4f93-a961-4c574a938b1f","system_id":"levelo_inurba_marseille","lat":43.309589,"lon":5.390258,"is_reserved":false,"is_disabled":false,"rental_uris":{"android":"levelo://app?vid=d790ed0a-72d7-4f93-a961-4c574a938b1f","ios":"levelo://app?vid=d790ed0a-72d7-4f93-a961-4c574a938b1f"},"vehicle_type_id":"4","last_reported":1684994939,"current_range_meters":28800,"station_id":"ce4bgup2rcd13ifvqco0","pricing_plan_id":"free"},{"bike_id":"9e4d1865-ecb4-42ea-b0ed-9a47b7b6efd0","system_id":"levelo_inurba_marseille","lat":43.309589,"lon":5.390258,"is_reserved":false,"is_disabled":false,"rental_uris":{"android":"levelo://app?vid=9e4d1865-ecb4-42ea-b0ed-9a47b7b6efd0","ios":"levelo://app?vid=9e4d1865-ecb4-42ea-b0ed-9a47b7b6efd0"},"vehicle_type_id":"4","last_reported":1684994939,"current_range_meters":26400,"station_id":"ce4bgup2rcd13ifvqco0","pricing_plan_id":"free"},{"bike_id":"900b6f57-26f5-484f-889f-9847d60c517f","system_id":"levelo_inurba_marseille","lat":43.309589,"lon":5.390258,"is_reserved":false,"is_disabled":false,"rental_uris":{"android":"levelo://app?vid=900b6f57-26f5-484f-889f-9847d60c517f","ios":"levelo://app?vid=900b6f57-26f5-484f-889f-9847d60c517f"},"vehicle_type_id":"4","last_reported":1684994939,"current_range_meters":31200,"station_id":"ce4bgup2rcd13ifvqco0","pricing_plan_id":"free"},{"bike_id":"6c811dda-8ade-4eac-a585-d7bb833bc0c1","system_id":"levelo_inurba_marseille","lat":43.309589,"lon":5.390258,"is_reserved":false,"is_disabled":false,"rental_uris":{"android":"levelo://app?vid=6c811dda-8ade-4eac-a585-d7bb833bc0c1","ios":"levelo://app?vid=6c811dda-8ade-4eac-a585-d7bb833bc0c1"},"vehicle_type_id":"4","last_reported":1684994939,"current_range_meters":30000,"station_id":"ce4bgup2rcd13ifvqco0","pricing_plan_id":"free"},{"bike_id":"62daeab9-03ea-4e03-aa2c-9028257d2325","system_id":"levelo_inurba_marseille","lat":43.309589,"lon":5.390258,"is_reserved":false,"is_disabled":false,"rental_uris":{"android":"levelo://app?vid=62daeab9-03ea-4e03-aa2c-9028257d2325","ios":"levelo://app?vid=62daeab9-03ea-4e03-aa2c-9028257d2325"},"vehicle_type_id":"4","last_reported":1684994939,"current_range_meters":28000,"station_id":"ce4bgup2rcd13ifvqco0","pricing_plan_id":"free"},{"bike_id":"5b53b709-1cc2-489d-b347-8ed52257049d","system_id":"levelo_inurba_marseille","lat":43.302008,"lon":5.394694,"is_reserved":false,"is_disabled":false,"rental_uris":{"android":"levelo://app?vid=5b53b709-1cc2-489d-b347-8ed52257049d","ios":"levelo://app?vid=5b53b709-1cc2-489d-b347-8ed52257049d"},"vehicle_type_id":"4","last_reported":1684994939,"current_range_meters":17600,"station_id":"ce4bh0p2rcd13ifvqd70","pricing_plan_id":"free"},{"bike_id":"8ce3f57c-1068-4d19-bc06-6ae7edc127c3","system_id":"levelo_inurba_marseille","lat":43.317557,"lon":5.390173,"is_reserved":false,"is_disabled":false,"rental_uris":{"android":"levelo://app?vid=8ce3f57c-1068-4d19-bc06-6ae7edc127c3","ios":"levelo://app?vid=8ce3f57c-1068-4d19-bc06-6ae7edc127c3"},"vehicle_type_id":"4","last_reported":1684994939,"current_range_meters":16400,"station_id":"ce4bhqp2rcd13ifvqhng","pricing_plan_id":"free"},{"bike_id":"98203f1d-af98-4e07-a555-b5cb9b1be803","system_id":"levelo_inurba_marseille","lat":43.317557,"lon":5.390173,"is_reserved":false,"is_disabled":false,"rental_uris":{"android":"levelo://app?vid=98203f1d-af98-4e07-a555-b5cb9b1be803","ios":"levelo://app?vid=98203f1d-af98-4e07-a555-b5cb9b1be803"},"vehicle_type_id":"4","last_reported":1684994939,"current_range_meters":0,"station_id":"ce4bhqp2rcd13ifvqhng","pricing_plan_id":"free"},{"bike_id":"cbf397d7-6819-4fdc-b6a9-5d5294dade82","system_id":"levelo_inurba_marseille","lat":43.29612,"lon":5.37541,"is_reserved":false,"is_disabled":false,"rental_uris":{"android":"levelo://app?vid=cbf397d7-6819-4fdc-b6a9-5d5294dade82","ios":"levelo://app?vid=cbf397d7-6819-4fdc-b6a9-5d5294dade82"},"vehicle_type_id":"4","last_reported":1684994939,"current_range_meters":28000,"station_id":"","pricing_plan_id":"free"},{"bike_id":"69e5e73b-dc04-41de-a740-29b8b12bf7a2","system_id":"levelo_inurba_marseille","lat":43.298037,"lon":5.381066,"is_reserved":false,"is_disabled":false,"rental_uris":{"android":"levelo://app?vid=69e5e73b-dc04-41de-a740-29b8b12bf7a2","ios":"levelo://app?vid=69e5e73b-dc04-41de-a740-29b8b12bf7a2"},"vehicle_type_id":"4","last_reported":1684994939,"current_range_meters":25600,"station_id":"ce4bgip2rcd13ifvqbb0","pricing_plan_id":"free"},{"bike_id":"cbfa323c-b313-4862-99fc-0342441d536a","system_id":"levelo_inurba_marseille","lat":43.298037,"lon":5.381066,"is_reserved":false,"is_disabled":false,"rental_uris":{"android":"levelo://app?vid=cbfa323c-b313-4862-99fc-0342441d536a","ios":"levelo://app?vid=cbfa323c-b313-4862-99fc-0342441d536a"},"vehicle_type_id":"4","last_reported":1684994939,"current_range_meters":28000,"station_id":"ce4bgip2rcd13ifvqbb0","pricing_plan_id":"free"},{"bike_id":"8155c211-4882-47b1-86e4-bd576c145133","system_id":"levelo_inurba_marseille","lat":43.298037,"lon":5.381066,"is_reserved":false,"is_disabled":false,"rental_uris":{"android":"levelo://app?vid=8155c211-4882-47b1-86e4-bd576c145133","ios":"levelo://app?vid=8155c211-4882-47b1-86e4-bd576c145133"},"vehicle_type_id":"4","last_reported":1684994939,"current_range_meters":27600,"station_id":"ce4bgip2rcd13ifvqbb0","pricing_plan_id":"free"},{"bike_id":"2c266616-2e77-4209-b98f-ecdd8e290fb5","system_id":"levelo_inurba_marseille","lat":43.298037,"lon":5.381066,"is_reserved":false,"is_disabled":false,"rental_uris":{"android":"levelo://app?vid=2c266616-2e77-4209-b98f-ecdd8e290fb5","ios":"levelo://app?vid=2c266616-2e77-4209-b98f-ecdd8e290fb5"},"vehicle_type_id":"4","last_reported":1684994939,"current_range_meters":12400,"station_id":"ce4bgip2rcd13ifvqbb0","pricing_plan_id":"free"},{"bike_id":"c70d6179-56f2-4a60-aebd-2ed7e7241cbe","system_id":"levelo_inurba_marseille","lat":43.298037,"lon":5.381066,"is_reserved":false,"is_disabled":false,"rental_uris":{"android":"levelo://app?vid=c70d6179-56f2-4a60-aebd-2ed7e7241cbe","ios":"levelo://app?vid=c70d6179-56f2-4a60-aebd-2ed7e7241cbe"},"vehicle_type_id":"4","last_reported":1684994939,"current_range_meters":10000,"station_id":"ce4bgip2rcd13ifvqbb0","pricing_plan_id":"free"},{"bike_id":"002588b2-20a9-494f-821a-7294b5a3c7be","system_id":"levelo_inurba_marseille","lat":43.29797,"lon":5.38109,"is_reserved":false,"is_disabled":false,"rental_uris":{"android":"levelo://app?vid=002588b2-20a9-494f-821a-7294b5a3c7be","ios":"levelo://app?vid=002588b2-20a9-494f-821a-7294b5a3c7be"},"vehicle_type_id":"4","last_reported":1684994939,"current_range_meters":28000,"station_id":"ce4bgip2rcd13ifvqbb0","pricing_plan_id":"free"},{"bike_id":"77b6fe77-685d-4b33-8180-e6b8e9dfcfa3","system_id":"levelo_inurba_marseille","lat":43.298037,"lon":5.381066,"is_reserved":false,"is_disabled":false,"rental_uris":{"android":"levelo://app?vid=77b6fe77-685d-4b33-8180-e6b8e9dfcfa3","ios":"levelo://app?vid=77b6fe77-685d-4b33-8180-e6b8e9dfcfa3"},"vehicle_type_id":"4","last_reported":1684994939,"current_range_meters":26800,"station_id":"ce4bgip2rcd13ifvqbb0","pricing_plan_id":"free"},{"bike_id":"c1f2ecf7-4ffe-4c22-b911-4fbf48298638","system_id":"levelo_inurba_marseille","lat":43.295748,"lon":5.37522,"is_reserved":false,"is_disabled":false,"rental_uris":{"android":"levelo://app?vid=c1f2ecf7-4ffe-4c22-b911-4fbf48298638","ios":"levelo://app?vid=c1f2ecf7-4ffe-4c22-b911-4fbf48298638"},"vehicle_type_id":"4","last_reported":1684994939,"current_range_meters":400,"station_id":"ce4bgh92rcd13ifvqb50","pricing_plan_id":"free"},{"bike_id":"7df0d914-c6c0-44c7-83ea-3e6f4e820a27","system_id":"levelo_inurba_marseille","lat":43.295748,"lon":5.37522,"is_reserved":false,"is_disabled":false,"rental_uris":{"android":"levelo://app?vid=7df0d914-c6c0-44c7-83ea-3e6f4e820a27","ios":"levelo://app?vid=7df0d914-c6c0-44c7-83ea-3e6f4e820a27"},"vehicle_type_id":"4","last_reported":1684994939,"current_range_meters":25600,"station_id":"ce4bgh92rcd13ifvqb50","pricing_plan_id":"free"},{"bike_id":"cde524cd-96d1-4214-a778-e0450c5ae12f","system_id":"levelo_inurba_marseille","lat":43.295748,"lon":5.37522,"is_reserved":false,"is_disabled":false,"rental_uris":{"android":"levelo://app?vid=cde524cd-96d1-4214-a778-e0450c5ae12f","ios":"levelo://app?vid=cde524cd-96d1-4214-a778-e0450c5ae12f"},"vehicle_type_id":"4","last_reported":1684994939,"current_range_meters":25600,"station_id":"ce4bgh92rcd13ifvqb50","pricing_plan_id":"free"},{"bike_id":"d68cd200-d96c-4a62-bf8e-1ba7edaa35fd","system_id":"levelo_inurba_marseille","lat":43.295748,"lon":5.37522,"is_reserved":false,"is_disabled":false,"rental_uris":{"android":"levelo://app?vid=d68cd200-d96c-4a62-bf8e-1ba7edaa35fd","ios":"levelo://app?vid=d68cd200-d96c-4a62-bf8e-1ba7edaa35fd"},"vehicle_type_id":"4","last_reported":1684994939,"current_range_meters":19600,"station_id":"ce4bgh92rcd13ifvqb50","pricing_plan_id":"free"},{"bike_id":"adc86c01-6487-4748-8ec1-29445dd124c7","system_id":"levelo_inurba_marseille","lat":43.295748,"lon":5.37522,"is_reserved":false,"is_disabled":false,"rental_uris":{"android":"levelo://app?vid=adc86c01-6487-4748-8ec1-29445dd124c7","ios":"levelo://app?vid=adc86c01-6487-4748-8ec1-29445dd124c7"},"vehicle_type_id":"4","last_reported":1684994939,"current_range_meters":28800,"station_id":"ce4bgh92rcd13ifvqb50","pricing_plan_id":"free"},{"bike_id":"e1d1f05f-4b57-4ef7-bca9-33ac1b1bb140","system_id":"levelo_inurba_marseille","lat":43.30419,"lon":5.38894,"is_reserved":false,"is_disabled":false,"rental_uris":{"android":"levelo://app?vid=e1d1f05f-4b57-4ef7-bca9-33ac1b1bb140","ios":"levelo://app?vid=e1d1f05f-4b57-4ef7-bca9-33ac1b1bb140"},"vehicle_type_id":"4","last_reported":1684994939,"current_range_meters":2800,"station_id":"ce4bgk12rcd13ifvqbi0","pricing_plan_id":"free"},{"bike_id":"ef9cdd61-3bd5-4e90-8194-edc4f7cf8cdd","system_id":"levelo_inurba_marseille","lat":43.296277,"lon":5.377108,"is_reserved":false,"is_disabled":false,"rental_uris":{"android":"levelo://app?vid=ef9cdd61-3bd5-4e90-8194-edc4f7cf8cdd","ios":"levelo://app?vid=ef9cdd61-3bd5-4e90-8194-edc4f7cf8cdd"},"vehicle_type_id":"4","last_reported":1684994939,"current_range_meters":15200,"station_id":"ce4bgi92rcd13ifvqb90","pricing_plan_id":"free"},{"bike_id":"91d96a00-9414-4fd7-b8b6-bf24d0a0301b","system_id":"levelo_inurba_marseille","lat":43.296263,"lon":5.377094,"is_reserved":false,"is_disabled":false,"rental_uris":{"android":"levelo://app?vid=91d96a00-9414-4fd7-b8b6-bf24d0a0301b","ios":"levelo://app?vid=91d96a00-9414-4fd7-b8b6-bf24d0a0301b"},"vehicle_type_id":"4","last_reported":1684994939,"current_range_meters":31600,"station_id":"ce4bgi92rcd13ifvqb90","pricing_plan_id":"free"},{"bike_id":"b5780ca6-e8c7-4fb9-9b20-202ef2d02fca","system_id":"levelo_inurba_marseille","lat":43.295279,"lon":5.375048,"is_reserved":false,"is_disabled":false,"rental_uris":{"android":"levelo://app?vid=b5780ca6-e8c7-4fb9-9b20-202ef2d02fca","ios":"levelo://app?vid=b5780ca6-e8c7-4fb9-9b20-202ef2d02fca"},"vehicle_type_id":"4","last_reported":1684994939,"current_range_meters":26400,"station_id":"ce4bgkp2rcd13ifvqbmg","pricing_plan_id":"free"},{"bike_id":"c818b258-87cf-43b5-b330-57204eeb22fb","system_id":"levelo_inurba_marseille","lat":43.296277,"lon":5.377108,"is_reserved":false,"is_disabled":false,"rental_uris":{"android":"levelo://app?vid=c818b258-87cf-43b5-b330-57204eeb22fb","ios":"levelo://app?vid=c818b258-87cf-43b5-b330-57204eeb22fb"},"vehicle_type_id":"4","last_reported":1684994939,"current_range_meters":28400,"station_id":"ce4bgi92rcd13ifvqb90","pricing_plan_id":"free"},{"bike_id":"e3fe6905-446b-425a-ab5b-d83913b4d9dc","system_id":"levelo_inurba_marseille","lat":43.295279,"lon":5.375048,"is_reserved":false,"is_disabled":false,"rental_uris":{"android":"levelo://app?vid=e3fe6905-446b-425a-ab5b-d83913b4d9dc","ios":"levelo://app?vid=e3fe6905-446b-425a-ab5b-d83913b4d9dc"},"vehicle_type_id":"4","last_reported":1684994939,"current_range_meters":31200,"station_id":"ce4bgkp2rcd13ifvqbmg","pricing_plan_id":"free"},{"bike_id":"528a1dd7-bad0-473f-b5a3-a8d36dd46d41","system_id":"levelo_inurba_marseille","lat":43.295279,"lon":5.375048,"is_reserved":false,"is_disabled":false,"rental_uris":{"android":"levelo://app?vid=528a1dd7-bad0-473f-b5a3-a8d36dd46d41","ios":"levelo://app?vid=528a1dd7-bad0-473f-b5a3-a8d36dd46d41"},"vehicle_type_id":"4","last_reported":1684994939,"current_range_meters":25200,"station_id":"ce4bgkp2rcd13ifvqbmg","pricing_plan_id":"free"},{"bike_id":"3f245026-7545-4924-a951-14be0bedc89e","system_id":"levelo_inurba_marseille","lat":43.31296,"lon":5.39386,"is_reserved":false,"is_disabled":false,"rental_uris":{"android":"levelo://app?vid=3f245026-7545-4924-a951-14be0bedc89e","ios":"levelo://app?vid=3f245026-7545-4924-a951-14be0bedc89e"},"vehicle_type_id":"4","last_reported":1684994939,"current_range_meters":3200,"station_id":"","pricing_plan_id":"free"},{"bike_id":"2887b7cd-85c6-441a-a10d-c2a2a1aecdcd","system_id":"levelo_inurba_marseille","lat":43.29602,"lon":5.381084,"is_reserved":false,"is_disabled":false,"rental_uris":{"android":"levelo://app?vid=2887b7cd-85c6-441a-a10d-c2a2a1aecdcd","ios":"levelo://app?vid=2887b7cd-85c6-441a-a10d-c2a2a1aecdcd"},"vehicle_type_id":"4","last_reported":1684994939,"current_range_meters":3200,"station_id":"ce4bgl12rcd13ifvqbo0","pricing_plan_id":"free"},{"bike_id":"bfdcad51-97fc-4fc5-8b82-c545596782cd","system_id":"levelo_inurba_marseille","lat":43.32496,"lon":5.38807,"is_reserved":false,"is_disabled":false,"rental_uris":{"android":"levelo://app?vid=bfdcad51-97fc-4fc5-8b82-c545596782cd","ios":"levelo://app?vid=bfdcad51-97fc-4fc5-8b82-c545596782cd"},"vehicle_type_id":"4","last_reported":1684994939,"current_range_meters":9200,"station_id":"","pricing_plan_id":"free"},{"bike_id":"61111954-d2f2-49a7-a688-59fe7b3f1e39","system_id":"levelo_inurba_marseille","lat":43.29597,"lon":5.38108,"is_reserved":false,"is_disabled":false,"rental_uris":{"android":"levelo://app?vid=61111954-d2f2-49a7-a688-59fe7b3f1e39","ios":"levelo://app?vid=61111954-d2f2-49a7-a688-59fe7b3f1e39"},"vehicle_type_id":"4","last_reported":1684994939,"current_range_meters":31200,"station_id":"ce4bgl12rcd13ifvqbo0","pricing_plan_id":"free"},{"bike_id":"0185f8b7-4ea6-4a08-8439-80065595949c","system_id":"levelo_inurba_marseille","lat":43.29587,"lon":5.38106,"is_reserved":false,"is_disabled":false,"rental_uris":{"android":"levelo://app?vid=0185f8b7-4ea6-4a08-8439-80065595949c","ios":"levelo://app?vid=0185f8b7-4ea6-4a08-8439-80065595949c"},"vehicle_type_id":"4","last_reported":1684994939,"current_range_meters":0,"station_id":"ce4bgl12rcd13ifvqbo0","pricing_plan_id":"free"},{"bike_id":"5241bc3c-c36e-4839-87fe-c743a91e2f31","system_id":"levelo_inurba_marseille","lat":43.293249,"lon":5.371578,"is_reserved":false,"is_disabled":false,"rental_uris":{"android":"levelo://app?vid=5241bc3c-c36e-4839-87fe-c743a91e2f31","ios":"levelo://app?vid=5241bc3c-c36e-4839-87fe-c743a91e2f31"},"vehicle_type_id":"4","last_reported":1684994939,"current_range_meters":27600,"station_id":"ce4bgh92rcd13ifvqb40","pricing_plan_id":"free"},{"bike_id":"128a1573-fadb-4f84-a0a4-82d9e6b55327","system_id":"levelo_inurba_marseille","lat":43.29277,"lon":5.36847,"is_reserved":false,"is_disabled":false,"rental_uris":{"android":"levelo://app?vid=128a1573-fadb-4f84-a0a4-82d9e6b55327","ios":"levelo://app?vid=128a1573-fadb-4f84-a0a4-82d9e6b55327"},"vehicle_type_id":"4","last_reported":1684994939,"current_range_meters":27200,"station_id":"ce4bhbp2rcd13ifvqesg","pricing_plan_id":"free"},{"bike_id":"f14e98ef-5411-4e82-bde5-c1ae27e7e267","system_id":"levelo_inurba_marseille","lat":43.29277,"lon":5.36848,"is_reserved":false,"is_disabled":false,"rental_uris":{"android":"levelo://app?vid=f14e98ef-5411-4e82-bde5-c1ae27e7e267","ios":"levelo://app?vid=f14e98ef-5411-4e82-bde5-c1ae27e7e267"},"vehicle_type_id":"4","last_reported":1684994939,"current_range_meters":31200,"station_id":"ce4bhbp2rcd13ifvqesg","pricing_plan_id":"free"},{"bike_id":"fb7a0de9-d42d-424a-bddb-56f0e3b2fc5f","system_id":"levelo_inurba_marseille","lat":43.29276,"lon":5.36854,"is_reserved":false,"is_disabled":false,"rental_uris":{"android":"levelo://app?vid=fb7a0de9-d42d-424a-bddb-56f0e3b2fc5f","ios":"levelo://app?vid=fb7a0de9-d42d-424a-bddb-56f0e3b2fc5f"},"vehicle_type_id":"4","last_reported":1684994939,"current_range_meters":27600,"station_id":"ce4bhbp2rcd13ifvqesg","pricing_plan_id":"free"},{"bike_id":"660f22d1-6b19-48aa-a961-fd36333840cc","system_id":"levelo_inurba_marseille","lat":43.29273,"lon":5.36852,"is_reserved":false,"is_disabled":false,"rental_uris":{"android":"levelo://app?vid=660f22d1-6b19-48aa-a961-fd36333840cc","ios":"levelo://app?vid=660f22d1-6b19-48aa-a961-fd36333840cc"},"vehicle_type_id":"4","last_reported":1684994939,"current_range_meters":24400,"station_id":"ce4bhbp2rcd13ifvqesg","pricing_plan_id":"free"},{"bike_id":"38a18bff-db77-4a03-869d-d2c651117d2c","system_id":"levelo_inurba_marseille","lat":43.305994,"lon":5.393687,"is_reserved":false,"is_disabled":false,"rental_uris":{"android":"levelo://app?vid=38a18bff-db77-4a03-869d-d2c651117d2c","ios":"levelo://app?vid=38a18bff-db77-4a03-869d-d2c651117d2c"},"vehicle_type_id":"4","last_reported":1684994939,"current_range_meters":24000,"station_id":"ce4bh0p2rcd13ifvqd80","pricing_plan_id":"free"},{"bike_id":"dd13b635-f450-4419-a1a7-63b3bab3d092","system_id":"levelo_inurba_marseille","lat":43.305994,"lon":5.393687,"is_reserved":false,"is_disabled":false,"rental_uris":{"android":"levelo://app?vid=dd13b635-f450-4419-a1a7-63b3bab3d092","ios":"levelo://app?vid=dd13b635-f450-4419-a1a7-63b3bab3d092"},"vehicle_type_id":"4","last_reported":1684994939,"current_range_meters":25200,"station_id":"ce4bh0p2rcd13ifvqd80","pricing_plan_id":"free"},{"bike_id":"51f91454-8a36-4de1-a93b-a4132d18b061","system_id":"levelo_inurba_marseille","lat":43.305994,"lon":5.393687,"is_reserved":false,"is_disabled":false,"rental_uris":{"android":"levelo://app?vid=51f91454-8a36-4de1-a93b-a4132d18b061","ios":"levelo://app?vid=51f91454-8a36-4de1-a93b-a4132d18b061"},"vehicle_type_id":"4","last_reported":1684994939,"current_range_meters":26800,"station_id":"ce4bh0p2rcd13ifvqd80","pricing_plan_id":"free"},{"bike_id":"560f42a1-44d8-463a-be0b-bc3b9c9e2c87","system_id":"levelo_inurba_marseille","lat":43.305994,"lon":5.393687,"is_reserved":false,"is_disabled":false,"rental_uris":{"android":"levelo://app?vid=560f42a1-44d8-463a-be0b-bc3b9c9e2c87","ios":"levelo://app?vid=560f42a1-44d8-463a-be0b-bc3b9c9e2c87"},"vehicle_type_id":"4","last_reported":1684994939,"current_range_meters":14800,"station_id":"ce4bh0p2rcd13ifvqd80","pricing_plan_id":"free"},{"bike_id":"f8b888ee-8f96-438e-8ffe-8d98267d02b4","system_id":"levelo_inurba_marseille","lat":43.305994,"lon":5.393687,"is_reserved":false,"is_disabled":false,"rental_uris":{"android":"levelo://app?vid=f8b888ee-8f96-438e-8ffe-8d98267d02b4","ios":"levelo://app?vid=f8b888ee-8f96-438e-8ffe-8d98267d02b4"},"vehicle_type_id":"4","last_reported":1684994939,"current_range_meters":20800,"station_id":"ce4bh0p2rcd13ifvqd80","pricing_plan_id":"free"},{"bike_id":"f2c588f3-0af9-4644-8aae-2d4e36f5a11b","system_id":"levelo_inurba_marseille","lat":43.293009,"lon":5.374584,"is_reserved":false,"is_disabled":false,"rental_uris":{"android":"levelo://app?vid=f2c588f3-0af9-4644-8aae-2d4e36f5a11b","ios":"levelo://app?vid=f2c588f3-0af9-4644-8aae-2d4e36f5a11b"},"vehicle_type_id":"4","last_reported":1684994939,"current_range_meters":0,"station_id":"ce4bgi12rcd13ifvqb70","pricing_plan_id":"free"},{"bike_id":"7e2a079f-57fa-4c2c-8fe9-6744ef3ffed3","system_id":"levelo_inurba_marseille","lat":43.303002,"lon":5.392142,"is_reserved":false,"is_disabled":false,"rental_uris":{"android":"levelo://app?vid=7e2a079f-57fa-4c2c-8fe9-6744ef3ffed3","ios":"levelo://app?vid=7e2a079f-57fa-4c2c-8fe9-6744ef3ffed3"},"vehicle_type_id":"4","last_reported":1684994939,"current_range_meters":23200,"station_id":"ce4bgkh2rcd13ifvqbk0","pricing_plan_id":"free"},{"bike_id":"fd276d51-d7c1-444d-bb0e-90cfb39e0677","system_id":"levelo_inurba_marseille","lat":43.292311,"lon":5.360731,"is_reserved":false,"is_disabled":false,"rental_uris":{"android":"levelo://app?vid=fd276d51-d7c1-444d-bb0e-90cfb39e0677","ios":"levelo://app?vid=fd276d51-d7c1-444d-bb0e-90cfb39e0677"},"vehicle_type_id":"4","last_reported":1684994939,"current_range_meters":29200,"station_id":"ce4bhbh2rcd13ifvqeqg","pricing_plan_id":"free"},{"bike_id":"cb605194-5641-45dd-b9a1-873eb8d263fe","system_id":"levelo_inurba_marseille","lat":43.292311,"lon":5.360731,"is_reserved":false,"is_disabled":false,"rental_uris":{"android":"levelo://app?vid=cb605194-5641-45dd-b9a1-873eb8d263fe","ios":"levelo://app?vid=cb605194-5641-45dd-b9a1-873eb8d263fe"},"vehicle_type_id":"4","last_reported":1684994939,"current_range_meters":28400,"station_id":"ce4bhbh2rcd13ifvqeqg","pricing_plan_id":"free"},{"bike_id":"d8588bdd-180f-4710-a8c9-a752f9e88455","system_id":"levelo_inurba_marseille","lat":43.292311,"lon":5.360731,"is_reserved":false,"is_disabled":false,"rental_uris":{"android":"levelo://app?vid=d8588bdd-180f-4710-a8c9-a752f9e88455","ios":"levelo://app?vid=d8588bdd-180f-4710-a8c9-a752f9e88455"},"vehicle_type_id":"4","last_reported":1684994939,"current_range_meters":29600,"station_id":"ce4bhbh2rcd13ifvqeqg","pricing_plan_id":"free"},{"bike_id":"c9c5df63-704d-4a0c-88ad-4ee2f309a305","system_id":"levelo_inurba_marseille","lat":43.292311,"lon":5.360731,"is_reserved":false,"is_disabled":false,"rental_uris":{"android":"levelo://app?vid=c9c5df63-704d-4a0c-88ad-4ee2f309a305","ios":"levelo://app?vid=c9c5df63-704d-4a0c-88ad-4ee2f309a305"},"vehicle_type_id":"4","last_reported":1684994939,"current_range_meters":26800,"station_id":"ce4bhbh2rcd13ifvqeqg","pricing_plan_id":"free"},{"bike_id":"b842a883-baab-4aaa-9c22-726d37235f77","system_id":"levelo_inurba_marseille","lat":43.32766,"lon":5.38818,"is_reserved":false,"is_disabled":false,"rental_uris":{"android":"levelo://app?vid=b842a883-baab-4aaa-9c22-726d37235f77","ios":"levelo://app?vid=b842a883-baab-4aaa-9c22-726d37235f77"},"vehicle_type_id":"4","last_reported":1684994939,"current_range_meters":7200,"station_id":"","pricing_plan_id":"free"},{"bike_id":"59ee9622-4a4c-4224-9fbd-5d99d6a9ffef","system_id":"levelo_inurba_marseille","lat":43.291994,"lon":5.357886,"is_reserved":false,"is_disabled":false,"rental_uris":{"android":"levelo://app?vid=59ee9622-4a4c-4224-9fbd-5d99d6a9ffef","ios":"levelo://app?vid=59ee9622-4a4c-4224-9fbd-5d99d6a9ffef"},"vehicle_type_id":"4","last_reported":1684994939,"current_range_meters":28000,"station_id":"ce4bhb12rcd13ifvqel0","pricing_plan_id":"free"},{"bike_id":"22ceb553-4636-4bf7-9e4f-7a93a3348769","system_id":"levelo_inurba_marseille","lat":43.313291,"lon":5.396838,"is_reserved":false,"is_disabled":false,"rental_uris":{"android":"levelo://app?vid=22ceb553-4636-4bf7-9e4f-7a93a3348769","ios":"levelo://app?vid=22ceb553-4636-4bf7-9e4f-7a93a3348769"},"vehicle_type_id":"4","last_reported":1684994939,"current_range_meters":16400,"station_id":"ce4bgvp2rcd13ifvqcu0","pricing_plan_id":"free"},{"bike_id":"40b68277-6f5f-4aac-8216-847d33e7dfd3","system_id":"levelo_inurba_marseille","lat":43.309038,"lon":5.396546,"is_reserved":false,"is_disabled":false,"rental_uris":{"android":"levelo://app?vid=40b68277-6f5f-4aac-8216-847d33e7dfd3","ios":"levelo://app?vid=40b68277-6f5f-4aac-8216-847d33e7dfd3"},"vehicle_type_id":"4","last_reported":1684994939,"current_range_meters":13200,"station_id":"ce4bh012rcd13ifvqcv0","pricing_plan_id":"free"},{"bike_id":"76e7ded7-04d1-4c1b-93d7-332d6d29d9c4","system_id":"levelo_inurba_marseille","lat":43.30872,"lon":5.39636,"is_reserved":false,"is_disabled":false,"rental_uris":{"android":"levelo://app?vid=76e7ded7-04d1-4c1b-93d7-332d6d29d9c4","ios":"levelo://app?vid=76e7ded7-04d1-4c1b-93d7-332d6d29d9c4"},"vehicle_type_id":"4","last_reported":1684994939,"current_range_meters":21600,"station_id":"","pricing_plan_id":"free"},{"bike_id":"5afb875f-309c-48b4-aac4-19a2f4e8983f","system_id":"levelo_inurba_marseille","lat":43.313291,"lon":5.396838,"is_reserved":false,"is_disabled":false,"rental_uris":{"android":"levelo://app?vid=5afb875f-309c-48b4-aac4-19a2f4e8983f","ios":"levelo://app?vid=5afb875f-309c-48b4-aac4-19a2f4e8983f"},"vehicle_type_id":"4","last_reported":1684994939,"current_range_meters":24400,"station_id":"ce4bgvp2rcd13ifvqcu0","pricing_plan_id":"free"},{"bike_id":"3927ca54-ef8a-4500-8f05-3961302e72f6","system_id":"levelo_inurba_marseille","lat":43.30881,"lon":5.39643,"is_reserved":false,"is_disabled":false,"rental_uris":{"android":"levelo://app?vid=3927ca54-ef8a-4500-8f05-3961302e72f6","ios":"levelo://app?vid=3927ca54-ef8a-4500-8f05-3961302e72f6"},"vehicle_type_id":"4","last_reported":1684994939,"current_range_meters":21600,"station_id":"","pricing_plan_id":"free"},{"bike_id":"b7dc8e89-3981-4ab7-afd2-3b69403ee522","system_id":"levelo_inurba_marseille","lat":43.313291,"lon":5.396838,"is_reserved":false,"is_disabled":false,"rental_uris":{"android":"levelo://app?vid=b7dc8e89-3981-4ab7-afd2-3b69403ee522","ios":"levelo://app?vid=b7dc8e89-3981-4ab7-afd2-3b69403ee522"},"vehicle_type_id":"4","last_reported":1684994939,"current_range_meters":15200,"station_id":"ce4bgvp2rcd13ifvqcu0","pricing_plan_id":"free"},{"bike_id":"11f1ef6a-329e-4508-89a0-ab2f3fa417fc","system_id":"levelo_inurba_marseille","lat":43.313291,"lon":5.396838,"is_reserved":false,"is_disabled":false,"rental_uris":{"android":"levelo://app?vid=11f1ef6a-329e-4508-89a0-ab2f3fa417fc","ios":"levelo://app?vid=11f1ef6a-329e-4508-89a0-ab2f3fa417fc"},"vehicle_type_id":"4","last_reported":1684994939,"current_range_meters":18400,"station_id":"ce4bgvp2rcd13ifvqcu0","pricing_plan_id":"free"},{"bike_id":"bfdbe81b-a54d-45dc-98c9-4267cc5699fd","system_id":"levelo_inurba_marseille","lat":43.31321,"lon":5.39694,"is_reserved":false,"is_disabled":false,"rental_uris":{"android":"levelo://app?vid=bfdbe81b-a54d-45dc-98c9-4267cc5699fd","ios":"levelo://app?vid=bfdbe81b-a54d-45dc-98c9-4267cc5699fd"},"vehicle_type_id":"4","last_reported":1684994939,"current_range_meters":3600,"station_id":"ce4bgvp2rcd13ifvqcu0","pricing_plan_id":"free"},{"bike_id":"af0a295c-ae19-42cb-b8db-a3036f91fbf0","system_id":"levelo_inurba_marseille","lat":43.2919,"lon":5.35792,"is_reserved":false,"is_disabled":false,"rental_uris":{"android":"levelo://app?vid=af0a295c-ae19-42cb-b8db-a3036f91fbf0","ios":"levelo://app?vid=af0a295c-ae19-42cb-b8db-a3036f91fbf0"},"vehicle_type_id":"4","last_reported":1684994939,"current_range_meters":0,"station_id":"ce4bhb12rcd13ifvqel0","pricing_plan_id":"free"},{"bike_id":"09bc6842-f54e-4bb2-bae1-1a1e5351e19d","system_id":"levelo_inurba_marseille","lat":43.31323,"lon":5.39696,"is_reserved":false,"is_disabled":false,"rental_uris":{"android":"levelo://app?vid=09bc6842-f54e-4bb2-bae1-1a1e5351e19d","ios":"levelo://app?vid=09bc6842-f54e-4bb2-bae1-1a1e5351e19d"},"vehicle_type_id":"4","last_reported":1684994939,"current_range_meters":16800,"station_id":"ce4bgvp2rcd13ifvqcu0","pricing_plan_id":"free"},{"bike_id":"18aa64dd-e593-4515-8ebd-3b8e37b67784","system_id":"levelo_inurba_marseille","lat":43.309038,"lon":5.396546,"is_reserved":false,"is_disabled":false,"rental_uris":{"android":"levelo://app?vid=18aa64dd-e593-4515-8ebd-3b8e37b67784","ios":"levelo://app?vid=18aa64dd-e593-4515-8ebd-3b8e37b67784"},"vehicle_type_id":"4","last_reported":1684994939,"current_range_meters":12400,"station_id":"ce4bh012rcd13ifvqcv0","pricing_plan_id":"free"},{"bike_id":"acce7db7-caa0-4bb7-85e2-316c2c76a6f7","system_id":"levelo_inurba_marseille","lat":43.31326,"lon":5.39699,"is_reserved":false,"is_disabled":false,"rental_uris":{"android":"levelo://app?vid=acce7db7-caa0-4bb7-85e2-316c2c76a6f7","ios":"levelo://app?vid=acce7db7-caa0-4bb7-85e2-316c2c76a6f7"},"vehicle_type_id":"4","last_reported":1684994939,"current_range_meters":12800,"station_id":"ce4bgvp2rcd13ifvqcu0","pricing_plan_id":"free"},{"bike_id":"d4478e5d-9e50-4fee-a0f2-993155a43740","system_id":"levelo_inurba_marseille","lat":43.309038,"lon":5.396546,"is_reserved":false,"is_disabled":false,"rental_uris":{"android":"levelo://app?vid=d4478e5d-9e50-4fee-a0f2-993155a43740","ios":"levelo://app?vid=d4478e5d-9e50-4fee-a0f2-993155a43740"},"vehicle_type_id":"4","last_reported":1684994939,"current_range_meters":18000,"station_id":"ce4bh012rcd13ifvqcv0","pricing_plan_id":"free"},{"bike_id":"31ad45cc-cd55-4fa4-8819-4f1a25288b6a","system_id":"levelo_inurba_marseille","lat":43.313291,"lon":5.396838,"is_reserved":false,"is_disabled":false,"rental_uris":{"android":"levelo://app?vid=31ad45cc-cd55-4fa4-8819-4f1a25288b6a","ios":"levelo://app?vid=31ad45cc-cd55-4fa4-8819-4f1a25288b6a"},"vehicle_type_id":"4","last_reported":1684994939,"current_range_meters":6800,"station_id":"ce4bgvp2rcd13ifvqcu0","pricing_plan_id":"free"},{"bike_id":"ce2230b3-5873-4e72-a718-1670e15c2050","system_id":"levelo_inurba_marseille","lat":43.309038,"lon":5.396546,"is_reserved":false,"is_disabled":false,"rental_uris":{"android":"levelo://app?vid=ce2230b3-5873-4e72-a718-1670e15c2050","ios":"levelo://app?vid=ce2230b3-5873-4e72-a718-1670e15c2050"},"vehicle_type_id":"4","last_reported":1684994939,"current_range_meters":5600,"station_id":"ce4bh012rcd13ifvqcv0","pricing_plan_id":"free"},{"bike_id":"76e70d8b-554b-4794-ba93-90b36c6e35e1","system_id":"levelo_inurba_marseille","lat":43.309038,"lon":5.396546,"is_reserved":false,"is_disabled":false,"rental_uris":{"android":"levelo://app?vid=76e70d8b-554b-4794-ba93-90b36c6e35e1","ios":"levelo://app?vid=76e70d8b-554b-4794-ba93-90b36c6e35e1"},"vehicle_type_id":"4","last_reported":1684994939,"current_range_meters":21200,"station_id":"ce4bh012rcd13ifvqcv0","pricing_plan_id":"free"},{"bike_id":"b130c687-a9b0-46ae-85b1-f2b25311e223","system_id":"levelo_inurba_marseille","lat":43.29529,"lon":5.385581,"is_reserved":false,"is_disabled":false,"rental_uris":{"android":"levelo://app?vid=b130c687-a9b0-46ae-85b1-f2b25311e223","ios":"levelo://app?vid=b130c687-a9b0-46ae-85b1-f2b25311e223"},"vehicle_type_id":"4","last_reported":1684994939,"current_range_meters":16000,"station_id":"ce4bgih2rcd13ifvqba0","pricing_plan_id":"free"},{"bike_id":"74f43c24-795f-4fba-821a-af7a3975cab1","system_id":"levelo_inurba_marseille","lat":43.291671,"lon":5.371575,"is_reserved":false,"is_disabled":false,"rental_uris":{"android":"levelo://app?vid=74f43c24-795f-4fba-821a-af7a3975cab1","ios":"levelo://app?vid=74f43c24-795f-4fba-821a-af7a3975cab1"},"vehicle_type_id":"4","last_reported":1684994939,"current_range_meters":25200,"station_id":"ce4bha92rcd13ifvqeh0","pricing_plan_id":"free"},{"bike_id":"2a1b72db-8999-488c-82e4-7081ef12012b","system_id":"levelo_inurba_marseille","lat":43.302008,"lon":5.394694,"is_reserved":false,"is_disabled":false,"rental_uris":{"android":"levelo://app?vid=2a1b72db-8999-488c-82e4-7081ef12012b","ios":"levelo://app?vid=2a1b72db-8999-488c-82e4-7081ef12012b"},"vehicle_type_id":"4","last_reported":1684994939,"current_range_meters":20800,"station_id":"ce4bh0p2rcd13ifvqd70","pricing_plan_id":"free"},{"bike_id":"ba576b3e-ca89-4496-a42f-19117ab49ca3","system_id":"levelo_inurba_marseille","lat":43.29417,"lon":5.38623,"is_reserved":false,"is_disabled":false,"rental_uris":{"android":"levelo://app?vid=ba576b3e-ca89-4496-a42f-19117ab49ca3","ios":"levelo://app?vid=ba576b3e-ca89-4496-a42f-19117ab49ca3"},"vehicle_type_id":"4","last_reported":1684994939,"current_range_meters":27200,"station_id":"ce4bh2h2rcd13ifvqdh0","pricing_plan_id":"free"},{"bike_id":"2830a7e2-c11a-4fbb-8e55-940bd321f03b","system_id":"levelo_inurba_marseille","lat":43.305994,"lon":5.393687,"is_reserved":false,"is_disabled":false,"rental_uris":{"android":"levelo://app?vid=2830a7e2-c11a-4fbb-8e55-940bd321f03b","ios":"levelo://app?vid=2830a7e2-c11a-4fbb-8e55-940bd321f03b"},"vehicle_type_id":"4","last_reported":1684994939,"current_range_meters":31200,"station_id":"ce4bh0p2rcd13ifvqd80","pricing_plan_id":"free"},{"bike_id":"50801b8b-e10d-4a4f-819a-57773e991d5e","system_id":"levelo_inurba_marseille","lat":43.289184,"lon":5.366408,"is_reserved":false,"is_disabled":false,"rental_uris":{"android":"levelo://app?vid=50801b8b-e10d-4a4f-819a-57773e991d5e","ios":"levelo://app?vid=50801b8b-e10d-4a4f-819a-57773e991d5e"},"vehicle_type_id":"4","last_reported":1684994939,"current_range_meters":31200,"station_id":"ce4bhap2rcd13ifvqek0","pricing_plan_id":"free"},{"bike_id":"c290c9a5-91e5-4a01-b28a-bae38d70be59","system_id":"levelo_inurba_marseille","lat":43.289184,"lon":5.366408,"is_reserved":false,"is_disabled":false,"rental_uris":{"android":"levelo://app?vid=c290c9a5-91e5-4a01-b28a-bae38d70be59","ios":"levelo://app?vid=c290c9a5-91e5-4a01-b28a-bae38d70be59"},"vehicle_type_id":"4","last_reported":1684994939,"current_range_meters":31200,"station_id":"ce4bhap2rcd13ifvqek0","pricing_plan_id":"free"},{"bike_id":"2dc096ac-6f39-4489-ae87-cc6f8d52f35b","system_id":"levelo_inurba_marseille","lat":43.289184,"lon":5.366408,"is_reserved":false,"is_disabled":false,"rental_uris":{"android":"levelo://app?vid=2dc096ac-6f39-4489-ae87-cc6f8d52f35b","ios":"levelo://app?vid=2dc096ac-6f39-4489-ae87-cc6f8d52f35b"},"vehicle_type_id":"4","last_reported":1684994939,"current_range_meters":29600,"station_id":"ce4bhap2rcd13ifvqek0","pricing_plan_id":"free"},{"bike_id":"55d2d823-975e-4156-a4a3-c22b1bb32b97","system_id":"levelo_inurba_marseille","lat":43.289468,"lon":5.363719,"is_reserved":false,"is_disabled":false,"rental_uris":{"android":"levelo://app?vid=55d2d823-975e-4156-a4a3-c22b1bb32b97","ios":"levelo://app?vid=55d2d823-975e-4156-a4a3-c22b1bb32b97"},"vehicle_type_id":"4","last_reported":1684994939,"current_range_meters":27200,"station_id":"ce4bhc92rcd13ifvqetg","pricing_plan_id":"free"},{"bike_id":"44fba8ad-f3bb-4b30-84f0-5509f135e8b4","system_id":"levelo_inurba_marseille","lat":43.28938,"lon":5.36638,"is_reserved":false,"is_disabled":false,"rental_uris":{"android":"levelo://app?vid=44fba8ad-f3bb-4b30-84f0-5509f135e8b4","ios":"levelo://app?vid=44fba8ad-f3bb-4b30-84f0-5509f135e8b4"},"vehicle_type_id":"4","last_reported":1684994939,"current_range_meters":31200,"station_id":"","pricing_plan_id":"free"},{"bike_id":"0b567880-3d8a-4493-ae5f-ce9c836d4191","system_id":"levelo_inurba_marseille","lat":43.28946,"lon":5.36409,"is_reserved":false,"is_disabled":false,"rental_uris":{"android":"levelo://app?vid=0b567880-3d8a-4493-ae5f-ce9c836d4191","ios":"levelo://app?vid=0b567880-3d8a-4493-ae5f-ce9c836d4191"},"vehicle_type_id":"4","last_reported":1684994939,"current_range_meters":0,"station_id":"ce4bhc92rcd13ifvqetg","pricing_plan_id":"free"},{"bike_id":"fa43d385-88c7-49b4-aed7-04a17f094dc4","system_id":"levelo_inurba_marseille","lat":43.289184,"lon":5.366408,"is_reserved":false,"is_disabled":false,"rental_uris":{"android":"levelo://app?vid=fa43d385-88c7-49b4-aed7-04a17f094dc4","ios":"levelo://app?vid=fa43d385-88c7-49b4-aed7-04a17f094dc4"},"vehicle_type_id":"4","last_reported":1684994939,"current_range_meters":28800,"station_id":"ce4bhap2rcd13ifvqek0","pricing_plan_id":"free"},{"bike_id":"f6369698-25c6-48c9-b431-a1e6a4bbfcc9","system_id":"levelo_inurba_marseille","lat":43.28937,"lon":5.36631,"is_reserved":false,"is_disabled":false,"rental_uris":{"android":"levelo://app?vid=f6369698-25c6-48c9-b431-a1e6a4bbfcc9","ios":"levelo://app?vid=f6369698-25c6-48c9-b431-a1e6a4bbfcc9"},"vehicle_type_id":"4","last_reported":1684994939,"current_range_meters":31200,"station_id":"ce4bhap2rcd13ifvqek0","pricing_plan_id":"free"},{"bike_id":"b5487e63-a2ff-4a81-a110-f61bd81ee2e2","system_id":"levelo_inurba_marseille","lat":43.289184,"lon":5.366408,"is_reserved":false,"is_disabled":false,"rental_uris":{"android":"levelo://app?vid=b5487e63-a2ff-4a81-a110-f61bd81ee2e2","ios":"levelo://app?vid=b5487e63-a2ff-4a81-a110-f61bd81ee2e2"},"vehicle_type_id":"4","last_reported":1684994939,"current_range_meters":30400,"station_id":"ce4bhap2rcd13ifvqek0","pricing_plan_id":"free"},{"bike_id":"c6c438af-1b7f-426c-8dde-f6ae99f88289","system_id":"levelo_inurba_marseille","lat":43.289184,"lon":5.366408,"is_reserved":false,"is_disabled":false,"rental_uris":{"android":"levelo://app?vid=c6c438af-1b7f-426c-8dde-f6ae99f88289","ios":"levelo://app?vid=c6c438af-1b7f-426c-8dde-f6ae99f88289"},"vehicle_type_id":"4","last_reported":1684994939,"current_range_meters":28000,"station_id":"ce4bhap2rcd13ifvqek0","pricing_plan_id":"free"},{"bike_id":"5725a808-9cfd-4f69-8ab2-bdc589084833","system_id":"levelo_inurba_marseille","lat":43.289468,"lon":5.363719,"is_reserved":false,"is_disabled":false,"rental_uris":{"android":"levelo://app?vid=5725a808-9cfd-4f69-8ab2-bdc589084833","ios":"levelo://app?vid=5725a808-9cfd-4f69-8ab2-bdc589084833"},"vehicle_type_id":"4","last_reported":1684994939,"current_range_meters":31200,"station_id":"ce4bhc92rcd13ifvqetg","pricing_plan_id":"free"},{"bike_id":"3da05009-c87f-441d-a34f-d5cb52e742af","system_id":"levelo_inurba_marseille","lat":43.289184,"lon":5.366408,"is_reserved":false,"is_disabled":false,"rental_uris":{"android":"levelo://app?vid=3da05009-c87f-441d-a34f-d5cb52e742af","ios":"levelo://app?vid=3da05009-c87f-441d-a34f-d5cb52e742af"},"vehicle_type_id":"4","last_reported":1684994939,"current_range_meters":30000,"station_id":"ce4bhap2rcd13ifvqek0","pricing_plan_id":"free"},{"bike_id":"480aa1f8-b050-4353-8e61-0a82a5bb7da6","system_id":"levelo_inurba_marseille","lat":43.289468,"lon":5.363719,"is_reserved":false,"is_disabled":false,"rental_uris":{"android":"levelo://app?vid=480aa1f8-b050-4353-8e61-0a82a5bb7da6","ios":"levelo://app?vid=480aa1f8-b050-4353-8e61-0a82a5bb7da6"},"vehicle_type_id":"4","last_reported":1684994939,"current_range_meters":25600,"station_id":"ce4bhc92rcd13ifvqetg","pricing_plan_id":"free"},{"bike_id":"99d787be-1053-45e0-819f-ceff9d810ad1","system_id":"levelo_inurba_marseille","lat":43.289468,"lon":5.363719,"is_reserved":false,"is_disabled":false,"rental_uris":{"android":"levelo://app?vid=99d787be-1053-45e0-819f-ceff9d810ad1","ios":"levelo://app?vid=99d787be-1053-45e0-819f-ceff9d810ad1"},"vehicle_type_id":"4","last_reported":1684994939,"current_range_meters":30000,"station_id":"ce4bhc92rcd13ifvqetg","pricing_plan_id":"free"},{"bike_id":"a7c304f7-1b5a-4afe-9e15-3c5cf872dc40","system_id":"levelo_inurba_marseille","lat":43.304274,"lon":5.397513,"is_reserved":false,"is_disabled":false,"rental_uris":{"android":"levelo://app?vid=a7c304f7-1b5a-4afe-9e15-3c5cf872dc40","ios":"levelo://app?vid=a7c304f7-1b5a-4afe-9e15-3c5cf872dc40"},"vehicle_type_id":"4","last_reported":1684994939,"current_range_meters":12400,"station_id":"ce4bh092rcd13ifvqd20","pricing_plan_id":"free"},{"bike_id":"e79ba1f0-85ec-444a-b686-cdb3a6e720c6","system_id":"levelo_inurba_marseille","lat":43.304296,"lon":5.397513,"is_reserved":false,"is_disabled":false,"rental_uris":{"android":"levelo://app?vid=e79ba1f0-85ec-444a-b686-cdb3a6e720c6","ios":"levelo://app?vid=e79ba1f0-85ec-444a-b686-cdb3a6e720c6"},"vehicle_type_id":"4","last_reported":1684994939,"current_range_meters":31200,"station_id":"ce4bh092rcd13ifvqd20","pricing_plan_id":"free"},{"bike_id":"97ce13d7-8f03-4099-b354-bc7c8cf2a615","system_id":"levelo_inurba_marseille","lat":43.304296,"lon":5.397513,"is_reserved":false,"is_disabled":false,"rental_uris":{"android":"levelo://app?vid=97ce13d7-8f03-4099-b354-bc7c8cf2a615","ios":"levelo://app?vid=97ce13d7-8f03-4099-b354-bc7c8cf2a615"},"vehicle_type_id":"4","last_reported":1684994939,"current_range_meters":31200,"station_id":"ce4bh092rcd13ifvqd20","pricing_plan_id":"free"},{"bike_id":"3427e378-5300-4bcc-9f34-ebfb41bb1668","system_id":"levelo_inurba_marseille","lat":43.304296,"lon":5.397513,"is_reserved":false,"is_disabled":false,"rental_uris":{"android":"levelo://app?vid=3427e378-5300-4bcc-9f34-ebfb41bb1668","ios":"levelo://app?vid=3427e378-5300-4bcc-9f34-ebfb41bb1668"},"vehicle_type_id":"4","last_reported":1684994939,"current_range_meters":31200,"station_id":"ce4bh092rcd13ifvqd20","pricing_plan_id":"free"},{"bike_id":"7af0c0c8-7163-465c-8186-a80ea83a2a13","system_id":"levelo_inurba_marseille","lat":43.304274,"lon":5.397513,"is_reserved":false,"is_disabled":false,"rental_uris":{"android":"levelo://app?vid=7af0c0c8-7163-465c-8186-a80ea83a2a13","ios":"levelo://app?vid=7af0c0c8-7163-465c-8186-a80ea83a2a13"},"vehicle_type_id":"4","last_reported":1684994939,"current_range_meters":26800,"station_id":"ce4bh092rcd13ifvqd20","pricing_plan_id":"free"},{"bike_id":"0f9425f6-a3ba-4831-a9f3-0955aae43b65","system_id":"levelo_inurba_marseille","lat":43.3304,"lon":5.38918,"is_reserved":false,"is_disabled":false,"rental_uris":{"android":"levelo://app?vid=0f9425f6-a3ba-4831-a9f3-0955aae43b65","ios":"levelo://app?vid=0f9425f6-a3ba-4831-a9f3-0955aae43b65"},"vehicle_type_id":"4","last_reported":1684994939,"current_range_meters":24800,"station_id":"ce4bhr92rcd13ifvqhrg","pricing_plan_id":"free"},{"bike_id":"2fc2c6b3-1be8-4eda-8376-caa8cb2396aa","system_id":"levelo_inurba_marseille","lat":43.33047,"lon":5.38913,"is_reserved":false,"is_disabled":false,"rental_uris":{"android":"levelo://app?vid=2fc2c6b3-1be8-4eda-8376-caa8cb2396aa","ios":"levelo://app?vid=2fc2c6b3-1be8-4eda-8376-caa8cb2396aa"},"vehicle_type_id":"4","last_reported":1684994939,"current_range_meters":15200,"station_id":"ce4bhr92rcd13ifvqhrg","pricing_plan_id":"free"},{"bike_id":"ec10fb60-caa8-483d-8eb5-3641edf2dc1f","system_id":"levelo_inurba_marseille","lat":43.290104,"lon":5.356111,"is_reserved":false,"is_disabled":false,"rental_uris":{"android":"levelo://app?vid=ec10fb60-caa8-483d-8eb5-3641edf2dc1f","ios":"levelo://app?vid=ec10fb60-caa8-483d-8eb5-3641edf2dc1f"},"vehicle_type_id":"4","last_reported":1684994939,"current_range_meters":22800,"station_id":"ce4bhb92rcd13ifvqen0","pricing_plan_id":"free"},{"bike_id":"4910bac6-585d-4957-91cb-f6dec757a9dc","system_id":"levelo_inurba_marseille","lat":43.290995,"lon":5.381361,"is_reserved":false,"is_disabled":false,"rental_uris":{"android":"levelo://app?vid=4910bac6-585d-4957-91cb-f6dec757a9dc","ios":"levelo://app?vid=4910bac6-585d-4957-91cb-f6dec757a9dc"},"vehicle_type_id":"4","last_reported":1684994939,"current_range_meters":25200,"station_id":"ce4bh512rcd13ifvqe2g","pricing_plan_id":"free"},{"bike_id":"6e9828c4-1b85-4f3f-9840-e9473e0e2040","system_id":"levelo_inurba_marseille","lat":43.298764,"lon":5.388973,"is_reserved":false,"is_disabled":false,"rental_uris":{"android":"levelo://app?vid=6e9828c4-1b85-4f3f-9840-e9473e0e2040","ios":"levelo://app?vid=6e9828c4-1b85-4f3f-9840-e9473e0e2040"},"vehicle_type_id":"4","last_reported":1684994939,"current_range_meters":22800,"station_id":"ce4bh392rcd13ifvqdl0","pricing_plan_id":"free"},{"bike_id":"d45014e4-0171-4e37-9b25-188fd673a4c7","system_id":"levelo_inurba_marseille","lat":43.290932,"lon":5.381277,"is_reserved":false,"is_disabled":false,"rental_uris":{"android":"levelo://app?vid=d45014e4-0171-4e37-9b25-188fd673a4c7","ios":"levelo://app?vid=d45014e4-0171-4e37-9b25-188fd673a4c7"},"vehicle_type_id":"4","last_reported":1684994939,"current_range_meters":1200,"station_id":"","pricing_plan_id":"free"},{"bike_id":"a83a8da6-1750-4292-964b-16342ab29e95","system_id":"levelo_inurba_marseille","lat":43.290995,"lon":5.381361,"is_reserved":false,"is_disabled":false,"rental_uris":{"android":"levelo://app?vid=a83a8da6-1750-4292-964b-16342ab29e95","ios":"levelo://app?vid=a83a8da6-1750-4292-964b-16342ab29e95"},"vehicle_type_id":"4","last_reported":1684994939,"current_range_meters":15200,"station_id":"ce4bh512rcd13ifvqe2g","pricing_plan_id":"free"},{"bike_id":"8d73ac17-ff2b-4aaf-b60a-c128b2b37195","system_id":"levelo_inurba_marseille","lat":43.28987,"lon":5.3784,"is_reserved":false,"is_disabled":false,"rental_uris":{"android":"levelo://app?vid=8d73ac17-ff2b-4aaf-b60a-c128b2b37195","ios":"levelo://app?vid=8d73ac17-ff2b-4aaf-b60a-c128b2b37195"},"vehicle_type_id":"4","last_reported":1684994939,"current_range_meters":24400,"station_id":"ce4bh9p2rcd13ifvqed0","pricing_plan_id":"free"},{"bike_id":"0fcd2076-75be-427c-98ca-465c8681c571","system_id":"levelo_inurba_marseille","lat":43.29787,"lon":5.39348,"is_reserved":false,"is_disabled":false,"rental_uris":{"android":"levelo://app?vid=0fcd2076-75be-427c-98ca-465c8681c571","ios":"levelo://app?vid=0fcd2076-75be-427c-98ca-465c8681c571"},"vehicle_type_id":"4","last_reported":1684994939,"current_range_meters":21600,"station_id":"chh1huq6cuj3fo74tm60","pricing_plan_id":"free"},{"bike_id":"3b55626e-deb8-4aa0-b934-56c2438388a3","system_id":"levelo_inurba_marseille","lat":43.29787,"lon":5.39348,"is_reserved":false,"is_disabled":false,"rental_uris":{"android":"levelo://app?vid=3b55626e-deb8-4aa0-b934-56c2438388a3","ios":"levelo://app?vid=3b55626e-deb8-4aa0-b934-56c2438388a3"},"vehicle_type_id":"4","last_reported":1684994939,"current_range_meters":25600,"station_id":"chh1huq6cuj3fo74tm60","pricing_plan_id":"free"},{"bike_id":"80afdb09-b071-411c-9756-ba719c3a34d4","system_id":"levelo_inurba_marseille","lat":43.28976,"lon":5.378464,"is_reserved":false,"is_disabled":false,"rental_uris":{"android":"levelo://app?vid=80afdb09-b071-411c-9756-ba719c3a34d4","ios":"levelo://app?vid=80afdb09-b071-411c-9756-ba719c3a34d4"},"vehicle_type_id":"4","last_reported":1684994939,"current_range_meters":22400,"station_id":"","pricing_plan_id":"free"},{"bike_id":"980ed30b-ce04-4142-b775-f35803f42cad","system_id":"levelo_inurba_marseille","lat":43.28971,"lon":5.37829,"is_reserved":false,"is_disabled":false,"rental_uris":{"android":"levelo://app?vid=980ed30b-ce04-4142-b775-f35803f42cad","ios":"levelo://app?vid=980ed30b-ce04-4142-b775-f35803f42cad"},"vehicle_type_id":"4","last_reported":1684994939,"current_range_meters":30000,"station_id":"ce4bh9p2rcd13ifvqed0","pricing_plan_id":"free"},{"bike_id":"81bad515-29f3-44b1-ab10-7ffba6a0a1b8","system_id":"levelo_inurba_marseille","lat":43.28972,"lon":5.37836,"is_reserved":false,"is_disabled":false,"rental_uris":{"android":"levelo://app?vid=81bad515-29f3-44b1-ab10-7ffba6a0a1b8","ios":"levelo://app?vid=81bad515-29f3-44b1-ab10-7ffba6a0a1b8"},"vehicle_type_id":"4","last_reported":1684994939,"current_range_meters":27600,"station_id":"ce4bh9p2rcd13ifvqed0","pricing_plan_id":"free"},{"bike_id":"82cda1e0-8ec4-4ae7-bade-f3b012b20dfd","system_id":"levelo_inurba_marseille","lat":43.290094,"lon":5.381264,"is_reserved":false,"is_disabled":false,"rental_uris":{"android":"levelo://app?vid=82cda1e0-8ec4-4ae7-bade-f3b012b20dfd","ios":"levelo://app?vid=82cda1e0-8ec4-4ae7-bade-f3b012b20dfd"},"vehicle_type_id":"4","last_reported":1684994939,"current_range_meters":1200,"station_id":"ce4bh4p2rcd13ifvqe1g","pricing_plan_id":"free"},{"bike_id":"acb091aa-de4e-403c-a548-aed16f7460d3","system_id":"levelo_inurba_marseille","lat":43.28856,"lon":5.358371,"is_reserved":false,"is_disabled":false,"rental_uris":{"android":"levelo://app?vid=acb091aa-de4e-403c-a548-aed16f7460d3","ios":"levelo://app?vid=acb091aa-de4e-403c-a548-aed16f7460d3"},"vehicle_type_id":"4","last_reported":1684994939,"current_range_meters":31200,"station_id":"ce4bhb12rcd13ifvqem0","pricing_plan_id":"free"},{"bike_id":"329dc4ba-b6bd-4175-98c7-8bbf39173a7c","system_id":"levelo_inurba_marseille","lat":43.28856,"lon":5.358371,"is_reserved":false,"is_disabled":false,"rental_uris":{"android":"levelo://app?vid=329dc4ba-b6bd-4175-98c7-8bbf39173a7c","ios":"levelo://app?vid=329dc4ba-b6bd-4175-98c7-8bbf39173a7c"},"vehicle_type_id":"4","last_reported":1684994939,"current_range_meters":5600,"station_id":"ce4bhb12rcd13ifvqem0","pricing_plan_id":"free"},{"bike_id":"a844e9e3-cee4-4170-864a-104b52285d48","system_id":"levelo_inurba_marseille","lat":43.28856,"lon":5.358371,"is_reserved":false,"is_disabled":false,"rental_uris":{"android":"levelo://app?vid=a844e9e3-cee4-4170-864a-104b52285d48","ios":"levelo://app?vid=a844e9e3-cee4-4170-864a-104b52285d48"},"vehicle_type_id":"4","last_reported":1684994939,"current_range_meters":31200,"station_id":"ce4bhb12rcd13ifvqem0","pricing_plan_id":"free"},{"bike_id":"b7e9ea0e-ea4b-4e92-9506-60bfe37ef1a0","system_id":"levelo_inurba_marseille","lat":43.28856,"lon":5.358371,"is_reserved":false,"is_disabled":false,"rental_uris":{"android":"levelo://app?vid=b7e9ea0e-ea4b-4e92-9506-60bfe37ef1a0","ios":"levelo://app?vid=b7e9ea0e-ea4b-4e92-9506-60bfe37ef1a0"},"vehicle_type_id":"4","last_reported":1684994939,"current_range_meters":29600,"station_id":"ce4bhb12rcd13ifvqem0","pricing_plan_id":"free"},{"bike_id":"520fc77a-7d4a-40bb-ad89-fdcc0c148c34","system_id":"levelo_inurba_marseille","lat":43.33731,"lon":5.37448,"is_reserved":false,"is_disabled":false,"rental_uris":{"android":"levelo://app?vid=520fc77a-7d4a-40bb-ad89-fdcc0c148c34","ios":"levelo://app?vid=520fc77a-7d4a-40bb-ad89-fdcc0c148c34"},"vehicle_type_id":"4","last_reported":1684994939,"current_range_meters":26000,"station_id":"","pricing_plan_id":"free"},{"bike_id":"40b58590-091a-4add-9f25-2c62b7c16693","system_id":"levelo_inurba_marseille","lat":43.33755,"lon":5.37441,"is_reserved":false,"is_disabled":false,"rental_uris":{"android":"levelo://app?vid=40b58590-091a-4add-9f25-2c62b7c16693","ios":"levelo://app?vid=40b58590-091a-4add-9f25-2c62b7c16693"},"vehicle_type_id":"4","last_reported":1684994939,"current_range_meters":31200,"station_id":"","pricing_plan_id":"free"},{"bike_id":"deccdead-3a19-4eb1-a04e-30061fe6dc26","system_id":"levelo_inurba_marseille","lat":43.33756,"lon":5.3744,"is_reserved":false,"is_disabled":false,"rental_uris":{"android":"levelo://app?vid=deccdead-3a19-4eb1-a04e-30061fe6dc26","ios":"levelo://app?vid=deccdead-3a19-4eb1-a04e-30061fe6dc26"},"vehicle_type_id":"4","last_reported":1684994939,"current_range_meters":22000,"station_id":"","pricing_plan_id":"free"},{"bike_id":"cbe088ea-f10c-462c-9d27-f58ad1f7519d","system_id":"levelo_inurba_marseille","lat":43.30642,"lon":5.401031,"is_reserved":false,"is_disabled":false,"rental_uris":{"android":"levelo://app?vid=cbe088ea-f10c-462c-9d27-f58ad1f7519d","ios":"levelo://app?vid=cbe088ea-f10c-462c-9d27-f58ad1f7519d"},"vehicle_type_id":"4","last_reported":1684994939,"current_range_meters":10800,"station_id":"ce4bh112rcd13ifvqda0","pricing_plan_id":"free"},{"bike_id":"39f2babc-f71f-462e-a489-7124ec8e072c","system_id":"levelo_inurba_marseille","lat":43.33758,"lon":5.37486,"is_reserved":false,"is_disabled":false,"rental_uris":{"android":"levelo://app?vid=39f2babc-f71f-462e-a489-7124ec8e072c","ios":"levelo://app?vid=39f2babc-f71f-462e-a489-7124ec8e072c"},"vehicle_type_id":"4","last_reported":1684994939,"current_range_meters":24400,"station_id":"","pricing_plan_id":"free"},{"bike_id":"5774b04f-3236-448f-8f12-5a1fc2d03d90","system_id":"levelo_inurba_marseille","lat":43.301117,"lon":5.398795,"is_reserved":false,"is_disabled":false,"rental_uris":{"android":"levelo://app?vid=5774b04f-3236-448f-8f12-5a1fc2d03d90","ios":"levelo://app?vid=5774b04f-3236-448f-8f12-5a1fc2d03d90"},"vehicle_type_id":"4","last_reported":1684994939,"current_range_meters":31200,"station_id":"ce4bh0h2rcd13ifvqd40","pricing_plan_id":"free"},{"bike_id":"4f17b96c-aa92-4852-bd97-1a0a1b22e6e9","system_id":"levelo_inurba_marseille","lat":43.301117,"lon":5.398795,"is_reserved":false,"is_disabled":false,"rental_uris":{"android":"levelo://app?vid=4f17b96c-aa92-4852-bd97-1a0a1b22e6e9","ios":"levelo://app?vid=4f17b96c-aa92-4852-bd97-1a0a1b22e6e9"},