{"last_updated":1706406206,"ttl":30,"version":"2.2","data":{"bikes":[{"bike_id":"5fe6d8d7-76e9-461f-a01d-29cd385680dd","system_id":"levelo_inurba_marseille","lat":43.312239,"lon":5.368562,"is_reserved":false,"is_disabled":false,"rental_uris":{"android":"levelo://app?vid=5fe6d8d7-76e9-461f-a01d-29cd385680dd","ios":"levelo://app?vid=5fe6d8d7-76e9-461f-a01d-29cd385680dd"},"vehicle_type_id":"4","last_reported":1706406206,"current_range_meters":26400,"station_id":"ce4bgl92rcd13ifvqbq0","pricing_plan_id":"free"},{"bike_id":"9fbd1394-f62b-4f2a-b775-769726bec851","system_id":"levelo_inurba_marseille","lat":43.314811,"lon":5.373103,"is_reserved":false,"is_disabled":false,"rental_uris":{"android":"levelo://app?vid=9fbd1394-f62b-4f2a-b775-769726bec851","ios":"levelo://app?vid=9fbd1394-f62b-4f2a-b775-769726bec851"},"vehicle_type_id":"4","last_reported":1706406206,"current_range_meters":31200,"station_id":"ce4bgt12rcd13ifvqcd0","pricing_plan_id":"free"},{"bike_id":"0c879c7c-b478-4341-b557-d8fa9e7ce411","system_id":"levelo_inurba_marseille","lat":43.314811,"lon":5.373104,"is_reserved":false,"is_disabled":false,"rental_uris":{"android":"levelo://app?vid=0c879c7c-b478-4341-b557-d8fa9e7ce411","ios":"levelo://app?vid=0c879c7c-b478-4341-b557-d8fa9e7ce411"},"vehicle_type_id":"4","last_reported":1706406206,"current_range_meters":23600,"station_id":"ce4bgt12rcd13ifvqcd0","pricing_plan_id":"free"},{"bike_id":"a8ab23e8-1be9-448a-90f7-58b9fadc1511","system_id":"levelo_inurba_marseille","lat":43.314811,"lon":5.373103,"is_reserved":false,"is_disabled":false,"rental_uris":{"android":"levelo://app?vid=a8ab23e8-1be9-448a-90f7-58b9fadc1511","ios":"levelo://app?vid=a8ab23e8-1be9-448a-90f7-58b9fadc1511"},"vehicle_type_id":"4","last_reported":1706406206,"current_range_meters":26400,"station_id":"ce4bgt12rcd13ifvqcd0","pricing_plan_id":"free"},{"bike_id":"ff6c1c25-8287-4f32-9d54-133fa7cb156b","system_id":"levelo_inurba_marseille","lat":43.309039,"lon":5.371797,"is_reserved":false,"is_disabled":false,"rental_uris":{"android":"levelo://app?vid=ff6c1c25-8287-4f32-9d54-133fa7cb156b","ios":"levelo://app?vid=ff6c1c25-8287-4f32-9d54-133fa7cb156b"},"vehicle_type_id":"4","last_reported":1706406206,"current_range_meters":29200,"station_id":"ce4bguh2rcd13ifvqckg","pricing_plan_id":"free"},{"bike_id":"cf666fee-9862-40f0-8271-74852148745c","system_id":"levelo_inurba_marseille","lat":43.309039,"lon":5.371797,"is_reserved":false,"is_disabled":false,"rental_uris":{"android":"levelo://app?vid=cf666fee-9862-40f0-8271-74852148745c","ios":"levelo://app?vid=cf666fee-9862-40f0-8271-74852148745c"},"vehicle_type_id":"4","last_reported":1706406206,"current_range_meters":31200,"station_id":"ce4bguh2rcd13ifvqckg","pricing_plan_id":"free"},{"bike_id":"77af86a7-7d55-42b3-b724-50cb46cfcf7e","system_id":"levelo_inurba_marseille","lat":43.305989,"lon":5.37225,"is_reserved":false,"is_disabled":false,"rental_uris":{"android":"levelo://app?vid=77af86a7-7d55-42b3-b724-50cb46cfcf7e","ios":"levelo://app?vid=77af86a7-7d55-42b3-b724-50cb46cfcf7e"},"vehicle_type_id":"4","last_reported":1706406206,"current_range_meters":26400,"station_id":"ce4bgqh2rcd13ifvqc4g","pricing_plan_id":"free"},{"bike_id":"f1eef323-9b0a-40c6-9b53-c1bef0b22fb5","system_id":"levelo_inurba_marseille","lat":43.311125,"lon":5.377624,"is_reserved":false,"is_disabled":false,"rental_uris":{"android":"levelo://app?vid=f1eef323-9b0a-40c6-9b53-c1bef0b22fb5","ios":"levelo://app?vid=f1eef323-9b0a-40c6-9b53-c1bef0b22fb5"},"vehicle_type_id":"4","last_reported":1706406206,"current_range_meters":8800,"station_id":"ce4bgt92rcd13ifvqcg0","pricing_plan_id":"free"},{"bike_id":"6e19d4de-ff1c-4e58-80a6-330d99e0803a","system_id":"levelo_inurba_marseille","lat":43.311125,"lon":5.377624,"is_reserved":false,"is_disabled":false,"rental_uris":{"android":"levelo://app?vid=6e19d4de-ff1c-4e58-80a6-330d99e0803a","ios":"levelo://app?vid=6e19d4de-ff1c-4e58-80a6-330d99e0803a"},"vehicle_type_id":"4","last_reported":1706406206,"current_range_meters":1600,"station_id":"ce4bgt92rcd13ifvqcg0","pricing_plan_id":"free"},{"bike_id":"c3ef4456-7297-4a4e-b57d-b5df3a5a17aa","system_id":"levelo_inurba_marseille","lat":43.311125,"lon":5.377624,"is_reserved":false,"is_disabled":false,"rental_uris":{"android":"levelo://app?vid=c3ef4456-7297-4a4e-b57d-b5df3a5a17aa","ios":"levelo://app?vid=c3ef4456-7297-4a4e-b57d-b5df3a5a17aa"},"vehicle_type_id":"4","last_reported":1706406206,"current_range_meters":16800,"station_id":"ce4bgt92rcd13ifvqcg0","pricing_plan_id":"free"},{"bike_id":"7d034e6f-21a5-4e2f-bf5e-3f1ebc8c0d4a","system_id":"levelo_inurba_marseille","lat":43.311125,"lon":5.377624,"is_reserved":false,"is_disabled":false,"rental_uris":{"android":"levelo://app?vid=7d034e6f-21a5-4e2f-bf5e-3f1ebc8c0d4a","ios":"levelo://app?vid=7d034e6f-21a5-4e2f-bf5e-3f1ebc8c0d4a"},"vehicle_type_id":"4","last_reported":1706406206,"current_range_meters":12400,"station_id":"ce4bgt92rcd13ifvqcg0","pricing_plan_id":"free"},{"bike_id":"ba6af5b4-1271-4777-9152-dc646e1992bc","system_id":"levelo_inurba_marseille","lat":43.311125,"lon":5.377624,"is_reserved":false,"is_disabled":false,"rental_uris":{"android":"levelo://app?vid=ba6af5b4-1271-4777-9152-dc646e1992bc","ios":"levelo://app?vid=ba6af5b4-1271-4777-9152-dc646e1992bc"},"vehicle_type_id":"4","last_reported":1706406206,"current_range_meters":14800,"station_id":"ce4bgt92rcd13ifvqcg0","pricing_plan_id":"free"},{"bike_id":"da184317-2c21-476e-b578-c9a40d3883c2","system_id":"levelo_inurba_marseille","lat":43.311131,"lon":5.377651,"is_reserved":false,"is_disabled":false,"rental_uris":{"android":"levelo://app?vid=da184317-2c21-476e-b578-c9a40d3883c2","ios":"levelo://app?vid=da184317-2c21-476e-b578-c9a40d3883c2"},"vehicle_type_id":"4","last_reported":1706406206,"current_range_meters":0,"station_id":"ce4bgt92rcd13ifvqcg0","pricing_plan_id":"free"},{"bike_id":"4bc0ee1b-819f-491e-bfa5-db52d7cf9445","system_id":"levelo_inurba_marseille","lat":43.311131,"lon":5.377651,"is_reserved":false,"is_disabled":false,"rental_uris":{"android":"levelo://app?vid=4bc0ee1b-819f-491e-bfa5-db52d7cf9445","ios":"levelo://app?vid=4bc0ee1b-819f-491e-bfa5-db52d7cf9445"},"vehicle_type_id":"4","last_reported":1706406206,"current_range_meters":10800,"station_id":"ce4bgt92rcd13ifvqcg0","pricing_plan_id":"free"},{"bike_id":"bff2f768-032b-40b3-bc87-f4d05864a143","system_id":"levelo_inurba_marseille","lat":43.307945,"lon":5.376487,"is_reserved":false,"is_disabled":false,"rental_uris":{"android":"levelo://app?vid=bff2f768-032b-40b3-bc87-f4d05864a143","ios":"levelo://app?vid=bff2f768-032b-40b3-bc87-f4d05864a143"},"vehicle_type_id":"4","last_reported":1706406206,"current_range_meters":24800,"station_id":"ce4bgv92rcd13ifvqcq0","pricing_plan_id":"free"},{"bike_id":"4805029b-b495-4c2a-9699-25b9c84d94f3","system_id":"levelo_inurba_marseille","lat":43.317075,"lon":5.377367,"is_reserved":false,"is_disabled":false,"rental_uris":{"android":"levelo://app?vid=4805029b-b495-4c2a-9699-25b9c84d94f3","ios":"levelo://app?vid=4805029b-b495-4c2a-9699-25b9c84d94f3"},"vehicle_type_id":"4","last_reported":1706406206,"current_range_meters":22800,"station_id":"ce4bgth2rcd13ifvqch0","pricing_plan_id":"free"},{"bike_id":"e6c874a7-4c53-46c7-b3b9-101410bd4b5b","system_id":"levelo_inurba_marseille","lat":43.317075,"lon":5.377367,"is_reserved":false,"is_disabled":false,"rental_uris":{"android":"levelo://app?vid=e6c874a7-4c53-46c7-b3b9-101410bd4b5b","ios":"levelo://app?vid=e6c874a7-4c53-46c7-b3b9-101410bd4b5b"},"vehicle_type_id":"4","last_reported":1706406206,"current_range_meters":26800,"station_id":"ce4bgth2rcd13ifvqch0","pricing_plan_id":"free"},{"bike_id":"bf70306f-e475-47ca-8724-a7e42b25d923","system_id":"levelo_inurba_marseille","lat":43.317075,"lon":5.377367,"is_reserved":false,"is_disabled":false,"rental_uris":{"android":"levelo://app?vid=bf70306f-e475-47ca-8724-a7e42b25d923","ios":"levelo://app?vid=bf70306f-e475-47ca-8724-a7e42b25d923"},"vehicle_type_id":"4","last_reported":1706406206,"current_range_meters":30000,"station_id":"ce4bgth2rcd13ifvqch0","pricing_plan_id":"free"},{"bike_id":"6fff0b7d-2514-4e0c-a138-b6e9cb85be95","system_id":"levelo_inurba_marseille","lat":43.317075,"lon":5.377367,"is_reserved":false,"is_disabled":false,"rental_uris":{"android":"levelo://app?vid=6fff0b7d-2514-4e0c-a138-b6e9cb85be95","ios":"levelo://app?vid=6fff0b7d-2514-4e0c-a138-b6e9cb85be95"},"vehicle_type_id":"4","last_reported":1706406206,"current_range_meters":31200,"station_id":"ce4bgth2rcd13ifvqch0","pricing_plan_id":"free"},{"bike_id":"f0c31732-301a-4d0f-9fd3-25ad0ecb4b3c","system_id":"levelo_inurba_marseille","lat":43.317075,"lon":5.377367,"is_reserved":false,"is_disabled":false,"rental_uris":{"android":"levelo://app?vid=f0c31732-301a-4d0f-9fd3-25ad0ecb4b3c","ios":"levelo://app?vid=f0c31732-301a-4d0f-9fd3-25ad0ecb4b3c"},"vehicle_type_id":"4","last_reported":1706406206,"current_range_meters":11600,"station_id":"ce4bgth2rcd13ifvqch0","pricing_plan_id":"free"},{"bike_id":"b83daeb9-a39c-4884-86e2-16a37c651f7f","system_id":"levelo_inurba_marseille","lat":43.32002,"lon":5.376196,"is_reserved":false,"is_disabled":false,"rental_uris":{"android":"levelo://app?vid=b83daeb9-a39c-4884-86e2-16a37c651f7f","ios":"levelo://app?vid=b83daeb9-a39c-4884-86e2-16a37c651f7f"},"vehicle_type_id":"4","last_reported":1706406206,"current_range_meters":8400,"station_id":"","pricing_plan_id":"free"},{"bike_id":"2b9973b9-e21f-458a-9e13-6cc909633bbf","system_id":"levelo_inurba_marseille","lat":43.315345,"lon":5.380323,"is_reserved":false,"is_disabled":false,"rental_uris":{"android":"levelo://app?vid=2b9973b9-e21f-458a-9e13-6cc909633bbf","ios":"levelo://app?vid=2b9973b9-e21f-458a-9e13-6cc909633bbf"},"vehicle_type_id":"4","last_reported":1706406206,"current_range_meters":0,"station_id":"ce4bhsp2rcd13ifvqi50","pricing_plan_id":"free"},{"bike_id":"87925675-054b-44af-85e0-866843b85e48","system_id":"levelo_inurba_marseille","lat":43.301939,"lon":5.366286,"is_reserved":false,"is_disabled":false,"rental_uris":{"android":"levelo://app?vid=87925675-054b-44af-85e0-866843b85e48","ios":"levelo://app?vid=87925675-054b-44af-85e0-866843b85e48"},"vehicle_type_id":"4","last_reported":1706406206,"current_range_meters":10800,"station_id":"ce4bgrh2rcd13ifvqc8g","pricing_plan_id":"free"},{"bike_id":"968bc061-ca02-492d-aac5-0816c334266e","system_id":"levelo_inurba_marseille","lat":43.308012,"lon":5.381511,"is_reserved":false,"is_disabled":false,"rental_uris":{"android":"levelo://app?vid=968bc061-ca02-492d-aac5-0816c334266e","ios":"levelo://app?vid=968bc061-ca02-492d-aac5-0816c334266e"},"vehicle_type_id":"4","last_reported":1706406206,"current_range_meters":22000,"station_id":"ce4bgt12rcd13ifvqce0","pricing_plan_id":"free"},{"bike_id":"dc00bdf8-dc57-4b02-8d44-8ea4906debe3","system_id":"levelo_inurba_marseille","lat":43.324771,"lon":5.36557,"is_reserved":false,"is_disabled":false,"rental_uris":{"android":"levelo://app?vid=dc00bdf8-dc57-4b02-8d44-8ea4906debe3","ios":"levelo://app?vid=dc00bdf8-dc57-4b02-8d44-8ea4906debe3"},"vehicle_type_id":"4","last_reported":1706406206,"current_range_meters":7600,"station_id":"ce4bhs12rcd13ifvqhvg","pricing_plan_id":"free"},{"bike_id":"1aa02228-2f1b-463e-8efd-48a87ba76624","system_id":"levelo_inurba_marseille","lat":43.324771,"lon":5.36557,"is_reserved":false,"is_disabled":false,"rental_uris":{"android":"levelo://app?vid=1aa02228-2f1b-463e-8efd-48a87ba76624","ios":"levelo://app?vid=1aa02228-2f1b-463e-8efd-48a87ba76624"},"vehicle_type_id":"4","last_reported":1706406206,"current_range_meters":5200,"station_id":"ce4bhs12rcd13ifvqhvg","pricing_plan_id":"free"},{"bike_id":"3a3a59d3-87fb-406b-bb04-d1c39f656673","system_id":"levelo_inurba_marseille","lat":43.324771,"lon":5.36557,"is_reserved":false,"is_disabled":false,"rental_uris":{"android":"levelo://app?vid=3a3a59d3-87fb-406b-bb04-d1c39f656673","ios":"levelo://app?vid=3a3a59d3-87fb-406b-bb04-d1c39f656673"},"vehicle_type_id":"4","last_reported":1706406206,"current_range_meters":4400,"station_id":"ce4bhs12rcd13ifvqhvg","pricing_plan_id":"free"},{"bike_id":"572ead1e-c9a7-4b4c-9333-47a5d41db3fb","system_id":"levelo_inurba_marseille","lat":43.301429,"lon":5.37413,"is_reserved":false,"is_disabled":false,"rental_uris":{"android":"levelo://app?vid=572ead1e-c9a7-4b4c-9333-47a5d41db3fb","ios":"levelo://app?vid=572ead1e-c9a7-4b4c-9333-47a5d41db3fb"},"vehicle_type_id":"4","last_reported":1706406206,"current_range_meters":21600,"station_id":"ce4bgs92rcd13ifvqcc0","pricing_plan_id":"free"},{"bike_id":"6c121b79-46d9-4eb0-b3b6-ae9fe8e5830e","system_id":"levelo_inurba_marseille","lat":43.319935,"lon":5.381699,"is_reserved":false,"is_disabled":false,"rental_uris":{"android":"levelo://app?vid=6c121b79-46d9-4eb0-b3b6-ae9fe8e5830e","ios":"levelo://app?vid=6c121b79-46d9-4eb0-b3b6-ae9fe8e5830e"},"vehicle_type_id":"4","last_reported":1706406206,"current_range_meters":6800,"station_id":"ce4bhr12rcd13ifvqhpg","pricing_plan_id":"free"},{"bike_id":"ae7ab608-8fac-4c0d-9f43-8ffacb07a49d","system_id":"levelo_inurba_marseille","lat":43.319935,"lon":5.381699,"is_reserved":false,"is_disabled":false,"rental_uris":{"android":"levelo://app?vid=ae7ab608-8fac-4c0d-9f43-8ffacb07a49d","ios":"levelo://app?vid=ae7ab608-8fac-4c0d-9f43-8ffacb07a49d"},"vehicle_type_id":"4","last_reported":1706406206,"current_range_meters":0,"station_id":"ce4bhr12rcd13ifvqhpg","pricing_plan_id":"free"},{"bike_id":"d2cbe288-8985-4cce-b5c3-d46fd623cff4","system_id":"levelo_inurba_marseille","lat":43.313571,"lon":5.384829,"is_reserved":false,"is_disabled":false,"rental_uris":{"android":"levelo://app?vid=d2cbe288-8985-4cce-b5c3-d46fd623cff4","ios":"levelo://app?vid=d2cbe288-8985-4cce-b5c3-d46fd623cff4"},"vehicle_type_id":"4","last_reported":1706406206,"current_range_meters":4800,"station_id":"ce4bgt92rcd13ifvqcf0","pricing_plan_id":"free"},{"bike_id":"26cb35d1-635c-478b-94a3-233dc149aa8d","system_id":"levelo_inurba_marseille","lat":43.313571,"lon":5.384829,"is_reserved":false,"is_disabled":false,"rental_uris":{"android":"levelo://app?vid=26cb35d1-635c-478b-94a3-233dc149aa8d","ios":"levelo://app?vid=26cb35d1-635c-478b-94a3-233dc149aa8d"},"vehicle_type_id":"4","last_reported":1706406206,"current_range_meters":24000,"station_id":"ce4bgt92rcd13ifvqcf0","pricing_plan_id":"free"},{"bike_id":"1422567d-1a07-4519-80c2-70e237b7c84c","system_id":"levelo_inurba_marseille","lat":43.313571,"lon":5.384829,"is_reserved":false,"is_disabled":false,"rental_uris":{"android":"levelo://app?vid=1422567d-1a07-4519-80c2-70e237b7c84c","ios":"levelo://app?vid=1422567d-1a07-4519-80c2-70e237b7c84c"},"vehicle_type_id":"4","last_reported":1706406206,"current_range_meters":5200,"station_id":"ce4bgt92rcd13ifvqcf0","pricing_plan_id":"free"},{"bike_id":"a031f7f2-8ccc-467c-bf8e-0a0451d72a88","system_id":"levelo_inurba_marseille","lat":43.313571,"lon":5.384829,"is_reserved":false,"is_disabled":false,"rental_uris":{"android":"levelo://app?vid=a031f7f2-8ccc-467c-bf8e-0a0451d72a88","ios":"levelo://app?vid=a031f7f2-8ccc-467c-bf8e-0a0451d72a88"},"vehicle_type_id":"4","last_reported":1706406206,"current_range_meters":8400,"station_id":"ce4bgt92rcd13ifvqcf0","pricing_plan_id":"free"},{"bike_id":"e5857861-98fb-4eb4-871e-3caec3ede952","system_id":"levelo_inurba_marseille","lat":43.313571,"lon":5.384829,"is_reserved":false,"is_disabled":false,"rental_uris":{"android":"levelo://app?vid=e5857861-98fb-4eb4-871e-3caec3ede952","ios":"levelo://app?vid=e5857861-98fb-4eb4-871e-3caec3ede952"},"vehicle_type_id":"4","last_reported":1706406206,"current_range_meters":18800,"station_id":"ce4bgt92rcd13ifvqcf0","pricing_plan_id":"free"},{"bike_id":"595001ff-062e-4a42-88b5-3c525bb400d9","system_id":"levelo_inurba_marseille","lat":43.313571,"lon":5.384829,"is_reserved":false,"is_disabled":false,"rental_uris":{"android":"levelo://app?vid=595001ff-062e-4a42-88b5-3c525bb400d9","ios":"levelo://app?vid=595001ff-062e-4a42-88b5-3c525bb400d9"},"vehicle_type_id":"4","last_reported":1706406206,"current_range_meters":20000,"station_id":"ce4bgt92rcd13ifvqcf0","pricing_plan_id":"free"},{"bike_id":"3e5bf46e-a482-4055-9bc7-9fb9bd387462","system_id":"levelo_inurba_marseille","lat":43.313571,"lon":5.384829,"is_reserved":false,"is_disabled":false,"rental_uris":{"android":"levelo://app?vid=3e5bf46e-a482-4055-9bc7-9fb9bd387462","ios":"levelo://app?vid=3e5bf46e-a482-4055-9bc7-9fb9bd387462"},"vehicle_type_id":"4","last_reported":1706406206,"current_range_meters":0,"station_id":"ce4bgt92rcd13ifvqcf0","pricing_plan_id":"free"},{"bike_id":"dbd66841-66ce-4894-81be-8c2eb1a70973","system_id":"levelo_inurba_marseille","lat":43.31367,"lon":5.38501,"is_reserved":false,"is_disabled":false,"rental_uris":{"android":"levelo://app?vid=dbd66841-66ce-4894-81be-8c2eb1a70973","ios":"levelo://app?vid=dbd66841-66ce-4894-81be-8c2eb1a70973"},"vehicle_type_id":"4","last_reported":1706406206,"current_range_meters":7200,"station_id":"ce4bgt92rcd13ifvqcf0","pricing_plan_id":"free"},{"bike_id":"86bb8620-800e-42ac-822b-6790e332425c","system_id":"levelo_inurba_marseille","lat":43.31185,"lon":5.3871,"is_reserved":false,"is_disabled":false,"rental_uris":{"android":"levelo://app?vid=86bb8620-800e-42ac-822b-6790e332425c","ios":"levelo://app?vid=86bb8620-800e-42ac-822b-6790e332425c"},"vehicle_type_id":"4","last_reported":1706406206,"current_range_meters":10400,"station_id":"ce4bgv12rcd13ifvqcp0","pricing_plan_id":"free"},{"bike_id":"9dbedc0e-de93-49f0-9e8a-f31552902195","system_id":"levelo_inurba_marseille","lat":43.311667,"lon":5.387088,"is_reserved":false,"is_disabled":false,"rental_uris":{"android":"levelo://app?vid=9dbedc0e-de93-49f0-9e8a-f31552902195","ios":"levelo://app?vid=9dbedc0e-de93-49f0-9e8a-f31552902195"},"vehicle_type_id":"4","last_reported":1706406206,"current_range_meters":0,"station_id":"ce4bgv12rcd13ifvqcp0","pricing_plan_id":"free"},{"bike_id":"f64f0aa9-2cf4-403d-9995-e177012873b3","system_id":"levelo_inurba_marseille","lat":43.311722,"lon":5.387247,"is_reserved":false,"is_disabled":false,"rental_uris":{"android":"levelo://app?vid=f64f0aa9-2cf4-403d-9995-e177012873b3","ios":"levelo://app?vid=f64f0aa9-2cf4-403d-9995-e177012873b3"},"vehicle_type_id":"4","last_reported":1706406206,"current_range_meters":19600,"station_id":"ce4bgv12rcd13ifvqcp0","pricing_plan_id":"free"},{"bike_id":"2546b2d2-d62b-4a99-8f3a-f7ffa5b9c698","system_id":"levelo_inurba_marseille","lat":43.311722,"lon":5.387247,"is_reserved":false,"is_disabled":false,"rental_uris":{"android":"levelo://app?vid=2546b2d2-d62b-4a99-8f3a-f7ffa5b9c698","ios":"levelo://app?vid=2546b2d2-d62b-4a99-8f3a-f7ffa5b9c698"},"vehicle_type_id":"4","last_reported":1706406206,"current_range_meters":20800,"station_id":"ce4bgv12rcd13ifvqcp0","pricing_plan_id":"free"},{"bike_id":"60ea6a32-1d51-4ced-bc2a-23f19147b3cb","system_id":"levelo_inurba_marseille","lat":43.311722,"lon":5.387247,"is_reserved":false,"is_disabled":false,"rental_uris":{"android":"levelo://app?vid=60ea6a32-1d51-4ced-bc2a-23f19147b3cb","ios":"levelo://app?vid=60ea6a32-1d51-4ced-bc2a-23f19147b3cb"},"vehicle_type_id":"4","last_reported":1706406206,"current_range_meters":30800,"station_id":"ce4bgv12rcd13ifvqcp0","pricing_plan_id":"free"},{"bike_id":"965a5dab-e227-4efc-b518-9780186a9de9","system_id":"levelo_inurba_marseille","lat":43.322872,"lon":5.382756,"is_reserved":false,"is_disabled":false,"rental_uris":{"android":"levelo://app?vid=965a5dab-e227-4efc-b518-9780186a9de9","ios":"levelo://app?vid=965a5dab-e227-4efc-b518-9780186a9de9"},"vehicle_type_id":"4","last_reported":1706406206,"current_range_meters":28000,"station_id":"ce4bhr12rcd13ifvqhqg","pricing_plan_id":"free"},{"bike_id":"a3b74381-0d58-448f-9a1c-2f1261e3769d","system_id":"levelo_inurba_marseille","lat":43.322872,"lon":5.382756,"is_reserved":false,"is_disabled":false,"rental_uris":{"android":"levelo://app?vid=a3b74381-0d58-448f-9a1c-2f1261e3769d","ios":"levelo://app?vid=a3b74381-0d58-448f-9a1c-2f1261e3769d"},"vehicle_type_id":"4","last_reported":1706406206,"current_range_meters":31200,"station_id":"ce4bhr12rcd13ifvqhqg","pricing_plan_id":"free"},{"bike_id":"188199aa-48aa-4e2a-b7b6-18eeba5126fb","system_id":"levelo_inurba_marseille","lat":43.322872,"lon":5.382756,"is_reserved":false,"is_disabled":false,"rental_uris":{"android":"levelo://app?vid=188199aa-48aa-4e2a-b7b6-18eeba5126fb","ios":"levelo://app?vid=188199aa-48aa-4e2a-b7b6-18eeba5126fb"},"vehicle_type_id":"4","last_reported":1706406206,"current_range_meters":15200,"station_id":"ce4bhr12rcd13ifvqhqg","pricing_plan_id":"free"},{"bike_id":"f333593b-a055-4773-b1bc-9da5ee05312e","system_id":"levelo_inurba_marseille","lat":43.322872,"lon":5.382756,"is_reserved":false,"is_disabled":false,"rental_uris":{"android":"levelo://app?vid=f333593b-a055-4773-b1bc-9da5ee05312e","ios":"levelo://app?vid=f333593b-a055-4773-b1bc-9da5ee05312e"},"vehicle_type_id":"4","last_reported":1706406206,"current_range_meters":31200,"station_id":"ce4bhr12rcd13ifvqhqg","pricing_plan_id":"free"},{"bike_id":"ab98e573-92e3-4c87-b938-e8306447ae15","system_id":"levelo_inurba_marseille","lat":43.322872,"lon":5.382756,"is_reserved":false,"is_disabled":false,"rental_uris":{"android":"levelo://app?vid=ab98e573-92e3-4c87-b938-e8306447ae15","ios":"levelo://app?vid=ab98e573-92e3-4c87-b938-e8306447ae15"},"vehicle_type_id":"4","last_reported":1706406206,"current_range_meters":26800,"station_id":"ce4bhr12rcd13ifvqhqg","pricing_plan_id":"free"},{"bike_id":"16eb086f-d449-4ebf-a8bf-5366f3f1e6ed","system_id":"levelo_inurba_marseille","lat":43.297163,"lon":5.365866,"is_reserved":false,"is_disabled":false,"rental_uris":{"android":"levelo://app?vid=16eb086f-d449-4ebf-a8bf-5366f3f1e6ed","ios":"levelo://app?vid=16eb086f-d449-4ebf-a8bf-5366f3f1e6ed"},"vehicle_type_id":"4","last_reported":1706406206,"current_range_meters":26000,"station_id":"ce4bgn12rcd13ifvqbt0","pricing_plan_id":"free"},{"bike_id":"12edd8fe-ac42-424b-86a0-ddbc64b4f114","system_id":"levelo_inurba_marseille","lat":43.32833,"lon":5.3669,"is_reserved":false,"is_disabled":false,"rental_uris":{"android":"levelo://app?vid=12edd8fe-ac42-424b-86a0-ddbc64b4f114","ios":"levelo://app?vid=12edd8fe-ac42-424b-86a0-ddbc64b4f114"},"vehicle_type_id":"4","last_reported":1706406206,"current_range_meters":15600,"station_id":"ce4bhs92rcd13ifvqi0g","pricing_plan_id":"free"},{"bike_id":"52d93b09-8ac2-4d59-97f7-57c9e1dac79c","system_id":"levelo_inurba_marseille","lat":43.297163,"lon":5.365866,"is_reserved":false,"is_disabled":false,"rental_uris":{"android":"levelo://app?vid=52d93b09-8ac2-4d59-97f7-57c9e1dac79c","ios":"levelo://app?vid=52d93b09-8ac2-4d59-97f7-57c9e1dac79c"},"vehicle_type_id":"4","last_reported":1706406206,"current_range_meters":20800,"station_id":"ce4bgn12rcd13ifvqbt0","pricing_plan_id":"free"},{"bike_id":"4ab9868d-627e-4be9-8871-185d069d035d","system_id":"levelo_inurba_marseille","lat":43.297163,"lon":5.365866,"is_reserved":false,"is_disabled":false,"rental_uris":{"android":"levelo://app?vid=4ab9868d-627e-4be9-8871-185d069d035d","ios":"levelo://app?vid=4ab9868d-627e-4be9-8871-185d069d035d"},"vehicle_type_id":"4","last_reported":1706406206,"current_range_meters":9600,"station_id":"ce4bgn12rcd13ifvqbt0","pricing_plan_id":"free"},{"bike_id":"af1c8fc0-8183-4d68-848c-9159b1d2bf45","system_id":"levelo_inurba_marseille","lat":43.328371,"lon":5.366909,"is_reserved":false,"is_disabled":false,"rental_uris":{"android":"levelo://app?vid=af1c8fc0-8183-4d68-848c-9159b1d2bf45","ios":"levelo://app?vid=af1c8fc0-8183-4d68-848c-9159b1d2bf45"},"vehicle_type_id":"4","last_reported":1706406206,"current_range_meters":18400,"station_id":"ce4bhs92rcd13ifvqi0g","pricing_plan_id":"free"},{"bike_id":"0fb9f2cf-9f6a-49ed-9661-b8566d2163f4","system_id":"levelo_inurba_marseille","lat":43.309589,"lon":5.390258,"is_reserved":false,"is_disabled":false,"rental_uris":{"android":"levelo://app?vid=0fb9f2cf-9f6a-49ed-9661-b8566d2163f4","ios":"levelo://app?vid=0fb9f2cf-9f6a-49ed-9661-b8566d2163f4"},"vehicle_type_id":"4","last_reported":1706406206,"current_range_meters":4000,"station_id":"ce4bgup2rcd13ifvqco0","pricing_plan_id":"free"},{"bike_id":"5849c8f1-de07-480c-ab10-c023b55280ba","system_id":"levelo_inurba_marseille","lat":43.322566,"lon":5.386846,"is_reserved":false,"is_disabled":false,"rental_uris":{"android":"levelo://app?vid=5849c8f1-de07-480c-ab10-c023b55280ba","ios":"levelo://app?vid=5849c8f1-de07-480c-ab10-c023b55280ba"},"vehicle_type_id":"4","last_reported":1706406206,"current_range_meters":0,"station_id":"","pricing_plan_id":"free"},{"bike_id":"003be8bb-e19b-4ce3-bebc-b9877864fa6b","system_id":"levelo_inurba_marseille","lat":43.317557,"lon":5.390173,"is_reserved":false,"is_disabled":false,"rental_uris":{"android":"levelo://app?vid=003be8bb-e19b-4ce3-bebc-b9877864fa6b","ios":"levelo://app?vid=003be8bb-e19b-4ce3-bebc-b9877864fa6b"},"vehicle_type_id":"4","last_reported":1706406206,"current_range_meters":23200,"station_id":"ce4bhqp2rcd13ifvqhng","pricing_plan_id":"free"},{"bike_id":"b389a9c8-f648-4890-bc50-528b648f5ce8","system_id":"levelo_inurba_marseille","lat":43.299745,"lon":5.384795,"is_reserved":false,"is_disabled":false,"rental_uris":{"android":"levelo://app?vid=b389a9c8-f648-4890-bc50-528b648f5ce8","ios":"levelo://app?vid=b389a9c8-f648-4890-bc50-528b648f5ce8"},"vehicle_type_id":"4","last_reported":1706406206,"current_range_meters":0,"station_id":"ce4bgj92rcd13ifvqbd0","pricing_plan_id":"free"},{"bike_id":"fd6dce2a-eb99-485b-a839-9d829db41d88","system_id":"levelo_inurba_marseille","lat":43.299707,"lon":5.384859,"is_reserved":false,"is_disabled":false,"rental_uris":{"android":"levelo://app?vid=fd6dce2a-eb99-485b-a839-9d829db41d88","ios":"levelo://app?vid=fd6dce2a-eb99-485b-a839-9d829db41d88"},"vehicle_type_id":"4","last_reported":1706406206,"current_range_meters":0,"station_id":"ce4bgj92rcd13ifvqbd0","pricing_plan_id":"free"},{"bike_id":"e98c1561-21a0-441d-9954-5e91311044ba","system_id":"levelo_inurba_marseille","lat":43.32367,"lon":5.388836,"is_reserved":false,"is_disabled":false,"rental_uris":{"android":"levelo://app?vid=e98c1561-21a0-441d-9954-5e91311044ba","ios":"levelo://app?vid=e98c1561-21a0-441d-9954-5e91311044ba"},"vehicle_type_id":"4","last_reported":1706406206,"current_range_meters":0,"station_id":"ce4bhqp2rcd13ifvqhog","pricing_plan_id":"free"},{"bike_id":"311f2bb5-da85-44fc-915b-153e21fa0c75","system_id":"levelo_inurba_marseille","lat":43.32367,"lon":5.388836,"is_reserved":false,"is_disabled":false,"rental_uris":{"android":"levelo://app?vid=311f2bb5-da85-44fc-915b-153e21fa0c75","ios":"levelo://app?vid=311f2bb5-da85-44fc-915b-153e21fa0c75"},"vehicle_type_id":"4","last_reported":1706406206,"current_range_meters":2400,"station_id":"ce4bhqp2rcd13ifvqhog","pricing_plan_id":"free"},{"bike_id":"74a6517a-2a3e-482c-abd3-6c87ed3b053b","system_id":"levelo_inurba_marseille","lat":43.32367,"lon":5.388836,"is_reserved":false,"is_disabled":false,"rental_uris":{"android":"levelo://app?vid=74a6517a-2a3e-482c-abd3-6c87ed3b053b","ios":"levelo://app?vid=74a6517a-2a3e-482c-abd3-6c87ed3b053b"},"vehicle_type_id":"4","last_reported":1706406206,"current_range_meters":0,"station_id":"ce4bhqp2rcd13ifvqhog","pricing_plan_id":"free"},{"bike_id":"621b2eaf-5b1b-4a8a-bdab-8203d983b142","system_id":"levelo_inurba_marseille","lat":43.32367,"lon":5.388836,"is_reserved":false,"is_disabled":false,"rental_uris":{"android":"levelo://app?vid=621b2eaf-5b1b-4a8a-bdab-8203d983b142","ios":"levelo://app?vid=621b2eaf-5b1b-4a8a-bdab-8203d983b142"},"vehicle_type_id":"4","last_reported":1706406206,"current_range_meters":16000,"station_id":"ce4bhqp2rcd13ifvqhog","pricing_plan_id":"free"},{"bike_id":"36fdf3a9-6637-4abe-9106-b80fdb7b6025","system_id":"levelo_inurba_marseille","lat":43.32367,"lon":5.388836,"is_reserved":false,"is_disabled":false,"rental_uris":{"android":"levelo://app?vid=36fdf3a9-6637-4abe-9106-b80fdb7b6025","ios":"levelo://app?vid=36fdf3a9-6637-4abe-9106-b80fdb7b6025"},"vehicle_type_id":"4","last_reported":1706406206,"current_range_meters":16000,"station_id":"ce4bhqp2rcd13ifvqhog","pricing_plan_id":"free"},{"bike_id":"3654ffe5-d330-4f22-b55f-81d4ad923fcf","system_id":"levelo_inurba_marseille","lat":43.295919,"lon":5.381006,"is_reserved":false,"is_disabled":false,"rental_uris":{"android":"levelo://app?vid=3654ffe5-d330-4f22-b55f-81d4ad923fcf","ios":"levelo://app?vid=3654ffe5-d330-4f22-b55f-81d4ad923fcf"},"vehicle_type_id":"4","last_reported":1706406206,"current_range_meters":0,"station_id":"ce4bgl12rcd13ifvqbo0","pricing_plan_id":"free"},{"bike_id":"c0674ec5-427c-40e6-9753-48dc6dac4a32","system_id":"levelo_inurba_marseille","lat":43.293,"lon":5.37178,"is_reserved":false,"is_disabled":false,"rental_uris":{"android":"levelo://app?vid=c0674ec5-427c-40e6-9753-48dc6dac4a32","ios":"levelo://app?vid=c0674ec5-427c-40e6-9753-48dc6dac4a32"},"vehicle_type_id":"4","last_reported":1706406206,"current_range_meters":0,"station_id":"ce4bgh92rcd13ifvqb40","pricing_plan_id":"free"},{"bike_id":"9f1d5f02-5e69-4afb-9572-a4ac22ad15c3","system_id":"levelo_inurba_marseille","lat":43.293022,"lon":5.374507,"is_reserved":false,"is_disabled":false,"rental_uris":{"android":"levelo://app?vid=9f1d5f02-5e69-4afb-9572-a4ac22ad15c3","ios":"levelo://app?vid=9f1d5f02-5e69-4afb-9572-a4ac22ad15c3"},"vehicle_type_id":"4","last_reported":1706406206,"current_range_meters":0,"station_id":"ce4bgi12rcd13ifvqb70","pricing_plan_id":"free"},{"bike_id":"1bb3bb59-2ab1-41b1-a4b3-06d622b685db","system_id":"levelo_inurba_marseille","lat":43.298825,"lon":5.38902,"is_reserved":false,"is_disabled":false,"rental_uris":{"android":"levelo://app?vid=1bb3bb59-2ab1-41b1-a4b3-06d622b685db","ios":"levelo://app?vid=1bb3bb59-2ab1-41b1-a4b3-06d622b685db"},"vehicle_type_id":"4","last_reported":1706406206,"current_range_meters":2400,"station_id":"ce4bh392rcd13ifvqdl0","pricing_plan_id":"free"},{"bike_id":"350b1c12-f01b-4e76-b7e5-c2b800e68838","system_id":"levelo_inurba_marseille","lat":43.313291,"lon":5.396838,"is_reserved":false,"is_disabled":false,"rental_uris":{"android":"levelo://app?vid=350b1c12-f01b-4e76-b7e5-c2b800e68838","ios":"levelo://app?vid=350b1c12-f01b-4e76-b7e5-c2b800e68838"},"vehicle_type_id":"4","last_reported":1706406206,"current_range_meters":20800,"station_id":"ce4bgvp2rcd13ifvqcu0","pricing_plan_id":"free"},{"bike_id":"b28e11c3-f4fb-4688-9428-99a3a01b5406","system_id":"levelo_inurba_marseille","lat":43.30878,"lon":5.39639,"is_reserved":false,"is_disabled":false,"rental_uris":{"android":"levelo://app?vid=b28e11c3-f4fb-4688-9428-99a3a01b5406","ios":"levelo://app?vid=b28e11c3-f4fb-4688-9428-99a3a01b5406"},"vehicle_type_id":"4","last_reported":1706406206,"current_range_meters":30000,"station_id":"ce4bh012rcd13ifvqcv0","pricing_plan_id":"free"},{"bike_id":"fa8d2ce1-c852-46c4-95ab-6f83fb06bf7b","system_id":"levelo_inurba_marseille","lat":43.309047,"lon":5.396551,"is_reserved":false,"is_disabled":false,"rental_uris":{"android":"levelo://app?vid=fa8d2ce1-c852-46c4-95ab-6f83fb06bf7b","ios":"levelo://app?vid=fa8d2ce1-c852-46c4-95ab-6f83fb06bf7b"},"vehicle_type_id":"4","last_reported":1706406206,"current_range_meters":22400,"station_id":"ce4bh012rcd13ifvqcv0","pricing_plan_id":"free"},{"bike_id":"1c2f4dfb-e9af-4d96-9753-6f479653e589","system_id":"levelo_inurba_marseille","lat":43.313291,"lon":5.396838,"is_reserved":false,"is_disabled":false,"rental_uris":{"android":"levelo://app?vid=1c2f4dfb-e9af-4d96-9753-6f479653e589","ios":"levelo://app?vid=1c2f4dfb-e9af-4d96-9753-6f479653e589"},"vehicle_type_id":"4","last_reported":1706406206,"current_range_meters":24800,"station_id":"ce4bgvp2rcd13ifvqcu0","pricing_plan_id":"free"},{"bike_id":"df4b9df1-5216-4645-a198-552ee6e763d1","system_id":"levelo_inurba_marseille","lat":43.309047,"lon":5.396551,"is_reserved":false,"is_disabled":false,"rental_uris":{"android":"levelo://app?vid=df4b9df1-5216-4645-a198-552ee6e763d1","ios":"levelo://app?vid=df4b9df1-5216-4645-a198-552ee6e763d1"},"vehicle_type_id":"4","last_reported":1706406206,"current_range_meters":19200,"station_id":"ce4bh012rcd13ifvqcv0","pricing_plan_id":"free"},{"bike_id":"841a47e1-89ae-4544-a907-6b7c3ab89792","system_id":"levelo_inurba_marseille","lat":43.309047,"lon":5.396551,"is_reserved":false,"is_disabled":false,"rental_uris":{"android":"levelo://app?vid=841a47e1-89ae-4544-a907-6b7c3ab89792","ios":"levelo://app?vid=841a47e1-89ae-4544-a907-6b7c3ab89792"},"vehicle_type_id":"4","last_reported":1706406206,"current_range_meters":25600,"station_id":"ce4bh012rcd13ifvqcv0","pricing_plan_id":"free"},{"bike_id":"c566c3a7-8ed1-470a-b229-ec3971106c14","system_id":"levelo_inurba_marseille","lat":43.302008,"lon":5.394694,"is_reserved":false,"is_disabled":false,"rental_uris":{"android":"levelo://app?vid=c566c3a7-8ed1-470a-b229-ec3971106c14","ios":"levelo://app?vid=c566c3a7-8ed1-470a-b229-ec3971106c14"},"vehicle_type_id":"4","last_reported":1706406206,"current_range_meters":5600,"station_id":"ce4bh0p2rcd13ifvqd70","pricing_plan_id":"free"},{"bike_id":"f7ee8f29-f6e4-4ae8-8aa5-c5379c233935","system_id":"levelo_inurba_marseille","lat":43.290631,"lon":5.359244,"is_reserved":false,"is_disabled":false,"rental_uris":{"android":"levelo://app?vid=f7ee8f29-f6e4-4ae8-8aa5-c5379c233935","ios":"levelo://app?vid=f7ee8f29-f6e4-4ae8-8aa5-c5379c233935"},"vehicle_type_id":"4","last_reported":1706406206,"current_range_meters":6400,"station_id":"ce4bha92rcd13ifvqeg0","pricing_plan_id":"free"},{"bike_id":"a7d85f0f-61ee-4761-a65e-c26e4b7cb4e7","system_id":"levelo_inurba_marseille","lat":43.290441,"lon":5.359123,"is_reserved":false,"is_disabled":false,"rental_uris":{"android":"levelo://app?vid=a7d85f0f-61ee-4761-a65e-c26e4b7cb4e7","ios":"levelo://app?vid=a7d85f0f-61ee-4761-a65e-c26e4b7cb4e7"},"vehicle_type_id":"4","last_reported":1706406206,"current_range_meters":27600,"station_id":"","pricing_plan_id":"free"},{"bike_id":"a689c62a-4e18-43ac-8d0b-330fa5425571","system_id":"levelo_inurba_marseille","lat":43.289184,"lon":5.366408,"is_reserved":false,"is_disabled":false,"rental_uris":{"android":"levelo://app?vid=a689c62a-4e18-43ac-8d0b-330fa5425571","ios":"levelo://app?vid=a689c62a-4e18-43ac-8d0b-330fa5425571"},"vehicle_type_id":"4","last_reported":1706406206,"current_range_meters":23600,"station_id":"ce4bhap2rcd13ifvqek0","pricing_plan_id":"free"},{"bike_id":"228412ad-2d09-4223-a5c3-75adc21e8f99","system_id":"levelo_inurba_marseille","lat":43.292644,"lon":5.384257,"is_reserved":false,"is_disabled":false,"rental_uris":{"android":"levelo://app?vid=228412ad-2d09-4223-a5c3-75adc21e8f99","ios":"levelo://app?vid=228412ad-2d09-4223-a5c3-75adc21e8f99"},"vehicle_type_id":"4","last_reported":1706406206,"current_range_meters":25600,"station_id":"ce4bh692rcd13ifvqea0","pricing_plan_id":"free"},{"bike_id":"ea6ecdee-99e5-44a7-93c1-cfe6347a8b16","system_id":"levelo_inurba_marseille","lat":43.292642,"lon":5.384254,"is_reserved":false,"is_disabled":false,"rental_uris":{"android":"levelo://app?vid=ea6ecdee-99e5-44a7-93c1-cfe6347a8b16","ios":"levelo://app?vid=ea6ecdee-99e5-44a7-93c1-cfe6347a8b16"},"vehicle_type_id":"4","last_reported":1706406206,"current_range_meters":22400,"station_id":"ce4bh692rcd13ifvqea0","pricing_plan_id":"free"},{"bike_id":"75fda5e3-c5f5-48ed-a594-766c7662fd62","system_id":"levelo_inurba_marseille","lat":43.292644,"lon":5.384257,"is_reserved":false,"is_disabled":false,"rental_uris":{"android":"levelo://app?vid=75fda5e3-c5f5-48ed-a594-766c7662fd62","ios":"levelo://app?vid=75fda5e3-c5f5-48ed-a594-766c7662fd62"},"vehicle_type_id":"4","last_reported":1706406206,"current_range_meters":20000,"station_id":"ce4bh692rcd13ifvqea0","pricing_plan_id":"free"},{"bike_id":"59e02cdd-baf5-40b9-aa17-f77e9d38b52a","system_id":"levelo_inurba_marseille","lat":43.29781,"lon":5.3934,"is_reserved":false,"is_disabled":false,"rental_uris":{"android":"levelo://app?vid=59e02cdd-baf5-40b9-aa17-f77e9d38b52a","ios":"levelo://app?vid=59e02cdd-baf5-40b9-aa17-f77e9d38b52a"},"vehicle_type_id":"4","last_reported":1706406206,"current_range_meters":21200,"station_id":"chh1huq6cuj3fo74tm60","pricing_plan_id":"free"},{"bike_id":"eaba0230-97b4-4bf4-a22f-856e0c9c0e8c","system_id":"levelo_inurba_marseille","lat":43.295169,"lon":5.390426,"is_reserved":false,"is_disabled":false,"rental_uris":{"android":"levelo://app?vid=eaba0230-97b4-4bf4-a22f-856e0c9c0e8c","ios":"levelo://app?vid=eaba0230-97b4-4bf4-a22f-856e0c9c0e8c"},"vehicle_type_id":"4","last_reported":1706406206,"current_range_meters":0,"station_id":"ce4bh3p2rcd13ifvqdp0","pricing_plan_id":"free"},{"bike_id":"b817dae8-e974-4baf-b464-3d98d32c1a4b","system_id":"levelo_inurba_marseille","lat":43.295169,"lon":5.390426,"is_reserved":false,"is_disabled":false,"rental_uris":{"android":"levelo://app?vid=b817dae8-e974-4baf-b464-3d98d32c1a4b","ios":"levelo://app?vid=b817dae8-e974-4baf-b464-3d98d32c1a4b"},"vehicle_type_id":"4","last_reported":1706406206,"current_range_meters":4400,"station_id":"ce4bh3p2rcd13ifvqdp0","pricing_plan_id":"free"},{"bike_id":"42020821-491a-4ceb-aab1-e085b81fe3bc","system_id":"levelo_inurba_marseille","lat":43.28856,"lon":5.358371,"is_reserved":false,"is_disabled":false,"rental_uris":{"android":"levelo://app?vid=42020821-491a-4ceb-aab1-e085b81fe3bc","ios":"levelo://app?vid=42020821-491a-4ceb-aab1-e085b81fe3bc"},"vehicle_type_id":"4","last_reported":1706406206,"current_range_meters":11200,"station_id":"ce4bhb12rcd13ifvqem0","pricing_plan_id":"free"},{"bike_id":"1e1c7898-d4fe-4b55-a2ed-059a9ce5ada8","system_id":"levelo_inurba_marseille","lat":43.28856,"lon":5.358371,"is_reserved":false,"is_disabled":false,"rental_uris":{"android":"levelo://app?vid=1e1c7898-d4fe-4b55-a2ed-059a9ce5ada8","ios":"levelo://app?vid=1e1c7898-d4fe-4b55-a2ed-059a9ce5ada8"},"vehicle_type_id":"4","last_reported":1706406206,"current_range_meters":17200,"station_id":"ce4bhb12rcd13ifvqem0","pricing_plan_id":"free"},{"bike_id":"a563cdbf-78b8-441c-8dce-8da1c3325b92","system_id":"levelo_inurba_marseille","lat":43.33749,"lon":5.37463,"is_reserved":false,"is_disabled":false,"rental_uris":{"android":"levelo://app?vid=a563cdbf-78b8-441c-8dce-8da1c3325b92","ios":"levelo://app?vid=a563cdbf-78b8-441c-8dce-8da1c3325b92"},"vehicle_type_id":"4","last_reported":1706406206,"current_range_meters":16000,"station_id":"","pricing_plan_id":"free"},{"bike_id":"9a0b4596-57e1-4315-b9a1-f6d035b7fe91","system_id":"levelo_inurba_marseille","lat":43.306412,"lon":5.401035,"is_reserved":false,"is_disabled":false,"rental_uris":{"android":"levelo://app?vid=9a0b4596-57e1-4315-b9a1-f6d035b7fe91","ios":"levelo://app?vid=9a0b4596-57e1-4315-b9a1-f6d035b7fe91"},"vehicle_type_id":"4","last_reported":1706406206,"current_range_meters":26400,"station_id":"ce4bh112rcd13ifvqda0","pricing_plan_id":"free"},{"bike_id":"08680923-4269-4836-9368-1481d689a0fe","system_id":"levelo_inurba_marseille","lat":43.309371,"lon":5.401449,"is_reserved":false,"is_disabled":false,"rental_uris":{"android":"levelo://app?vid=08680923-4269-4836-9368-1481d689a0fe","ios":"levelo://app?vid=08680923-4269-4836-9368-1481d689a0fe"},"vehicle_type_id":"4","last_reported":1706406206,"current_range_meters":9200,"station_id":"ce4bgvp2rcd13ifvqct0","pricing_plan_id":"free"},{"bike_id":"2fe24097-b1c2-4583-ba1f-cf8501171a4c","system_id":"levelo_inurba_marseille","lat":43.337513,"lon":5.375041,"is_reserved":false,"is_disabled":false,"rental_uris":{"android":"levelo://app?vid=2fe24097-b1c2-4583-ba1f-cf8501171a4c","ios":"levelo://app?vid=2fe24097-b1c2-4583-ba1f-cf8501171a4c"},"vehicle_type_id":"4","last_reported":1706406206,"current_range_meters":14000,"station_id":"","pricing_plan_id":"free"},{"bike_id":"6a4cda04-8a10-4b2c-89d8-c6fab204537e","system_id":"levelo_inurba_marseille","lat":43.300592,"lon":5.397726,"is_reserved":false,"is_disabled":false,"rental_uris":{"android":"levelo://app?vid=6a4cda04-8a10-4b2c-89d8-c6fab204537e","ios":"levelo://app?vid=6a4cda04-8a10-4b2c-89d8-c6fab204537e"},"vehicle_type_id":"4","last_reported":1706406206,"current_range_meters":16400,"station_id":"","pricing_plan_id":"free"},{"bike_id":"02cc1ce4-717f-4b60-a8ae-e32a4e8fb56c","system_id":"levelo_inurba_marseille","lat":43.33759,"lon":5.37486,"is_reserved":false,"is_disabled":false,"rental_uris":{"android":"levelo://app?vid=02cc1ce4-717f-4b60-a8ae-e32a4e8fb56c","ios":"levelo://app?vid=02cc1ce4-717f-4b60-a8ae-e32a4e8fb56c"},"vehicle_type_id":"4","last_reported":1706406206,"current_range_meters":9600,"station_id":"","pricing_plan_id":"free"},{"bike_id":"b7f12eab-e0a6-499e-87ec-2b4381c4602a","system_id":"levelo_inurba_marseille","lat":43.337578,"lon":5.374944,"is_reserved":false,"is_disabled":false,"rental_uris":{"android":"levelo://app?vid=b7f12eab-e0a6-499e-87ec-2b4381c4602a","ios":"levelo://app?vid=b7f12eab-e0a6-499e-87ec-2b4381c4602a"},"vehicle_type_id":"4","last_reported":1706406206,"current_range_meters":21600,"station_id":"","pricing_plan_id":"free"},{"bike_id":"1facbbf3-baac-42f8-85eb-cb1e36f3e4b9","system_id":"levelo_inurba_marseille","lat":43.33759,"lon":5.3749,"is_reserved":false,"is_disabled":false,"rental_uris":{"android":"levelo://app?vid=1facbbf3-baac-42f8-85eb-cb1e36f3e4b9","ios":"levelo://app?vid=1facbbf3-baac-42f8-85eb-cb1e36f3e4b9"},"vehicle_type_id":"4","last_reported":1706406206,"current_range_meters":16800,"station_id":"","pricing_plan_id":"free"},{"bike_id":"a9554a78-0f9d-4cdd-9ecd-598bb2d54931","system_id":"levelo_inurba_marseille","lat":43.33761,"lon":5.37485,"is_reserved":false,"is_disabled":false,"rental_uris":{"android":"levelo://app?vid=a9554a78-0f9d-4cdd-9ecd-598bb2d54931","ios":"levelo://app?vid=a9554a78-0f9d-4cdd-9ecd-598bb2d54931"},"vehicle_type_id":"4","last_reported":1706406206,"current_range_meters":30000,"station_id":"","pricing_plan_id":"free"},{"bike_id":"b7d3b81d-d85a-44b5-a0c7-8f9c9f74639e","system_id":"levelo_inurba_marseille","lat":43.33765,"lon":5.374672,"is_reserved":false,"is_disabled":false,"rental_uris":{"android":"levelo://app?vid=b7d3b81d-d85a-44b5-a0c7-8f9c9f74639e","ios":"levelo://app?vid=b7d3b81d-d85a-44b5-a0c7-8f9c9f74639e"},"vehicle_type_id":"4","last_reported":1706406206,"current_range_meters":28800,"station_id":"","pricing_plan_id":"free"},{"bike_id":"bd7c49e0-243f-4049-bc25-2de8f060bb29","system_id":"levelo_inurba_marseille","lat":43.33764,"lon":5.37489,"is_reserved":false,"is_disabled":false,"rental_uris":{"android":"levelo://app?vid=bd7c49e0-243f-4049-bc25-2de8f060bb29","ios":"levelo://app?vid=bd7c49e0-243f-4049-bc25-2de8f060bb29"},"vehicle_type_id":"4","last_reported":1706406206,"current_range_meters":22400,"station_id":"","pricing_plan_id":"free"},{"bike_id":"d2ef723a-6c51-4ad9-8f8d-003770b1bdb0","system_id":"levelo_inurba_marseille","lat":43.30642,"lon":5.401031,"is_reserved":false,"is_disabled":false,"rental_uris":{"android":"levelo://app?vid=d2ef723a-6c51-4ad9-8f8d-003770b1bdb0","ios":"levelo://app?vid=d2ef723a-6c51-4ad9-8f8d-003770b1bdb0"},"vehicle_type_id":"4","last_reported":1706406206,"current_range_meters":30400,"station_id":"ce4bh112rcd13ifvqda0","pricing_plan_id":"free"},{"bike_id":"eaeff2f9-be33-4cbc-b315-c230be10dd9b","system_id":"levelo_inurba_marseille","lat":43.337658,"lon":5.37494,"is_reserved":false,"is_disabled":false,"rental_uris":{"android":"levelo://app?vid=eaeff2f9-be33-4cbc-b315-c230be10dd9b","ios":"levelo://app?vid=eaeff2f9-be33-4cbc-b315-c230be10dd9b"},"vehicle_type_id":"4","last_reported":1706406206,"current_range_meters":7600,"station_id":"","pricing_plan_id":"free"},{"bike_id":"c138c08b-ac5f-4b47-b873-0efc7215c2e5","system_id":"levelo_inurba_marseille","lat":43.306412,"lon":5.401035,"is_reserved":false,"is_disabled":false,"rental_uris":{"android":"levelo://app?vid=c138c08b-ac5f-4b47-b873-0efc7215c2e5","ios":"levelo://app?vid=c138c08b-ac5f-4b47-b873-0efc7215c2e5"},"vehicle_type_id":"4","last_reported":1706406206,"current_range_meters":3600,"station_id":"ce4bh112rcd13ifvqda0","pricing_plan_id":"free"},{"bike_id":"dec671df-e950-41f7-a73a-66da30a82a50","system_id":"levelo_inurba_marseille","lat":43.298681,"lon":5.397225,"is_reserved":false,"is_disabled":false,"rental_uris":{"android":"levelo://app?vid=dec671df-e950-41f7-a73a-66da30a82a50","ios":"levelo://app?vid=dec671df-e950-41f7-a73a-66da30a82a50"},"vehicle_type_id":"4","last_reported":1706406206,"current_range_meters":25600,"station_id":"ce4bh0h2rcd13ifvqd50","pricing_plan_id":"free"},{"bike_id":"4a66240e-b153-4d94-89b0-934753a9e448","system_id":"levelo_inurba_marseille","lat":43.302759,"lon":5.400793,"is_reserved":false,"is_disabled":false,"rental_uris":{"android":"levelo://app?vid=4a66240e-b153-4d94-89b0-934753a9e448","ios":"levelo://app?vid=4a66240e-b153-4d94-89b0-934753a9e448"},"vehicle_type_id":"4","last_reported":1706406206,"current_range_meters":9200,"station_id":"ce4bgvh2rcd13ifvqcs0","pricing_plan_id":"free"},{"bike_id":"285c6f92-9402-4605-b497-fc24d4b1f364","system_id":"levelo_inurba_marseille","lat":43.289246,"lon":5.383965,"is_reserved":false,"is_disabled":false,"rental_uris":{"android":"levelo://app?vid=285c6f92-9402-4605-b497-fc24d4b1f364","ios":"levelo://app?vid=285c6f92-9402-4605-b497-fc24d4b1f364"},"vehicle_type_id":"4","last_reported":1706406206,"current_range_meters":0,"station_id":"ce4bh612rcd13ifvqe6g","pricing_plan_id":"free"},{"bike_id":"183bb1c1-398f-466c-b05d-327ac4efc436","system_id":"levelo_inurba_marseille","lat":43.302511,"lon":5.400653,"is_reserved":false,"is_disabled":false,"rental_uris":{"android":"levelo://app?vid=183bb1c1-398f-466c-b05d-327ac4efc436","ios":"levelo://app?vid=183bb1c1-398f-466c-b05d-327ac4efc436"},"vehicle_type_id":"4","last_reported":1706406206,"current_range_meters":12800,"station_id":"ce4bgth2rcd13ifvqch0","pricing_plan_id":"free"},{"bike_id":"9592a8c0-4814-4392-9d64-dafaa3c6d981","system_id":"levelo_inurba_marseille","lat":43.302759,"lon":5.400793,"is_reserved":false,"is_disabled":false,"rental_uris":{"android":"levelo://app?vid=9592a8c0-4814-4392-9d64-dafaa3c6d981","ios":"levelo://app?vid=9592a8c0-4814-4392-9d64-dafaa3c6d981"},"vehicle_type_id":"4","last_reported":1706406206,"current_range_meters":7600,"station_id":"ce4bgvh2rcd13ifvqcs0","pricing_plan_id":"free"},{"bike_id":"03447749-0c25-43f9-b101-2dd420e40b4a","system_id":"levelo_inurba_marseille","lat":43.286039,"lon":5.370681,"is_reserved":false,"is_disabled":false,"rental_uris":{"android":"levelo://app?vid=03447749-0c25-43f9-b101-2dd420e40b4a","ios":"levelo://app?vid=03447749-0c25-43f9-b101-2dd420e40b4a"},"vehicle_type_id":"4","last_reported":1706406206,"current_range_meters":8400,"station_id":"ce4bht12rcd13ifvqi60","pricing_plan_id":"free"},{"bike_id":"adfd1e96-45c6-497d-83d1-ed5f30726127","system_id":"levelo_inurba_marseille","lat":43.291994,"lon":5.392907,"is_reserved":false,"is_disabled":false,"rental_uris":{"android":"levelo://app?vid=adfd1e96-45c6-497d-83d1-ed5f30726127","ios":"levelo://app?vid=adfd1e96-45c6-497d-83d1-ed5f30726127"},"vehicle_type_id":"4","last_reported":1706406206,"current_range_meters":22000,"station_id":"ce4bh192rcd13ifvqdd0","pricing_plan_id":"free"},{"bike_id":"e0da2a2a-63e9-4984-80e7-5e9216816733","system_id":"levelo_inurba_marseille","lat":43.284538,"lon":5.358657,"is_reserved":false,"is_disabled":false,"rental_uris":{"android":"levelo://app?vid=e0da2a2a-63e9-4984-80e7-5e9216816733","ios":"levelo://app?vid=e0da2a2a-63e9-4984-80e7-5e9216816733"},"vehicle_type_id":"4","last_reported":1706406206,"current_range_meters":14000,"station_id":"ce4bhah2rcd13ifvqei0","pricing_plan_id":"free"},{"bike_id":"36e8c209-5f7f-48c4-b22c-a7f983abea08","system_id":"levelo_inurba_marseille","lat":43.284534,"lon":5.358662,"is_reserved":false,"is_disabled":false,"rental_uris":{"android":"levelo://app?vid=36e8c209-5f7f-48c4-b22c-a7f983abea08","ios":"levelo://app?vid=36e8c209-5f7f-48c4-b22c-a7f983abea08"},"vehicle_type_id":"4","last_reported":1706406206,"current_range_meters":22800,"station_id":"ce4bhah2rcd13ifvqei0","pricing_plan_id":"free"},{"bike_id":"888e765b-c4a1-4df1-b6ff-10c639263e17","system_id":"levelo_inurba_marseille","lat":43.284534,"lon":5.358662,"is_reserved":false,"is_disabled":false,"rental_uris":{"android":"levelo://app?vid=888e765b-c4a1-4df1-b6ff-10c639263e17","ios":"levelo://app?vid=888e765b-c4a1-4df1-b6ff-10c639263e17"},"vehicle_type_id":"4","last_reported":1706406206,"current_range_meters":9600,"station_id":"ce4bhah2rcd13ifvqei0","pricing_plan_id":"free"},{"bike_id":"a8b41e33-a291-4f1e-ac47-9d1315da1446","system_id":"levelo_inurba_marseille","lat":43.284538,"lon":5.358657,"is_reserved":false,"is_disabled":false,"rental_uris":{"android":"levelo://app?vid=a8b41e33-a291-4f1e-ac47-9d1315da1446","ios":"levelo://app?vid=a8b41e33-a291-4f1e-ac47-9d1315da1446"},"vehicle_type_id":"4","last_reported":1706406206,"current_range_meters":23600,"station_id":"ce4bhah2rcd13ifvqei0","pricing_plan_id":"free"},{"bike_id":"19c0e203-e321-43ac-84cf-6dcd7a04bb82","system_id":"levelo_inurba_marseille","lat":43.284534,"lon":5.358662,"is_reserved":false,"is_disabled":false,"rental_uris":{"android":"levelo://app?vid=19c0e203-e321-43ac-84cf-6dcd7a04bb82","ios":"levelo://app?vid=19c0e203-e321-43ac-84cf-6dcd7a04bb82"},"vehicle_type_id":"4","last_reported":1706406206,"current_range_meters":0,"station_id":"ce4bhah2rcd13ifvqei0","pricing_plan_id":"free"},{"bike_id":"94311845-901a-4e2a-9a1c-4615f483e4f6","system_id":"levelo_inurba_marseille","lat":43.29439,"lon":5.3975,"is_reserved":false,"is_disabled":false,"rental_uris":{"android":"levelo://app?vid=94311845-901a-4e2a-9a1c-4615f483e4f6","ios":"levelo://app?vid=94311845-901a-4e2a-9a1c-4615f483e4f6"},"vehicle_type_id":"4","last_reported":1706406206,"current_range_meters":0,"station_id":"ce4bh3h2rcd13ifvqdo0","pricing_plan_id":"free"},{"bike_id":"758417fe-5098-4f4b-b54e-ee78ca430419","system_id":"levelo_inurba_marseille","lat":43.284534,"lon":5.358662,"is_reserved":false,"is_disabled":false,"rental_uris":{"android":"levelo://app?vid=758417fe-5098-4f4b-b54e-ee78ca430419","ios":"levelo://app?vid=758417fe-5098-4f4b-b54e-ee78ca430419"},"vehicle_type_id":"4","last_reported":1706406206,"current_range_meters":26400,"station_id":"ce4bhah2rcd13ifvqei0","pricing_plan_id":"free"},{"bike_id":"f31d8202-4d2e-4e3d-a6e1-94bef21dcce7","system_id":"levelo_inurba_marseille","lat":43.295713,"lon":5.399639,"is_reserved":false,"is_disabled":false,"rental_uris":{"android":"levelo://app?vid=f31d8202-4d2e-4e3d-a6e1-94bef21dcce7","ios":"levelo://app?vid=f31d8202-4d2e-4e3d-a6e1-94bef21dcce7"},"vehicle_type_id":"4","last_reported":1706406206,"current_range_meters":21200,"station_id":"ce4bh312rcd13ifvqdj0","pricing_plan_id":"free"},{"bike_id":"a2a4d916-6873-473c-a377-d88e7f21362b","system_id":"levelo_inurba_marseille","lat":43.295713,"lon":5.399639,"is_reserved":false,"is_disabled":false,"rental_uris":{"android":"levelo://app?vid=a2a4d916-6873-473c-a377-d88e7f21362b","ios":"levelo://app?vid=a2a4d916-6873-473c-a377-d88e7f21362b"},"vehicle_type_id":"4","last_reported":1706406206,"current_range_meters":2800,"station_id":"ce4bh312rcd13ifvqdj0","pricing_plan_id":"free"},{"bike_id":"47d1e3f1-059d-4dc6-bb12-5874207bd174","system_id":"levelo_inurba_marseille","lat":43.295713,"lon":5.399639,"is_reserved":false,"is_disabled":false,"rental_uris":{"android":"levelo://app?vid=47d1e3f1-059d-4dc6-bb12-5874207bd174","ios":"levelo://app?vid=47d1e3f1-059d-4dc6-bb12-5874207bd174"},"vehicle_type_id":"4","last_reported":1706406206,"current_range_meters":21200,"station_id":"ce4bh312rcd13ifvqdj0","pricing_plan_id":"free"},{"bike_id":"b29b4b3a-7a43-4939-bb05-5f4f2fe881f9","system_id":"levelo_inurba_marseille","lat":43.319179,"lon":5.407725,"is_reserved":false,"is_disabled":false,"rental_uris":{"android":"levelo://app?vid=b29b4b3a-7a43-4939-bb05-5f4f2fe881f9","ios":"levelo://app?vid=b29b4b3a-7a43-4939-bb05-5f4f2fe881f9"},"vehicle_type_id":"4","last_reported":1706406206,"current_range_meters":31200,"station_id":"ce4bhq12rcd13ifvqhig","pricing_plan_id":"free"},{"bike_id":"a7ef742f-9cf2-4c2f-938a-27fe62d2c015","system_id":"levelo_inurba_marseille","lat":43.319179,"lon":5.407725,"is_reserved":false,"is_disabled":false,"rental_uris":{"android":"levelo://app?vid=a7ef742f-9cf2-4c2f-938a-27fe62d2c015","ios":"levelo://app?vid=a7ef742f-9cf2-4c2f-938a-27fe62d2c015"},"vehicle_type_id":"4","last_reported":1706406206,"current_range_meters":5600,"station_id":"ce4bhq12rcd13ifvqhig","pricing_plan_id":"free"},{"bike_id":"5671bc82-766b-4306-8a3b-13fe9f723b6c","system_id":"levelo_inurba_marseille","lat":43.319179,"lon":5.407725,"is_reserved":false,"is_disabled":false,"rental_uris":{"android":"levelo://app?vid=5671bc82-766b-4306-8a3b-13fe9f723b6c","ios":"levelo://app?vid=5671bc82-766b-4306-8a3b-13fe9f723b6c"},"vehicle_type_id":"4","last_reported":1706406206,"current_range_meters":16400,"station_id":"ce4bhq12rcd13ifvqhig","pricing_plan_id":"free"},{"bike_id":"77308e31-fc80-4c42-923c-57fc362eb70a","system_id":"levelo_inurba_marseille","lat":43.319179,"lon":5.407725,"is_reserved":false,"is_disabled":false,"rental_uris":{"android":"levelo://app?vid=77308e31-fc80-4c42-923c-57fc362eb70a","ios":"levelo://app?vid=77308e31-fc80-4c42-923c-57fc362eb70a"},"vehicle_type_id":"4","last_reported":1706406206,"current_range_meters":4000,"station_id":"ce4bhq12rcd13ifvqhig","pricing_plan_id":"free"},{"bike_id":"40975b42-2dae-4c78-9990-d091247266be","system_id":"levelo_inurba_marseille","lat":43.319179,"lon":5.407725,"is_reserved":false,"is_disabled":false,"rental_uris":{"android":"levelo://app?vid=40975b42-2dae-4c78-9990-d091247266be","ios":"levelo://app?vid=40975b42-2dae-4c78-9990-d091247266be"},"vehicle_type_id":"4","last_reported":1706406206,"current_range_meters":8000,"station_id":"ce4bhq12rcd13ifvqhig","pricing_plan_id":"free"},{"bike_id":"e63b7e05-da47-404b-a3ca-035d8af322bb","system_id":"levelo_inurba_marseille","lat":43.319179,"lon":5.407725,"is_reserved":false,"is_disabled":false,"rental_uris":{"android":"levelo://app?vid=e63b7e05-da47-404b-a3ca-035d8af322bb","ios":"levelo://app?vid=e63b7e05-da47-404b-a3ca-035d8af322bb"},"vehicle_type_id":"4","last_reported":1706406206,"current_range_meters":28000,"station_id":"ce4bhq12rcd13ifvqhig","pricing_plan_id":"free"},{"bike_id":"2bb38835-1a5e-4d01-8935-6396d43e5266","system_id":"levelo_inurba_marseille","lat":43.337168,"lon":5.391825,"is_reserved":false,"is_disabled":false,"rental_uris":{"android":"levelo://app?vid=2bb38835-1a5e-4d01-8935-6396d43e5266","ios":"levelo://app?vid=2bb38835-1a5e-4d01-8935-6396d43e5266"},"vehicle_type_id":"4","last_reported":1706406206,"current_range_meters":23200,"station_id":"ce4bhr92rcd13ifvqhsg","pricing_plan_id":"free"},{"bike_id":"a3f30509-feaf-4375-af71-8a441027e5bd","system_id":"levelo_inurba_marseille","lat":43.33717,"lon":5.391857,"is_reserved":false,"is_disabled":false,"rental_uris":{"android":"levelo://app?vid=a3f30509-feaf-4375-af71-8a441027e5bd","ios":"levelo://app?vid=a3f30509-feaf-4375-af71-8a441027e5bd"},"vehicle_type_id":"4","last_reported":1706406206,"current_range_meters":27200,"station_id":"ce4bhr92rcd13ifvqhsg","pricing_plan_id":"free"},{"bike_id":"3c982f92-c162-4958-96ed-bd3ab8ee1412","system_id":"levelo_inurba_marseille","lat":43.323464,"lon":5.406297,"is_reserved":false,"is_disabled":false,"rental_uris":{"android":"levelo://app?vid=3c982f92-c162-4958-96ed-bd3ab8ee1412","ios":"levelo://app?vid=3c982f92-c162-4958-96ed-bd3ab8ee1412"},"vehicle_type_id":"4","last_reported":1706406206,"current_range_meters":24400,"station_id":"ce4bhq92rcd13ifvqhjg","pricing_plan_id":"free"},{"bike_id":"2b5f4982-548b-4158-a72b-a9e801ba15e5","system_id":"levelo_inurba_marseille","lat":43.323464,"lon":5.406297,"is_reserved":false,"is_disabled":false,"rental_uris":{"android":"levelo://app?vid=2b5f4982-548b-4158-a72b-a9e801ba15e5","ios":"levelo://app?vid=2b5f4982-548b-4158-a72b-a9e801ba15e5"},"vehicle_type_id":"4","last_reported":1706406206,"current_range_meters":31200,"station_id":"ce4bhq92rcd13ifvqhjg","pricing_plan_id":"free"},{"bike_id":"49927298-0456-42e8-8955-c51541c9e6dc","system_id":"levelo_inurba_marseille","lat":43.323464,"lon":5.406297,"is_reserved":false,"is_disabled":false,"rental_uris":{"android":"levelo://app?vid=49927298-0456-42e8-8955-c51541c9e6dc","ios":"levelo://app?vid=49927298-0456-42e8-8955-c51541c9e6dc"},"vehicle_type_id":"4","last_reported":1706406206,"current_range_meters":24800,"station_id":"ce4bhq92rcd13ifvqhjg","pricing_plan_id":"free"},{"bike_id":"b2dbb7d2-41b7-4a89-934f-10e965738d21","system_id":"levelo_inurba_marseille","lat":43.283494,"lon":5.380945,"is_reserved":false,"is_disabled":false,"rental_uris":{"android":"levelo://app?vid=b2dbb7d2-41b7-4a89-934f-10e965738d21","ios":"levelo://app?vid=b2dbb7d2-41b7-4a89-934f-10e965738d21"},"vehicle_type_id":"4","last_reported":1706406206,"current_range_meters":0,"station_id":"ce4bh412rcd13ifvqdr0","pricing_plan_id":"free"},{"bike_id":"c43608e5-e62a-4682-b590-62f0d28f52b0","system_id":"levelo_inurba_marseille","lat":43.283532,"lon":5.381083,"is_reserved":false,"is_disabled":false,"rental_uris":{"android":"levelo://app?vid=c43608e5-e62a-4682-b590-62f0d28f52b0","ios":"levelo://app?vid=c43608e5-e62a-4682-b590-62f0d28f52b0"},"vehicle_type_id":"4","last_reported":1706406206,"current_range_meters":0,"station_id":"","pricing_plan_id":"free"},{"bike_id":"641660f4-8e5c-4044-bea1-54fb231b4b80","system_id":"levelo_inurba_marseille","lat":43.2894,"lon":5.39633,"is_reserved":false,"is_disabled":false,"rental_uris":{"android":"levelo://app?vid=641660f4-8e5c-4044-bea1-54fb231b4b80","ios":"levelo://app?vid=641660f4-8e5c-4044-bea1-54fb231b4b80"},"vehicle_type_id":"4","last_reported":1706406206,"current_range_meters":21600,"station_id":"ce4bh3h2rcd13ifvqdn0","pricing_plan_id":"free"},{"bike_id":"c59ba76d-0165-466f-b670-f51aa47e1e5a","system_id":"levelo_inurba_marseille","lat":43.289363,"lon":5.396322,"is_reserved":false,"is_disabled":false,"rental_uris":{"android":"levelo://app?vid=c59ba76d-0165-466f-b670-f51aa47e1e5a","ios":"levelo://app?vid=c59ba76d-0165-466f-b670-f51aa47e1e5a"},"vehicle_type_id":"4","last_reported":1706406206,"current_range_meters":26400,"station_id":"ce4bh3h2rcd13ifvqdn0","pricing_plan_id":"free"},{"bike_id":"b41bcd76-cb12-4b33-95cd-9444d1e23578","system_id":"levelo_inurba_marseille","lat":43.293556,"lon":5.401561,"is_reserved":false,"is_disabled":false,"rental_uris":{"android":"levelo://app?vid=b41bcd76-cb12-4b33-95cd-9444d1e23578","ios":"levelo://app?vid=b41bcd76-cb12-4b33-95cd-9444d1e23578"},"vehicle_type_id":"4","last_reported":1706406206,"current_range_meters":8000,"station_id":"","pricing_plan_id":"free"},{"bike_id":"9c44152c-7d5d-45bd-a809-4c5dec73d8e8","system_id":"levelo_inurba_marseille","lat":43.289363,"lon":5.396322,"is_reserved":false,"is_disabled":false,"rental_uris":{"android":"levelo://app?vid=9c44152c-7d5d-45bd-a809-4c5dec73d8e8","ios":"levelo://app?vid=9c44152c-7d5d-45bd-a809-4c5dec73d8e8"},"vehicle_type_id":"4","last_reported":1706406206,"current_range_meters":0,"station_id":"ce4bh3h2rcd13ifvqdn0","pricing_plan_id":"free"},{"bike_id":"c07669b8-7477-4de7-b9ed-51c2ee95c1a6","system_id":"levelo_inurba_marseille","lat":43.292724,"lon":5.401131,"is_reserved":false,"is_disabled":false,"rental_uris":{"android":"levelo://app?vid=c07669b8-7477-4de7-b9ed-51c2ee95c1a6","ios":"levelo://app?vid=c07669b8-7477-4de7-b9ed-51c2ee95c1a6"},"vehicle_type_id":"4","last_reported":1706406206,"current_range_meters":23600,"station_id":"ce4bh312rcd13ifvqdk0","pricing_plan_id":"free"},{"bike_id":"a3ae320d-10b4-4621-bde9-adf25a5afb82","system_id":"levelo_inurba_marseille","lat":43.282744,"lon":5.350533,"is_reserved":false,"is_disabled":false,"rental_uris":{"android":"levelo://app?vid=a3ae320d-10b4-4621-bde9-adf25a5afb82","ios":"levelo://app?vid=a3ae320d-10b4-4621-bde9-adf25a5afb82"},"vehicle_type_id":"4","last_reported":1706406206,"current_range_meters":21200,"station_id":"ce4bhbp2rcd13ifvqerg","pricing_plan_id":"free"},{"bike_id":"a4dee076-d77d-4907-b73b-8abb8cf21261","system_id":"levelo_inurba_marseille","lat":43.28039,"lon":5.369297,"is_reserved":false,"is_disabled":false,"rental_uris":{"android":"levelo://app?vid=a4dee076-d77d-4907-b73b-8abb8cf21261","ios":"levelo://app?vid=a4dee076-d77d-4907-b73b-8abb8cf21261"},"vehicle_type_id":"4","last_reported":1706406206,"current_range_meters":1600,"station_id":"ce4bha12rcd13ifvqef0","pricing_plan_id":"free"},{"bike_id":"9b4a9518-965f-4ef4-bcae-b9ba5a2be020","system_id":"levelo_inurba_marseille","lat":43.280382,"lon":5.369291,"is_reserved":false,"is_disabled":false,"rental_uris":{"android":"levelo://app?vid=9b4a9518-965f-4ef4-bcae-b9ba5a2be020","ios":"levelo://app?vid=9b4a9518-965f-4ef4-bcae-b9ba5a2be020"},"vehicle_type_id":"4","last_reported":1706406206,"current_range_meters":21200,"station_id":"ce4bha12rcd13ifvqef0","pricing_plan_id":"free"},{"bike_id":"a2fd409c-99ce-4249-8d63-fdea0254a9c9","system_id":"levelo_inurba_marseille","lat":43.28039,"lon":5.369297,"is_reserved":false,"is_disabled":false,"rental_uris":{"android":"levelo://app?vid=a2fd409c-99ce-4249-8d63-fdea0254a9c9","ios":"levelo://app?vid=a2fd409c-99ce-4249-8d63-fdea0254a9c9"},"vehicle_type_id":"4","last_reported":1706406206,"current_range_meters":3600,"station_id":"ce4bha12rcd13ifvqef0","pricing_plan_id":"free"},{"bike_id":"7d56b545-ea86-423c-9c7b-f611e297116c","system_id":"levelo_inurba_marseille","lat":43.280382,"lon":5.369291,"is_reserved":false,"is_disabled":false,"rental_uris":{"android":"levelo://app?vid=7d56b545-ea86-423c-9c7b-f611e297116c","ios":"levelo://app?vid=7d56b545-ea86-423c-9c7b-f611e297116c"},"vehicle_type_id":"4","last_reported":1706406206,"current_range_meters":13600,"station_id":"ce4bha12rcd13ifvqef0","pricing_plan_id":"free"},{"bike_id":"f5252fc2-eac2-4599-a845-9cce4c77e1a9","system_id":"levelo_inurba_marseille","lat":43.28039,"lon":5.369297,"is_reserved":false,"is_disabled":false,"rental_uris":{"android":"levelo://app?vid=f5252fc2-eac2-4599-a845-9cce4c77e1a9","ios":"levelo://app?vid=f5252fc2-eac2-4599-a845-9cce4c77e1a9"},"vehicle_type_id":"4","last_reported":1706406206,"current_range_meters":18400,"station_id":"ce4bha12rcd13ifvqef0","pricing_plan_id":"free"},{"bike_id":"40533b1f-b24c-4993-9175-b37f741a5cd7","system_id":"levelo_inurba_marseille","lat":43.296263,"lon":5.40601,"is_reserved":false,"is_disabled":false,"rental_uris":{"android":"levelo://app?vid=40533b1f-b24c-4993-9175-b37f741a5cd7","ios":"levelo://app?vid=40533b1f-b24c-4993-9175-b37f741a5cd7"},"vehicle_type_id":"4","last_reported":1706406206,"current_range_meters":29600,"station_id":"ce4bh0h2rcd13ifvqd60","pricing_plan_id":"free"},{"bike_id":"72a878d7-a2c2-4325-95c5-2a98161bbcc2","system_id":"levelo_inurba_marseille","lat":43.296263,"lon":5.40601,"is_reserved":false,"is_disabled":false,"rental_uris":{"android":"levelo://app?vid=72a878d7-a2c2-4325-95c5-2a98161bbcc2","ios":"levelo://app?vid=72a878d7-a2c2-4325-95c5-2a98161bbcc2"},"vehicle_type_id":"4","last_reported":1706406206,"current_range_meters":0,"station_id":"ce4bh0h2rcd13ifvqd60","pricing_plan_id":"free"},{"bike_id":"ca37fd7c-d220-41a8-a9d8-9e0559ab5f40","system_id":"levelo_inurba_marseille","lat":43.296263,"lon":5.40601,"is_reserved":false,"is_disabled":false,"rental_uris":{"android":"levelo://app?vid=ca37fd7c-d220-41a8-a9d8-9e0559ab5f40","ios":"levelo://app?vid=ca37fd7c-d220-41a8-a9d8-9e0559ab5f40"},"vehicle_type_id":"4","last_reported":1706406206,"current_range_meters":13200,"station_id":"ce4bh0h2rcd13ifvqd60","pricing_plan_id":"free"},{"bike_id":"ebd50005-3faa-4b4c-bc65-0c0a5a2afc4f","system_id":"levelo_inurba_marseille","lat":43.28573,"lon":5.394992,"is_reserved":false,"is_disabled":false,"rental_uris":{"android":"levelo://app?vid=ebd50005-3faa-4b4c-bc65-0c0a5a2afc4f","ios":"levelo://app?vid=ebd50005-3faa-4b4c-bc65-0c0a5a2afc4f"},"vehicle_type_id":"4","last_reported":1706406206,"current_range_meters":30000,"station_id":"ce4bh292rcd13ifvqdg0","pricing_plan_id":"free"},{"bike_id":"046406e2-3124-4f65-a46c-e831ec439c33","system_id":"levelo_inurba_marseille","lat":43.326605,"lon":5.409903,"is_reserved":false,"is_disabled":false,"rental_uris":{"android":"levelo://app?vid=046406e2-3124-4f65-a46c-e831ec439c33","ios":"levelo://app?vid=046406e2-3124-4f65-a46c-e831ec439c33"},"vehicle_type_id":"4","last_reported":1706406206,"current_range_meters":31200,"station_id":"ce4bhpp2rcd13ifvqhgg","pricing_plan_id":"free"},{"bike_id":"bb00f9fd-c33a-4782-b405-d2b5fb2eb549","system_id":"levelo_inurba_marseille","lat":43.304188,"lon":5.412904,"is_reserved":false,"is_disabled":false,"rental_uris":{"android":"levelo://app?vid=bb00f9fd-c33a-4782-b405-d2b5fb2eb549","ios":"levelo://app?vid=bb00f9fd-c33a-4782-b405-d2b5fb2eb549"},"vehicle_type_id":"4","last_reported":1706406206,"current_range_meters":7200,"station_id":"ce4bhop2rcd13ifvqh8g","pricing_plan_id":"free"},{"bike_id":"7b2e6cc4-d84f-4dd1-98b9-fc9f8c3a9992","system_id":"levelo_inurba_marseille","lat":43.28286,"lon":5.39087,"is_reserved":false,"is_disabled":false,"rental_uris":{"android":"levelo://app?vid=7b2e6cc4-d84f-4dd1-98b9-fc9f8c3a9992","ios":"levelo://app?vid=7b2e6cc4-d84f-4dd1-98b9-fc9f8c3a9992"},"vehicle_type_id":"4","last_reported":1706406206,"current_range_meters":0,"station_id":"","pricing_plan_id":"free"},{"bike_id":"8588722d-0162-4b6a-81bd-ceb7726c55ec","system_id":"levelo_inurba_marseille","lat":43.287154,"lon":5.399979,"is_reserved":false,"is_disabled":false,"rental_uris":{"android":"levelo://app?vid=8588722d-0162-4b6a-81bd-ceb7726c55ec","ios":"levelo://app?vid=8588722d-0162-4b6a-81bd-ceb7726c55ec"},"vehicle_type_id":"4","last_reported":1706406206,"current_range_meters":6000,"station_id":"ce4bho92rcd13ifvqh3g","pricing_plan_id":"free"},{"bike_id":"81f5be19-416c-4fea-b525-1189272fb41f","system_id":"levelo_inurba_marseille","lat":43.320045,"lon":5.415046,"is_reserved":false,"is_disabled":false,"rental_uris":{"android":"levelo://app?vid=81f5be19-416c-4fea-b525-1189272fb41f","ios":"levelo://app?vid=81f5be19-416c-4fea-b525-1189272fb41f"},"vehicle_type_id":"4","last_reported":1706406206,"current_range_meters":25200,"station_id":"ce4bhq92rcd13ifvqhkg","pricing_plan_id":"free"},{"bike_id":"a77471f6-0819-4e3d-865c-9ab4148b581f","system_id":"levelo_inurba_marseille","lat":43.32074,"lon":5.41531,"is_reserved":false,"is_disabled":false,"rental_uris":{"android":"levelo://app?vid=a77471f6-0819-4e3d-865c-9ab4148b581f","ios":"levelo://app?vid=a77471f6-0819-4e3d-865c-9ab4148b581f"},"vehicle_type_id":"4","last_reported":1706406206,"current_range_meters":16800,"station_id":"ce4bhq92rcd13ifvqhkg","pricing_plan_id":"free"},{"bike_id":"8594565b-8f47-4423-875a-5c16a17b2eea","system_id":"levelo_inurba_marseille","lat":43.27968,"lon":5.38741,"is_reserved":false,"is_disabled":false,"rental_uris":{"android":"levelo://app?vid=8594565b-8f47-4423-875a-5c16a17b2eea","ios":"levelo://app?vid=8594565b-8f47-4423-875a-5c16a17b2eea"},"vehicle_type_id":"4","last_reported":1706406206,"current_range_meters":0,"station_id":"ce4bhg12rcd13ifvqf80","pricing_plan_id":"free"},{"bike_id":"f1f80413-fe0c-41b0-9110-a75a9e425725","system_id":"levelo_inurba_marseille","lat":43.320045,"lon":5.415046,"is_reserved":false,"is_disabled":false,"rental_uris":{"android":"levelo://app?vid=f1f80413-fe0c-41b0-9110-a75a9e425725","ios":"levelo://app?vid=f1f80413-fe0c-41b0-9110-a75a9e425725"},"vehicle_type_id":"4","last_reported":1706406206,"current_range_meters":6800,"station_id":"ce4bhq92rcd13ifvqhkg","pricing_plan_id":"free"},{"bike_id":"d996d290-e6fd-4548-bb86-aa3c38ac8963","system_id":"levelo_inurba_marseille","lat":43.292571,"lon":5.409107,"is_reserved":false,"is_disabled":false,"rental_uris":{"android":"levelo://app?vid=d996d290-e6fd-4548-bb86-aa3c38ac8963","ios":"levelo://app?vid=d996d290-e6fd-4548-bb86-aa3c38ac8963"},"vehicle_type_id":"4","last_reported":1706406206,"current_range_meters":25200,"station_id":"ce4bh192rcd13ifvqdc0","pricing_plan_id":"free"},{"bike_id":"6b5c8749-b4dc-4ae1-ba31-1ed6a9cc5de1","system_id":"levelo_inurba_marseille","lat":43.292569,"lon":5.409107,"is_reserved":false,"is_disabled":false,"rental_uris":{"android":"levelo://app?vid=6b5c8749-b4dc-4ae1-ba31-1ed6a9cc5de1","ios":"levelo://app?vid=6b5c8749-b4dc-4ae1-ba31-1ed6a9cc5de1"},"vehicle_type_id":"4","last_reported":1706406206,"current_range_meters":21600,"station_id":"ce4bh192rcd13ifvqdc0","pricing_plan_id":"free"},{"bike_id":"99c4de01-ff7b-4b3a-a268-b253a79cc69d","system_id":"levelo_inurba_marseille","lat":43.303837,"lon":5.418724,"is_reserved":false,"is_disabled":false,"rental_uris":{"android":"levelo://app?vid=99c4de01-ff7b-4b3a-a268-b253a79cc69d","ios":"levelo://app?vid=99c4de01-ff7b-4b3a-a268-b253a79cc69d"},"vehicle_type_id":"4","last_reported":1706406206,"current_range_meters":19600,"station_id":"ce4bhop2rcd13ifvqh7g","pricing_plan_id":"free"},{"bike_id":"e405ec28-3991-4d6e-be28-ded1ab199d77","system_id":"levelo_inurba_marseille","lat":43.278292,"lon":5.392028,"is_reserved":false,"is_disabled":false,"rental_uris":{"android":"levelo://app?vid=e405ec28-3991-4d6e-be28-ded1ab199d77","ios":"levelo://app?vid=e405ec28-3991-4d6e-be28-ded1ab199d77"},"vehicle_type_id":"4","last_reported":1706406206,"current_range_meters":0,"station_id":"ce4bhjp2rcd13ifvqga0","pricing_plan_id":"free"},{"bike_id":"76d7c7cc-4d99-4ec3-9c11-3659d8e5ea82","system_id":"levelo_inurba_marseille","lat":43.33605,"lon":5.41019,"is_reserved":false,"is_disabled":false,"rental_uris":{"android":"levelo://app?vid=76d7c7cc-4d99-4ec3-9c11-3659d8e5ea82","ios":"levelo://app?vid=76d7c7cc-4d99-4ec3-9c11-3659d8e5ea82"},"vehicle_type_id":"4","last_reported":1706406206,"current_range_meters":7200,"station_id":"ce4bhqh2rcd13ifvqhmg","pricing_plan_id":"free"},{"bike_id":"7ee2a6ad-3063-4a35-b6dc-8c245d9a0776","system_id":"levelo_inurba_marseille","lat":43.275676,"lon":5.3844,"is_reserved":false,"is_disabled":false,"rental_uris":{"android":"levelo://app?vid=7ee2a6ad-3063-4a35-b6dc-8c245d9a0776","ios":"levelo://app?vid=7ee2a6ad-3063-4a35-b6dc-8c245d9a0776"},"vehicle_type_id":"4","last_reported":1706406206,"current_range_meters":21600,"station_id":"ce4bhh92rcd13ifvqfi0","pricing_plan_id":"free"},{"bike_id":"873f92f1-d9d5-4bc4-bdf2-853eb7fc96a8","system_id":"levelo_inurba_marseille","lat":43.33611,"lon":5.410205,"is_reserved":false,"is_disabled":false,"rental_uris":{"android":"levelo://app?vid=873f92f1-d9d5-4bc4-bdf2-853eb7fc96a8","ios":"levelo://app?vid=873f92f1-d9d5-4bc4-bdf2-853eb7fc96a8"},"vehicle_type_id":"4","last_reported":1706406206,"current_range_meters":0,"station_id":"ce4bhqh2rcd13ifvqhmg","pricing_plan_id":"free"},{"bike_id":"710a6d3b-7695-45f4-926e-1e8a9793c4ad","system_id":"levelo_inurba_marseille","lat":43.336134,"lon":5.410341,"is_reserved":false,"is_disabled":false,"rental_uris":{"android":"levelo://app?vid=710a6d3b-7695-45f4-926e-1e8a9793c4ad","ios":"levelo://app?vid=710a6d3b-7695-45f4-926e-1e8a9793c4ad"},"vehicle_type_id":"4","last_reported":1706406206,"current_range_meters":15200,"station_id":"ce4bhqh2rcd13ifvqhmg","pricing_plan_id":"free"},{"bike_id":"44999208-a454-4a0b-9867-130853f10f43","system_id":"levelo_inurba_marseille","lat":43.336134,"lon":5.410341,"is_reserved":false,"is_disabled":false,"rental_uris":{"android":"levelo://app?vid=44999208-a454-4a0b-9867-130853f10f43","ios":"levelo://app?vid=44999208-a454-4a0b-9867-130853f10f43"},"vehicle_type_id":"4","last_reported":1706406206,"current_range_meters":12400,"station_id":"ce4bhqh2rcd13ifvqhmg","pricing_plan_id":"free"},{"bike_id":"ed20b58d-ea3b-42d2-8388-0bc616a6cd4a","system_id":"levelo_inurba_marseille","lat":43.336134,"lon":5.410341,"is_reserved":false,"is_disabled":false,"rental_uris":{"android":"levelo://app?vid=ed20b58d-ea3b-42d2-8388-0bc616a6cd4a","ios":"levelo://app?vid=ed20b58d-ea3b-42d2-8388-0bc616a6cd4a"},"vehicle_type_id":"4","last_reported":1706406206,"current_range_meters":0,"station_id":"ce4bhqh2rcd13ifvqhmg","pricing_plan_id":"free"},{"bike_id":"0bd470c3-afd0-46ed-b569-4279e2016a2d","system_id":"levelo_inurba_marseille","lat":43.336134,"lon":5.410341,"is_reserved":false,"is_disabled":false,"rental_uris":{"android":"levelo://app?vid=0bd470c3-afd0-46ed-b569-4279e2016a2d","ios":"levelo://app?vid=0bd470c3-afd0-46ed-b569-4279e2016a2d"},"vehicle_type_id":"4","last_reported":1706406206,"current_range_meters":6400,"station_id":"ce4bhqh2rcd13ifvqhmg","pricing_plan_id":"free"},{"bike_id":"78cc0567-5135-4c08-bbf8-b9984e9c17fd","system_id":"levelo_inurba_marseille","lat":43.3361,"lon":5.410299,"is_reserved":false,"is_disabled":false,"rental_uris":{"android":"levelo://app?vid=78cc0567-5135-4c08-bbf8-b9984e9c17fd","ios":"levelo://app?vid=78cc0567-5135-4c08-bbf8-b9984e9c17fd"},"vehicle_type_id":"4","last_reported":1706406206,"current_range_meters":800,"station_id":"ce4bhqh2rcd13ifvqhmg","pricing_plan_id":"free"},{"bike_id":"9f6f24ea-1749-4e2a-8811-657325fbc10a","system_id":"levelo_inurba_marseille","lat":43.336134,"lon":5.410341,"is_reserved":false,"is_disabled":false,"rental_uris":{"android":"levelo://app?vid=9f6f24ea-1749-4e2a-8811-657325fbc10a","ios":"levelo://app?vid=9f6f24ea-1749-4e2a-8811-657325fbc10a"},"vehicle_type_id":"4","last_reported":1706406206,"current_range_meters":28800,"station_id":"ce4bhqh2rcd13ifvqhmg","pricing_plan_id":"free"},{"bike_id":"662dc768-8d66-452a-9022-759985e18a90","system_id":"levelo_inurba_marseille","lat":43.336134,"lon":5.410341,"is_reserved":false,"is_disabled":false,"rental_uris":{"android":"levelo://app?vid=662dc768-8d66-452a-9022-759985e18a90","ios":"levelo://app?vid=662dc768-8d66-452a-9022-759985e18a90"},"vehicle_type_id":"4","last_reported":1706406206,"current_range_meters":2800,"station_id":"ce4bhqh2rcd13ifvqhmg","pricing_plan_id":"free"},{"bike_id":"8f5a4b00-5747-43af-8fb9-6bf63647eb7f","system_id":"levelo_inurba_marseille","lat":43.336134,"lon":5.410341,"is_reserved":false,"is_disabled":false,"rental_uris":{"android":"levelo://app?vid=8f5a4b00-5747-43af-8fb9-6bf63647eb7f","ios":"levelo://app?vid=8f5a4b00-5747-43af-8fb9-6bf63647eb7f"},"vehicle_type_id":"4","last_reported":1706406206,"current_range_meters":11600,"station_id":"ce4bhqh2rcd13ifvqhmg","pricing_plan_id":"free"},{"bike_id":"959fff51-1b41-4ee2-9da2-86579e5a7590","system_id":"levelo_inurba_marseille","lat":43.336134,"lon":5.410341,"is_reserved":false,"is_disabled":false,"rental_uris":{"android":"levelo://app?vid=959fff51-1b41-4ee2-9da2-86579e5a7590","ios":"levelo://app?vid=959fff51-1b41-4ee2-9da2-86579e5a7590"},"vehicle_type_id":"4","last_reported":1706406206,"current_range_meters":24800,"station_id":"ce4bhqh2rcd13ifvqhmg","pricing_plan_id":"free"},{"bike_id":"7c340cc5-8aa7-449a-bbcf-bbd63e0d35df","system_id":"levelo_inurba_marseille","lat":43.336134,"lon":5.410341,"is_reserved":false,"is_disabled":false,"rental_uris":{"android":"levelo://app?vid=7c340cc5-8aa7-449a-bbcf-bbd63e0d35df","ios":"levelo://app?vid=7c340cc5-8aa7-449a-bbcf-bbd63e0d35df"},"vehicle_type_id":"4","last_reported":1706406206,"current_range_meters":21200,"station_id":"ce4bhqh2rcd13ifvqhmg","pricing_plan_id":"free"},{"bike_id":"c7b0841f-989f-4f23-a6fc-018bcbc28966","system_id":"levelo_inurba_marseille","lat":43.33615,"lon":5.41032,"is_reserved":false,"is_disabled":false,"rental_uris":{"android":"levelo://app?vid=c7b0841f-989f-4f23-a6fc-018bcbc28966","ios":"levelo://app?vid=c7b0841f-989f-4f23-a6fc-018bcbc28966"},"vehicle_type_id":"4","last_reported":1706406206,"current_range_meters":2800,"station_id":"ce4bhqh2rcd13ifvqhmg","pricing_plan_id":"free"},{"bike_id":"e43ca11c-c250-4606-92b1-16adfe316fd1","system_id":"levelo_inurba_marseille","lat":43.33616,"lon":5.41036,"is_reserved":false,"is_disabled":false,"rental_uris":{"android":"levelo://app?vid=e43ca11c-c250-4606-92b1-16adfe316fd1","ios":"levelo://app?vid=e43ca11c-c250-4606-92b1-16adfe316fd1"},"vehicle_type_id":"4","last_reported":1706406206,"current_range_meters":14800,"station_id":"ce4bhqh2rcd13ifvqhmg","pricing_plan_id":"free"},{"bike_id":"babb39aa-9c92-498b-9194-b03ee5b9cb3e","system_id":"levelo_inurba_marseille","lat":43.279975,"lon":5.40009,"is_reserved":false,"is_disabled":false,"rental_uris":{"android":"levelo://app?vid=babb39aa-9c92-498b-9194-b03ee5b9cb3e","ios":"levelo://app?vid=babb39aa-9c92-498b-9194-b03ee5b9cb3e"},"vehicle_type_id":"4","last_reported":1706406206,"current_range_meters":14000,"station_id":"ce4bho92rcd13ifvqh4g","pricing_plan_id":"free"},{"bike_id":"f53148ac-a51c-4d74-a1be-d1aad6ed6b71","system_id":"levelo_inurba_marseille","lat":43.279975,"lon":5.40009,"is_reserved":false,"is_disabled":false,"rental_uris":{"android":"levelo://app?vid=f53148ac-a51c-4d74-a1be-d1aad6ed6b71","ios":"levelo://app?vid=f53148ac-a51c-4d74-a1be-d1aad6ed6b71"},"vehicle_type_id":"4","last_reported":1706406206,"current_range_meters":22800,"station_id":"ce4bho92rcd13ifvqh4g","pricing_plan_id":"free"},{"bike_id":"6f46a34b-d5d1-4592-8607-98eec5146735","system_id":"levelo_inurba_marseille","lat":43.283664,"lon":5.407079,"is_reserved":false,"is_disabled":false,"rental_uris":{"android":"levelo://app?vid=6f46a34b-d5d1-4592-8607-98eec5146735","ios":"levelo://app?vid=6f46a34b-d5d1-4592-8607-98eec5146735"},"vehicle_type_id":"4","last_reported":1706406206,"current_range_meters":4800,"station_id":"","pricing_plan_id":"free"},{"bike_id":"1133d432-7ab0-45bd-9080-b8027a14ae5e","system_id":"levelo_inurba_marseille","lat":43.317121,"lon":5.423936,"is_reserved":false,"is_disabled":false,"rental_uris":{"android":"levelo://app?vid=1133d432-7ab0-45bd-9080-b8027a14ae5e","ios":"levelo://app?vid=1133d432-7ab0-45bd-9080-b8027a14ae5e"},"vehicle_type_id":"4","last_reported":1706406206,"current_range_meters":28400,"station_id":"ce4bhp92rcd13ifvqhbg","pricing_plan_id":"free"},{"bike_id":"2f12b2cc-ff75-4df3-bc65-1f65f6db24ec","system_id":"levelo_inurba_marseille","lat":43.317121,"lon":5.423936,"is_reserved":false,"is_disabled":false,"rental_uris":{"android":"levelo://app?vid=2f12b2cc-ff75-4df3-bc65-1f65f6db24ec","ios":"levelo://app?vid=2f12b2cc-ff75-4df3-bc65-1f65f6db24ec"},"vehicle_type_id":"4","last_reported":1706406206,"current_range_meters":21600,"station_id":"ce4bhp92rcd13ifvqhbg","pricing_plan_id":"free"},{"bike_id":"1dc6aee1-185a-4c87-8b91-93bb335cd229","system_id":"levelo_inurba_marseille","lat":43.310785,"lon":5.424305,"is_reserved":false,"is_disabled":false,"rental_uris":{"android":"levelo://app?vid=1dc6aee1-185a-4c87-8b91-93bb335cd229","ios":"levelo://app?vid=1dc6aee1-185a-4c87-8b91-93bb335cd229"},"vehicle_type_id":"4","last_reported":1706406206,"current_range_meters":27200,"station_id":"ce4bhp92rcd13ifvqhag","pricing_plan_id":"free"},{"bike_id":"ee875769-e8b7-4caa-b3b8-2dad519b3fb1","system_id":"levelo_inurba_marseille","lat":43.31081,"lon":5.42432,"is_reserved":false,"is_disabled":false,"rental_uris":{"android":"levelo://app?vid=ee875769-e8b7-4caa-b3b8-2dad519b3fb1","ios":"levelo://app?vid=ee875769-e8b7-4caa-b3b8-2dad519b3fb1"},"vehicle_type_id":"4","last_reported":1706406206,"current_range_meters":16400,"station_id":"ce4bhp92rcd13ifvqhag","pricing_plan_id":"free"},{"bike_id":"16d1c813-3c9d-44a0-9af6-93f02ed74d30","system_id":"levelo_inurba_marseille","lat":43.317121,"lon":5.423936,"is_reserved":false,"is_disabled":false,"rental_uris":{"android":"levelo://app?vid=16d1c813-3c9d-44a0-9af6-93f02ed74d30","ios":"levelo://app?vid=16d1c813-3c9d-44a0-9af6-93f02ed74d30"},"vehicle_type_id":"4","last_reported":1706406206,"current_range_meters":25200,"station_id":"ce4bhp92rcd13ifvqhbg","pricing_plan_id":"free"},{"bike_id":"76a1444e-7429-4c72-9ae5-313749a04157","system_id":"levelo_inurba_marseille","lat":43.3108,"lon":5.42435,"is_reserved":false,"is_disabled":false,"rental_uris":{"android":"levelo://app?vid=76a1444e-7429-4c72-9ae5-313749a04157","ios":"levelo://app?vid=76a1444e-7429-4c72-9ae5-313749a04157"},"vehicle_type_id":"4","last_reported":1706406206,"current_range_meters":16000,"station_id":"ce4bhp92rcd13ifvqhag","pricing_plan_id":"free"},{"bike_id":"a7f8a6ab-52ad-4377-85b6-101c1eb0b9ed","system_id":"levelo_inurba_marseille","lat":43.340804,"lon":5.410219,"is_reserved":false,"is_disabled":false,"rental_uris":{"android":"levelo://app?vid=a7f8a6ab-52ad-4377-85b6-101c1eb0b9ed","ios":"levelo://app?vid=a7f8a6ab-52ad-4377-85b6-101c1eb0b9ed"},"vehicle_type_id":"4","last_reported":1706406206,"current_range_meters":18000,"station_id":"ce4bhqh2rcd13ifvqhlg","pricing_plan_id":"free"},{"bike_id":"a98e2a5e-bdd6-494e-9351-adac87bae90b","system_id":"levelo_inurba_marseille","lat":43.2765,"lon":5.39764,"is_reserved":false,"is_disabled":false,"rental_uris":{"android":"levelo://app?vid=a98e2a5e-bdd6-494e-9351-adac87bae90b","ios":"levelo://app?vid=a98e2a5e-bdd6-494e-9351-adac87bae90b"},"vehicle_type_id":"4","last_reported":1706406206,"current_range_meters":0,"station_id":"","pricing_plan_id":"free"},{"bike_id":"d3088763-a764-4f4a-86b0-95be200a6498","system_id":"levelo_inurba_marseille","lat":43.274099,"lon":5.394019,"is_reserved":false,"is_disabled":false,"rental_uris":{"android":"levelo://app?vid=d3088763-a764-4f4a-86b0-95be200a6498","ios":"levelo://app?vid=d3088763-a764-4f4a-86b0-95be200a6498"},"vehicle_type_id":"4","last_reported":1706406206,"current_range_meters":11200,"station_id":"ce4bhdp2rcd13ifvqf20","pricing_plan_id":"free"},{"bike_id":"215a7e25-e8d3-43bf-8b4d-7086efc8a4b4","system_id":"levelo_inurba_marseille","lat":43.295511,"lon":5.422926,"is_reserved":false,"is_disabled":false,"rental_uris":{"android":"levelo://app?vid=215a7e25-e8d3-43bf-8b4d-7086efc8a4b4","ios":"levelo://app?vid=215a7e25-e8d3-43bf-8b4d-7086efc8a4b4"},"vehicle_type_id":"4","last_reported":1706406206,"current_range_meters":18000,"station_id":"ce4bhph2rcd13ifvqhdg","pricing_plan_id":"free"},{"bike_id":"a1fbeb99-61e8-4de5-b154-4dfee81af8ae","system_id":"levelo_inurba_marseille","lat":43.272116,"lon":5.391763,"is_reserved":false,"is_disabled":false,"rental_uris":{"android":"levelo://app?vid=a1fbeb99-61e8-4de5-b154-4dfee81af8ae","ios":"levelo://app?vid=a1fbeb99-61e8-4de5-b154-4dfee81af8ae"},"vehicle_type_id":"4","last_reported":1706406206,"current_range_meters":0,"station_id":"ce4bhhp2rcd13ifvqfm0","pricing_plan_id":"free"},{"bike_id":"03b87ff7-4c71-47f3-9e83-b3cf89296a19","system_id":"levelo_inurba_marseille","lat":43.272116,"lon":5.391763,"is_reserved":false,"is_disabled":false,"rental_uris":{"android":"levelo://app?vid=03b87ff7-4c71-47f3-9e83-b3cf89296a19","ios":"levelo://app?vid=03b87ff7-4c71-47f3-9e83-b3cf89296a19"},"vehicle_type_id":"4","last_reported":1706406206,"current_range_meters":0,"station_id":"ce4bhhp2rcd13ifvqfm0","pricing_plan_id":"free"},{"bike_id":"f2f20b18-7736-4412-a31b-83332408b202","system_id":"levelo_inurba_marseille","lat":43.278128,"lon":5.407195,"is_reserved":false,"is_disabled":false,"rental_uris":{"android":"levelo://app?vid=f2f20b18-7736-4412-a31b-83332408b202","ios":"levelo://app?vid=f2f20b18-7736-4412-a31b-83332408b202"},"vehicle_type_id":"4","last_reported":1706406206,"current_range_meters":24400,"station_id":"ce4bhnh2rcd13ifvqgtg","pricing_plan_id":"free"},{"bike_id":"0f11d406-7590-44e0-bd8d-cb92808bfe07","system_id":"levelo_inurba_marseille","lat":43.279465,"lon":5.410561,"is_reserved":false,"is_disabled":false,"rental_uris":{"android":"levelo://app?vid=0f11d406-7590-44e0-bd8d-cb92808bfe07","ios":"levelo://app?vid=0f11d406-7590-44e0-bd8d-cb92808bfe07"},"vehicle_type_id":"4","last_reported":1706406206,"current_range_meters":12800,"station_id":"ce4bhnp2rcd13ifvqh0g","pricing_plan_id":"free"},{"bike_id":"c6584083-8842-41d0-ae2e-2930473b10e6","system_id":"levelo_inurba_marseille","lat":43.279465,"lon":5.410561,"is_reserved":false,"is_disabled":false,"rental_uris":{"android":"levelo://app?vid=c6584083-8842-41d0-ae2e-2930473b10e6","ios":"levelo://app?vid=c6584083-8842-41d0-ae2e-2930473b10e6"},"vehicle_type_id":"4","last_reported":1706406206,"current_range_meters":0,"station_id":"ce4bhnp2rcd13ifvqh0g","pricing_plan_id":"free"},{"bike_id":"4865b2d3-9a89-4171-8999-605365cb8bae","system_id":"levelo_inurba_marseille","lat":43.27939,"lon":5.41045,"is_reserved":false,"is_disabled":false,"rental_uris":{"android":"levelo://app?vid=4865b2d3-9a89-4171-8999-605365cb8bae","ios":"levelo://app?vid=4865b2d3-9a89-4171-8999-605365cb8bae"},"vehicle_type_id":"4","last_reported":1706406206,"current_range_meters":4800,"station_id":"ce4bhnp2rcd13ifvqh0g","pricing_plan_id":"free"},{"bike_id":"e1a985da-f883-455e-b809-015c90b0fa97","system_id":"levelo_inurba_marseille","lat":43.279465,"lon":5.410561,"is_reserved":false,"is_disabled":false,"rental_uris":{"android":"levelo://app?vid=e1a985da-f883-455e-b809-015c90b0fa97","ios":"levelo://app?vid=e1a985da-f883-455e-b809-015c90b0fa97"},"vehicle_type_id":"4","last_reported":1706406206,"current_range_meters":21600,"station_id":"ce4bhnp2rcd13ifvqh0g","pricing_plan_id":"free"},{"bike_id":"643e7b27-ef49-4f5d-9b40-fd8ab11292dc","system_id":"levelo_inurba_marseille","lat":43.269336,"lon":5.389149,"is_reserved":false,"is_disabled":false,"rental_uris":{"android":"levelo://app?vid=643e7b27-ef49-4f5d-9b40-fd8ab11292dc","ios":"levelo://app?vid=643e7b27-ef49-4f5d-9b40-fd8ab11292dc"},"vehicle_type_id":"4","last_reported":1706406206,"current_range_meters":0,"station_id":"ce4bhhh2rcd13ifvqfl0","pricing_plan_id":"free"},{"bike_id":"5e20fd38-65ce-4d6d-9e2a-3517667c2e94","system_id":"levelo_inurba_marseille","lat":43.26934,"lon":5.3892,"is_reserved":false,"is_disabled":false,"rental_uris":{"android":"levelo://app?vid=5e20fd38-65ce-4d6d-9e2a-3517667c2e94","ios":"levelo://app?vid=5e20fd38-65ce-4d6d-9e2a-3517667c2e94"},"vehicle_type_id":"4","last_reported":1706406206,"current_range_meters":0,"station_id":"ce4bhhh2rcd13ifvqfl0","pricing_plan_id":"free"},{"bike_id":"fbcb78ab-309a-4952-8e11-4d81e88ecd06","system_id":"levelo_inurba_marseille","lat":43.26681,"lon":5.382694,"is_reserved":false,"is_disabled":false,"rental_uris":{"android":"levelo://app?vid=fbcb78ab-309a-4952-8e11-4d81e88ecd06","ios":"levelo://app?vid=fbcb78ab-309a-4952-8e11-4d81e88ecd06"},"vehicle_type_id":"4","last_reported":1706406206,"current_range_meters":25600,"station_id":"ce4bhg92rcd13ifvqf90","pricing_plan_id":"free"},{"bike_id":"8c068078-2f43-45b4-89e5-3062c2dd1de3","system_id":"levelo_inurba_marseille","lat":43.317104,"lon":5.436818,"is_reserved":false,"is_disabled":false,"rental_uris":{"android":"levelo://app?vid=8c068078-2f43-45b4-89e5-3062c2dd1de3","ios":"levelo://app?vid=8c068078-2f43-45b4-89e5-3062c2dd1de3"},"vehicle_type_id":"4","last_reported":1706406206,"current_range_meters":8000,"station_id":"ce4bhp92rcd13ifvqhcg","pricing_plan_id":"free"},{"bike_id":"de40ad67-de75-430d-8cae-d668a0a770c8","system_id":"levelo_inurba_marseille","lat":43.26794,"lon":5.39413,"is_reserved":false,"is_disabled":false,"rental_uris":{"android":"levelo://app?vid=de40ad67-de75-430d-8cae-d668a0a770c8","ios":"levelo://app?vid=de40ad67-de75-430d-8cae-d668a0a770c8"},"vehicle_type_id":"4","last_reported":1706406206,"current_range_meters":16400,"station_id":"ce4bhg12rcd13ifvqf70","pricing_plan_id":"free"},{"bike_id":"e515107f-d284-4a36-a195-f165f6207fc2","system_id":"levelo_inurba_marseille","lat":43.308051,"lon":5.43527,"is_reserved":false,"is_disabled":false,"rental_uris":{"android":"levelo://app?vid=e515107f-d284-4a36-a195-f165f6207fc2","ios":"levelo://app?vid=e515107f-d284-4a36-a195-f165f6207fc2"},"vehicle_type_id":"4","last_reported":1706406206,"current_range_meters":24400,"station_id":"ce4bhph2rcd13ifvqheg","pricing_plan_id":"free"},{"bike_id":"32624d75-812d-4303-bd5a-1af1369fa77a","system_id":"levelo_inurba_marseille","lat":43.308051,"lon":5.43527,"is_reserved":false,"is_disabled":false,"rental_uris":{"android":"levelo://app?vid=32624d75-812d-4303-bd5a-1af1369fa77a","ios":"levelo://app?vid=32624d75-812d-4303-bd5a-1af1369fa77a"},"vehicle_type_id":"4","last_reported":1706406206,"current_range_meters":21600,"station_id":"ce4bhph2rcd13ifvqheg","pricing_plan_id":"free"},{"bike_id":"a0c1da5c-da2c-4591-819f-e09460076444","system_id":"levelo_inurba_marseille","lat":43.33427,"lon":5.42926,"is_reserved":false,"is_disabled":false,"rental_uris":{"android":"levelo://app?vid=a0c1da5c-da2c-4591-819f-e09460076444","ios":"levelo://app?vid=a0c1da5c-da2c-4591-819f-e09460076444"},"vehicle_type_id":"4","last_reported":1706406206,"current_range_meters":6400,"station_id":"","pricing_plan_id":"free"},{"bike_id":"e785f392-95cb-45c8-90d3-3180af282616","system_id":"levelo_inurba_marseille","lat":43.26939,"lon":5.40251,"is_reserved":false,"is_disabled":false,"rental_uris":{"android":"levelo://app?vid=e785f392-95cb-45c8-90d3-3180af282616","ios":"levelo://app?vid=e785f392-95cb-45c8-90d3-3180af282616"},"vehicle_type_id":"4","last_reported":1706406206,"current_range_meters":0,"station_id":"cjm6bp8fraef2m0cb0m0","pricing_plan_id":"free"},{"bike_id":"2b8411f9-f98e-4185-9b31-ae91c546d090","system_id":"levelo_inurba_marseille","lat":43.261782,"lon":5.374515,"is_reserved":false,"is_disabled":false,"rental_uris":{"android":"levelo://app?vid=2b8411f9-f98e-4185-9b31-ae91c546d090","ios":"levelo://app?vid=2b8411f9-f98e-4185-9b31-ae91c546d090"},"vehicle_type_id":"4","last_reported":1706406206,"current_range_meters":26000,"station_id":"ce4bhgp2rcd13ifvqfc0","pricing_plan_id":"free"},{"bike_id":"f5a1a060-dcf3-4705-90f5-ba5a460fe4b2","system_id":"levelo_inurba_marseille","lat":43.317104,"lon":5.436818,"is_reserved":false,"is_disabled":false,"rental_uris":{"android":"levelo://app?vid=f5a1a060-dcf3-4705-90f5-ba5a460fe4b2","ios":"levelo://app?vid=f5a1a060-dcf3-4705-90f5-ba5a460fe4b2"},"vehicle_type_id":"4","last_reported":1706406206,"current_range_meters":28000,"station_id":"ce4bhp92rcd13ifvqhcg","pricing_plan_id":"free"},{"bike_id":"7320ca53-1a3a-4bcb-b80d-5e5f4af56134","system_id":"levelo_inurba_marseille","lat":43.317104,"lon":5.436818,"is_reserved":false,"is_disabled":false,"rental_uris":{"android":"levelo://app?vid=7320ca53-1a3a-4bcb-b80d-5e5f4af56134","ios":"levelo://app?vid=7320ca53-1a3a-4bcb-b80d-5e5f4af56134"},"vehicle_type_id":"4","last_reported":1706406206,"current_range_meters":12400,"station_id":"ce4bhp92rcd13ifvqhcg","pricing_plan_id":"free"},{"bike_id":"f0857d27-386a-4f84-ae51-ad57b855729d","system_id":"levelo_inurba_marseille","lat":43.26202,"lon":5.379299,"is_reserved":false,"is_disabled":false,"rental_uris":{"android":"levelo://app?vid=f0857d27-386a-4f84-ae51-ad57b855729d","ios":"levelo://app?vid=f0857d27-386a-4f84-ae51-ad57b855729d"},"vehicle_type_id":"4","last_reported":1706406206,"current_range_meters":26000,"station_id":"ce4bhjp2rcd13ifvqg90","pricing_plan_id":"free"},{"bike_id":"23d956f6-8c9c-4e6d-a624-43f5b184af20","system_id":"levelo_inurba_marseille","lat":43.271368,"lon":5.40928,"is_reserved":false,"is_disabled":false,"rental_uris":{"android":"levelo://app?vid=23d956f6-8c9c-4e6d-a624-43f5b184af20","ios":"levelo://app?vid=23d956f6-8c9c-4e6d-a624-43f5b184af20"},"vehicle_type_id":"4","last_reported":1706406206,"current_range_meters":26000,"station_id":"ce4bhl12rcd13ifvqgf0","pricing_plan_id":"free"},{"bike_id":"6b61ab2c-ab67-440f-8712-0e7d44411e15","system_id":"levelo_inurba_marseille","lat":43.29892,"lon":5.43658,"is_reserved":false,"is_disabled":false,"rental_uris":{"android":"levelo://app?vid=6b61ab2c-ab67-440f-8712-0e7d44411e15","ios":"levelo://app?vid=6b61ab2c-ab67-440f-8712-0e7d44411e15"},"vehicle_type_id":"4","last_reported":1706406206,"current_range_meters":8000,"station_id":"ce4bhpp2rcd13ifvqhfg","pricing_plan_id":"free"},{"bike_id":"b86a8288-96d0-49b3-8213-15f7b37b1e2c","system_id":"levelo_inurba_marseille","lat":43.29898,"lon":5.43663,"is_reserved":false,"is_disabled":false,"rental_uris":{"android":"levelo://app?vid=b86a8288-96d0-49b3-8213-15f7b37b1e2c","ios":"levelo://app?vid=b86a8288-96d0-49b3-8213-15f7b37b1e2c"},"vehicle_type_id":"4","last_reported":1706406206,"current_range_meters":30800,"station_id":"ce4bhpp2rcd13ifvqhfg","pricing_plan_id":"free"},{"bike_id":"753d6921-1f8f-42a9-a695-776f5a15aa39","system_id":"levelo_inurba_marseille","lat":43.29895,"lon":5.43663,"is_reserved":false,"is_disabled":false,"rental_uris":{"android":"levelo://app?vid=753d6921-1f8f-42a9-a695-776f5a15aa39","ios":"levelo://app?vid=753d6921-1f8f-42a9-a695-776f5a15aa39"},"vehicle_type_id":"4","last_reported":1706406206,"current_range_meters":29600,"station_id":"ce4bhpp2rcd13ifvqhfg","pricing_plan_id":"free"},{"bike_id":"bc92b168-9def-4028-9c96-b8922d8d2862","system_id":"levelo_inurba_marseille","lat":43.29901,"lon":5.43669,"is_reserved":false,"is_disabled":false,"rental_uris":{"android":"levelo://app?vid=bc92b168-9def-4028-9c96-b8922d8d2862","ios":"levelo://app?vid=bc92b168-9def-4028-9c96-b8922d8d2862"},"vehicle_type_id":"4","last_reported":1706406206,"current_range_meters":24400,"station_id":"ce4bhpp2rcd13ifvqhfg","pricing_plan_id":"free"},{"bike_id":"12997fb5-883c-4230-99a8-176a3a81dbcf","system_id":"levelo_inurba_marseille","lat":43.298954,"lon":5.4367,"is_reserved":false,"is_disabled":false,"rental_uris":{"android":"levelo://app?vid=12997fb5-883c-4230-99a8-176a3a81dbcf","ios":"levelo://app?vid=12997fb5-883c-4230-99a8-176a3a81dbcf"},"vehicle_type_id":"4","last_reported":1706406206,"current_range_meters":28000,"station_id":"ce4bhpp2rcd13ifvqhfg","pricing_plan_id":"free"},{"bike_id":"9f816097-0a23-4dc2-95b7-3aa3909d5173","system_id":"levelo_inurba_marseille","lat":43.29896,"lon":5.43671,"is_reserved":false,"is_disabled":false,"rental_uris":{"android":"levelo://app?vid=9f816097-0a23-4dc2-95b7-3aa3909d5173","ios":"levelo://app?vid=9f816097-0a23-4dc2-95b7-3aa3909d5173"},"vehicle_type_id":"4","last_reported":1706406206,"current_range_meters":4000,"station_id":"ce4bhpp2rcd13ifvqhfg","pricing_plan_id":"free"},{"bike_id":"d1d169fc-6156-47e6-b872-78ef0ebf6661","system_id":"levelo_inurba_marseille","lat":43.281548,"lon":5.42643,"is_reserved":false,"is_disabled":false,"rental_uris":{"android":"levelo://app?vid=d1d169fc-6156-47e6-b872-78ef0ebf6661","ios":"levelo://app?vid=d1d169fc-6156-47e6-b872-78ef0ebf6661"},"vehicle_type_id":"4","last_reported":1706406206,"current_range_meters":30800,"station_id":"ce4bhnh2rcd13ifvqgug","pricing_plan_id":"free"},{"bike_id":"0ae55a9b-4fac-4307-93a4-3081d0859a4f","system_id":"levelo_inurba_marseille","lat":43.326057,"lon":5.438014,"is_reserved":false,"is_disabled":false,"rental_uris":{"android":"levelo://app?vid=0ae55a9b-4fac-4307-93a4-3081d0859a4f","ios":"levelo://app?vid=0ae55a9b-4fac-4307-93a4-3081d0859a4f"},"vehicle_type_id":"4","last_reported":1706406206,"current_range_meters":21600,"station_id":"","pricing_plan_id":"free"},{"bike_id":"b9731243-502c-4b98-88bf-75eec7a6aa91","system_id":"levelo_inurba_marseille","lat":43.275028,"lon":5.424534,"is_reserved":false,"is_disabled":false,"rental_uris":{"android":"levelo://app?vid=b9731243-502c-4b98-88bf-75eec7a6aa91","ios":"levelo://app?vid=b9731243-502c-4b98-88bf-75eec7a6aa91"},"vehicle_type_id":"4","last_reported":1706406206,"current_range_meters":20000,"station_id":"ce4bhn92rcd13ifvqgrg","pricing_plan_id":"free"},{"bike_id":"33448284-ffc3-49d0-9f0a-029ffd01bf96","system_id":"levelo_inurba_marseille","lat":43.275028,"lon":5.424534,"is_reserved":false,"is_disabled":false,"rental_uris":{"android":"levelo://app?vid=33448284-ffc3-49d0-9f0a-029ffd01bf96","ios":"levelo://app?vid=33448284-ffc3-49d0-9f0a-029ffd01bf96"},"vehicle_type_id":"4","last_reported":1706406206,"current_range_meters":30400,"station_id":"ce4bhn92rcd13ifvqgrg","pricing_plan_id":"free"},{"bike_id":"c029fd37-f006-4f46-aea8-9bbbadd0c920","system_id":"levelo_inurba_marseille","lat":43.27486,"lon":5.42451,"is_reserved":false,"is_disabled":false,"rental_uris":{"android":"levelo://app?vid=c029fd37-f006-4f46-aea8-9bbbadd0c920","ios":"levelo://app?vid=c029fd37-f006-4f46-aea8-9bbbadd0c920"},"vehicle_type_id":"4","last_reported":1706406206,"current_range_meters":6000,"station_id":"ce4bhn92rcd13ifvqgrg","pricing_plan_id":"free"},{"bike_id":"c0ccf1de-09c3-42ad-8924-1cd897c887ea","system_id":"levelo_inurba_marseille","lat":43.275028,"lon":5.424534,"is_reserved":false,"is_disabled":false,"rental_uris":{"android":"levelo://app?vid=c0ccf1de-09c3-42ad-8924-1cd897c887ea","ios":"levelo://app?vid=c0ccf1de-09c3-42ad-8924-1cd897c887ea"},"vehicle_type_id":"4","last_reported":1706406206,"current_range_meters":26400,"station_id":"ce4bhn92rcd13ifvqgrg","pricing_plan_id":"free"},{"bike_id":"b0ad3d2d-851f-40ce-b8cf-27d1c44e6dc7","system_id":"levelo_inurba_marseille","lat":43.255756,"lon":5.382303,"is_reserved":false,"is_disabled":false,"rental_uris":{"android":"levelo://app?vid=b0ad3d2d-851f-40ce-b8cf-27d1c44e6dc7","ios":"levelo://app?vid=b0ad3d2d-851f-40ce-b8cf-27d1c44e6dc7"},"vehicle_type_id":"4","last_reported":1706406206,"current_range_meters":12000,"station_id":"ce4bhih2rcd13ifvqfs0","pricing_plan_id":"free"},{"bike_id":"04f9ff0e-4f4f-4c28-99b4-de498859a553","system_id":"levelo_inurba_marseille","lat":43.255756,"lon":5.382303,"is_reserved":false,"is_disabled":false,"rental_uris":{"android":"levelo://app?vid=04f9ff0e-4f4f-4c28-99b4-de498859a553","ios":"levelo://app?vid=04f9ff0e-4f4f-4c28-99b4-de498859a553"},"vehicle_type_id":"4","last_reported":1706406206,"current_range_meters":2800,"station_id":"ce4bhih2rcd13ifvqfs0","pricing_plan_id":"free"},{"bike_id":"d93f3523-8cf3-41f5-8d03-600bcfd8a2c4","system_id":"levelo_inurba_marseille","lat":43.250966,"lon":5.395186,"is_reserved":false,"is_disabled":false,"rental_uris":{"android":"levelo://app?vid=d93f3523-8cf3-41f5-8d03-600bcfd8a2c4","ios":"levelo://app?vid=d93f3523-8cf3-41f5-8d03-600bcfd8a2c4"},"vehicle_type_id":"4","last_reported":1706406206,"current_range_meters":1600,"station_id":"ce4bhm12rcd13ifvqgkg","pricing_plan_id":"free"},{"bike_id":"9e73d2c7-9d3c-4153-8aca-c3bd70c51fc5","system_id":"levelo_inurba_marseille","lat":43.258224,"lon":5.394369,"is_reserved":false,"is_disabled":false,"rental_uris":{"android":"levelo://app?vid=9e73d2c7-9d3c-4153-8aca-c3bd70c51fc5","ios":"levelo://app?vid=9e73d2c7-9d3c-4153-8aca-c3bd70c51fc5"},"vehicle_type_id":"4","last_reported":1706406206,"current_range_meters":9200,"station_id":"ce4bhip2rcd13ifvqft0","pricing_plan_id":"free"},{"bike_id":"b074fbe5-669c-488c-85c9-10d487da832f","system_id":"levelo_inurba_marseille","lat":43.254947,"lon":5.376454,"is_reserved":false,"is_disabled":false,"rental_uris":{"android":"levelo://app?vid=b074fbe5-669c-488c-85c9-10d487da832f","ios":"levelo://app?vid=b074fbe5-669c-488c-85c9-10d487da832f"},"vehicle_type_id":"4","last_reported":1706406206,"current_range_meters":23600,"station_id":"ce4bhh12rcd13ifvqff0","pricing_plan_id":"free"},{"bike_id":"2e8f236c-252e-43d6-a071-e1da51d3eaf2","system_id":"levelo_inurba_marseille","lat":43.270721,"lon":5.422764,"is_reserved":false,"is_disabled":false,"rental_uris":{"android":"levelo://app?vid=2e8f236c-252e-43d6-a071-e1da51d3eaf2","ios":"levelo://app?vid=2e8f236c-252e-43d6-a071-e1da51d3eaf2"},"vehicle_type_id":"4","last_reported":1706406206,"current_range_meters":29200,"station_id":"ce4bhk92rcd13ifvqgb0","pricing_plan_id":"free"},{"bike_id":"82062257-a92f-4ad2-83af-5fcbe039d0af","system_id":"levelo_inurba_marseille","lat":43.270721,"lon":5.422764,"is_reserved":false,"is_disabled":false,"rental_uris":{"android":"levelo://app?vid=82062257-a92f-4ad2-83af-5fcbe039d0af","ios":"levelo://app?vid=82062257-a92f-4ad2-83af-5fcbe039d0af"},"vehicle_type_id":"4","last_reported":1706406206,"current_range_meters":26400,"station_id":"ce4bhk92rcd13ifvqgb0","pricing_plan_id":"free"},{"bike_id":"bbcd1969-5929-4f62-a751-7205f2985865","system_id":"levelo_inurba_marseille","lat":43.270721,"lon":5.422764,"is_reserved":false,"is_disabled":false,"rental_uris":{"android":"levelo://app?vid=bbcd1969-5929-4f62-a751-7205f2985865","ios":"levelo://app?vid=bbcd1969-5929-4f62-a751-7205f2985865"},"vehicle_type_id":"4","last_reported":1706406206,"current_range_meters":26800,"station_id":"ce4bhk92rcd13ifvqgb0","pricing_plan_id":"free"},{"bike_id":"cfb928c7-dec7-4937-8ea5-1368256f4402","system_id":"levelo_inurba_marseille","lat":43.27067,"lon":5.42276,"is_reserved":false,"is_disabled":false,"rental_uris":{"android":"levelo://app?vid=cfb928c7-dec7-4937-8ea5-1368256f4402","ios":"levelo://app?vid=cfb928c7-dec7-4937-8ea5-1368256f4402"},"vehicle_type_id":"4","last_reported":1706406206,"current_range_meters":6800,"station_id":"ce4bhk92rcd13ifvqgb0","pricing_plan_id":"free"},{"bike_id":"f6ecb6ed-7515-438c-ad8f-d8fd302f0b0a","system_id":"levelo_inurba_marseille","lat":43.25901,"lon":5.40915,"is_reserved":false,"is_disabled":false,"rental_uris":{"android":"levelo://app?vid=f6ecb6ed-7515-438c-ad8f-d8fd302f0b0a","ios":"levelo://app?vid=f6ecb6ed-7515-438c-ad8f-d8fd302f0b0a"},"vehicle_type_id":"4","last_reported":1706406206,"current_range_meters":29200,"station_id":"ce4bhm92rcd13ifvqglg","pricing_plan_id":"free"},