{"last_updated":1740204733,"ttl":60,"version":"2.2","data":{"bikes":[{"bike_id":"27e3ef3e-e491-4106-a4ae-9f7915015660","system_id":"levelo_inurba_marseille","lat":43.29625,"lon":5.4061,"is_reserved":false,"is_disabled":false,"rental_uris":{"android":"levelo://app?vid=27e3ef3e-e491-4106-a4ae-9f7915015660","ios":"levelo://app?vid=27e3ef3e-e491-4106-a4ae-9f7915015660"},"vehicle_type_id":"4","last_reported":1740204733,"current_range_meters":2800,"station_id":"ce4bh0h2rcd13ifvqd60","pricing_plan_id":"cebpf4jnsgd1na2vs0mg"},{"bike_id":"b293aac4-ec1d-45dd-b36e-053066281b9a","system_id":"levelo_inurba_marseille","lat":43.28477,"lon":5.35915,"is_reserved":false,"is_disabled":false,"rental_uris":{"android":"levelo://app?vid=b293aac4-ec1d-45dd-b36e-053066281b9a","ios":"levelo://app?vid=b293aac4-ec1d-45dd-b36e-053066281b9a"},"vehicle_type_id":"4","last_reported":1740204733,"current_range_meters":3200,"station_id":"ce4bhah2rcd13ifvqei0","pricing_plan_id":"cebpf4jnsgd1na2vs0mg"},{"bike_id":"35fb99a3-2ab9-42d0-8471-4bf52f455fcb","system_id":"levelo_inurba_marseille","lat":43.29964,"lon":5.38527,"is_reserved":false,"is_disabled":true,"rental_uris":{"android":"levelo://app?vid=35fb99a3-2ab9-42d0-8471-4bf52f455fcb","ios":"levelo://app?vid=35fb99a3-2ab9-42d0-8471-4bf52f455fcb"},"vehicle_type_id":"4","last_reported":1740204733,"current_range_meters":3200,"station_id":"ce4bgj92rcd13ifvqbd0","pricing_plan_id":"cebpf4jnsgd1na2vs0mg"},{"bike_id":"f6d43353-41fa-4935-a540-5cd66db2ebd3","system_id":"levelo_inurba_marseille","lat":43.31172,"lon":5.38716,"is_reserved":false,"is_disabled":false,"rental_uris":{"android":"levelo://app?vid=f6d43353-41fa-4935-a540-5cd66db2ebd3","ios":"levelo://app?vid=f6d43353-41fa-4935-a540-5cd66db2ebd3"},"vehicle_type_id":"4","last_reported":1740204733,"current_range_meters":3200,"station_id":"ce4bgv12rcd13ifvqcp0","pricing_plan_id":"cebpf4jnsgd1na2vs0mg"},{"bike_id":"ebac7552-a313-46d9-8ed6-57d579dcb369","system_id":"levelo_inurba_marseille","lat":43.28411,"lon":5.37522,"is_reserved":false,"is_disabled":false,"rental_uris":{"android":"levelo://app?vid=ebac7552-a313-46d9-8ed6-57d579dcb369","ios":"levelo://app?vid=ebac7552-a313-46d9-8ed6-57d579dcb369"},"vehicle_type_id":"4","last_reported":1740204733,"current_range_meters":3200,"station_id":"ce4bh412rcd13ifvqds0","pricing_plan_id":"cebpf4jnsgd1na2vs0mg"},{"bike_id":"6aafab1c-b1fd-4bbd-a318-89366250d32c","system_id":"levelo_inurba_marseille","lat":43.30354,"lon":5.41876,"is_reserved":false,"is_disabled":false,"rental_uris":{"android":"levelo://app?vid=6aafab1c-b1fd-4bbd-a318-89366250d32c","ios":"levelo://app?vid=6aafab1c-b1fd-4bbd-a318-89366250d32c"},"vehicle_type_id":"4","last_reported":1740204733,"current_range_meters":3600,"station_id":"ce4bhop2rcd13ifvqh7g","pricing_plan_id":"cebpf4jnsgd1na2vs0mg"},{"bike_id":"419b4ccf-9337-4dc9-9409-111b92134d45","system_id":"levelo_inurba_marseille","lat":43.26194,"lon":5.37456,"is_reserved":false,"is_disabled":true,"rental_uris":{"android":"levelo://app?vid=419b4ccf-9337-4dc9-9409-111b92134d45","ios":"levelo://app?vid=419b4ccf-9337-4dc9-9409-111b92134d45"},"vehicle_type_id":"4","last_reported":1740204733,"current_range_meters":4000,"station_id":"ce4bhgp2rcd13ifvqfc0","pricing_plan_id":"cebpf4jnsgd1na2vs0mg"},{"bike_id":"b64524a7-6713-4015-aea3-fadffa897151","system_id":"levelo_inurba_marseille","lat":43.29616,"lon":5.40606,"is_reserved":false,"is_disabled":false,"rental_uris":{"android":"levelo://app?vid=b64524a7-6713-4015-aea3-fadffa897151","ios":"levelo://app?vid=b64524a7-6713-4015-aea3-fadffa897151"},"vehicle_type_id":"4","last_reported":1740204733,"current_range_meters":4400,"station_id":"ce4bh0h2rcd13ifvqd60","pricing_plan_id":"cebpf4jnsgd1na2vs0mg"},{"bike_id":"350202bf-5272-4b25-8012-1b5e3cc2c139","system_id":"levelo_inurba_marseille","lat":43.31212,"lon":5.37257,"is_reserved":false,"is_disabled":false,"rental_uris":{"android":"levelo://app?vid=350202bf-5272-4b25-8012-1b5e3cc2c139","ios":"levelo://app?vid=350202bf-5272-4b25-8012-1b5e3cc2c139"},"vehicle_type_id":"4","last_reported":1740204733,"current_range_meters":4400,"station_id":"","pricing_plan_id":"cebpf4jnsgd1na2vs0mg"},{"bike_id":"285f776a-6c37-4c62-8123-b9120720ec65","system_id":"levelo_inurba_marseille","lat":43.24768,"lon":5.39057,"is_reserved":false,"is_disabled":false,"rental_uris":{"android":"levelo://app?vid=285f776a-6c37-4c62-8123-b9120720ec65","ios":"levelo://app?vid=285f776a-6c37-4c62-8123-b9120720ec65"},"vehicle_type_id":"4","last_reported":1740204733,"current_range_meters":4800,"station_id":"","pricing_plan_id":"cebpf4jnsgd1na2vs0mg"},{"bike_id":"2b79b3a7-5b74-49f4-bb58-5d5397f748f9","system_id":"levelo_inurba_marseille","lat":43.2501,"lon":5.38929,"is_reserved":false,"is_disabled":true,"rental_uris":{"android":"levelo://app?vid=2b79b3a7-5b74-49f4-bb58-5d5397f748f9","ios":"levelo://app?vid=2b79b3a7-5b74-49f4-bb58-5d5397f748f9"},"vehicle_type_id":"4","last_reported":1740204733,"current_range_meters":4800,"station_id":"ce4bhgp2rcd13ifvqfd0","pricing_plan_id":"cebpf4jnsgd1na2vs0mg"},{"bike_id":"4c87352b-e4ee-4aa9-b24f-9d6ccdea13e6","system_id":"levelo_inurba_marseille","lat":43.25088,"lon":5.39493,"is_reserved":false,"is_disabled":false,"rental_uris":{"android":"levelo://app?vid=4c87352b-e4ee-4aa9-b24f-9d6ccdea13e6","ios":"levelo://app?vid=4c87352b-e4ee-4aa9-b24f-9d6ccdea13e6"},"vehicle_type_id":"4","last_reported":1740204733,"current_range_meters":4800,"station_id":"ce4bhm12rcd13ifvqgkg","pricing_plan_id":"cebpf4jnsgd1na2vs0mg"},{"bike_id":"6b6e1059-5264-45b9-9cb9-d24cf5205f2a","system_id":"levelo_inurba_marseille","lat":43.23971,"lon":5.36647,"is_reserved":false,"is_disabled":true,"rental_uris":{"android":"levelo://app?vid=6b6e1059-5264-45b9-9cb9-d24cf5205f2a","ios":"levelo://app?vid=6b6e1059-5264-45b9-9cb9-d24cf5205f2a"},"vehicle_type_id":"4","last_reported":1740204733,"current_range_meters":5600,"station_id":"","pricing_plan_id":"cebpf4jnsgd1na2vs0mg"},{"bike_id":"5a5764f9-c6d5-454f-bdeb-9a60287006dd","system_id":"levelo_inurba_marseille","lat":43.27941,"lon":5.4104,"is_reserved":false,"is_disabled":false,"rental_uris":{"android":"levelo://app?vid=5a5764f9-c6d5-454f-bdeb-9a60287006dd","ios":"levelo://app?vid=5a5764f9-c6d5-454f-bdeb-9a60287006dd"},"vehicle_type_id":"4","last_reported":1740204733,"current_range_meters":5600,"station_id":"ce4bhnp2rcd13ifvqh0g","pricing_plan_id":"cebpf4jnsgd1na2vs0mg"},{"bike_id":"f5854577-7162-4a0c-95ac-442e1d72472b","system_id":"levelo_inurba_marseille","lat":43.295611,"lon":5.375315,"is_reserved":false,"is_disabled":false,"rental_uris":{"android":"levelo://app?vid=f5854577-7162-4a0c-95ac-442e1d72472b","ios":"levelo://app?vid=f5854577-7162-4a0c-95ac-442e1d72472b"},"vehicle_type_id":"4","last_reported":1740204733,"current_range_meters":5600,"station_id":"ce4bgh92rcd13ifvqb50","pricing_plan_id":"cebpf4jnsgd1na2vs0mg"},{"bike_id":"0b34320f-1530-4fcc-86f4-70d2a5ac39d6","system_id":"levelo_inurba_marseille","lat":43.27065,"lon":5.40234,"is_reserved":false,"is_disabled":false,"rental_uris":{"android":"levelo://app?vid=0b34320f-1530-4fcc-86f4-70d2a5ac39d6","ios":"levelo://app?vid=0b34320f-1530-4fcc-86f4-70d2a5ac39d6"},"vehicle_type_id":"4","last_reported":1740204733,"current_range_meters":5600,"station_id":"ce4bhk92rcd13ifvqgc0","pricing_plan_id":"cebpf4jnsgd1na2vs0mg"},{"bike_id":"05c4597c-f59e-4c25-913a-88a4d159bd22","system_id":"levelo_inurba_marseille","lat":43.30149,"lon":5.38084,"is_reserved":false,"is_disabled":false,"rental_uris":{"android":"levelo://app?vid=05c4597c-f59e-4c25-913a-88a4d159bd22","ios":"levelo://app?vid=05c4597c-f59e-4c25-913a-88a4d159bd22"},"vehicle_type_id":"4","last_reported":1740204733,"current_range_meters":6400,"station_id":"ce4bgjp2rcd13ifvqbh0","pricing_plan_id":"cebpf4jnsgd1na2vs0mg"},{"bike_id":"b45ab281-2ffb-4786-bbfb-31f4db8658f9","system_id":"levelo_inurba_marseille","lat":43.26584,"lon":5.39043,"is_reserved":false,"is_disabled":false,"rental_uris":{"android":"levelo://app?vid=b45ab281-2ffb-4786-bbfb-31f4db8658f9","ios":"levelo://app?vid=b45ab281-2ffb-4786-bbfb-31f4db8658f9"},"vehicle_type_id":"4","last_reported":1740204733,"current_range_meters":6400,"station_id":"ce4bhe12rcd13ifvqf30","pricing_plan_id":"cebpf4jnsgd1na2vs0mg"},{"bike_id":"c91b3ee2-44d4-427e-ba0b-de9b5f47f5ea","system_id":"levelo_inurba_marseille","lat":43.3083,"lon":5.37171,"is_reserved":false,"is_disabled":false,"rental_uris":{"android":"levelo://app?vid=c91b3ee2-44d4-427e-ba0b-de9b5f47f5ea","ios":"levelo://app?vid=c91b3ee2-44d4-427e-ba0b-de9b5f47f5ea"},"vehicle_type_id":"4","last_reported":1740204733,"current_range_meters":6400,"station_id":"ce4bguh2rcd13ifvqckg","pricing_plan_id":"cebpf4jnsgd1na2vs0mg"},{"bike_id":"4bead99d-197d-4ba0-a20e-7f5fe83ce021","system_id":"levelo_inurba_marseille","lat":43.25103,"lon":5.40349,"is_reserved":false,"is_disabled":false,"rental_uris":{"android":"levelo://app?vid=4bead99d-197d-4ba0-a20e-7f5fe83ce021","ios":"levelo://app?vid=4bead99d-197d-4ba0-a20e-7f5fe83ce021"},"vehicle_type_id":"4","last_reported":1740204733,"current_range_meters":6400,"station_id":"ce4bhlh2rcd13ifvqgig","pricing_plan_id":"cebpf4jnsgd1na2vs0mg"},{"bike_id":"9b657097-6d50-493a-a91f-1e2b4f0d3321","system_id":"levelo_inurba_marseille","lat":43.27911,"lon":5.39582,"is_reserved":false,"is_disabled":false,"rental_uris":{"android":"levelo://app?vid=9b657097-6d50-493a-a91f-1e2b4f0d3321","ios":"levelo://app?vid=9b657097-6d50-493a-a91f-1e2b4f0d3321"},"vehicle_type_id":"4","last_reported":1740204733,"current_range_meters":6400,"station_id":"ce4bhf92rcd13ifvqf40","pricing_plan_id":"cebpf4jnsgd1na2vs0mg"},{"bike_id":"2c01f343-3f49-4b0e-a699-a10894e0de7d","system_id":"levelo_inurba_marseille","lat":43.28145,"lon":5.42649,"is_reserved":false,"is_disabled":false,"rental_uris":{"android":"levelo://app?vid=2c01f343-3f49-4b0e-a699-a10894e0de7d","ios":"levelo://app?vid=2c01f343-3f49-4b0e-a699-a10894e0de7d"},"vehicle_type_id":"4","last_reported":1740204733,"current_range_meters":6400,"station_id":"ce4bhnh2rcd13ifvqgug","pricing_plan_id":"cebpf4jnsgd1na2vs0mg"},{"bike_id":"2e8521de-4b17-4165-9acc-0225ff96fcdb","system_id":"levelo_inurba_marseille","lat":43.28385,"lon":5.37529,"is_reserved":false,"is_disabled":false,"rental_uris":{"android":"levelo://app?vid=2e8521de-4b17-4165-9acc-0225ff96fcdb","ios":"levelo://app?vid=2e8521de-4b17-4165-9acc-0225ff96fcdb"},"vehicle_type_id":"4","last_reported":1740204733,"current_range_meters":6400,"station_id":"ce4bh412rcd13ifvqds0","pricing_plan_id":"cebpf4jnsgd1na2vs0mg"},{"bike_id":"65c71757-2db4-4c2c-8376-cdad3ad25014","system_id":"levelo_inurba_marseille","lat":43.30143,"lon":5.39881,"is_reserved":false,"is_disabled":false,"rental_uris":{"android":"levelo://app?vid=65c71757-2db4-4c2c-8376-cdad3ad25014","ios":"levelo://app?vid=65c71757-2db4-4c2c-8376-cdad3ad25014"},"vehicle_type_id":"4","last_reported":1740204733,"current_range_meters":6400,"station_id":"ce4bh0h2rcd13ifvqd40","pricing_plan_id":"cebpf4jnsgd1na2vs0mg"},{"bike_id":"d2cb6fb4-70b5-4bb1-8fdb-58651e619996","system_id":"levelo_inurba_marseille","lat":43.28408,"lon":5.37529,"is_reserved":false,"is_disabled":false,"rental_uris":{"android":"levelo://app?vid=d2cb6fb4-70b5-4bb1-8fdb-58651e619996","ios":"levelo://app?vid=d2cb6fb4-70b5-4bb1-8fdb-58651e619996"},"vehicle_type_id":"4","last_reported":1740204733,"current_range_meters":6400,"station_id":"ce4bh412rcd13ifvqds0","pricing_plan_id":"cebpf4jnsgd1na2vs0mg"},{"bike_id":"e2124d37-d1a5-4d4d-8c06-fda2ba0b4397","system_id":"levelo_inurba_marseille","lat":43.29192,"lon":5.42716,"is_reserved":false,"is_disabled":false,"rental_uris":{"android":"levelo://app?vid=e2124d37-d1a5-4d4d-8c06-fda2ba0b4397","ios":"levelo://app?vid=e2124d37-d1a5-4d4d-8c06-fda2ba0b4397"},"vehicle_type_id":"4","last_reported":1740204733,"current_range_meters":6800,"station_id":"","pricing_plan_id":"cebpf4jnsgd1na2vs0mg"},{"bike_id":"53b870e3-9ade-4434-9c0c-26dd21d70be8","system_id":"levelo_inurba_marseille","lat":43.3048,"lon":5.37189,"is_reserved":false,"is_disabled":false,"rental_uris":{"android":"levelo://app?vid=53b870e3-9ade-4434-9c0c-26dd21d70be8","ios":"levelo://app?vid=53b870e3-9ade-4434-9c0c-26dd21d70be8"},"vehicle_type_id":"4","last_reported":1740204733,"current_range_meters":6800,"station_id":"","pricing_plan_id":"cebpf4jnsgd1na2vs0mg"},{"bike_id":"0584e728-54f2-4eca-887e-fe95607e016b","system_id":"levelo_inurba_marseille","lat":43.28276,"lon":5.35056,"is_reserved":false,"is_disabled":false,"rental_uris":{"android":"levelo://app?vid=0584e728-54f2-4eca-887e-fe95607e016b","ios":"levelo://app?vid=0584e728-54f2-4eca-887e-fe95607e016b"},"vehicle_type_id":"4","last_reported":1740204733,"current_range_meters":6800,"station_id":"ce4bhbp2rcd13ifvqerg","pricing_plan_id":"cebpf4jnsgd1na2vs0mg"},{"bike_id":"e6b3adbc-9d3e-4a9a-aaef-5b9015925024","system_id":"levelo_inurba_marseille","lat":43.31123,"lon":5.3776,"is_reserved":false,"is_disabled":false,"rental_uris":{"android":"levelo://app?vid=e6b3adbc-9d3e-4a9a-aaef-5b9015925024","ios":"levelo://app?vid=e6b3adbc-9d3e-4a9a-aaef-5b9015925024"},"vehicle_type_id":"4","last_reported":1740204733,"current_range_meters":6800,"station_id":"ce4bgt92rcd13ifvqcg0","pricing_plan_id":"cebpf4jnsgd1na2vs0mg"},{"bike_id":"7c5289cb-0b42-4bee-9961-0cc3ccb86bfe","system_id":"levelo_inurba_marseille","lat":43.24073,"lon":5.37768,"is_reserved":false,"is_disabled":false,"rental_uris":{"android":"levelo://app?vid=7c5289cb-0b42-4bee-9961-0cc3ccb86bfe","ios":"levelo://app?vid=7c5289cb-0b42-4bee-9961-0cc3ccb86bfe"},"vehicle_type_id":"4","last_reported":1740204733,"current_range_meters":6800,"station_id":"ce4bhnp2rcd13ifvqgvg","pricing_plan_id":"cebpf4jnsgd1na2vs0mg"},{"bike_id":"6b639a7f-946c-46db-bdc1-891ca7b3edb2","system_id":"levelo_inurba_marseille","lat":43.28459,"lon":5.358873,"is_reserved":false,"is_disabled":false,"rental_uris":{"android":"levelo://app?vid=6b639a7f-946c-46db-bdc1-891ca7b3edb2","ios":"levelo://app?vid=6b639a7f-946c-46db-bdc1-891ca7b3edb2"},"vehicle_type_id":"4","last_reported":1740204733,"current_range_meters":7200,"station_id":"ce4bhah2rcd13ifvqei0","pricing_plan_id":"cebpf4jnsgd1na2vs0mg"},{"bike_id":"a2e4953e-b369-433b-8261-a64c88b8c43d","system_id":"levelo_inurba_marseille","lat":43.28264,"lon":5.42405,"is_reserved":false,"is_disabled":false,"rental_uris":{"android":"levelo://app?vid=a2e4953e-b369-433b-8261-a64c88b8c43d","ios":"levelo://app?vid=a2e4953e-b369-433b-8261-a64c88b8c43d"},"vehicle_type_id":"4","last_reported":1740204733,"current_range_meters":7200,"station_id":"","pricing_plan_id":"cebpf4jnsgd1na2vs0mg"},{"bike_id":"a7e57524-7096-4476-8d9d-8e8806b1c3d0","system_id":"levelo_inurba_marseille","lat":43.23186,"lon":5.43654,"is_reserved":false,"is_disabled":true,"rental_uris":{"android":"levelo://app?vid=a7e57524-7096-4476-8d9d-8e8806b1c3d0","ios":"levelo://app?vid=a7e57524-7096-4476-8d9d-8e8806b1c3d0"},"vehicle_type_id":"4","last_reported":1740204733,"current_range_meters":7200,"station_id":"ce4bhmp2rcd13ifvqgog","pricing_plan_id":"cebpf4jnsgd1na2vs0mg"},{"bike_id":"e2605be6-729f-4263-a772-380592b3879d","system_id":"levelo_inurba_marseille","lat":43.30494,"lon":5.381,"is_reserved":false,"is_disabled":false,"rental_uris":{"android":"levelo://app?vid=e2605be6-729f-4263-a772-380592b3879d","ios":"levelo://app?vid=e2605be6-729f-4263-a772-380592b3879d"},"vehicle_type_id":"4","last_reported":1740204733,"current_range_meters":7200,"station_id":"","pricing_plan_id":"cebpf4jnsgd1na2vs0mg"},{"bike_id":"646b5cae-2afa-416c-8287-2abe42f0a681","system_id":"levelo_inurba_marseille","lat":43.30417,"lon":5.41284,"is_reserved":false,"is_disabled":false,"rental_uris":{"android":"levelo://app?vid=646b5cae-2afa-416c-8287-2abe42f0a681","ios":"levelo://app?vid=646b5cae-2afa-416c-8287-2abe42f0a681"},"vehicle_type_id":"4","last_reported":1740204733,"current_range_meters":8000,"station_id":"ce4bhop2rcd13ifvqh8g","pricing_plan_id":"cebpf4jnsgd1na2vs0mg"},{"bike_id":"6726115d-85f2-46c3-9205-adcc69db6251","system_id":"levelo_inurba_marseille","lat":43.2857,"lon":5.395,"is_reserved":false,"is_disabled":false,"rental_uris":{"android":"levelo://app?vid=6726115d-85f2-46c3-9205-adcc69db6251","ios":"levelo://app?vid=6726115d-85f2-46c3-9205-adcc69db6251"},"vehicle_type_id":"4","last_reported":1740204733,"current_range_meters":8000,"station_id":"ce4bh292rcd13ifvqdg0","pricing_plan_id":"cebpf4jnsgd1na2vs0mg"},{"bike_id":"c08354d8-2d7f-4528-b12d-bc2942eb1a51","system_id":"levelo_inurba_marseille","lat":43.2924,"lon":5.40923,"is_reserved":false,"is_disabled":false,"rental_uris":{"android":"levelo://app?vid=c08354d8-2d7f-4528-b12d-bc2942eb1a51","ios":"levelo://app?vid=c08354d8-2d7f-4528-b12d-bc2942eb1a51"},"vehicle_type_id":"4","last_reported":1740204733,"current_range_meters":8000,"station_id":"ce4bh192rcd13ifvqdc0","pricing_plan_id":"cebpf4jnsgd1na2vs0mg"},{"bike_id":"2074b46a-4462-434a-b913-d175d76b0c97","system_id":"levelo_inurba_marseille","lat":43.23959,"lon":5.36631,"is_reserved":false,"is_disabled":false,"rental_uris":{"android":"levelo://app?vid=2074b46a-4462-434a-b913-d175d76b0c97","ios":"levelo://app?vid=2074b46a-4462-434a-b913-d175d76b0c97"},"vehicle_type_id":"4","last_reported":1740204733,"current_range_meters":8000,"station_id":"ce4bhi12rcd13ifvqfp0","pricing_plan_id":"cebpf4jnsgd1na2vs0mg"},{"bike_id":"d0109f8e-c695-44b8-83b5-050518c2c6c9","system_id":"levelo_inurba_marseille","lat":43.23061,"lon":5.35496,"is_reserved":false,"is_disabled":false,"rental_uris":{"android":"levelo://app?vid=d0109f8e-c695-44b8-83b5-050518c2c6c9","ios":"levelo://app?vid=d0109f8e-c695-44b8-83b5-050518c2c6c9"},"vehicle_type_id":"4","last_reported":1740204733,"current_range_meters":8000,"station_id":"cpo3342slgdg3j2ifvpg","pricing_plan_id":"cebpf4jnsgd1na2vs0mg"},{"bike_id":"7b9eaf6e-4489-4224-b436-ef6be4484e51","system_id":"levelo_inurba_marseille","lat":43.24807,"lon":5.37464,"is_reserved":false,"is_disabled":false,"rental_uris":{"android":"levelo://app?vid=7b9eaf6e-4489-4224-b436-ef6be4484e51","ios":"levelo://app?vid=7b9eaf6e-4489-4224-b436-ef6be4484e51"},"vehicle_type_id":"4","last_reported":1740204733,"current_range_meters":8000,"station_id":"ce4bhgh2rcd13ifvqfb0","pricing_plan_id":"cebpf4jnsgd1na2vs0mg"},{"bike_id":"e080c45a-a05d-4297-8995-86678422b056","system_id":"levelo_inurba_marseille","lat":43.34423,"lon":5.38099,"is_reserved":false,"is_disabled":false,"rental_uris":{"android":"levelo://app?vid=e080c45a-a05d-4297-8995-86678422b056","ios":"levelo://app?vid=e080c45a-a05d-4297-8995-86678422b056"},"vehicle_type_id":"4","last_reported":1740204733,"current_range_meters":8000,"station_id":"","pricing_plan_id":"cebpf4jnsgd1na2vs0mg"},{"bike_id":"b5d0b986-3383-4aac-b847-d4b44d8302d6","system_id":"levelo_inurba_marseille","lat":43.28702,"lon":5.39978,"is_reserved":false,"is_disabled":false,"rental_uris":{"android":"levelo://app?vid=b5d0b986-3383-4aac-b847-d4b44d8302d6","ios":"levelo://app?vid=b5d0b986-3383-4aac-b847-d4b44d8302d6"},"vehicle_type_id":"4","last_reported":1740204733,"current_range_meters":8400,"station_id":"ce4bho92rcd13ifvqh3g","pricing_plan_id":"cebpf4jnsgd1na2vs0mg"},{"bike_id":"e7b615e3-db9b-4723-ab59-0385b732a269","system_id":"levelo_inurba_marseille","lat":43.29653,"lon":5.3818,"is_reserved":false,"is_disabled":false,"rental_uris":{"android":"levelo://app?vid=e7b615e3-db9b-4723-ab59-0385b732a269","ios":"levelo://app?vid=e7b615e3-db9b-4723-ab59-0385b732a269"},"vehicle_type_id":"4","last_reported":1740204733,"current_range_meters":8400,"station_id":"","pricing_plan_id":"cebpf4jnsgd1na2vs0mg"},{"bike_id":"f299adf8-3643-42b2-9b69-c8ed0ae5fa5d","system_id":"levelo_inurba_marseille","lat":43.29035,"lon":5.35927,"is_reserved":false,"is_disabled":false,"rental_uris":{"android":"levelo://app?vid=f299adf8-3643-42b2-9b69-c8ed0ae5fa5d","ios":"levelo://app?vid=f299adf8-3643-42b2-9b69-c8ed0ae5fa5d"},"vehicle_type_id":"4","last_reported":1740204733,"current_range_meters":8400,"station_id":"ce4bha92rcd13ifvqeg0","pricing_plan_id":"cebpf4jnsgd1na2vs0mg"},{"bike_id":"d414c500-f227-4efb-aabd-f7246cca81bc","system_id":"levelo_inurba_marseille","lat":43.23052,"lon":5.35503,"is_reserved":false,"is_disabled":false,"rental_uris":{"android":"levelo://app?vid=d414c500-f227-4efb-aabd-f7246cca81bc","ios":"levelo://app?vid=d414c500-f227-4efb-aabd-f7246cca81bc"},"vehicle_type_id":"4","last_reported":1740204733,"current_range_meters":8400,"station_id":"cpo3342slgdg3j2ifvpg","pricing_plan_id":"cebpf4jnsgd1na2vs0mg"},{"bike_id":"c0d6c131-aacf-4529-aad8-041fd8310aae","system_id":"levelo_inurba_marseille","lat":43.2913,"lon":5.37566,"is_reserved":false,"is_disabled":false,"rental_uris":{"android":"levelo://app?vid=c0d6c131-aacf-4529-aad8-041fd8310aae","ios":"levelo://app?vid=c0d6c131-aacf-4529-aad8-041fd8310aae"},"vehicle_type_id":"4","last_reported":1740204733,"current_range_meters":8400,"station_id":"","pricing_plan_id":"cebpf4jnsgd1na2vs0mg"},{"bike_id":"f3feea2e-5bf7-41f6-a6d2-c494ec11d6a2","system_id":"levelo_inurba_marseille","lat":43.230658,"lon":5.354909,"is_reserved":false,"is_disabled":false,"rental_uris":{"android":"levelo://app?vid=f3feea2e-5bf7-41f6-a6d2-c494ec11d6a2","ios":"levelo://app?vid=f3feea2e-5bf7-41f6-a6d2-c494ec11d6a2"},"vehicle_type_id":"4","last_reported":1740204733,"current_range_meters":8400,"station_id":"cpo3342slgdg3j2ifvpg","pricing_plan_id":"cebpf4jnsgd1na2vs0mg"},{"bike_id":"417001bc-e8ee-4b24-9108-f07a293bf8c3","system_id":"levelo_inurba_marseille","lat":43.29786,"lon":5.37631,"is_reserved":false,"is_disabled":true,"rental_uris":{"android":"levelo://app?vid=417001bc-e8ee-4b24-9108-f07a293bf8c3","ios":"levelo://app?vid=417001bc-e8ee-4b24-9108-f07a293bf8c3"},"vehicle_type_id":"4","last_reported":1740204733,"current_range_meters":8800,"station_id":"ce4bgkh2rcd13ifvqbl0","pricing_plan_id":"cebpf4jnsgd1na2vs0mg"},{"bike_id":"ff72b3d6-f08b-4cec-82b6-3f5bf8bd662b","system_id":"levelo_inurba_marseille","lat":43.28152,"lon":5.4264,"is_reserved":false,"is_disabled":false,"rental_uris":{"android":"levelo://app?vid=ff72b3d6-f08b-4cec-82b6-3f5bf8bd662b","ios":"levelo://app?vid=ff72b3d6-f08b-4cec-82b6-3f5bf8bd662b"},"vehicle_type_id":"4","last_reported":1740204733,"current_range_meters":8800,"station_id":"ce4bhnh2rcd13ifvqgug","pricing_plan_id":"cebpf4jnsgd1na2vs0mg"},{"bike_id":"2b8d73ad-5137-4320-bf7a-9fcaea6cd84f","system_id":"levelo_inurba_marseille","lat":43.2799,"lon":5.40004,"is_reserved":false,"is_disabled":false,"rental_uris":{"android":"levelo://app?vid=2b8d73ad-5137-4320-bf7a-9fcaea6cd84f","ios":"levelo://app?vid=2b8d73ad-5137-4320-bf7a-9fcaea6cd84f"},"vehicle_type_id":"4","last_reported":1740204733,"current_range_meters":8800,"station_id":"ce4bho92rcd13ifvqh4g","pricing_plan_id":"cebpf4jnsgd1na2vs0mg"},{"bike_id":"ae247aba-916f-4b0f-b2cd-cd9e14ebf058","system_id":"levelo_inurba_marseille","lat":43.30227,"lon":5.40074,"is_reserved":false,"is_disabled":false,"rental_uris":{"android":"levelo://app?vid=ae247aba-916f-4b0f-b2cd-cd9e14ebf058","ios":"levelo://app?vid=ae247aba-916f-4b0f-b2cd-cd9e14ebf058"},"vehicle_type_id":"4","last_reported":1740204733,"current_range_meters":8800,"station_id":"ce4bgvh2rcd13ifvqcs0","pricing_plan_id":"cebpf4jnsgd1na2vs0mg"},{"bike_id":"d27d48ff-9dbf-4f1d-be11-933dfc7fe146","system_id":"levelo_inurba_marseille","lat":43.28408,"lon":5.37515,"is_reserved":false,"is_disabled":false,"rental_uris":{"android":"levelo://app?vid=d27d48ff-9dbf-4f1d-be11-933dfc7fe146","ios":"levelo://app?vid=d27d48ff-9dbf-4f1d-be11-933dfc7fe146"},"vehicle_type_id":"4","last_reported":1740204733,"current_range_meters":8800,"station_id":"ce4bh412rcd13ifvqds0","pricing_plan_id":"cebpf4jnsgd1na2vs0mg"},{"bike_id":"2afb22c7-7048-4615-a3b7-71b0be04e579","system_id":"levelo_inurba_marseille","lat":43.23192,"lon":5.35558,"is_reserved":false,"is_disabled":false,"rental_uris":{"android":"levelo://app?vid=2afb22c7-7048-4615-a3b7-71b0be04e579","ios":"levelo://app?vid=2afb22c7-7048-4615-a3b7-71b0be04e579"},"vehicle_type_id":"4","last_reported":1740204733,"current_range_meters":9200,"station_id":"","pricing_plan_id":"cebpf4jnsgd1na2vs0mg"},{"bike_id":"069e9c22-0e7f-470e-88fe-218121d5200b","system_id":"levelo_inurba_marseille","lat":43.30888,"lon":5.37203,"is_reserved":false,"is_disabled":false,"rental_uris":{"android":"levelo://app?vid=069e9c22-0e7f-470e-88fe-218121d5200b","ios":"levelo://app?vid=069e9c22-0e7f-470e-88fe-218121d5200b"},"vehicle_type_id":"4","last_reported":1740204733,"current_range_meters":9200,"station_id":"ce4bguh2rcd13ifvqckg","pricing_plan_id":"cebpf4jnsgd1na2vs0mg"},{"bike_id":"cae36dad-0073-479c-b08d-8d5d9bfd7657","system_id":"levelo_inurba_marseille","lat":43.28709,"lon":5.39985,"is_reserved":false,"is_disabled":false,"rental_uris":{"android":"levelo://app?vid=cae36dad-0073-479c-b08d-8d5d9bfd7657","ios":"levelo://app?vid=cae36dad-0073-479c-b08d-8d5d9bfd7657"},"vehicle_type_id":"4","last_reported":1740204733,"current_range_meters":9200,"station_id":"ce4bho92rcd13ifvqh3g","pricing_plan_id":"cebpf4jnsgd1na2vs0mg"},{"bike_id":"ab46b189-6bae-4129-a7fd-10b3ccd5a48e","system_id":"levelo_inurba_marseille","lat":43.272,"lon":5.40005,"is_reserved":false,"is_disabled":false,"rental_uris":{"android":"levelo://app?vid=ab46b189-6bae-4129-a7fd-10b3ccd5a48e","ios":"levelo://app?vid=ab46b189-6bae-4129-a7fd-10b3ccd5a48e"},"vehicle_type_id":"4","last_reported":1740204733,"current_range_meters":9200,"station_id":"","pricing_plan_id":"cebpf4jnsgd1na2vs0mg"},{"bike_id":"868b4211-dc44-47bc-9d88-7aa450ba2e04","system_id":"levelo_inurba_marseille","lat":43.28849,"lon":5.39328,"is_reserved":false,"is_disabled":false,"rental_uris":{"android":"levelo://app?vid=868b4211-dc44-47bc-9d88-7aa450ba2e04","ios":"levelo://app?vid=868b4211-dc44-47bc-9d88-7aa450ba2e04"},"vehicle_type_id":"4","last_reported":1740204733,"current_range_meters":9200,"station_id":"ce4bh2p2rcd13ifvqdi0","pricing_plan_id":"cebpf4jnsgd1na2vs0mg"},{"bike_id":"a3326559-58fb-4d90-aa69-5172a95c25d1","system_id":"levelo_inurba_marseille","lat":43.25817,"lon":5.39434,"is_reserved":false,"is_disabled":false,"rental_uris":{"android":"levelo://app?vid=a3326559-58fb-4d90-aa69-5172a95c25d1","ios":"levelo://app?vid=a3326559-58fb-4d90-aa69-5172a95c25d1"},"vehicle_type_id":"4","last_reported":1740204733,"current_range_meters":9200,"station_id":"ce4bhip2rcd13ifvqft0","pricing_plan_id":"cebpf4jnsgd1na2vs0mg"},{"bike_id":"943382b3-3ac2-40b7-baae-7ca1aec3b930","system_id":"levelo_inurba_marseille","lat":43.28138,"lon":5.42673,"is_reserved":false,"is_disabled":false,"rental_uris":{"android":"levelo://app?vid=943382b3-3ac2-40b7-baae-7ca1aec3b930","ios":"levelo://app?vid=943382b3-3ac2-40b7-baae-7ca1aec3b930"},"vehicle_type_id":"4","last_reported":1740204733,"current_range_meters":9200,"station_id":"ce4bhnh2rcd13ifvqgug","pricing_plan_id":"cebpf4jnsgd1na2vs0mg"},{"bike_id":"32cb548e-3f9c-45c3-8ca4-71e2dff11160","system_id":"levelo_inurba_marseille","lat":43.26573,"lon":5.39085,"is_reserved":false,"is_disabled":false,"rental_uris":{"android":"levelo://app?vid=32cb548e-3f9c-45c3-8ca4-71e2dff11160","ios":"levelo://app?vid=32cb548e-3f9c-45c3-8ca4-71e2dff11160"},"vehicle_type_id":"4","last_reported":1740204733,"current_range_meters":9200,"station_id":"","pricing_plan_id":"cebpf4jnsgd1na2vs0mg"},{"bike_id":"fdb03b40-bd01-481d-b60b-5908806de718","system_id":"levelo_inurba_marseille","lat":43.27971,"lon":5.38728,"is_reserved":false,"is_disabled":false,"rental_uris":{"android":"levelo://app?vid=fdb03b40-bd01-481d-b60b-5908806de718","ios":"levelo://app?vid=fdb03b40-bd01-481d-b60b-5908806de718"},"vehicle_type_id":"4","last_reported":1740204733,"current_range_meters":9200,"station_id":"ce4bhg12rcd13ifvqf80","pricing_plan_id":"cebpf4jnsgd1na2vs0mg"},{"bike_id":"f1e696b2-5805-430b-830c-9d9cc0c3b15b","system_id":"levelo_inurba_marseille","lat":43.28449,"lon":5.35904,"is_reserved":false,"is_disabled":false,"rental_uris":{"android":"levelo://app?vid=f1e696b2-5805-430b-830c-9d9cc0c3b15b","ios":"levelo://app?vid=f1e696b2-5805-430b-830c-9d9cc0c3b15b"},"vehicle_type_id":"4","last_reported":1740204733,"current_range_meters":9200,"station_id":"ce4bhah2rcd13ifvqei0","pricing_plan_id":"cebpf4jnsgd1na2vs0mg"},{"bike_id":"742bc5a2-3444-4e4e-844a-5248e8280f90","system_id":"levelo_inurba_marseille","lat":43.25087,"lon":5.39516,"is_reserved":false,"is_disabled":false,"rental_uris":{"android":"levelo://app?vid=742bc5a2-3444-4e4e-844a-5248e8280f90","ios":"levelo://app?vid=742bc5a2-3444-4e4e-844a-5248e8280f90"},"vehicle_type_id":"4","last_reported":1740204733,"current_range_meters":9200,"station_id":"ce4bhm12rcd13ifvqgkg","pricing_plan_id":"cebpf4jnsgd1na2vs0mg"},{"bike_id":"7a811fd9-b132-4914-a795-bbd931482c71","system_id":"levelo_inurba_marseille","lat":43.29531,"lon":5.38551,"is_reserved":false,"is_disabled":true,"rental_uris":{"android":"levelo://app?vid=7a811fd9-b132-4914-a795-bbd931482c71","ios":"levelo://app?vid=7a811fd9-b132-4914-a795-bbd931482c71"},"vehicle_type_id":"4","last_reported":1740204733,"current_range_meters":9600,"station_id":"ce4bgih2rcd13ifvqba0","pricing_plan_id":"cebpf4jnsgd1na2vs0mg"},{"bike_id":"9d5b8fa3-06e6-4d69-a5c4-74d042560aab","system_id":"levelo_inurba_marseille","lat":43.30874,"lon":5.37192,"is_reserved":false,"is_disabled":false,"rental_uris":{"android":"levelo://app?vid=9d5b8fa3-06e6-4d69-a5c4-74d042560aab","ios":"levelo://app?vid=9d5b8fa3-06e6-4d69-a5c4-74d042560aab"},"vehicle_type_id":"4","last_reported":1740204733,"current_range_meters":9600,"station_id":"ce4bguh2rcd13ifvqckg","pricing_plan_id":"cebpf4jnsgd1na2vs0mg"},{"bike_id":"5a096033-b948-48e8-87c2-085932a1e9f3","system_id":"levelo_inurba_marseille","lat":43.25816,"lon":5.39433,"is_reserved":false,"is_disabled":false,"rental_uris":{"android":"levelo://app?vid=5a096033-b948-48e8-87c2-085932a1e9f3","ios":"levelo://app?vid=5a096033-b948-48e8-87c2-085932a1e9f3"},"vehicle_type_id":"4","last_reported":1740204733,"current_range_meters":9600,"station_id":"ce4bhip2rcd13ifvqft0","pricing_plan_id":"cebpf4jnsgd1na2vs0mg"},{"bike_id":"104a1cff-9a75-4e8f-8e84-837fbddf2646","system_id":"levelo_inurba_marseille","lat":43.28722,"lon":5.36095,"is_reserved":false,"is_disabled":false,"rental_uris":{"android":"levelo://app?vid=104a1cff-9a75-4e8f-8e84-837fbddf2646","ios":"levelo://app?vid=104a1cff-9a75-4e8f-8e84-837fbddf2646"},"vehicle_type_id":"4","last_reported":1740204733,"current_range_meters":9600,"station_id":"cki0cbj6b192h4jlfktg","pricing_plan_id":"cebpf4jnsgd1na2vs0mg"},{"bike_id":"c04b81b6-1d78-49d2-a77e-38338694652c","system_id":"levelo_inurba_marseille","lat":43.23617,"lon":5.40983,"is_reserved":false,"is_disabled":false,"rental_uris":{"android":"levelo://app?vid=c04b81b6-1d78-49d2-a77e-38338694652c","ios":"levelo://app?vid=c04b81b6-1d78-49d2-a77e-38338694652c"},"vehicle_type_id":"4","last_reported":1740204733,"current_range_meters":9600,"station_id":"","pricing_plan_id":"cebpf4jnsgd1na2vs0mg"},{"bike_id":"fbdb5bd4-d8df-4cf1-88b9-88590ac3fee1","system_id":"levelo_inurba_marseille","lat":43.24783,"lon":5.37455,"is_reserved":false,"is_disabled":false,"rental_uris":{"android":"levelo://app?vid=fbdb5bd4-d8df-4cf1-88b9-88590ac3fee1","ios":"levelo://app?vid=fbdb5bd4-d8df-4cf1-88b9-88590ac3fee1"},"vehicle_type_id":"4","last_reported":1740204733,"current_range_meters":9600,"station_id":"ce4bhgh2rcd13ifvqfb0","pricing_plan_id":"cebpf4jnsgd1na2vs0mg"},{"bike_id":"5348d5dc-5dca-4978-b167-cd7e8ce45433","system_id":"levelo_inurba_marseille","lat":43.3054,"lon":5.36536,"is_reserved":false,"is_disabled":false,"rental_uris":{"android":"levelo://app?vid=5348d5dc-5dca-4978-b167-cd7e8ce45433","ios":"levelo://app?vid=5348d5dc-5dca-4978-b167-cd7e8ce45433"},"vehicle_type_id":"4","last_reported":1740204733,"current_range_meters":9600,"station_id":"ce4bgs12rcd13ifvqcag","pricing_plan_id":"cebpf4jnsgd1na2vs0mg"},{"bike_id":"7a70627c-d6ce-44b8-ac37-c3aa96fdadd7","system_id":"levelo_inurba_marseille","lat":43.32565,"lon":5.36633,"is_reserved":false,"is_disabled":false,"rental_uris":{"android":"levelo://app?vid=7a70627c-d6ce-44b8-ac37-c3aa96fdadd7","ios":"levelo://app?vid=7a70627c-d6ce-44b8-ac37-c3aa96fdadd7"},"vehicle_type_id":"4","last_reported":1740204733,"current_range_meters":9600,"station_id":"","pricing_plan_id":"cebpf4jnsgd1na2vs0mg"},{"bike_id":"9323b8a3-2703-45b9-8db8-7cdca8df81ac","system_id":"levelo_inurba_marseille","lat":43.28717,"lon":5.36081,"is_reserved":false,"is_disabled":false,"rental_uris":{"android":"levelo://app?vid=9323b8a3-2703-45b9-8db8-7cdca8df81ac","ios":"levelo://app?vid=9323b8a3-2703-45b9-8db8-7cdca8df81ac"},"vehicle_type_id":"4","last_reported":1740204733,"current_range_meters":9600,"station_id":"cki0cbj6b192h4jlfktg","pricing_plan_id":"cebpf4jnsgd1na2vs0mg"},{"bike_id":"3c8aac07-80ad-4986-a150-17fd9f678e45","system_id":"levelo_inurba_marseille","lat":43.2419,"lon":5.39732,"is_reserved":false,"is_disabled":false,"rental_uris":{"android":"levelo://app?vid=3c8aac07-80ad-4986-a150-17fd9f678e45","ios":"levelo://app?vid=3c8aac07-80ad-4986-a150-17fd9f678e45"},"vehicle_type_id":"4","last_reported":1740204733,"current_range_meters":9600,"station_id":"ce4bhn12rcd13ifvqgpg","pricing_plan_id":"cebpf4jnsgd1na2vs0mg"},{"bike_id":"e501be99-a171-4e91-9e5b-ac547e4c06f2","system_id":"levelo_inurba_marseille","lat":43.23189,"lon":5.35561,"is_reserved":false,"is_disabled":false,"rental_uris":{"android":"levelo://app?vid=e501be99-a171-4e91-9e5b-ac547e4c06f2","ios":"levelo://app?vid=e501be99-a171-4e91-9e5b-ac547e4c06f2"},"vehicle_type_id":"4","last_reported":1740204733,"current_range_meters":9600,"station_id":"ce4bhu92rcd13ifvqi70","pricing_plan_id":"cebpf4jnsgd1na2vs0mg"},{"bike_id":"a5861d8a-322b-4fa8-9cf5-48f1ed0493f0","system_id":"levelo_inurba_marseille","lat":43.26941,"lon":5.38637,"is_reserved":false,"is_disabled":true,"rental_uris":{"android":"levelo://app?vid=a5861d8a-322b-4fa8-9cf5-48f1ed0493f0","ios":"levelo://app?vid=a5861d8a-322b-4fa8-9cf5-48f1ed0493f0"},"vehicle_type_id":"4","last_reported":1740204733,"current_range_meters":10000,"station_id":"ce4bhh92rcd13ifvqfh0","pricing_plan_id":"cebpf4jnsgd1na2vs0mg"},{"bike_id":"f32fe46d-1120-4c2c-97c5-cdbf2de4ccec","system_id":"levelo_inurba_marseille","lat":43.2594,"lon":5.40907,"is_reserved":false,"is_disabled":false,"rental_uris":{"android":"levelo://app?vid=f32fe46d-1120-4c2c-97c5-cdbf2de4ccec","ios":"levelo://app?vid=f32fe46d-1120-4c2c-97c5-cdbf2de4ccec"},"vehicle_type_id":"4","last_reported":1740204733,"current_range_meters":10000,"station_id":"ce4bhm92rcd13ifvqglg","pricing_plan_id":"cebpf4jnsgd1na2vs0mg"},{"bike_id":"aa6b079d-ac76-4c64-aa3c-29b3f6dad2e1","system_id":"levelo_inurba_marseille","lat":43.28111,"lon":5.42648,"is_reserved":false,"is_disabled":false,"rental_uris":{"android":"levelo://app?vid=aa6b079d-ac76-4c64-aa3c-29b3f6dad2e1","ios":"levelo://app?vid=aa6b079d-ac76-4c64-aa3c-29b3f6dad2e1"},"vehicle_type_id":"4","last_reported":1740204733,"current_range_meters":10000,"station_id":"ce4bhnh2rcd13ifvqgug","pricing_plan_id":"cebpf4jnsgd1na2vs0mg"},{"bike_id":"104cc81f-2dc0-4a55-8242-f461230322d5","system_id":"levelo_inurba_marseille","lat":43.28567,"lon":5.39513,"is_reserved":false,"is_disabled":false,"rental_uris":{"android":"levelo://app?vid=104cc81f-2dc0-4a55-8242-f461230322d5","ios":"levelo://app?vid=104cc81f-2dc0-4a55-8242-f461230322d5"},"vehicle_type_id":"4","last_reported":1740204733,"current_range_meters":10000,"station_id":"ce4bh292rcd13ifvqdg0","pricing_plan_id":"cebpf4jnsgd1na2vs0mg"},{"bike_id":"92b87f91-a221-42d6-851b-adc1a494e425","system_id":"levelo_inurba_marseille","lat":43.28565,"lon":5.39504,"is_reserved":false,"is_disabled":false,"rental_uris":{"android":"levelo://app?vid=92b87f91-a221-42d6-851b-adc1a494e425","ios":"levelo://app?vid=92b87f91-a221-42d6-851b-adc1a494e425"},"vehicle_type_id":"4","last_reported":1740204733,"current_range_meters":10000,"station_id":"ce4bh292rcd13ifvqdg0","pricing_plan_id":"cebpf4jnsgd1na2vs0mg"},{"bike_id":"6b04f75f-fb5c-42fe-a63b-5e82daec1ece","system_id":"levelo_inurba_marseille","lat":43.2558,"lon":5.38249,"is_reserved":false,"is_disabled":false,"rental_uris":{"android":"levelo://app?vid=6b04f75f-fb5c-42fe-a63b-5e82daec1ece","ios":"levelo://app?vid=6b04f75f-fb5c-42fe-a63b-5e82daec1ece"},"vehicle_type_id":"4","last_reported":1740204733,"current_range_meters":10000,"station_id":"ce4bhih2rcd13ifvqfs0","pricing_plan_id":"cebpf4jnsgd1na2vs0mg"},{"bike_id":"78b97302-9c59-42d1-a13f-5e8c85841d45","system_id":"levelo_inurba_marseille","lat":43.2656,"lon":5.39028,"is_reserved":false,"is_disabled":false,"rental_uris":{"android":"levelo://app?vid=78b97302-9c59-42d1-a13f-5e8c85841d45","ios":"levelo://app?vid=78b97302-9c59-42d1-a13f-5e8c85841d45"},"vehicle_type_id":"4","last_reported":1740204733,"current_range_meters":10000,"station_id":"ce4bhe12rcd13ifvqf30","pricing_plan_id":"cebpf4jnsgd1na2vs0mg"},{"bike_id":"db862aa0-6d5c-4557-b8a1-8d27f720ed6e","system_id":"levelo_inurba_marseille","lat":43.27992,"lon":5.400186,"is_reserved":false,"is_disabled":false,"rental_uris":{"android":"levelo://app?vid=db862aa0-6d5c-4557-b8a1-8d27f720ed6e","ios":"levelo://app?vid=db862aa0-6d5c-4557-b8a1-8d27f720ed6e"},"vehicle_type_id":"4","last_reported":1740204733,"current_range_meters":10800,"station_id":"ce4bho92rcd13ifvqh4g","pricing_plan_id":"cebpf4jnsgd1na2vs0mg"},{"bike_id":"c0dec5ae-41bd-43b8-b71c-9140150dda3b","system_id":"levelo_inurba_marseille","lat":43.23958,"lon":5.36636,"is_reserved":false,"is_disabled":false,"rental_uris":{"android":"levelo://app?vid=c0dec5ae-41bd-43b8-b71c-9140150dda3b","ios":"levelo://app?vid=c0dec5ae-41bd-43b8-b71c-9140150dda3b"},"vehicle_type_id":"4","last_reported":1740204733,"current_range_meters":10800,"station_id":"ce4bhi12rcd13ifvqfp0","pricing_plan_id":"cebpf4jnsgd1na2vs0mg"},{"bike_id":"3372843d-d9b8-48e7-a75e-62d9bb27ba4f","system_id":"levelo_inurba_marseille","lat":43.27905,"lon":5.39589,"is_reserved":false,"is_disabled":false,"rental_uris":{"android":"levelo://app?vid=3372843d-d9b8-48e7-a75e-62d9bb27ba4f","ios":"levelo://app?vid=3372843d-d9b8-48e7-a75e-62d9bb27ba4f"},"vehicle_type_id":"4","last_reported":1740204733,"current_range_meters":10800,"station_id":"ce4bhf92rcd13ifvqf40","pricing_plan_id":"cebpf4jnsgd1na2vs0mg"},{"bike_id":"08b85738-489c-4fdf-abcb-17da0e494013","system_id":"levelo_inurba_marseille","lat":43.27891,"lon":5.39606,"is_reserved":false,"is_disabled":false,"rental_uris":{"android":"levelo://app?vid=08b85738-489c-4fdf-abcb-17da0e494013","ios":"levelo://app?vid=08b85738-489c-4fdf-abcb-17da0e494013"},"vehicle_type_id":"4","last_reported":1740204733,"current_range_meters":10800,"station_id":"ce4bhf92rcd13ifvqf40","pricing_plan_id":"cebpf4jnsgd1na2vs0mg"},{"bike_id":"a404738f-d592-4923-bb7f-8cad6bf8fec4","system_id":"levelo_inurba_marseille","lat":43.27949,"lon":5.38495,"is_reserved":false,"is_disabled":false,"rental_uris":{"android":"levelo://app?vid=a404738f-d592-4923-bb7f-8cad6bf8fec4","ios":"levelo://app?vid=a404738f-d592-4923-bb7f-8cad6bf8fec4"},"vehicle_type_id":"4","last_reported":1740204733,"current_range_meters":10800,"station_id":"","pricing_plan_id":"cebpf4jnsgd1na2vs0mg"},{"bike_id":"4a4239fd-3515-4dbf-a368-54413f687b1f","system_id":"levelo_inurba_marseille","lat":43.28414,"lon":5.37512,"is_reserved":false,"is_disabled":false,"rental_uris":{"android":"levelo://app?vid=4a4239fd-3515-4dbf-a368-54413f687b1f","ios":"levelo://app?vid=4a4239fd-3515-4dbf-a368-54413f687b1f"},"vehicle_type_id":"4","last_reported":1740204733,"current_range_meters":10800,"station_id":"ce4bh412rcd13ifvqds0","pricing_plan_id":"cebpf4jnsgd1na2vs0mg"},{"bike_id":"af1107fa-d68e-4f88-b9a9-b5e22ec9744f","system_id":"levelo_inurba_marseille","lat":43.23035,"lon":5.35572,"is_reserved":false,"is_disabled":false,"rental_uris":{"android":"levelo://app?vid=af1107fa-d68e-4f88-b9a9-b5e22ec9744f","ios":"levelo://app?vid=af1107fa-d68e-4f88-b9a9-b5e22ec9744f"},"vehicle_type_id":"4","last_reported":1740204733,"current_range_meters":10800,"station_id":"cpo3342slgdg3j2ifvpg","pricing_plan_id":"cebpf4jnsgd1na2vs0mg"},{"bike_id":"718c3a69-842c-4223-8226-083bef674d23","system_id":"levelo_inurba_marseille","lat":43.25582,"lon":5.38261,"is_reserved":false,"is_disabled":false,"rental_uris":{"android":"levelo://app?vid=718c3a69-842c-4223-8226-083bef674d23","ios":"levelo://app?vid=718c3a69-842c-4223-8226-083bef674d23"},"vehicle_type_id":"4","last_reported":1740204733,"current_range_meters":10800,"station_id":"ce4bhih2rcd13ifvqfs0","pricing_plan_id":"cebpf4jnsgd1na2vs0mg"},{"bike_id":"275c6989-ff86-4e1f-8d47-af3f92e61b74","system_id":"levelo_inurba_marseille","lat":43.27921,"lon":5.39575,"is_reserved":false,"is_disabled":false,"rental_uris":{"android":"levelo://app?vid=275c6989-ff86-4e1f-8d47-af3f92e61b74","ios":"levelo://app?vid=275c6989-ff86-4e1f-8d47-af3f92e61b74"},"vehicle_type_id":"4","last_reported":1740204733,"current_range_meters":10800,"station_id":"ce4bhf92rcd13ifvqf40","pricing_plan_id":"cebpf4jnsgd1na2vs0mg"},{"bike_id":"b985ad1f-1942-453b-b5eb-7462cafd1e31","system_id":"levelo_inurba_marseille","lat":43.23191,"lon":5.35561,"is_reserved":false,"is_disabled":false,"rental_uris":{"android":"levelo://app?vid=b985ad1f-1942-453b-b5eb-7462cafd1e31","ios":"levelo://app?vid=b985ad1f-1942-453b-b5eb-7462cafd1e31"},"vehicle_type_id":"4","last_reported":1740204733,"current_range_meters":10800,"station_id":"ce4bhu92rcd13ifvqi70","pricing_plan_id":"cebpf4jnsgd1na2vs0mg"},{"bike_id":"78ccc1b5-e05d-4c30-bc5b-473f9d97e2cd","system_id":"levelo_inurba_marseille","lat":43.30095,"lon":5.37801,"is_reserved":false,"is_disabled":false,"rental_uris":{"android":"levelo://app?vid=78ccc1b5-e05d-4c30-bc5b-473f9d97e2cd","ios":"levelo://app?vid=78ccc1b5-e05d-4c30-bc5b-473f9d97e2cd"},"vehicle_type_id":"4","last_reported":1740204733,"current_range_meters":11200,"station_id":"","pricing_plan_id":"cebpf4jnsgd1na2vs0mg"},{"bike_id":"d93b56e8-81a2-4df1-b772-ccfe1aba8adb","system_id":"levelo_inurba_marseille","lat":43.29455,"lon":5.39071,"is_reserved":false,"is_disabled":false,"rental_uris":{"android":"levelo://app?vid=d93b56e8-81a2-4df1-b772-ccfe1aba8adb","ios":"levelo://app?vid=d93b56e8-81a2-4df1-b772-ccfe1aba8adb"},"vehicle_type_id":"4","last_reported":1740204733,"current_range_meters":11200,"station_id":"","pricing_plan_id":"cebpf4jnsgd1na2vs0mg"},{"bike_id":"cc44d644-fb69-419f-a389-3f5e55deac08","system_id":"levelo_inurba_marseille","lat":43.291992,"lon":5.393186,"is_reserved":false,"is_disabled":false,"rental_uris":{"android":"levelo://app?vid=cc44d644-fb69-419f-a389-3f5e55deac08","ios":"levelo://app?vid=cc44d644-fb69-419f-a389-3f5e55deac08"},"vehicle_type_id":"4","last_reported":1740204733,"current_range_meters":11200,"station_id":"ce4bh192rcd13ifvqdd0","pricing_plan_id":"cebpf4jnsgd1na2vs0mg"},{"bike_id":"265e0085-dbb2-442c-82c5-057359849f03","system_id":"levelo_inurba_marseille","lat":43.26566,"lon":5.39015,"is_reserved":false,"is_disabled":false,"rental_uris":{"android":"levelo://app?vid=265e0085-dbb2-442c-82c5-057359849f03","ios":"levelo://app?vid=265e0085-dbb2-442c-82c5-057359849f03"},"vehicle_type_id":"4","last_reported":1740204733,"current_range_meters":11200,"station_id":"ce4bhe12rcd13ifvqf30","pricing_plan_id":"cebpf4jnsgd1na2vs0mg"},{"bike_id":"54b45f3b-f685-44dd-8b79-1a758bf759d2","system_id":"levelo_inurba_marseille","lat":43.337444,"lon":5.374475,"is_reserved":false,"is_disabled":true,"rental_uris":{"android":"levelo://app?vid=54b45f3b-f685-44dd-8b79-1a758bf759d2","ios":"levelo://app?vid=54b45f3b-f685-44dd-8b79-1a758bf759d2"},"vehicle_type_id":"4","last_reported":1740204733,"current_range_meters":11200,"station_id":"","pricing_plan_id":"cebpf4jnsgd1na2vs0mg"},{"bike_id":"35331f57-b06c-41f1-8224-4eb3668702eb","system_id":"levelo_inurba_marseille","lat":43.23046,"lon":5.35501,"is_reserved":false,"is_disabled":false,"rental_uris":{"android":"levelo://app?vid=35331f57-b06c-41f1-8224-4eb3668702eb","ios":"levelo://app?vid=35331f57-b06c-41f1-8224-4eb3668702eb"},"vehicle_type_id":"4","last_reported":1740204733,"current_range_meters":11200,"station_id":"cpo3342slgdg3j2ifvpg","pricing_plan_id":"cebpf4jnsgd1na2vs0mg"},{"bike_id":"1bb7db80-3871-413c-ab2d-3515cfae14be","system_id":"levelo_inurba_marseille","lat":43.30277,"lon":5.40051,"is_reserved":false,"is_disabled":false,"rental_uris":{"android":"levelo://app?vid=1bb7db80-3871-413c-ab2d-3515cfae14be","ios":"levelo://app?vid=1bb7db80-3871-413c-ab2d-3515cfae14be"},"vehicle_type_id":"4","last_reported":1740204733,"current_range_meters":11600,"station_id":"ce4bgvh2rcd13ifvqcs0","pricing_plan_id":"cebpf4jnsgd1na2vs0mg"},{"bike_id":"6c2ab6e6-2d04-4225-b04d-1f709ec68055","system_id":"levelo_inurba_marseille","lat":43.229269,"lon":5.354044,"is_reserved":false,"is_disabled":false,"rental_uris":{"android":"levelo://app?vid=6c2ab6e6-2d04-4225-b04d-1f709ec68055","ios":"levelo://app?vid=6c2ab6e6-2d04-4225-b04d-1f709ec68055"},"vehicle_type_id":"4","last_reported":1740204733,"current_range_meters":11600,"station_id":"cpo3532slgdg3j2ikp40","pricing_plan_id":"cebpf4jnsgd1na2vs0mg"},{"bike_id":"daebfd60-67e2-4d10-8a42-90733f08394f","system_id":"levelo_inurba_marseille","lat":43.28227,"lon":5.40296,"is_reserved":false,"is_disabled":false,"rental_uris":{"android":"levelo://app?vid=daebfd60-67e2-4d10-8a42-90733f08394f","ios":"levelo://app?vid=daebfd60-67e2-4d10-8a42-90733f08394f"},"vehicle_type_id":"4","last_reported":1740204733,"current_range_meters":12000,"station_id":"","pricing_plan_id":"cebpf4jnsgd1na2vs0mg"},{"bike_id":"d312ce1d-aae9-4c62-a1e8-38c15d95735a","system_id":"levelo_inurba_marseille","lat":43.22946,"lon":5.35405,"is_reserved":false,"is_disabled":false,"rental_uris":{"android":"levelo://app?vid=d312ce1d-aae9-4c62-a1e8-38c15d95735a","ios":"levelo://app?vid=d312ce1d-aae9-4c62-a1e8-38c15d95735a"},"vehicle_type_id":"4","last_reported":1740204733,"current_range_meters":12000,"station_id":"cpo3532slgdg3j2ikp40","pricing_plan_id":"cebpf4jnsgd1na2vs0mg"},{"bike_id":"089b421a-1c36-49ca-a690-f002c1cadcb6","system_id":"levelo_inurba_marseille","lat":43.24182,"lon":5.36424,"is_reserved":false,"is_disabled":false,"rental_uris":{"android":"levelo://app?vid=089b421a-1c36-49ca-a690-f002c1cadcb6","ios":"levelo://app?vid=089b421a-1c36-49ca-a690-f002c1cadcb6"},"vehicle_type_id":"4","last_reported":1740204733,"current_range_meters":12000,"station_id":"cpo36qri1sfpv3e86is0","pricing_plan_id":"cebpf4jnsgd1na2vs0mg"},{"bike_id":"997a74cc-c838-40aa-8d2b-9cf7867b18c7","system_id":"levelo_inurba_marseille","lat":43.25821,"lon":5.39447,"is_reserved":false,"is_disabled":false,"rental_uris":{"android":"levelo://app?vid=997a74cc-c838-40aa-8d2b-9cf7867b18c7","ios":"levelo://app?vid=997a74cc-c838-40aa-8d2b-9cf7867b18c7"},"vehicle_type_id":"4","last_reported":1740204733,"current_range_meters":12000,"station_id":"ce4bhip2rcd13ifvqft0","pricing_plan_id":"cebpf4jnsgd1na2vs0mg"},{"bike_id":"a843b7bf-825f-466d-b5d5-1b9b4d73dcf9","system_id":"levelo_inurba_marseille","lat":43.29386,"lon":5.38804,"is_reserved":false,"is_disabled":false,"rental_uris":{"android":"levelo://app?vid=a843b7bf-825f-466d-b5d5-1b9b4d73dcf9","ios":"levelo://app?vid=a843b7bf-825f-466d-b5d5-1b9b4d73dcf9"},"vehicle_type_id":"4","last_reported":1740204733,"current_range_meters":12000,"station_id":"","pricing_plan_id":"cebpf4jnsgd1na2vs0mg"},{"bike_id":"9591195f-17bf-4638-9b86-4f8b37e93d8e","system_id":"levelo_inurba_marseille","lat":43.30126,"lon":5.38787,"is_reserved":false,"is_disabled":false,"rental_uris":{"android":"levelo://app?vid=9591195f-17bf-4638-9b86-4f8b37e93d8e","ios":"levelo://app?vid=9591195f-17bf-4638-9b86-4f8b37e93d8e"},"vehicle_type_id":"4","last_reported":1740204733,"current_range_meters":12000,"station_id":"ce4bghh2rcd13ifvqb60","pricing_plan_id":"cebpf4jnsgd1na2vs0mg"},{"bike_id":"2e8b1b89-b249-4468-85cb-15bdcc0e862d","system_id":"levelo_inurba_marseille","lat":43.28452,"lon":5.35886,"is_reserved":false,"is_disabled":false,"rental_uris":{"android":"levelo://app?vid=2e8b1b89-b249-4468-85cb-15bdcc0e862d","ios":"levelo://app?vid=2e8b1b89-b249-4468-85cb-15bdcc0e862d"},"vehicle_type_id":"4","last_reported":1740204733,"current_range_meters":12000,"station_id":"ce4bhah2rcd13ifvqei0","pricing_plan_id":"cebpf4jnsgd1na2vs0mg"},{"bike_id":"996a076a-47a9-409e-b132-b3e0f9f2a75b","system_id":"levelo_inurba_marseille","lat":43.24678,"lon":5.38149,"is_reserved":false,"is_disabled":false,"rental_uris":{"android":"levelo://app?vid=996a076a-47a9-409e-b132-b3e0f9f2a75b","ios":"levelo://app?vid=996a076a-47a9-409e-b132-b3e0f9f2a75b"},"vehicle_type_id":"4","last_reported":1740204733,"current_range_meters":12000,"station_id":"ce4bhih2rcd13ifvqfr0","pricing_plan_id":"cebpf4jnsgd1na2vs0mg"},{"bike_id":"fd1bd7a7-5aaa-49a8-ade0-9f3ab3adc337","system_id":"levelo_inurba_marseille","lat":43.31207,"lon":5.38667,"is_reserved":false,"is_disabled":false,"rental_uris":{"android":"levelo://app?vid=fd1bd7a7-5aaa-49a8-ade0-9f3ab3adc337","ios":"levelo://app?vid=fd1bd7a7-5aaa-49a8-ade0-9f3ab3adc337"},"vehicle_type_id":"4","last_reported":1740204733,"current_range_meters":12400,"station_id":"","pricing_plan_id":"cebpf4jnsgd1na2vs0mg"},{"bike_id":"2cc51be8-3d37-4d75-afde-af294fd2823e","system_id":"levelo_inurba_marseille","lat":43.29846,"lon":5.36267,"is_reserved":false,"is_disabled":false,"rental_uris":{"android":"levelo://app?vid=2cc51be8-3d37-4d75-afde-af294fd2823e","ios":"levelo://app?vid=2cc51be8-3d37-4d75-afde-af294fd2823e"},"vehicle_type_id":"4","last_reported":1740204733,"current_range_meters":12400,"station_id":"ce4bgpp2rcd13ifvqc3g","pricing_plan_id":"cebpf4jnsgd1na2vs0mg"},{"bike_id":"dff557ff-126c-48c2-9538-9412d8f07010","system_id":"levelo_inurba_marseille","lat":43.27918,"lon":5.39587,"is_reserved":false,"is_disabled":false,"rental_uris":{"android":"levelo://app?vid=dff557ff-126c-48c2-9538-9412d8f07010","ios":"levelo://app?vid=dff557ff-126c-48c2-9538-9412d8f07010"},"vehicle_type_id":"4","last_reported":1740204733,"current_range_meters":12400,"station_id":"ce4bhf92rcd13ifvqf40","pricing_plan_id":"cebpf4jnsgd1na2vs0mg"},{"bike_id":"38c2196f-60da-4a86-be5c-c989272553dd","system_id":"levelo_inurba_marseille","lat":43.28481,"lon":5.38423,"is_reserved":false,"is_disabled":false,"rental_uris":{"android":"levelo://app?vid=38c2196f-60da-4a86-be5c-c989272553dd","ios":"levelo://app?vid=38c2196f-60da-4a86-be5c-c989272553dd"},"vehicle_type_id":"4","last_reported":1740204733,"current_range_meters":12400,"station_id":"ce4bh512rcd13ifvqe3g","pricing_plan_id":"cebpf4jnsgd1na2vs0mg"},{"bike_id":"3c232bab-88ac-4592-9031-c21395fd8a78","system_id":"levelo_inurba_marseille","lat":43.32351,"lon":5.36751,"is_reserved":false,"is_disabled":false,"rental_uris":{"android":"levelo://app?vid=3c232bab-88ac-4592-9031-c21395fd8a78","ios":"levelo://app?vid=3c232bab-88ac-4592-9031-c21395fd8a78"},"vehicle_type_id":"4","last_reported":1740204733,"current_range_meters":12800,"station_id":"ce4bhsh2rcd13ifvqi2g","pricing_plan_id":"cebpf4jnsgd1na2vs0mg"},{"bike_id":"7c8f3d05-5401-4545-847e-9fcee9ea83d5","system_id":"levelo_inurba_marseille","lat":43.26575,"lon":5.39859,"is_reserved":false,"is_disabled":false,"rental_uris":{"android":"levelo://app?vid=7c8f3d05-5401-4545-847e-9fcee9ea83d5","ios":"levelo://app?vid=7c8f3d05-5401-4545-847e-9fcee9ea83d5"},"vehicle_type_id":"4","last_reported":1740204733,"current_range_meters":12800,"station_id":"","pricing_plan_id":"cebpf4jnsgd1na2vs0mg"},{"bike_id":"6e274d9f-89d8-4a25-a4f3-c30449f9d08e","system_id":"levelo_inurba_marseille","lat":43.25711,"lon":5.41112,"is_reserved":false,"is_disabled":false,"rental_uris":{"android":"levelo://app?vid=6e274d9f-89d8-4a25-a4f3-c30449f9d08e","ios":"levelo://app?vid=6e274d9f-89d8-4a25-a4f3-c30449f9d08e"},"vehicle_type_id":"4","last_reported":1740204733,"current_range_meters":12800,"station_id":"ce4bhkp2rcd13ifvqgd0","pricing_plan_id":"cebpf4jnsgd1na2vs0mg"},{"bike_id":"c2a249cc-1213-47e6-83c0-90a96fbf7048","system_id":"levelo_inurba_marseille","lat":43.27799,"lon":5.4073,"is_reserved":false,"is_disabled":true,"rental_uris":{"android":"levelo://app?vid=c2a249cc-1213-47e6-83c0-90a96fbf7048","ios":"levelo://app?vid=c2a249cc-1213-47e6-83c0-90a96fbf7048"},"vehicle_type_id":"4","last_reported":1740204733,"current_range_meters":13600,"station_id":"ce4bhnh2rcd13ifvqgtg","pricing_plan_id":"cebpf4jnsgd1na2vs0mg"},{"bike_id":"8ab72027-be6f-4216-bb6a-609d441593f8","system_id":"levelo_inurba_marseille","lat":43.29104,"lon":5.3878,"is_reserved":false,"is_disabled":false,"rental_uris":{"android":"levelo://app?vid=8ab72027-be6f-4216-bb6a-609d441593f8","ios":"levelo://app?vid=8ab72027-be6f-4216-bb6a-609d441593f8"},"vehicle_type_id":"4","last_reported":1740204733,"current_range_meters":13600,"station_id":"","pricing_plan_id":"cebpf4jnsgd1na2vs0mg"},{"bike_id":"412e5196-2a4a-414b-81c7-778a48150174","system_id":"levelo_inurba_marseille","lat":43.27821,"lon":5.40716,"is_reserved":false,"is_disabled":false,"rental_uris":{"android":"levelo://app?vid=412e5196-2a4a-414b-81c7-778a48150174","ios":"levelo://app?vid=412e5196-2a4a-414b-81c7-778a48150174"},"vehicle_type_id":"4","last_reported":1740204733,"current_range_meters":13600,"station_id":"ce4bhnh2rcd13ifvqgtg","pricing_plan_id":"cebpf4jnsgd1na2vs0mg"},{"bike_id":"7bd13ee2-e52b-43cb-a712-c66477f5a94f","system_id":"levelo_inurba_marseille","lat":43.28472,"lon":5.35886,"is_reserved":false,"is_disabled":false,"rental_uris":{"android":"levelo://app?vid=7bd13ee2-e52b-43cb-a712-c66477f5a94f","ios":"levelo://app?vid=7bd13ee2-e52b-43cb-a712-c66477f5a94f"},"vehicle_type_id":"4","last_reported":1740204733,"current_range_meters":14000,"station_id":"ce4bhah2rcd13ifvqei0","pricing_plan_id":"cebpf4jnsgd1na2vs0mg"},{"bike_id":"1c2ebff0-e1b3-47cd-b132-f19902c4ebb4","system_id":"levelo_inurba_marseille","lat":43.28703,"lon":5.37393,"is_reserved":false,"is_disabled":false,"rental_uris":{"android":"levelo://app?vid=1c2ebff0-e1b3-47cd-b132-f19902c4ebb4","ios":"levelo://app?vid=1c2ebff0-e1b3-47cd-b132-f19902c4ebb4"},"vehicle_type_id":"4","last_reported":1740204733,"current_range_meters":14000,"station_id":"ce4bh3p2rcd13ifvqdq0","pricing_plan_id":"cebpf4jnsgd1na2vs0mg"},{"bike_id":"31a35964-9be5-4b4d-b7a9-8c74b1f4260d","system_id":"levelo_inurba_marseille","lat":43.28024,"lon":5.40573,"is_reserved":false,"is_disabled":false,"rental_uris":{"android":"levelo://app?vid=31a35964-9be5-4b4d-b7a9-8c74b1f4260d","ios":"levelo://app?vid=31a35964-9be5-4b4d-b7a9-8c74b1f4260d"},"vehicle_type_id":"4","last_reported":1740204733,"current_range_meters":14000,"station_id":"","pricing_plan_id":"cebpf4jnsgd1na2vs0mg"},{"bike_id":"8bc4404e-fd2a-4186-a85b-9c8c457edc30","system_id":"levelo_inurba_marseille","lat":43.29276,"lon":5.40119,"is_reserved":false,"is_disabled":false,"rental_uris":{"android":"levelo://app?vid=8bc4404e-fd2a-4186-a85b-9c8c457edc30","ios":"levelo://app?vid=8bc4404e-fd2a-4186-a85b-9c8c457edc30"},"vehicle_type_id":"4","last_reported":1740204733,"current_range_meters":14000,"station_id":"ce4bh312rcd13ifvqdk0","pricing_plan_id":"cebpf4jnsgd1na2vs0mg"},{"bike_id":"1951b280-e8ac-4fa5-a3ef-806580107c2a","system_id":"levelo_inurba_marseille","lat":43.28156,"lon":5.4265,"is_reserved":false,"is_disabled":false,"rental_uris":{"android":"levelo://app?vid=1951b280-e8ac-4fa5-a3ef-806580107c2a","ios":"levelo://app?vid=1951b280-e8ac-4fa5-a3ef-806580107c2a"},"vehicle_type_id":"4","last_reported":1740204733,"current_range_meters":14400,"station_id":"ce4bhnh2rcd13ifvqgug","pricing_plan_id":"cebpf4jnsgd1na2vs0mg"},{"bike_id":"c56820ec-afc4-49d0-bdf5-efc4a2017ff0","system_id":"levelo_inurba_marseille","lat":43.284616,"lon":5.358909,"is_reserved":false,"is_disabled":false,"rental_uris":{"android":"levelo://app?vid=c56820ec-afc4-49d0-bdf5-efc4a2017ff0","ios":"levelo://app?vid=c56820ec-afc4-49d0-bdf5-efc4a2017ff0"},"vehicle_type_id":"4","last_reported":1740204733,"current_range_meters":14400,"station_id":"ce4bhah2rcd13ifvqei0","pricing_plan_id":"cebpf4jnsgd1na2vs0mg"},{"bike_id":"e49c55a6-77f0-44e2-9a5a-3263ad7fc811","system_id":"levelo_inurba_marseille","lat":43.25087,"lon":5.39544,"is_reserved":false,"is_disabled":false,"rental_uris":{"android":"levelo://app?vid=e49c55a6-77f0-44e2-9a5a-3263ad7fc811","ios":"levelo://app?vid=e49c55a6-77f0-44e2-9a5a-3263ad7fc811"},"vehicle_type_id":"4","last_reported":1740204733,"current_range_meters":14400,"station_id":"ce4bhm12rcd13ifvqgkg","pricing_plan_id":"cebpf4jnsgd1na2vs0mg"},{"bike_id":"0b35ef10-1d1d-4e8a-949e-c3122c5e3874","system_id":"levelo_inurba_marseille","lat":43.23956,"lon":5.36635,"is_reserved":false,"is_disabled":false,"rental_uris":{"android":"levelo://app?vid=0b35ef10-1d1d-4e8a-949e-c3122c5e3874","ios":"levelo://app?vid=0b35ef10-1d1d-4e8a-949e-c3122c5e3874"},"vehicle_type_id":"4","last_reported":1740204733,"current_range_meters":14400,"station_id":"ce4bhi12rcd13ifvqfp0","pricing_plan_id":"cebpf4jnsgd1na2vs0mg"},{"bike_id":"fc719a48-4f02-4ff0-a0b0-5867ff99caf1","system_id":"levelo_inurba_marseille","lat":43.304136,"lon":5.412859,"is_reserved":false,"is_disabled":false,"rental_uris":{"android":"levelo://app?vid=fc719a48-4f02-4ff0-a0b0-5867ff99caf1","ios":"levelo://app?vid=fc719a48-4f02-4ff0-a0b0-5867ff99caf1"},"vehicle_type_id":"4","last_reported":1740204733,"current_range_meters":14400,"station_id":"ce4bhop2rcd13ifvqh8g","pricing_plan_id":"cebpf4jnsgd1na2vs0mg"},{"bike_id":"0c383ce5-56f4-475d-a51d-5eb362fcd4f5","system_id":"levelo_inurba_marseille","lat":43.28695,"lon":5.39989,"is_reserved":false,"is_disabled":false,"rental_uris":{"android":"levelo://app?vid=0c383ce5-56f4-475d-a51d-5eb362fcd4f5","ios":"levelo://app?vid=0c383ce5-56f4-475d-a51d-5eb362fcd4f5"},"vehicle_type_id":"4","last_reported":1740204733,"current_range_meters":14400,"station_id":"ce4bho92rcd13ifvqh3g","pricing_plan_id":"cebpf4jnsgd1na2vs0mg"},{"bike_id":"56561fe9-474b-409b-a34b-ef1c747c9173","system_id":"levelo_inurba_marseille","lat":43.30419,"lon":5.37797,"is_reserved":false,"is_disabled":false,"rental_uris":{"android":"levelo://app?vid=56561fe9-474b-409b-a34b-ef1c747c9173","ios":"levelo://app?vid=56561fe9-474b-409b-a34b-ef1c747c9173"},"vehicle_type_id":"4","last_reported":1740204733,"current_range_meters":14400,"station_id":"ce4bgup2rcd13ifvqcn0","pricing_plan_id":"cebpf4jnsgd1na2vs0mg"},{"bike_id":"a89d4714-5021-4706-9c1a-f8f3afcc8d1e","system_id":"levelo_inurba_marseille","lat":43.28854,"lon":5.35851,"is_reserved":false,"is_disabled":false,"rental_uris":{"android":"levelo://app?vid=a89d4714-5021-4706-9c1a-f8f3afcc8d1e","ios":"levelo://app?vid=a89d4714-5021-4706-9c1a-f8f3afcc8d1e"},"vehicle_type_id":"4","last_reported":1740204733,"current_range_meters":14400,"station_id":"ce4bhb12rcd13ifvqem0","pricing_plan_id":"cebpf4jnsgd1na2vs0mg"},{"bike_id":"519c0d90-c598-4074-9c80-d5e1565ff705","system_id":"levelo_inurba_marseille","lat":43.230527,"lon":5.355008,"is_reserved":false,"is_disabled":false,"rental_uris":{"android":"levelo://app?vid=519c0d90-c598-4074-9c80-d5e1565ff705","ios":"levelo://app?vid=519c0d90-c598-4074-9c80-d5e1565ff705"},"vehicle_type_id":"4","last_reported":1740204733,"current_range_meters":14800,"station_id":"cpo3342slgdg3j2ifvpg","pricing_plan_id":"cebpf4jnsgd1na2vs0mg"},{"bike_id":"e1806998-26ad-4692-ae75-0a4efe3d228f","system_id":"levelo_inurba_marseille","lat":43.28435,"lon":5.39176,"is_reserved":false,"is_disabled":false,"rental_uris":{"android":"levelo://app?vid=e1806998-26ad-4692-ae75-0a4efe3d228f","ios":"levelo://app?vid=e1806998-26ad-4692-ae75-0a4efe3d228f"},"vehicle_type_id":"4","last_reported":1740204733,"current_range_meters":14800,"station_id":"ce4bhoh2rcd13ifvqh5g","pricing_plan_id":"cebpf4jnsgd1na2vs0mg"},{"bike_id":"f2583835-6391-492f-adcd-0276b5ac89b1","system_id":"levelo_inurba_marseille","lat":43.25668,"lon":5.41111,"is_reserved":false,"is_disabled":false,"rental_uris":{"android":"levelo://app?vid=f2583835-6391-492f-adcd-0276b5ac89b1","ios":"levelo://app?vid=f2583835-6391-492f-adcd-0276b5ac89b1"},"vehicle_type_id":"4","last_reported":1740204733,"current_range_meters":14800,"station_id":"ce4bhkp2rcd13ifvqgd0","pricing_plan_id":"cebpf4jnsgd1na2vs0mg"},{"bike_id":"51b8d644-1ab0-4ee3-8ccc-21b10331ae8d","system_id":"levelo_inurba_marseille","lat":43.30299,"lon":5.36891,"is_reserved":false,"is_disabled":false,"rental_uris":{"android":"levelo://app?vid=51b8d644-1ab0-4ee3-8ccc-21b10331ae8d","ios":"levelo://app?vid=51b8d644-1ab0-4ee3-8ccc-21b10331ae8d"},"vehicle_type_id":"4","last_reported":1740204733,"current_range_meters":15200,"station_id":"ce4bgqh2rcd13ifvqc5g","pricing_plan_id":"cebpf4jnsgd1na2vs0mg"},{"bike_id":"05f2bea0-a8b7-4ebb-b4a5-de83bfe8e8e8","system_id":"levelo_inurba_marseille","lat":43.30916,"lon":5.37458,"is_reserved":false,"is_disabled":false,"rental_uris":{"android":"levelo://app?vid=05f2bea0-a8b7-4ebb-b4a5-de83bfe8e8e8","ios":"levelo://app?vid=05f2bea0-a8b7-4ebb-b4a5-de83bfe8e8e8"},"vehicle_type_id":"4","last_reported":1740204733,"current_range_meters":15200,"station_id":"","pricing_plan_id":"cebpf4jnsgd1na2vs0mg"},{"bike_id":"06b5b92e-20c2-4581-8ccf-06307578ea44","system_id":"levelo_inurba_marseille","lat":43.27187,"lon":5.41002,"is_reserved":false,"is_disabled":false,"rental_uris":{"android":"levelo://app?vid=06b5b92e-20c2-4581-8ccf-06307578ea44","ios":"levelo://app?vid=06b5b92e-20c2-4581-8ccf-06307578ea44"},"vehicle_type_id":"4","last_reported":1740204733,"current_range_meters":15200,"station_id":"ce4bhl12rcd13ifvqgf0","pricing_plan_id":"cebpf4jnsgd1na2vs0mg"},{"bike_id":"d88699b9-7a50-415c-9cdb-a35fdc00ed80","system_id":"levelo_inurba_marseille","lat":43.29934,"lon":5.37193,"is_reserved":false,"is_disabled":false,"rental_uris":{"android":"levelo://app?vid=d88699b9-7a50-415c-9cdb-a35fdc00ed80","ios":"levelo://app?vid=d88699b9-7a50-415c-9cdb-a35fdc00ed80"},"vehicle_type_id":"4","last_reported":1740204733,"current_range_meters":15200,"station_id":"","pricing_plan_id":"cebpf4jnsgd1na2vs0mg"},{"bike_id":"dc1fce77-a765-4398-991f-f895da3f81f0","system_id":"levelo_inurba_marseille","lat":43.31132,"lon":5.37777,"is_reserved":false,"is_disabled":false,"rental_uris":{"android":"levelo://app?vid=dc1fce77-a765-4398-991f-f895da3f81f0","ios":"levelo://app?vid=dc1fce77-a765-4398-991f-f895da3f81f0"},"vehicle_type_id":"4","last_reported":1740204733,"current_range_meters":16000,"station_id":"ce4bgt92rcd13ifvqcg0","pricing_plan_id":"cebpf4jnsgd1na2vs0mg"},{"bike_id":"28498ee2-b4bb-4960-b2b4-76a6ca099e78","system_id":"levelo_inurba_marseille","lat":43.28405,"lon":5.37513,"is_reserved":false,"is_disabled":false,"rental_uris":{"android":"levelo://app?vid=28498ee2-b4bb-4960-b2b4-76a6ca099e78","ios":"levelo://app?vid=28498ee2-b4bb-4960-b2b4-76a6ca099e78"},"vehicle_type_id":"4","last_reported":1740204733,"current_range_meters":16000,"station_id":"ce4bh412rcd13ifvqds0","pricing_plan_id":"cebpf4jnsgd1na2vs0mg"},{"bike_id":"1b0d6542-f74d-4dd5-b78b-1cd1115ff80b","system_id":"levelo_inurba_marseille","lat":43.30615,"lon":5.37397,"is_reserved":false,"is_disabled":false,"rental_uris":{"android":"levelo://app?vid=1b0d6542-f74d-4dd5-b78b-1cd1115ff80b","ios":"levelo://app?vid=1b0d6542-f74d-4dd5-b78b-1cd1115ff80b"},"vehicle_type_id":"4","last_reported":1740204733,"current_range_meters":16000,"station_id":"","pricing_plan_id":"cebpf4jnsgd1na2vs0mg"},{"bike_id":"ecb792ba-e590-4d62-97cc-1e9b429064df","system_id":"levelo_inurba_marseille","lat":43.25002,"lon":5.38936,"is_reserved":false,"is_disabled":false,"rental_uris":{"android":"levelo://app?vid=ecb792ba-e590-4d62-97cc-1e9b429064df","ios":"levelo://app?vid=ecb792ba-e590-4d62-97cc-1e9b429064df"},"vehicle_type_id":"4","last_reported":1740204733,"current_range_meters":16000,"station_id":"ce4bhgp2rcd13ifvqfd0","pricing_plan_id":"cebpf4jnsgd1na2vs0mg"},{"bike_id":"b4ad5a5a-ca13-4a8c-8e6f-c12eff087aa7","system_id":"levelo_inurba_marseille","lat":43.25076,"lon":5.39528,"is_reserved":false,"is_disabled":false,"rental_uris":{"android":"levelo://app?vid=b4ad5a5a-ca13-4a8c-8e6f-c12eff087aa7","ios":"levelo://app?vid=b4ad5a5a-ca13-4a8c-8e6f-c12eff087aa7"},"vehicle_type_id":"4","last_reported":1740204733,"current_range_meters":16000,"station_id":"ce4bhm12rcd13ifvqgkg","pricing_plan_id":"cebpf4jnsgd1na2vs0mg"},{"bike_id":"fbb2bad0-99e6-4736-9de6-ac42bd2be903","system_id":"levelo_inurba_marseille","lat":43.29197,"lon":5.39339,"is_reserved":false,"is_disabled":false,"rental_uris":{"android":"levelo://app?vid=fbb2bad0-99e6-4736-9de6-ac42bd2be903","ios":"levelo://app?vid=fbb2bad0-99e6-4736-9de6-ac42bd2be903"},"vehicle_type_id":"4","last_reported":1740204733,"current_range_meters":16000,"station_id":"ce4bh192rcd13ifvqdd0","pricing_plan_id":"cebpf4jnsgd1na2vs0mg"},{"bike_id":"d27f3297-6bb0-4f38-8b5b-4ac69705e7a9","system_id":"levelo_inurba_marseille","lat":43.31781,"lon":5.38978,"is_reserved":false,"is_disabled":false,"rental_uris":{"android":"levelo://app?vid=d27f3297-6bb0-4f38-8b5b-4ac69705e7a9","ios":"levelo://app?vid=d27f3297-6bb0-4f38-8b5b-4ac69705e7a9"},"vehicle_type_id":"4","last_reported":1740204733,"current_range_meters":16000,"station_id":"ce4bhqp2rcd13ifvqhng","pricing_plan_id":"cebpf4jnsgd1na2vs0mg"},{"bike_id":"005e5eb8-39b1-40fe-bf10-36f6bd3cba88","system_id":"levelo_inurba_marseille","lat":43.28338,"lon":5.38637,"is_reserved":false,"is_disabled":false,"rental_uris":{"android":"levelo://app?vid=005e5eb8-39b1-40fe-bf10-36f6bd3cba88","ios":"levelo://app?vid=005e5eb8-39b1-40fe-bf10-36f6bd3cba88"},"vehicle_type_id":"4","last_reported":1740204733,"current_range_meters":16000,"station_id":"ce4bh492rcd13ifvqdvg","pricing_plan_id":"cebpf4jnsgd1na2vs0mg"},{"bike_id":"dab960d9-1ede-46dd-ade3-a5360c9021cf","system_id":"levelo_inurba_marseille","lat":43.23191,"lon":5.35554,"is_reserved":false,"is_disabled":false,"rental_uris":{"android":"levelo://app?vid=dab960d9-1ede-46dd-ade3-a5360c9021cf","ios":"levelo://app?vid=dab960d9-1ede-46dd-ade3-a5360c9021cf"},"vehicle_type_id":"4","last_reported":1740204733,"current_range_meters":16000,"station_id":"ce4bhu92rcd13ifvqi70","pricing_plan_id":"cebpf4jnsgd1na2vs0mg"},{"bike_id":"cfaad917-6703-4f3b-8105-3de57a1c412d","system_id":"levelo_inurba_marseille","lat":43.29172,"lon":5.386,"is_reserved":false,"is_disabled":false,"rental_uris":{"android":"levelo://app?vid=cfaad917-6703-4f3b-8105-3de57a1c412d","ios":"levelo://app?vid=cfaad917-6703-4f3b-8105-3de57a1c412d"},"vehicle_type_id":"4","last_reported":1740204733,"current_range_meters":16000,"station_id":"","pricing_plan_id":"cebpf4jnsgd1na2vs0mg"},{"bike_id":"27bae36e-e0ce-4599-8510-76481ef93c55","system_id":"levelo_inurba_marseille","lat":43.30154,"lon":5.3809,"is_reserved":false,"is_disabled":false,"rental_uris":{"android":"levelo://app?vid=27bae36e-e0ce-4599-8510-76481ef93c55","ios":"levelo://app?vid=27bae36e-e0ce-4599-8510-76481ef93c55"},"vehicle_type_id":"4","last_reported":1740204733,"current_range_meters":15200,"station_id":"ce4bgjp2rcd13ifvqbh0","pricing_plan_id":"cebpf4jnsgd1na2vs0mg"},{"bike_id":"7b3cabe1-5c29-42e3-875a-0ef9e45b503e","system_id":"levelo_inurba_marseille","lat":43.29236,"lon":5.40916,"is_reserved":false,"is_disabled":false,"rental_uris":{"android":"levelo://app?vid=7b3cabe1-5c29-42e3-875a-0ef9e45b503e","ios":"levelo://app?vid=7b3cabe1-5c29-42e3-875a-0ef9e45b503e"},"vehicle_type_id":"4","last_reported":1740204733,"current_range_meters":16000,"station_id":"ce4bh192rcd13ifvqdc0","pricing_plan_id":"cebpf4jnsgd1na2vs0mg"},{"bike_id":"1b5b87c8-f96f-4740-8b60-bcc62c6e3f59","system_id":"levelo_inurba_marseille","lat":43.314,"lon":5.38469,"is_reserved":false,"is_disabled":false,"rental_uris":{"android":"levelo://app?vid=1b5b87c8-f96f-4740-8b60-bcc62c6e3f59","ios":"levelo://app?vid=1b5b87c8-f96f-4740-8b60-bcc62c6e3f59"},"vehicle_type_id":"4","last_reported":1740204733,"current_range_meters":16000,"station_id":"ce4bgt92rcd13ifvqcf0","pricing_plan_id":"cebpf4jnsgd1na2vs0mg"},{"bike_id":"c47f3d98-2abe-4c97-9c9c-e2ee8dd37b49","system_id":"levelo_inurba_marseille","lat":43.25576,"lon":5.38251,"is_reserved":false,"is_disabled":false,"rental_uris":{"android":"levelo://app?vid=c47f3d98-2abe-4c97-9c9c-e2ee8dd37b49","ios":"levelo://app?vid=c47f3d98-2abe-4c97-9c9c-e2ee8dd37b49"},"vehicle_type_id":"4","last_reported":1740204733,"current_range_meters":16000,"station_id":"ce4bhih2rcd13ifvqfs0","pricing_plan_id":"cebpf4jnsgd1na2vs0mg"},{"bike_id":"eb354cf3-daf0-4f07-9e6f-1eb2682396af","system_id":"levelo_inurba_marseille","lat":43.27993,"lon":5.40017,"is_reserved":false,"is_disabled":false,"rental_uris":{"android":"levelo://app?vid=eb354cf3-daf0-4f07-9e6f-1eb2682396af","ios":"levelo://app?vid=eb354cf3-daf0-4f07-9e6f-1eb2682396af"},"vehicle_type_id":"4","last_reported":1740204733,"current_range_meters":16000,"station_id":"ce4bho92rcd13ifvqh4g","pricing_plan_id":"cebpf4jnsgd1na2vs0mg"},{"bike_id":"e985c6df-42dc-42f6-9942-2accd57dfefa","system_id":"levelo_inurba_marseille","lat":43.27044,"lon":5.40275,"is_reserved":false,"is_disabled":false,"rental_uris":{"android":"levelo://app?vid=e985c6df-42dc-42f6-9942-2accd57dfefa","ios":"levelo://app?vid=e985c6df-42dc-42f6-9942-2accd57dfefa"},"vehicle_type_id":"4","last_reported":1740204733,"current_range_meters":16000,"station_id":"ce4bhk92rcd13ifvqgc0","pricing_plan_id":"cebpf4jnsgd1na2vs0mg"},{"bike_id":"1f7411cd-9379-4bab-a8bc-411b928d8602","system_id":"levelo_inurba_marseille","lat":43.27491,"lon":5.42453,"is_reserved":false,"is_disabled":false,"rental_uris":{"android":"levelo://app?vid=1f7411cd-9379-4bab-a8bc-411b928d8602","ios":"levelo://app?vid=1f7411cd-9379-4bab-a8bc-411b928d8602"},"vehicle_type_id":"4","last_reported":1740204733,"current_range_meters":16400,"station_id":"ce4bhn92rcd13ifvqgrg","pricing_plan_id":"cebpf4jnsgd1na2vs0mg"},{"bike_id":"a7b6cd9b-e0f0-4aa3-b507-21ef2efc3605","system_id":"levelo_inurba_marseille","lat":43.30189,"lon":5.3664,"is_reserved":false,"is_disabled":false,"rental_uris":{"android":"levelo://app?vid=a7b6cd9b-e0f0-4aa3-b507-21ef2efc3605","ios":"levelo://app?vid=a7b6cd9b-e0f0-4aa3-b507-21ef2efc3605"},"vehicle_type_id":"4","last_reported":1740204733,"current_range_meters":16400,"station_id":"ce4bgrh2rcd13ifvqc8g","pricing_plan_id":"cebpf4jnsgd1na2vs0mg"},{"bike_id":"467a0ac7-872c-4bb6-8ee3-3c6f458a51d9","system_id":"levelo_inurba_marseille","lat":43.27904,"lon":5.41244,"is_reserved":false,"is_disabled":false,"rental_uris":{"android":"levelo://app?vid=467a0ac7-872c-4bb6-8ee3-3c6f458a51d9","ios":"levelo://app?vid=467a0ac7-872c-4bb6-8ee3-3c6f458a51d9"},"vehicle_type_id":"4","last_reported":1740204733,"current_range_meters":16400,"station_id":"","pricing_plan_id":"cebpf4jnsgd1na2vs0mg"},{"bike_id":"6897935d-90c4-4aaa-81bd-a334d1112cb3","system_id":"levelo_inurba_marseille","lat":43.24669,"lon":5.38157,"is_reserved":false,"is_disabled":false,"rental_uris":{"android":"levelo://app?vid=6897935d-90c4-4aaa-81bd-a334d1112cb3","ios":"levelo://app?vid=6897935d-90c4-4aaa-81bd-a334d1112cb3"},"vehicle_type_id":"4","last_reported":1740204733,"current_range_meters":16400,"station_id":"ce4bhih2rcd13ifvqfr0","pricing_plan_id":"cebpf4jnsgd1na2vs0mg"},{"bike_id":"ab8e4fa1-a748-4b68-9f46-2fdc2afb052f","system_id":"levelo_inurba_marseille","lat":43.25833,"lon":5.39431,"is_reserved":false,"is_disabled":false,"rental_uris":{"android":"levelo://app?vid=ab8e4fa1-a748-4b68-9f46-2fdc2afb052f","ios":"levelo://app?vid=ab8e4fa1-a748-4b68-9f46-2fdc2afb052f"},"vehicle_type_id":"4","last_reported":1740204733,"current_range_meters":16400,"station_id":"ce4bhip2rcd13ifvqft0","pricing_plan_id":"cebpf4jnsgd1na2vs0mg"},{"bike_id":"8b52c24a-60e9-4f95-8f6d-a404db75239c","system_id":"levelo_inurba_marseille","lat":43.27388,"lon":5.36259,"is_reserved":false,"is_disabled":false,"rental_uris":{"android":"levelo://app?vid=8b52c24a-60e9-4f95-8f6d-a404db75239c","ios":"levelo://app?vid=8b52c24a-60e9-4f95-8f6d-a404db75239c"},"vehicle_type_id":"4","last_reported":1740204733,"current_range_meters":16400,"station_id":"ce4bhbh2rcd13ifvqeo0","pricing_plan_id":"cebpf4jnsgd1na2vs0mg"},{"bike_id":"d5566d2e-78e8-488f-b3e7-c9c338cd491f","system_id":"levelo_inurba_marseille","lat":43.27493,"lon":5.42457,"is_reserved":false,"is_disabled":false,"rental_uris":{"android":"levelo://app?vid=d5566d2e-78e8-488f-b3e7-c9c338cd491f","ios":"levelo://app?vid=d5566d2e-78e8-488f-b3e7-c9c338cd491f"},"vehicle_type_id":"4","last_reported":1740204733,"current_range_meters":16400,"station_id":"ce4bhn92rcd13ifvqgrg","pricing_plan_id":"cebpf4jnsgd1na2vs0mg"},{"bike_id":"12ffda0a-87e5-4f79-b284-3416cf7a96d4","system_id":"levelo_inurba_marseille","lat":43.25862,"lon":5.39918,"is_reserved":false,"is_disabled":false,"rental_uris":{"android":"levelo://app?vid=12ffda0a-87e5-4f79-b284-3416cf7a96d4","ios":"levelo://app?vid=12ffda0a-87e5-4f79-b284-3416cf7a96d4"},"vehicle_type_id":"4","last_reported":1740204733,"current_range_meters":16400,"station_id":"ce4bhl92rcd13ifvqghg","pricing_plan_id":"cebpf4jnsgd1na2vs0mg"},{"bike_id":"a6076d25-d844-412a-85fb-dcdd847e5197","system_id":"levelo_inurba_marseille","lat":43.29246,"lon":5.40943,"is_reserved":false,"is_disabled":false,"rental_uris":{"android":"levelo://app?vid=a6076d25-d844-412a-85fb-dcdd847e5197","ios":"levelo://app?vid=a6076d25-d844-412a-85fb-dcdd847e5197"},"vehicle_type_id":"4","last_reported":1740204733,"current_range_meters":16400,"station_id":"ce4bh192rcd13ifvqdc0","pricing_plan_id":"cebpf4jnsgd1na2vs0mg"},{"bike_id":"a6b3d48d-4c62-470f-acf0-9e792886753f","system_id":"levelo_inurba_marseille","lat":43.28152,"lon":5.42647,"is_reserved":false,"is_disabled":false,"rental_uris":{"android":"levelo://app?vid=a6b3d48d-4c62-470f-acf0-9e792886753f","ios":"levelo://app?vid=a6b3d48d-4c62-470f-acf0-9e792886753f"},"vehicle_type_id":"4","last_reported":1740204733,"current_range_meters":16400,"station_id":"ce4bhnh2rcd13ifvqgug","pricing_plan_id":"cebpf4jnsgd1na2vs0mg"},{"bike_id":"faa979f5-2a78-49ad-a5e4-6a95cbd8ed70","system_id":"levelo_inurba_marseille","lat":43.29956,"lon":5.37192,"is_reserved":false,"is_disabled":false,"rental_uris":{"android":"levelo://app?vid=faa979f5-2a78-49ad-a5e4-6a95cbd8ed70","ios":"levelo://app?vid=faa979f5-2a78-49ad-a5e4-6a95cbd8ed70"},"vehicle_type_id":"4","last_reported":1740204733,"current_range_meters":16400,"station_id":"ce4bgr92rcd13ifvqc7g","pricing_plan_id":"cebpf4jnsgd1na2vs0mg"},{"bike_id":"bc558735-2479-4391-a735-df6e67205a24","system_id":"levelo_inurba_marseille","lat":43.25106,"lon":5.4033,"is_reserved":false,"is_disabled":false,"rental_uris":{"android":"levelo://app?vid=bc558735-2479-4391-a735-df6e67205a24","ios":"levelo://app?vid=bc558735-2479-4391-a735-df6e67205a24"},"vehicle_type_id":"4","last_reported":1740204733,"current_range_meters":16400,"station_id":"ce4bhlh2rcd13ifvqgig","pricing_plan_id":"cebpf4jnsgd1na2vs0mg"},{"bike_id":"38f9bc40-639e-4f64-87e9-15092cc7344e","system_id":"levelo_inurba_marseille","lat":43.34415,"lon":5.38166,"is_reserved":false,"is_disabled":false,"rental_uris":{"android":"levelo://app?vid=38f9bc40-639e-4f64-87e9-15092cc7344e","ios":"levelo://app?vid=38f9bc40-639e-4f64-87e9-15092cc7344e"},"vehicle_type_id":"4","last_reported":1740204733,"current_range_meters":16400,"station_id":"","pricing_plan_id":"cebpf4jnsgd1na2vs0mg"},{"bike_id":"96b9f7c0-cd3c-40d1-bc41-8a82bed04cc8","system_id":"levelo_inurba_marseille","lat":43.292717,"lon":5.368432,"is_reserved":false,"is_disabled":true,"rental_uris":{"android":"levelo://app?vid=96b9f7c0-cd3c-40d1-bc41-8a82bed04cc8","ios":"levelo://app?vid=96b9f7c0-cd3c-40d1-bc41-8a82bed04cc8"},"vehicle_type_id":"4","last_reported":1740204733,"current_range_meters":16400,"station_id":"ce4bhbp2rcd13ifvqesg","pricing_plan_id":"cebpf4jnsgd1na2vs0mg"},{"bike_id":"3971b9ad-8b33-41a5-8799-31b103f45972","system_id":"levelo_inurba_marseille","lat":43.31703,"lon":5.40456,"is_reserved":false,"is_disabled":false,"rental_uris":{"android":"levelo://app?vid=3971b9ad-8b33-41a5-8799-31b103f45972","ios":"levelo://app?vid=3971b9ad-8b33-41a5-8799-31b103f45972"},"vehicle_type_id":"4","last_reported":1740204733,"current_range_meters":16800,"station_id":"ce4bh012rcd13ifvqd00","pricing_plan_id":"cebpf4jnsgd1na2vs0mg"},{"bike_id":"8ae434c3-c941-4fb7-a68e-77ad594543d8","system_id":"levelo_inurba_marseille","lat":43.295543,"lon":5.42269,"is_reserved":false,"is_disabled":false,"rental_uris":{"android":"levelo://app?vid=8ae434c3-c941-4fb7-a68e-77ad594543d8","ios":"levelo://app?vid=8ae434c3-c941-4fb7-a68e-77ad594543d8"},"vehicle_type_id":"4","last_reported":1740204733,"current_range_meters":16800,"station_id":"ce4bhph2rcd13ifvqhdg","pricing_plan_id":"cebpf4jnsgd1na2vs0mg"},{"bike_id":"f75b7c43-b1e9-419b-9e88-97af31d30220","system_id":"levelo_inurba_marseille","lat":43.23954,"lon":5.3665,"is_reserved":false,"is_disabled":false,"rental_uris":{"android":"levelo://app?vid=f75b7c43-b1e9-419b-9e88-97af31d30220","ios":"levelo://app?vid=f75b7c43-b1e9-419b-9e88-97af31d30220"},"vehicle_type_id":"4","last_reported":1740204733,"current_range_meters":16800,"station_id":"ce4bhi12rcd13ifvqfp0","pricing_plan_id":"cebpf4jnsgd1na2vs0mg"},{"bike_id":"f80834c2-0945-451f-8443-2bca53fe1129","system_id":"levelo_inurba_marseille","lat":43.30255,"lon":5.4008,"is_reserved":false,"is_disabled":false,"rental_uris":{"android":"levelo://app?vid=f80834c2-0945-451f-8443-2bca53fe1129","ios":"levelo://app?vid=f80834c2-0945-451f-8443-2bca53fe1129"},"vehicle_type_id":"4","last_reported":1740204733,"current_range_meters":16800,"station_id":"ce4bgvh2rcd13ifvqcs0","pricing_plan_id":"cebpf4jnsgd1na2vs0mg"},{"bike_id":"ccc99b68-1545-4295-94f4-acf63eafef20","system_id":"levelo_inurba_marseille","lat":43.28342,"lon":5.3811,"is_reserved":false,"is_disabled":false,"rental_uris":{"android":"levelo://app?vid=ccc99b68-1545-4295-94f4-acf63eafef20","ios":"levelo://app?vid=ccc99b68-1545-4295-94f4-acf63eafef20"},"vehicle_type_id":"4","last_reported":1740204733,"current_range_meters":16800,"station_id":"ce4bh412rcd13ifvqdr0","pricing_plan_id":"cebpf4jnsgd1na2vs0mg"},{"bike_id":"8e403f8a-b998-4fb1-bb90-54bf70e024a5","system_id":"levelo_inurba_marseille","lat":43.26935,"lon":5.389166,"is_reserved":false,"is_disabled":false,"rental_uris":{"android":"levelo://app?vid=8e403f8a-b998-4fb1-bb90-54bf70e024a5","ios":"levelo://app?vid=8e403f8a-b998-4fb1-bb90-54bf70e024a5"},"vehicle_type_id":"4","last_reported":1740204733,"current_range_meters":16800,"station_id":"ce4bhhh2rcd13ifvqfl0","pricing_plan_id":"cebpf4jnsgd1na2vs0mg"},{"bike_id":"f5298310-14cd-4aed-bc3f-841e7d37dcf5","system_id":"levelo_inurba_marseille","lat":43.32648,"lon":5.40973,"is_reserved":false,"is_disabled":true,"rental_uris":{"android":"levelo://app?vid=f5298310-14cd-4aed-bc3f-841e7d37dcf5","ios":"levelo://app?vid=f5298310-14cd-4aed-bc3f-841e7d37dcf5"},"vehicle_type_id":"4","last_reported":1740204733,"current_range_meters":16800,"station_id":"ce4bhpp2rcd13ifvqhgg","pricing_plan_id":"cebpf4jnsgd1na2vs0mg"},{"bike_id":"e396f565-544f-4dea-a1de-828f6b41343c","system_id":"levelo_inurba_marseille","lat":43.28147,"lon":5.42642,"is_reserved":false,"is_disabled":false,"rental_uris":{"android":"levelo://app?vid=e396f565-544f-4dea-a1de-828f6b41343c","ios":"levelo://app?vid=e396f565-544f-4dea-a1de-828f6b41343c"},"vehicle_type_id":"4","last_reported":1740204733,"current_range_meters":16800,"station_id":"ce4bhnh2rcd13ifvqgug","pricing_plan_id":"cebpf4jnsgd1na2vs0mg"},{"bike_id":"65424a4b-beeb-4528-bd8b-09fb5c861b86","system_id":"levelo_inurba_marseille","lat":43.28711,"lon":5.39986,"is_reserved":false,"is_disabled":false,"rental_uris":{"android":"levelo://app?vid=65424a4b-beeb-4528-bd8b-09fb5c861b86","ios":"levelo://app?vid=65424a4b-beeb-4528-bd8b-09fb5c861b86"},"vehicle_type_id":"4","last_reported":1740204733,"current_range_meters":16800,"station_id":"ce4bho92rcd13ifvqh3g","pricing_plan_id":"cebpf4jnsgd1na2vs0mg"},{"bike_id":"7a407485-2440-49c8-8e14-d0beb8679c21","system_id":"levelo_inurba_marseille","lat":43.28718,"lon":5.37943,"is_reserved":false,"is_disabled":false,"rental_uris":{"android":"levelo://app?vid=7a407485-2440-49c8-8e14-d0beb8679c21","ios":"levelo://app?vid=7a407485-2440-49c8-8e14-d0beb8679c21"},"vehicle_type_id":"4","last_reported":1740204733,"current_range_meters":17200,"station_id":"ce4bh9p2rcd13ifvqec0","pricing_plan_id":"cebpf4jnsgd1na2vs0mg"},{"bike_id":"6171c7fc-2f00-4981-afb4-d8d6db9c37a7","system_id":"levelo_inurba_marseille","lat":43.30811,"lon":5.38126,"is_reserved":false,"is_disabled":true,"rental_uris":{"android":"levelo://app?vid=6171c7fc-2f00-4981-afb4-d8d6db9c37a7","ios":"levelo://app?vid=6171c7fc-2f00-4981-afb4-d8d6db9c37a7"},"vehicle_type_id":"4","last_reported":1740204733,"current_range_meters":17200,"station_id":"ce4bgt12rcd13ifvqce0","pricing_plan_id":"cebpf4jnsgd1na2vs0mg"},{"bike_id":"b46e2cd9-9583-48ce-9fd8-e84487554328","system_id":"levelo_inurba_marseille","lat":43.25119,"lon":5.40327,"is_reserved":false,"is_disabled":false,"rental_uris":{"android":"levelo://app?vid=b46e2cd9-9583-48ce-9fd8-e84487554328","ios":"levelo://app?vid=b46e2cd9-9583-48ce-9fd8-e84487554328"},"vehicle_type_id":"4","last_reported":1740204733,"current_range_meters":17200,"station_id":"ce4bhlh2rcd13ifvqgig","pricing_plan_id":"cebpf4jnsgd1na2vs0mg"},{"bike_id":"9c4d843e-98fd-444f-ab88-a2f0b1180ee6","system_id":"levelo_inurba_marseille","lat":43.28155,"lon":5.42647,"is_reserved":false,"is_disabled":false,"rental_uris":{"android":"levelo://app?vid=9c4d843e-98fd-444f-ab88-a2f0b1180ee6","ios":"levelo://app?vid=9c4d843e-98fd-444f-ab88-a2f0b1180ee6"},"vehicle_type_id":"4","last_reported":1740204733,"current_range_meters":17200,"station_id":"ce4bhnh2rcd13ifvqgug","pricing_plan_id":"cebpf4jnsgd1na2vs0mg"},{"bike_id":"3fd2a98c-7939-498c-8625-9658300a849b","system_id":"levelo_inurba_marseille","lat":43.259377,"lon":5.409002,"is_reserved":false,"is_disabled":false,"rental_uris":{"android":"levelo://app?vid=3fd2a98c-7939-498c-8625-9658300a849b","ios":"levelo://app?vid=3fd2a98c-7939-498c-8625-9658300a849b"},"vehicle_type_id":"4","last_reported":1740204733,"current_range_meters":17200,"station_id":"ce4bhm92rcd13ifvqglg","pricing_plan_id":"cebpf4jnsgd1na2vs0mg"},{"bike_id":"ddbecc57-4884-47cb-94ad-beb9a36d8a7c","system_id":"levelo_inurba_marseille","lat":43.28864,"lon":5.39308,"is_reserved":false,"is_disabled":false,"rental_uris":{"android":"levelo://app?vid=ddbecc57-4884-47cb-94ad-beb9a36d8a7c","ios":"levelo://app?vid=ddbecc57-4884-47cb-94ad-beb9a36d8a7c"},"vehicle_type_id":"4","last_reported":1740204733,"current_range_meters":17200,"station_id":"ce4bh2p2rcd13ifvqdi0","pricing_plan_id":"cebpf4jnsgd1na2vs0mg"},{"bike_id":"0c33f1f1-9de2-4635-88dd-5b3b6f2bb3a3","system_id":"levelo_inurba_marseille","lat":43.30101,"lon":5.38132,"is_reserved":false,"is_disabled":false,"rental_uris":{"android":"levelo://app?vid=0c33f1f1-9de2-4635-88dd-5b3b6f2bb3a3","ios":"levelo://app?vid=0c33f1f1-9de2-4635-88dd-5b3b6f2bb3a3"},"vehicle_type_id":"4","last_reported":1740204733,"current_range_meters":17200,"station_id":"","pricing_plan_id":"cebpf4jnsgd1na2vs0mg"},{"bike_id":"0f6a8f62-efbb-43f2-b92f-ff9da0293cda","system_id":"levelo_inurba_marseille","lat":43.27815,"lon":5.4073,"is_reserved":false,"is_disabled":false,"rental_uris":{"android":"levelo://app?vid=0f6a8f62-efbb-43f2-b92f-ff9da0293cda","ios":"levelo://app?vid=0f6a8f62-efbb-43f2-b92f-ff9da0293cda"},"vehicle_type_id":"4","last_reported":1740204733,"current_range_meters":17200,"station_id":"ce4bhnh2rcd13ifvqgtg","pricing_plan_id":"cebpf4jnsgd1na2vs0mg"},{"bike_id":"78aa47e2-a7fa-44ca-94a7-c65c375b91d7","system_id":"levelo_inurba_marseille","lat":43.24806,"lon":5.37451,"is_reserved":false,"is_disabled":false,"rental_uris":{"android":"levelo://app?vid=78aa47e2-a7fa-44ca-94a7-c65c375b91d7","ios":"levelo://app?vid=78aa47e2-a7fa-44ca-94a7-c65c375b91d7"},"vehicle_type_id":"4","last_reported":1740204733,"current_range_meters":17600,"station_id":"ce4bhgh2rcd13ifvqfb0","pricing_plan_id":"cebpf4jnsgd1na2vs0mg"},{"bike_id":"725861b6-aaa7-4c06-b816-d197237ddf32","system_id":"levelo_inurba_marseille","lat":43.287126,"lon":5.379411,"is_reserved":false,"is_disabled":false,"rental_uris":{"android":"levelo://app?vid=725861b6-aaa7-4c06-b816-d197237ddf32","ios":"levelo://app?vid=725861b6-aaa7-4c06-b816-d197237ddf32"},"vehicle_type_id":"4","last_reported":1740204733,"current_range_meters":17600,"station_id":"ce4bh9p2rcd13ifvqec0","pricing_plan_id":"cebpf4jnsgd1na2vs0mg"},{"bike_id":"984a1a76-50d4-4c96-b44c-4a4e1cca2ef6","system_id":"levelo_inurba_marseille","lat":43.30666,"lon":5.40078,"is_reserved":false,"is_disabled":false,"rental_uris":{"android":"levelo://app?vid=984a1a76-50d4-4c96-b44c-4a4e1cca2ef6","ios":"levelo://app?vid=984a1a76-50d4-4c96-b44c-4a4e1cca2ef6"},"vehicle_type_id":"4","last_reported":1740204733,"current_range_meters":17600,"station_id":"ce4bh112rcd13ifvqda0","pricing_plan_id":"cebpf4jnsgd1na2vs0mg"},{"bike_id":"105ea8ad-0d16-4875-9fde-e085311250f4","system_id":"levelo_inurba_marseille","lat":43.23187,"lon":5.3555,"is_reserved":false,"is_disabled":false,"rental_uris":{"android":"levelo://app?vid=105ea8ad-0d16-4875-9fde-e085311250f4","ios":"levelo://app?vid=105ea8ad-0d16-4875-9fde-e085311250f4"},"vehicle_type_id":"4","last_reported":1740204733,"current_range_meters":17600,"station_id":"ce4bhu92rcd13ifvqi70","pricing_plan_id":"cebpf4jnsgd1na2vs0mg"},{"bike_id":"bf2a9407-badc-490a-bd4c-11540c267052","system_id":"levelo_inurba_marseille","lat":43.29251,"lon":5.40909,"is_reserved":false,"is_disabled":false,"rental_uris":{"android":"levelo://app?vid=bf2a9407-badc-490a-bd4c-11540c267052","ios":"levelo://app?vid=bf2a9407-badc-490a-bd4c-11540c267052"},"vehicle_type_id":"4","last_reported":1740204733,"current_range_meters":17600,"station_id":"ce4bh192rcd13ifvqdc0","pricing_plan_id":"cebpf4jnsgd1na2vs0mg"},{"bike_id":"7b961df5-02b9-46f2-8b82-2d839f71e419","system_id":"levelo_inurba_marseille","lat":43.25867,"lon":5.39905,"is_reserved":false,"is_disabled":false,"rental_uris":{"android":"levelo://app?vid=7b961df5-02b9-46f2-8b82-2d839f71e419","ios":"levelo://app?vid=7b961df5-02b9-46f2-8b82-2d839f71e419"},"vehicle_type_id":"4","last_reported":1740204733,"current_range_meters":17600,"station_id":"ce4bhl92rcd13ifvqghg","pricing_plan_id":"cebpf4jnsgd1na2vs0mg"},{"bike_id":"e86e9def-85c3-4d1b-8c66-4511177d388c","system_id":"levelo_inurba_marseille","lat":43.28558,"lon":5.395,"is_reserved":false,"is_disabled":false,"rental_uris":{"android":"levelo://app?vid=e86e9def-85c3-4d1b-8c66-4511177d388c","ios":"levelo://app?vid=e86e9def-85c3-4d1b-8c66-4511177d388c"},"vehicle_type_id":"4","last_reported":1740204733,"current_range_meters":17600,"station_id":"ce4bh292rcd13ifvqdg0","pricing_plan_id":"cebpf4jnsgd1na2vs0mg"},{"bike_id":"255e786b-2ebd-409e-8a12-689a91c60eaf","system_id":"levelo_inurba_marseille","lat":43.2872,"lon":5.37929,"is_reserved":false,"is_disabled":false,"rental_uris":{"android":"levelo://app?vid=255e786b-2ebd-409e-8a12-689a91c60eaf","ios":"levelo://app?vid=255e786b-2ebd-409e-8a12-689a91c60eaf"},"vehicle_type_id":"4","last_reported":1740204733,"current_range_meters":17600,"station_id":"ce4bh9p2rcd13ifvqec0","pricing_plan_id":"cebpf4jnsgd1na2vs0mg"},{"bike_id":"2f1b3736-6a0a-4e7f-9ca6-6c7a4672dc43","system_id":"levelo_inurba_marseille","lat":43.27828,"lon":5.39227,"is_reserved":false,"is_disabled":false,"rental_uris":{"android":"levelo://app?vid=2f1b3736-6a0a-4e7f-9ca6-6c7a4672dc43","ios":"levelo://app?vid=2f1b3736-6a0a-4e7f-9ca6-6c7a4672dc43"},"vehicle_type_id":"4","last_reported":1740204733,"current_range_meters":18000,"station_id":"ce4bhjp2rcd13ifvqga0","pricing_plan_id":"cebpf4jnsgd1na2vs0mg"},{"bike_id":"103f77c9-589f-480a-9173-ecd3e24a0282","system_id":"levelo_inurba_marseille","lat":43.26945,"lon":5.38629,"is_reserved":false,"is_disabled":false,"rental_uris":{"android":"levelo://app?vid=103f77c9-589f-480a-9173-ecd3e24a0282","ios":"levelo://app?vid=103f77c9-589f-480a-9173-ecd3e24a0282"},"vehicle_type_id":"4","last_reported":1740204733,"current_range_meters":18000,"station_id":"ce4bhh92rcd13ifvqfh0","pricing_plan_id":"cebpf4jnsgd1na2vs0mg"},{"bike_id":"acc99c3d-8988-4213-85e7-762cbe3c231d","system_id":"levelo_inurba_marseille","lat":43.24177,"lon":5.39739,"is_reserved":false,"is_disabled":false,"rental_uris":{"android":"levelo://app?vid=acc99c3d-8988-4213-85e7-762cbe3c231d","ios":"levelo://app?vid=acc99c3d-8988-4213-85e7-762cbe3c231d"},"vehicle_type_id":"4","last_reported":1740204733,"current_range_meters":18000,"station_id":"ce4bhn12rcd13ifvqgpg","pricing_plan_id":"cebpf4jnsgd1na2vs0mg"},{"bike_id":"fa3aa5a5-4e00-466e-8b65-149b2e48f46f","system_id":"levelo_inurba_marseille","lat":43.30238,"lon":5.40029,"is_reserved":false,"is_disabled":false,"rental_uris":{"android":"levelo://app?vid=fa3aa5a5-4e00-466e-8b65-149b2e48f46f","ios":"levelo://app?vid=fa3aa5a5-4e00-466e-8b65-149b2e48f46f"},"vehicle_type_id":"4","last_reported":1740204733,"current_range_meters":18000,"station_id":"","pricing_plan_id":"cebpf4jnsgd1na2vs0mg"},{"bike_id":"fcb4de08-c373-4c5d-a0d2-88032e74db12","system_id":"levelo_inurba_marseille","lat":43.2586,"lon":5.39908,"is_reserved":false,"is_disabled":false,"rental_uris":{"android":"levelo://app?vid=fcb4de08-c373-4c5d-a0d2-88032e74db12","ios":"levelo://app?vid=fcb4de08-c373-4c5d-a0d2-88032e74db12"},"vehicle_type_id":"4","last_reported":1740204733,"current_range_meters":18000,"station_id":"ce4bhl92rcd13ifvqghg","pricing_plan_id":"cebpf4jnsgd1na2vs0mg"},{"bike_id":"6bafa852-1f3a-493f-8842-1c0a87e6341d","system_id":"levelo_inurba_marseille","lat":43.29593,"lon":5.37718,"is_reserved":false,"is_disabled":true,"rental_uris":{"android":"levelo://app?vid=6bafa852-1f3a-493f-8842-1c0a87e6341d","ios":"levelo://app?vid=6bafa852-1f3a-493f-8842-1c0a87e6341d"},"vehicle_type_id":"4","last_reported":1740204733,"current_range_meters":18000,"station_id":"ce4bgi92rcd13ifvqb90","pricing_plan_id":"cebpf4jnsgd1na2vs0mg"},{"bike_id":"d233e41d-293c-4518-979f-1aad9dc6f485","system_id":"levelo_inurba_marseille","lat":43.292511,"lon":5.385311,"is_reserved":false,"is_disabled":false,"rental_uris":{"android":"levelo://app?vid=d233e41d-293c-4518-979f-1aad9dc6f485","ios":"levelo://app?vid=d233e41d-293c-4518-979f-1aad9dc6f485"},"vehicle_type_id":"4","last_reported":1740204733,"current_range_meters":17600,"station_id":"ce4bgn12rcd13ifvqbt0","pricing_plan_id":"cebpf4jnsgd1na2vs0mg"},{"bike_id":"91d90af7-9678-4662-961c-cf80ac9c5443","system_id":"levelo_inurba_marseille","lat":43.3234,"lon":5.40622,"is_reserved":false,"is_disabled":false,"rental_uris":{"android":"levelo://app?vid=91d90af7-9678-4662-961c-cf80ac9c5443","ios":"levelo://app?vid=91d90af7-9678-4662-961c-cf80ac9c5443"},"vehicle_type_id":"4","last_reported":1740204733,"current_range_meters":18000,"station_id":"ce4bhq92rcd13ifvqhjg","pricing_plan_id":"cebpf4jnsgd1na2vs0mg"},{"bike_id":"955f0554-f1a7-425e-adb6-8b24dc2896c4","system_id":"levelo_inurba_marseille","lat":43.28453,"lon":5.35905,"is_reserved":false,"is_disabled":false,"rental_uris":{"android":"levelo://app?vid=955f0554-f1a7-425e-adb6-8b24dc2896c4","ios":"levelo://app?vid=955f0554-f1a7-425e-adb6-8b24dc2896c4"},"vehicle_type_id":"4","last_reported":1740204733,"current_range_meters":18000,"station_id":"ce4bhah2rcd13ifvqei0","pricing_plan_id":"cebpf4jnsgd1na2vs0mg"},{"bike_id":"44eaca6c-ce76-4da2-aa90-bc5b963c9d3d","system_id":"levelo_inurba_marseille","lat":43.28848,"lon":5.39352,"is_reserved":false,"is_disabled":false,"rental_uris":{"android":"levelo://app?vid=44eaca6c-ce76-4da2-aa90-bc5b963c9d3d","ios":"levelo://app?vid=44eaca6c-ce76-4da2-aa90-bc5b963c9d3d"},"vehicle_type_id":"4","last_reported":1740204733,"current_range_meters":18000,"station_id":"ce4bh2p2rcd13ifvqdi0","pricing_plan_id":"cebpf4jnsgd1na2vs0mg"},{"bike_id":"94e68a7e-17f4-40cf-a07e-ddb52f6b74be","system_id":"levelo_inurba_marseille","lat":43.31303,"lon":5.39722,"is_reserved":false,"is_disabled":false,"rental_uris":{"android":"levelo://app?vid=94e68a7e-17f4-40cf-a07e-ddb52f6b74be","ios":"levelo://app?vid=94e68a7e-17f4-40cf-a07e-ddb52f6b74be"},"vehicle_type_id":"4","last_reported":1740204733,"current_range_meters":18800,"station_id":"ce4bgvp2rcd13ifvqcu0","pricing_plan_id":"cebpf4jnsgd1na2vs0mg"},{"bike_id":"21d4bf47-e0a5-42e6-9763-f7581c5c0683","system_id":"levelo_inurba_marseille","lat":43.279939,"lon":5.400059,"is_reserved":false,"is_disabled":true,"rental_uris":{"android":"levelo://app?vid=21d4bf47-e0a5-42e6-9763-f7581c5c0683","ios":"levelo://app?vid=21d4bf47-e0a5-42e6-9763-f7581c5c0683"},"vehicle_type_id":"4","last_reported":1740204733,"current_range_meters":18800,"station_id":"","pricing_plan_id":"cebpf4jnsgd1na2vs0mg"},{"bike_id":"00910da0-f097-462d-bf9d-228402d8af0a","system_id":"levelo_inurba_marseille","lat":43.29564,"lon":5.37518,"is_reserved":false,"is_disabled":false,"rental_uris":{"android":"levelo://app?vid=00910da0-f097-462d-bf9d-228402d8af0a","ios":"levelo://app?vid=00910da0-f097-462d-bf9d-228402d8af0a"},"vehicle_type_id":"4","last_reported":1740204733,"current_range_meters":18800,"station_id":"ce4bgh92rcd13ifvqb50","pricing_plan_id":"cebpf4jnsgd1na2vs0mg"},{"bike_id":"3a95ba21-f083-417c-b056-66ab0874b2a2","system_id":"levelo_inurba_marseille","lat":43.30856,"lon":5.39642,"is_reserved":false,"is_disabled":false,"rental_uris":{"android":"levelo://app?vid=3a95ba21-f083-417c-b056-66ab0874b2a2","ios":"levelo://app?vid=3a95ba21-f083-417c-b056-66ab0874b2a2"},"vehicle_type_id":"4","last_reported":1740204733,"current_range_meters":18800,"station_id":"ce4bh012rcd13ifvqcv0","pricing_plan_id":"cebpf4jnsgd1na2vs0mg"},{"bike_id":"33cc0fcb-f6e1-44bc-9328-d3f75a5791c5","system_id":"levelo_inurba_marseille","lat":43.23207,"lon":5.35538,"is_reserved":false,"is_disabled":false,"rental_uris":{"android":"levelo://app?vid=33cc0fcb-f6e1-44bc-9328-d3f75a5791c5","ios":"levelo://app?vid=33cc0fcb-f6e1-44bc-9328-d3f75a5791c5"},"vehicle_type_id":"4","last_reported":1740204733,"current_range_meters":18800,"station_id":"ce4bhu92rcd13ifvqi70","pricing_plan_id":"cebpf4jnsgd1na2vs0mg"},{"bike_id":"a0edf93a-4860-4f88-948b-32eb1c069e5f","system_id":"levelo_inurba_marseille","lat":43.26315,"lon":5.37399,"is_reserved":false,"is_disabled":false,"rental_uris":{"android":"levelo://app?vid=a0edf93a-4860-4f88-948b-32eb1c069e5f","ios":"levelo://app?vid=a0edf93a-4860-4f88-948b-32eb1c069e5f"},"vehicle_type_id":"4","last_reported":1740204733,"current_range_meters":18800,"station_id":"","pricing_plan_id":"cebpf4jnsgd1na2vs0mg"},{"bike_id":"24678d82-a715-4225-b832-38e00357adde","system_id":"levelo_inurba_marseille","lat":43.28571,"lon":5.3949,"is_reserved":false,"is_disabled":false,"rental_uris":{"android":"levelo://app?vid=24678d82-a715-4225-b832-38e00357adde","ios":"levelo://app?vid=24678d82-a715-4225-b832-38e00357adde"},"vehicle_type_id":"4","last_reported":1740204733,"current_range_meters":18800,"station_id":"ce4bh292rcd13ifvqdg0","pricing_plan_id":"cebpf4jnsgd1na2vs0mg"},{"bike_id":"d30f173e-15ce-40a1-a9d4-7a374dbf48e8","system_id":"levelo_inurba_marseille","lat":43.27999,"lon":5.40012,"is_reserved":false,"is_disabled":false,"rental_uris":{"android":"levelo://app?vid=d30f173e-15ce-40a1-a9d4-7a374dbf48e8","ios":"levelo://app?vid=d30f173e-15ce-40a1-a9d4-7a374dbf48e8"},"vehicle_type_id":"4","last_reported":1740204733,"current_range_meters":18800,"station_id":"ce4bho92rcd13ifvqh4g","pricing_plan_id":"cebpf4jnsgd1na2vs0mg"},{"bike_id":"6f9d5acf-e563-4556-95e9-1630513c78a1","system_id":"levelo_inurba_marseille","lat":43.28632,"lon":5.35082,"is_reserved":false,"is_disabled":false,"rental_uris":{"android":"levelo://app?vid=6f9d5acf-e563-4556-95e9-1630513c78a1","ios":"levelo://app?vid=6f9d5acf-e563-4556-95e9-1630513c78a1"},"vehicle_type_id":"4","last_reported":1740204733,"current_range_meters":19200,"station_id":"ce4bhch2rcd13ifvqeug","pricing_plan_id":"cebpf4jnsgd1na2vs0mg"},{"bike_id":"fa9e3171-ca05-4af9-88c8-61fab7d700a7","system_id":"levelo_inurba_marseille","lat":43.30881,"lon":5.39631,"is_reserved":false,"is_disabled":false,"rental_uris":{"android":"levelo://app?vid=fa9e3171-ca05-4af9-88c8-61fab7d700a7","ios":"levelo://app?vid=fa9e3171-ca05-4af9-88c8-61fab7d700a7"},"vehicle_type_id":"4","last_reported":1740204733,"current_range_meters":19200,"station_id":"ce4bh012rcd13ifvqcv0","pricing_plan_id":"cebpf4jnsgd1na2vs0mg"},{"bike_id":"e636832d-d31d-492b-9bcd-b899a106503d","system_id":"levelo_inurba_marseille","lat":43.2417,"lon":5.3639,"is_reserved":false,"is_disabled":false,"rental_uris":{"android":"levelo://app?vid=e636832d-d31d-492b-9bcd-b899a106503d","ios":"levelo://app?vid=e636832d-d31d-492b-9bcd-b899a106503d"},"vehicle_type_id":"4","last_reported":1740204733,"current_range_meters":19600,"station_id":"cpo36qri1sfpv3e86is0","pricing_plan_id":"cebpf4jnsgd1na2vs0mg"},{"bike_id":"37e671bf-fadb-4585-97cb-af5b4c6ec248","system_id":"levelo_inurba_marseille","lat":43.2884,"lon":5.35852,"is_reserved":false,"is_disabled":false,"rental_uris":{"android":"levelo://app?vid=37e671bf-fadb-4585-97cb-af5b4c6ec248","ios":"levelo://app?vid=37e671bf-fadb-4585-97cb-af5b4c6ec248"},"vehicle_type_id":"4","last_reported":1740204733,"current_range_meters":19600,"station_id":"ce4bhb12rcd13ifvqem0","pricing_plan_id":"cebpf4jnsgd1na2vs0mg"},{"bike_id":"87105f34-474f-4d57-858f-928b39054a44","system_id":"levelo_inurba_marseille","lat":43.29637,"lon":5.40637,"is_reserved":false,"is_disabled":false,"rental_uris":{"android":"levelo://app?vid=87105f34-474f-4d57-858f-928b39054a44","ios":"levelo://app?vid=87105f34-474f-4d57-858f-928b39054a44"},"vehicle_type_id":"4","last_reported":1740204733,"current_range_meters":19600,"station_id":"ce4bh0h2rcd13ifvqd60","pricing_plan_id":"cebpf4jnsgd1na2vs0mg"},{"bike_id":"7d4b257a-c60d-48e8-85d7-7dc3f985241e","system_id":"levelo_inurba_marseille","lat":43.29629,"lon":5.38562,"is_reserved":false,"is_disabled":false,"rental_uris":{"android":"levelo://app?vid=7d4b257a-c60d-48e8-85d7-7dc3f985241e","ios":"levelo://app?vid=7d4b257a-c60d-48e8-85d7-7dc3f985241e"},"vehicle_type_id":"4","last_reported":1740204733,"current_range_meters":19600,"station_id":"","pricing_plan_id":"cebpf4jnsgd1na2vs0mg"},{"bike_id":"58356ab0-6bcc-4c6c-b5d9-0e58b6fba4c0","system_id":"levelo_inurba_marseille","lat":43.29575,"lon":5.40643,"is_reserved":false,"is_disabled":false,"rental_uris":{"android":"levelo://app?vid=58356ab0-6bcc-4c6c-b5d9-0e58b6fba4c0","ios":"levelo://app?vid=58356ab0-6bcc-4c6c-b5d9-0e58b6fba4c0"},"vehicle_type_id":"4","last_reported":1740204733,"current_range_meters":19600,"station_id":"ce4bh0h2rcd13ifvqd60","pricing_plan_id":"cebpf4jnsgd1na2vs0mg"},{"bike_id":"a0d83604-b26a-4cee-b0c5-53b7f3b0d472","system_id":"levelo_inurba_marseille","lat":43.27996,"lon":5.40011,"is_reserved":false,"is_disabled":false,"rental_uris":{"android":"levelo://app?vid=a0d83604-b26a-4cee-b0c5-53b7f3b0d472","ios":"levelo://app?vid=a0d83604-b26a-4cee-b0c5-53b7f3b0d472"},"vehicle_type_id":"4","last_reported":1740204733,"current_range_meters":19600,"station_id":"ce4bho92rcd13ifvqh4g","pricing_plan_id":"cebpf4jnsgd1na2vs0mg"},{"bike_id":"63393adb-05ed-41f1-a7aa-f07af875bc1d","system_id":"levelo_inurba_marseille","lat":43.28402,"lon":5.37513,"is_reserved":false,"is_disabled":false,"rental_uris":{"android":"levelo://app?vid=63393adb-05ed-41f1-a7aa-f07af875bc1d","ios":"levelo://app?vid=63393adb-05ed-41f1-a7aa-f07af875bc1d"},"vehicle_type_id":"4","last_reported":1740204733,"current_range_meters":19600,"station_id":"ce4bh412rcd13ifvqds0","pricing_plan_id":"cebpf4jnsgd1na2vs0mg"},{"bike_id":"b95cceb0-2581-46ca-8d22-ae800dfede9f","system_id":"levelo_inurba_marseille","lat":43.28159,"lon":5.42641,"is_reserved":false,"is_disabled":false,"rental_uris":{"android":"levelo://app?vid=b95cceb0-2581-46ca-8d22-ae800dfede9f","ios":"levelo://app?vid=b95cceb0-2581-46ca-8d22-ae800dfede9f"},"vehicle_type_id":"4","last_reported":1740204733,"current_range_meters":19600,"station_id":"ce4bhnh2rcd13ifvqgug","pricing_plan_id":"cebpf4jnsgd1na2vs0mg"},{"bike_id":"cd97bd75-3a84-4cd1-89a5-940a1cfcf2df","system_id":"levelo_inurba_marseille","lat":43.289306,"lon":5.363936,"is_reserved":false,"is_disabled":false,"rental_uris":{"android":"levelo://app?vid=cd97bd75-3a84-4cd1-89a5-940a1cfcf2df","ios":"levelo://app?vid=cd97bd75-3a84-4cd1-89a5-940a1cfcf2df"},"vehicle_type_id":"4","last_reported":1740204733,"current_range_meters":20000,"station_id":"ce4bhc92rcd13ifvqetg","pricing_plan_id":"cebpf4jnsgd1na2vs0mg"},