{"last_updated":1761822578,"ttl":60,"version":"2.2","data":{"bikes":[{"bike_id":"aacc01e3-6d9f-491a-b1ed-d10f639e29e2","system_id":"levelo_inurba_marseille","lat":43.337444,"lon":5.374475,"is_reserved":false,"is_disabled":false,"rental_uris":{"android":"levelo://app?vid=aacc01e3-6d9f-491a-b1ed-d10f639e29e2","ios":"levelo://app?vid=aacc01e3-6d9f-491a-b1ed-d10f639e29e2"},"vehicle_type_id":"4","last_reported":1761822578,"current_range_meters":0,"station_id":"","pricing_plan_id":"cebpf4jnsgd1na2vs0mg"},{"bike_id":"35ef2eb9-fe09-4124-a7ab-f792dcbd6ddc","system_id":"levelo_inurba_marseille","lat":43.337444,"lon":5.374475,"is_reserved":false,"is_disabled":false,"rental_uris":{"android":"levelo://app?vid=35ef2eb9-fe09-4124-a7ab-f792dcbd6ddc","ios":"levelo://app?vid=35ef2eb9-fe09-4124-a7ab-f792dcbd6ddc"},"vehicle_type_id":"4","last_reported":1761822578,"current_range_meters":0,"station_id":"","pricing_plan_id":"cebpf4jnsgd1na2vs0mg"},{"bike_id":"49ddb7e7-127c-434c-8992-2e05f2e3428d","system_id":"levelo_inurba_marseille","lat":43.337444,"lon":5.374475,"is_reserved":false,"is_disabled":false,"rental_uris":{"android":"levelo://app?vid=49ddb7e7-127c-434c-8992-2e05f2e3428d","ios":"levelo://app?vid=49ddb7e7-127c-434c-8992-2e05f2e3428d"},"vehicle_type_id":"4","last_reported":1761822578,"current_range_meters":0,"station_id":"","pricing_plan_id":"cebpf4jnsgd1na2vs0mg"},{"bike_id":"b3b460c5-2faa-45c2-8fde-7b54e8b4eaf5","system_id":"levelo_inurba_marseille","lat":43.337444,"lon":5.374475,"is_reserved":false,"is_disabled":false,"rental_uris":{"android":"levelo://app?vid=b3b460c5-2faa-45c2-8fde-7b54e8b4eaf5","ios":"levelo://app?vid=b3b460c5-2faa-45c2-8fde-7b54e8b4eaf5"},"vehicle_type_id":"4","last_reported":1761822578,"current_range_meters":0,"station_id":"","pricing_plan_id":"cebpf4jnsgd1na2vs0mg"},{"bike_id":"6b8eeff3-ec31-445f-be43-f1e3ba63fb37","system_id":"levelo_inurba_marseille","lat":43.337416,"lon":5.374586,"is_reserved":false,"is_disabled":false,"rental_uris":{"android":"levelo://app?vid=6b8eeff3-ec31-445f-be43-f1e3ba63fb37","ios":"levelo://app?vid=6b8eeff3-ec31-445f-be43-f1e3ba63fb37"},"vehicle_type_id":"4","last_reported":1761822578,"current_range_meters":0,"station_id":"","pricing_plan_id":"cebpf4jnsgd1na2vs0mg"},{"bike_id":"e0e86d10-d79a-47b9-82ad-a00ae7a62a8a","system_id":"levelo_inurba_marseille","lat":43.337444,"lon":5.374475,"is_reserved":false,"is_disabled":false,"rental_uris":{"android":"levelo://app?vid=e0e86d10-d79a-47b9-82ad-a00ae7a62a8a","ios":"levelo://app?vid=e0e86d10-d79a-47b9-82ad-a00ae7a62a8a"},"vehicle_type_id":"4","last_reported":1761822578,"current_range_meters":0,"station_id":"","pricing_plan_id":"cebpf4jnsgd1na2vs0mg"},{"bike_id":"548f1c45-4f2a-4cfe-b981-5bc1daecb21b","system_id":"levelo_inurba_marseille","lat":43.337444,"lon":5.374475,"is_reserved":false,"is_disabled":false,"rental_uris":{"android":"levelo://app?vid=548f1c45-4f2a-4cfe-b981-5bc1daecb21b","ios":"levelo://app?vid=548f1c45-4f2a-4cfe-b981-5bc1daecb21b"},"vehicle_type_id":"4","last_reported":1761822578,"current_range_meters":0,"station_id":"","pricing_plan_id":"cebpf4jnsgd1na2vs0mg"},{"bike_id":"5260dce0-6ede-4de4-b006-1466527b5fbe","system_id":"levelo_inurba_marseille","lat":43.337444,"lon":5.374475,"is_reserved":false,"is_disabled":false,"rental_uris":{"android":"levelo://app?vid=5260dce0-6ede-4de4-b006-1466527b5fbe","ios":"levelo://app?vid=5260dce0-6ede-4de4-b006-1466527b5fbe"},"vehicle_type_id":"4","last_reported":1761822578,"current_range_meters":0,"station_id":"","pricing_plan_id":"cebpf4jnsgd1na2vs0mg"},{"bike_id":"fb1816a3-8e74-463a-88d2-d6b63cf0a426","system_id":"levelo_inurba_marseille","lat":43.337444,"lon":5.374475,"is_reserved":false,"is_disabled":false,"rental_uris":{"android":"levelo://app?vid=fb1816a3-8e74-463a-88d2-d6b63cf0a426","ios":"levelo://app?vid=fb1816a3-8e74-463a-88d2-d6b63cf0a426"},"vehicle_type_id":"4","last_reported":1761822578,"current_range_meters":0,"station_id":"","pricing_plan_id":"cebpf4jnsgd1na2vs0mg"},{"bike_id":"3c881d8d-608f-4c39-9df3-b2aa54f8afcf","system_id":"levelo_inurba_marseille","lat":43.337444,"lon":5.374475,"is_reserved":false,"is_disabled":false,"rental_uris":{"android":"levelo://app?vid=3c881d8d-608f-4c39-9df3-b2aa54f8afcf","ios":"levelo://app?vid=3c881d8d-608f-4c39-9df3-b2aa54f8afcf"},"vehicle_type_id":"4","last_reported":1761822578,"current_range_meters":0,"station_id":"","pricing_plan_id":"cebpf4jnsgd1na2vs0mg"},{"bike_id":"a26e4937-215f-44d2-a8de-a7d3ec75d32b","system_id":"levelo_inurba_marseille","lat":43.337444,"lon":5.374475,"is_reserved":false,"is_disabled":false,"rental_uris":{"android":"levelo://app?vid=a26e4937-215f-44d2-a8de-a7d3ec75d32b","ios":"levelo://app?vid=a26e4937-215f-44d2-a8de-a7d3ec75d32b"},"vehicle_type_id":"4","last_reported":1761822578,"current_range_meters":0,"station_id":"","pricing_plan_id":"cebpf4jnsgd1na2vs0mg"},{"bike_id":"fadc4e19-b9ad-4402-a5bc-a0eff5c2b634","system_id":"levelo_inurba_marseille","lat":43.337444,"lon":5.374475,"is_reserved":false,"is_disabled":false,"rental_uris":{"android":"levelo://app?vid=fadc4e19-b9ad-4402-a5bc-a0eff5c2b634","ios":"levelo://app?vid=fadc4e19-b9ad-4402-a5bc-a0eff5c2b634"},"vehicle_type_id":"4","last_reported":1761822578,"current_range_meters":0,"station_id":"","pricing_plan_id":"cebpf4jnsgd1na2vs0mg"},{"bike_id":"e294c151-4441-4e4a-a116-13c66dfb9429","system_id":"levelo_inurba_marseille","lat":43.337444,"lon":5.374475,"is_reserved":false,"is_disabled":false,"rental_uris":{"android":"levelo://app?vid=e294c151-4441-4e4a-a116-13c66dfb9429","ios":"levelo://app?vid=e294c151-4441-4e4a-a116-13c66dfb9429"},"vehicle_type_id":"4","last_reported":1761822578,"current_range_meters":0,"station_id":"","pricing_plan_id":"cebpf4jnsgd1na2vs0mg"},{"bike_id":"0baff1cc-f548-40f7-a934-77958566d6a5","system_id":"levelo_inurba_marseille","lat":43.337444,"lon":5.374475,"is_reserved":false,"is_disabled":false,"rental_uris":{"android":"levelo://app?vid=0baff1cc-f548-40f7-a934-77958566d6a5","ios":"levelo://app?vid=0baff1cc-f548-40f7-a934-77958566d6a5"},"vehicle_type_id":"4","last_reported":1761822578,"current_range_meters":0,"station_id":"","pricing_plan_id":"cebpf4jnsgd1na2vs0mg"},{"bike_id":"1310c5d0-e39d-4b9c-84d7-1872f297ff18","system_id":"levelo_inurba_marseille","lat":43.337444,"lon":5.374475,"is_reserved":false,"is_disabled":false,"rental_uris":{"android":"levelo://app?vid=1310c5d0-e39d-4b9c-84d7-1872f297ff18","ios":"levelo://app?vid=1310c5d0-e39d-4b9c-84d7-1872f297ff18"},"vehicle_type_id":"4","last_reported":1761822578,"current_range_meters":0,"station_id":"","pricing_plan_id":"cebpf4jnsgd1na2vs0mg"},{"bike_id":"01eaacf7-8682-4054-bf38-52456d06e6f6","system_id":"levelo_inurba_marseille","lat":43.337444,"lon":5.374475,"is_reserved":false,"is_disabled":false,"rental_uris":{"android":"levelo://app?vid=01eaacf7-8682-4054-bf38-52456d06e6f6","ios":"levelo://app?vid=01eaacf7-8682-4054-bf38-52456d06e6f6"},"vehicle_type_id":"4","last_reported":1761822578,"current_range_meters":0,"station_id":"","pricing_plan_id":"cebpf4jnsgd1na2vs0mg"},{"bike_id":"4dbab57a-b708-409a-b815-3b9a5d92f753","system_id":"levelo_inurba_marseille","lat":43.337444,"lon":5.374475,"is_reserved":false,"is_disabled":false,"rental_uris":{"android":"levelo://app?vid=4dbab57a-b708-409a-b815-3b9a5d92f753","ios":"levelo://app?vid=4dbab57a-b708-409a-b815-3b9a5d92f753"},"vehicle_type_id":"4","last_reported":1761822578,"current_range_meters":0,"station_id":"","pricing_plan_id":"cebpf4jnsgd1na2vs0mg"},{"bike_id":"00f1260a-63f9-4663-ac1e-51258f9213bd","system_id":"levelo_inurba_marseille","lat":43.337444,"lon":5.374475,"is_reserved":false,"is_disabled":false,"rental_uris":{"android":"levelo://app?vid=00f1260a-63f9-4663-ac1e-51258f9213bd","ios":"levelo://app?vid=00f1260a-63f9-4663-ac1e-51258f9213bd"},"vehicle_type_id":"4","last_reported":1761822578,"current_range_meters":0,"station_id":"","pricing_plan_id":"cebpf4jnsgd1na2vs0mg"},{"bike_id":"50aa746e-d71a-437c-bb7a-ed648a03f81b","system_id":"levelo_inurba_marseille","lat":43.337444,"lon":5.374475,"is_reserved":false,"is_disabled":false,"rental_uris":{"android":"levelo://app?vid=50aa746e-d71a-437c-bb7a-ed648a03f81b","ios":"levelo://app?vid=50aa746e-d71a-437c-bb7a-ed648a03f81b"},"vehicle_type_id":"4","last_reported":1761822578,"current_range_meters":0,"station_id":"","pricing_plan_id":"cebpf4jnsgd1na2vs0mg"},{"bike_id":"3e68cf6e-17b6-46f5-8b08-d049449e0ca4","system_id":"levelo_inurba_marseille","lat":43.337444,"lon":5.374475,"is_reserved":false,"is_disabled":false,"rental_uris":{"android":"levelo://app?vid=3e68cf6e-17b6-46f5-8b08-d049449e0ca4","ios":"levelo://app?vid=3e68cf6e-17b6-46f5-8b08-d049449e0ca4"},"vehicle_type_id":"4","last_reported":1761822578,"current_range_meters":0,"station_id":"","pricing_plan_id":"cebpf4jnsgd1na2vs0mg"},{"bike_id":"b06c4997-7e4f-467a-922f-92f2f2e27e9d","system_id":"levelo_inurba_marseille","lat":43.337444,"lon":5.374475,"is_reserved":false,"is_disabled":false,"rental_uris":{"android":"levelo://app?vid=b06c4997-7e4f-467a-922f-92f2f2e27e9d","ios":"levelo://app?vid=b06c4997-7e4f-467a-922f-92f2f2e27e9d"},"vehicle_type_id":"4","last_reported":1761822578,"current_range_meters":0,"station_id":"","pricing_plan_id":"cebpf4jnsgd1na2vs0mg"},{"bike_id":"bb49b980-4cfb-49a5-9add-f3f9d4fc6db5","system_id":"levelo_inurba_marseille","lat":43.337444,"lon":5.374475,"is_reserved":false,"is_disabled":false,"rental_uris":{"android":"levelo://app?vid=bb49b980-4cfb-49a5-9add-f3f9d4fc6db5","ios":"levelo://app?vid=bb49b980-4cfb-49a5-9add-f3f9d4fc6db5"},"vehicle_type_id":"4","last_reported":1761822578,"current_range_meters":0,"station_id":"","pricing_plan_id":"cebpf4jnsgd1na2vs0mg"},{"bike_id":"b97206fc-6c94-4378-926a-a788d4f71c09","system_id":"levelo_inurba_marseille","lat":43.337444,"lon":5.374475,"is_reserved":false,"is_disabled":false,"rental_uris":{"android":"levelo://app?vid=b97206fc-6c94-4378-926a-a788d4f71c09","ios":"levelo://app?vid=b97206fc-6c94-4378-926a-a788d4f71c09"},"vehicle_type_id":"4","last_reported":1761822578,"current_range_meters":0,"station_id":"","pricing_plan_id":"cebpf4jnsgd1na2vs0mg"},{"bike_id":"37d7ebf5-2b3d-4af3-a7cd-4f29f464d5a0","system_id":"levelo_inurba_marseille","lat":43.337444,"lon":5.374475,"is_reserved":false,"is_disabled":false,"rental_uris":{"android":"levelo://app?vid=37d7ebf5-2b3d-4af3-a7cd-4f29f464d5a0","ios":"levelo://app?vid=37d7ebf5-2b3d-4af3-a7cd-4f29f464d5a0"},"vehicle_type_id":"4","last_reported":1761822578,"current_range_meters":0,"station_id":"","pricing_plan_id":"cebpf4jnsgd1na2vs0mg"},{"bike_id":"4ce4318f-b763-4325-8589-2aecbcc80add","system_id":"levelo_inurba_marseille","lat":43.337444,"lon":5.374475,"is_reserved":false,"is_disabled":false,"rental_uris":{"android":"levelo://app?vid=4ce4318f-b763-4325-8589-2aecbcc80add","ios":"levelo://app?vid=4ce4318f-b763-4325-8589-2aecbcc80add"},"vehicle_type_id":"4","last_reported":1761822578,"current_range_meters":0,"station_id":"","pricing_plan_id":"cebpf4jnsgd1na2vs0mg"},{"bike_id":"a6a3a590-5c2a-4683-a516-e9f5572de0f8","system_id":"levelo_inurba_marseille","lat":43.337444,"lon":5.374475,"is_reserved":false,"is_disabled":false,"rental_uris":{"android":"levelo://app?vid=a6a3a590-5c2a-4683-a516-e9f5572de0f8","ios":"levelo://app?vid=a6a3a590-5c2a-4683-a516-e9f5572de0f8"},"vehicle_type_id":"4","last_reported":1761822578,"current_range_meters":0,"station_id":"","pricing_plan_id":"cebpf4jnsgd1na2vs0mg"},{"bike_id":"111bdd74-3ae9-48f5-979c-2e177e7747d9","system_id":"levelo_inurba_marseille","lat":43.337444,"lon":5.374475,"is_reserved":false,"is_disabled":false,"rental_uris":{"android":"levelo://app?vid=111bdd74-3ae9-48f5-979c-2e177e7747d9","ios":"levelo://app?vid=111bdd74-3ae9-48f5-979c-2e177e7747d9"},"vehicle_type_id":"4","last_reported":1761822578,"current_range_meters":0,"station_id":"","pricing_plan_id":"cebpf4jnsgd1na2vs0mg"},{"bike_id":"b9d871b8-65b0-40af-afa3-0bf2492a45a9","system_id":"levelo_inurba_marseille","lat":43.337444,"lon":5.374475,"is_reserved":false,"is_disabled":false,"rental_uris":{"android":"levelo://app?vid=b9d871b8-65b0-40af-afa3-0bf2492a45a9","ios":"levelo://app?vid=b9d871b8-65b0-40af-afa3-0bf2492a45a9"},"vehicle_type_id":"4","last_reported":1761822578,"current_range_meters":0,"station_id":"","pricing_plan_id":"cebpf4jnsgd1na2vs0mg"},{"bike_id":"5bec735e-fcf4-48c7-8bdc-29590fc410b1","system_id":"levelo_inurba_marseille","lat":43.337444,"lon":5.374475,"is_reserved":false,"is_disabled":false,"rental_uris":{"android":"levelo://app?vid=5bec735e-fcf4-48c7-8bdc-29590fc410b1","ios":"levelo://app?vid=5bec735e-fcf4-48c7-8bdc-29590fc410b1"},"vehicle_type_id":"4","last_reported":1761822578,"current_range_meters":0,"station_id":"","pricing_plan_id":"cebpf4jnsgd1na2vs0mg"},{"bike_id":"026e76ec-bb30-48a3-8407-a17635ff5e4d","system_id":"levelo_inurba_marseille","lat":43.337444,"lon":5.374475,"is_reserved":false,"is_disabled":false,"rental_uris":{"android":"levelo://app?vid=026e76ec-bb30-48a3-8407-a17635ff5e4d","ios":"levelo://app?vid=026e76ec-bb30-48a3-8407-a17635ff5e4d"},"vehicle_type_id":"4","last_reported":1761822578,"current_range_meters":0,"station_id":"","pricing_plan_id":"cebpf4jnsgd1na2vs0mg"},{"bike_id":"46d34bff-7ac4-476c-bd3e-8e7dba53c807","system_id":"levelo_inurba_marseille","lat":43.337444,"lon":5.374475,"is_reserved":false,"is_disabled":false,"rental_uris":{"android":"levelo://app?vid=46d34bff-7ac4-476c-bd3e-8e7dba53c807","ios":"levelo://app?vid=46d34bff-7ac4-476c-bd3e-8e7dba53c807"},"vehicle_type_id":"4","last_reported":1761822578,"current_range_meters":0,"station_id":"","pricing_plan_id":"cebpf4jnsgd1na2vs0mg"},{"bike_id":"2c7e37d6-d4ca-47ae-a0e0-a648dd4e1706","system_id":"levelo_inurba_marseille","lat":43.337444,"lon":5.374475,"is_reserved":false,"is_disabled":false,"rental_uris":{"android":"levelo://app?vid=2c7e37d6-d4ca-47ae-a0e0-a648dd4e1706","ios":"levelo://app?vid=2c7e37d6-d4ca-47ae-a0e0-a648dd4e1706"},"vehicle_type_id":"4","last_reported":1761822578,"current_range_meters":0,"station_id":"","pricing_plan_id":"cebpf4jnsgd1na2vs0mg"},{"bike_id":"94eee6a6-2463-4d2a-b222-3ef19356212a","system_id":"levelo_inurba_marseille","lat":43.337444,"lon":5.374475,"is_reserved":false,"is_disabled":false,"rental_uris":{"android":"levelo://app?vid=94eee6a6-2463-4d2a-b222-3ef19356212a","ios":"levelo://app?vid=94eee6a6-2463-4d2a-b222-3ef19356212a"},"vehicle_type_id":"4","last_reported":1761822578,"current_range_meters":0,"station_id":"","pricing_plan_id":"cebpf4jnsgd1na2vs0mg"},{"bike_id":"4592e008-320c-4bcd-ae3b-d140e613f684","system_id":"levelo_inurba_marseille","lat":43.337444,"lon":5.374475,"is_reserved":false,"is_disabled":false,"rental_uris":{"android":"levelo://app?vid=4592e008-320c-4bcd-ae3b-d140e613f684","ios":"levelo://app?vid=4592e008-320c-4bcd-ae3b-d140e613f684"},"vehicle_type_id":"4","last_reported":1761822578,"current_range_meters":0,"station_id":"","pricing_plan_id":"cebpf4jnsgd1na2vs0mg"},{"bike_id":"5807ce94-1b62-42db-8c77-9488accc83d5","system_id":"levelo_inurba_marseille","lat":43.337444,"lon":5.374475,"is_reserved":false,"is_disabled":false,"rental_uris":{"android":"levelo://app?vid=5807ce94-1b62-42db-8c77-9488accc83d5","ios":"levelo://app?vid=5807ce94-1b62-42db-8c77-9488accc83d5"},"vehicle_type_id":"4","last_reported":1761822578,"current_range_meters":0,"station_id":"","pricing_plan_id":"cebpf4jnsgd1na2vs0mg"},{"bike_id":"168cdd09-2b2d-4b1c-8254-6a304c196f06","system_id":"levelo_inurba_marseille","lat":43.30965,"lon":5.39104,"is_reserved":false,"is_disabled":false,"rental_uris":{"android":"levelo://app?vid=168cdd09-2b2d-4b1c-8254-6a304c196f06","ios":"levelo://app?vid=168cdd09-2b2d-4b1c-8254-6a304c196f06"},"vehicle_type_id":"4","last_reported":1761822578,"current_range_meters":2800,"station_id":"","pricing_plan_id":"cebpf4jnsgd1na2vs0mg"},{"bike_id":"762efe42-bc67-4d6c-8181-bf6c04d486f4","system_id":"levelo_inurba_marseille","lat":43.21746,"lon":5.34603,"is_reserved":false,"is_disabled":true,"rental_uris":{"android":"levelo://app?vid=762efe42-bc67-4d6c-8181-bf6c04d486f4","ios":"levelo://app?vid=762efe42-bc67-4d6c-8181-bf6c04d486f4"},"vehicle_type_id":"4","last_reported":1761822578,"current_range_meters":2800,"station_id":"","pricing_plan_id":"cebpf4jnsgd1na2vs0mg"},{"bike_id":"492bff85-4e88-467a-a4d9-75951c5f69d5","system_id":"levelo_inurba_marseille","lat":43.31159,"lon":5.38724,"is_reserved":false,"is_disabled":false,"rental_uris":{"android":"levelo://app?vid=492bff85-4e88-467a-a4d9-75951c5f69d5","ios":"levelo://app?vid=492bff85-4e88-467a-a4d9-75951c5f69d5"},"vehicle_type_id":"4","last_reported":1761822578,"current_range_meters":2800,"station_id":"ce4bgv12rcd13ifvqcp0","pricing_plan_id":"cebpf4jnsgd1na2vs0mg"},{"bike_id":"eb8f13ff-065d-4e4e-b5e0-9c6d6156824b","system_id":"levelo_inurba_marseille","lat":43.21198,"lon":5.35072,"is_reserved":false,"is_disabled":false,"rental_uris":{"android":"levelo://app?vid=eb8f13ff-065d-4e4e-b5e0-9c6d6156824b","ios":"levelo://app?vid=eb8f13ff-065d-4e4e-b5e0-9c6d6156824b"},"vehicle_type_id":"4","last_reported":1761822578,"current_range_meters":3200,"station_id":"st_cvj6sg6p6f1abm77japg","pricing_plan_id":"cebpf4jnsgd1na2vs0mg"},{"bike_id":"bbf39fe6-165c-4209-8a4f-e4812404ea4b","system_id":"levelo_inurba_marseille","lat":43.237898,"lon":5.366383,"is_reserved":false,"is_disabled":false,"rental_uris":{"android":"levelo://app?vid=bbf39fe6-165c-4209-8a4f-e4812404ea4b","ios":"levelo://app?vid=bbf39fe6-165c-4209-8a4f-e4812404ea4b"},"vehicle_type_id":"4","last_reported":1761822578,"current_range_meters":4400,"station_id":"st_d3nk18o9ro0c73en2l3g","pricing_plan_id":"cebpf4jnsgd1na2vs0mg"},{"bike_id":"d5ca831f-8041-403e-ada8-7b4196c3d5be","system_id":"levelo_inurba_marseille","lat":43.293714,"lon":5.379385,"is_reserved":false,"is_disabled":false,"rental_uris":{"android":"levelo://app?vid=d5ca831f-8041-403e-ada8-7b4196c3d5be","ios":"levelo://app?vid=d5ca831f-8041-403e-ada8-7b4196c3d5be"},"vehicle_type_id":"4","last_reported":1761822578,"current_range_meters":4400,"station_id":"","pricing_plan_id":"cebpf4jnsgd1na2vs0mg"},{"bike_id":"c6615a6a-568c-48b7-bba9-addcfa58dcd4","system_id":"levelo_inurba_marseille","lat":43.25865,"lon":5.39896,"is_reserved":false,"is_disabled":false,"rental_uris":{"android":"levelo://app?vid=c6615a6a-568c-48b7-bba9-addcfa58dcd4","ios":"levelo://app?vid=c6615a6a-568c-48b7-bba9-addcfa58dcd4"},"vehicle_type_id":"4","last_reported":1761822578,"current_range_meters":4800,"station_id":"ce4bhl92rcd13ifvqghg","pricing_plan_id":"cebpf4jnsgd1na2vs0mg"},{"bike_id":"cf3c763a-afe1-4333-aebc-52927272ff43","system_id":"levelo_inurba_marseille","lat":43.23153,"lon":5.43703,"is_reserved":false,"is_disabled":false,"rental_uris":{"android":"levelo://app?vid=cf3c763a-afe1-4333-aebc-52927272ff43","ios":"levelo://app?vid=cf3c763a-afe1-4333-aebc-52927272ff43"},"vehicle_type_id":"4","last_reported":1761822578,"current_range_meters":4800,"station_id":"ce4bhmp2rcd13ifvqgog","pricing_plan_id":"cebpf4jnsgd1na2vs0mg"},{"bike_id":"e8cecdc3-ea04-4bed-a2e8-e4ef75d8bb5c","system_id":"levelo_inurba_marseille","lat":43.21751,"lon":5.34598,"is_reserved":false,"is_disabled":false,"rental_uris":{"android":"levelo://app?vid=e8cecdc3-ea04-4bed-a2e8-e4ef75d8bb5c","ios":"levelo://app?vid=e8cecdc3-ea04-4bed-a2e8-e4ef75d8bb5c"},"vehicle_type_id":"4","last_reported":1761822578,"current_range_meters":4800,"station_id":"st_cvj6r9ubvosntc0bgbag","pricing_plan_id":"cebpf4jnsgd1na2vs0mg"},{"bike_id":"6734ea4f-81f3-48a5-98ff-eb52308bd657","system_id":"levelo_inurba_marseille","lat":43.27939,"lon":5.41035,"is_reserved":false,"is_disabled":true,"rental_uris":{"android":"levelo://app?vid=6734ea4f-81f3-48a5-98ff-eb52308bd657","ios":"levelo://app?vid=6734ea4f-81f3-48a5-98ff-eb52308bd657"},"vehicle_type_id":"4","last_reported":1761822578,"current_range_meters":5600,"station_id":"ce4bhnp2rcd13ifvqh0g","pricing_plan_id":"cebpf4jnsgd1na2vs0mg"},{"bike_id":"96eb1989-c128-445d-8c9b-ec34676f501e","system_id":"levelo_inurba_marseille","lat":43.288745,"lon":5.425074,"is_reserved":false,"is_disabled":false,"rental_uris":{"android":"levelo://app?vid=96eb1989-c128-445d-8c9b-ec34676f501e","ios":"levelo://app?vid=96eb1989-c128-445d-8c9b-ec34676f501e"},"vehicle_type_id":"4","last_reported":1761822578,"current_range_meters":5600,"station_id":"st_d3b462108ojc7389ooeg","pricing_plan_id":"cebpf4jnsgd1na2vs0mg"},{"bike_id":"48cc5a83-cf07-471a-9479-5a71011e485c","system_id":"levelo_inurba_marseille","lat":43.31372,"lon":5.36722,"is_reserved":false,"is_disabled":false,"rental_uris":{"android":"levelo://app?vid=48cc5a83-cf07-471a-9479-5a71011e485c","ios":"levelo://app?vid=48cc5a83-cf07-471a-9479-5a71011e485c"},"vehicle_type_id":"4","last_reported":1761822578,"current_range_meters":6000,"station_id":"ce4bgr92rcd13ifvqc6g","pricing_plan_id":"cebpf4jnsgd1na2vs0mg"},{"bike_id":"a1ac3b55-5296-403a-b778-8c270b2f4e12","system_id":"levelo_inurba_marseille","lat":43.29574,"lon":5.39968,"is_reserved":false,"is_disabled":false,"rental_uris":{"android":"levelo://app?vid=a1ac3b55-5296-403a-b778-8c270b2f4e12","ios":"levelo://app?vid=a1ac3b55-5296-403a-b778-8c270b2f4e12"},"vehicle_type_id":"4","last_reported":1761822578,"current_range_meters":6000,"station_id":"ce4bh312rcd13ifvqdj0","pricing_plan_id":"cebpf4jnsgd1na2vs0mg"},{"bike_id":"f6adb9c1-4a78-4322-baec-aa5f6f5d93b6","system_id":"levelo_inurba_marseille","lat":43.337896,"lon":5.374361,"is_reserved":false,"is_disabled":false,"rental_uris":{"android":"levelo://app?vid=f6adb9c1-4a78-4322-baec-aa5f6f5d93b6","ios":"levelo://app?vid=f6adb9c1-4a78-4322-baec-aa5f6f5d93b6"},"vehicle_type_id":"4","last_reported":1761822578,"current_range_meters":6000,"station_id":"","pricing_plan_id":"cebpf4jnsgd1na2vs0mg"},{"bike_id":"df4a7072-9a99-4388-960f-688f83a92f17","system_id":"levelo_inurba_marseille","lat":43.295493,"lon":5.422854,"is_reserved":false,"is_disabled":false,"rental_uris":{"android":"levelo://app?vid=df4a7072-9a99-4388-960f-688f83a92f17","ios":"levelo://app?vid=df4a7072-9a99-4388-960f-688f83a92f17"},"vehicle_type_id":"4","last_reported":1761822578,"current_range_meters":6400,"station_id":"ce4bhph2rcd13ifvqhdg","pricing_plan_id":"cebpf4jnsgd1na2vs0mg"},{"bike_id":"ed13730a-3ba9-4dd0-9694-3922e9b991f1","system_id":"levelo_inurba_marseille","lat":43.26195,"lon":5.37447,"is_reserved":false,"is_disabled":false,"rental_uris":{"android":"levelo://app?vid=ed13730a-3ba9-4dd0-9694-3922e9b991f1","ios":"levelo://app?vid=ed13730a-3ba9-4dd0-9694-3922e9b991f1"},"vehicle_type_id":"4","last_reported":1761822578,"current_range_meters":6400,"station_id":"ce4bhgp2rcd13ifvqfc0","pricing_plan_id":"cebpf4jnsgd1na2vs0mg"},{"bike_id":"031ba078-e36f-4ed3-889c-1fe60e3a92e8","system_id":"levelo_inurba_marseille","lat":43.27069,"lon":5.42274,"is_reserved":false,"is_disabled":false,"rental_uris":{"android":"levelo://app?vid=031ba078-e36f-4ed3-889c-1fe60e3a92e8","ios":"levelo://app?vid=031ba078-e36f-4ed3-889c-1fe60e3a92e8"},"vehicle_type_id":"4","last_reported":1761822578,"current_range_meters":6400,"station_id":"ce4bhk92rcd13ifvqgb0","pricing_plan_id":"cebpf4jnsgd1na2vs0mg"},{"bike_id":"c9c87355-3b52-4212-a571-208926c11bf2","system_id":"levelo_inurba_marseille","lat":43.337444,"lon":5.374475,"is_reserved":false,"is_disabled":false,"rental_uris":{"android":"levelo://app?vid=c9c87355-3b52-4212-a571-208926c11bf2","ios":"levelo://app?vid=c9c87355-3b52-4212-a571-208926c11bf2"},"vehicle_type_id":"4","last_reported":1761822578,"current_range_meters":6800,"station_id":"ce4bhq12rcd13ifvqhig","pricing_plan_id":"cebpf4jnsgd1na2vs0mg"},{"bike_id":"5f4fe946-ad6a-4bfd-80a9-00b1fa1943f0","system_id":"levelo_inurba_marseille","lat":43.23785,"lon":5.36632,"is_reserved":false,"is_disabled":false,"rental_uris":{"android":"levelo://app?vid=5f4fe946-ad6a-4bfd-80a9-00b1fa1943f0","ios":"levelo://app?vid=5f4fe946-ad6a-4bfd-80a9-00b1fa1943f0"},"vehicle_type_id":"4","last_reported":1761822578,"current_range_meters":6800,"station_id":"st_d3nk18o9ro0c73en2l3g","pricing_plan_id":"cebpf4jnsgd1na2vs0mg"},{"bike_id":"85359052-1f28-4ae4-8d80-1fe1a769d34e","system_id":"levelo_inurba_marseille","lat":43.248011,"lon":5.374606,"is_reserved":false,"is_disabled":false,"rental_uris":{"android":"levelo://app?vid=85359052-1f28-4ae4-8d80-1fe1a769d34e","ios":"levelo://app?vid=85359052-1f28-4ae4-8d80-1fe1a769d34e"},"vehicle_type_id":"4","last_reported":1761822578,"current_range_meters":6800,"station_id":"ce4bhgh2rcd13ifvqfb0","pricing_plan_id":"cebpf4jnsgd1na2vs0mg"},{"bike_id":"d7501644-af29-4949-85a6-6fb0d170cf4f","system_id":"levelo_inurba_marseille","lat":43.211993,"lon":5.35071,"is_reserved":false,"is_disabled":false,"rental_uris":{"android":"levelo://app?vid=d7501644-af29-4949-85a6-6fb0d170cf4f","ios":"levelo://app?vid=d7501644-af29-4949-85a6-6fb0d170cf4f"},"vehicle_type_id":"4","last_reported":1761822578,"current_range_meters":6800,"station_id":"st_cvj6sg6p6f1abm77japg","pricing_plan_id":"cebpf4jnsgd1na2vs0mg"},{"bike_id":"ae8ebe94-fc0f-4409-8f77-39eb5c613a67","system_id":"levelo_inurba_marseille","lat":43.337444,"lon":5.374475,"is_reserved":false,"is_disabled":false,"rental_uris":{"android":"levelo://app?vid=ae8ebe94-fc0f-4409-8f77-39eb5c613a67","ios":"levelo://app?vid=ae8ebe94-fc0f-4409-8f77-39eb5c613a67"},"vehicle_type_id":"4","last_reported":1761822578,"current_range_meters":7200,"station_id":"","pricing_plan_id":"cebpf4jnsgd1na2vs0mg"},{"bike_id":"0a26a535-06d3-40f4-b0c0-29130fa65d28","system_id":"levelo_inurba_marseille","lat":43.27053,"lon":5.40256,"is_reserved":false,"is_disabled":false,"rental_uris":{"android":"levelo://app?vid=0a26a535-06d3-40f4-b0c0-29130fa65d28","ios":"levelo://app?vid=0a26a535-06d3-40f4-b0c0-29130fa65d28"},"vehicle_type_id":"4","last_reported":1761822578,"current_range_meters":7200,"station_id":"ce4bhk92rcd13ifvqgc0","pricing_plan_id":"cebpf4jnsgd1na2vs0mg"},{"bike_id":"fd09dbe7-0bec-431b-9705-875a0c7a7829","system_id":"levelo_inurba_marseille","lat":43.23057,"lon":5.35491,"is_reserved":false,"is_disabled":false,"rental_uris":{"android":"levelo://app?vid=fd09dbe7-0bec-431b-9705-875a0c7a7829","ios":"levelo://app?vid=fd09dbe7-0bec-431b-9705-875a0c7a7829"},"vehicle_type_id":"4","last_reported":1761822578,"current_range_meters":7200,"station_id":"cpo3342slgdg3j2ifvpg","pricing_plan_id":"cebpf4jnsgd1na2vs0mg"},{"bike_id":"8c5be4c1-c8b8-454d-a266-5ecdc0d21389","system_id":"levelo_inurba_marseille","lat":43.262073,"lon":5.379298,"is_reserved":false,"is_disabled":false,"rental_uris":{"android":"levelo://app?vid=8c5be4c1-c8b8-454d-a266-5ecdc0d21389","ios":"levelo://app?vid=8c5be4c1-c8b8-454d-a266-5ecdc0d21389"},"vehicle_type_id":"4","last_reported":1761822578,"current_range_meters":7200,"station_id":"ce4bhjp2rcd13ifvqg90","pricing_plan_id":"cebpf4jnsgd1na2vs0mg"},{"bike_id":"4ef6eb35-4fe6-4001-a7cf-cd8ab2ca65f5","system_id":"levelo_inurba_marseille","lat":43.28481,"lon":5.38546,"is_reserved":false,"is_disabled":false,"rental_uris":{"android":"levelo://app?vid=4ef6eb35-4fe6-4001-a7cf-cd8ab2ca65f5","ios":"levelo://app?vid=4ef6eb35-4fe6-4001-a7cf-cd8ab2ca65f5"},"vehicle_type_id":"4","last_reported":1761822578,"current_range_meters":7200,"station_id":"ce4bh8p2rcd13ifvqeb0","pricing_plan_id":"cebpf4jnsgd1na2vs0mg"},{"bike_id":"c6ed1526-dd5d-4299-af43-85f8f0e9a903","system_id":"levelo_inurba_marseille","lat":43.30428,"lon":5.39764,"is_reserved":false,"is_disabled":false,"rental_uris":{"android":"levelo://app?vid=c6ed1526-dd5d-4299-af43-85f8f0e9a903","ios":"levelo://app?vid=c6ed1526-dd5d-4299-af43-85f8f0e9a903"},"vehicle_type_id":"4","last_reported":1761822578,"current_range_meters":8000,"station_id":"ce4bh092rcd13ifvqd20","pricing_plan_id":"cebpf4jnsgd1na2vs0mg"},{"bike_id":"e3c50aa6-6386-41c8-a55d-eaf1343e5af1","system_id":"levelo_inurba_marseille","lat":43.30951,"lon":5.39022,"is_reserved":false,"is_disabled":false,"rental_uris":{"android":"levelo://app?vid=e3c50aa6-6386-41c8-a55d-eaf1343e5af1","ios":"levelo://app?vid=e3c50aa6-6386-41c8-a55d-eaf1343e5af1"},"vehicle_type_id":"4","last_reported":1761822578,"current_range_meters":8000,"station_id":"ce4bgup2rcd13ifvqco0","pricing_plan_id":"cebpf4jnsgd1na2vs0mg"},{"bike_id":"03645830-c22e-44d9-833e-31dea579848c","system_id":"levelo_inurba_marseille","lat":43.249983,"lon":5.389397,"is_reserved":false,"is_disabled":false,"rental_uris":{"android":"levelo://app?vid=03645830-c22e-44d9-833e-31dea579848c","ios":"levelo://app?vid=03645830-c22e-44d9-833e-31dea579848c"},"vehicle_type_id":"4","last_reported":1761822578,"current_range_meters":8000,"station_id":"ce4bhgp2rcd13ifvqfd0","pricing_plan_id":"cebpf4jnsgd1na2vs0mg"},{"bike_id":"d03f6b0e-52f1-4b1d-aa37-63c36e7ad0bf","system_id":"levelo_inurba_marseille","lat":43.3088,"lon":5.37194,"is_reserved":false,"is_disabled":false,"rental_uris":{"android":"levelo://app?vid=d03f6b0e-52f1-4b1d-aa37-63c36e7ad0bf","ios":"levelo://app?vid=d03f6b0e-52f1-4b1d-aa37-63c36e7ad0bf"},"vehicle_type_id":"4","last_reported":1761822578,"current_range_meters":8400,"station_id":"ce4bguh2rcd13ifvqckg","pricing_plan_id":"cebpf4jnsgd1na2vs0mg"},{"bike_id":"9a7db4a5-1902-465d-b212-e7943d630f46","system_id":"levelo_inurba_marseille","lat":43.330193,"lon":5.390435,"is_reserved":false,"is_disabled":false,"rental_uris":{"android":"levelo://app?vid=9a7db4a5-1902-465d-b212-e7943d630f46","ios":"levelo://app?vid=9a7db4a5-1902-465d-b212-e7943d630f46"},"vehicle_type_id":"4","last_reported":1761822578,"current_range_meters":8400,"station_id":"ce4bhr92rcd13ifvqhrg","pricing_plan_id":"cebpf4jnsgd1na2vs0mg"},{"bike_id":"159004e8-a2f3-4454-a807-4ad587318870","system_id":"levelo_inurba_marseille","lat":43.29085,"lon":5.38139,"is_reserved":false,"is_disabled":false,"rental_uris":{"android":"levelo://app?vid=159004e8-a2f3-4454-a807-4ad587318870","ios":"levelo://app?vid=159004e8-a2f3-4454-a807-4ad587318870"},"vehicle_type_id":"4","last_reported":1761822578,"current_range_meters":8800,"station_id":"ce4bh512rcd13ifvqe2g","pricing_plan_id":"cebpf4jnsgd1na2vs0mg"},{"bike_id":"03a9da98-3e5f-4e43-be78-686c4dab7400","system_id":"levelo_inurba_marseille","lat":43.23195,"lon":5.35556,"is_reserved":false,"is_disabled":false,"rental_uris":{"android":"levelo://app?vid=03a9da98-3e5f-4e43-be78-686c4dab7400","ios":"levelo://app?vid=03a9da98-3e5f-4e43-be78-686c4dab7400"},"vehicle_type_id":"4","last_reported":1761822578,"current_range_meters":9200,"station_id":"ce4bhu92rcd13ifvqi70","pricing_plan_id":"cebpf4jnsgd1na2vs0mg"},{"bike_id":"52ae2709-5a5a-453f-97ef-c31ecb811b8e","system_id":"levelo_inurba_marseille","lat":43.30425,"lon":5.3974,"is_reserved":false,"is_disabled":false,"rental_uris":{"android":"levelo://app?vid=52ae2709-5a5a-453f-97ef-c31ecb811b8e","ios":"levelo://app?vid=52ae2709-5a5a-453f-97ef-c31ecb811b8e"},"vehicle_type_id":"4","last_reported":1761822578,"current_range_meters":9200,"station_id":"ce4bh092rcd13ifvqd20","pricing_plan_id":"cebpf4jnsgd1na2vs0mg"},{"bike_id":"f6190ced-b032-472c-ab1b-69f0c67fa4ee","system_id":"levelo_inurba_marseille","lat":43.26029,"lon":5.3755,"is_reserved":false,"is_disabled":false,"rental_uris":{"android":"levelo://app?vid=f6190ced-b032-472c-ab1b-69f0c67fa4ee","ios":"levelo://app?vid=f6190ced-b032-472c-ab1b-69f0c67fa4ee"},"vehicle_type_id":"4","last_reported":1761822578,"current_range_meters":9200,"station_id":"ce4bhgh2rcd13ifvqfa0","pricing_plan_id":"cebpf4jnsgd1na2vs0mg"},{"bike_id":"58cb7608-ed2d-420d-88f9-acd131c05918","system_id":"levelo_inurba_marseille","lat":43.3019,"lon":5.3814,"is_reserved":false,"is_disabled":false,"rental_uris":{"android":"levelo://app?vid=58cb7608-ed2d-420d-88f9-acd131c05918","ios":"levelo://app?vid=58cb7608-ed2d-420d-88f9-acd131c05918"},"vehicle_type_id":"4","last_reported":1761822578,"current_range_meters":9200,"station_id":"","pricing_plan_id":"cebpf4jnsgd1na2vs0mg"},{"bike_id":"faee4aed-34d1-4e59-9f3e-bc2337688920","system_id":"levelo_inurba_marseille","lat":43.31711,"lon":5.43683,"is_reserved":false,"is_disabled":true,"rental_uris":{"android":"levelo://app?vid=faee4aed-34d1-4e59-9f3e-bc2337688920","ios":"levelo://app?vid=faee4aed-34d1-4e59-9f3e-bc2337688920"},"vehicle_type_id":"4","last_reported":1761822578,"current_range_meters":9600,"station_id":"ce4bhp92rcd13ifvqhcg","pricing_plan_id":"cebpf4jnsgd1na2vs0mg"},{"bike_id":"198b117f-ce99-426b-998a-9c0a6f6ce10c","system_id":"levelo_inurba_marseille","lat":43.28154,"lon":5.42642,"is_reserved":false,"is_disabled":false,"rental_uris":{"android":"levelo://app?vid=198b117f-ce99-426b-998a-9c0a6f6ce10c","ios":"levelo://app?vid=198b117f-ce99-426b-998a-9c0a6f6ce10c"},"vehicle_type_id":"4","last_reported":1761822578,"current_range_meters":9600,"station_id":"ce4bhnh2rcd13ifvqgug","pricing_plan_id":"cebpf4jnsgd1na2vs0mg"},{"bike_id":"e3260d53-1f31-4048-a6b1-57d9b1375877","system_id":"levelo_inurba_marseille","lat":43.285373,"lon":5.441004,"is_reserved":false,"is_disabled":false,"rental_uris":{"android":"levelo://app?vid=e3260d53-1f31-4048-a6b1-57d9b1375877","ios":"levelo://app?vid=e3260d53-1f31-4048-a6b1-57d9b1375877"},"vehicle_type_id":"4","last_reported":1761822578,"current_range_meters":10000,"station_id":"st_d3j3df2ikq2c7380ej80","pricing_plan_id":"cebpf4jnsgd1na2vs0mg"},{"bike_id":"169a8269-37a6-48e7-ab4d-11f6b53a0fd3","system_id":"levelo_inurba_marseille","lat":43.29635,"lon":5.40594,"is_reserved":false,"is_disabled":false,"rental_uris":{"android":"levelo://app?vid=169a8269-37a6-48e7-ab4d-11f6b53a0fd3","ios":"levelo://app?vid=169a8269-37a6-48e7-ab4d-11f6b53a0fd3"},"vehicle_type_id":"4","last_reported":1761822578,"current_range_meters":10000,"station_id":"ce4bh0h2rcd13ifvqd60","pricing_plan_id":"cebpf4jnsgd1na2vs0mg"},{"bike_id":"e74e8c31-97fd-46b3-84ee-8de43c53a371","system_id":"levelo_inurba_marseille","lat":43.29608,"lon":5.37367,"is_reserved":false,"is_disabled":false,"rental_uris":{"android":"levelo://app?vid=e74e8c31-97fd-46b3-84ee-8de43c53a371","ios":"levelo://app?vid=e74e8c31-97fd-46b3-84ee-8de43c53a371"},"vehicle_type_id":"4","last_reported":1761822578,"current_range_meters":10000,"station_id":"","pricing_plan_id":"cebpf4jnsgd1na2vs0mg"},{"bike_id":"a82e7080-be6f-4609-8a2f-89c25390d857","system_id":"levelo_inurba_marseille","lat":43.28261,"lon":5.35063,"is_reserved":false,"is_disabled":false,"rental_uris":{"android":"levelo://app?vid=a82e7080-be6f-4609-8a2f-89c25390d857","ios":"levelo://app?vid=a82e7080-be6f-4609-8a2f-89c25390d857"},"vehicle_type_id":"4","last_reported":1761822578,"current_range_meters":10000,"station_id":"ce4bhbp2rcd13ifvqerg","pricing_plan_id":"cebpf4jnsgd1na2vs0mg"},{"bike_id":"4644b8ac-affa-4d50-b2ae-974d32d38290","system_id":"levelo_inurba_marseille","lat":43.30796,"lon":5.43524,"is_reserved":false,"is_disabled":false,"rental_uris":{"android":"levelo://app?vid=4644b8ac-affa-4d50-b2ae-974d32d38290","ios":"levelo://app?vid=4644b8ac-affa-4d50-b2ae-974d32d38290"},"vehicle_type_id":"4","last_reported":1761822578,"current_range_meters":10000,"station_id":"","pricing_plan_id":"cebpf4jnsgd1na2vs0mg"},{"bike_id":"9a401185-4db8-465e-98dc-ae86f102c494","system_id":"levelo_inurba_marseille","lat":43.23194,"lon":5.39985,"is_reserved":false,"is_disabled":false,"rental_uris":{"android":"levelo://app?vid=9a401185-4db8-465e-98dc-ae86f102c494","ios":"levelo://app?vid=9a401185-4db8-465e-98dc-ae86f102c494"},"vehicle_type_id":"4","last_reported":1761822578,"current_range_meters":10000,"station_id":"ce4bhn12rcd13ifvqgqg","pricing_plan_id":"cebpf4jnsgd1na2vs0mg"},{"bike_id":"f3206b6f-e6c7-4b5f-a68d-a65e7de59980","system_id":"levelo_inurba_marseille","lat":43.25333,"lon":5.42174,"is_reserved":false,"is_disabled":false,"rental_uris":{"android":"levelo://app?vid=f3206b6f-e6c7-4b5f-a68d-a65e7de59980","ios":"levelo://app?vid=f3206b6f-e6c7-4b5f-a68d-a65e7de59980"},"vehicle_type_id":"4","last_reported":1761822578,"current_range_meters":10000,"station_id":"st_d2m65c5bi1j21697t3ng","pricing_plan_id":"cebpf4jnsgd1na2vs0mg"},{"bike_id":"8062c369-ff3b-4a48-b2ef-d270e82c4cf4","system_id":"levelo_inurba_marseille","lat":43.23061,"lon":5.35504,"is_reserved":false,"is_disabled":false,"rental_uris":{"android":"levelo://app?vid=8062c369-ff3b-4a48-b2ef-d270e82c4cf4","ios":"levelo://app?vid=8062c369-ff3b-4a48-b2ef-d270e82c4cf4"},"vehicle_type_id":"4","last_reported":1761822578,"current_range_meters":10800,"station_id":"cpo3342slgdg3j2ifvpg","pricing_plan_id":"cebpf4jnsgd1na2vs0mg"},{"bike_id":"12bb40d0-02b3-496d-987d-3b3a5431225b","system_id":"levelo_inurba_marseille","lat":43.27053,"lon":5.40259,"is_reserved":false,"is_disabled":false,"rental_uris":{"android":"levelo://app?vid=12bb40d0-02b3-496d-987d-3b3a5431225b","ios":"levelo://app?vid=12bb40d0-02b3-496d-987d-3b3a5431225b"},"vehicle_type_id":"4","last_reported":1761822578,"current_range_meters":10800,"station_id":"ce4bhk92rcd13ifvqgc0","pricing_plan_id":"cebpf4jnsgd1na2vs0mg"},{"bike_id":"39ba5b36-d4ea-44e8-a379-188f0fef8634","system_id":"levelo_inurba_marseille","lat":43.28469,"lon":5.38417,"is_reserved":false,"is_disabled":false,"rental_uris":{"android":"levelo://app?vid=39ba5b36-d4ea-44e8-a379-188f0fef8634","ios":"levelo://app?vid=39ba5b36-d4ea-44e8-a379-188f0fef8634"},"vehicle_type_id":"4","last_reported":1761822578,"current_range_meters":11200,"station_id":"ce4bh512rcd13ifvqe3g","pricing_plan_id":"cebpf4jnsgd1na2vs0mg"},{"bike_id":"8f8bc35f-4914-4b7a-8d83-31c1009102ce","system_id":"levelo_inurba_marseille","lat":43.24618,"lon":5.43165,"is_reserved":false,"is_disabled":false,"rental_uris":{"android":"levelo://app?vid=8f8bc35f-4914-4b7a-8d83-31c1009102ce","ios":"levelo://app?vid=8f8bc35f-4914-4b7a-8d83-31c1009102ce"},"vehicle_type_id":"4","last_reported":1761822578,"current_range_meters":11600,"station_id":"st_d2m6c4gdas8pm72e190g","pricing_plan_id":"cebpf4jnsgd1na2vs0mg"},{"bike_id":"39457fe9-f08e-4a74-a542-c3f8ab40e65c","system_id":"levelo_inurba_marseille","lat":43.30966,"lon":5.39057,"is_reserved":false,"is_disabled":false,"rental_uris":{"android":"levelo://app?vid=39457fe9-f08e-4a74-a542-c3f8ab40e65c","ios":"levelo://app?vid=39457fe9-f08e-4a74-a542-c3f8ab40e65c"},"vehicle_type_id":"4","last_reported":1761822578,"current_range_meters":12000,"station_id":"ce4bgup2rcd13ifvqco0","pricing_plan_id":"cebpf4jnsgd1na2vs0mg"},{"bike_id":"00e5df0f-1cb7-420a-b470-616dc5cd7798","system_id":"levelo_inurba_marseille","lat":43.2304,"lon":5.35485,"is_reserved":false,"is_disabled":false,"rental_uris":{"android":"levelo://app?vid=00e5df0f-1cb7-420a-b470-616dc5cd7798","ios":"levelo://app?vid=00e5df0f-1cb7-420a-b470-616dc5cd7798"},"vehicle_type_id":"4","last_reported":1761822578,"current_range_meters":12000,"station_id":"cpo3342slgdg3j2ifvpg","pricing_plan_id":"cebpf4jnsgd1na2vs0mg"},{"bike_id":"3fe4cb5f-ebeb-46b8-a29b-bf8e9ee185ac","system_id":"levelo_inurba_marseille","lat":43.25947,"lon":5.4088,"is_reserved":false,"is_disabled":false,"rental_uris":{"android":"levelo://app?vid=3fe4cb5f-ebeb-46b8-a29b-bf8e9ee185ac","ios":"levelo://app?vid=3fe4cb5f-ebeb-46b8-a29b-bf8e9ee185ac"},"vehicle_type_id":"4","last_reported":1761822578,"current_range_meters":12000,"station_id":"ce4bhm92rcd13ifvqglg","pricing_plan_id":"cebpf4jnsgd1na2vs0mg"},{"bike_id":"1e304116-0b57-42e3-a534-abe5b157eea5","system_id":"levelo_inurba_marseille","lat":43.2841,"lon":5.37497,"is_reserved":false,"is_disabled":false,"rental_uris":{"android":"levelo://app?vid=1e304116-0b57-42e3-a534-abe5b157eea5","ios":"levelo://app?vid=1e304116-0b57-42e3-a534-abe5b157eea5"},"vehicle_type_id":"4","last_reported":1761822578,"current_range_meters":12000,"station_id":"ce4bh412rcd13ifvqds0","pricing_plan_id":"cebpf4jnsgd1na2vs0mg"},{"bike_id":"6132fbb0-fb1f-4c42-a930-257bf68886c2","system_id":"levelo_inurba_marseille","lat":43.30913,"lon":5.36866,"is_reserved":false,"is_disabled":false,"rental_uris":{"android":"levelo://app?vid=6132fbb0-fb1f-4c42-a930-257bf68886c2","ios":"levelo://app?vid=6132fbb0-fb1f-4c42-a930-257bf68886c2"},"vehicle_type_id":"4","last_reported":1761822578,"current_range_meters":12400,"station_id":"ce4bgn92rcd13ifvqbvg","pricing_plan_id":"cebpf4jnsgd1na2vs0mg"},{"bike_id":"3126ce35-4101-4b06-a7b2-19548fb25089","system_id":"levelo_inurba_marseille","lat":43.21193,"lon":5.35068,"is_reserved":false,"is_disabled":false,"rental_uris":{"android":"levelo://app?vid=3126ce35-4101-4b06-a7b2-19548fb25089","ios":"levelo://app?vid=3126ce35-4101-4b06-a7b2-19548fb25089"},"vehicle_type_id":"4","last_reported":1761822578,"current_range_meters":12400,"station_id":"st_cvj6sg6p6f1abm77japg","pricing_plan_id":"cebpf4jnsgd1na2vs0mg"},{"bike_id":"569160a4-e207-4db9-b243-c638f0330d62","system_id":"levelo_inurba_marseille","lat":43.32106,"lon":5.36765,"is_reserved":false,"is_disabled":false,"rental_uris":{"android":"levelo://app?vid=569160a4-e207-4db9-b243-c638f0330d62","ios":"levelo://app?vid=569160a4-e207-4db9-b243-c638f0330d62"},"vehicle_type_id":"4","last_reported":1761822578,"current_range_meters":12400,"station_id":"ce4bhrh2rcd13ifvqhug","pricing_plan_id":"cebpf4jnsgd1na2vs0mg"},{"bike_id":"9a47f147-cf75-4f32-8fd7-5af99662d3a5","system_id":"levelo_inurba_marseille","lat":43.25939,"lon":5.40899,"is_reserved":false,"is_disabled":false,"rental_uris":{"android":"levelo://app?vid=9a47f147-cf75-4f32-8fd7-5af99662d3a5","ios":"levelo://app?vid=9a47f147-cf75-4f32-8fd7-5af99662d3a5"},"vehicle_type_id":"4","last_reported":1761822578,"current_range_meters":12800,"station_id":"ce4bhm92rcd13ifvqglg","pricing_plan_id":"cebpf4jnsgd1na2vs0mg"},{"bike_id":"bb423be3-b250-4e22-85e9-4b181dbadbd9","system_id":"levelo_inurba_marseille","lat":43.2315,"lon":5.43708,"is_reserved":false,"is_disabled":false,"rental_uris":{"android":"levelo://app?vid=bb423be3-b250-4e22-85e9-4b181dbadbd9","ios":"levelo://app?vid=bb423be3-b250-4e22-85e9-4b181dbadbd9"},"vehicle_type_id":"4","last_reported":1761822578,"current_range_meters":13600,"station_id":"ce4bhmp2rcd13ifvqgog","pricing_plan_id":"cebpf4jnsgd1na2vs0mg"},{"bike_id":"75df00d1-b79d-4514-b45c-0d363788a217","system_id":"levelo_inurba_marseille","lat":43.3212,"lon":5.36741,"is_reserved":false,"is_disabled":false,"rental_uris":{"android":"levelo://app?vid=75df00d1-b79d-4514-b45c-0d363788a217","ios":"levelo://app?vid=75df00d1-b79d-4514-b45c-0d363788a217"},"vehicle_type_id":"4","last_reported":1761822578,"current_range_meters":14000,"station_id":"ce4bhrh2rcd13ifvqhug","pricing_plan_id":"cebpf4jnsgd1na2vs0mg"},{"bike_id":"b250a777-4b8d-4104-8d4d-4cf432814998","system_id":"levelo_inurba_marseille","lat":43.29719,"lon":5.37326,"is_reserved":false,"is_disabled":false,"rental_uris":{"android":"levelo://app?vid=b250a777-4b8d-4104-8d4d-4cf432814998","ios":"levelo://app?vid=b250a777-4b8d-4104-8d4d-4cf432814998"},"vehicle_type_id":"4","last_reported":1761822578,"current_range_meters":14000,"station_id":"","pricing_plan_id":"cebpf4jnsgd1na2vs0mg"},{"bike_id":"a4a81a3a-b1a5-4e69-b8f2-fc130ffc3362","system_id":"levelo_inurba_marseille","lat":43.26557,"lon":5.37287,"is_reserved":false,"is_disabled":false,"rental_uris":{"android":"levelo://app?vid=a4a81a3a-b1a5-4e69-b8f2-fc130ffc3362","ios":"levelo://app?vid=a4a81a3a-b1a5-4e69-b8f2-fc130ffc3362"},"vehicle_type_id":"4","last_reported":1761822578,"current_range_meters":14000,"station_id":"ce4bhg12rcd13ifvqf70","pricing_plan_id":"cebpf4jnsgd1na2vs0mg"},{"bike_id":"53b9ea54-1899-4571-ab75-8d3245809a5a","system_id":"levelo_inurba_marseille","lat":43.23069,"lon":5.35495,"is_reserved":false,"is_disabled":false,"rental_uris":{"android":"levelo://app?vid=53b9ea54-1899-4571-ab75-8d3245809a5a","ios":"levelo://app?vid=53b9ea54-1899-4571-ab75-8d3245809a5a"},"vehicle_type_id":"4","last_reported":1761822578,"current_range_meters":14000,"station_id":"cpo3342slgdg3j2ifvpg","pricing_plan_id":"cebpf4jnsgd1na2vs0mg"},{"bike_id":"86c193ed-e97a-463b-a260-c4a737ea768c","system_id":"levelo_inurba_marseille","lat":43.25331,"lon":5.42174,"is_reserved":false,"is_disabled":false,"rental_uris":{"android":"levelo://app?vid=86c193ed-e97a-463b-a260-c4a737ea768c","ios":"levelo://app?vid=86c193ed-e97a-463b-a260-c4a737ea768c"},"vehicle_type_id":"4","last_reported":1761822578,"current_range_meters":14400,"station_id":"st_d2m65c5bi1j21697t3ng","pricing_plan_id":"cebpf4jnsgd1na2vs0mg"},{"bike_id":"3a499934-9140-435e-968f-fa10dd280f36","system_id":"levelo_inurba_marseille","lat":43.246475,"lon":5.431426,"is_reserved":false,"is_disabled":false,"rental_uris":{"android":"levelo://app?vid=3a499934-9140-435e-968f-fa10dd280f36","ios":"levelo://app?vid=3a499934-9140-435e-968f-fa10dd280f36"},"vehicle_type_id":"4","last_reported":1761822578,"current_range_meters":14400,"station_id":"st_d2m6c4gdas8pm72e190g","pricing_plan_id":"cebpf4jnsgd1na2vs0mg"},{"bike_id":"332d9b4f-cd75-466d-ad42-569326a49f76","system_id":"levelo_inurba_marseille","lat":43.28966,"lon":5.3782,"is_reserved":false,"is_disabled":false,"rental_uris":{"android":"levelo://app?vid=332d9b4f-cd75-466d-ad42-569326a49f76","ios":"levelo://app?vid=332d9b4f-cd75-466d-ad42-569326a49f76"},"vehicle_type_id":"4","last_reported":1761822578,"current_range_meters":14400,"station_id":"ce4bh9p2rcd13ifvqed0","pricing_plan_id":"cebpf4jnsgd1na2vs0mg"},{"bike_id":"868c9f67-46db-40c2-8054-2388a5f9841e","system_id":"levelo_inurba_marseille","lat":43.3236,"lon":5.36742,"is_reserved":false,"is_disabled":false,"rental_uris":{"android":"levelo://app?vid=868c9f67-46db-40c2-8054-2388a5f9841e","ios":"levelo://app?vid=868c9f67-46db-40c2-8054-2388a5f9841e"},"vehicle_type_id":"4","last_reported":1761822578,"current_range_meters":14400,"station_id":"ce4bhsh2rcd13ifvqi2g","pricing_plan_id":"cebpf4jnsgd1na2vs0mg"},{"bike_id":"7303fa26-1e97-4dc8-948c-b7fa1afbd96a","system_id":"levelo_inurba_marseille","lat":43.23145,"lon":5.43706,"is_reserved":false,"is_disabled":false,"rental_uris":{"android":"levelo://app?vid=7303fa26-1e97-4dc8-948c-b7fa1afbd96a","ios":"levelo://app?vid=7303fa26-1e97-4dc8-948c-b7fa1afbd96a"},"vehicle_type_id":"4","last_reported":1761822578,"current_range_meters":14400,"station_id":"ce4bhmp2rcd13ifvqgog","pricing_plan_id":"cebpf4jnsgd1na2vs0mg"},{"bike_id":"40662785-23d4-48c9-b7e7-2a048666e8ba","system_id":"levelo_inurba_marseille","lat":43.304647,"lon":5.379107,"is_reserved":false,"is_disabled":false,"rental_uris":{"android":"levelo://app?vid=40662785-23d4-48c9-b7e7-2a048666e8ba","ios":"levelo://app?vid=40662785-23d4-48c9-b7e7-2a048666e8ba"},"vehicle_type_id":"4","last_reported":1761822578,"current_range_meters":14400,"station_id":"ce4bgup2rcd13ifvqcn0","pricing_plan_id":"cebpf4jnsgd1na2vs0mg"},{"bike_id":"15e2c5dd-bae1-46fb-906a-d29fa37d6e53","system_id":"levelo_inurba_marseille","lat":43.313232,"lon":5.372765,"is_reserved":false,"is_disabled":false,"rental_uris":{"android":"levelo://app?vid=15e2c5dd-bae1-46fb-906a-d29fa37d6e53","ios":"levelo://app?vid=15e2c5dd-bae1-46fb-906a-d29fa37d6e53"},"vehicle_type_id":"4","last_reported":1761822578,"current_range_meters":14400,"station_id":"","pricing_plan_id":"cebpf4jnsgd1na2vs0mg"},{"bike_id":"33fb1c4b-976e-46e4-93d8-4c0d3c438aa9","system_id":"levelo_inurba_marseille","lat":43.31166,"lon":5.38715,"is_reserved":false,"is_disabled":false,"rental_uris":{"android":"levelo://app?vid=33fb1c4b-976e-46e4-93d8-4c0d3c438aa9","ios":"levelo://app?vid=33fb1c4b-976e-46e4-93d8-4c0d3c438aa9"},"vehicle_type_id":"4","last_reported":1761822578,"current_range_meters":14400,"station_id":"ce4bgv12rcd13ifvqcp0","pricing_plan_id":"cebpf4jnsgd1na2vs0mg"},{"bike_id":"68ebf2be-ae76-4a55-bf2d-b1f1fd4477fc","system_id":"levelo_inurba_marseille","lat":43.304531,"lon":5.37902,"is_reserved":false,"is_disabled":false,"rental_uris":{"android":"levelo://app?vid=68ebf2be-ae76-4a55-bf2d-b1f1fd4477fc","ios":"levelo://app?vid=68ebf2be-ae76-4a55-bf2d-b1f1fd4477fc"},"vehicle_type_id":"4","last_reported":1761822578,"current_range_meters":14400,"station_id":"ce4bgup2rcd13ifvqcn0","pricing_plan_id":"cebpf4jnsgd1na2vs0mg"},{"bike_id":"38271bdc-29a6-475b-909c-e43ec5d3bc75","system_id":"levelo_inurba_marseille","lat":43.24073,"lon":5.3777,"is_reserved":false,"is_disabled":false,"rental_uris":{"android":"levelo://app?vid=38271bdc-29a6-475b-909c-e43ec5d3bc75","ios":"levelo://app?vid=38271bdc-29a6-475b-909c-e43ec5d3bc75"},"vehicle_type_id":"4","last_reported":1761822578,"current_range_meters":14400,"station_id":"ce4bhnp2rcd13ifvqgvg","pricing_plan_id":"cebpf4jnsgd1na2vs0mg"},{"bike_id":"369b5c12-5660-4a52-9d21-76070e9ee21e","system_id":"levelo_inurba_marseille","lat":43.29968,"lon":5.38497,"is_reserved":false,"is_disabled":false,"rental_uris":{"android":"levelo://app?vid=369b5c12-5660-4a52-9d21-76070e9ee21e","ios":"levelo://app?vid=369b5c12-5660-4a52-9d21-76070e9ee21e"},"vehicle_type_id":"4","last_reported":1761822578,"current_range_meters":14800,"station_id":"ce4bgj92rcd13ifvqbd0","pricing_plan_id":"cebpf4jnsgd1na2vs0mg"},{"bike_id":"0c003ebf-0f85-4149-8935-7c08c6a5cd23","system_id":"levelo_inurba_marseille","lat":43.24116,"lon":5.36364,"is_reserved":false,"is_disabled":false,"rental_uris":{"android":"levelo://app?vid=0c003ebf-0f85-4149-8935-7c08c6a5cd23","ios":"levelo://app?vid=0c003ebf-0f85-4149-8935-7c08c6a5cd23"},"vehicle_type_id":"4","last_reported":1761822578,"current_range_meters":14800,"station_id":"cpo36qri1sfpv3e86is0","pricing_plan_id":"cebpf4jnsgd1na2vs0mg"},{"bike_id":"98f0f127-297b-45d0-bfe6-ffa7785d2197","system_id":"levelo_inurba_marseille","lat":43.26685,"lon":5.38272,"is_reserved":false,"is_disabled":false,"rental_uris":{"android":"levelo://app?vid=98f0f127-297b-45d0-bfe6-ffa7785d2197","ios":"levelo://app?vid=98f0f127-297b-45d0-bfe6-ffa7785d2197"},"vehicle_type_id":"4","last_reported":1761822578,"current_range_meters":14800,"station_id":"ce4bhg92rcd13ifvqf90","pricing_plan_id":"cebpf4jnsgd1na2vs0mg"},{"bike_id":"a18dbf48-2c4d-4fa4-a4c5-c9871d73c9a0","system_id":"levelo_inurba_marseille","lat":43.301994,"lon":5.383462,"is_reserved":false,"is_disabled":false,"rental_uris":{"android":"levelo://app?vid=a18dbf48-2c4d-4fa4-a4c5-c9871d73c9a0","ios":"levelo://app?vid=a18dbf48-2c4d-4fa4-a4c5-c9871d73c9a0"},"vehicle_type_id":"4","last_reported":1761822578,"current_range_meters":15200,"station_id":"ce4bgup2rcd13ifvqcn0","pricing_plan_id":"cebpf4jnsgd1na2vs0mg"},{"bike_id":"9c19ee57-61d8-40b6-ae42-8478423de426","system_id":"levelo_inurba_marseille","lat":43.24956,"lon":5.40529,"is_reserved":false,"is_disabled":false,"rental_uris":{"android":"levelo://app?vid=9c19ee57-61d8-40b6-ae42-8478423de426","ios":"levelo://app?vid=9c19ee57-61d8-40b6-ae42-8478423de426"},"vehicle_type_id":"4","last_reported":1761822578,"current_range_meters":15200,"station_id":"st_d2ngiaodas8pm72gd1h0","pricing_plan_id":"cebpf4jnsgd1na2vs0mg"},{"bike_id":"a86d27c2-696e-472b-911c-6468600e7222","system_id":"levelo_inurba_marseille","lat":43.30917,"lon":5.3689,"is_reserved":false,"is_disabled":false,"rental_uris":{"android":"levelo://app?vid=a86d27c2-696e-472b-911c-6468600e7222","ios":"levelo://app?vid=a86d27c2-696e-472b-911c-6468600e7222"},"vehicle_type_id":"4","last_reported":1761822578,"current_range_meters":16000,"station_id":"ce4bgn92rcd13ifvqbvg","pricing_plan_id":"cebpf4jnsgd1na2vs0mg"},{"bike_id":"a9700533-625a-4f63-a347-a23d41d891ce","system_id":"levelo_inurba_marseille","lat":43.31339,"lon":5.36713,"is_reserved":false,"is_disabled":false,"rental_uris":{"android":"levelo://app?vid=a9700533-625a-4f63-a347-a23d41d891ce","ios":"levelo://app?vid=a9700533-625a-4f63-a347-a23d41d891ce"},"vehicle_type_id":"4","last_reported":1761822578,"current_range_meters":16000,"station_id":"ce4bgr92rcd13ifvqc6g","pricing_plan_id":"cebpf4jnsgd1na2vs0mg"},{"bike_id":"092c4099-4149-48b1-85f7-36ede0238c2b","system_id":"levelo_inurba_marseille","lat":43.273801,"lon":5.362358,"is_reserved":false,"is_disabled":true,"rental_uris":{"android":"levelo://app?vid=092c4099-4149-48b1-85f7-36ede0238c2b","ios":"levelo://app?vid=092c4099-4149-48b1-85f7-36ede0238c2b"},"vehicle_type_id":"4","last_reported":1761822578,"current_range_meters":16000,"station_id":"","pricing_plan_id":"cebpf4jnsgd1na2vs0mg"},{"bike_id":"21b34e26-55af-43f6-95c5-fc105f564f36","system_id":"levelo_inurba_marseille","lat":43.30531,"lon":5.36498,"is_reserved":false,"is_disabled":false,"rental_uris":{"android":"levelo://app?vid=21b34e26-55af-43f6-95c5-fc105f564f36","ios":"levelo://app?vid=21b34e26-55af-43f6-95c5-fc105f564f36"},"vehicle_type_id":"4","last_reported":1761822578,"current_range_meters":16000,"station_id":"ce4bgs12rcd13ifvqcag","pricing_plan_id":"cebpf4jnsgd1na2vs0mg"},{"bike_id":"3a881277-4cde-4c6f-a103-26ef78bffa12","system_id":"levelo_inurba_marseille","lat":43.24174,"lon":5.39731,"is_reserved":false,"is_disabled":false,"rental_uris":{"android":"levelo://app?vid=3a881277-4cde-4c6f-a103-26ef78bffa12","ios":"levelo://app?vid=3a881277-4cde-4c6f-a103-26ef78bffa12"},"vehicle_type_id":"4","last_reported":1761822578,"current_range_meters":16000,"station_id":"ce4bhn12rcd13ifvqgpg","pricing_plan_id":"cebpf4jnsgd1na2vs0mg"},{"bike_id":"fc4c86ba-a67d-4b95-9291-deea0443316f","system_id":"levelo_inurba_marseille","lat":43.308825,"lon":5.371828,"is_reserved":false,"is_disabled":false,"rental_uris":{"android":"levelo://app?vid=fc4c86ba-a67d-4b95-9291-deea0443316f","ios":"levelo://app?vid=fc4c86ba-a67d-4b95-9291-deea0443316f"},"vehicle_type_id":"4","last_reported":1761822578,"current_range_meters":16400,"station_id":"ce4bguh2rcd13ifvqckg","pricing_plan_id":"cebpf4jnsgd1na2vs0mg"},{"bike_id":"9b93b5e1-c939-4745-bf85-2d21945442dc","system_id":"levelo_inurba_marseille","lat":43.299991,"lon":5.363964,"is_reserved":false,"is_disabled":false,"rental_uris":{"android":"levelo://app?vid=9b93b5e1-c939-4745-bf85-2d21945442dc","ios":"levelo://app?vid=9b93b5e1-c939-4745-bf85-2d21945442dc"},"vehicle_type_id":"4","last_reported":1761822578,"current_range_meters":16400,"station_id":"","pricing_plan_id":"cebpf4jnsgd1na2vs0mg"},{"bike_id":"79ab418a-79c0-4a6e-993b-761280f132d6","system_id":"levelo_inurba_marseille","lat":43.284839,"lon":5.485351,"is_reserved":false,"is_disabled":false,"rental_uris":{"android":"levelo://app?vid=79ab418a-79c0-4a6e-993b-761280f132d6","ios":"levelo://app?vid=79ab418a-79c0-4a6e-993b-761280f132d6"},"vehicle_type_id":"4","last_reported":1761822578,"current_range_meters":16400,"station_id":"","pricing_plan_id":"cebpf4jnsgd1na2vs0mg"},{"bike_id":"52a753d3-3ac4-4caa-88bc-c038122b2bbb","system_id":"levelo_inurba_marseille","lat":43.26217,"lon":5.40451,"is_reserved":false,"is_disabled":false,"rental_uris":{"android":"levelo://app?vid=52a753d3-3ac4-4caa-88bc-c038122b2bbb","ios":"levelo://app?vid=52a753d3-3ac4-4caa-88bc-c038122b2bbb"},"vehicle_type_id":"4","last_reported":1761822578,"current_range_meters":16400,"station_id":"ce4bhmh2rcd13ifvqgmg","pricing_plan_id":"cebpf4jnsgd1na2vs0mg"},{"bike_id":"e5ad7a4c-88aa-48ec-87d0-6ddeeb9724ce","system_id":"levelo_inurba_marseille","lat":43.287046,"lon":5.373739,"is_reserved":false,"is_disabled":false,"rental_uris":{"android":"levelo://app?vid=e5ad7a4c-88aa-48ec-87d0-6ddeeb9724ce","ios":"levelo://app?vid=e5ad7a4c-88aa-48ec-87d0-6ddeeb9724ce"},"vehicle_type_id":"4","last_reported":1761822578,"current_range_meters":16400,"station_id":"ce4bh3p2rcd13ifvqdq0","pricing_plan_id":"cebpf4jnsgd1na2vs0mg"},{"bike_id":"932ad1c2-4305-4dbf-ad9d-624ed36a7479","system_id":"levelo_inurba_marseille","lat":43.30107,"lon":5.38753,"is_reserved":false,"is_disabled":false,"rental_uris":{"android":"levelo://app?vid=932ad1c2-4305-4dbf-ad9d-624ed36a7479","ios":"levelo://app?vid=932ad1c2-4305-4dbf-ad9d-624ed36a7479"},"vehicle_type_id":"4","last_reported":1761822578,"current_range_meters":16800,"station_id":"","pricing_plan_id":"cebpf4jnsgd1na2vs0mg"},{"bike_id":"d1dcb642-b848-40bb-80e5-208c429d2176","system_id":"levelo_inurba_marseille","lat":43.29073,"lon":5.359621,"is_reserved":false,"is_disabled":false,"rental_uris":{"android":"levelo://app?vid=d1dcb642-b848-40bb-80e5-208c429d2176","ios":"levelo://app?vid=d1dcb642-b848-40bb-80e5-208c429d2176"},"vehicle_type_id":"4","last_reported":1761822578,"current_range_meters":16800,"station_id":"ce4bha92rcd13ifvqeg0","pricing_plan_id":"cebpf4jnsgd1na2vs0mg"},{"bike_id":"6c149471-d402-4720-9039-d67922e78196","system_id":"levelo_inurba_marseille","lat":43.31991,"lon":5.38136,"is_reserved":false,"is_disabled":false,"rental_uris":{"android":"levelo://app?vid=6c149471-d402-4720-9039-d67922e78196","ios":"levelo://app?vid=6c149471-d402-4720-9039-d67922e78196"},"vehicle_type_id":"4","last_reported":1761822578,"current_range_meters":16800,"station_id":"ce4bhr12rcd13ifvqhpg","pricing_plan_id":"cebpf4jnsgd1na2vs0mg"},{"bike_id":"93a31e57-600a-478a-9e22-f09fbb6b10ba","system_id":"levelo_inurba_marseille","lat":43.2497,"lon":5.37508,"is_reserved":false,"is_disabled":false,"rental_uris":{"android":"levelo://app?vid=93a31e57-600a-478a-9e22-f09fbb6b10ba","ios":"levelo://app?vid=93a31e57-600a-478a-9e22-f09fbb6b10ba"},"vehicle_type_id":"4","last_reported":1761822578,"current_range_meters":16800,"station_id":"","pricing_plan_id":"cebpf4jnsgd1na2vs0mg"},{"bike_id":"40c7e24f-ae6e-4686-a6c4-3f65258e5663","system_id":"levelo_inurba_marseille","lat":43.31241,"lon":5.3687,"is_reserved":false,"is_disabled":false,"rental_uris":{"android":"levelo://app?vid=40c7e24f-ae6e-4686-a6c4-3f65258e5663","ios":"levelo://app?vid=40c7e24f-ae6e-4686-a6c4-3f65258e5663"},"vehicle_type_id":"4","last_reported":1761822578,"current_range_meters":16800,"station_id":"ce4bgl92rcd13ifvqbq0","pricing_plan_id":"cebpf4jnsgd1na2vs0mg"},{"bike_id":"c2b29e2a-9ddf-4599-9569-ebeda3771708","system_id":"levelo_inurba_marseille","lat":43.2119,"lon":5.3507,"is_reserved":false,"is_disabled":false,"rental_uris":{"android":"levelo://app?vid=c2b29e2a-9ddf-4599-9569-ebeda3771708","ios":"levelo://app?vid=c2b29e2a-9ddf-4599-9569-ebeda3771708"},"vehicle_type_id":"4","last_reported":1761822578,"current_range_meters":16800,"station_id":"st_cvj6sg6p6f1abm77japg","pricing_plan_id":"cebpf4jnsgd1na2vs0mg"},{"bike_id":"0a43b95d-c84e-4427-b491-81329d19dcf2","system_id":"levelo_inurba_marseille","lat":43.27049,"lon":5.40257,"is_reserved":false,"is_disabled":false,"rental_uris":{"android":"levelo://app?vid=0a43b95d-c84e-4427-b491-81329d19dcf2","ios":"levelo://app?vid=0a43b95d-c84e-4427-b491-81329d19dcf2"},"vehicle_type_id":"4","last_reported":1761822578,"current_range_meters":16800,"station_id":"ce4bhk92rcd13ifvqgc0","pricing_plan_id":"cebpf4jnsgd1na2vs0mg"},{"bike_id":"667a4a8e-bd76-4fb1-b40f-6d82b3d1d948","system_id":"levelo_inurba_marseille","lat":43.3176,"lon":5.39005,"is_reserved":false,"is_disabled":false,"rental_uris":{"android":"levelo://app?vid=667a4a8e-bd76-4fb1-b40f-6d82b3d1d948","ios":"levelo://app?vid=667a4a8e-bd76-4fb1-b40f-6d82b3d1d948"},"vehicle_type_id":"4","last_reported":1761822578,"current_range_meters":16800,"station_id":"ce4bhqp2rcd13ifvqhng","pricing_plan_id":"cebpf4jnsgd1na2vs0mg"},{"bike_id":"92e3ddc9-9900-4f8c-865e-0e1892c0dbe8","system_id":"levelo_inurba_marseille","lat":43.24997,"lon":5.38963,"is_reserved":false,"is_disabled":false,"rental_uris":{"android":"levelo://app?vid=92e3ddc9-9900-4f8c-865e-0e1892c0dbe8","ios":"levelo://app?vid=92e3ddc9-9900-4f8c-865e-0e1892c0dbe8"},"vehicle_type_id":"4","last_reported":1761822578,"current_range_meters":16800,"station_id":"ce4bhgp2rcd13ifvqfd0","pricing_plan_id":"cebpf4jnsgd1na2vs0mg"},{"bike_id":"c1b80a2d-4c09-4897-a6de-d7dc582f3acd","system_id":"levelo_inurba_marseille","lat":43.30274,"lon":5.37698,"is_reserved":false,"is_disabled":false,"rental_uris":{"android":"levelo://app?vid=c1b80a2d-4c09-4897-a6de-d7dc582f3acd","ios":"levelo://app?vid=c1b80a2d-4c09-4897-a6de-d7dc582f3acd"},"vehicle_type_id":"4","last_reported":1761822578,"current_range_meters":16800,"station_id":"ce4bguh2rcd13ifvqcj0","pricing_plan_id":"cebpf4jnsgd1na2vs0mg"},{"bike_id":"8783ac60-a0b0-4622-b7ce-c9670bd47b89","system_id":"levelo_inurba_marseille","lat":43.30568,"lon":5.36542,"is_reserved":false,"is_disabled":false,"rental_uris":{"android":"levelo://app?vid=8783ac60-a0b0-4622-b7ce-c9670bd47b89","ios":"levelo://app?vid=8783ac60-a0b0-4622-b7ce-c9670bd47b89"},"vehicle_type_id":"4","last_reported":1761822578,"current_range_meters":16800,"station_id":"ce4bgs12rcd13ifvqcag","pricing_plan_id":"cebpf4jnsgd1na2vs0mg"},{"bike_id":"7059abfa-bba6-43b2-8c14-96f92d7be186","system_id":"levelo_inurba_marseille","lat":43.309143,"lon":5.368475,"is_reserved":false,"is_disabled":false,"rental_uris":{"android":"levelo://app?vid=7059abfa-bba6-43b2-8c14-96f92d7be186","ios":"levelo://app?vid=7059abfa-bba6-43b2-8c14-96f92d7be186"},"vehicle_type_id":"4","last_reported":1761822578,"current_range_meters":16800,"station_id":"ce4bgn92rcd13ifvqbvg","pricing_plan_id":"cebpf4jnsgd1na2vs0mg"},{"bike_id":"2fd86c53-d195-4ab3-a5e6-984f6c0f4c38","system_id":"levelo_inurba_marseille","lat":43.26563,"lon":5.37305,"is_reserved":false,"is_disabled":false,"rental_uris":{"android":"levelo://app?vid=2fd86c53-d195-4ab3-a5e6-984f6c0f4c38","ios":"levelo://app?vid=2fd86c53-d195-4ab3-a5e6-984f6c0f4c38"},"vehicle_type_id":"4","last_reported":1761822578,"current_range_meters":17200,"station_id":"ce4bhg12rcd13ifvqf70","pricing_plan_id":"cebpf4jnsgd1na2vs0mg"},{"bike_id":"88327406-ba65-4ce0-831c-3da476dbb691","system_id":"levelo_inurba_marseille","lat":43.237954,"lon":5.366383,"is_reserved":false,"is_disabled":false,"rental_uris":{"android":"levelo://app?vid=88327406-ba65-4ce0-831c-3da476dbb691","ios":"levelo://app?vid=88327406-ba65-4ce0-831c-3da476dbb691"},"vehicle_type_id":"4","last_reported":1761822578,"current_range_meters":17200,"station_id":"st_d3nk18o9ro0c73en2l3g","pricing_plan_id":"cebpf4jnsgd1na2vs0mg"},{"bike_id":"da0420b8-69e2-4ddf-9915-f492ed723756","system_id":"levelo_inurba_marseille","lat":43.30175,"lon":5.36619,"is_reserved":false,"is_disabled":false,"rental_uris":{"android":"levelo://app?vid=da0420b8-69e2-4ddf-9915-f492ed723756","ios":"levelo://app?vid=da0420b8-69e2-4ddf-9915-f492ed723756"},"vehicle_type_id":"4","last_reported":1761822578,"current_range_meters":17200,"station_id":"ce4bgrh2rcd13ifvqc8g","pricing_plan_id":"cebpf4jnsgd1na2vs0mg"},{"bike_id":"3beed6bb-0e4a-44e6-ae3c-4dc9df608361","system_id":"levelo_inurba_marseille","lat":43.2925,"lon":5.37612,"is_reserved":false,"is_disabled":false,"rental_uris":{"android":"levelo://app?vid=3beed6bb-0e4a-44e6-ae3c-4dc9df608361","ios":"levelo://app?vid=3beed6bb-0e4a-44e6-ae3c-4dc9df608361"},"vehicle_type_id":"4","last_reported":1761822578,"current_range_meters":17200,"station_id":"ce4bgi12rcd13ifvqb80","pricing_plan_id":"cebpf4jnsgd1na2vs0mg"},{"bike_id":"201e2a4c-73e3-4f87-93fe-8854747b415c","system_id":"levelo_inurba_marseille","lat":43.30062,"lon":5.37527,"is_reserved":false,"is_disabled":false,"rental_uris":{"android":"levelo://app?vid=201e2a4c-73e3-4f87-93fe-8854747b415c","ios":"levelo://app?vid=201e2a4c-73e3-4f87-93fe-8854747b415c"},"vehicle_type_id":"4","last_reported":1761822578,"current_range_meters":17200,"station_id":"ce4bgs92rcd13ifvqcc0","pricing_plan_id":"cebpf4jnsgd1na2vs0mg"},{"bike_id":"40692050-a828-4180-a6c6-f2d7f8542173","system_id":"levelo_inurba_marseille","lat":43.23147,"lon":5.43701,"is_reserved":false,"is_disabled":false,"rental_uris":{"android":"levelo://app?vid=40692050-a828-4180-a6c6-f2d7f8542173","ios":"levelo://app?vid=40692050-a828-4180-a6c6-f2d7f8542173"},"vehicle_type_id":"4","last_reported":1761822578,"current_range_meters":17600,"station_id":"ce4bhmp2rcd13ifvqgog","pricing_plan_id":"cebpf4jnsgd1na2vs0mg"},{"bike_id":"3ebef407-cb44-4afd-97d6-64a12a243c5b","system_id":"levelo_inurba_marseille","lat":43.29008,"lon":5.35605,"is_reserved":false,"is_disabled":false,"rental_uris":{"android":"levelo://app?vid=3ebef407-cb44-4afd-97d6-64a12a243c5b","ios":"levelo://app?vid=3ebef407-cb44-4afd-97d6-64a12a243c5b"},"vehicle_type_id":"4","last_reported":1761822578,"current_range_meters":17600,"station_id":"ce4bhb92rcd13ifvqen0","pricing_plan_id":"cebpf4jnsgd1na2vs0mg"},{"bike_id":"64fdac23-4f77-4c37-85cb-a39b6a8edb5d","system_id":"levelo_inurba_marseille","lat":43.2678,"lon":5.39434,"is_reserved":false,"is_disabled":true,"rental_uris":{"android":"levelo://app?vid=64fdac23-4f77-4c37-85cb-a39b6a8edb5d","ios":"levelo://app?vid=64fdac23-4f77-4c37-85cb-a39b6a8edb5d"},"vehicle_type_id":"4","last_reported":1761822578,"current_range_meters":17600,"station_id":"ce4bhh12rcd13ifvqfg0","pricing_plan_id":"cebpf4jnsgd1na2vs0mg"},{"bike_id":"9852e0a1-4995-4628-84f2-0d56389f5aef","system_id":"levelo_inurba_marseille","lat":43.317182,"lon":5.423972,"is_reserved":false,"is_disabled":false,"rental_uris":{"android":"levelo://app?vid=9852e0a1-4995-4628-84f2-0d56389f5aef","ios":"levelo://app?vid=9852e0a1-4995-4628-84f2-0d56389f5aef"},"vehicle_type_id":"4","last_reported":1761822578,"current_range_meters":17600,"station_id":"ce4bhp92rcd13ifvqhbg","pricing_plan_id":"cebpf4jnsgd1na2vs0mg"},{"bike_id":"216e46ca-be00-4e8e-a1e1-fb94531ee1ae","system_id":"levelo_inurba_marseille","lat":43.295573,"lon":5.422771,"is_reserved":false,"is_disabled":true,"rental_uris":{"android":"levelo://app?vid=216e46ca-be00-4e8e-a1e1-fb94531ee1ae","ios":"levelo://app?vid=216e46ca-be00-4e8e-a1e1-fb94531ee1ae"},"vehicle_type_id":"4","last_reported":1761822578,"current_range_meters":18000,"station_id":"ce4bhph2rcd13ifvqhdg","pricing_plan_id":"cebpf4jnsgd1na2vs0mg"},{"bike_id":"b3145fb6-fafb-4029-a4fc-58fd96331a6b","system_id":"levelo_inurba_marseille","lat":43.30607,"lon":5.39376,"is_reserved":false,"is_disabled":true,"rental_uris":{"android":"levelo://app?vid=b3145fb6-fafb-4029-a4fc-58fd96331a6b","ios":"levelo://app?vid=b3145fb6-fafb-4029-a4fc-58fd96331a6b"},"vehicle_type_id":"4","last_reported":1761822578,"current_range_meters":18000,"station_id":"ce4bh0p2rcd13ifvqd80","pricing_plan_id":"cebpf4jnsgd1na2vs0mg"},{"bike_id":"1ce0baa3-1ac8-410e-9137-57f18b2f4b33","system_id":"levelo_inurba_marseille","lat":43.24172,"lon":5.39736,"is_reserved":false,"is_disabled":false,"rental_uris":{"android":"levelo://app?vid=1ce0baa3-1ac8-410e-9137-57f18b2f4b33","ios":"levelo://app?vid=1ce0baa3-1ac8-410e-9137-57f18b2f4b33"},"vehicle_type_id":"4","last_reported":1761822578,"current_range_meters":18000,"station_id":"ce4bhn12rcd13ifvqgpg","pricing_plan_id":"cebpf4jnsgd1na2vs0mg"},{"bike_id":"45ae6238-da7c-4c8f-9df4-e99de5a2de11","system_id":"levelo_inurba_marseille","lat":43.2315,"lon":5.43718,"is_reserved":false,"is_disabled":false,"rental_uris":{"android":"levelo://app?vid=45ae6238-da7c-4c8f-9df4-e99de5a2de11","ios":"levelo://app?vid=45ae6238-da7c-4c8f-9df4-e99de5a2de11"},"vehicle_type_id":"4","last_reported":1761822578,"current_range_meters":18000,"station_id":"ce4bhmp2rcd13ifvqgog","pricing_plan_id":"cebpf4jnsgd1na2vs0mg"},{"bike_id":"05a47c24-c74d-4482-aade-5974399cb310","system_id":"levelo_inurba_marseille","lat":43.29606,"lon":5.37672,"is_reserved":false,"is_disabled":false,"rental_uris":{"android":"levelo://app?vid=05a47c24-c74d-4482-aade-5974399cb310","ios":"levelo://app?vid=05a47c24-c74d-4482-aade-5974399cb310"},"vehicle_type_id":"4","last_reported":1761822578,"current_range_meters":18000,"station_id":"ce4bgi92rcd13ifvqb90","pricing_plan_id":"cebpf4jnsgd1na2vs0mg"},{"bike_id":"6a16cf24-0172-40cf-9311-d0a91d2bf167","system_id":"levelo_inurba_marseille","lat":43.30142,"lon":5.37418,"is_reserved":false,"is_disabled":false,"rental_uris":{"android":"levelo://app?vid=6a16cf24-0172-40cf-9311-d0a91d2bf167","ios":"levelo://app?vid=6a16cf24-0172-40cf-9311-d0a91d2bf167"},"vehicle_type_id":"4","last_reported":1761822578,"current_range_meters":18000,"station_id":"ce4bgs92rcd13ifvqcc0","pricing_plan_id":"cebpf4jnsgd1na2vs0mg"},{"bike_id":"1d16d20a-dbf1-4a69-8537-89211ea34b71","system_id":"levelo_inurba_marseille","lat":43.31298,"lon":5.37796,"is_reserved":false,"is_disabled":false,"rental_uris":{"android":"levelo://app?vid=1d16d20a-dbf1-4a69-8537-89211ea34b71","ios":"levelo://app?vid=1d16d20a-dbf1-4a69-8537-89211ea34b71"},"vehicle_type_id":"4","last_reported":1761822578,"current_range_meters":18000,"station_id":"","pricing_plan_id":"cebpf4jnsgd1na2vs0mg"},{"bike_id":"257df9ad-c5b1-4348-ad0b-1d9dd1417251","system_id":"levelo_inurba_marseille","lat":43.295627,"lon":5.375344,"is_reserved":false,"is_disabled":false,"rental_uris":{"android":"levelo://app?vid=257df9ad-c5b1-4348-ad0b-1d9dd1417251","ios":"levelo://app?vid=257df9ad-c5b1-4348-ad0b-1d9dd1417251"},"vehicle_type_id":"4","last_reported":1761822578,"current_range_meters":18000,"station_id":"ce4bgh92rcd13ifvqb50","pricing_plan_id":"cebpf4jnsgd1na2vs0mg"},{"bike_id":"f6e41c21-0e74-476c-8273-8a6a7b44e6bc","system_id":"levelo_inurba_marseille","lat":43.30739,"lon":5.42441,"is_reserved":false,"is_disabled":false,"rental_uris":{"android":"levelo://app?vid=f6e41c21-0e74-476c-8273-8a6a7b44e6bc","ios":"levelo://app?vid=f6e41c21-0e74-476c-8273-8a6a7b44e6bc"},"vehicle_type_id":"4","last_reported":1761822578,"current_range_meters":18000,"station_id":"st_cvj6ca6bvosntc0bfgr0","pricing_plan_id":"cebpf4jnsgd1na2vs0mg"},{"bike_id":"9eebcbf9-622f-4e01-9407-960fbde43ed9","system_id":"levelo_inurba_marseille","lat":43.295957,"lon":5.380967,"is_reserved":false,"is_disabled":false,"rental_uris":{"android":"levelo://app?vid=9eebcbf9-622f-4e01-9407-960fbde43ed9","ios":"levelo://app?vid=9eebcbf9-622f-4e01-9407-960fbde43ed9"},"vehicle_type_id":"4","last_reported":1761822578,"current_range_meters":18800,"station_id":"","pricing_plan_id":"cebpf4jnsgd1na2vs0mg"},{"bike_id":"aa35ca2e-f817-40b9-bce5-2f37925eb36d","system_id":"levelo_inurba_marseille","lat":43.29061,"lon":5.3718,"is_reserved":false,"is_disabled":false,"rental_uris":{"android":"levelo://app?vid=aa35ca2e-f817-40b9-bce5-2f37925eb36d","ios":"levelo://app?vid=aa35ca2e-f817-40b9-bce5-2f37925eb36d"},"vehicle_type_id":"4","last_reported":1761822578,"current_range_meters":18800,"station_id":"","pricing_plan_id":"cebpf4jnsgd1na2vs0mg"},{"bike_id":"a4dac4fa-66e6-48be-a654-6e17cdc7ca0b","system_id":"levelo_inurba_marseille","lat":43.337571,"lon":5.374323,"is_reserved":false,"is_disabled":false,"rental_uris":{"android":"levelo://app?vid=a4dac4fa-66e6-48be-a654-6e17cdc7ca0b","ios":"levelo://app?vid=a4dac4fa-66e6-48be-a654-6e17cdc7ca0b"},"vehicle_type_id":"4","last_reported":1761822578,"current_range_meters":18800,"station_id":"","pricing_plan_id":"cebpf4jnsgd1na2vs0mg"},{"bike_id":"b22c42ff-4285-4504-9e58-c6df4a616eed","system_id":"levelo_inurba_marseille","lat":43.30876,"lon":5.37201,"is_reserved":false,"is_disabled":false,"rental_uris":{"android":"levelo://app?vid=b22c42ff-4285-4504-9e58-c6df4a616eed","ios":"levelo://app?vid=b22c42ff-4285-4504-9e58-c6df4a616eed"},"vehicle_type_id":"4","last_reported":1761822578,"current_range_meters":18800,"station_id":"ce4bguh2rcd13ifvqckg","pricing_plan_id":"cebpf4jnsgd1na2vs0mg"},{"bike_id":"cc221443-ff27-4eb4-8db7-6ec13cb296d2","system_id":"levelo_inurba_marseille","lat":43.28535,"lon":5.44096,"is_reserved":false,"is_disabled":false,"rental_uris":{"android":"levelo://app?vid=cc221443-ff27-4eb4-8db7-6ec13cb296d2","ios":"levelo://app?vid=cc221443-ff27-4eb4-8db7-6ec13cb296d2"},"vehicle_type_id":"4","last_reported":1761822578,"current_range_meters":18800,"station_id":"st_d3j3df2ikq2c7380ej80","pricing_plan_id":"cebpf4jnsgd1na2vs0mg"},{"bike_id":"ac054415-4e37-4567-b95e-73970b5e64bc","system_id":"levelo_inurba_marseille","lat":43.32488,"lon":5.36565,"is_reserved":false,"is_disabled":false,"rental_uris":{"android":"levelo://app?vid=ac054415-4e37-4567-b95e-73970b5e64bc","ios":"levelo://app?vid=ac054415-4e37-4567-b95e-73970b5e64bc"},"vehicle_type_id":"4","last_reported":1761822578,"current_range_meters":18800,"station_id":"ce4bhs12rcd13ifvqhvg","pricing_plan_id":"cebpf4jnsgd1na2vs0mg"},{"bike_id":"ab990100-f09d-4188-954e-60a6f3a24316","system_id":"levelo_inurba_marseille","lat":43.30133,"lon":5.38773,"is_reserved":false,"is_disabled":true,"rental_uris":{"android":"levelo://app?vid=ab990100-f09d-4188-954e-60a6f3a24316","ios":"levelo://app?vid=ab990100-f09d-4188-954e-60a6f3a24316"},"vehicle_type_id":"4","last_reported":1761822578,"current_range_meters":18800,"station_id":"ce4bghh2rcd13ifvqb60","pricing_plan_id":"cebpf4jnsgd1na2vs0mg"},{"bike_id":"6383cbba-d6fd-47d1-aa20-eae9b58bd59b","system_id":"levelo_inurba_marseille","lat":43.27069,"lon":5.42278,"is_reserved":false,"is_disabled":false,"rental_uris":{"android":"levelo://app?vid=6383cbba-d6fd-47d1-aa20-eae9b58bd59b","ios":"levelo://app?vid=6383cbba-d6fd-47d1-aa20-eae9b58bd59b"},"vehicle_type_id":"4","last_reported":1761822578,"current_range_meters":18800,"station_id":"ce4bhk92rcd13ifvqgb0","pricing_plan_id":"cebpf4jnsgd1na2vs0mg"},{"bike_id":"b8f404d3-62c4-4489-a471-d37212346558","system_id":"levelo_inurba_marseille","lat":43.310466,"lon":5.378789,"is_reserved":false,"is_disabled":false,"rental_uris":{"android":"levelo://app?vid=b8f404d3-62c4-4489-a471-d37212346558","ios":"levelo://app?vid=b8f404d3-62c4-4489-a471-d37212346558"},"vehicle_type_id":"4","last_reported":1761822578,"current_range_meters":18800,"station_id":"","pricing_plan_id":"cebpf4jnsgd1na2vs0mg"},{"bike_id":"2ddad494-fb0f-4542-ab4d-38a1e8de8e7c","system_id":"levelo_inurba_marseille","lat":43.313465,"lon":5.36724,"is_reserved":false,"is_disabled":false,"rental_uris":{"android":"levelo://app?vid=2ddad494-fb0f-4542-ab4d-38a1e8de8e7c","ios":"levelo://app?vid=2ddad494-fb0f-4542-ab4d-38a1e8de8e7c"},"vehicle_type_id":"4","last_reported":1761822578,"current_range_meters":18800,"station_id":"ce4bgr92rcd13ifvqc6g","pricing_plan_id":"cebpf4jnsgd1na2vs0mg"},{"bike_id":"32a35b9b-6aca-4b70-9bd2-e6acde4ddbcc","system_id":"levelo_inurba_marseille","lat":43.22936,"lon":5.35398,"is_reserved":false,"is_disabled":false,"rental_uris":{"android":"levelo://app?vid=32a35b9b-6aca-4b70-9bd2-e6acde4ddbcc","ios":"levelo://app?vid=32a35b9b-6aca-4b70-9bd2-e6acde4ddbcc"},"vehicle_type_id":"4","last_reported":1761822578,"current_range_meters":18800,"station_id":"cpo3532slgdg3j2ikp40","pricing_plan_id":"cebpf4jnsgd1na2vs0mg"},{"bike_id":"a27ea015-9d73-41b0-aa36-b3953f30b56d","system_id":"levelo_inurba_marseille","lat":43.24641,"lon":5.38891,"is_reserved":false,"is_disabled":false,"rental_uris":{"android":"levelo://app?vid=a27ea015-9d73-41b0-aa36-b3953f30b56d","ios":"levelo://app?vid=a27ea015-9d73-41b0-aa36-b3953f30b56d"},"vehicle_type_id":"4","last_reported":1761822578,"current_range_meters":19200,"station_id":"ce4bhg12rcd13ifvqf60","pricing_plan_id":"cebpf4jnsgd1na2vs0mg"},{"bike_id":"5e3752b8-593e-46fd-9f2d-f8a706a78c86","system_id":"levelo_inurba_marseille","lat":43.25723,"lon":5.41114,"is_reserved":false,"is_disabled":false,"rental_uris":{"android":"levelo://app?vid=5e3752b8-593e-46fd-9f2d-f8a706a78c86","ios":"levelo://app?vid=5e3752b8-593e-46fd-9f2d-f8a706a78c86"},"vehicle_type_id":"4","last_reported":1761822578,"current_range_meters":19200,"station_id":"ce4bhkp2rcd13ifvqgd0","pricing_plan_id":"cebpf4jnsgd1na2vs0mg"},{"bike_id":"20c1c26d-be2a-4cac-8028-038f5ffc2f00","system_id":"levelo_inurba_marseille","lat":43.29279,"lon":5.36846,"is_reserved":false,"is_disabled":false,"rental_uris":{"android":"levelo://app?vid=20c1c26d-be2a-4cac-8028-038f5ffc2f00","ios":"levelo://app?vid=20c1c26d-be2a-4cac-8028-038f5ffc2f00"},"vehicle_type_id":"4","last_reported":1761822578,"current_range_meters":19200,"station_id":"ce4bhbp2rcd13ifvqesg","pricing_plan_id":"cebpf4jnsgd1na2vs0mg"},{"bike_id":"070ba624-2791-4a91-9714-9a0407746227","system_id":"levelo_inurba_marseille","lat":43.29711,"lon":5.36611,"is_reserved":false,"is_disabled":false,"rental_uris":{"android":"levelo://app?vid=070ba624-2791-4a91-9714-9a0407746227","ios":"levelo://app?vid=070ba624-2791-4a91-9714-9a0407746227"},"vehicle_type_id":"4","last_reported":1761822578,"current_range_meters":19200,"station_id":"ce4bgn12rcd13ifvqbt0","pricing_plan_id":"cebpf4jnsgd1na2vs0mg"},{"bike_id":"48d3b96f-8416-4329-ac85-a1ebb32987c2","system_id":"levelo_inurba_marseille","lat":43.276635,"lon":5.388816,"is_reserved":false,"is_disabled":false,"rental_uris":{"android":"levelo://app?vid=48d3b96f-8416-4329-ac85-a1ebb32987c2","ios":"levelo://app?vid=48d3b96f-8416-4329-ac85-a1ebb32987c2"},"vehicle_type_id":"4","last_reported":1761822578,"current_range_meters":19200,"station_id":"ce4bhi12rcd13ifvqfo0","pricing_plan_id":"cebpf4jnsgd1na2vs0mg"},{"bike_id":"606477a7-5881-4122-be5b-b98fe18e5039","system_id":"levelo_inurba_marseille","lat":43.23149,"lon":5.43718,"is_reserved":false,"is_disabled":false,"rental_uris":{"android":"levelo://app?vid=606477a7-5881-4122-be5b-b98fe18e5039","ios":"levelo://app?vid=606477a7-5881-4122-be5b-b98fe18e5039"},"vehicle_type_id":"4","last_reported":1761822578,"current_range_meters":19200,"station_id":"ce4bhmp2rcd13ifvqgog","pricing_plan_id":"cebpf4jnsgd1na2vs0mg"},{"bike_id":"5f2cf809-8044-40a4-ac6d-b2e366b64f75","system_id":"levelo_inurba_marseille","lat":43.279398,"lon":5.410507,"is_reserved":false,"is_disabled":false,"rental_uris":{"android":"levelo://app?vid=5f2cf809-8044-40a4-ac6d-b2e366b64f75","ios":"levelo://app?vid=5f2cf809-8044-40a4-ac6d-b2e366b64f75"},"vehicle_type_id":"4","last_reported":1761822578,"current_range_meters":19200,"station_id":"ce4bhnp2rcd13ifvqh0g","pricing_plan_id":"cebpf4jnsgd1na2vs0mg"},{"bike_id":"1b4e444c-b4c2-4950-9891-1a96f5bc0caa","system_id":"levelo_inurba_marseille","lat":43.26229,"lon":5.40501,"is_reserved":false,"is_disabled":false,"rental_uris":{"android":"levelo://app?vid=1b4e444c-b4c2-4950-9891-1a96f5bc0caa","ios":"levelo://app?vid=1b4e444c-b4c2-4950-9891-1a96f5bc0caa"},"vehicle_type_id":"4","last_reported":1761822578,"current_range_meters":19200,"station_id":"ce4bhmh2rcd13ifvqgmg","pricing_plan_id":"cebpf4jnsgd1na2vs0mg"},{"bike_id":"2473535e-700b-4804-9697-0f56049f61b4","system_id":"levelo_inurba_marseille","lat":43.301428,"lon":5.387775,"is_reserved":false,"is_disabled":false,"rental_uris":{"android":"levelo://app?vid=2473535e-700b-4804-9697-0f56049f61b4","ios":"levelo://app?vid=2473535e-700b-4804-9697-0f56049f61b4"},"vehicle_type_id":"4","last_reported":1761822578,"current_range_meters":19600,"station_id":"ce4bghh2rcd13ifvqb60","pricing_plan_id":"cebpf4jnsgd1na2vs0mg"},{"bike_id":"a72320d3-c1d1-434a-ab1c-d81e425c9cf4","system_id":"levelo_inurba_marseille","lat":43.27375,"lon":5.36256,"is_reserved":false,"is_disabled":false,"rental_uris":{"android":"levelo://app?vid=a72320d3-c1d1-434a-ab1c-d81e425c9cf4","ios":"levelo://app?vid=a72320d3-c1d1-434a-ab1c-d81e425c9cf4"},"vehicle_type_id":"4","last_reported":1761822578,"current_range_meters":19600,"station_id":"ce4bhbh2rcd13ifvqeo0","pricing_plan_id":"cebpf4jnsgd1na2vs0mg"},{"bike_id":"f7986849-5488-47e8-b8c2-0ebfdf9d8390","system_id":"levelo_inurba_marseille","lat":43.246732,"lon":5.381645,"is_reserved":false,"is_disabled":false,"rental_uris":{"android":"levelo://app?vid=f7986849-5488-47e8-b8c2-0ebfdf9d8390","ios":"levelo://app?vid=f7986849-5488-47e8-b8c2-0ebfdf9d8390"},"vehicle_type_id":"4","last_reported":1761822578,"current_range_meters":19600,"station_id":"ce4bhih2rcd13ifvqfr0","pricing_plan_id":"cebpf4jnsgd1na2vs0mg"},{"bike_id":"ee261a32-9de1-4b9e-a923-6c91e1e26176","system_id":"levelo_inurba_marseille","lat":43.28509,"lon":5.48413,"is_reserved":false,"is_disabled":false,"rental_uris":{"android":"levelo://app?vid=ee261a32-9de1-4b9e-a923-6c91e1e26176","ios":"levelo://app?vid=ee261a32-9de1-4b9e-a923-6c91e1e26176"},"vehicle_type_id":"4","last_reported":1761822578,"current_range_meters":19600,"station_id":"st_d3svhcjqgbts73a3dn0g","pricing_plan_id":"cebpf4jnsgd1na2vs0mg"},{"bike_id":"0a9abdf5-79f0-47db-9743-c4be71bd0ac0","system_id":"levelo_inurba_marseille","lat":43.30126,"lon":5.43123,"is_reserved":false,"is_disabled":false,"rental_uris":{"android":"levelo://app?vid=0a9abdf5-79f0-47db-9743-c4be71bd0ac0","ios":"levelo://app?vid=0a9abdf5-79f0-47db-9743-c4be71bd0ac0"},"vehicle_type_id":"4","last_reported":1761822578,"current_range_meters":19600,"station_id":"st_d3js3co5814s73ftftug","pricing_plan_id":"cebpf4jnsgd1na2vs0mg"},{"bike_id":"6787dfb7-4499-48de-8fff-ea4e38bd98bd","system_id":"levelo_inurba_marseille","lat":43.30145,"lon":5.37427,"is_reserved":false,"is_disabled":false,"rental_uris":{"android":"levelo://app?vid=6787dfb7-4499-48de-8fff-ea4e38bd98bd","ios":"levelo://app?vid=6787dfb7-4499-48de-8fff-ea4e38bd98bd"},"vehicle_type_id":"4","last_reported":1761822578,"current_range_meters":20000,"station_id":"ce4bgs92rcd13ifvqcc0","pricing_plan_id":"cebpf4jnsgd1na2vs0mg"},{"bike_id":"49a32b37-7ff3-4193-9d60-57400658c0ca","system_id":"levelo_inurba_marseille","lat":43.2919,"lon":5.35799,"is_reserved":false,"is_disabled":false,"rental_uris":{"android":"levelo://app?vid=49a32b37-7ff3-4193-9d60-57400658c0ca","ios":"levelo://app?vid=49a32b37-7ff3-4193-9d60-57400658c0ca"},"vehicle_type_id":"4","last_reported":1761822578,"current_range_meters":20000,"station_id":"ce4bhb12rcd13ifvqel0","pricing_plan_id":"cebpf4jnsgd1na2vs0mg"},{"bike_id":"e2c1aa5f-5db9-4063-a58c-ed8b9a5b9408","system_id":"levelo_inurba_marseille","lat":43.24946,"lon":5.40493,"is_reserved":false,"is_disabled":false,"rental_uris":{"android":"levelo://app?vid=e2c1aa5f-5db9-4063-a58c-ed8b9a5b9408","ios":"levelo://app?vid=e2c1aa5f-5db9-4063-a58c-ed8b9a5b9408"},"vehicle_type_id":"4","last_reported":1761822578,"current_range_meters":20000,"station_id":"st_d2ngiaodas8pm72gd1h0","pricing_plan_id":"cebpf4jnsgd1na2vs0mg"},{"bike_id":"7d25d21d-1831-4eba-9168-89d3ade37c3e","system_id":"levelo_inurba_marseille","lat":43.30271,"lon":5.37726,"is_reserved":false,"is_disabled":false,"rental_uris":{"android":"levelo://app?vid=7d25d21d-1831-4eba-9168-89d3ade37c3e","ios":"levelo://app?vid=7d25d21d-1831-4eba-9168-89d3ade37c3e"},"vehicle_type_id":"4","last_reported":1761822578,"current_range_meters":20000,"station_id":"ce4bguh2rcd13ifvqcj0","pricing_plan_id":"cebpf4jnsgd1na2vs0mg"},{"bike_id":"179ce6e6-2ed9-442e-92a4-9e439bdae226","system_id":"levelo_inurba_marseille","lat":43.3123,"lon":5.36873,"is_reserved":false,"is_disabled":false,"rental_uris":{"android":"levelo://app?vid=179ce6e6-2ed9-442e-92a4-9e439bdae226","ios":"levelo://app?vid=179ce6e6-2ed9-442e-92a4-9e439bdae226"},"vehicle_type_id":"4","last_reported":1761822578,"current_range_meters":20000,"station_id":"ce4bgl92rcd13ifvqbq0","pricing_plan_id":"cebpf4jnsgd1na2vs0mg"},{"bike_id":"08ca7024-24c3-4aef-95bb-78f78c8797a9","system_id":"levelo_inurba_marseille","lat":43.305405,"lon":5.367025,"is_reserved":false,"is_disabled":false,"rental_uris":{"android":"levelo://app?vid=08ca7024-24c3-4aef-95bb-78f78c8797a9","ios":"levelo://app?vid=08ca7024-24c3-4aef-95bb-78f78c8797a9"},"vehicle_type_id":"4","last_reported":1761822578,"current_range_meters":20000,"station_id":"ce4bgrp2rcd13ifvqc9g","pricing_plan_id":"cebpf4jnsgd1na2vs0mg"},{"bike_id":"8addfb9c-68d4-4b75-8da3-df90ea7c453f","system_id":"levelo_inurba_marseille","lat":43.3095,"lon":5.39026,"is_reserved":false,"is_disabled":false,"rental_uris":{"android":"levelo://app?vid=8addfb9c-68d4-4b75-8da3-df90ea7c453f","ios":"levelo://app?vid=8addfb9c-68d4-4b75-8da3-df90ea7c453f"},"vehicle_type_id":"4","last_reported":1761822578,"current_range_meters":20000,"station_id":"ce4bgup2rcd13ifvqco0","pricing_plan_id":"cebpf4jnsgd1na2vs0mg"},{"bike_id":"3e147cc7-1c05-4c10-88db-3d10fe34fe3a","system_id":"levelo_inurba_marseille","lat":43.24631,"lon":5.43143,"is_reserved":false,"is_disabled":false,"rental_uris":{"android":"levelo://app?vid=3e147cc7-1c05-4c10-88db-3d10fe34fe3a","ios":"levelo://app?vid=3e147cc7-1c05-4c10-88db-3d10fe34fe3a"},"vehicle_type_id":"4","last_reported":1761822578,"current_range_meters":20000,"station_id":"st_d2m6c4gdas8pm72e190g","pricing_plan_id":"cebpf4jnsgd1na2vs0mg"},{"bike_id":"91fab070-569c-458a-b7a9-ce203c556e30","system_id":"levelo_inurba_marseille","lat":43.21194,"lon":5.35057,"is_reserved":false,"is_disabled":false,"rental_uris":{"android":"levelo://app?vid=91fab070-569c-458a-b7a9-ce203c556e30","ios":"levelo://app?vid=91fab070-569c-458a-b7a9-ce203c556e30"},"vehicle_type_id":"4","last_reported":1761822578,"current_range_meters":20000,"station_id":"st_cvj6sg6p6f1abm77japg","pricing_plan_id":"cebpf4jnsgd1na2vs0mg"},{"bike_id":"dc019d93-95a9-47c6-b72a-c76434025334","system_id":"levelo_inurba_marseille","lat":43.30182,"lon":5.36619,"is_reserved":false,"is_disabled":false,"rental_uris":{"android":"levelo://app?vid=dc019d93-95a9-47c6-b72a-c76434025334","ios":"levelo://app?vid=dc019d93-95a9-47c6-b72a-c76434025334"},"vehicle_type_id":"4","last_reported":1761822578,"current_range_meters":20400,"station_id":"ce4bgrh2rcd13ifvqc8g","pricing_plan_id":"cebpf4jnsgd1na2vs0mg"},{"bike_id":"b395233f-8a26-4c9a-85c2-a3d6f4a1854b","system_id":"levelo_inurba_marseille","lat":43.29528,"lon":5.3854,"is_reserved":false,"is_disabled":false,"rental_uris":{"android":"levelo://app?vid=b395233f-8a26-4c9a-85c2-a3d6f4a1854b","ios":"levelo://app?vid=b395233f-8a26-4c9a-85c2-a3d6f4a1854b"},"vehicle_type_id":"4","last_reported":1761822578,"current_range_meters":20400,"station_id":"ce4bgih2rcd13ifvqba0","pricing_plan_id":"cebpf4jnsgd1na2vs0mg"},{"bike_id":"aece5d5f-ddbc-4f1d-adb1-d7aa1b27e47a","system_id":"levelo_inurba_marseille","lat":43.30192,"lon":5.36622,"is_reserved":false,"is_disabled":false,"rental_uris":{"android":"levelo://app?vid=aece5d5f-ddbc-4f1d-adb1-d7aa1b27e47a","ios":"levelo://app?vid=aece5d5f-ddbc-4f1d-adb1-d7aa1b27e47a"},"vehicle_type_id":"4","last_reported":1761822578,"current_range_meters":20400,"station_id":"ce4bgrh2rcd13ifvqc8g","pricing_plan_id":"cebpf4jnsgd1na2vs0mg"},{"bike_id":"e974006c-e3c8-4c1a-9a8d-ea5c7e7acb49","system_id":"levelo_inurba_marseille","lat":43.28544,"lon":5.4409,"is_reserved":false,"is_disabled":false,"rental_uris":{"android":"levelo://app?vid=e974006c-e3c8-4c1a-9a8d-ea5c7e7acb49","ios":"levelo://app?vid=e974006c-e3c8-4c1a-9a8d-ea5c7e7acb49"},"vehicle_type_id":"4","last_reported":1761822578,"current_range_meters":20400,"station_id":"st_d3j3df2ikq2c7380ej80","pricing_plan_id":"cebpf4jnsgd1na2vs0mg"},{"bike_id":"e02b8061-ba2d-4d7c-8048-3c9472854eb0","system_id":"levelo_inurba_marseille","lat":43.2732,"lon":5.390707,"is_reserved":false,"is_disabled":false,"rental_uris":{"android":"levelo://app?vid=e02b8061-ba2d-4d7c-8048-3c9472854eb0","ios":"levelo://app?vid=e02b8061-ba2d-4d7c-8048-3c9472854eb0"},"vehicle_type_id":"4","last_reported":1761822578,"current_range_meters":20400,"station_id":"ce4bhgp2rcd13ifvqfe0","pricing_plan_id":"cebpf4jnsgd1na2vs0mg"},{"bike_id":"0759af87-09c7-4ca7-929a-61e37c146843","system_id":"levelo_inurba_marseille","lat":43.28438,"lon":5.39199,"is_reserved":false,"is_disabled":false,"rental_uris":{"android":"levelo://app?vid=0759af87-09c7-4ca7-929a-61e37c146843","ios":"levelo://app?vid=0759af87-09c7-4ca7-929a-61e37c146843"},"vehicle_type_id":"4","last_reported":1761822578,"current_range_meters":20400,"station_id":"ce4bhoh2rcd13ifvqh5g","pricing_plan_id":"cebpf4jnsgd1na2vs0mg"},{"bike_id":"a3cb7927-5d87-405b-8ced-8286faba2d77","system_id":"levelo_inurba_marseille","lat":43.243893,"lon":5.370698,"is_reserved":false,"is_disabled":false,"rental_uris":{"android":"levelo://app?vid=a3cb7927-5d87-405b-8ced-8286faba2d77","ios":"levelo://app?vid=a3cb7927-5d87-405b-8ced-8286faba2d77"},"vehicle_type_id":"4","last_reported":1761822578,"current_range_meters":20400,"station_id":"ce4bhhh2rcd13ifvqfk0","pricing_plan_id":"cebpf4jnsgd1na2vs0mg"},{"bike_id":"f8b7edc1-cfef-48bd-8f55-0adc303a07cd","system_id":"levelo_inurba_marseille","lat":43.30142,"lon":5.37416,"is_reserved":false,"is_disabled":false,"rental_uris":{"android":"levelo://app?vid=f8b7edc1-cfef-48bd-8f55-0adc303a07cd","ios":"levelo://app?vid=f8b7edc1-cfef-48bd-8f55-0adc303a07cd"},"vehicle_type_id":"4","last_reported":1761822578,"current_range_meters":20400,"station_id":"ce4bgs92rcd13ifvqcc0","pricing_plan_id":"cebpf4jnsgd1na2vs0mg"},{"bike_id":"53e66290-0ede-4a08-8fbe-aadbd1038f64","system_id":"levelo_inurba_marseille","lat":43.32116,"lon":5.36778,"is_reserved":false,"is_disabled":false,"rental_uris":{"android":"levelo://app?vid=53e66290-0ede-4a08-8fbe-aadbd1038f64","ios":"levelo://app?vid=53e66290-0ede-4a08-8fbe-aadbd1038f64"},"vehicle_type_id":"4","last_reported":1761822578,"current_range_meters":20400,"station_id":"ce4bhrh2rcd13ifvqhug","pricing_plan_id":"cebpf4jnsgd1na2vs0mg"},{"bike_id":"a40524c3-2227-4f5a-b652-ce6a9348cc1a","system_id":"levelo_inurba_marseille","lat":43.30461,"lon":5.37906,"is_reserved":false,"is_disabled":false,"rental_uris":{"android":"levelo://app?vid=a40524c3-2227-4f5a-b652-ce6a9348cc1a","ios":"levelo://app?vid=a40524c3-2227-4f5a-b652-ce6a9348cc1a"},"vehicle_type_id":"4","last_reported":1761822578,"current_range_meters":20400,"station_id":"ce4bgup2rcd13ifvqcn0","pricing_plan_id":"cebpf4jnsgd1na2vs0mg"},{"bike_id":"90cc4e35-1e9a-4d48-878d-a3997094c0ce","system_id":"levelo_inurba_marseille","lat":43.24622,"lon":5.43114,"is_reserved":false,"is_disabled":false,"rental_uris":{"android":"levelo://app?vid=90cc4e35-1e9a-4d48-878d-a3997094c0ce","ios":"levelo://app?vid=90cc4e35-1e9a-4d48-878d-a3997094c0ce"},"vehicle_type_id":"4","last_reported":1761822578,"current_range_meters":20400,"station_id":"st_d2m6c4gdas8pm72e190g","pricing_plan_id":"cebpf4jnsgd1na2vs0mg"},{"bike_id":"74fb40b5-09ba-4fbd-ac16-98c4cfca9fb1","system_id":"levelo_inurba_marseille","lat":43.24169,"lon":5.36397,"is_reserved":false,"is_disabled":false,"rental_uris":{"android":"levelo://app?vid=74fb40b5-09ba-4fbd-ac16-98c4cfca9fb1","ios":"levelo://app?vid=74fb40b5-09ba-4fbd-ac16-98c4cfca9fb1"},"vehicle_type_id":"4","last_reported":1761822578,"current_range_meters":20800,"station_id":"cpo36qri1sfpv3e86is0","pricing_plan_id":"cebpf4jnsgd1na2vs0mg"},{"bike_id":"5a350554-ed58-4b1f-b445-df5b1e6d9df9","system_id":"levelo_inurba_marseille","lat":43.25116,"lon":5.40319,"is_reserved":false,"is_disabled":false,"rental_uris":{"android":"levelo://app?vid=5a350554-ed58-4b1f-b445-df5b1e6d9df9","ios":"levelo://app?vid=5a350554-ed58-4b1f-b445-df5b1e6d9df9"},"vehicle_type_id":"4","last_reported":1761822578,"current_range_meters":20800,"station_id":"ce4bhlh2rcd13ifvqgig","pricing_plan_id":"cebpf4jnsgd1na2vs0mg"},{"bike_id":"4dfda3f6-0107-4abe-9691-c087da796c03","system_id":"levelo_inurba_marseille","lat":43.29031,"lon":5.37566,"is_reserved":false,"is_disabled":false,"rental_uris":{"android":"levelo://app?vid=4dfda3f6-0107-4abe-9691-c087da796c03","ios":"levelo://app?vid=4dfda3f6-0107-4abe-9691-c087da796c03"},"vehicle_type_id":"4","last_reported":1761822578,"current_range_meters":20800,"station_id":"ce4bh692rcd13ifvqe90","pricing_plan_id":"cebpf4jnsgd1na2vs0mg"},{"bike_id":"6d807159-381b-491a-9308-b99003026f5e","system_id":"levelo_inurba_marseille","lat":43.26084,"lon":5.375269,"is_reserved":false,"is_disabled":false,"rental_uris":{"android":"levelo://app?vid=6d807159-381b-491a-9308-b99003026f5e","ios":"levelo://app?vid=6d807159-381b-491a-9308-b99003026f5e"},"vehicle_type_id":"4","last_reported":1761822578,"current_range_meters":20800,"station_id":"ce4bhgh2rcd13ifvqfa0","pricing_plan_id":"cebpf4jnsgd1na2vs0mg"},{"bike_id":"3fdd4075-2d2f-41f7-b068-ea13f83763a0","system_id":"levelo_inurba_marseille","lat":43.33034,"lon":5.39025,"is_reserved":false,"is_disabled":false,"rental_uris":{"android":"levelo://app?vid=3fdd4075-2d2f-41f7-b068-ea13f83763a0","ios":"levelo://app?vid=3fdd4075-2d2f-41f7-b068-ea13f83763a0"},"vehicle_type_id":"4","last_reported":1761822578,"current_range_meters":20800,"station_id":"ce4bhr92rcd13ifvqhrg","pricing_plan_id":"cebpf4jnsgd1na2vs0mg"},{"bike_id":"184d28e3-b90a-4f94-9392-6703a8d0a131","system_id":"levelo_inurba_marseille","lat":43.30375,"lon":5.42483,"is_reserved":false,"is_disabled":false,"rental_uris":{"android":"levelo://app?vid=184d28e3-b90a-4f94-9392-6703a8d0a131","ios":"levelo://app?vid=184d28e3-b90a-4f94-9392-6703a8d0a131"},"vehicle_type_id":"4","last_reported":1761822578,"current_range_meters":20800,"station_id":"ce4bhoh2rcd13ifvqh6g","pricing_plan_id":"cebpf4jnsgd1na2vs0mg"},{"bike_id":"f6bfe28c-b135-4cad-b829-4aef41fb494a","system_id":"levelo_inurba_marseille","lat":43.29299,"lon":5.37459,"is_reserved":false,"is_disabled":false,"rental_uris":{"android":"levelo://app?vid=f6bfe28c-b135-4cad-b829-4aef41fb494a","ios":"levelo://app?vid=f6bfe28c-b135-4cad-b829-4aef41fb494a"},"vehicle_type_id":"4","last_reported":1761822578,"current_range_meters":20800,"station_id":"ce4bgi12rcd13ifvqb70","pricing_plan_id":"cebpf4jnsgd1na2vs0mg"},{"bike_id":"e60b0333-0a24-4404-931c-b912080b1bba","system_id":"levelo_inurba_marseille","lat":43.30156,"lon":5.38079,"is_reserved":false,"is_disabled":false,"rental_uris":{"android":"levelo://app?vid=e60b0333-0a24-4404-931c-b912080b1bba","ios":"levelo://app?vid=e60b0333-0a24-4404-931c-b912080b1bba"},"vehicle_type_id":"4","last_reported":1761822578,"current_range_meters":20800,"station_id":"ce4bgjp2rcd13ifvqbh0","pricing_plan_id":"cebpf4jnsgd1na2vs0mg"},{"bike_id":"46f72dc2-3709-4634-a3d4-9f199b33d149","system_id":"levelo_inurba_marseille","lat":43.28462,"lon":5.35885,"is_reserved":false,"is_disabled":false,"rental_uris":{"android":"levelo://app?vid=46f72dc2-3709-4634-a3d4-9f199b33d149","ios":"levelo://app?vid=46f72dc2-3709-4634-a3d4-9f199b33d149"},"vehicle_type_id":"4","last_reported":1761822578,"current_range_meters":20800,"station_id":"ce4bhah2rcd13ifvqei0","pricing_plan_id":"cebpf4jnsgd1na2vs0mg"},{"bike_id":"ee1bb281-84f6-4c08-8ee2-a564009ed589","system_id":"levelo_inurba_marseille","lat":43.28999,"lon":5.35608,"is_reserved":false,"is_disabled":false,"rental_uris":{"android":"levelo://app?vid=ee1bb281-84f6-4c08-8ee2-a564009ed589","ios":"levelo://app?vid=ee1bb281-84f6-4c08-8ee2-a564009ed589"},"vehicle_type_id":"4","last_reported":1761822578,"current_range_meters":21600,"station_id":"ce4bhb92rcd13ifvqen0","pricing_plan_id":"cebpf4jnsgd1na2vs0mg"},{"bike_id":"3f0b46b3-021e-4cee-975a-5c00c36734d6","system_id":"levelo_inurba_marseille","lat":43.286995,"lon":5.399796,"is_reserved":false,"is_disabled":false,"rental_uris":{"android":"levelo://app?vid=3f0b46b3-021e-4cee-975a-5c00c36734d6","ios":"levelo://app?vid=3f0b46b3-021e-4cee-975a-5c00c36734d6"},"vehicle_type_id":"4","last_reported":1761822578,"current_range_meters":21600,"station_id":"ce4bho92rcd13ifvqh3g","pricing_plan_id":"cebpf4jnsgd1na2vs0mg"},{"bike_id":"fa81618e-005c-44ef-9ba8-c392cbf32638","system_id":"levelo_inurba_marseille","lat":43.30252,"lon":5.40069,"is_reserved":false,"is_disabled":false,"rental_uris":{"android":"levelo://app?vid=fa81618e-005c-44ef-9ba8-c392cbf32638","ios":"levelo://app?vid=fa81618e-005c-44ef-9ba8-c392cbf32638"},"vehicle_type_id":"4","last_reported":1761822578,"current_range_meters":21600,"station_id":"ce4bgvh2rcd13ifvqcs0","pricing_plan_id":"cebpf4jnsgd1na2vs0mg"},{"bike_id":"af74471a-600d-4cc7-bc03-f7a0f18cce4e","system_id":"levelo_inurba_marseille","lat":43.273752,"lon":5.362607,"is_reserved":false,"is_disabled":false,"rental_uris":{"android":"levelo://app?vid=af74471a-600d-4cc7-bc03-f7a0f18cce4e","ios":"levelo://app?vid=af74471a-600d-4cc7-bc03-f7a0f18cce4e"},"vehicle_type_id":"4","last_reported":1761822578,"current_range_meters":21600,"station_id":"","pricing_plan_id":"cebpf4jnsgd1na2vs0mg"},{"bike_id":"b1e81361-2b17-4ef1-8a58-6def5753471b","system_id":"levelo_inurba_marseille","lat":43.33753,"lon":5.37484,"is_reserved":false,"is_disabled":false,"rental_uris":{"android":"levelo://app?vid=b1e81361-2b17-4ef1-8a58-6def5753471b","ios":"levelo://app?vid=b1e81361-2b17-4ef1-8a58-6def5753471b"},"vehicle_type_id":"4","last_reported":1761822578,"current_range_meters":21600,"station_id":"","pricing_plan_id":"cebpf4jnsgd1na2vs0mg"},{"bike_id":"cb1fa815-aefd-4bd1-952d-88e4cf3eea21","system_id":"levelo_inurba_marseille","lat":43.22926,"lon":5.35379,"is_reserved":false,"is_disabled":false,"rental_uris":{"android":"levelo://app?vid=cb1fa815-aefd-4bd1-952d-88e4cf3eea21","ios":"levelo://app?vid=cb1fa815-aefd-4bd1-952d-88e4cf3eea21"},"vehicle_type_id":"4","last_reported":1761822578,"current_range_meters":21600,"station_id":"cpo3532slgdg3j2ikp40","pricing_plan_id":"cebpf4jnsgd1na2vs0mg"},{"bike_id":"00276c2e-b984-4f56-8312-6e9347fad2da","system_id":"levelo_inurba_marseille","lat":43.30918,"lon":5.36855,"is_reserved":false,"is_disabled":false,"rental_uris":{"android":"levelo://app?vid=00276c2e-b984-4f56-8312-6e9347fad2da","ios":"levelo://app?vid=00276c2e-b984-4f56-8312-6e9347fad2da"},"vehicle_type_id":"4","last_reported":1761822578,"current_range_meters":21600,"station_id":"ce4bgn92rcd13ifvqbvg","pricing_plan_id":"cebpf4jnsgd1na2vs0mg"},{"bike_id":"8c7aa3b3-4301-4d83-a893-aca437d1a77a","system_id":"levelo_inurba_marseille","lat":43.269534,"lon":5.386258,"is_reserved":false,"is_disabled":false,"rental_uris":{"android":"levelo://app?vid=8c7aa3b3-4301-4d83-a893-aca437d1a77a","ios":"levelo://app?vid=8c7aa3b3-4301-4d83-a893-aca437d1a77a"},"vehicle_type_id":"4","last_reported":1761822578,"current_range_meters":21600,"station_id":"ce4bhh92rcd13ifvqfh0","pricing_plan_id":"cebpf4jnsgd1na2vs0mg"},{"bike_id":"43a18535-042e-472e-8e7d-efe55dc4c204","system_id":"levelo_inurba_marseille","lat":43.31335,"lon":5.36708,"is_reserved":false,"is_disabled":false,"rental_uris":{"android":"levelo://app?vid=43a18535-042e-472e-8e7d-efe55dc4c204","ios":"levelo://app?vid=43a18535-042e-472e-8e7d-efe55dc4c204"},"vehicle_type_id":"4","last_reported":1761822578,"current_range_meters":21600,"station_id":"ce4bgr92rcd13ifvqc6g","pricing_plan_id":"cebpf4jnsgd1na2vs0mg"},{"bike_id":"cbb665fa-281a-4631-b1f8-985ccb6b7530","system_id":"levelo_inurba_marseille","lat":43.24169,"lon":5.39713,"is_reserved":false,"is_disabled":false,"rental_uris":{"android":"levelo://app?vid=cbb665fa-281a-4631-b1f8-985ccb6b7530","ios":"levelo://app?vid=cbb665fa-281a-4631-b1f8-985ccb6b7530"},"vehicle_type_id":"4","last_reported":1761822578,"current_range_meters":21600,"station_id":"ce4bhn12rcd13ifvqgpg","pricing_plan_id":"cebpf4jnsgd1na2vs0mg"},{"bike_id":"9cfb94e3-c164-4a1d-8208-ffa864d81ed0","system_id":"levelo_inurba_marseille","lat":43.2871,"lon":5.39992,"is_reserved":false,"is_disabled":false,"rental_uris":{"android":"levelo://app?vid=9cfb94e3-c164-4a1d-8208-ffa864d81ed0","ios":"levelo://app?vid=9cfb94e3-c164-4a1d-8208-ffa864d81ed0"},"vehicle_type_id":"4","last_reported":1761822578,"current_range_meters":22000,"station_id":"ce4bho92rcd13ifvqh3g","pricing_plan_id":"cebpf4jnsgd1na2vs0mg"},{"bike_id":"7db8800b-2f69-444d-ae6a-738bbd094669","system_id":"levelo_inurba_marseille","lat":43.2922,"lon":5.36054,"is_reserved":false,"is_disabled":false,"rental_uris":{"android":"levelo://app?vid=7db8800b-2f69-444d-ae6a-738bbd094669","ios":"levelo://app?vid=7db8800b-2f69-444d-ae6a-738bbd094669"},"vehicle_type_id":"4","last_reported":1761822578,"current_range_meters":22000,"station_id":"ce4bhbh2rcd13ifvqeqg","pricing_plan_id":"cebpf4jnsgd1na2vs0mg"},{"bike_id":"ed4fa77d-11cb-4b6a-a380-a0efbcaeeb37","system_id":"levelo_inurba_marseille","lat":43.27372,"lon":5.362666,"is_reserved":false,"is_disabled":false,"rental_uris":{"android":"levelo://app?vid=ed4fa77d-11cb-4b6a-a380-a0efbcaeeb37","ios":"levelo://app?vid=ed4fa77d-11cb-4b6a-a380-a0efbcaeeb37"},"vehicle_type_id":"4","last_reported":1761822578,"current_range_meters":22000,"station_id":"","pricing_plan_id":"cebpf4jnsgd1na2vs0mg"},{"bike_id":"b29adc19-b67e-454c-a0de-f667e061e9f5","system_id":"levelo_inurba_marseille","lat":43.24809,"lon":5.37454,"is_reserved":false,"is_disabled":false,"rental_uris":{"android":"levelo://app?vid=b29adc19-b67e-454c-a0de-f667e061e9f5","ios":"levelo://app?vid=b29adc19-b67e-454c-a0de-f667e061e9f5"},"vehicle_type_id":"4","last_reported":1761822578,"current_range_meters":22000,"station_id":"ce4bhgh2rcd13ifvqfb0","pricing_plan_id":"cebpf4jnsgd1na2vs0mg"},{"bike_id":"8c35a7e4-8378-4fdf-b42f-02e88b6199ca","system_id":"levelo_inurba_marseille","lat":43.320956,"lon":5.36767,"is_reserved":false,"is_disabled":false,"rental_uris":{"android":"levelo://app?vid=8c35a7e4-8378-4fdf-b42f-02e88b6199ca","ios":"levelo://app?vid=8c35a7e4-8378-4fdf-b42f-02e88b6199ca"},"vehicle_type_id":"4","last_reported":1761822578,"current_range_meters":22000,"station_id":"ce4bhrh2rcd13ifvqhug","pricing_plan_id":"cebpf4jnsgd1na2vs0mg"},{"bike_id":"02d869e4-5856-4b89-b4f7-83a21afde51d","system_id":"levelo_inurba_marseille","lat":43.211945,"lon":5.35068,"is_reserved":false,"is_disabled":false,"rental_uris":{"android":"levelo://app?vid=02d869e4-5856-4b89-b4f7-83a21afde51d","ios":"levelo://app?vid=02d869e4-5856-4b89-b4f7-83a21afde51d"},"vehicle_type_id":"4","last_reported":1761822578,"current_range_meters":22000,"station_id":"st_cvj6sg6p6f1abm77japg","pricing_plan_id":"cebpf4jnsgd1na2vs0mg"},