{"last_updated":1751368199,"ttl":60,"version":"2.2","data":{"bikes":[{"bike_id":"3da29fb8-fc97-44c6-b9ac-31dd456b2fd4","system_id":"levelo_inurba_marseille","lat":43.33771,"lon":5.37424,"is_reserved":false,"is_disabled":true,"rental_uris":{"android":"levelo://app?vid=3da29fb8-fc97-44c6-b9ac-31dd456b2fd4","ios":"levelo://app?vid=3da29fb8-fc97-44c6-b9ac-31dd456b2fd4"},"vehicle_type_id":"4","last_reported":1751368200,"current_range_meters":0,"station_id":"","pricing_plan_id":"cebpf4jnsgd1na2vs0mg"},{"bike_id":"01861ad8-a8d7-4be6-816e-651927c87584","system_id":"levelo_inurba_marseille","lat":43.33751,"lon":5.37456,"is_reserved":false,"is_disabled":true,"rental_uris":{"android":"levelo://app?vid=01861ad8-a8d7-4be6-816e-651927c87584","ios":"levelo://app?vid=01861ad8-a8d7-4be6-816e-651927c87584"},"vehicle_type_id":"4","last_reported":1751368200,"current_range_meters":0,"station_id":"","pricing_plan_id":"cebpf4jnsgd1na2vs0mg"},{"bike_id":"289203e1-8390-4fd2-a184-a4735cc5bd92","system_id":"levelo_inurba_marseille","lat":43.23354,"lon":5.39958,"is_reserved":false,"is_disabled":true,"rental_uris":{"android":"levelo://app?vid=289203e1-8390-4fd2-a184-a4735cc5bd92","ios":"levelo://app?vid=289203e1-8390-4fd2-a184-a4735cc5bd92"},"vehicle_type_id":"4","last_reported":1751368200,"current_range_meters":0,"station_id":"","pricing_plan_id":"cebpf4jnsgd1na2vs0mg"},{"bike_id":"3168b9fb-97d2-4a0e-b7ee-673bb8cf7525","system_id":"levelo_inurba_marseille","lat":43.277763,"lon":5.355678,"is_reserved":false,"is_disabled":true,"rental_uris":{"android":"levelo://app?vid=3168b9fb-97d2-4a0e-b7ee-673bb8cf7525","ios":"levelo://app?vid=3168b9fb-97d2-4a0e-b7ee-673bb8cf7525"},"vehicle_type_id":"4","last_reported":1751368200,"current_range_meters":0,"station_id":"","pricing_plan_id":"cebpf4jnsgd1na2vs0mg"},{"bike_id":"1d934d30-6a85-4b30-9a35-9bb4ad4cb2ca","system_id":"levelo_inurba_marseille","lat":43.32733,"lon":5.42342,"is_reserved":false,"is_disabled":true,"rental_uris":{"android":"levelo://app?vid=1d934d30-6a85-4b30-9a35-9bb4ad4cb2ca","ios":"levelo://app?vid=1d934d30-6a85-4b30-9a35-9bb4ad4cb2ca"},"vehicle_type_id":"4","last_reported":1751368200,"current_range_meters":0,"station_id":"","pricing_plan_id":"cebpf4jnsgd1na2vs0mg"},{"bike_id":"3378c13c-e4e0-45be-9bfe-f3a4bc2c600e","system_id":"levelo_inurba_marseille","lat":43.29776,"lon":5.46007,"is_reserved":false,"is_disabled":true,"rental_uris":{"android":"levelo://app?vid=3378c13c-e4e0-45be-9bfe-f3a4bc2c600e","ios":"levelo://app?vid=3378c13c-e4e0-45be-9bfe-f3a4bc2c600e"},"vehicle_type_id":"4","last_reported":1751368200,"current_range_meters":0,"station_id":"","pricing_plan_id":"cebpf4jnsgd1na2vs0mg"},{"bike_id":"2ccccc82-c8a9-4c3b-909d-52c0bf697aa3","system_id":"levelo_inurba_marseille","lat":43.276096,"lon":5.358705,"is_reserved":false,"is_disabled":true,"rental_uris":{"android":"levelo://app?vid=2ccccc82-c8a9-4c3b-909d-52c0bf697aa3","ios":"levelo://app?vid=2ccccc82-c8a9-4c3b-909d-52c0bf697aa3"},"vehicle_type_id":"4","last_reported":1751368200,"current_range_meters":0,"station_id":"","pricing_plan_id":"cebpf4jnsgd1na2vs0mg"},{"bike_id":"c9700359-7f1e-4ea5-8eb5-d9c4ea1b8ef7","system_id":"levelo_inurba_marseille","lat":43.26326,"lon":5.37399,"is_reserved":false,"is_disabled":true,"rental_uris":{"android":"levelo://app?vid=c9700359-7f1e-4ea5-8eb5-d9c4ea1b8ef7","ios":"levelo://app?vid=c9700359-7f1e-4ea5-8eb5-d9c4ea1b8ef7"},"vehicle_type_id":"4","last_reported":1751368200,"current_range_meters":0,"station_id":"","pricing_plan_id":"cebpf4jnsgd1na2vs0mg"},{"bike_id":"453d087c-a682-476a-ba85-3e6771fb57ff","system_id":"levelo_inurba_marseille","lat":43.27934,"lon":5.38716,"is_reserved":false,"is_disabled":true,"rental_uris":{"android":"levelo://app?vid=453d087c-a682-476a-ba85-3e6771fb57ff","ios":"levelo://app?vid=453d087c-a682-476a-ba85-3e6771fb57ff"},"vehicle_type_id":"4","last_reported":1751368200,"current_range_meters":0,"station_id":"","pricing_plan_id":"cebpf4jnsgd1na2vs0mg"},{"bike_id":"3035be0e-7c3d-4f7d-a1cb-7a1af59e497b","system_id":"levelo_inurba_marseille","lat":43.296768,"lon":5.3601,"is_reserved":false,"is_disabled":true,"rental_uris":{"android":"levelo://app?vid=3035be0e-7c3d-4f7d-a1cb-7a1af59e497b","ios":"levelo://app?vid=3035be0e-7c3d-4f7d-a1cb-7a1af59e497b"},"vehicle_type_id":"4","last_reported":1751368200,"current_range_meters":0,"station_id":"","pricing_plan_id":"cebpf4jnsgd1na2vs0mg"},{"bike_id":"b897820f-43fd-4b1b-9dc8-153a18c5cc08","system_id":"levelo_inurba_marseille","lat":43.30927,"lon":5.40149,"is_reserved":false,"is_disabled":true,"rental_uris":{"android":"levelo://app?vid=b897820f-43fd-4b1b-9dc8-153a18c5cc08","ios":"levelo://app?vid=b897820f-43fd-4b1b-9dc8-153a18c5cc08"},"vehicle_type_id":"4","last_reported":1751368200,"current_range_meters":0,"station_id":"ce4bgvp2rcd13ifvqct0","pricing_plan_id":"cebpf4jnsgd1na2vs0mg"},{"bike_id":"f68b26fd-0870-487c-b03e-14ebb77faaee","system_id":"levelo_inurba_marseille","lat":43.30651,"lon":5.40076,"is_reserved":false,"is_disabled":true,"rental_uris":{"android":"levelo://app?vid=f68b26fd-0870-487c-b03e-14ebb77faaee","ios":"levelo://app?vid=f68b26fd-0870-487c-b03e-14ebb77faaee"},"vehicle_type_id":"4","last_reported":1751368200,"current_range_meters":0,"station_id":"ce4bh112rcd13ifvqda0","pricing_plan_id":"cebpf4jnsgd1na2vs0mg"},{"bike_id":"7c2e1d76-d56a-474a-873e-4d952d4e3e17","system_id":"levelo_inurba_marseille","lat":43.29263,"lon":5.38459,"is_reserved":false,"is_disabled":true,"rental_uris":{"android":"levelo://app?vid=7c2e1d76-d56a-474a-873e-4d952d4e3e17","ios":"levelo://app?vid=7c2e1d76-d56a-474a-873e-4d952d4e3e17"},"vehicle_type_id":"4","last_reported":1751368200,"current_range_meters":0,"station_id":"ce4bh692rcd13ifvqea0","pricing_plan_id":"cebpf4jnsgd1na2vs0mg"},{"bike_id":"a2e408a0-3023-4ca2-8851-775812262359","system_id":"levelo_inurba_marseille","lat":43.27424,"lon":5.39411,"is_reserved":false,"is_disabled":true,"rental_uris":{"android":"levelo://app?vid=a2e408a0-3023-4ca2-8851-775812262359","ios":"levelo://app?vid=a2e408a0-3023-4ca2-8851-775812262359"},"vehicle_type_id":"4","last_reported":1751368200,"current_range_meters":0,"station_id":"ce4bhdp2rcd13ifvqf20","pricing_plan_id":"cebpf4jnsgd1na2vs0mg"},{"bike_id":"b6b8d65f-78c7-481f-9868-6762fe13c487","system_id":"levelo_inurba_marseille","lat":43.25494,"lon":5.37639,"is_reserved":false,"is_disabled":true,"rental_uris":{"android":"levelo://app?vid=b6b8d65f-78c7-481f-9868-6762fe13c487","ios":"levelo://app?vid=b6b8d65f-78c7-481f-9868-6762fe13c487"},"vehicle_type_id":"4","last_reported":1751368200,"current_range_meters":0,"station_id":"ce4bhh12rcd13ifvqff0","pricing_plan_id":"cebpf4jnsgd1na2vs0mg"},{"bike_id":"8a6cfdae-08c1-415d-ae0f-262217df14ed","system_id":"levelo_inurba_marseille","lat":43.26786,"lon":5.39412,"is_reserved":false,"is_disabled":true,"rental_uris":{"android":"levelo://app?vid=8a6cfdae-08c1-415d-ae0f-262217df14ed","ios":"levelo://app?vid=8a6cfdae-08c1-415d-ae0f-262217df14ed"},"vehicle_type_id":"4","last_reported":1751368200,"current_range_meters":0,"station_id":"ce4bhh12rcd13ifvqfg0","pricing_plan_id":"cebpf4jnsgd1na2vs0mg"},{"bike_id":"816f05e8-ec23-4bf5-86cb-a39286c04e0e","system_id":"levelo_inurba_marseille","lat":43.24393,"lon":5.37054,"is_reserved":false,"is_disabled":true,"rental_uris":{"android":"levelo://app?vid=816f05e8-ec23-4bf5-86cb-a39286c04e0e","ios":"levelo://app?vid=816f05e8-ec23-4bf5-86cb-a39286c04e0e"},"vehicle_type_id":"4","last_reported":1751368200,"current_range_meters":0,"station_id":"ce4bhhh2rcd13ifvqfk0","pricing_plan_id":"cebpf4jnsgd1na2vs0mg"},{"bike_id":"ee731810-37f8-4e7b-8aee-c2490535e4f7","system_id":"levelo_inurba_marseille","lat":43.27674,"lon":5.38877,"is_reserved":false,"is_disabled":true,"rental_uris":{"android":"levelo://app?vid=ee731810-37f8-4e7b-8aee-c2490535e4f7","ios":"levelo://app?vid=ee731810-37f8-4e7b-8aee-c2490535e4f7"},"vehicle_type_id":"4","last_reported":1751368200,"current_range_meters":0,"station_id":"ce4bhi12rcd13ifvqfo0","pricing_plan_id":"cebpf4jnsgd1na2vs0mg"},{"bike_id":"37552715-d29e-4f5b-b79d-967e2fbfdfe3","system_id":"levelo_inurba_marseille","lat":43.23152,"lon":5.43716,"is_reserved":false,"is_disabled":true,"rental_uris":{"android":"levelo://app?vid=37552715-d29e-4f5b-b79d-967e2fbfdfe3","ios":"levelo://app?vid=37552715-d29e-4f5b-b79d-967e2fbfdfe3"},"vehicle_type_id":"4","last_reported":1751368200,"current_range_meters":0,"station_id":"ce4bhmp2rcd13ifvqgog","pricing_plan_id":"cebpf4jnsgd1na2vs0mg"},{"bike_id":"cdd798e8-3ff8-476b-aee0-83a4235bcd5c","system_id":"levelo_inurba_marseille","lat":43.24071,"lon":5.37799,"is_reserved":false,"is_disabled":true,"rental_uris":{"android":"levelo://app?vid=cdd798e8-3ff8-476b-aee0-83a4235bcd5c","ios":"levelo://app?vid=cdd798e8-3ff8-476b-aee0-83a4235bcd5c"},"vehicle_type_id":"4","last_reported":1751368200,"current_range_meters":0,"station_id":"ce4bhnp2rcd13ifvqgvg","pricing_plan_id":"cebpf4jnsgd1na2vs0mg"},{"bike_id":"9418efcb-9652-42bc-b8cb-428107bc9139","system_id":"levelo_inurba_marseille","lat":43.32333,"lon":5.40636,"is_reserved":false,"is_disabled":true,"rental_uris":{"android":"levelo://app?vid=9418efcb-9652-42bc-b8cb-428107bc9139","ios":"levelo://app?vid=9418efcb-9652-42bc-b8cb-428107bc9139"},"vehicle_type_id":"4","last_reported":1751368200,"current_range_meters":0,"station_id":"ce4bhq92rcd13ifvqhjg","pricing_plan_id":"cebpf4jnsgd1na2vs0mg"},{"bike_id":"e1eccc98-53d4-487b-bc31-6f08d4d54421","system_id":"levelo_inurba_marseille","lat":43.31985,"lon":5.38148,"is_reserved":false,"is_disabled":true,"rental_uris":{"android":"levelo://app?vid=e1eccc98-53d4-487b-bc31-6f08d4d54421","ios":"levelo://app?vid=e1eccc98-53d4-487b-bc31-6f08d4d54421"},"vehicle_type_id":"4","last_reported":1751368200,"current_range_meters":0,"station_id":"ce4bhr12rcd13ifvqhpg","pricing_plan_id":"cebpf4jnsgd1na2vs0mg"},{"bike_id":"ce46b1d3-a157-4884-8508-b4430626f8f2","system_id":"levelo_inurba_marseille","lat":43.24169,"lon":5.36397,"is_reserved":false,"is_disabled":true,"rental_uris":{"android":"levelo://app?vid=ce46b1d3-a157-4884-8508-b4430626f8f2","ios":"levelo://app?vid=ce46b1d3-a157-4884-8508-b4430626f8f2"},"vehicle_type_id":"4","last_reported":1751368200,"current_range_meters":0,"station_id":"cpo36qri1sfpv3e86is0","pricing_plan_id":"cebpf4jnsgd1na2vs0mg"},{"bike_id":"c0233825-48c7-4308-99a0-0cbf10efd402","system_id":"levelo_inurba_marseille","lat":43.32279,"lon":5.37449,"is_reserved":false,"is_disabled":true,"rental_uris":{"android":"levelo://app?vid=c0233825-48c7-4308-99a0-0cbf10efd402","ios":"levelo://app?vid=c0233825-48c7-4308-99a0-0cbf10efd402"},"vehicle_type_id":"4","last_reported":1751368200,"current_range_meters":400,"station_id":"","pricing_plan_id":"cebpf4jnsgd1na2vs0mg"},{"bike_id":"7a8c6331-f63a-427e-a371-5b1a815eeea0","system_id":"levelo_inurba_marseille","lat":43.28672,"lon":5.38651,"is_reserved":false,"is_disabled":true,"rental_uris":{"android":"levelo://app?vid=7a8c6331-f63a-427e-a371-5b1a815eeea0","ios":"levelo://app?vid=7a8c6331-f63a-427e-a371-5b1a815eeea0"},"vehicle_type_id":"4","last_reported":1751368200,"current_range_meters":400,"station_id":"ce4bh492rcd13ifvqdug","pricing_plan_id":"cebpf4jnsgd1na2vs0mg"},{"bike_id":"75171e1b-7301-4727-a2db-3e4ae81253fa","system_id":"levelo_inurba_marseille","lat":43.265707,"lon":5.39021,"is_reserved":false,"is_disabled":true,"rental_uris":{"android":"levelo://app?vid=75171e1b-7301-4727-a2db-3e4ae81253fa","ios":"levelo://app?vid=75171e1b-7301-4727-a2db-3e4ae81253fa"},"vehicle_type_id":"4","last_reported":1751368200,"current_range_meters":400,"station_id":"ce4bhe12rcd13ifvqf30","pricing_plan_id":"cebpf4jnsgd1na2vs0mg"},{"bike_id":"7c617506-95d5-4b87-8210-9fb58a8633f5","system_id":"levelo_inurba_marseille","lat":43.23156,"lon":5.43738,"is_reserved":false,"is_disabled":true,"rental_uris":{"android":"levelo://app?vid=7c617506-95d5-4b87-8210-9fb58a8633f5","ios":"levelo://app?vid=7c617506-95d5-4b87-8210-9fb58a8633f5"},"vehicle_type_id":"4","last_reported":1751368200,"current_range_meters":400,"station_id":"ce4bhmp2rcd13ifvqgog","pricing_plan_id":"cebpf4jnsgd1na2vs0mg"},{"bike_id":"fef598a8-1773-4f6b-b1b5-c047abf388a6","system_id":"levelo_inurba_marseille","lat":43.30413,"lon":5.41289,"is_reserved":false,"is_disabled":true,"rental_uris":{"android":"levelo://app?vid=fef598a8-1773-4f6b-b1b5-c047abf388a6","ios":"levelo://app?vid=fef598a8-1773-4f6b-b1b5-c047abf388a6"},"vehicle_type_id":"4","last_reported":1751368200,"current_range_meters":400,"station_id":"ce4bhop2rcd13ifvqh8g","pricing_plan_id":"cebpf4jnsgd1na2vs0mg"},{"bike_id":"420b7257-cde3-43d5-bd62-29a7bde0ee5a","system_id":"levelo_inurba_marseille","lat":43.24556,"lon":5.39509,"is_reserved":false,"is_disabled":true,"rental_uris":{"android":"levelo://app?vid=420b7257-cde3-43d5-bd62-29a7bde0ee5a","ios":"levelo://app?vid=420b7257-cde3-43d5-bd62-29a7bde0ee5a"},"vehicle_type_id":"4","last_reported":1751368200,"current_range_meters":800,"station_id":"ce4bhlp2rcd13ifvqgjg","pricing_plan_id":"cebpf4jnsgd1na2vs0mg"},{"bike_id":"f3bb54e5-5710-469b-95d1-519f2df26e28","system_id":"levelo_inurba_marseille","lat":43.30252,"lon":5.38198,"is_reserved":false,"is_disabled":true,"rental_uris":{"android":"levelo://app?vid=f3bb54e5-5710-469b-95d1-519f2df26e28","ios":"levelo://app?vid=f3bb54e5-5710-469b-95d1-519f2df26e28"},"vehicle_type_id":"4","last_reported":1751368200,"current_range_meters":1200,"station_id":"","pricing_plan_id":"cebpf4jnsgd1na2vs0mg"},{"bike_id":"c3dfb7d2-bee6-472b-89af-9c4e4fcf0ecb","system_id":"levelo_inurba_marseille","lat":43.31488,"lon":5.37301,"is_reserved":false,"is_disabled":true,"rental_uris":{"android":"levelo://app?vid=c3dfb7d2-bee6-472b-89af-9c4e4fcf0ecb","ios":"levelo://app?vid=c3dfb7d2-bee6-472b-89af-9c4e4fcf0ecb"},"vehicle_type_id":"4","last_reported":1751368200,"current_range_meters":1200,"station_id":"ce4bgt12rcd13ifvqcd0","pricing_plan_id":"cebpf4jnsgd1na2vs0mg"},{"bike_id":"51e01384-a760-4634-a726-12fd69960a30","system_id":"levelo_inurba_marseille","lat":43.28485,"lon":5.38434,"is_reserved":false,"is_disabled":true,"rental_uris":{"android":"levelo://app?vid=51e01384-a760-4634-a726-12fd69960a30","ios":"levelo://app?vid=51e01384-a760-4634-a726-12fd69960a30"},"vehicle_type_id":"4","last_reported":1751368200,"current_range_meters":1200,"station_id":"ce4bh512rcd13ifvqe3g","pricing_plan_id":"cebpf4jnsgd1na2vs0mg"},{"bike_id":"385171b8-847f-4a90-880e-b91a72a5e603","system_id":"levelo_inurba_marseille","lat":43.282623,"lon":5.350533,"is_reserved":false,"is_disabled":false,"rental_uris":{"android":"levelo://app?vid=385171b8-847f-4a90-880e-b91a72a5e603","ios":"levelo://app?vid=385171b8-847f-4a90-880e-b91a72a5e603"},"vehicle_type_id":"4","last_reported":1751368200,"current_range_meters":1200,"station_id":"ce4bhbp2rcd13ifvqerg","pricing_plan_id":"cebpf4jnsgd1na2vs0mg"},{"bike_id":"b31c09b9-c2e1-4566-9b60-7585f3fc91b1","system_id":"levelo_inurba_marseille","lat":43.30424,"lon":5.39755,"is_reserved":false,"is_disabled":true,"rental_uris":{"android":"levelo://app?vid=b31c09b9-c2e1-4566-9b60-7585f3fc91b1","ios":"levelo://app?vid=b31c09b9-c2e1-4566-9b60-7585f3fc91b1"},"vehicle_type_id":"4","last_reported":1751368200,"current_range_meters":1600,"station_id":"ce4bh092rcd13ifvqd20","pricing_plan_id":"cebpf4jnsgd1na2vs0mg"},{"bike_id":"f5dab47f-c5de-47d0-b5c9-b19c879b0a56","system_id":"levelo_inurba_marseille","lat":43.29279,"lon":5.3847,"is_reserved":false,"is_disabled":true,"rental_uris":{"android":"levelo://app?vid=f5dab47f-c5de-47d0-b5c9-b19c879b0a56","ios":"levelo://app?vid=f5dab47f-c5de-47d0-b5c9-b19c879b0a56"},"vehicle_type_id":"4","last_reported":1751368200,"current_range_meters":1600,"station_id":"ce4bh692rcd13ifvqea0","pricing_plan_id":"cebpf4jnsgd1na2vs0mg"},{"bike_id":"dbf90e11-c368-4965-a824-607e00955203","system_id":"levelo_inurba_marseille","lat":43.2707,"lon":5.42282,"is_reserved":false,"is_disabled":true,"rental_uris":{"android":"levelo://app?vid=dbf90e11-c368-4965-a824-607e00955203","ios":"levelo://app?vid=dbf90e11-c368-4965-a824-607e00955203"},"vehicle_type_id":"4","last_reported":1751368200,"current_range_meters":1600,"station_id":"ce4bhk92rcd13ifvqgb0","pricing_plan_id":"cebpf4jnsgd1na2vs0mg"},{"bike_id":"b58d90c1-7769-4d12-bef5-98ebc7c61255","system_id":"levelo_inurba_marseille","lat":43.29077,"lon":5.37172,"is_reserved":false,"is_disabled":true,"rental_uris":{"android":"levelo://app?vid=b58d90c1-7769-4d12-bef5-98ebc7c61255","ios":"levelo://app?vid=b58d90c1-7769-4d12-bef5-98ebc7c61255"},"vehicle_type_id":"4","last_reported":1751368200,"current_range_meters":2000,"station_id":"ce4bh5p2rcd13ifvqe4g","pricing_plan_id":"cebpf4jnsgd1na2vs0mg"},{"bike_id":"10453f8e-8760-4032-bf78-454a3bf64cd2","system_id":"levelo_inurba_marseille","lat":43.2174,"lon":5.34602,"is_reserved":false,"is_disabled":true,"rental_uris":{"android":"levelo://app?vid=10453f8e-8760-4032-bf78-454a3bf64cd2","ios":"levelo://app?vid=10453f8e-8760-4032-bf78-454a3bf64cd2"},"vehicle_type_id":"4","last_reported":1751368200,"current_range_meters":2000,"station_id":"st_cvj6r9ubvosntc0bgbag","pricing_plan_id":"cebpf4jnsgd1na2vs0mg"},{"bike_id":"76c9db26-cd87-44fa-8064-13dce0c9986d","system_id":"levelo_inurba_marseille","lat":43.27983,"lon":5.38773,"is_reserved":false,"is_disabled":false,"rental_uris":{"android":"levelo://app?vid=76c9db26-cd87-44fa-8064-13dce0c9986d","ios":"levelo://app?vid=76c9db26-cd87-44fa-8064-13dce0c9986d"},"vehicle_type_id":"4","last_reported":1751368200,"current_range_meters":2800,"station_id":"ce4bhg12rcd13ifvqf80","pricing_plan_id":"cebpf4jnsgd1na2vs0mg"},{"bike_id":"6346854d-967c-470e-9bcf-0ee9cbb31745","system_id":"levelo_inurba_marseille","lat":43.26913,"lon":5.42055,"is_reserved":false,"is_disabled":false,"rental_uris":{"android":"levelo://app?vid=6346854d-967c-470e-9bcf-0ee9cbb31745","ios":"levelo://app?vid=6346854d-967c-470e-9bcf-0ee9cbb31745"},"vehicle_type_id":"4","last_reported":1751368200,"current_range_meters":3200,"station_id":"","pricing_plan_id":"cebpf4jnsgd1na2vs0mg"},{"bike_id":"9d05e6f9-b789-4535-b7ba-66ecc7b0bd83","system_id":"levelo_inurba_marseille","lat":43.3031,"lon":5.36884,"is_reserved":false,"is_disabled":false,"rental_uris":{"android":"levelo://app?vid=9d05e6f9-b789-4535-b7ba-66ecc7b0bd83","ios":"levelo://app?vid=9d05e6f9-b789-4535-b7ba-66ecc7b0bd83"},"vehicle_type_id":"4","last_reported":1751368200,"current_range_meters":3200,"station_id":"ce4bgqh2rcd13ifvqc5g","pricing_plan_id":"cebpf4jnsgd1na2vs0mg"},{"bike_id":"f9b89a5f-61e1-4167-8c78-d4e67ec138e9","system_id":"levelo_inurba_marseille","lat":43.28489,"lon":5.38418,"is_reserved":false,"is_disabled":false,"rental_uris":{"android":"levelo://app?vid=f9b89a5f-61e1-4167-8c78-d4e67ec138e9","ios":"levelo://app?vid=f9b89a5f-61e1-4167-8c78-d4e67ec138e9"},"vehicle_type_id":"4","last_reported":1751368200,"current_range_meters":3200,"station_id":"ce4bh512rcd13ifvqe3g","pricing_plan_id":"cebpf4jnsgd1na2vs0mg"},{"bike_id":"29873bc6-3c7f-43c8-aa51-f9a3dc18fa8f","system_id":"levelo_inurba_marseille","lat":43.28271,"lon":5.35056,"is_reserved":false,"is_disabled":false,"rental_uris":{"android":"levelo://app?vid=29873bc6-3c7f-43c8-aa51-f9a3dc18fa8f","ios":"levelo://app?vid=29873bc6-3c7f-43c8-aa51-f9a3dc18fa8f"},"vehicle_type_id":"4","last_reported":1751368200,"current_range_meters":3200,"station_id":"ce4bhbp2rcd13ifvqerg","pricing_plan_id":"cebpf4jnsgd1na2vs0mg"},{"bike_id":"7547e1e4-2d85-4907-971d-6c8e5c4cb529","system_id":"levelo_inurba_marseille","lat":43.25366,"lon":5.375375,"is_reserved":false,"is_disabled":false,"rental_uris":{"android":"levelo://app?vid=7547e1e4-2d85-4907-971d-6c8e5c4cb529","ios":"levelo://app?vid=7547e1e4-2d85-4907-971d-6c8e5c4cb529"},"vehicle_type_id":"4","last_reported":1751368200,"current_range_meters":3600,"station_id":"","pricing_plan_id":"cebpf4jnsgd1na2vs0mg"},{"bike_id":"eb40e1fe-42a0-4a30-9821-5efb12313975","system_id":"levelo_inurba_marseille","lat":43.2762,"lon":5.36118,"is_reserved":false,"is_disabled":false,"rental_uris":{"android":"levelo://app?vid=eb40e1fe-42a0-4a30-9821-5efb12313975","ios":"levelo://app?vid=eb40e1fe-42a0-4a30-9821-5efb12313975"},"vehicle_type_id":"4","last_reported":1751368200,"current_range_meters":3600,"station_id":"ce4bgj92rcd13ifvqbe0","pricing_plan_id":"cebpf4jnsgd1na2vs0mg"},{"bike_id":"f9d7b080-0e2d-4d16-8524-f20f64f5d68f","system_id":"levelo_inurba_marseille","lat":43.26549,"lon":5.372853,"is_reserved":false,"is_disabled":false,"rental_uris":{"android":"levelo://app?vid=f9d7b080-0e2d-4d16-8524-f20f64f5d68f","ios":"levelo://app?vid=f9d7b080-0e2d-4d16-8524-f20f64f5d68f"},"vehicle_type_id":"4","last_reported":1751368200,"current_range_meters":3600,"station_id":"ce4bhg12rcd13ifvqf70","pricing_plan_id":"cebpf4jnsgd1na2vs0mg"},{"bike_id":"e5a91c12-a9d1-463a-8abe-d0dd37cf3197","system_id":"levelo_inurba_marseille","lat":43.29804,"lon":5.37751,"is_reserved":false,"is_disabled":false,"rental_uris":{"android":"levelo://app?vid=e5a91c12-a9d1-463a-8abe-d0dd37cf3197","ios":"levelo://app?vid=e5a91c12-a9d1-463a-8abe-d0dd37cf3197"},"vehicle_type_id":"4","last_reported":1751368200,"current_range_meters":4000,"station_id":"","pricing_plan_id":"cebpf4jnsgd1na2vs0mg"},{"bike_id":"93226fb9-d4a7-4e45-8d6a-5cd3bc94615d","system_id":"levelo_inurba_marseille","lat":43.29281,"lon":5.40118,"is_reserved":false,"is_disabled":false,"rental_uris":{"android":"levelo://app?vid=93226fb9-d4a7-4e45-8d6a-5cd3bc94615d","ios":"levelo://app?vid=93226fb9-d4a7-4e45-8d6a-5cd3bc94615d"},"vehicle_type_id":"4","last_reported":1751368200,"current_range_meters":4000,"station_id":"ce4bh312rcd13ifvqdk0","pricing_plan_id":"cebpf4jnsgd1na2vs0mg"},{"bike_id":"9c32d511-9997-40ea-967f-b7184b7f732e","system_id":"levelo_inurba_marseille","lat":43.2848,"lon":5.38412,"is_reserved":false,"is_disabled":false,"rental_uris":{"android":"levelo://app?vid=9c32d511-9997-40ea-967f-b7184b7f732e","ios":"levelo://app?vid=9c32d511-9997-40ea-967f-b7184b7f732e"},"vehicle_type_id":"4","last_reported":1751368200,"current_range_meters":4000,"station_id":"ce4bh512rcd13ifvqe3g","pricing_plan_id":"cebpf4jnsgd1na2vs0mg"},{"bike_id":"54021562-2bb4-4c6a-9703-7c23e2305f1d","system_id":"levelo_inurba_marseille","lat":43.310826,"lon":5.400881,"is_reserved":false,"is_disabled":false,"rental_uris":{"android":"levelo://app?vid=54021562-2bb4-4c6a-9703-7c23e2305f1d","ios":"levelo://app?vid=54021562-2bb4-4c6a-9703-7c23e2305f1d"},"vehicle_type_id":"4","last_reported":1751368200,"current_range_meters":4800,"station_id":"","pricing_plan_id":"cebpf4jnsgd1na2vs0mg"},{"bike_id":"382e6024-e685-449e-ba2a-a9e79a695724","system_id":"levelo_inurba_marseille","lat":43.31332,"lon":5.39695,"is_reserved":false,"is_disabled":false,"rental_uris":{"android":"levelo://app?vid=382e6024-e685-449e-ba2a-a9e79a695724","ios":"levelo://app?vid=382e6024-e685-449e-ba2a-a9e79a695724"},"vehicle_type_id":"4","last_reported":1751368200,"current_range_meters":4800,"station_id":"ce4bgvp2rcd13ifvqcu0","pricing_plan_id":"cebpf4jnsgd1na2vs0mg"},{"bike_id":"13c05c75-49a8-436b-b240-8d0801280a49","system_id":"levelo_inurba_marseille","lat":43.25588,"lon":5.3823,"is_reserved":false,"is_disabled":false,"rental_uris":{"android":"levelo://app?vid=13c05c75-49a8-436b-b240-8d0801280a49","ios":"levelo://app?vid=13c05c75-49a8-436b-b240-8d0801280a49"},"vehicle_type_id":"4","last_reported":1751368200,"current_range_meters":4800,"station_id":"ce4bhih2rcd13ifvqfs0","pricing_plan_id":"cebpf4jnsgd1na2vs0mg"},{"bike_id":"07c852d2-6163-4217-8859-ffb3f12d1b6a","system_id":"levelo_inurba_marseille","lat":43.27071,"lon":5.40251,"is_reserved":false,"is_disabled":false,"rental_uris":{"android":"levelo://app?vid=07c852d2-6163-4217-8859-ffb3f12d1b6a","ios":"levelo://app?vid=07c852d2-6163-4217-8859-ffb3f12d1b6a"},"vehicle_type_id":"4","last_reported":1751368200,"current_range_meters":4800,"station_id":"ce4bhk92rcd13ifvqgc0","pricing_plan_id":"cebpf4jnsgd1na2vs0mg"},{"bike_id":"ab76b94f-0fb7-4f36-b0f1-0ca0e0323d09","system_id":"levelo_inurba_marseille","lat":43.24183,"lon":5.39731,"is_reserved":false,"is_disabled":false,"rental_uris":{"android":"levelo://app?vid=ab76b94f-0fb7-4f36-b0f1-0ca0e0323d09","ios":"levelo://app?vid=ab76b94f-0fb7-4f36-b0f1-0ca0e0323d09"},"vehicle_type_id":"4","last_reported":1751368200,"current_range_meters":4800,"station_id":"ce4bhn12rcd13ifvqgpg","pricing_plan_id":"cebpf4jnsgd1na2vs0mg"},{"bike_id":"a389ebc5-56b0-4917-b510-747c79df78b9","system_id":"levelo_inurba_marseille","lat":43.30316,"lon":5.36905,"is_reserved":false,"is_disabled":false,"rental_uris":{"android":"levelo://app?vid=a389ebc5-56b0-4917-b510-747c79df78b9","ios":"levelo://app?vid=a389ebc5-56b0-4917-b510-747c79df78b9"},"vehicle_type_id":"4","last_reported":1751368200,"current_range_meters":5600,"station_id":"ce4bgqh2rcd13ifvqc5g","pricing_plan_id":"cebpf4jnsgd1na2vs0mg"},{"bike_id":"bae107f8-3378-41ea-9558-d656dab0972d","system_id":"levelo_inurba_marseille","lat":43.23184,"lon":5.39991,"is_reserved":false,"is_disabled":false,"rental_uris":{"android":"levelo://app?vid=bae107f8-3378-41ea-9558-d656dab0972d","ios":"levelo://app?vid=bae107f8-3378-41ea-9558-d656dab0972d"},"vehicle_type_id":"4","last_reported":1751368200,"current_range_meters":5600,"station_id":"ce4bhn12rcd13ifvqgqg","pricing_plan_id":"cebpf4jnsgd1na2vs0mg"},{"bike_id":"162af4e6-d224-4240-aeac-6cb0ae06de53","system_id":"levelo_inurba_marseille","lat":43.29916,"lon":5.37835,"is_reserved":false,"is_disabled":false,"rental_uris":{"android":"levelo://app?vid=162af4e6-d224-4240-aeac-6cb0ae06de53","ios":"levelo://app?vid=162af4e6-d224-4240-aeac-6cb0ae06de53"},"vehicle_type_id":"4","last_reported":1751368200,"current_range_meters":6400,"station_id":"","pricing_plan_id":"cebpf4jnsgd1na2vs0mg"},{"bike_id":"e0f99bda-388a-4ac2-ad87-d25086306761","system_id":"levelo_inurba_marseille","lat":43.27072,"lon":5.42274,"is_reserved":false,"is_disabled":false,"rental_uris":{"android":"levelo://app?vid=e0f99bda-388a-4ac2-ad87-d25086306761","ios":"levelo://app?vid=e0f99bda-388a-4ac2-ad87-d25086306761"},"vehicle_type_id":"4","last_reported":1751368200,"current_range_meters":6400,"station_id":"ce4bhk92rcd13ifvqgb0","pricing_plan_id":"cebpf4jnsgd1na2vs0mg"},{"bike_id":"8aa8d3ec-3a93-426a-a4eb-65bfb8875fbc","system_id":"levelo_inurba_marseille","lat":43.26766,"lon":5.39446,"is_reserved":false,"is_disabled":false,"rental_uris":{"android":"levelo://app?vid=8aa8d3ec-3a93-426a-a4eb-65bfb8875fbc","ios":"levelo://app?vid=8aa8d3ec-3a93-426a-a4eb-65bfb8875fbc"},"vehicle_type_id":"4","last_reported":1751368200,"current_range_meters":6800,"station_id":"","pricing_plan_id":"cebpf4jnsgd1na2vs0mg"},{"bike_id":"44148af5-8aab-489a-b22a-dee5ac03a275","system_id":"levelo_inurba_marseille","lat":43.29789,"lon":5.3811,"is_reserved":false,"is_disabled":false,"rental_uris":{"android":"levelo://app?vid=44148af5-8aab-489a-b22a-dee5ac03a275","ios":"levelo://app?vid=44148af5-8aab-489a-b22a-dee5ac03a275"},"vehicle_type_id":"4","last_reported":1751368200,"current_range_meters":6800,"station_id":"ce4bgip2rcd13ifvqbb0","pricing_plan_id":"cebpf4jnsgd1na2vs0mg"},{"bike_id":"7f626dcb-d15c-4062-90ea-e96e5a2d31ac","system_id":"levelo_inurba_marseille","lat":43.25929,"lon":5.40903,"is_reserved":false,"is_disabled":false,"rental_uris":{"android":"levelo://app?vid=7f626dcb-d15c-4062-90ea-e96e5a2d31ac","ios":"levelo://app?vid=7f626dcb-d15c-4062-90ea-e96e5a2d31ac"},"vehicle_type_id":"4","last_reported":1751368200,"current_range_meters":6800,"station_id":"ce4bhm92rcd13ifvqglg","pricing_plan_id":"cebpf4jnsgd1na2vs0mg"},{"bike_id":"b86a5af6-f375-47e7-8673-5cb9d7440c97","system_id":"levelo_inurba_marseille","lat":43.2956,"lon":5.42295,"is_reserved":false,"is_disabled":false,"rental_uris":{"android":"levelo://app?vid=b86a5af6-f375-47e7-8673-5cb9d7440c97","ios":"levelo://app?vid=b86a5af6-f375-47e7-8673-5cb9d7440c97"},"vehicle_type_id":"4","last_reported":1751368200,"current_range_meters":6800,"station_id":"ce4bhph2rcd13ifvqhdg","pricing_plan_id":"cebpf4jnsgd1na2vs0mg"},{"bike_id":"6e450a7e-4a0d-4da6-9456-76edc7b5989e","system_id":"levelo_inurba_marseille","lat":43.25869,"lon":5.399,"is_reserved":false,"is_disabled":false,"rental_uris":{"android":"levelo://app?vid=6e450a7e-4a0d-4da6-9456-76edc7b5989e","ios":"levelo://app?vid=6e450a7e-4a0d-4da6-9456-76edc7b5989e"},"vehicle_type_id":"4","last_reported":1751368200,"current_range_meters":7200,"station_id":"ce4bhl92rcd13ifvqghg","pricing_plan_id":"cebpf4jnsgd1na2vs0mg"},{"bike_id":"d49a3a66-c26c-4b25-95be-58a1d0b718a6","system_id":"levelo_inurba_marseille","lat":43.231915,"lon":5.39978,"is_reserved":false,"is_disabled":false,"rental_uris":{"android":"levelo://app?vid=d49a3a66-c26c-4b25-95be-58a1d0b718a6","ios":"levelo://app?vid=d49a3a66-c26c-4b25-95be-58a1d0b718a6"},"vehicle_type_id":"4","last_reported":1751368200,"current_range_meters":7200,"station_id":"ce4bhn12rcd13ifvqgqg","pricing_plan_id":"cebpf4jnsgd1na2vs0mg"},{"bike_id":"ae330994-fb10-47c2-8371-1c1e115b4434","system_id":"levelo_inurba_marseille","lat":43.3415,"lon":5.40894,"is_reserved":false,"is_disabled":false,"rental_uris":{"android":"levelo://app?vid=ae330994-fb10-47c2-8371-1c1e115b4434","ios":"levelo://app?vid=ae330994-fb10-47c2-8371-1c1e115b4434"},"vehicle_type_id":"4","last_reported":1751368200,"current_range_meters":7200,"station_id":"ce4bhqh2rcd13ifvqhlg","pricing_plan_id":"cebpf4jnsgd1na2vs0mg"},{"bike_id":"f959e83e-05d5-468e-8e4c-9d40dcf67a53","system_id":"levelo_inurba_marseille","lat":43.28882,"lon":5.37858,"is_reserved":false,"is_disabled":false,"rental_uris":{"android":"levelo://app?vid=f959e83e-05d5-468e-8e4c-9d40dcf67a53","ios":"levelo://app?vid=f959e83e-05d5-468e-8e4c-9d40dcf67a53"},"vehicle_type_id":"4","last_reported":1751368200,"current_range_meters":8000,"station_id":"","pricing_plan_id":"cebpf4jnsgd1na2vs0mg"},{"bike_id":"f5c16f07-bc6f-4121-91a7-5ad90eec4f34","system_id":"levelo_inurba_marseille","lat":43.311939,"lon":5.373402,"is_reserved":false,"is_disabled":false,"rental_uris":{"android":"levelo://app?vid=f5c16f07-bc6f-4121-91a7-5ad90eec4f34","ios":"levelo://app?vid=f5c16f07-bc6f-4121-91a7-5ad90eec4f34"},"vehicle_type_id":"4","last_reported":1751368200,"current_range_meters":8000,"station_id":"","pricing_plan_id":"cebpf4jnsgd1na2vs0mg"},{"bike_id":"4ab1a040-b160-40d9-af50-fe36849a14b9","system_id":"levelo_inurba_marseille","lat":43.28425,"lon":5.34988,"is_reserved":false,"is_disabled":false,"rental_uris":{"android":"levelo://app?vid=4ab1a040-b160-40d9-af50-fe36849a14b9","ios":"levelo://app?vid=4ab1a040-b160-40d9-af50-fe36849a14b9"},"vehicle_type_id":"4","last_reported":1751368200,"current_range_meters":8000,"station_id":"ce4bhbh2rcd13ifvqepg","pricing_plan_id":"cebpf4jnsgd1na2vs0mg"},{"bike_id":"b77137fd-3503-486d-9d73-edcd6b24e07b","system_id":"levelo_inurba_marseille","lat":43.284149,"lon":5.349715,"is_reserved":false,"is_disabled":false,"rental_uris":{"android":"levelo://app?vid=b77137fd-3503-486d-9d73-edcd6b24e07b","ios":"levelo://app?vid=b77137fd-3503-486d-9d73-edcd6b24e07b"},"vehicle_type_id":"4","last_reported":1751368200,"current_range_meters":8000,"station_id":"ce4bhbh2rcd13ifvqepg","pricing_plan_id":"cebpf4jnsgd1na2vs0mg"},{"bike_id":"43fcb430-53f7-4349-b49c-62f8e6ea8db4","system_id":"levelo_inurba_marseille","lat":43.28497,"lon":5.43705,"is_reserved":false,"is_disabled":false,"rental_uris":{"android":"levelo://app?vid=43fcb430-53f7-4349-b49c-62f8e6ea8db4","ios":"levelo://app?vid=43fcb430-53f7-4349-b49c-62f8e6ea8db4"},"vehicle_type_id":"4","last_reported":1751368200,"current_range_meters":8400,"station_id":"","pricing_plan_id":"cebpf4jnsgd1na2vs0mg"},{"bike_id":"b05ac08d-847b-4f20-ac36-038a0d69d167","system_id":"levelo_inurba_marseille","lat":43.2813,"lon":5.35855,"is_reserved":false,"is_disabled":false,"rental_uris":{"android":"levelo://app?vid=b05ac08d-847b-4f20-ac36-038a0d69d167","ios":"levelo://app?vid=b05ac08d-847b-4f20-ac36-038a0d69d167"},"vehicle_type_id":"4","last_reported":1751368200,"current_range_meters":8400,"station_id":"","pricing_plan_id":"cebpf4jnsgd1na2vs0mg"},{"bike_id":"924ec9cc-2aab-4572-8f2a-07e223c81505","system_id":"levelo_inurba_marseille","lat":43.29314,"lon":5.37459,"is_reserved":false,"is_disabled":false,"rental_uris":{"android":"levelo://app?vid=924ec9cc-2aab-4572-8f2a-07e223c81505","ios":"levelo://app?vid=924ec9cc-2aab-4572-8f2a-07e223c81505"},"vehicle_type_id":"4","last_reported":1751368200,"current_range_meters":8400,"station_id":"ce4bgi12rcd13ifvqb70","pricing_plan_id":"cebpf4jnsgd1na2vs0mg"},{"bike_id":"f86b4f34-3d91-437b-b034-c5373137158c","system_id":"levelo_inurba_marseille","lat":43.29529,"lon":5.38537,"is_reserved":false,"is_disabled":false,"rental_uris":{"android":"levelo://app?vid=f86b4f34-3d91-437b-b034-c5373137158c","ios":"levelo://app?vid=f86b4f34-3d91-437b-b034-c5373137158c"},"vehicle_type_id":"4","last_reported":1751368200,"current_range_meters":8400,"station_id":"ce4bgih2rcd13ifvqba0","pricing_plan_id":"cebpf4jnsgd1na2vs0mg"},{"bike_id":"cdfc84a9-b0a0-4927-894a-2a7a42f84b2b","system_id":"levelo_inurba_marseille","lat":43.308014,"lon":5.381522,"is_reserved":false,"is_disabled":false,"rental_uris":{"android":"levelo://app?vid=cdfc84a9-b0a0-4927-894a-2a7a42f84b2b","ios":"levelo://app?vid=cdfc84a9-b0a0-4927-894a-2a7a42f84b2b"},"vehicle_type_id":"4","last_reported":1751368200,"current_range_meters":8800,"station_id":"ce4bgt12rcd13ifvqce0","pricing_plan_id":"cebpf4jnsgd1na2vs0mg"},{"bike_id":"07d7a8f0-27e6-4873-8743-cc9e967095a6","system_id":"levelo_inurba_marseille","lat":43.21193,"lon":5.35072,"is_reserved":false,"is_disabled":false,"rental_uris":{"android":"levelo://app?vid=07d7a8f0-27e6-4873-8743-cc9e967095a6","ios":"levelo://app?vid=07d7a8f0-27e6-4873-8743-cc9e967095a6"},"vehicle_type_id":"4","last_reported":1751368200,"current_range_meters":8800,"station_id":"st_cvj6sg6p6f1abm77japg","pricing_plan_id":"cebpf4jnsgd1na2vs0mg"},{"bike_id":"c13c93ac-6b62-443c-9e36-caf61b27325a","system_id":"levelo_inurba_marseille","lat":43.212083,"lon":5.350351,"is_reserved":false,"is_disabled":false,"rental_uris":{"android":"levelo://app?vid=c13c93ac-6b62-443c-9e36-caf61b27325a","ios":"levelo://app?vid=c13c93ac-6b62-443c-9e36-caf61b27325a"},"vehicle_type_id":"4","last_reported":1751368200,"current_range_meters":9200,"station_id":"","pricing_plan_id":"cebpf4jnsgd1na2vs0mg"},{"bike_id":"f578804e-f00d-46c3-a6c3-1f1cc21cce0a","system_id":"levelo_inurba_marseille","lat":43.29516,"lon":5.37514,"is_reserved":false,"is_disabled":false,"rental_uris":{"android":"levelo://app?vid=f578804e-f00d-46c3-a6c3-1f1cc21cce0a","ios":"levelo://app?vid=f578804e-f00d-46c3-a6c3-1f1cc21cce0a"},"vehicle_type_id":"4","last_reported":1751368200,"current_range_meters":9200,"station_id":"ce4bgkp2rcd13ifvqbmg","pricing_plan_id":"cebpf4jnsgd1na2vs0mg"},{"bike_id":"ca87a89e-8519-4e2a-a15c-83576d85053c","system_id":"levelo_inurba_marseille","lat":43.31087,"lon":5.4243,"is_reserved":false,"is_disabled":false,"rental_uris":{"android":"levelo://app?vid=ca87a89e-8519-4e2a-a15c-83576d85053c","ios":"levelo://app?vid=ca87a89e-8519-4e2a-a15c-83576d85053c"},"vehicle_type_id":"4","last_reported":1751368200,"current_range_meters":9200,"station_id":"ce4bhp92rcd13ifvqhag","pricing_plan_id":"cebpf4jnsgd1na2vs0mg"},{"bike_id":"f8b8780c-d988-4647-8be5-b57ec40b7c3b","system_id":"levelo_inurba_marseille","lat":43.26936,"lon":5.40263,"is_reserved":false,"is_disabled":false,"rental_uris":{"android":"levelo://app?vid=f8b8780c-d988-4647-8be5-b57ec40b7c3b","ios":"levelo://app?vid=f8b8780c-d988-4647-8be5-b57ec40b7c3b"},"vehicle_type_id":"4","last_reported":1751368200,"current_range_meters":9200,"station_id":"cjm6bp8fraef2m0cb0m0","pricing_plan_id":"cebpf4jnsgd1na2vs0mg"},{"bike_id":"7b34be95-0825-4418-944f-2a045efc80e5","system_id":"levelo_inurba_marseille","lat":43.21747,"lon":5.346051,"is_reserved":false,"is_disabled":false,"rental_uris":{"android":"levelo://app?vid=7b34be95-0825-4418-944f-2a045efc80e5","ios":"levelo://app?vid=7b34be95-0825-4418-944f-2a045efc80e5"},"vehicle_type_id":"4","last_reported":1751368200,"current_range_meters":9200,"station_id":"st_cvj6r9ubvosntc0bgbag","pricing_plan_id":"cebpf4jnsgd1na2vs0mg"},{"bike_id":"860ecc02-a6d5-4fbe-ada6-b9197deada15","system_id":"levelo_inurba_marseille","lat":43.325524,"lon":5.389268,"is_reserved":false,"is_disabled":false,"rental_uris":{"android":"levelo://app?vid=860ecc02-a6d5-4fbe-ada6-b9197deada15","ios":"levelo://app?vid=860ecc02-a6d5-4fbe-ada6-b9197deada15"},"vehicle_type_id":"4","last_reported":1751368200,"current_range_meters":9600,"station_id":"","pricing_plan_id":"cebpf4jnsgd1na2vs0mg"},{"bike_id":"3314b5c7-a801-42ca-adef-f197378e1465","system_id":"levelo_inurba_marseille","lat":43.296,"lon":5.38103,"is_reserved":false,"is_disabled":false,"rental_uris":{"android":"levelo://app?vid=3314b5c7-a801-42ca-adef-f197378e1465","ios":"levelo://app?vid=3314b5c7-a801-42ca-adef-f197378e1465"},"vehicle_type_id":"4","last_reported":1751368200,"current_range_meters":9600,"station_id":"ce4bgl12rcd13ifvqbo0","pricing_plan_id":"cebpf4jnsgd1na2vs0mg"},{"bike_id":"aaa86ae1-c78c-464a-bdfd-dbc6011e50c4","system_id":"levelo_inurba_marseille","lat":43.31369,"lon":5.36739,"is_reserved":false,"is_disabled":false,"rental_uris":{"android":"levelo://app?vid=aaa86ae1-c78c-464a-bdfd-dbc6011e50c4","ios":"levelo://app?vid=aaa86ae1-c78c-464a-bdfd-dbc6011e50c4"},"vehicle_type_id":"4","last_reported":1751368200,"current_range_meters":9600,"station_id":"ce4bgr92rcd13ifvqc6g","pricing_plan_id":"cebpf4jnsgd1na2vs0mg"},{"bike_id":"a7808295-9c2f-4dc1-920f-96cf7ef82237","system_id":"levelo_inurba_marseille","lat":43.27421,"lon":5.39416,"is_reserved":false,"is_disabled":false,"rental_uris":{"android":"levelo://app?vid=a7808295-9c2f-4dc1-920f-96cf7ef82237","ios":"levelo://app?vid=a7808295-9c2f-4dc1-920f-96cf7ef82237"},"vehicle_type_id":"4","last_reported":1751368200,"current_range_meters":9600,"station_id":"ce4bhdp2rcd13ifvqf20","pricing_plan_id":"cebpf4jnsgd1na2vs0mg"},{"bike_id":"8252b44a-d048-4379-9209-2efa2e627825","system_id":"levelo_inurba_marseille","lat":43.29234,"lon":5.40571,"is_reserved":false,"is_disabled":false,"rental_uris":{"android":"levelo://app?vid=8252b44a-d048-4379-9209-2efa2e627825","ios":"levelo://app?vid=8252b44a-d048-4379-9209-2efa2e627825"},"vehicle_type_id":"4","last_reported":1751368200,"current_range_meters":10000,"station_id":"","pricing_plan_id":"cebpf4jnsgd1na2vs0mg"},{"bike_id":"9d923866-038b-46a1-ab6f-54616d148d08","system_id":"levelo_inurba_marseille","lat":43.28724,"lon":5.37934,"is_reserved":false,"is_disabled":false,"rental_uris":{"android":"levelo://app?vid=9d923866-038b-46a1-ab6f-54616d148d08","ios":"levelo://app?vid=9d923866-038b-46a1-ab6f-54616d148d08"},"vehicle_type_id":"4","last_reported":1751368200,"current_range_meters":10000,"station_id":"ce4bh9p2rcd13ifvqec0","pricing_plan_id":"cebpf4jnsgd1na2vs0mg"},{"bike_id":"6b04a8db-f012-4ea9-88f5-d59ff3f24fd9","system_id":"levelo_inurba_marseille","lat":43.299028,"lon":5.436477,"is_reserved":false,"is_disabled":false,"rental_uris":{"android":"levelo://app?vid=6b04a8db-f012-4ea9-88f5-d59ff3f24fd9","ios":"levelo://app?vid=6b04a8db-f012-4ea9-88f5-d59ff3f24fd9"},"vehicle_type_id":"4","last_reported":1751368200,"current_range_meters":10000,"station_id":"ce4bhpp2rcd13ifvqhfg","pricing_plan_id":"cebpf4jnsgd1na2vs0mg"},{"bike_id":"56536789-5ce0-4e42-a12f-cd59fccbc66d","system_id":"levelo_inurba_marseille","lat":43.32109,"lon":5.36767,"is_reserved":false,"is_disabled":false,"rental_uris":{"android":"levelo://app?vid=56536789-5ce0-4e42-a12f-cd59fccbc66d","ios":"levelo://app?vid=56536789-5ce0-4e42-a12f-cd59fccbc66d"},"vehicle_type_id":"4","last_reported":1751368200,"current_range_meters":10000,"station_id":"ce4bhrh2rcd13ifvqhug","pricing_plan_id":"cebpf4jnsgd1na2vs0mg"},{"bike_id":"ac4cf6bf-ae0d-49a1-afc8-485ee29ed51b","system_id":"levelo_inurba_marseille","lat":43.27267,"lon":5.41163,"is_reserved":false,"is_disabled":false,"rental_uris":{"android":"levelo://app?vid=ac4cf6bf-ae0d-49a1-afc8-485ee29ed51b","ios":"levelo://app?vid=ac4cf6bf-ae0d-49a1-afc8-485ee29ed51b"},"vehicle_type_id":"4","last_reported":1751368200,"current_range_meters":10800,"station_id":"","pricing_plan_id":"cebpf4jnsgd1na2vs0mg"},{"bike_id":"dcf3c2ba-3c84-4dfd-b368-f97c59b48ffa","system_id":"levelo_inurba_marseille","lat":43.29276,"lon":5.4013,"is_reserved":false,"is_disabled":false,"rental_uris":{"android":"levelo://app?vid=dcf3c2ba-3c84-4dfd-b368-f97c59b48ffa","ios":"levelo://app?vid=dcf3c2ba-3c84-4dfd-b368-f97c59b48ffa"},"vehicle_type_id":"4","last_reported":1751368200,"current_range_meters":10800,"station_id":"ce4bh312rcd13ifvqdk0","pricing_plan_id":"cebpf4jnsgd1na2vs0mg"},{"bike_id":"7add1345-ded7-4650-b325-41b8d42f8b00","system_id":"levelo_inurba_marseille","lat":43.29011,"lon":5.35606,"is_reserved":false,"is_disabled":false,"rental_uris":{"android":"levelo://app?vid=7add1345-ded7-4650-b325-41b8d42f8b00","ios":"levelo://app?vid=7add1345-ded7-4650-b325-41b8d42f8b00"},"vehicle_type_id":"4","last_reported":1751368200,"current_range_meters":10800,"station_id":"ce4bhb92rcd13ifvqen0","pricing_plan_id":"cebpf4jnsgd1na2vs0mg"},{"bike_id":"b2ec7371-4e1a-4f7b-ae6c-60c5a54c237b","system_id":"levelo_inurba_marseille","lat":43.211956,"lon":5.350672,"is_reserved":false,"is_disabled":false,"rental_uris":{"android":"levelo://app?vid=b2ec7371-4e1a-4f7b-ae6c-60c5a54c237b","ios":"levelo://app?vid=b2ec7371-4e1a-4f7b-ae6c-60c5a54c237b"},"vehicle_type_id":"4","last_reported":1751368200,"current_range_meters":10800,"station_id":"st_cvj6sg6p6f1abm77japg","pricing_plan_id":"cebpf4jnsgd1na2vs0mg"},{"bike_id":"fae8750a-3517-4e5e-b5b1-c3c0fc426c61","system_id":"levelo_inurba_marseille","lat":43.29969,"lon":5.38512,"is_reserved":false,"is_disabled":false,"rental_uris":{"android":"levelo://app?vid=fae8750a-3517-4e5e-b5b1-c3c0fc426c61","ios":"levelo://app?vid=fae8750a-3517-4e5e-b5b1-c3c0fc426c61"},"vehicle_type_id":"4","last_reported":1751368200,"current_range_meters":11200,"station_id":"ce4bgj92rcd13ifvqbd0","pricing_plan_id":"cebpf4jnsgd1na2vs0mg"},{"bike_id":"a28c59f5-fce1-481a-bcff-87b69ba3d8a2","system_id":"levelo_inurba_marseille","lat":43.3032,"lon":5.36939,"is_reserved":false,"is_disabled":false,"rental_uris":{"android":"levelo://app?vid=a28c59f5-fce1-481a-bcff-87b69ba3d8a2","ios":"levelo://app?vid=a28c59f5-fce1-481a-bcff-87b69ba3d8a2"},"vehicle_type_id":"4","last_reported":1751368200,"current_range_meters":11600,"station_id":"ce4bgqh2rcd13ifvqc5g","pricing_plan_id":"cebpf4jnsgd1na2vs0mg"},{"bike_id":"795b2733-8c5b-402b-a65f-7f4c27073c48","system_id":"levelo_inurba_marseille","lat":43.26782,"lon":5.39414,"is_reserved":false,"is_disabled":false,"rental_uris":{"android":"levelo://app?vid=795b2733-8c5b-402b-a65f-7f4c27073c48","ios":"levelo://app?vid=795b2733-8c5b-402b-a65f-7f4c27073c48"},"vehicle_type_id":"4","last_reported":1751368200,"current_range_meters":11600,"station_id":"ce4bhh12rcd13ifvqfg0","pricing_plan_id":"cebpf4jnsgd1na2vs0mg"},{"bike_id":"6bae0a7e-4447-4d70-9061-3ae55169090d","system_id":"levelo_inurba_marseille","lat":43.27071,"lon":5.42277,"is_reserved":false,"is_disabled":false,"rental_uris":{"android":"levelo://app?vid=6bae0a7e-4447-4d70-9061-3ae55169090d","ios":"levelo://app?vid=6bae0a7e-4447-4d70-9061-3ae55169090d"},"vehicle_type_id":"4","last_reported":1751368200,"current_range_meters":11600,"station_id":"ce4bhk92rcd13ifvqgb0","pricing_plan_id":"cebpf4jnsgd1na2vs0mg"},{"bike_id":"43eb0a95-a42b-4fb1-afa6-904af12c6e74","system_id":"levelo_inurba_marseille","lat":43.25727,"lon":5.41095,"is_reserved":false,"is_disabled":false,"rental_uris":{"android":"levelo://app?vid=43eb0a95-a42b-4fb1-afa6-904af12c6e74","ios":"levelo://app?vid=43eb0a95-a42b-4fb1-afa6-904af12c6e74"},"vehicle_type_id":"4","last_reported":1751368200,"current_range_meters":11600,"station_id":"ce4bhkp2rcd13ifvqgd0","pricing_plan_id":"cebpf4jnsgd1na2vs0mg"},{"bike_id":"30b493b6-e210-4525-b97a-f2edfbe0e09c","system_id":"levelo_inurba_marseille","lat":43.30784,"lon":5.37654,"is_reserved":false,"is_disabled":false,"rental_uris":{"android":"levelo://app?vid=30b493b6-e210-4525-b97a-f2edfbe0e09c","ios":"levelo://app?vid=30b493b6-e210-4525-b97a-f2edfbe0e09c"},"vehicle_type_id":"4","last_reported":1751368200,"current_range_meters":12000,"station_id":"ce4bgv92rcd13ifvqcq0","pricing_plan_id":"cebpf4jnsgd1na2vs0mg"},{"bike_id":"35ffbc38-886a-4681-838f-65acf1f71300","system_id":"levelo_inurba_marseille","lat":43.28418,"lon":5.34978,"is_reserved":false,"is_disabled":false,"rental_uris":{"android":"levelo://app?vid=35ffbc38-886a-4681-838f-65acf1f71300","ios":"levelo://app?vid=35ffbc38-886a-4681-838f-65acf1f71300"},"vehicle_type_id":"4","last_reported":1751368200,"current_range_meters":12000,"station_id":"ce4bhbh2rcd13ifvqepg","pricing_plan_id":"cebpf4jnsgd1na2vs0mg"},{"bike_id":"eacdff40-ffca-4f3c-a901-6126fddc1b4d","system_id":"levelo_inurba_marseille","lat":43.27382,"lon":5.3625,"is_reserved":false,"is_disabled":false,"rental_uris":{"android":"levelo://app?vid=eacdff40-ffca-4f3c-a901-6126fddc1b4d","ios":"levelo://app?vid=eacdff40-ffca-4f3c-a901-6126fddc1b4d"},"vehicle_type_id":"4","last_reported":1751368200,"current_range_meters":12400,"station_id":"ce4bhbh2rcd13ifvqeo0","pricing_plan_id":"cebpf4jnsgd1na2vs0mg"},{"bike_id":"81f992a9-cae1-4d6e-9c4c-cba00bcbe721","system_id":"levelo_inurba_marseille","lat":43.257217,"lon":5.411077,"is_reserved":false,"is_disabled":false,"rental_uris":{"android":"levelo://app?vid=81f992a9-cae1-4d6e-9c4c-cba00bcbe721","ios":"levelo://app?vid=81f992a9-cae1-4d6e-9c4c-cba00bcbe721"},"vehicle_type_id":"4","last_reported":1751368200,"current_range_meters":12400,"station_id":"ce4bhkp2rcd13ifvqgd0","pricing_plan_id":"cebpf4jnsgd1na2vs0mg"},{"bike_id":"addfbcf0-ac26-4441-903b-64fd1d87165a","system_id":"levelo_inurba_marseille","lat":43.240692,"lon":5.377484,"is_reserved":false,"is_disabled":false,"rental_uris":{"android":"levelo://app?vid=addfbcf0-ac26-4441-903b-64fd1d87165a","ios":"levelo://app?vid=addfbcf0-ac26-4441-903b-64fd1d87165a"},"vehicle_type_id":"4","last_reported":1751368200,"current_range_meters":12400,"station_id":"ce4bhnp2rcd13ifvqgvg","pricing_plan_id":"cebpf4jnsgd1na2vs0mg"},{"bike_id":"45bed71d-6d29-4c4d-a082-fc8d93f4f3b6","system_id":"levelo_inurba_marseille","lat":43.290458,"lon":5.399602,"is_reserved":false,"is_disabled":false,"rental_uris":{"android":"levelo://app?vid=45bed71d-6d29-4c4d-a082-fc8d93f4f3b6","ios":"levelo://app?vid=45bed71d-6d29-4c4d-a082-fc8d93f4f3b6"},"vehicle_type_id":"4","last_reported":1751368200,"current_range_meters":12800,"station_id":"ce4bh392rcd13ifvqdm0","pricing_plan_id":"cebpf4jnsgd1na2vs0mg"},{"bike_id":"2d23d3a7-6cbc-4df4-9886-018b3c43e0d9","system_id":"levelo_inurba_marseille","lat":43.22933,"lon":5.35374,"is_reserved":false,"is_disabled":false,"rental_uris":{"android":"levelo://app?vid=2d23d3a7-6cbc-4df4-9886-018b3c43e0d9","ios":"levelo://app?vid=2d23d3a7-6cbc-4df4-9886-018b3c43e0d9"},"vehicle_type_id":"4","last_reported":1751368200,"current_range_meters":12800,"station_id":"cpo3532slgdg3j2ikp40","pricing_plan_id":"cebpf4jnsgd1na2vs0mg"},{"bike_id":"b28aa0a0-791c-4a08-9a16-c7bf6ea0ed5a","system_id":"levelo_inurba_marseille","lat":43.22524,"lon":5.3478,"is_reserved":false,"is_disabled":false,"rental_uris":{"android":"levelo://app?vid=b28aa0a0-791c-4a08-9a16-c7bf6ea0ed5a","ios":"levelo://app?vid=b28aa0a0-791c-4a08-9a16-c7bf6ea0ed5a"},"vehicle_type_id":"4","last_reported":1751368200,"current_range_meters":12800,"station_id":"st_cvj5dfep6f1abm77gieg","pricing_plan_id":"cebpf4jnsgd1na2vs0mg"},{"bike_id":"e552832c-7ca2-4106-b0f9-92bbabda27d1","system_id":"levelo_inurba_marseille","lat":43.211898,"lon":5.350663,"is_reserved":false,"is_disabled":false,"rental_uris":{"android":"levelo://app?vid=e552832c-7ca2-4106-b0f9-92bbabda27d1","ios":"levelo://app?vid=e552832c-7ca2-4106-b0f9-92bbabda27d1"},"vehicle_type_id":"4","last_reported":1751368200,"current_range_meters":12800,"station_id":"st_cvj6sg6p6f1abm77japg","pricing_plan_id":"cebpf4jnsgd1na2vs0mg"},{"bike_id":"750f5cfa-157e-4240-9a5f-3afe50c900ac","system_id":"levelo_inurba_marseille","lat":43.25712,"lon":5.41849,"is_reserved":false,"is_disabled":false,"rental_uris":{"android":"levelo://app?vid=750f5cfa-157e-4240-9a5f-3afe50c900ac","ios":"levelo://app?vid=750f5cfa-157e-4240-9a5f-3afe50c900ac"},"vehicle_type_id":"4","last_reported":1751368200,"current_range_meters":13600,"station_id":"","pricing_plan_id":"cebpf4jnsgd1na2vs0mg"},{"bike_id":"8757932e-1812-4d79-a709-a08cf6f79851","system_id":"levelo_inurba_marseille","lat":43.28164,"lon":5.35125,"is_reserved":false,"is_disabled":false,"rental_uris":{"android":"levelo://app?vid=8757932e-1812-4d79-a709-a08cf6f79851","ios":"levelo://app?vid=8757932e-1812-4d79-a709-a08cf6f79851"},"vehicle_type_id":"4","last_reported":1751368200,"current_range_meters":13600,"station_id":"","pricing_plan_id":"cebpf4jnsgd1na2vs0mg"},{"bike_id":"c2b72fe0-bae6-4c7b-ad48-9e771b203dc8","system_id":"levelo_inurba_marseille","lat":43.313553,"lon":5.384628,"is_reserved":false,"is_disabled":false,"rental_uris":{"android":"levelo://app?vid=c2b72fe0-bae6-4c7b-ad48-9e771b203dc8","ios":"levelo://app?vid=c2b72fe0-bae6-4c7b-ad48-9e771b203dc8"},"vehicle_type_id":"4","last_reported":1751368200,"current_range_meters":13600,"station_id":"ce4bgt92rcd13ifvqcf0","pricing_plan_id":"cebpf4jnsgd1na2vs0mg"},{"bike_id":"afa4af68-5dcc-4aa4-a2fc-15534037ab4e","system_id":"levelo_inurba_marseille","lat":43.29006,"lon":5.35606,"is_reserved":false,"is_disabled":false,"rental_uris":{"android":"levelo://app?vid=afa4af68-5dcc-4aa4-a2fc-15534037ab4e","ios":"levelo://app?vid=afa4af68-5dcc-4aa4-a2fc-15534037ab4e"},"vehicle_type_id":"4","last_reported":1751368200,"current_range_meters":13600,"station_id":"ce4bhb92rcd13ifvqen0","pricing_plan_id":"cebpf4jnsgd1na2vs0mg"},{"bike_id":"729ed812-0359-471a-af11-52b1bfb49aef","system_id":"levelo_inurba_marseille","lat":43.28425,"lon":5.34993,"is_reserved":false,"is_disabled":false,"rental_uris":{"android":"levelo://app?vid=729ed812-0359-471a-af11-52b1bfb49aef","ios":"levelo://app?vid=729ed812-0359-471a-af11-52b1bfb49aef"},"vehicle_type_id":"4","last_reported":1751368200,"current_range_meters":13600,"station_id":"ce4bhbh2rcd13ifvqepg","pricing_plan_id":"cebpf4jnsgd1na2vs0mg"},{"bike_id":"7305802a-3207-4482-bade-efd17ef36e77","system_id":"levelo_inurba_marseille","lat":43.282684,"lon":5.350499,"is_reserved":false,"is_disabled":false,"rental_uris":{"android":"levelo://app?vid=7305802a-3207-4482-bade-efd17ef36e77","ios":"levelo://app?vid=7305802a-3207-4482-bade-efd17ef36e77"},"vehicle_type_id":"4","last_reported":1751368200,"current_range_meters":13600,"station_id":"ce4bhbp2rcd13ifvqerg","pricing_plan_id":"cebpf4jnsgd1na2vs0mg"},{"bike_id":"6e566adb-baf1-4cfa-a7ba-dd4e8927a205","system_id":"levelo_inurba_marseille","lat":43.24165,"lon":5.36408,"is_reserved":false,"is_disabled":false,"rental_uris":{"android":"levelo://app?vid=6e566adb-baf1-4cfa-a7ba-dd4e8927a205","ios":"levelo://app?vid=6e566adb-baf1-4cfa-a7ba-dd4e8927a205"},"vehicle_type_id":"4","last_reported":1751368200,"current_range_meters":13600,"station_id":"cpo36qri1sfpv3e86is0","pricing_plan_id":"cebpf4jnsgd1na2vs0mg"},{"bike_id":"26f7ed1c-34db-4c44-930c-48bf047adf5f","system_id":"levelo_inurba_marseille","lat":43.24163,"lon":5.36401,"is_reserved":false,"is_disabled":false,"rental_uris":{"android":"levelo://app?vid=26f7ed1c-34db-4c44-930c-48bf047adf5f","ios":"levelo://app?vid=26f7ed1c-34db-4c44-930c-48bf047adf5f"},"vehicle_type_id":"4","last_reported":1751368200,"current_range_meters":13600,"station_id":"cpo36qri1sfpv3e86is0","pricing_plan_id":"cebpf4jnsgd1na2vs0mg"},{"bike_id":"5631c7ea-fb56-4ee9-8df0-6e0aa2f0ff30","system_id":"levelo_inurba_marseille","lat":43.24171,"lon":5.363988,"is_reserved":false,"is_disabled":false,"rental_uris":{"android":"levelo://app?vid=5631c7ea-fb56-4ee9-8df0-6e0aa2f0ff30","ios":"levelo://app?vid=5631c7ea-fb56-4ee9-8df0-6e0aa2f0ff30"},"vehicle_type_id":"4","last_reported":1751368200,"current_range_meters":13600,"station_id":"cpo36qri1sfpv3e86is0","pricing_plan_id":"cebpf4jnsgd1na2vs0mg"},{"bike_id":"cdd3de05-2c13-4ef0-a3b4-447a714378bc","system_id":"levelo_inurba_marseille","lat":43.337444,"lon":5.374475,"is_reserved":false,"is_disabled":false,"rental_uris":{"android":"levelo://app?vid=cdd3de05-2c13-4ef0-a3b4-447a714378bc","ios":"levelo://app?vid=cdd3de05-2c13-4ef0-a3b4-447a714378bc"},"vehicle_type_id":"4","last_reported":1751368200,"current_range_meters":14000,"station_id":"","pricing_plan_id":"cebpf4jnsgd1na2vs0mg"},{"bike_id":"6e5ea31c-b32c-4f2d-bbf7-c9af41dfb95c","system_id":"levelo_inurba_marseille","lat":43.290238,"lon":5.386543,"is_reserved":false,"is_disabled":false,"rental_uris":{"android":"levelo://app?vid=6e5ea31c-b32c-4f2d-bbf7-c9af41dfb95c","ios":"levelo://app?vid=6e5ea31c-b32c-4f2d-bbf7-c9af41dfb95c"},"vehicle_type_id":"4","last_reported":1751368200,"current_range_meters":14000,"station_id":"ce4bh4p2rcd13ifvqe0g","pricing_plan_id":"cebpf4jnsgd1na2vs0mg"},{"bike_id":"72cd2bcd-cb46-494b-9299-cf4fdeef51ba","system_id":"levelo_inurba_marseille","lat":43.24657,"lon":5.38892,"is_reserved":false,"is_disabled":false,"rental_uris":{"android":"levelo://app?vid=72cd2bcd-cb46-494b-9299-cf4fdeef51ba","ios":"levelo://app?vid=72cd2bcd-cb46-494b-9299-cf4fdeef51ba"},"vehicle_type_id":"4","last_reported":1751368200,"current_range_meters":14000,"station_id":"ce4bhg12rcd13ifvqf60","pricing_plan_id":"cebpf4jnsgd1na2vs0mg"},{"bike_id":"d9e063b5-84e6-4a6b-8ba5-606ac511cadd","system_id":"levelo_inurba_marseille","lat":43.32487,"lon":5.36578,"is_reserved":false,"is_disabled":false,"rental_uris":{"android":"levelo://app?vid=d9e063b5-84e6-4a6b-8ba5-606ac511cadd","ios":"levelo://app?vid=d9e063b5-84e6-4a6b-8ba5-606ac511cadd"},"vehicle_type_id":"4","last_reported":1751368200,"current_range_meters":14000,"station_id":"ce4bhs12rcd13ifvqhvg","pricing_plan_id":"cebpf4jnsgd1na2vs0mg"},{"bike_id":"295f9591-b6c5-46f0-9b69-80ae277a747d","system_id":"levelo_inurba_marseille","lat":43.23193,"lon":5.35554,"is_reserved":false,"is_disabled":false,"rental_uris":{"android":"levelo://app?vid=295f9591-b6c5-46f0-9b69-80ae277a747d","ios":"levelo://app?vid=295f9591-b6c5-46f0-9b69-80ae277a747d"},"vehicle_type_id":"4","last_reported":1751368200,"current_range_meters":14000,"station_id":"ce4bhu92rcd13ifvqi70","pricing_plan_id":"cebpf4jnsgd1na2vs0mg"},{"bike_id":"859b6cf6-411c-4a6e-b2f1-d5866da46ff7","system_id":"levelo_inurba_marseille","lat":43.24165,"lon":5.36401,"is_reserved":false,"is_disabled":false,"rental_uris":{"android":"levelo://app?vid=859b6cf6-411c-4a6e-b2f1-d5866da46ff7","ios":"levelo://app?vid=859b6cf6-411c-4a6e-b2f1-d5866da46ff7"},"vehicle_type_id":"4","last_reported":1751368200,"current_range_meters":14000,"station_id":"cpo36qri1sfpv3e86is0","pricing_plan_id":"cebpf4jnsgd1na2vs0mg"},{"bike_id":"1d5cbd35-15eb-4ea9-b7f3-856d427e98e1","system_id":"levelo_inurba_marseille","lat":43.30433,"lon":5.38884,"is_reserved":false,"is_disabled":false,"rental_uris":{"android":"levelo://app?vid=1d5cbd35-15eb-4ea9-b7f3-856d427e98e1","ios":"levelo://app?vid=1d5cbd35-15eb-4ea9-b7f3-856d427e98e1"},"vehicle_type_id":"4","last_reported":1751368200,"current_range_meters":14400,"station_id":"ce4bgk12rcd13ifvqbi0","pricing_plan_id":"cebpf4jnsgd1na2vs0mg"},{"bike_id":"286bfd05-32cc-44bf-97ab-4b897121835e","system_id":"levelo_inurba_marseille","lat":43.25117,"lon":5.40315,"is_reserved":false,"is_disabled":false,"rental_uris":{"android":"levelo://app?vid=286bfd05-32cc-44bf-97ab-4b897121835e","ios":"levelo://app?vid=286bfd05-32cc-44bf-97ab-4b897121835e"},"vehicle_type_id":"4","last_reported":1751368200,"current_range_meters":14400,"station_id":"ce4bhlh2rcd13ifvqgig","pricing_plan_id":"cebpf4jnsgd1na2vs0mg"},{"bike_id":"53cf1b8c-d56f-41f7-98a6-e7b4a07c29bb","system_id":"levelo_inurba_marseille","lat":43.23142,"lon":5.43719,"is_reserved":false,"is_disabled":false,"rental_uris":{"android":"levelo://app?vid=53cf1b8c-d56f-41f7-98a6-e7b4a07c29bb","ios":"levelo://app?vid=53cf1b8c-d56f-41f7-98a6-e7b4a07c29bb"},"vehicle_type_id":"4","last_reported":1751368200,"current_range_meters":14400,"station_id":"ce4bhmp2rcd13ifvqgog","pricing_plan_id":"cebpf4jnsgd1na2vs0mg"},{"bike_id":"e1b3ade4-4952-4644-a7de-ea587df0ba4a","system_id":"levelo_inurba_marseille","lat":43.24165,"lon":5.36393,"is_reserved":false,"is_disabled":false,"rental_uris":{"android":"levelo://app?vid=e1b3ade4-4952-4644-a7de-ea587df0ba4a","ios":"levelo://app?vid=e1b3ade4-4952-4644-a7de-ea587df0ba4a"},"vehicle_type_id":"4","last_reported":1751368200,"current_range_meters":14400,"station_id":"cpo36qri1sfpv3e86is0","pricing_plan_id":"cebpf4jnsgd1na2vs0mg"},{"bike_id":"28225780-6c00-4435-8cde-b501bd568f8b","system_id":"levelo_inurba_marseille","lat":43.21754,"lon":5.34601,"is_reserved":false,"is_disabled":false,"rental_uris":{"android":"levelo://app?vid=28225780-6c00-4435-8cde-b501bd568f8b","ios":"levelo://app?vid=28225780-6c00-4435-8cde-b501bd568f8b"},"vehicle_type_id":"4","last_reported":1751368200,"current_range_meters":14400,"station_id":"st_cvj6r9ubvosntc0bgbag","pricing_plan_id":"cebpf4jnsgd1na2vs0mg"},{"bike_id":"27c77a81-e237-479a-84d3-496b6e8c0dc7","system_id":"levelo_inurba_marseille","lat":43.21195,"lon":5.35057,"is_reserved":false,"is_disabled":false,"rental_uris":{"android":"levelo://app?vid=27c77a81-e237-479a-84d3-496b6e8c0dc7","ios":"levelo://app?vid=27c77a81-e237-479a-84d3-496b6e8c0dc7"},"vehicle_type_id":"4","last_reported":1751368200,"current_range_meters":14400,"station_id":"st_cvj6sg6p6f1abm77japg","pricing_plan_id":"cebpf4jnsgd1na2vs0mg"},{"bike_id":"3f50d751-6bdc-4e25-aea7-b356d8579196","system_id":"levelo_inurba_marseille","lat":43.22938,"lon":5.4026,"is_reserved":false,"is_disabled":false,"rental_uris":{"android":"levelo://app?vid=3f50d751-6bdc-4e25-aea7-b356d8579196","ios":"levelo://app?vid=3f50d751-6bdc-4e25-aea7-b356d8579196"},"vehicle_type_id":"4","last_reported":1751368200,"current_range_meters":14800,"station_id":"","pricing_plan_id":"cebpf4jnsgd1na2vs0mg"},{"bike_id":"d6b832f1-2e70-4291-98e5-70583247b5e8","system_id":"levelo_inurba_marseille","lat":43.29923,"lon":5.38151,"is_reserved":false,"is_disabled":false,"rental_uris":{"android":"levelo://app?vid=d6b832f1-2e70-4291-98e5-70583247b5e8","ios":"levelo://app?vid=d6b832f1-2e70-4291-98e5-70583247b5e8"},"vehicle_type_id":"4","last_reported":1751368200,"current_range_meters":14800,"station_id":"ce4bgj12rcd13ifvqbc0","pricing_plan_id":"cebpf4jnsgd1na2vs0mg"},{"bike_id":"4317cafa-13f4-47ba-b95c-7d489de07afe","system_id":"levelo_inurba_marseille","lat":43.29002,"lon":5.35613,"is_reserved":false,"is_disabled":false,"rental_uris":{"android":"levelo://app?vid=4317cafa-13f4-47ba-b95c-7d489de07afe","ios":"levelo://app?vid=4317cafa-13f4-47ba-b95c-7d489de07afe"},"vehicle_type_id":"4","last_reported":1751368200,"current_range_meters":14800,"station_id":"ce4bhb92rcd13ifvqen0","pricing_plan_id":"cebpf4jnsgd1na2vs0mg"},{"bike_id":"0a5a6df3-791d-4e1e-9f7c-cb1cf013a1c7","system_id":"levelo_inurba_marseille","lat":43.25725,"lon":5.411093,"is_reserved":false,"is_disabled":false,"rental_uris":{"android":"levelo://app?vid=0a5a6df3-791d-4e1e-9f7c-cb1cf013a1c7","ios":"levelo://app?vid=0a5a6df3-791d-4e1e-9f7c-cb1cf013a1c7"},"vehicle_type_id":"4","last_reported":1751368200,"current_range_meters":14800,"station_id":"ce4bhkp2rcd13ifvqgd0","pricing_plan_id":"cebpf4jnsgd1na2vs0mg"},{"bike_id":"64c35025-af08-442f-b59a-e22a65c55d07","system_id":"levelo_inurba_marseille","lat":43.25792,"lon":5.37618,"is_reserved":false,"is_disabled":false,"rental_uris":{"android":"levelo://app?vid=64c35025-af08-442f-b59a-e22a65c55d07","ios":"levelo://app?vid=64c35025-af08-442f-b59a-e22a65c55d07"},"vehicle_type_id":"4","last_reported":1751368200,"current_range_meters":15200,"station_id":"","pricing_plan_id":"cebpf4jnsgd1na2vs0mg"},{"bike_id":"c0228700-5312-4a39-89af-ec53a5d729c5","system_id":"levelo_inurba_marseille","lat":43.282961,"lon":5.432404,"is_reserved":false,"is_disabled":false,"rental_uris":{"android":"levelo://app?vid=c0228700-5312-4a39-89af-ec53a5d729c5","ios":"levelo://app?vid=c0228700-5312-4a39-89af-ec53a5d729c5"},"vehicle_type_id":"4","last_reported":1751368200,"current_range_meters":15200,"station_id":"","pricing_plan_id":"cebpf4jnsgd1na2vs0mg"},{"bike_id":"a29fedd4-f636-4294-9fa2-0ba990a51687","system_id":"levelo_inurba_marseille","lat":43.31226,"lon":5.36849,"is_reserved":false,"is_disabled":false,"rental_uris":{"android":"levelo://app?vid=a29fedd4-f636-4294-9fa2-0ba990a51687","ios":"levelo://app?vid=a29fedd4-f636-4294-9fa2-0ba990a51687"},"vehicle_type_id":"4","last_reported":1751368200,"current_range_meters":15200,"station_id":"ce4bgl92rcd13ifvqbq0","pricing_plan_id":"cebpf4jnsgd1na2vs0mg"},{"bike_id":"fd2e4073-ea6d-48c9-b30f-fd2911500fd8","system_id":"levelo_inurba_marseille","lat":43.249939,"lon":5.3894,"is_reserved":false,"is_disabled":false,"rental_uris":{"android":"levelo://app?vid=fd2e4073-ea6d-48c9-b30f-fd2911500fd8","ios":"levelo://app?vid=fd2e4073-ea6d-48c9-b30f-fd2911500fd8"},"vehicle_type_id":"4","last_reported":1751368200,"current_range_meters":15200,"station_id":"ce4bhgp2rcd13ifvqfd0","pricing_plan_id":"cebpf4jnsgd1na2vs0mg"},{"bike_id":"d67ecffe-4463-4724-8c61-0e1fce7455b0","system_id":"levelo_inurba_marseille","lat":43.323664,"lon":5.388882,"is_reserved":false,"is_disabled":false,"rental_uris":{"android":"levelo://app?vid=d67ecffe-4463-4724-8c61-0e1fce7455b0","ios":"levelo://app?vid=d67ecffe-4463-4724-8c61-0e1fce7455b0"},"vehicle_type_id":"4","last_reported":1751368200,"current_range_meters":15200,"station_id":"ce4bhqp2rcd13ifvqhog","pricing_plan_id":"cebpf4jnsgd1na2vs0mg"},{"bike_id":"7d2ebbac-d26c-416a-b58e-5e3abed80858","system_id":"levelo_inurba_marseille","lat":43.21193,"lon":5.35073,"is_reserved":false,"is_disabled":false,"rental_uris":{"android":"levelo://app?vid=7d2ebbac-d26c-416a-b58e-5e3abed80858","ios":"levelo://app?vid=7d2ebbac-d26c-416a-b58e-5e3abed80858"},"vehicle_type_id":"4","last_reported":1751368200,"current_range_meters":15200,"station_id":"st_cvj6sg6p6f1abm77japg","pricing_plan_id":"cebpf4jnsgd1na2vs0mg"},{"bike_id":"c61036a9-1a66-4480-8bd4-cd2fb585b287","system_id":"levelo_inurba_marseille","lat":43.269801,"lon":5.405365,"is_reserved":false,"is_disabled":false,"rental_uris":{"android":"levelo://app?vid=c61036a9-1a66-4480-8bd4-cd2fb585b287","ios":"levelo://app?vid=c61036a9-1a66-4480-8bd4-cd2fb585b287"},"vehicle_type_id":"4","last_reported":1751368200,"current_range_meters":16000,"station_id":"","pricing_plan_id":"cebpf4jnsgd1na2vs0mg"},{"bike_id":"d25aa57f-a431-4a76-bdd1-6d2db4086c31","system_id":"levelo_inurba_marseille","lat":43.29536,"lon":5.38534,"is_reserved":false,"is_disabled":false,"rental_uris":{"android":"levelo://app?vid=d25aa57f-a431-4a76-bdd1-6d2db4086c31","ios":"levelo://app?vid=d25aa57f-a431-4a76-bdd1-6d2db4086c31"},"vehicle_type_id":"4","last_reported":1751368200,"current_range_meters":16000,"station_id":"ce4bgih2rcd13ifvqba0","pricing_plan_id":"cebpf4jnsgd1na2vs0mg"},{"bike_id":"5a46c106-c1db-430d-9568-5f4bdc0c0dc4","system_id":"levelo_inurba_marseille","lat":43.29823,"lon":5.3628,"is_reserved":false,"is_disabled":false,"rental_uris":{"android":"levelo://app?vid=5a46c106-c1db-430d-9568-5f4bdc0c0dc4","ios":"levelo://app?vid=5a46c106-c1db-430d-9568-5f4bdc0c0dc4"},"vehicle_type_id":"4","last_reported":1751368200,"current_range_meters":16000,"station_id":"ce4bgpp2rcd13ifvqc3g","pricing_plan_id":"cebpf4jnsgd1na2vs0mg"},{"bike_id":"5c1354aa-9f57-4e02-9744-fc196a0e8d6b","system_id":"levelo_inurba_marseille","lat":43.2904,"lon":5.39968,"is_reserved":false,"is_disabled":false,"rental_uris":{"android":"levelo://app?vid=5c1354aa-9f57-4e02-9744-fc196a0e8d6b","ios":"levelo://app?vid=5c1354aa-9f57-4e02-9744-fc196a0e8d6b"},"vehicle_type_id":"4","last_reported":1751368200,"current_range_meters":16000,"station_id":"ce4bh392rcd13ifvqdm0","pricing_plan_id":"cebpf4jnsgd1na2vs0mg"},{"bike_id":"9581da5b-f79f-4797-871f-1346d318d3e5","system_id":"levelo_inurba_marseille","lat":43.239534,"lon":5.366615,"is_reserved":false,"is_disabled":false,"rental_uris":{"android":"levelo://app?vid=9581da5b-f79f-4797-871f-1346d318d3e5","ios":"levelo://app?vid=9581da5b-f79f-4797-871f-1346d318d3e5"},"vehicle_type_id":"4","last_reported":1751368200,"current_range_meters":16000,"station_id":"ce4bhi12rcd13ifvqfp0","pricing_plan_id":"cebpf4jnsgd1na2vs0mg"},{"bike_id":"e6110ee5-3718-48f1-8cf1-b864ce7084a5","system_id":"levelo_inurba_marseille","lat":43.2782,"lon":5.40715,"is_reserved":false,"is_disabled":false,"rental_uris":{"android":"levelo://app?vid=e6110ee5-3718-48f1-8cf1-b864ce7084a5","ios":"levelo://app?vid=e6110ee5-3718-48f1-8cf1-b864ce7084a5"},"vehicle_type_id":"4","last_reported":1751368200,"current_range_meters":16000,"station_id":"ce4bhnh2rcd13ifvqgtg","pricing_plan_id":"cebpf4jnsgd1na2vs0mg"},{"bike_id":"1caca1fc-4911-4e37-9aeb-383803780faf","system_id":"levelo_inurba_marseille","lat":43.32103,"lon":5.36784,"is_reserved":false,"is_disabled":false,"rental_uris":{"android":"levelo://app?vid=1caca1fc-4911-4e37-9aeb-383803780faf","ios":"levelo://app?vid=1caca1fc-4911-4e37-9aeb-383803780faf"},"vehicle_type_id":"4","last_reported":1751368200,"current_range_meters":16000,"station_id":"ce4bhrh2rcd13ifvqhug","pricing_plan_id":"cebpf4jnsgd1na2vs0mg"},{"bike_id":"a2925c89-c3b2-420b-9d57-1d5d74283141","system_id":"levelo_inurba_marseille","lat":43.29258,"lon":5.4002,"is_reserved":false,"is_disabled":false,"rental_uris":{"android":"levelo://app?vid=a2925c89-c3b2-420b-9d57-1d5d74283141","ios":"levelo://app?vid=a2925c89-c3b2-420b-9d57-1d5d74283141"},"vehicle_type_id":"4","last_reported":1751368200,"current_range_meters":16400,"station_id":"","pricing_plan_id":"cebpf4jnsgd1na2vs0mg"},{"bike_id":"86fa6ce7-8cbe-47ff-b5d3-c2b4938fd05c","system_id":"levelo_inurba_marseille","lat":43.21193,"lon":5.35097,"is_reserved":false,"is_disabled":false,"rental_uris":{"android":"levelo://app?vid=86fa6ce7-8cbe-47ff-b5d3-c2b4938fd05c","ios":"levelo://app?vid=86fa6ce7-8cbe-47ff-b5d3-c2b4938fd05c"},"vehicle_type_id":"4","last_reported":1751368200,"current_range_meters":16400,"station_id":"","pricing_plan_id":"cebpf4jnsgd1na2vs0mg"},{"bike_id":"194688ab-b9e7-4ac9-8436-682726ced168","system_id":"levelo_inurba_marseille","lat":43.29308,"lon":5.37457,"is_reserved":false,"is_disabled":false,"rental_uris":{"android":"levelo://app?vid=194688ab-b9e7-4ac9-8436-682726ced168","ios":"levelo://app?vid=194688ab-b9e7-4ac9-8436-682726ced168"},"vehicle_type_id":"4","last_reported":1751368200,"current_range_meters":16400,"station_id":"ce4bgi12rcd13ifvqb70","pricing_plan_id":"cebpf4jnsgd1na2vs0mg"},{"bike_id":"31395821-7504-45f6-b748-f2b4140ba6f7","system_id":"levelo_inurba_marseille","lat":43.25083,"lon":5.39519,"is_reserved":false,"is_disabled":false,"rental_uris":{"android":"levelo://app?vid=31395821-7504-45f6-b748-f2b4140ba6f7","ios":"levelo://app?vid=31395821-7504-45f6-b748-f2b4140ba6f7"},"vehicle_type_id":"4","last_reported":1751368200,"current_range_meters":16400,"station_id":"ce4bhm12rcd13ifvqgkg","pricing_plan_id":"cebpf4jnsgd1na2vs0mg"},{"bike_id":"947c0abc-8a28-4463-9d63-6c7d61393962","system_id":"levelo_inurba_marseille","lat":43.24169,"lon":5.36409,"is_reserved":false,"is_disabled":false,"rental_uris":{"android":"levelo://app?vid=947c0abc-8a28-4463-9d63-6c7d61393962","ios":"levelo://app?vid=947c0abc-8a28-4463-9d63-6c7d61393962"},"vehicle_type_id":"4","last_reported":1751368200,"current_range_meters":16400,"station_id":"cpo36qri1sfpv3e86is0","pricing_plan_id":"cebpf4jnsgd1na2vs0mg"},{"bike_id":"3a33ebd2-49a2-4e39-92d7-f09d7dd08672","system_id":"levelo_inurba_marseille","lat":43.21758,"lon":5.34606,"is_reserved":false,"is_disabled":false,"rental_uris":{"android":"levelo://app?vid=3a33ebd2-49a2-4e39-92d7-f09d7dd08672","ios":"levelo://app?vid=3a33ebd2-49a2-4e39-92d7-f09d7dd08672"},"vehicle_type_id":"4","last_reported":1751368200,"current_range_meters":16400,"station_id":"st_cvj6r9ubvosntc0bgbag","pricing_plan_id":"cebpf4jnsgd1na2vs0mg"},{"bike_id":"60aed5b4-04a7-4930-a9c4-5540cdbcfb8b","system_id":"levelo_inurba_marseille","lat":43.337755,"lon":5.374271,"is_reserved":false,"is_disabled":false,"rental_uris":{"android":"levelo://app?vid=60aed5b4-04a7-4930-a9c4-5540cdbcfb8b","ios":"levelo://app?vid=60aed5b4-04a7-4930-a9c4-5540cdbcfb8b"},"vehicle_type_id":"4","last_reported":1751368200,"current_range_meters":16800,"station_id":"","pricing_plan_id":"cebpf4jnsgd1na2vs0mg"},{"bike_id":"b63b2e49-ea86-4072-beb9-01b153f69f27","system_id":"levelo_inurba_marseille","lat":43.29792,"lon":5.38114,"is_reserved":false,"is_disabled":false,"rental_uris":{"android":"levelo://app?vid=b63b2e49-ea86-4072-beb9-01b153f69f27","ios":"levelo://app?vid=b63b2e49-ea86-4072-beb9-01b153f69f27"},"vehicle_type_id":"4","last_reported":1751368200,"current_range_meters":16800,"station_id":"ce4bgip2rcd13ifvqbb0","pricing_plan_id":"cebpf4jnsgd1na2vs0mg"},{"bike_id":"e99f0226-a3c2-496c-babf-fb4a35ef775c","system_id":"levelo_inurba_marseille","lat":43.29207,"lon":5.35803,"is_reserved":false,"is_disabled":false,"rental_uris":{"android":"levelo://app?vid=e99f0226-a3c2-496c-babf-fb4a35ef775c","ios":"levelo://app?vid=e99f0226-a3c2-496c-babf-fb4a35ef775c"},"vehicle_type_id":"4","last_reported":1751368200,"current_range_meters":16800,"station_id":"ce4bhb12rcd13ifvqel0","pricing_plan_id":"cebpf4jnsgd1na2vs0mg"},{"bike_id":"eb9cb756-acf8-4ada-99a3-1de293a573df","system_id":"levelo_inurba_marseille","lat":43.29005,"lon":5.35608,"is_reserved":false,"is_disabled":false,"rental_uris":{"android":"levelo://app?vid=eb9cb756-acf8-4ada-99a3-1de293a573df","ios":"levelo://app?vid=eb9cb756-acf8-4ada-99a3-1de293a573df"},"vehicle_type_id":"4","last_reported":1751368200,"current_range_meters":16800,"station_id":"ce4bhb92rcd13ifvqen0","pricing_plan_id":"cebpf4jnsgd1na2vs0mg"},{"bike_id":"53b02d1f-84ea-495f-b615-92eb3f7f2369","system_id":"levelo_inurba_marseille","lat":43.26792,"lon":5.39409,"is_reserved":false,"is_disabled":false,"rental_uris":{"android":"levelo://app?vid=53b02d1f-84ea-495f-b615-92eb3f7f2369","ios":"levelo://app?vid=53b02d1f-84ea-495f-b615-92eb3f7f2369"},"vehicle_type_id":"4","last_reported":1751368200,"current_range_meters":16800,"station_id":"ce4bhh12rcd13ifvqfg0","pricing_plan_id":"cebpf4jnsgd1na2vs0mg"},{"bike_id":"8011242b-b22a-4212-8e12-0778dd8c22ce","system_id":"levelo_inurba_marseille","lat":43.27937,"lon":5.4105,"is_reserved":false,"is_disabled":false,"rental_uris":{"android":"levelo://app?vid=8011242b-b22a-4212-8e12-0778dd8c22ce","ios":"levelo://app?vid=8011242b-b22a-4212-8e12-0778dd8c22ce"},"vehicle_type_id":"4","last_reported":1751368200,"current_range_meters":16800,"station_id":"ce4bhnp2rcd13ifvqh0g","pricing_plan_id":"cebpf4jnsgd1na2vs0mg"},{"bike_id":"6b2ddcec-816f-42cf-b55b-a185c165d31c","system_id":"levelo_inurba_marseille","lat":43.241655,"lon":5.363928,"is_reserved":false,"is_disabled":false,"rental_uris":{"android":"levelo://app?vid=6b2ddcec-816f-42cf-b55b-a185c165d31c","ios":"levelo://app?vid=6b2ddcec-816f-42cf-b55b-a185c165d31c"},"vehicle_type_id":"4","last_reported":1751368200,"current_range_meters":16800,"station_id":"cpo36qri1sfpv3e86is0","pricing_plan_id":"cebpf4jnsgd1na2vs0mg"},{"bike_id":"2bc25ca4-c28c-4335-a0aa-b132b20800b4","system_id":"levelo_inurba_marseille","lat":43.29436,"lon":5.37422,"is_reserved":false,"is_disabled":false,"rental_uris":{"android":"levelo://app?vid=2bc25ca4-c28c-4335-a0aa-b132b20800b4","ios":"levelo://app?vid=2bc25ca4-c28c-4335-a0aa-b132b20800b4"},"vehicle_type_id":"4","last_reported":1751368200,"current_range_meters":17200,"station_id":"","pricing_plan_id":"cebpf4jnsgd1na2vs0mg"},{"bike_id":"bf298058-65b6-4b91-8920-c460456682b3","system_id":"levelo_inurba_marseille","lat":43.23217,"lon":5.40029,"is_reserved":false,"is_disabled":false,"rental_uris":{"android":"levelo://app?vid=bf298058-65b6-4b91-8920-c460456682b3","ios":"levelo://app?vid=bf298058-65b6-4b91-8920-c460456682b3"},"vehicle_type_id":"4","last_reported":1751368200,"current_range_meters":17200,"station_id":"","pricing_plan_id":"cebpf4jnsgd1na2vs0mg"},{"bike_id":"539ed013-9e80-448a-999f-a7819f54786a","system_id":"levelo_inurba_marseille","lat":43.290309,"lon":5.375668,"is_reserved":false,"is_disabled":false,"rental_uris":{"android":"levelo://app?vid=539ed013-9e80-448a-999f-a7819f54786a","ios":"levelo://app?vid=539ed013-9e80-448a-999f-a7819f54786a"},"vehicle_type_id":"4","last_reported":1751368200,"current_range_meters":17200,"station_id":"","pricing_plan_id":"cebpf4jnsgd1na2vs0mg"},{"bike_id":"f5f512a9-6a01-4170-bee5-8d2d61b0c8f7","system_id":"levelo_inurba_marseille","lat":43.31867,"lon":5.38986,"is_reserved":false,"is_disabled":false,"rental_uris":{"android":"levelo://app?vid=f5f512a9-6a01-4170-bee5-8d2d61b0c8f7","ios":"levelo://app?vid=f5f512a9-6a01-4170-bee5-8d2d61b0c8f7"},"vehicle_type_id":"4","last_reported":1751368200,"current_range_meters":17200,"station_id":"","pricing_plan_id":"cebpf4jnsgd1na2vs0mg"},{"bike_id":"87f0dc01-08b6-4443-8ad6-92ede38280c2","system_id":"levelo_inurba_marseille","lat":43.298674,"lon":5.365324,"is_reserved":false,"is_disabled":false,"rental_uris":{"android":"levelo://app?vid=87f0dc01-08b6-4443-8ad6-92ede38280c2","ios":"levelo://app?vid=87f0dc01-08b6-4443-8ad6-92ede38280c2"},"vehicle_type_id":"4","last_reported":1751368200,"current_range_meters":17200,"station_id":"ce4bgn12rcd13ifvqbt0","pricing_plan_id":"cebpf4jnsgd1na2vs0mg"},{"bike_id":"0745af5a-a5d8-47ed-8b51-e5408958d31d","system_id":"levelo_inurba_marseille","lat":43.28108,"lon":5.37828,"is_reserved":false,"is_disabled":false,"rental_uris":{"android":"levelo://app?vid=0745af5a-a5d8-47ed-8b51-e5408958d31d","ios":"levelo://app?vid=0745af5a-a5d8-47ed-8b51-e5408958d31d"},"vehicle_type_id":"4","last_reported":1751368200,"current_range_meters":17200,"station_id":"ce4bha12rcd13ifvqee0","pricing_plan_id":"cebpf4jnsgd1na2vs0mg"},{"bike_id":"6237f4e8-2651-457b-a795-5f0b58a1dcbb","system_id":"levelo_inurba_marseille","lat":43.32362,"lon":5.38886,"is_reserved":false,"is_disabled":false,"rental_uris":{"android":"levelo://app?vid=6237f4e8-2651-457b-a795-5f0b58a1dcbb","ios":"levelo://app?vid=6237f4e8-2651-457b-a795-5f0b58a1dcbb"},"vehicle_type_id":"4","last_reported":1751368200,"current_range_meters":17200,"station_id":"ce4bhqp2rcd13ifvqhog","pricing_plan_id":"cebpf4jnsgd1na2vs0mg"},{"bike_id":"a0cef316-ad95-4855-8f78-a31341a2b90e","system_id":"levelo_inurba_marseille","lat":43.31283,"lon":5.3778,"is_reserved":false,"is_disabled":false,"rental_uris":{"android":"levelo://app?vid=a0cef316-ad95-4855-8f78-a31341a2b90e","ios":"levelo://app?vid=a0cef316-ad95-4855-8f78-a31341a2b90e"},"vehicle_type_id":"4","last_reported":1751368200,"current_range_meters":17600,"station_id":"","pricing_plan_id":"cebpf4jnsgd1na2vs0mg"},{"bike_id":"d2fe2280-9dda-4f08-822f-aa45767453bf","system_id":"levelo_inurba_marseille","lat":43.31597,"lon":5.36781,"is_reserved":false,"is_disabled":false,"rental_uris":{"android":"levelo://app?vid=d2fe2280-9dda-4f08-822f-aa45767453bf","ios":"levelo://app?vid=d2fe2280-9dda-4f08-822f-aa45767453bf"},"vehicle_type_id":"4","last_reported":1751368200,"current_range_meters":17600,"station_id":"ce4bgr92rcd13ifvqc6g","pricing_plan_id":"cebpf4jnsgd1na2vs0mg"},{"bike_id":"59a07b50-f1e8-4ef6-8afe-1ee7c6affd10","system_id":"levelo_inurba_marseille","lat":43.28942,"lon":5.3963,"is_reserved":false,"is_disabled":false,"rental_uris":{"android":"levelo://app?vid=59a07b50-f1e8-4ef6-8afe-1ee7c6affd10","ios":"levelo://app?vid=59a07b50-f1e8-4ef6-8afe-1ee7c6affd10"},"vehicle_type_id":"4","last_reported":1751368200,"current_range_meters":17600,"station_id":"ce4bh3h2rcd13ifvqdn0","pricing_plan_id":"cebpf4jnsgd1na2vs0mg"},{"bike_id":"11efbe57-af63-4f37-8851-cd9b70c0c95e","system_id":"levelo_inurba_marseille","lat":43.2833,"lon":5.38089,"is_reserved":false,"is_disabled":false,"rental_uris":{"android":"levelo://app?vid=11efbe57-af63-4f37-8851-cd9b70c0c95e","ios":"levelo://app?vid=11efbe57-af63-4f37-8851-cd9b70c0c95e"},"vehicle_type_id":"4","last_reported":1751368200,"current_range_meters":17600,"station_id":"ce4bh412rcd13ifvqdr0","pricing_plan_id":"cebpf4jnsgd1na2vs0mg"},{"bike_id":"b6223f79-fb1d-4fe4-9555-c85b5191381a","system_id":"levelo_inurba_marseille","lat":43.28422,"lon":5.34982,"is_reserved":false,"is_disabled":false,"rental_uris":{"android":"levelo://app?vid=b6223f79-fb1d-4fe4-9555-c85b5191381a","ios":"levelo://app?vid=b6223f79-fb1d-4fe4-9555-c85b5191381a"},"vehicle_type_id":"4","last_reported":1751368200,"current_range_meters":17600,"station_id":"ce4bhbh2rcd13ifvqepg","pricing_plan_id":"cebpf4jnsgd1na2vs0mg"},{"bike_id":"c86b5943-703a-4461-aa10-60b950dfb35f","system_id":"levelo_inurba_marseille","lat":43.29225,"lon":5.36061,"is_reserved":false,"is_disabled":false,"rental_uris":{"android":"levelo://app?vid=c86b5943-703a-4461-aa10-60b950dfb35f","ios":"levelo://app?vid=c86b5943-703a-4461-aa10-60b950dfb35f"},"vehicle_type_id":"4","last_reported":1751368200,"current_range_meters":17600,"station_id":"ce4bhbh2rcd13ifvqeqg","pricing_plan_id":"cebpf4jnsgd1na2vs0mg"},{"bike_id":"a06146b0-0cd1-46a0-be2e-9e3113ea56b1","system_id":"levelo_inurba_marseille","lat":43.282623,"lon":5.350524,"is_reserved":false,"is_disabled":false,"rental_uris":{"android":"levelo://app?vid=a06146b0-0cd1-46a0-be2e-9e3113ea56b1","ios":"levelo://app?vid=a06146b0-0cd1-46a0-be2e-9e3113ea56b1"},"vehicle_type_id":"4","last_reported":1751368200,"current_range_meters":17600,"station_id":"ce4bhbp2rcd13ifvqerg","pricing_plan_id":"cebpf4jnsgd1na2vs0mg"},{"bike_id":"1e6b9f52-da41-4d6b-90e7-4aee7cbf4f90","system_id":"levelo_inurba_marseille","lat":43.286133,"lon":5.351064,"is_reserved":false,"is_disabled":false,"rental_uris":{"android":"levelo://app?vid=1e6b9f52-da41-4d6b-90e7-4aee7cbf4f90","ios":"levelo://app?vid=1e6b9f52-da41-4d6b-90e7-4aee7cbf4f90"},"vehicle_type_id":"4","last_reported":1751368200,"current_range_meters":17600,"station_id":"ce4bhch2rcd13ifvqeug","pricing_plan_id":"cebpf4jnsgd1na2vs0mg"},{"bike_id":"fc7e8355-f532-43ec-9e4c-45a0bcaf9efb","system_id":"levelo_inurba_marseille","lat":43.23143,"lon":5.43737,"is_reserved":false,"is_disabled":false,"rental_uris":{"android":"levelo://app?vid=fc7e8355-f532-43ec-9e4c-45a0bcaf9efb","ios":"levelo://app?vid=fc7e8355-f532-43ec-9e4c-45a0bcaf9efb"},"vehicle_type_id":"4","last_reported":1751368200,"current_range_meters":17600,"station_id":"ce4bhmp2rcd13ifvqgog","pricing_plan_id":"cebpf4jnsgd1na2vs0mg"},{"bike_id":"8233db61-1d36-41a5-a985-c98b6a5f0fb4","system_id":"levelo_inurba_marseille","lat":43.21748,"lon":5.34598,"is_reserved":false,"is_disabled":false,"rental_uris":{"android":"levelo://app?vid=8233db61-1d36-41a5-a985-c98b6a5f0fb4","ios":"levelo://app?vid=8233db61-1d36-41a5-a985-c98b6a5f0fb4"},"vehicle_type_id":"4","last_reported":1751368200,"current_range_meters":17600,"station_id":"st_cvj6r9ubvosntc0bgbag","pricing_plan_id":"cebpf4jnsgd1na2vs0mg"},{"bike_id":"0c1b4f74-5294-4b59-932d-b742ce647d9e","system_id":"levelo_inurba_marseille","lat":43.21188,"lon":5.35064,"is_reserved":false,"is_disabled":false,"rental_uris":{"android":"levelo://app?vid=0c1b4f74-5294-4b59-932d-b742ce647d9e","ios":"levelo://app?vid=0c1b4f74-5294-4b59-932d-b742ce647d9e"},"vehicle_type_id":"4","last_reported":1751368200,"current_range_meters":17600,"station_id":"st_cvj6sg6p6f1abm77japg","pricing_plan_id":"cebpf4jnsgd1na2vs0mg"},{"bike_id":"8a74f5cd-9efa-4362-bea7-a32db4dcc85c","system_id":"levelo_inurba_marseille","lat":43.211896,"lon":5.350584,"is_reserved":false,"is_disabled":false,"rental_uris":{"android":"levelo://app?vid=8a74f5cd-9efa-4362-bea7-a32db4dcc85c","ios":"levelo://app?vid=8a74f5cd-9efa-4362-bea7-a32db4dcc85c"},"vehicle_type_id":"4","last_reported":1751368200,"current_range_meters":17600,"station_id":"st_cvj6sg6p6f1abm77japg","pricing_plan_id":"cebpf4jnsgd1na2vs0mg"},{"bike_id":"49d6cdd2-de1a-4037-8e83-22ca7bcfc325","system_id":"levelo_inurba_marseille","lat":43.25519,"lon":5.37539,"is_reserved":false,"is_disabled":false,"rental_uris":{"android":"levelo://app?vid=49d6cdd2-de1a-4037-8e83-22ca7bcfc325","ios":"levelo://app?vid=49d6cdd2-de1a-4037-8e83-22ca7bcfc325"},"vehicle_type_id":"4","last_reported":1751368200,"current_range_meters":18000,"station_id":"","pricing_plan_id":"cebpf4jnsgd1na2vs0mg"},{"bike_id":"3dd883a5-bf50-4318-8015-cf8f7548372f","system_id":"levelo_inurba_marseille","lat":43.296375,"lon":5.381181,"is_reserved":false,"is_disabled":false,"rental_uris":{"android":"levelo://app?vid=3dd883a5-bf50-4318-8015-cf8f7548372f","ios":"levelo://app?vid=3dd883a5-bf50-4318-8015-cf8f7548372f"},"vehicle_type_id":"4","last_reported":1751368200,"current_range_meters":18000,"station_id":"","pricing_plan_id":"cebpf4jnsgd1na2vs0mg"},{"bike_id":"1f59bdbb-a40b-41ac-8504-fd51b368eb70","system_id":"levelo_inurba_marseille","lat":43.30538,"lon":5.366956,"is_reserved":false,"is_disabled":false,"rental_uris":{"android":"levelo://app?vid=1f59bdbb-a40b-41ac-8504-fd51b368eb70","ios":"levelo://app?vid=1f59bdbb-a40b-41ac-8504-fd51b368eb70"},"vehicle_type_id":"4","last_reported":1751368200,"current_range_meters":18000,"station_id":"ce4bgrp2rcd13ifvqc9g","pricing_plan_id":"cebpf4jnsgd1na2vs0mg"},{"bike_id":"839c9730-1223-4497-817b-b57fef86bd7f","system_id":"levelo_inurba_marseille","lat":43.28622,"lon":5.35121,"is_reserved":false,"is_disabled":false,"rental_uris":{"android":"levelo://app?vid=839c9730-1223-4497-817b-b57fef86bd7f","ios":"levelo://app?vid=839c9730-1223-4497-817b-b57fef86bd7f"},"vehicle_type_id":"4","last_reported":1751368200,"current_range_meters":18000,"station_id":"ce4bhch2rcd13ifvqeug","pricing_plan_id":"cebpf4jnsgd1na2vs0mg"},{"bike_id":"1b1d2a55-7937-4e4f-8e1d-0772a66cddb7","system_id":"levelo_inurba_marseille","lat":43.28608,"lon":5.35103,"is_reserved":false,"is_disabled":false,"rental_uris":{"android":"levelo://app?vid=1b1d2a55-7937-4e4f-8e1d-0772a66cddb7","ios":"levelo://app?vid=1b1d2a55-7937-4e4f-8e1d-0772a66cddb7"},"vehicle_type_id":"4","last_reported":1751368200,"current_range_meters":18000,"station_id":"ce4bhch2rcd13ifvqeug","pricing_plan_id":"cebpf4jnsgd1na2vs0mg"},{"bike_id":"c2cc3873-3136-4ba7-984d-6514f2a6bcc2","system_id":"levelo_inurba_marseille","lat":43.26692,"lon":5.3827,"is_reserved":false,"is_disabled":false,"rental_uris":{"android":"levelo://app?vid=c2cc3873-3136-4ba7-984d-6514f2a6bcc2","ios":"levelo://app?vid=c2cc3873-3136-4ba7-984d-6514f2a6bcc2"},"vehicle_type_id":"4","last_reported":1751368200,"current_range_meters":18000,"station_id":"ce4bhg92rcd13ifvqf90","pricing_plan_id":"cebpf4jnsgd1na2vs0mg"},{"bike_id":"ee59a3bc-1922-4fad-a57d-24ffc09128e2","system_id":"levelo_inurba_marseille","lat":43.32075,"lon":5.41566,"is_reserved":false,"is_disabled":false,"rental_uris":{"android":"levelo://app?vid=ee59a3bc-1922-4fad-a57d-24ffc09128e2","ios":"levelo://app?vid=ee59a3bc-1922-4fad-a57d-24ffc09128e2"},"vehicle_type_id":"4","last_reported":1751368200,"current_range_meters":18000,"station_id":"ce4bhq92rcd13ifvqhkg","pricing_plan_id":"cebpf4jnsgd1na2vs0mg"},{"bike_id":"d606e43d-70f7-4127-8485-60e27860436b","system_id":"levelo_inurba_marseille","lat":43.23195,"lon":5.35551,"is_reserved":false,"is_disabled":false,"rental_uris":{"android":"levelo://app?vid=d606e43d-70f7-4127-8485-60e27860436b","ios":"levelo://app?vid=d606e43d-70f7-4127-8485-60e27860436b"},"vehicle_type_id":"4","last_reported":1751368200,"current_range_meters":18000,"station_id":"ce4bhu92rcd13ifvqi70","pricing_plan_id":"cebpf4jnsgd1na2vs0mg"},{"bike_id":"36d83600-3670-4035-a5e5-3c9d57af76a0","system_id":"levelo_inurba_marseille","lat":43.2417,"lon":5.36383,"is_reserved":false,"is_disabled":false,"rental_uris":{"android":"levelo://app?vid=36d83600-3670-4035-a5e5-3c9d57af76a0","ios":"levelo://app?vid=36d83600-3670-4035-a5e5-3c9d57af76a0"},"vehicle_type_id":"4","last_reported":1751368200,"current_range_meters":18000,"station_id":"cpo36qri1sfpv3e86is0","pricing_plan_id":"cebpf4jnsgd1na2vs0mg"},{"bike_id":"afb78327-cc2c-423c-9e7b-9e6a58647879","system_id":"levelo_inurba_marseille","lat":43.336811,"lon":5.392266,"is_reserved":false,"is_disabled":false,"rental_uris":{"android":"levelo://app?vid=afb78327-cc2c-423c-9e7b-9e6a58647879","ios":"levelo://app?vid=afb78327-cc2c-423c-9e7b-9e6a58647879"},"vehicle_type_id":"4","last_reported":1751368200,"current_range_meters":18800,"station_id":"","pricing_plan_id":"cebpf4jnsgd1na2vs0mg"},{"bike_id":"46832317-5fb1-4a7c-841f-1841fefa2d3e","system_id":"levelo_inurba_marseille","lat":43.29796,"lon":5.38085,"is_reserved":false,"is_disabled":false,"rental_uris":{"android":"levelo://app?vid=46832317-5fb1-4a7c-841f-1841fefa2d3e","ios":"levelo://app?vid=46832317-5fb1-4a7c-841f-1841fefa2d3e"},"vehicle_type_id":"4","last_reported":1751368200,"current_range_meters":18800,"station_id":"ce4bgip2rcd13ifvqbb0","pricing_plan_id":"cebpf4jnsgd1na2vs0mg"},{"bike_id":"8026e2cf-f586-486f-af2f-d543b2daf1ed","system_id":"levelo_inurba_marseille","lat":43.282623,"lon":5.350535,"is_reserved":false,"is_disabled":false,"rental_uris":{"android":"levelo://app?vid=8026e2cf-f586-486f-af2f-d543b2daf1ed","ios":"levelo://app?vid=8026e2cf-f586-486f-af2f-d543b2daf1ed"},"vehicle_type_id":"4","last_reported":1751368200,"current_range_meters":18800,"station_id":"ce4bhbp2rcd13ifvqerg","pricing_plan_id":"cebpf4jnsgd1na2vs0mg"},{"bike_id":"8b90ef18-13e8-4441-b1c5-b55de6a43ef3","system_id":"levelo_inurba_marseille","lat":43.25025,"lon":5.38915,"is_reserved":false,"is_disabled":false,"rental_uris":{"android":"levelo://app?vid=8b90ef18-13e8-4441-b1c5-b55de6a43ef3","ios":"levelo://app?vid=8b90ef18-13e8-4441-b1c5-b55de6a43ef3"},"vehicle_type_id":"4","last_reported":1751368200,"current_range_meters":18800,"station_id":"ce4bhgp2rcd13ifvqfd0","pricing_plan_id":"cebpf4jnsgd1na2vs0mg"},{"bike_id":"b4d31bd3-366a-4b6e-9a62-245bb460ef4f","system_id":"levelo_inurba_marseille","lat":43.27575,"lon":5.38411,"is_reserved":false,"is_disabled":false,"rental_uris":{"android":"levelo://app?vid=b4d31bd3-366a-4b6e-9a62-245bb460ef4f","ios":"levelo://app?vid=b4d31bd3-366a-4b6e-9a62-245bb460ef4f"},"vehicle_type_id":"4","last_reported":1751368200,"current_range_meters":18800,"station_id":"ce4bhh92rcd13ifvqfi0","pricing_plan_id":"cebpf4jnsgd1na2vs0mg"},{"bike_id":"6518383b-e70b-48b6-a06c-6be08c71260c","system_id":"levelo_inurba_marseille","lat":43.23194,"lon":5.35552,"is_reserved":false,"is_disabled":false,"rental_uris":{"android":"levelo://app?vid=6518383b-e70b-48b6-a06c-6be08c71260c","ios":"levelo://app?vid=6518383b-e70b-48b6-a06c-6be08c71260c"},"vehicle_type_id":"4","last_reported":1751368200,"current_range_meters":18800,"station_id":"ce4bhu92rcd13ifvqi70","pricing_plan_id":"cebpf4jnsgd1na2vs0mg"},{"bike_id":"fdcc33b3-b27b-4fd9-90cb-c9421efe9db6","system_id":"levelo_inurba_marseille","lat":43.27815,"lon":5.41451,"is_reserved":false,"is_disabled":false,"rental_uris":{"android":"levelo://app?vid=fdcc33b3-b27b-4fd9-90cb-c9421efe9db6","ios":"levelo://app?vid=fdcc33b3-b27b-4fd9-90cb-c9421efe9db6"},"vehicle_type_id":"4","last_reported":1751368200,"current_range_meters":19200,"station_id":"","pricing_plan_id":"cebpf4jnsgd1na2vs0mg"},{"bike_id":"f00e3044-9bd1-48b5-b342-151af21b34fa","system_id":"levelo_inurba_marseille","lat":43.29977,"lon":5.37433,"is_reserved":false,"is_disabled":false,"rental_uris":{"android":"levelo://app?vid=f00e3044-9bd1-48b5-b342-151af21b34fa","ios":"levelo://app?vid=f00e3044-9bd1-48b5-b342-151af21b34fa"},"vehicle_type_id":"4","last_reported":1751368200,"current_range_meters":19200,"station_id":"","pricing_plan_id":"cebpf4jnsgd1na2vs0mg"},{"bike_id":"22f99114-eeb0-4965-8779-7e31f57300cd","system_id":"levelo_inurba_marseille","lat":43.3089,"lon":5.37194,"is_reserved":false,"is_disabled":false,"rental_uris":{"android":"levelo://app?vid=22f99114-eeb0-4965-8779-7e31f57300cd","ios":"levelo://app?vid=22f99114-eeb0-4965-8779-7e31f57300cd"},"vehicle_type_id":"4","last_reported":1751368200,"current_range_meters":19200,"station_id":"ce4bguh2rcd13ifvqckg","pricing_plan_id":"cebpf4jnsgd1na2vs0mg"},{"bike_id":"2d8b2b1e-9277-4b4d-b6d6-6f4d665f245c","system_id":"levelo_inurba_marseille","lat":43.28274,"lon":5.35057,"is_reserved":false,"is_disabled":false,"rental_uris":{"android":"levelo://app?vid=2d8b2b1e-9277-4b4d-b6d6-6f4d665f245c","ios":"levelo://app?vid=2d8b2b1e-9277-4b4d-b6d6-6f4d665f245c"},"vehicle_type_id":"4","last_reported":1751368200,"current_range_meters":19200,"station_id":"ce4bhbp2rcd13ifvqerg","pricing_plan_id":"cebpf4jnsgd1na2vs0mg"},{"bike_id":"1b77744b-cdb6-4898-a206-0cc627f19c81","system_id":"levelo_inurba_marseille","lat":43.26193,"lon":5.37447,"is_reserved":false,"is_disabled":false,"rental_uris":{"android":"levelo://app?vid=1b77744b-cdb6-4898-a206-0cc627f19c81","ios":"levelo://app?vid=1b77744b-cdb6-4898-a206-0cc627f19c81"},"vehicle_type_id":"4","last_reported":1751368200,"current_range_meters":19200,"station_id":"ce4bhgp2rcd13ifvqfc0","pricing_plan_id":"cebpf4jnsgd1na2vs0mg"},{"bike_id":"b217d3b3-907c-42b8-90b0-b0bb12a41695","system_id":"levelo_inurba_marseille","lat":43.241777,"lon":5.397151,"is_reserved":false,"is_disabled":false,"rental_uris":{"android":"levelo://app?vid=b217d3b3-907c-42b8-90b0-b0bb12a41695","ios":"levelo://app?vid=b217d3b3-907c-42b8-90b0-b0bb12a41695"},"vehicle_type_id":"4","last_reported":1751368200,"current_range_meters":19200,"station_id":"ce4bhn12rcd13ifvqgpg","pricing_plan_id":"cebpf4jnsgd1na2vs0mg"},{"bike_id":"98d271e3-efac-404f-9b87-78d1e4ee8c23","system_id":"levelo_inurba_marseille","lat":43.22935,"lon":5.35374,"is_reserved":false,"is_disabled":false,"rental_uris":{"android":"levelo://app?vid=98d271e3-efac-404f-9b87-78d1e4ee8c23","ios":"levelo://app?vid=98d271e3-efac-404f-9b87-78d1e4ee8c23"},"vehicle_type_id":"4","last_reported":1751368200,"current_range_meters":19200,"station_id":"cpo3532slgdg3j2ikp40","pricing_plan_id":"cebpf4jnsgd1na2vs0mg"},{"bike_id":"d0f90c24-dd03-411b-9731-55305f76b7c8","system_id":"levelo_inurba_marseille","lat":43.211942,"lon":5.350731,"is_reserved":false,"is_disabled":false,"rental_uris":{"android":"levelo://app?vid=d0f90c24-dd03-411b-9731-55305f76b7c8","ios":"levelo://app?vid=d0f90c24-dd03-411b-9731-55305f76b7c8"},"vehicle_type_id":"4","last_reported":1751368200,"current_range_meters":19200,"station_id":"st_cvj6sg6p6f1abm77japg","pricing_plan_id":"cebpf4jnsgd1na2vs0mg"},{"bike_id":"86a46339-05cf-40e9-9cbe-aa2ea97e4d32","system_id":"levelo_inurba_marseille","lat":43.29921,"lon":5.37466,"is_reserved":false,"is_disabled":false,"rental_uris":{"android":"levelo://app?vid=86a46339-05cf-40e9-9cbe-aa2ea97e4d32","ios":"levelo://app?vid=86a46339-05cf-40e9-9cbe-aa2ea97e4d32"},"vehicle_type_id":"4","last_reported":1751368200,"current_range_meters":19600,"station_id":"ce4bgjh2rcd13ifvqbg0","pricing_plan_id":"cebpf4jnsgd1na2vs0mg"},{"bike_id":"5cadab41-e93a-4b04-819b-d16d4cbc1d48","system_id":"levelo_inurba_marseille","lat":43.30546,"lon":5.36555,"is_reserved":false,"is_disabled":false,"rental_uris":{"android":"levelo://app?vid=5cadab41-e93a-4b04-819b-d16d4cbc1d48","ios":"levelo://app?vid=5cadab41-e93a-4b04-819b-d16d4cbc1d48"},"vehicle_type_id":"4","last_reported":1751368200,"current_range_meters":19600,"station_id":"ce4bgs12rcd13ifvqcag","pricing_plan_id":"cebpf4jnsgd1na2vs0mg"},{"bike_id":"2cd196e3-a98e-4f02-ac96-a647a84bf8bf","system_id":"levelo_inurba_marseille","lat":43.28156,"lon":5.42642,"is_reserved":false,"is_disabled":false,"rental_uris":{"android":"levelo://app?vid=2cd196e3-a98e-4f02-ac96-a647a84bf8bf","ios":"levelo://app?vid=2cd196e3-a98e-4f02-ac96-a647a84bf8bf"},"vehicle_type_id":"4","last_reported":1751368200,"current_range_meters":19600,"station_id":"ce4bhnh2rcd13ifvqgug","pricing_plan_id":"cebpf4jnsgd1na2vs0mg"},{"bike_id":"81b9753f-aa28-4513-89a4-3ee72628d38d","system_id":"levelo_inurba_marseille","lat":43.321047,"lon":5.367768,"is_reserved":false,"is_disabled":false,"rental_uris":{"android":"levelo://app?vid=81b9753f-aa28-4513-89a4-3ee72628d38d","ios":"levelo://app?vid=81b9753f-aa28-4513-89a4-3ee72628d38d"},"vehicle_type_id":"4","last_reported":1751368200,"current_range_meters":19600,"station_id":"ce4bhrh2rcd13ifvqhug","pricing_plan_id":"cebpf4jnsgd1na2vs0mg"},{"bike_id":"6a117f79-3945-42c1-aaa9-f01191528115","system_id":"levelo_inurba_marseille","lat":43.32484,"lon":5.36556,"is_reserved":false,"is_disabled":false,"rental_uris":{"android":"levelo://app?vid=6a117f79-3945-42c1-aaa9-f01191528115","ios":"levelo://app?vid=6a117f79-3945-42c1-aaa9-f01191528115"},"vehicle_type_id":"4","last_reported":1751368200,"current_range_meters":19600,"station_id":"ce4bhs12rcd13ifvqhvg","pricing_plan_id":"cebpf4jnsgd1na2vs0mg"},{"bike_id":"dbe6a7d8-6edc-4015-8658-f68eeb46a661","system_id":"levelo_inurba_marseille","lat":43.33588,"lon":5.39854,"is_reserved":false,"is_disabled":false,"rental_uris":{"android":"levelo://app?vid=dbe6a7d8-6edc-4015-8658-f68eeb46a661","ios":"levelo://app?vid=dbe6a7d8-6edc-4015-8658-f68eeb46a661"},"vehicle_type_id":"4","last_reported":1751368200,"current_range_meters":20000,"station_id":"","pricing_plan_id":"cebpf4jnsgd1na2vs0mg"},{"bike_id":"d9142055-b8cb-4051-a355-ba74fc39c86b","system_id":"levelo_inurba_marseille","lat":43.30314,"lon":5.3691,"is_reserved":false,"is_disabled":false,"rental_uris":{"android":"levelo://app?vid=d9142055-b8cb-4051-a355-ba74fc39c86b","ios":"levelo://app?vid=d9142055-b8cb-4051-a355-ba74fc39c86b"},"vehicle_type_id":"4","last_reported":1751368200,"current_range_meters":20000,"station_id":"ce4bgqh2rcd13ifvqc5g","pricing_plan_id":"cebpf4jnsgd1na2vs0mg"},{"bike_id":"8d1da692-e92f-4b21-b666-91a876ecfb94","system_id":"levelo_inurba_marseille","lat":43.29006,"lon":5.35613,"is_reserved":false,"is_disabled":false,"rental_uris":{"android":"levelo://app?vid=8d1da692-e92f-4b21-b666-91a876ecfb94","ios":"levelo://app?vid=8d1da692-e92f-4b21-b666-91a876ecfb94"},"vehicle_type_id":"4","last_reported":1751368200,"current_range_meters":20000,"station_id":"ce4bhb92rcd13ifvqen0","pricing_plan_id":"cebpf4jnsgd1na2vs0mg"},{"bike_id":"0ae9db34-0e6c-4019-82ba-f3fbf22fa245","system_id":"levelo_inurba_marseille","lat":43.31725,"lon":5.42409,"is_reserved":false,"is_disabled":false,"rental_uris":{"android":"levelo://app?vid=0ae9db34-0e6c-4019-82ba-f3fbf22fa245","ios":"levelo://app?vid=0ae9db34-0e6c-4019-82ba-f3fbf22fa245"},"vehicle_type_id":"4","last_reported":1751368200,"current_range_meters":20000,"station_id":"ce4bhp92rcd13ifvqhbg","pricing_plan_id":"cebpf4jnsgd1na2vs0mg"},{"bike_id":"7e62b058-a7ed-4634-80f1-04d3de596de7","system_id":"levelo_inurba_marseille","lat":43.29863,"lon":5.36817,"is_reserved":false,"is_disabled":false,"rental_uris":{"android":"levelo://app?vid=7e62b058-a7ed-4634-80f1-04d3de596de7","ios":"levelo://app?vid=7e62b058-a7ed-4634-80f1-04d3de596de7"},"vehicle_type_id":"4","last_reported":1751368200,"current_range_meters":20400,"station_id":"","pricing_plan_id":"cebpf4jnsgd1na2vs0mg"},{"bike_id":"174a2f0b-da8a-4bd6-98e2-ead9be9aeb99","system_id":"levelo_inurba_marseille","lat":43.29377,"lon":5.37847,"is_reserved":false,"is_disabled":false,"rental_uris":{"android":"levelo://app?vid=174a2f0b-da8a-4bd6-98e2-ead9be9aeb99","ios":"levelo://app?vid=174a2f0b-da8a-4bd6-98e2-ead9be9aeb99"},"vehicle_type_id":"4","last_reported":1751368200,"current_range_meters":20400,"station_id":"ce4bgjh2rcd13ifvqbf0","pricing_plan_id":"cebpf4jnsgd1na2vs0mg"},{"bike_id":"7210a969-3731-4e2e-872a-4036fd8799a6","system_id":"levelo_inurba_marseille","lat":43.28483,"lon":5.38407,"is_reserved":false,"is_disabled":false,"rental_uris":{"android":"levelo://app?vid=7210a969-3731-4e2e-872a-4036fd8799a6","ios":"levelo://app?vid=7210a969-3731-4e2e-872a-4036fd8799a6"},"vehicle_type_id":"4","last_reported":1751368200,"current_range_meters":20400,"station_id":"ce4bh512rcd13ifvqe3g","pricing_plan_id":"cebpf4jnsgd1na2vs0mg"},{"bike_id":"d9650f28-a29f-40d0-b715-10317c3c882a","system_id":"levelo_inurba_marseille","lat":43.29787,"lon":5.39342,"is_reserved":false,"is_disabled":false,"rental_uris":{"android":"levelo://app?vid=d9650f28-a29f-40d0-b715-10317c3c882a","ios":"levelo://app?vid=d9650f28-a29f-40d0-b715-10317c3c882a"},"vehicle_type_id":"4","last_reported":1751368200,"current_range_meters":20400,"station_id":"chh1huq6cuj3fo74tm60","pricing_plan_id":"cebpf4jnsgd1na2vs0mg"},{"bike_id":"16a8afe6-e43e-4d1b-a7bd-ed83d113735a","system_id":"levelo_inurba_marseille","lat":43.32436,"lon":5.41185,"is_reserved":false,"is_disabled":false,"rental_uris":{"android":"levelo://app?vid=16a8afe6-e43e-4d1b-a7bd-ed83d113735a","ios":"levelo://app?vid=16a8afe6-e43e-4d1b-a7bd-ed83d113735a"},"vehicle_type_id":"4","last_reported":1751368200,"current_range_meters":20800,"station_id":"","pricing_plan_id":"cebpf4jnsgd1na2vs0mg"},{"bike_id":"1ef6339a-b99f-49c1-8f2f-a549f24bcaf4","system_id":"levelo_inurba_marseille","lat":43.29713,"lon":5.37693,"is_reserved":false,"is_disabled":false,"rental_uris":{"android":"levelo://app?vid=1ef6339a-b99f-49c1-8f2f-a549f24bcaf4","ios":"levelo://app?vid=1ef6339a-b99f-49c1-8f2f-a549f24bcaf4"},"vehicle_type_id":"4","last_reported":1751368200,"current_range_meters":20800,"station_id":"ce4bgkh2rcd13ifvqbl0","pricing_plan_id":"cebpf4jnsgd1na2vs0mg"},{"bike_id":"32e72e30-d77b-46d0-8f9f-54ee21dc47a5","system_id":"levelo_inurba_marseille","lat":43.29808,"lon":5.40411,"is_reserved":false,"is_disabled":false,"rental_uris":{"android":"levelo://app?vid=32e72e30-d77b-46d0-8f9f-54ee21dc47a5","ios":"levelo://app?vid=32e72e30-d77b-46d0-8f9f-54ee21dc47a5"},"vehicle_type_id":"4","last_reported":1751368200,"current_range_meters":20800,"station_id":"ce4bh112rcd13ifvqd90","pricing_plan_id":"cebpf4jnsgd1na2vs0mg"},{"bike_id":"de14f9fc-bbc9-4a0d-86d4-89b8f10cf74e","system_id":"levelo_inurba_marseille","lat":43.28858,"lon":5.35858,"is_reserved":false,"is_disabled":false,"rental_uris":{"android":"levelo://app?vid=de14f9fc-bbc9-4a0d-86d4-89b8f10cf74e","ios":"levelo://app?vid=de14f9fc-bbc9-4a0d-86d4-89b8f10cf74e"},"vehicle_type_id":"4","last_reported":1751368200,"current_range_meters":20800,"station_id":"ce4bhb12rcd13ifvqem0","pricing_plan_id":"cebpf4jnsgd1na2vs0mg"},{"bike_id":"79ea45f6-35e3-4339-916a-40b8219b5b95","system_id":"levelo_inurba_marseille","lat":43.29006,"lon":5.35607,"is_reserved":false,"is_disabled":false,"rental_uris":{"android":"levelo://app?vid=79ea45f6-35e3-4339-916a-40b8219b5b95","ios":"levelo://app?vid=79ea45f6-35e3-4339-916a-40b8219b5b95"},"vehicle_type_id":"4","last_reported":1751368200,"current_range_meters":20800,"station_id":"ce4bhb92rcd13ifvqen0","pricing_plan_id":"cebpf4jnsgd1na2vs0mg"},{"bike_id":"e744a49c-9fbe-4d3e-98b9-e39600fd669f","system_id":"levelo_inurba_marseille","lat":43.28414,"lon":5.34988,"is_reserved":false,"is_disabled":false,"rental_uris":{"android":"levelo://app?vid=e744a49c-9fbe-4d3e-98b9-e39600fd669f","ios":"levelo://app?vid=e744a49c-9fbe-4d3e-98b9-e39600fd669f"},"vehicle_type_id":"4","last_reported":1751368200,"current_range_meters":20800,"station_id":"ce4bhbh2rcd13ifvqepg","pricing_plan_id":"cebpf4jnsgd1na2vs0mg"},{"bike_id":"1db5cc64-d231-4120-abbe-35ec3c476493","system_id":"levelo_inurba_marseille","lat":43.27053,"lon":5.40261,"is_reserved":false,"is_disabled":false,"rental_uris":{"android":"levelo://app?vid=1db5cc64-d231-4120-abbe-35ec3c476493","ios":"levelo://app?vid=1db5cc64-d231-4120-abbe-35ec3c476493"},"vehicle_type_id":"4","last_reported":1751368200,"current_range_meters":20800,"station_id":"ce4bhk92rcd13ifvqgc0","pricing_plan_id":"cebpf4jnsgd1na2vs0mg"},{"bike_id":"d32372d2-618a-415a-8a4f-88f751d5048f","system_id":"levelo_inurba_marseille","lat":43.31122,"lon":5.37766,"is_reserved":false,"is_disabled":false,"rental_uris":{"android":"levelo://app?vid=d32372d2-618a-415a-8a4f-88f751d5048f","ios":"levelo://app?vid=d32372d2-618a-415a-8a4f-88f751d5048f"},"vehicle_type_id":"4","last_reported":1751368200,"current_range_meters":21600,"station_id":"ce4bgt92rcd13ifvqcg0","pricing_plan_id":"cebpf4jnsgd1na2vs0mg"},{"bike_id":"c3b9e807-9f57-4733-ad64-ffb885ac8698","system_id":"levelo_inurba_marseille","lat":43.34164,"lon":5.40895,"is_reserved":false,"is_disabled":false,"rental_uris":{"android":"levelo://app?vid=c3b9e807-9f57-4733-ad64-ffb885ac8698","ios":"levelo://app?vid=c3b9e807-9f57-4733-ad64-ffb885ac8698"},"vehicle_type_id":"4","last_reported":1751368200,"current_range_meters":21600,"station_id":"ce4bhqh2rcd13ifvqhlg","pricing_plan_id":"cebpf4jnsgd1na2vs0mg"},