{"last_updated":1686074874,"ttl":30,"version":"2.2","data":{"bikes":[{"bike_id":"beaef3ec-e2a8-43c9-8d52-a7887e9810f0","system_id":"levelo_inurba_marseille","lat":43.31497,"lon":5.37103,"is_reserved":false,"is_disabled":false,"rental_uris":{"android":"levelo://app?vid=beaef3ec-e2a8-43c9-8d52-a7887e9810f0","ios":"levelo://app?vid=beaef3ec-e2a8-43c9-8d52-a7887e9810f0"},"vehicle_type_id":"4","last_reported":1686074875,"current_range_meters":22400,"station_id":"","pricing_plan_id":"free"},{"bike_id":"b7f670d4-8bf4-4736-b4f6-0fbfe60a744b","system_id":"levelo_inurba_marseille","lat":43.314811,"lon":5.373103,"is_reserved":false,"is_disabled":false,"rental_uris":{"android":"levelo://app?vid=b7f670d4-8bf4-4736-b4f6-0fbfe60a744b","ios":"levelo://app?vid=b7f670d4-8bf4-4736-b4f6-0fbfe60a744b"},"vehicle_type_id":"4","last_reported":1686074875,"current_range_meters":1600,"station_id":"ce4bgt12rcd13ifvqcd0","pricing_plan_id":"free"},{"bike_id":"c5b8fcb5-b1b5-4fab-bbe3-039e1b459cc2","system_id":"levelo_inurba_marseille","lat":43.31014,"lon":5.3754,"is_reserved":false,"is_disabled":false,"rental_uris":{"android":"levelo://app?vid=c5b8fcb5-b1b5-4fab-bbe3-039e1b459cc2","ios":"levelo://app?vid=c5b8fcb5-b1b5-4fab-bbe3-039e1b459cc2"},"vehicle_type_id":"4","last_reported":1686074875,"current_range_meters":18800,"station_id":"","pricing_plan_id":"free"},{"bike_id":"dc74fed1-b353-4bdb-9b5a-0099c5c8e7e9","system_id":"levelo_inurba_marseille","lat":43.32053,"lon":5.36615,"is_reserved":false,"is_disabled":false,"rental_uris":{"android":"levelo://app?vid=dc74fed1-b353-4bdb-9b5a-0099c5c8e7e9","ios":"levelo://app?vid=dc74fed1-b353-4bdb-9b5a-0099c5c8e7e9"},"vehicle_type_id":"4","last_reported":1686074875,"current_range_meters":800,"station_id":"","pricing_plan_id":"free"},{"bike_id":"b327fb7d-aa37-4ab6-8836-3cc8f919db3b","system_id":"levelo_inurba_marseille","lat":43.311125,"lon":5.377624,"is_reserved":false,"is_disabled":false,"rental_uris":{"android":"levelo://app?vid=b327fb7d-aa37-4ab6-8836-3cc8f919db3b","ios":"levelo://app?vid=b327fb7d-aa37-4ab6-8836-3cc8f919db3b"},"vehicle_type_id":"4","last_reported":1686074875,"current_range_meters":9600,"station_id":"ce4bgt92rcd13ifvqcg0","pricing_plan_id":"free"},{"bike_id":"b871e14f-9f01-401b-bc24-02fb44cb9a96","system_id":"levelo_inurba_marseille","lat":43.317075,"lon":5.377367,"is_reserved":false,"is_disabled":false,"rental_uris":{"android":"levelo://app?vid=b871e14f-9f01-401b-bc24-02fb44cb9a96","ios":"levelo://app?vid=b871e14f-9f01-401b-bc24-02fb44cb9a96"},"vehicle_type_id":"4","last_reported":1686074875,"current_range_meters":1600,"station_id":"ce4bgth2rcd13ifvqch0","pricing_plan_id":"free"},{"bike_id":"01e541e1-6a53-4c8e-b398-0e8540fbfb2d","system_id":"levelo_inurba_marseille","lat":43.30956,"lon":5.37991,"is_reserved":false,"is_disabled":false,"rental_uris":{"android":"levelo://app?vid=01e541e1-6a53-4c8e-b398-0e8540fbfb2d","ios":"levelo://app?vid=01e541e1-6a53-4c8e-b398-0e8540fbfb2d"},"vehicle_type_id":"4","last_reported":1686074875,"current_range_meters":21600,"station_id":"","pricing_plan_id":"free"},{"bike_id":"14e2d1e8-4726-456c-bef6-50939a50a357","system_id":"levelo_inurba_marseille","lat":43.31868,"lon":5.3784,"is_reserved":false,"is_disabled":false,"rental_uris":{"android":"levelo://app?vid=14e2d1e8-4726-456c-bef6-50939a50a357","ios":"levelo://app?vid=14e2d1e8-4726-456c-bef6-50939a50a357"},"vehicle_type_id":"4","last_reported":1686074875,"current_range_meters":20400,"station_id":"","pricing_plan_id":"free"},{"bike_id":"389e30b5-c2d6-45fe-b5a3-fd2d6b22e244","system_id":"levelo_inurba_marseille","lat":43.308012,"lon":5.381511,"is_reserved":false,"is_disabled":false,"rental_uris":{"android":"levelo://app?vid=389e30b5-c2d6-45fe-b5a3-fd2d6b22e244","ios":"levelo://app?vid=389e30b5-c2d6-45fe-b5a3-fd2d6b22e244"},"vehicle_type_id":"4","last_reported":1686074875,"current_range_meters":400,"station_id":"ce4bgt12rcd13ifvqce0","pricing_plan_id":"free"},{"bike_id":"bbe1640f-c677-4f0d-8cf6-7dafbbdf4552","system_id":"levelo_inurba_marseille","lat":43.308012,"lon":5.381511,"is_reserved":false,"is_disabled":false,"rental_uris":{"android":"levelo://app?vid=bbe1640f-c677-4f0d-8cf6-7dafbbdf4552","ios":"levelo://app?vid=bbe1640f-c677-4f0d-8cf6-7dafbbdf4552"},"vehicle_type_id":"4","last_reported":1686074875,"current_range_meters":16800,"station_id":"ce4bgt12rcd13ifvqce0","pricing_plan_id":"free"},{"bike_id":"6042544e-777e-4214-ac8d-c84fe8dc863a","system_id":"levelo_inurba_marseille","lat":43.31608,"lon":5.38237,"is_reserved":false,"is_disabled":false,"rental_uris":{"android":"levelo://app?vid=6042544e-777e-4214-ac8d-c84fe8dc863a","ios":"levelo://app?vid=6042544e-777e-4214-ac8d-c84fe8dc863a"},"vehicle_type_id":"4","last_reported":1686074875,"current_range_meters":1600,"station_id":"","pricing_plan_id":"free"},{"bike_id":"ba6b4a9e-f927-4d0e-bf58-daad93e27c63","system_id":"levelo_inurba_marseille","lat":43.3013,"lon":5.37426,"is_reserved":false,"is_disabled":false,"rental_uris":{"android":"levelo://app?vid=ba6b4a9e-f927-4d0e-bf58-daad93e27c63","ios":"levelo://app?vid=ba6b4a9e-f927-4d0e-bf58-daad93e27c63"},"vehicle_type_id":"4","last_reported":1686074875,"current_range_meters":21600,"station_id":"","pricing_plan_id":"free"},{"bike_id":"623a136a-2e52-4769-9824-7f0263548dee","system_id":"levelo_inurba_marseille","lat":43.319935,"lon":5.381699,"is_reserved":false,"is_disabled":false,"rental_uris":{"android":"levelo://app?vid=623a136a-2e52-4769-9824-7f0263548dee","ios":"levelo://app?vid=623a136a-2e52-4769-9824-7f0263548dee"},"vehicle_type_id":"4","last_reported":1686074875,"current_range_meters":27600,"station_id":"ce4bhr12rcd13ifvqhpg","pricing_plan_id":"free"},{"bike_id":"a8773c9e-1760-4294-9156-fb8d2bf0f328","system_id":"levelo_inurba_marseille","lat":43.313571,"lon":5.384829,"is_reserved":false,"is_disabled":false,"rental_uris":{"android":"levelo://app?vid=a8773c9e-1760-4294-9156-fb8d2bf0f328","ios":"levelo://app?vid=a8773c9e-1760-4294-9156-fb8d2bf0f328"},"vehicle_type_id":"4","last_reported":1686074875,"current_range_meters":9600,"station_id":"ce4bgt92rcd13ifvqcf0","pricing_plan_id":"free"},{"bike_id":"f39e6617-6a5f-4ba5-98d5-788f15d20117","system_id":"levelo_inurba_marseille","lat":43.32555,"lon":5.37489,"is_reserved":false,"is_disabled":false,"rental_uris":{"android":"levelo://app?vid=f39e6617-6a5f-4ba5-98d5-788f15d20117","ios":"levelo://app?vid=f39e6617-6a5f-4ba5-98d5-788f15d20117"},"vehicle_type_id":"4","last_reported":1686074875,"current_range_meters":30000,"station_id":"","pricing_plan_id":"free"},{"bike_id":"d52bfa9c-2492-4898-b187-db55c9ee49f3","system_id":"levelo_inurba_marseille","lat":43.3266,"lon":5.36118,"is_reserved":false,"is_disabled":false,"rental_uris":{"android":"levelo://app?vid=d52bfa9c-2492-4898-b187-db55c9ee49f3","ios":"levelo://app?vid=d52bfa9c-2492-4898-b187-db55c9ee49f3"},"vehicle_type_id":"4","last_reported":1686074875,"current_range_meters":2800,"station_id":"","pricing_plan_id":"free"},{"bike_id":"8c238b48-e9d6-4fa2-b2d1-636c98a01b8b","system_id":"levelo_inurba_marseille","lat":43.299243,"lon":5.374807,"is_reserved":false,"is_disabled":false,"rental_uris":{"android":"levelo://app?vid=8c238b48-e9d6-4fa2-b2d1-636c98a01b8b","ios":"levelo://app?vid=8c238b48-e9d6-4fa2-b2d1-636c98a01b8b"},"vehicle_type_id":"4","last_reported":1686074875,"current_range_meters":5200,"station_id":"ce4bgjh2rcd13ifvqbg0","pricing_plan_id":"free"},{"bike_id":"86fa1b4f-ff90-4327-9681-364a585d1e4a","system_id":"levelo_inurba_marseille","lat":43.29844,"lon":5.36262,"is_reserved":false,"is_disabled":false,"rental_uris":{"android":"levelo://app?vid=86fa1b4f-ff90-4327-9681-364a585d1e4a","ios":"levelo://app?vid=86fa1b4f-ff90-4327-9681-364a585d1e4a"},"vehicle_type_id":"4","last_reported":1686074875,"current_range_meters":5600,"station_id":"ce4bgpp2rcd13ifvqc3g","pricing_plan_id":"free"},{"bike_id":"ff273898-6e27-4393-8326-9922db067f43","system_id":"levelo_inurba_marseille","lat":43.311722,"lon":5.387247,"is_reserved":false,"is_disabled":false,"rental_uris":{"android":"levelo://app?vid=ff273898-6e27-4393-8326-9922db067f43","ios":"levelo://app?vid=ff273898-6e27-4393-8326-9922db067f43"},"vehicle_type_id":"4","last_reported":1686074875,"current_range_meters":1200,"station_id":"ce4bgv12rcd13ifvqcp0","pricing_plan_id":"free"},{"bike_id":"ded1e7bf-d630-46d1-a3e0-a2bb8cb8fdbe","system_id":"levelo_inurba_marseille","lat":43.29911,"lon":5.37549,"is_reserved":false,"is_disabled":false,"rental_uris":{"android":"levelo://app?vid=ded1e7bf-d630-46d1-a3e0-a2bb8cb8fdbe","ios":"levelo://app?vid=ded1e7bf-d630-46d1-a3e0-a2bb8cb8fdbe"},"vehicle_type_id":"4","last_reported":1686074875,"current_range_meters":3600,"station_id":"","pricing_plan_id":"free"},{"bike_id":"bc8a3a97-fa06-4fe3-90f1-1d72f4d0a5ea","system_id":"levelo_inurba_marseille","lat":43.297794,"lon":5.370888,"is_reserved":false,"is_disabled":false,"rental_uris":{"android":"levelo://app?vid=bc8a3a97-fa06-4fe3-90f1-1d72f4d0a5ea","ios":"levelo://app?vid=bc8a3a97-fa06-4fe3-90f1-1d72f4d0a5ea"},"vehicle_type_id":"4","last_reported":1686074875,"current_range_meters":1200,"station_id":"ce4bgop2rcd13ifvqc1g","pricing_plan_id":"free"},{"bike_id":"39257d59-7e8a-4529-8855-9ec06e7c0171","system_id":"levelo_inurba_marseille","lat":43.32795,"lon":5.36681,"is_reserved":false,"is_disabled":false,"rental_uris":{"android":"levelo://app?vid=39257d59-7e8a-4529-8855-9ec06e7c0171","ios":"levelo://app?vid=39257d59-7e8a-4529-8855-9ec06e7c0171"},"vehicle_type_id":"4","last_reported":1686074875,"current_range_meters":12800,"station_id":"","pricing_plan_id":"free"},{"bike_id":"9a69c66d-c658-4bb4-82a5-e164003ee7c4","system_id":"levelo_inurba_marseille","lat":43.3283,"lon":5.36673,"is_reserved":false,"is_disabled":false,"rental_uris":{"android":"levelo://app?vid=9a69c66d-c658-4bb4-82a5-e164003ee7c4","ios":"levelo://app?vid=9a69c66d-c658-4bb4-82a5-e164003ee7c4"},"vehicle_type_id":"4","last_reported":1686074875,"current_range_meters":29600,"station_id":"ce4bhs92rcd13ifvqi0g","pricing_plan_id":"free"},{"bike_id":"aa7eb6a6-84db-43c8-ba12-003db6ec536c","system_id":"levelo_inurba_marseille","lat":43.32834,"lon":5.36678,"is_reserved":false,"is_disabled":false,"rental_uris":{"android":"levelo://app?vid=aa7eb6a6-84db-43c8-ba12-003db6ec536c","ios":"levelo://app?vid=aa7eb6a6-84db-43c8-ba12-003db6ec536c"},"vehicle_type_id":"4","last_reported":1686074875,"current_range_meters":30400,"station_id":"ce4bhs92rcd13ifvqi0g","pricing_plan_id":"free"},{"bike_id":"e31dc9aa-41ab-4d5e-8bcb-3454473c6fab","system_id":"levelo_inurba_marseille","lat":43.32754,"lon":5.37494,"is_reserved":false,"is_disabled":false,"rental_uris":{"android":"levelo://app?vid=e31dc9aa-41ab-4d5e-8bcb-3454473c6fab","ios":"levelo://app?vid=e31dc9aa-41ab-4d5e-8bcb-3454473c6fab"},"vehicle_type_id":"4","last_reported":1686074875,"current_range_meters":27200,"station_id":"","pricing_plan_id":"free"},{"bike_id":"e4645239-cb4e-4666-8499-135a8c66e8e4","system_id":"levelo_inurba_marseille","lat":43.2968,"lon":5.37291,"is_reserved":false,"is_disabled":false,"rental_uris":{"android":"levelo://app?vid=e4645239-cb4e-4666-8499-135a8c66e8e4","ios":"levelo://app?vid=e4645239-cb4e-4666-8499-135a8c66e8e4"},"vehicle_type_id":"4","last_reported":1686074875,"current_range_meters":20000,"station_id":"ce4bgk12rcd13ifvqbj0","pricing_plan_id":"free"},{"bike_id":"0351b661-2f16-41e6-bedd-ebc50e0aa668","system_id":"levelo_inurba_marseille","lat":43.296131,"lon":5.370773,"is_reserved":false,"is_disabled":false,"rental_uris":{"android":"levelo://app?vid=0351b661-2f16-41e6-bedd-ebc50e0aa668","ios":"levelo://app?vid=0351b661-2f16-41e6-bedd-ebc50e0aa668"},"vehicle_type_id":"4","last_reported":1686074875,"current_range_meters":3200,"station_id":"ce4bgnh2rcd13ifvqc0g","pricing_plan_id":"free"},{"bike_id":"8b833982-85f2-4d8a-b398-1be4ed06fa67","system_id":"levelo_inurba_marseille","lat":43.29573,"lon":5.367355,"is_reserved":false,"is_disabled":false,"rental_uris":{"android":"levelo://app?vid=8b833982-85f2-4d8a-b398-1be4ed06fa67","ios":"levelo://app?vid=8b833982-85f2-4d8a-b398-1be4ed06fa67"},"vehicle_type_id":"4","last_reported":1686074875,"current_range_meters":27600,"station_id":"ce4bgph2rcd13ifvqc2g","pricing_plan_id":"free"},{"bike_id":"8c0668ad-e65f-40c3-9723-a6f3c52fbc85","system_id":"levelo_inurba_marseille","lat":43.296131,"lon":5.370773,"is_reserved":false,"is_disabled":false,"rental_uris":{"android":"levelo://app?vid=8c0668ad-e65f-40c3-9723-a6f3c52fbc85","ios":"levelo://app?vid=8c0668ad-e65f-40c3-9723-a6f3c52fbc85"},"vehicle_type_id":"4","last_reported":1686074875,"current_range_meters":0,"station_id":"ce4bgnh2rcd13ifvqc0g","pricing_plan_id":"free"},{"bike_id":"76cb1e03-ec54-4e85-bc9a-69c69be7004f","system_id":"levelo_inurba_marseille","lat":43.29623,"lon":5.37157,"is_reserved":false,"is_disabled":false,"rental_uris":{"android":"levelo://app?vid=76cb1e03-ec54-4e85-bc9a-69c69be7004f","ios":"levelo://app?vid=76cb1e03-ec54-4e85-bc9a-69c69be7004f"},"vehicle_type_id":"4","last_reported":1686074875,"current_range_meters":28800,"station_id":"","pricing_plan_id":"free"},{"bike_id":"9cd7a25f-e8b7-4503-a8f3-38864480c016","system_id":"levelo_inurba_marseille","lat":43.29623,"lon":5.37163,"is_reserved":false,"is_disabled":false,"rental_uris":{"android":"levelo://app?vid=9cd7a25f-e8b7-4503-a8f3-38864480c016","ios":"levelo://app?vid=9cd7a25f-e8b7-4503-a8f3-38864480c016"},"vehicle_type_id":"4","last_reported":1686074875,"current_range_meters":28400,"station_id":"","pricing_plan_id":"free"},{"bike_id":"181bcf24-f731-4795-a015-8ad5b67e4fc3","system_id":"levelo_inurba_marseille","lat":43.29573,"lon":5.367355,"is_reserved":false,"is_disabled":false,"rental_uris":{"android":"levelo://app?vid=181bcf24-f731-4795-a015-8ad5b67e4fc3","ios":"levelo://app?vid=181bcf24-f731-4795-a015-8ad5b67e4fc3"},"vehicle_type_id":"4","last_reported":1686074875,"current_range_meters":19600,"station_id":"ce4bgph2rcd13ifvqc2g","pricing_plan_id":"free"},{"bike_id":"8e7ec49f-6544-4120-a0f7-592de781858a","system_id":"levelo_inurba_marseille","lat":43.29573,"lon":5.367355,"is_reserved":false,"is_disabled":false,"rental_uris":{"android":"levelo://app?vid=8e7ec49f-6544-4120-a0f7-592de781858a","ios":"levelo://app?vid=8e7ec49f-6544-4120-a0f7-592de781858a"},"vehicle_type_id":"4","last_reported":1686074875,"current_range_meters":30000,"station_id":"ce4bgph2rcd13ifvqc2g","pricing_plan_id":"free"},{"bike_id":"3e159f9b-f7f1-4c49-9a9e-deb0a5e48711","system_id":"levelo_inurba_marseille","lat":43.29573,"lon":5.367355,"is_reserved":false,"is_disabled":false,"rental_uris":{"android":"levelo://app?vid=3e159f9b-f7f1-4c49-9a9e-deb0a5e48711","ios":"levelo://app?vid=3e159f9b-f7f1-4c49-9a9e-deb0a5e48711"},"vehicle_type_id":"4","last_reported":1686074875,"current_range_meters":29600,"station_id":"ce4bgph2rcd13ifvqc2g","pricing_plan_id":"free"},{"bike_id":"15fc02b8-2a1e-47f2-8e8a-25e417191e80","system_id":"levelo_inurba_marseille","lat":43.29573,"lon":5.367355,"is_reserved":false,"is_disabled":false,"rental_uris":{"android":"levelo://app?vid=15fc02b8-2a1e-47f2-8e8a-25e417191e80","ios":"levelo://app?vid=15fc02b8-2a1e-47f2-8e8a-25e417191e80"},"vehicle_type_id":"4","last_reported":1686074875,"current_range_meters":30000,"station_id":"ce4bgph2rcd13ifvqc2g","pricing_plan_id":"free"},{"bike_id":"9c91a4fc-b39b-4f2b-9292-b2385fbfa99c","system_id":"levelo_inurba_marseille","lat":43.29573,"lon":5.367355,"is_reserved":false,"is_disabled":false,"rental_uris":{"android":"levelo://app?vid=9c91a4fc-b39b-4f2b-9292-b2385fbfa99c","ios":"levelo://app?vid=9c91a4fc-b39b-4f2b-9292-b2385fbfa99c"},"vehicle_type_id":"4","last_reported":1686074875,"current_range_meters":0,"station_id":"ce4bgph2rcd13ifvqc2g","pricing_plan_id":"free"},{"bike_id":"614b3f5c-7b3a-41c1-bd0d-b049ae05b4e3","system_id":"levelo_inurba_marseille","lat":43.29573,"lon":5.367355,"is_reserved":false,"is_disabled":false,"rental_uris":{"android":"levelo://app?vid=614b3f5c-7b3a-41c1-bd0d-b049ae05b4e3","ios":"levelo://app?vid=614b3f5c-7b3a-41c1-bd0d-b049ae05b4e3"},"vehicle_type_id":"4","last_reported":1686074875,"current_range_meters":19200,"station_id":"ce4bgph2rcd13ifvqc2g","pricing_plan_id":"free"},{"bike_id":"37e5701e-aae5-4a55-84be-85dd695e79a6","system_id":"levelo_inurba_marseille","lat":43.29573,"lon":5.367355,"is_reserved":false,"is_disabled":false,"rental_uris":{"android":"levelo://app?vid=37e5701e-aae5-4a55-84be-85dd695e79a6","ios":"levelo://app?vid=37e5701e-aae5-4a55-84be-85dd695e79a6"},"vehicle_type_id":"4","last_reported":1686074875,"current_range_meters":30800,"station_id":"ce4bgph2rcd13ifvqc2g","pricing_plan_id":"free"},{"bike_id":"47271d0e-2c52-44e0-997c-4fadc77df8e3","system_id":"levelo_inurba_marseille","lat":43.29573,"lon":5.367355,"is_reserved":false,"is_disabled":false,"rental_uris":{"android":"levelo://app?vid=47271d0e-2c52-44e0-997c-4fadc77df8e3","ios":"levelo://app?vid=47271d0e-2c52-44e0-997c-4fadc77df8e3"},"vehicle_type_id":"4","last_reported":1686074875,"current_range_meters":31200,"station_id":"ce4bgph2rcd13ifvqc2g","pricing_plan_id":"free"},{"bike_id":"107e244d-3d85-4ce4-bc2b-3a75d744302f","system_id":"levelo_inurba_marseille","lat":43.29595,"lon":5.37086,"is_reserved":false,"is_disabled":false,"rental_uris":{"android":"levelo://app?vid=107e244d-3d85-4ce4-bc2b-3a75d744302f","ios":"levelo://app?vid=107e244d-3d85-4ce4-bc2b-3a75d744302f"},"vehicle_type_id":"4","last_reported":1686074875,"current_range_meters":7600,"station_id":"","pricing_plan_id":"free"},{"bike_id":"65b718b5-8e3e-436f-b0c1-32120a93075d","system_id":"levelo_inurba_marseille","lat":43.309589,"lon":5.390258,"is_reserved":false,"is_disabled":false,"rental_uris":{"android":"levelo://app?vid=65b718b5-8e3e-436f-b0c1-32120a93075d","ios":"levelo://app?vid=65b718b5-8e3e-436f-b0c1-32120a93075d"},"vehicle_type_id":"4","last_reported":1686074875,"current_range_meters":1200,"station_id":"ce4bgup2rcd13ifvqco0","pricing_plan_id":"free"},{"bike_id":"d27e4812-001e-4165-bffd-b10c937253f0","system_id":"levelo_inurba_marseille","lat":43.297922,"lon":5.38109,"is_reserved":false,"is_disabled":false,"rental_uris":{"android":"levelo://app?vid=d27e4812-001e-4165-bffd-b10c937253f0","ios":"levelo://app?vid=d27e4812-001e-4165-bffd-b10c937253f0"},"vehicle_type_id":"4","last_reported":1686074875,"current_range_meters":27200,"station_id":"ce4bgip2rcd13ifvqbb0","pricing_plan_id":"free"},{"bike_id":"4d94b713-8480-46ad-8bd0-759e53cf1f0a","system_id":"levelo_inurba_marseille","lat":43.29537,"lon":5.37494,"is_reserved":false,"is_disabled":false,"rental_uris":{"android":"levelo://app?vid=4d94b713-8480-46ad-8bd0-759e53cf1f0a","ios":"levelo://app?vid=4d94b713-8480-46ad-8bd0-759e53cf1f0a"},"vehicle_type_id":"4","last_reported":1686074875,"current_range_meters":28400,"station_id":"ce4bgkp2rcd13ifvqbmg","pricing_plan_id":"free"},{"bike_id":"2af47b49-87cd-456f-b914-fb5e0927a264","system_id":"levelo_inurba_marseille","lat":43.29662,"lon":5.38137,"is_reserved":false,"is_disabled":false,"rental_uris":{"android":"levelo://app?vid=2af47b49-87cd-456f-b914-fb5e0927a264","ios":"levelo://app?vid=2af47b49-87cd-456f-b914-fb5e0927a264"},"vehicle_type_id":"4","last_reported":1686074875,"current_range_meters":24800,"station_id":"","pricing_plan_id":"free"},{"bike_id":"39aea9ef-2d9e-4fb4-b9a7-53897c16af59","system_id":"levelo_inurba_marseille","lat":43.33079,"lon":5.37617,"is_reserved":false,"is_disabled":false,"rental_uris":{"android":"levelo://app?vid=39aea9ef-2d9e-4fb4-b9a7-53897c16af59","ios":"levelo://app?vid=39aea9ef-2d9e-4fb4-b9a7-53897c16af59"},"vehicle_type_id":"4","last_reported":1686074875,"current_range_meters":6000,"station_id":"","pricing_plan_id":"free"},{"bike_id":"de3c75fb-896c-47ea-8430-125a979253cf","system_id":"levelo_inurba_marseille","lat":43.32367,"lon":5.388836,"is_reserved":false,"is_disabled":false,"rental_uris":{"android":"levelo://app?vid=de3c75fb-896c-47ea-8430-125a979253cf","ios":"levelo://app?vid=de3c75fb-896c-47ea-8430-125a979253cf"},"vehicle_type_id":"4","last_reported":1686074875,"current_range_meters":1200,"station_id":"ce4bhqp2rcd13ifvqhog","pricing_plan_id":"free"},{"bike_id":"f4564053-b67c-491a-b405-941d4e477c30","system_id":"levelo_inurba_marseille","lat":43.3237,"lon":5.38884,"is_reserved":false,"is_disabled":false,"rental_uris":{"android":"levelo://app?vid=f4564053-b67c-491a-b405-941d4e477c30","ios":"levelo://app?vid=f4564053-b67c-491a-b405-941d4e477c30"},"vehicle_type_id":"4","last_reported":1686074875,"current_range_meters":0,"station_id":"ce4bhqp2rcd13ifvqhog","pricing_plan_id":"free"},{"bike_id":"2e55b29a-9ee8-4424-8aff-2bdc1fcfdde4","system_id":"levelo_inurba_marseille","lat":43.32367,"lon":5.388836,"is_reserved":false,"is_disabled":false,"rental_uris":{"android":"levelo://app?vid=2e55b29a-9ee8-4424-8aff-2bdc1fcfdde4","ios":"levelo://app?vid=2e55b29a-9ee8-4424-8aff-2bdc1fcfdde4"},"vehicle_type_id":"4","last_reported":1686074875,"current_range_meters":2400,"station_id":"ce4bhqp2rcd13ifvqhog","pricing_plan_id":"free"},{"bike_id":"9ae28e69-7bd2-4a96-b5b2-090998393147","system_id":"levelo_inurba_marseille","lat":43.29308,"lon":5.37176,"is_reserved":false,"is_disabled":false,"rental_uris":{"android":"levelo://app?vid=9ae28e69-7bd2-4a96-b5b2-090998393147","ios":"levelo://app?vid=9ae28e69-7bd2-4a96-b5b2-090998393147"},"vehicle_type_id":"4","last_reported":1686074875,"current_range_meters":0,"station_id":"ce4bgh92rcd13ifvqb40","pricing_plan_id":"free"},{"bike_id":"b2d39a03-1ccf-4ec3-8600-b0ca3957941d","system_id":"levelo_inurba_marseille","lat":43.29278,"lon":5.36841,"is_reserved":false,"is_disabled":false,"rental_uris":{"android":"levelo://app?vid=b2d39a03-1ccf-4ec3-8600-b0ca3957941d","ios":"levelo://app?vid=b2d39a03-1ccf-4ec3-8600-b0ca3957941d"},"vehicle_type_id":"4","last_reported":1686074875,"current_range_meters":22400,"station_id":"ce4bhbp2rcd13ifvqesg","pricing_plan_id":"free"},{"bike_id":"d8b17e9b-68c3-43f2-80d9-315092bcafab","system_id":"levelo_inurba_marseille","lat":43.292749,"lon":5.368398,"is_reserved":false,"is_disabled":false,"rental_uris":{"android":"levelo://app?vid=d8b17e9b-68c3-43f2-80d9-315092bcafab","ios":"levelo://app?vid=d8b17e9b-68c3-43f2-80d9-315092bcafab"},"vehicle_type_id":"4","last_reported":1686074875,"current_range_meters":27600,"station_id":"ce4bhbp2rcd13ifvqesg","pricing_plan_id":"free"},{"bike_id":"1967fe47-c243-49fd-908b-8e5adf2adcc6","system_id":"levelo_inurba_marseille","lat":43.292749,"lon":5.368398,"is_reserved":false,"is_disabled":false,"rental_uris":{"android":"levelo://app?vid=1967fe47-c243-49fd-908b-8e5adf2adcc6","ios":"levelo://app?vid=1967fe47-c243-49fd-908b-8e5adf2adcc6"},"vehicle_type_id":"4","last_reported":1686074875,"current_range_meters":17600,"station_id":"ce4bhbp2rcd13ifvqesg","pricing_plan_id":"free"},{"bike_id":"e287b697-8d66-48e0-96d2-d190aff2569f","system_id":"levelo_inurba_marseille","lat":43.29893,"lon":5.38775,"is_reserved":false,"is_disabled":false,"rental_uris":{"android":"levelo://app?vid=e287b697-8d66-48e0-96d2-d190aff2569f","ios":"levelo://app?vid=e287b697-8d66-48e0-96d2-d190aff2569f"},"vehicle_type_id":"4","last_reported":1686074875,"current_range_meters":0,"station_id":"","pricing_plan_id":"free"},{"bike_id":"7f78365d-8174-496b-a38a-877972fc1391","system_id":"levelo_inurba_marseille","lat":43.293009,"lon":5.374584,"is_reserved":false,"is_disabled":false,"rental_uris":{"android":"levelo://app?vid=7f78365d-8174-496b-a38a-877972fc1391","ios":"levelo://app?vid=7f78365d-8174-496b-a38a-877972fc1391"},"vehicle_type_id":"4","last_reported":1686074875,"current_range_meters":12000,"station_id":"ce4bgi12rcd13ifvqb70","pricing_plan_id":"free"},{"bike_id":"636812fa-acf2-4d15-be6f-8ef9e824debc","system_id":"levelo_inurba_marseille","lat":43.31382,"lon":5.39524,"is_reserved":false,"is_disabled":false,"rental_uris":{"android":"levelo://app?vid=636812fa-acf2-4d15-be6f-8ef9e824debc","ios":"levelo://app?vid=636812fa-acf2-4d15-be6f-8ef9e824debc"},"vehicle_type_id":"4","last_reported":1686074875,"current_range_meters":3200,"station_id":"","pricing_plan_id":"free"},{"bike_id":"6c5da9e3-7ed8-45f9-997e-3a66cf35eb9e","system_id":"levelo_inurba_marseille","lat":43.2927,"lon":5.35973,"is_reserved":false,"is_disabled":false,"rental_uris":{"android":"levelo://app?vid=6c5da9e3-7ed8-45f9-997e-3a66cf35eb9e","ios":"levelo://app?vid=6c5da9e3-7ed8-45f9-997e-3a66cf35eb9e"},"vehicle_type_id":"4","last_reported":1686074875,"current_range_meters":27600,"station_id":"","pricing_plan_id":"free"},{"bike_id":"475e37d7-8002-41b8-bb1a-542cf19db4a9","system_id":"levelo_inurba_marseille","lat":43.302992,"lon":5.392136,"is_reserved":false,"is_disabled":false,"rental_uris":{"android":"levelo://app?vid=475e37d7-8002-41b8-bb1a-542cf19db4a9","ios":"levelo://app?vid=475e37d7-8002-41b8-bb1a-542cf19db4a9"},"vehicle_type_id":"4","last_reported":1686074875,"current_range_meters":2800,"station_id":"ce4bgkh2rcd13ifvqbk0","pricing_plan_id":"free"},{"bike_id":"61e4ccfd-dc98-4837-8123-2dfa5e087f42","system_id":"levelo_inurba_marseille","lat":43.293723,"lon":5.378443,"is_reserved":false,"is_disabled":false,"rental_uris":{"android":"levelo://app?vid=61e4ccfd-dc98-4837-8123-2dfa5e087f42","ios":"levelo://app?vid=61e4ccfd-dc98-4837-8123-2dfa5e087f42"},"vehicle_type_id":"4","last_reported":1686074875,"current_range_meters":18400,"station_id":"","pricing_plan_id":"free"},{"bike_id":"7f9a31f9-ba00-4665-b6ad-13e4dda7c667","system_id":"levelo_inurba_marseille","lat":43.292311,"lon":5.360731,"is_reserved":false,"is_disabled":false,"rental_uris":{"android":"levelo://app?vid=7f9a31f9-ba00-4665-b6ad-13e4dda7c667","ios":"levelo://app?vid=7f9a31f9-ba00-4665-b6ad-13e4dda7c667"},"vehicle_type_id":"4","last_reported":1686074875,"current_range_meters":2800,"station_id":"ce4bhbh2rcd13ifvqeqg","pricing_plan_id":"free"},{"bike_id":"0b046584-7c14-4d57-a4ff-033dde117f5c","system_id":"levelo_inurba_marseille","lat":43.29231,"lon":5.36073,"is_reserved":false,"is_disabled":false,"rental_uris":{"android":"levelo://app?vid=0b046584-7c14-4d57-a4ff-033dde117f5c","ios":"levelo://app?vid=0b046584-7c14-4d57-a4ff-033dde117f5c"},"vehicle_type_id":"4","last_reported":1686074875,"current_range_meters":12800,"station_id":"ce4bhbh2rcd13ifvqeqg","pricing_plan_id":"free"},{"bike_id":"2839e8f7-b4a5-4e90-99e9-ef6e3d64a06e","system_id":"levelo_inurba_marseille","lat":43.298764,"lon":5.388973,"is_reserved":false,"is_disabled":false,"rental_uris":{"android":"levelo://app?vid=2839e8f7-b4a5-4e90-99e9-ef6e3d64a06e","ios":"levelo://app?vid=2839e8f7-b4a5-4e90-99e9-ef6e3d64a06e"},"vehicle_type_id":"4","last_reported":1686074875,"current_range_meters":8800,"station_id":"ce4bh392rcd13ifvqdl0","pricing_plan_id":"free"},{"bike_id":"fee33f5e-63bf-4ac4-8a22-5a06cfd0c206","system_id":"levelo_inurba_marseille","lat":43.292663,"lon":5.376394,"is_reserved":false,"is_disabled":false,"rental_uris":{"android":"levelo://app?vid=fee33f5e-63bf-4ac4-8a22-5a06cfd0c206","ios":"levelo://app?vid=fee33f5e-63bf-4ac4-8a22-5a06cfd0c206"},"vehicle_type_id":"4","last_reported":1686074875,"current_range_meters":0,"station_id":"ce4bgi12rcd13ifvqb80","pricing_plan_id":"free"},{"bike_id":"05fa6668-8a4d-45a4-aae0-c06673c9f2ab","system_id":"levelo_inurba_marseille","lat":43.298764,"lon":5.388973,"is_reserved":false,"is_disabled":false,"rental_uris":{"android":"levelo://app?vid=05fa6668-8a4d-45a4-aae0-c06673c9f2ab","ios":"levelo://app?vid=05fa6668-8a4d-45a4-aae0-c06673c9f2ab"},"vehicle_type_id":"4","last_reported":1686074875,"current_range_meters":2400,"station_id":"ce4bh392rcd13ifvqdl0","pricing_plan_id":"free"},{"bike_id":"0a2330f1-b412-4a9a-9d7f-fc9ca6110590","system_id":"levelo_inurba_marseille","lat":43.291675,"lon":5.371583,"is_reserved":false,"is_disabled":false,"rental_uris":{"android":"levelo://app?vid=0a2330f1-b412-4a9a-9d7f-fc9ca6110590","ios":"levelo://app?vid=0a2330f1-b412-4a9a-9d7f-fc9ca6110590"},"vehicle_type_id":"4","last_reported":1686074875,"current_range_meters":19200,"station_id":"ce4bha92rcd13ifvqeh0","pricing_plan_id":"free"},{"bike_id":"e65d1a79-bdf9-49f2-b6fe-72fae25708ef","system_id":"levelo_inurba_marseille","lat":43.313291,"lon":5.396838,"is_reserved":false,"is_disabled":false,"rental_uris":{"android":"levelo://app?vid=e65d1a79-bdf9-49f2-b6fe-72fae25708ef","ios":"levelo://app?vid=e65d1a79-bdf9-49f2-b6fe-72fae25708ef"},"vehicle_type_id":"4","last_reported":1686074875,"current_range_meters":1200,"station_id":"ce4bgvp2rcd13ifvqcu0","pricing_plan_id":"free"},{"bike_id":"e3aa3fe1-aa0b-4038-85dd-c9f1f09817ed","system_id":"levelo_inurba_marseille","lat":43.290779,"lon":5.371482,"is_reserved":false,"is_disabled":false,"rental_uris":{"android":"levelo://app?vid=e3aa3fe1-aa0b-4038-85dd-c9f1f09817ed","ios":"levelo://app?vid=e3aa3fe1-aa0b-4038-85dd-c9f1f09817ed"},"vehicle_type_id":"4","last_reported":1686074875,"current_range_meters":10800,"station_id":"ce4bh5p2rcd13ifvqe4g","pricing_plan_id":"free"},{"bike_id":"acb2d568-d4fa-4f84-baa8-895487231768","system_id":"levelo_inurba_marseille","lat":43.289184,"lon":5.366408,"is_reserved":false,"is_disabled":false,"rental_uris":{"android":"levelo://app?vid=acb2d568-d4fa-4f84-baa8-895487231768","ios":"levelo://app?vid=acb2d568-d4fa-4f84-baa8-895487231768"},"vehicle_type_id":"4","last_reported":1686074875,"current_range_meters":0,"station_id":"ce4bhap2rcd13ifvqek0","pricing_plan_id":"free"},{"bike_id":"8bbc012d-90c6-48b8-a076-52c40c1098b7","system_id":"levelo_inurba_marseille","lat":43.289184,"lon":5.366408,"is_reserved":false,"is_disabled":false,"rental_uris":{"android":"levelo://app?vid=8bbc012d-90c6-48b8-a076-52c40c1098b7","ios":"levelo://app?vid=8bbc012d-90c6-48b8-a076-52c40c1098b7"},"vehicle_type_id":"4","last_reported":1686074875,"current_range_meters":14000,"station_id":"ce4bhap2rcd13ifvqek0","pricing_plan_id":"free"},{"bike_id":"4ec847b3-c0a6-4cdb-b53b-25f423ed2ba6","system_id":"levelo_inurba_marseille","lat":43.292642,"lon":5.384254,"is_reserved":false,"is_disabled":false,"rental_uris":{"android":"levelo://app?vid=4ec847b3-c0a6-4cdb-b53b-25f423ed2ba6","ios":"levelo://app?vid=4ec847b3-c0a6-4cdb-b53b-25f423ed2ba6"},"vehicle_type_id":"4","last_reported":1686074875,"current_range_meters":2000,"station_id":"ce4bh692rcd13ifvqea0","pricing_plan_id":"free"},{"bike_id":"5e0e0501-7750-44d9-ad26-cdf92656c13c","system_id":"levelo_inurba_marseille","lat":43.292642,"lon":5.384254,"is_reserved":false,"is_disabled":false,"rental_uris":{"android":"levelo://app?vid=5e0e0501-7750-44d9-ad26-cdf92656c13c","ios":"levelo://app?vid=5e0e0501-7750-44d9-ad26-cdf92656c13c"},"vehicle_type_id":"4","last_reported":1686074875,"current_range_meters":0,"station_id":"ce4bh692rcd13ifvqea0","pricing_plan_id":"free"},{"bike_id":"63eaada3-b793-4bcd-abae-15bc86866f4d","system_id":"levelo_inurba_marseille","lat":43.33045,"lon":5.38914,"is_reserved":false,"is_disabled":false,"rental_uris":{"android":"levelo://app?vid=63eaada3-b793-4bcd-abae-15bc86866f4d","ios":"levelo://app?vid=63eaada3-b793-4bcd-abae-15bc86866f4d"},"vehicle_type_id":"4","last_reported":1686074875,"current_range_meters":30000,"station_id":"ce4bhr92rcd13ifvqhrg","pricing_plan_id":"free"},{"bike_id":"7d8ded58-25fe-441d-b555-105296e94933","system_id":"levelo_inurba_marseille","lat":43.33748,"lon":5.37432,"is_reserved":false,"is_disabled":false,"rental_uris":{"android":"levelo://app?vid=7d8ded58-25fe-441d-b555-105296e94933","ios":"levelo://app?vid=7d8ded58-25fe-441d-b555-105296e94933"},"vehicle_type_id":"4","last_reported":1686074875,"current_range_meters":10800,"station_id":"","pricing_plan_id":"free"},{"bike_id":"8e0ebf5a-a725-467b-84b9-7e9779cf0b76","system_id":"levelo_inurba_marseille","lat":43.33748,"lon":5.37439,"is_reserved":false,"is_disabled":false,"rental_uris":{"android":"levelo://app?vid=8e0ebf5a-a725-467b-84b9-7e9779cf0b76","ios":"levelo://app?vid=8e0ebf5a-a725-467b-84b9-7e9779cf0b76"},"vehicle_type_id":"4","last_reported":1686074875,"current_range_meters":18000,"station_id":"","pricing_plan_id":"free"},{"bike_id":"a2bc5c31-776b-4272-bf0f-fa8197dc8835","system_id":"levelo_inurba_marseille","lat":43.33759,"lon":5.3746,"is_reserved":false,"is_disabled":false,"rental_uris":{"android":"levelo://app?vid=a2bc5c31-776b-4272-bf0f-fa8197dc8835","ios":"levelo://app?vid=a2bc5c31-776b-4272-bf0f-fa8197dc8835"},"vehicle_type_id":"4","last_reported":1686074875,"current_range_meters":13600,"station_id":"","pricing_plan_id":"free"},{"bike_id":"8c84932b-f3eb-4d3a-acea-ec6a41fbb0e0","system_id":"levelo_inurba_marseille","lat":43.306452,"lon":5.401024,"is_reserved":false,"is_disabled":false,"rental_uris":{"android":"levelo://app?vid=8c84932b-f3eb-4d3a-acea-ec6a41fbb0e0","ios":"levelo://app?vid=8c84932b-f3eb-4d3a-acea-ec6a41fbb0e0"},"vehicle_type_id":"4","last_reported":1686074875,"current_range_meters":0,"station_id":"","pricing_plan_id":"free"},{"bike_id":"c0b57da6-0fb1-4ef0-8aa6-8bc6af9e5fb8","system_id":"levelo_inurba_marseille","lat":43.298681,"lon":5.397225,"is_reserved":false,"is_disabled":false,"rental_uris":{"android":"levelo://app?vid=c0b57da6-0fb1-4ef0-8aa6-8bc6af9e5fb8","ios":"levelo://app?vid=c0b57da6-0fb1-4ef0-8aa6-8bc6af9e5fb8"},"vehicle_type_id":"4","last_reported":1686074875,"current_range_meters":8400,"station_id":"ce4bh0h2rcd13ifvqd50","pricing_plan_id":"free"},{"bike_id":"9e6c2482-d0e5-43d7-beb1-6d46e77f471e","system_id":"levelo_inurba_marseille","lat":43.2953,"lon":5.39399,"is_reserved":false,"is_disabled":false,"rental_uris":{"android":"levelo://app?vid=9e6c2482-d0e5-43d7-beb1-6d46e77f471e","ios":"levelo://app?vid=9e6c2482-d0e5-43d7-beb1-6d46e77f471e"},"vehicle_type_id":"4","last_reported":1686074875,"current_range_meters":11600,"station_id":"ce4bh292rcd13ifvqdf0","pricing_plan_id":"free"},{"bike_id":"0ceda39d-d265-4372-ae8d-1df43c8e2175","system_id":"levelo_inurba_marseille","lat":43.290336,"lon":5.386425,"is_reserved":false,"is_disabled":false,"rental_uris":{"android":"levelo://app?vid=0ceda39d-d265-4372-ae8d-1df43c8e2175","ios":"levelo://app?vid=0ceda39d-d265-4372-ae8d-1df43c8e2175"},"vehicle_type_id":"4","last_reported":1686074875,"current_range_meters":2400,"station_id":"ce4bh4p2rcd13ifvqe0g","pricing_plan_id":"free"},{"bike_id":"cc8fefeb-80ee-4077-98e6-9a2ca1bc8c07","system_id":"levelo_inurba_marseille","lat":43.302759,"lon":5.400793,"is_reserved":false,"is_disabled":false,"rental_uris":{"android":"levelo://app?vid=cc8fefeb-80ee-4077-98e6-9a2ca1bc8c07","ios":"levelo://app?vid=cc8fefeb-80ee-4077-98e6-9a2ca1bc8c07"},"vehicle_type_id":"4","last_reported":1686074875,"current_range_meters":2000,"station_id":"ce4bgvh2rcd13ifvqcs0","pricing_plan_id":"free"},{"bike_id":"b90fe2ac-1e5e-4a5a-a657-9650339b7012","system_id":"levelo_inurba_marseille","lat":43.286039,"lon":5.370681,"is_reserved":false,"is_disabled":false,"rental_uris":{"android":"levelo://app?vid=b90fe2ac-1e5e-4a5a-a657-9650339b7012","ios":"levelo://app?vid=b90fe2ac-1e5e-4a5a-a657-9650339b7012"},"vehicle_type_id":"4","last_reported":1686074875,"current_range_meters":14400,"station_id":"ce4bht12rcd13ifvqi60","pricing_plan_id":"free"},{"bike_id":"9ea23348-8f03-4b05-8379-bd812ad8e4df","system_id":"levelo_inurba_marseille","lat":43.286039,"lon":5.370681,"is_reserved":false,"is_disabled":false,"rental_uris":{"android":"levelo://app?vid=9ea23348-8f03-4b05-8379-bd812ad8e4df","ios":"levelo://app?vid=9ea23348-8f03-4b05-8379-bd812ad8e4df"},"vehicle_type_id":"4","last_reported":1686074875,"current_range_meters":4800,"station_id":"ce4bht12rcd13ifvqi60","pricing_plan_id":"free"},{"bike_id":"1d878ae5-749a-4d37-b97d-576d3697cfb4","system_id":"levelo_inurba_marseille","lat":43.317104,"lon":5.436818,"is_reserved":false,"is_disabled":false,"rental_uris":{"android":"levelo://app?vid=1d878ae5-749a-4d37-b97d-576d3697cfb4","ios":"levelo://app?vid=1d878ae5-749a-4d37-b97d-576d3697cfb4"},"vehicle_type_id":"4","last_reported":1686074875,"current_range_meters":8000,"station_id":"ce4bhp92rcd13ifvqhcg","pricing_plan_id":"free"},{"bike_id":"fe4e72f4-5356-4e99-86d4-ded333a70ca9","system_id":"levelo_inurba_marseille","lat":43.286039,"lon":5.370681,"is_reserved":false,"is_disabled":false,"rental_uris":{"android":"levelo://app?vid=fe4e72f4-5356-4e99-86d4-ded333a70ca9","ios":"levelo://app?vid=fe4e72f4-5356-4e99-86d4-ded333a70ca9"},"vehicle_type_id":"4","last_reported":1686074875,"current_range_meters":8800,"station_id":"ce4bht12rcd13ifvqi60","pricing_plan_id":"free"},{"bike_id":"21adfa26-d3b5-441e-a9ce-3b7ff72596dd","system_id":"levelo_inurba_marseille","lat":43.34023,"lon":5.36256,"is_reserved":false,"is_disabled":false,"rental_uris":{"android":"levelo://app?vid=21adfa26-d3b5-441e-a9ce-3b7ff72596dd","ios":"levelo://app?vid=21adfa26-d3b5-441e-a9ce-3b7ff72596dd"},"vehicle_type_id":"4","last_reported":1686074875,"current_range_meters":4000,"station_id":"","pricing_plan_id":"free"},{"bike_id":"bbc6ed9c-d7b0-4496-90f8-e96be2498ff6","system_id":"levelo_inurba_marseille","lat":43.31631,"lon":5.40477,"is_reserved":false,"is_disabled":false,"rental_uris":{"android":"levelo://app?vid=bbc6ed9c-d7b0-4496-90f8-e96be2498ff6","ios":"levelo://app?vid=bbc6ed9c-d7b0-4496-90f8-e96be2498ff6"},"vehicle_type_id":"4","last_reported":1686074875,"current_range_meters":14400,"station_id":"","pricing_plan_id":"free"},{"bike_id":"2cf6879d-d86f-412c-8e6c-bba797ca7a32","system_id":"levelo_inurba_marseille","lat":43.291994,"lon":5.392907,"is_reserved":false,"is_disabled":false,"rental_uris":{"android":"levelo://app?vid=2cf6879d-d86f-412c-8e6c-bba797ca7a32","ios":"levelo://app?vid=2cf6879d-d86f-412c-8e6c-bba797ca7a32"},"vehicle_type_id":"4","last_reported":1686074875,"current_range_meters":15600,"station_id":"ce4bh192rcd13ifvqdd0","pricing_plan_id":"free"},{"bike_id":"8e87ed7e-177b-4a80-946a-a893673e8c76","system_id":"levelo_inurba_marseille","lat":43.28254,"lon":5.37407,"is_reserved":false,"is_disabled":false,"rental_uris":{"android":"levelo://app?vid=8e87ed7e-177b-4a80-946a-a893673e8c76","ios":"levelo://app?vid=8e87ed7e-177b-4a80-946a-a893673e8c76"},"vehicle_type_id":"4","last_reported":1686074875,"current_range_meters":5600,"station_id":"","pricing_plan_id":"free"},{"bike_id":"eac375f9-5ee5-47bd-8c1a-513d7fd39534","system_id":"levelo_inurba_marseille","lat":43.288497,"lon":5.393089,"is_reserved":false,"is_disabled":false,"rental_uris":{"android":"levelo://app?vid=eac375f9-5ee5-47bd-8c1a-513d7fd39534","ios":"levelo://app?vid=eac375f9-5ee5-47bd-8c1a-513d7fd39534"},"vehicle_type_id":"4","last_reported":1686074875,"current_range_meters":27200,"station_id":"ce4bh2p2rcd13ifvqdi0","pricing_plan_id":"free"},{"bike_id":"2669db02-524f-473a-86b6-4a747e299c4a","system_id":"levelo_inurba_marseille","lat":43.32571,"lon":5.4061,"is_reserved":false,"is_disabled":false,"rental_uris":{"android":"levelo://app?vid=2669db02-524f-473a-86b6-4a747e299c4a","ios":"levelo://app?vid=2669db02-524f-473a-86b6-4a747e299c4a"},"vehicle_type_id":"4","last_reported":1686074875,"current_range_meters":4400,"station_id":"","pricing_plan_id":"free"},{"bike_id":"9c2d9595-1250-4e2a-9fef-6cd1a18bf826","system_id":"levelo_inurba_marseille","lat":43.283502,"lon":5.386471,"is_reserved":false,"is_disabled":false,"rental_uris":{"android":"levelo://app?vid=9c2d9595-1250-4e2a-9fef-6cd1a18bf826","ios":"levelo://app?vid=9c2d9595-1250-4e2a-9fef-6cd1a18bf826"},"vehicle_type_id":"4","last_reported":1686074875,"current_range_meters":0,"station_id":"ce4bh492rcd13ifvqdvg","pricing_plan_id":"free"},{"bike_id":"9180e099-5482-4ec8-82b7-30af559a12d7","system_id":"levelo_inurba_marseille","lat":43.29041,"lon":5.399634,"is_reserved":false,"is_disabled":false,"rental_uris":{"android":"levelo://app?vid=9180e099-5482-4ec8-82b7-30af559a12d7","ios":"levelo://app?vid=9180e099-5482-4ec8-82b7-30af559a12d7"},"vehicle_type_id":"4","last_reported":1686074875,"current_range_meters":1200,"station_id":"ce4bh392rcd13ifvqdm0","pricing_plan_id":"free"},{"bike_id":"e7e2b9b6-764e-4d49-a81f-e968efa3a23c","system_id":"levelo_inurba_marseille","lat":43.29041,"lon":5.399634,"is_reserved":false,"is_disabled":false,"rental_uris":{"android":"levelo://app?vid=e7e2b9b6-764e-4d49-a81f-e968efa3a23c","ios":"levelo://app?vid=e7e2b9b6-764e-4d49-a81f-e968efa3a23c"},"vehicle_type_id":"4","last_reported":1686074875,"current_range_meters":11200,"station_id":"ce4bh392rcd13ifvqdm0","pricing_plan_id":"free"},{"bike_id":"a9087ff7-b3d5-409e-9eac-d17db0c5e5fb","system_id":"levelo_inurba_marseille","lat":43.281044,"lon":5.378308,"is_reserved":false,"is_disabled":false,"rental_uris":{"android":"levelo://app?vid=a9087ff7-b3d5-409e-9eac-d17db0c5e5fb","ios":"levelo://app?vid=a9087ff7-b3d5-409e-9eac-d17db0c5e5fb"},"vehicle_type_id":"4","last_reported":1686074875,"current_range_meters":19200,"station_id":"ce4bha12rcd13ifvqee0","pricing_plan_id":"free"},{"bike_id":"09438f43-4289-4cc8-8a44-18f9bfe70be5","system_id":"levelo_inurba_marseille","lat":43.28573,"lon":5.394992,"is_reserved":false,"is_disabled":false,"rental_uris":{"android":"levelo://app?vid=09438f43-4289-4cc8-8a44-18f9bfe70be5","ios":"levelo://app?vid=09438f43-4289-4cc8-8a44-18f9bfe70be5"},"vehicle_type_id":"4","last_reported":1686074875,"current_range_meters":3600,"station_id":"ce4bh292rcd13ifvqdg0","pricing_plan_id":"free"},{"bike_id":"801d25d8-6f3e-44b4-a310-328cb6005e53","system_id":"levelo_inurba_marseille","lat":43.279742,"lon":5.38744,"is_reserved":false,"is_disabled":false,"rental_uris":{"android":"levelo://app?vid=801d25d8-6f3e-44b4-a310-328cb6005e53","ios":"levelo://app?vid=801d25d8-6f3e-44b4-a310-328cb6005e53"},"vehicle_type_id":"4","last_reported":1686074875,"current_range_meters":23200,"station_id":"ce4bhg12rcd13ifvqf80","pricing_plan_id":"free"},{"bike_id":"0ae3d951-9f6b-477e-83b0-902941fa1684","system_id":"levelo_inurba_marseille","lat":43.279742,"lon":5.38744,"is_reserved":false,"is_disabled":false,"rental_uris":{"android":"levelo://app?vid=0ae3d951-9f6b-477e-83b0-902941fa1684","ios":"levelo://app?vid=0ae3d951-9f6b-477e-83b0-902941fa1684"},"vehicle_type_id":"4","last_reported":1686074875,"current_range_meters":7600,"station_id":"ce4bhg12rcd13ifvqf80","pricing_plan_id":"free"},{"bike_id":"339c6bfc-684a-45c3-a7c6-c672d8c3ebb7","system_id":"levelo_inurba_marseille","lat":43.292571,"lon":5.409107,"is_reserved":false,"is_disabled":false,"rental_uris":{"android":"levelo://app?vid=339c6bfc-684a-45c3-a7c6-c672d8c3ebb7","ios":"levelo://app?vid=339c6bfc-684a-45c3-a7c6-c672d8c3ebb7"},"vehicle_type_id":"4","last_reported":1686074875,"current_range_meters":0,"station_id":"ce4bh192rcd13ifvqdc0","pricing_plan_id":"free"},{"bike_id":"ac680cac-7372-452c-9f25-cf8b5544b7e8","system_id":"levelo_inurba_marseille","lat":43.29258,"lon":5.40902,"is_reserved":false,"is_disabled":false,"rental_uris":{"android":"levelo://app?vid=ac680cac-7372-452c-9f25-cf8b5544b7e8","ios":"levelo://app?vid=ac680cac-7372-452c-9f25-cf8b5544b7e8"},"vehicle_type_id":"4","last_reported":1686074875,"current_range_meters":800,"station_id":"ce4bh192rcd13ifvqdc0","pricing_plan_id":"free"},{"bike_id":"9055c40b-8fe1-4078-98c6-9270426a93de","system_id":"levelo_inurba_marseille","lat":43.280784,"lon":5.396622,"is_reserved":false,"is_disabled":false,"rental_uris":{"android":"levelo://app?vid=9055c40b-8fe1-4078-98c6-9270426a93de","ios":"levelo://app?vid=9055c40b-8fe1-4078-98c6-9270426a93de"},"vehicle_type_id":"4","last_reported":1686074875,"current_range_meters":0,"station_id":"ce4bho12rcd13ifvqh2g","pricing_plan_id":"free"},{"bike_id":"76ceed27-7af7-4381-b5a3-db068ab0b2a3","system_id":"levelo_inurba_marseille","lat":43.276769,"lon":5.388787,"is_reserved":false,"is_disabled":false,"rental_uris":{"android":"levelo://app?vid=76ceed27-7af7-4381-b5a3-db068ab0b2a3","ios":"levelo://app?vid=76ceed27-7af7-4381-b5a3-db068ab0b2a3"},"vehicle_type_id":"4","last_reported":1686074875,"current_range_meters":0,"station_id":"ce4bhi12rcd13ifvqfo0","pricing_plan_id":"free"},{"bike_id":"942b6a7f-b583-4dd3-952a-e3c58628dbe8","system_id":"levelo_inurba_marseille","lat":43.310785,"lon":5.424305,"is_reserved":false,"is_disabled":false,"rental_uris":{"android":"levelo://app?vid=942b6a7f-b583-4dd3-952a-e3c58628dbe8","ios":"levelo://app?vid=942b6a7f-b583-4dd3-952a-e3c58628dbe8"},"vehicle_type_id":"4","last_reported":1686074875,"current_range_meters":10000,"station_id":"ce4bhp92rcd13ifvqhag","pricing_plan_id":"free"},{"bike_id":"4f9b7eb9-da8e-4959-bb10-c18a0bed1388","system_id":"levelo_inurba_marseille","lat":43.310785,"lon":5.424305,"is_reserved":false,"is_disabled":false,"rental_uris":{"android":"levelo://app?vid=4f9b7eb9-da8e-4959-bb10-c18a0bed1388","ios":"levelo://app?vid=4f9b7eb9-da8e-4959-bb10-c18a0bed1388"},"vehicle_type_id":"4","last_reported":1686074875,"current_range_meters":12000,"station_id":"ce4bhp92rcd13ifvqhag","pricing_plan_id":"free"},{"bike_id":"5818ba98-d41a-41e3-9c04-3ce20509a651","system_id":"levelo_inurba_marseille","lat":43.2761,"lon":5.39482,"is_reserved":false,"is_disabled":false,"rental_uris":{"android":"levelo://app?vid=5818ba98-d41a-41e3-9c04-3ce20509a651","ios":"levelo://app?vid=5818ba98-d41a-41e3-9c04-3ce20509a651"},"vehicle_type_id":"4","last_reported":1686074875,"current_range_meters":12400,"station_id":"","pricing_plan_id":"free"},{"bike_id":"586c5235-67a8-46ec-9d65-bb3fab536433","system_id":"levelo_inurba_marseille","lat":43.33521,"lon":5.41648,"is_reserved":false,"is_disabled":false,"rental_uris":{"android":"levelo://app?vid=586c5235-67a8-46ec-9d65-bb3fab536433","ios":"levelo://app?vid=586c5235-67a8-46ec-9d65-bb3fab536433"},"vehicle_type_id":"4","last_reported":1686074875,"current_range_meters":18000,"station_id":"","pricing_plan_id":"free"},{"bike_id":"47798519-9d31-4294-95cf-983aa58565ab","system_id":"levelo_inurba_marseille","lat":43.30417,"lon":5.42542,"is_reserved":false,"is_disabled":false,"rental_uris":{"android":"levelo://app?vid=47798519-9d31-4294-95cf-983aa58565ab","ios":"levelo://app?vid=47798519-9d31-4294-95cf-983aa58565ab"},"vehicle_type_id":"4","last_reported":1686074875,"current_range_meters":8800,"station_id":"ce4bhoh2rcd13ifvqh6g","pricing_plan_id":"free"},{"bike_id":"07bd3a97-212e-44f7-8b6d-a6f4d4125ac7","system_id":"levelo_inurba_marseille","lat":43.29539,"lon":5.4228,"is_reserved":false,"is_disabled":false,"rental_uris":{"android":"levelo://app?vid=07bd3a97-212e-44f7-8b6d-a6f4d4125ac7","ios":"levelo://app?vid=07bd3a97-212e-44f7-8b6d-a6f4d4125ac7"},"vehicle_type_id":"4","last_reported":1686074875,"current_range_meters":12000,"station_id":"ce4bhph2rcd13ifvqhdg","pricing_plan_id":"free"},{"bike_id":"e1819995-e031-40bb-9a77-4d3a823e0447","system_id":"levelo_inurba_marseille","lat":43.272069,"lon":5.391841,"is_reserved":false,"is_disabled":false,"rental_uris":{"android":"levelo://app?vid=e1819995-e031-40bb-9a77-4d3a823e0447","ios":"levelo://app?vid=e1819995-e031-40bb-9a77-4d3a823e0447"},"vehicle_type_id":"4","last_reported":1686074875,"current_range_meters":26800,"station_id":"","pricing_plan_id":"free"},{"bike_id":"f2107e22-0bd5-441e-979f-1825e3c84267","system_id":"levelo_inurba_marseille","lat":43.272116,"lon":5.391747,"is_reserved":false,"is_disabled":false,"rental_uris":{"android":"levelo://app?vid=f2107e22-0bd5-441e-979f-1825e3c84267","ios":"levelo://app?vid=f2107e22-0bd5-441e-979f-1825e3c84267"},"vehicle_type_id":"4","last_reported":1686074875,"current_range_meters":2400,"station_id":"ce4bhhp2rcd13ifvqfm0","pricing_plan_id":"free"},{"bike_id":"5699aa75-a376-4864-920b-ed72bdd2b8a0","system_id":"levelo_inurba_marseille","lat":43.278128,"lon":5.407195,"is_reserved":false,"is_disabled":false,"rental_uris":{"android":"levelo://app?vid=5699aa75-a376-4864-920b-ed72bdd2b8a0","ios":"levelo://app?vid=5699aa75-a376-4864-920b-ed72bdd2b8a0"},"vehicle_type_id":"4","last_reported":1686074875,"current_range_meters":5200,"station_id":"ce4bhnh2rcd13ifvqgtg","pricing_plan_id":"free"},{"bike_id":"76c87edd-c723-4a28-8577-2cd0c25b0fbb","system_id":"levelo_inurba_marseille","lat":43.278128,"lon":5.407195,"is_reserved":false,"is_disabled":false,"rental_uris":{"android":"levelo://app?vid=76c87edd-c723-4a28-8577-2cd0c25b0fbb","ios":"levelo://app?vid=76c87edd-c723-4a28-8577-2cd0c25b0fbb"},"vehicle_type_id":"4","last_reported":1686074875,"current_range_meters":2800,"station_id":"ce4bhnh2rcd13ifvqgtg","pricing_plan_id":"free"},{"bike_id":"9a266d83-1e16-4859-b87c-3b7175f70d3e","system_id":"levelo_inurba_marseille","lat":43.26948,"lon":5.38638,"is_reserved":false,"is_disabled":false,"rental_uris":{"android":"levelo://app?vid=9a266d83-1e16-4859-b87c-3b7175f70d3e","ios":"levelo://app?vid=9a266d83-1e16-4859-b87c-3b7175f70d3e"},"vehicle_type_id":"4","last_reported":1686074875,"current_range_meters":0,"station_id":"ce4bhh92rcd13ifvqfh0","pricing_plan_id":"free"},{"bike_id":"a3d22327-bd6b-48ca-ba59-7de9f964b989","system_id":"levelo_inurba_marseille","lat":43.269319,"lon":5.389397,"is_reserved":false,"is_disabled":false,"rental_uris":{"android":"levelo://app?vid=a3d22327-bd6b-48ca-ba59-7de9f964b989","ios":"levelo://app?vid=a3d22327-bd6b-48ca-ba59-7de9f964b989"},"vehicle_type_id":"4","last_reported":1686074875,"current_range_meters":7200,"station_id":"ce4bhhh2rcd13ifvqfl0","pricing_plan_id":"free"},{"bike_id":"7b782b7b-6aa6-45cc-b692-50064be82d98","system_id":"levelo_inurba_marseille","lat":43.31699,"lon":5.43322,"is_reserved":false,"is_disabled":false,"rental_uris":{"android":"levelo://app?vid=7b782b7b-6aa6-45cc-b692-50064be82d98","ios":"levelo://app?vid=7b782b7b-6aa6-45cc-b692-50064be82d98"},"vehicle_type_id":"4","last_reported":1686074875,"current_range_meters":0,"station_id":"","pricing_plan_id":"free"},{"bike_id":"41a72f93-ffe0-4276-a93a-80129b0c1f43","system_id":"levelo_inurba_marseille","lat":43.27996,"lon":5.416624,"is_reserved":false,"is_disabled":false,"rental_uris":{"android":"levelo://app?vid=41a72f93-ffe0-4276-a93a-80129b0c1f43","ios":"levelo://app?vid=41a72f93-ffe0-4276-a93a-80129b0c1f43"},"vehicle_type_id":"4","last_reported":1686074875,"current_range_meters":6400,"station_id":"ce4bho12rcd13ifvqh1g","pricing_plan_id":"free"},{"bike_id":"6373e17f-f855-4917-9702-f60d71118364","system_id":"levelo_inurba_marseille","lat":43.265569,"lon":5.390047,"is_reserved":false,"is_disabled":false,"rental_uris":{"android":"levelo://app?vid=6373e17f-f855-4917-9702-f60d71118364","ios":"levelo://app?vid=6373e17f-f855-4917-9702-f60d71118364"},"vehicle_type_id":"4","last_reported":1686074875,"current_range_meters":30000,"station_id":"ce4bhe12rcd13ifvqf30","pricing_plan_id":"free"},{"bike_id":"7e7b1e3c-e99c-406f-a259-01468a4fd6d4","system_id":"levelo_inurba_marseille","lat":43.265569,"lon":5.390047,"is_reserved":false,"is_disabled":false,"rental_uris":{"android":"levelo://app?vid=7e7b1e3c-e99c-406f-a259-01468a4fd6d4","ios":"levelo://app?vid=7e7b1e3c-e99c-406f-a259-01468a4fd6d4"},"vehicle_type_id":"4","last_reported":1686074875,"current_range_meters":26800,"station_id":"ce4bhe12rcd13ifvqf30","pricing_plan_id":"free"},{"bike_id":"0cd90fd9-8b72-405d-ab84-8fd761e85d49","system_id":"levelo_inurba_marseille","lat":43.265569,"lon":5.390047,"is_reserved":false,"is_disabled":false,"rental_uris":{"android":"levelo://app?vid=0cd90fd9-8b72-405d-ab84-8fd761e85d49","ios":"levelo://app?vid=0cd90fd9-8b72-405d-ab84-8fd761e85d49"},"vehicle_type_id":"4","last_reported":1686074875,"current_range_meters":9600,"station_id":"ce4bhe12rcd13ifvqf30","pricing_plan_id":"free"},{"bike_id":"2bbe3cb5-b57c-43d5-bc5a-8533670b689c","system_id":"levelo_inurba_marseille","lat":43.261871,"lon":5.37442,"is_reserved":false,"is_disabled":false,"rental_uris":{"android":"levelo://app?vid=2bbe3cb5-b57c-43d5-bc5a-8533670b689c","ios":"levelo://app?vid=2bbe3cb5-b57c-43d5-bc5a-8533670b689c"},"vehicle_type_id":"4","last_reported":1686074875,"current_range_meters":28800,"station_id":"ce4bhgp2rcd13ifvqfc0","pricing_plan_id":"free"},{"bike_id":"fd5d89b9-c171-4d80-8983-cf180a07ebfe","system_id":"levelo_inurba_marseille","lat":43.317104,"lon":5.436818,"is_reserved":false,"is_disabled":false,"rental_uris":{"android":"levelo://app?vid=fd5d89b9-c171-4d80-8983-cf180a07ebfe","ios":"levelo://app?vid=fd5d89b9-c171-4d80-8983-cf180a07ebfe"},"vehicle_type_id":"4","last_reported":1686074875,"current_range_meters":27600,"station_id":"ce4bhp92rcd13ifvqhcg","pricing_plan_id":"free"},{"bike_id":"794d86d8-7a1c-468c-8a27-64e409c621ce","system_id":"levelo_inurba_marseille","lat":43.261782,"lon":5.374515,"is_reserved":false,"is_disabled":false,"rental_uris":{"android":"levelo://app?vid=794d86d8-7a1c-468c-8a27-64e409c621ce","ios":"levelo://app?vid=794d86d8-7a1c-468c-8a27-64e409c621ce"},"vehicle_type_id":"4","last_reported":1686074875,"current_range_meters":400,"station_id":"ce4bhgp2rcd13ifvqfc0","pricing_plan_id":"free"},{"bike_id":"c554fef8-9492-4487-9462-b78f892919cc","system_id":"levelo_inurba_marseille","lat":43.317104,"lon":5.436818,"is_reserved":false,"is_disabled":false,"rental_uris":{"android":"levelo://app?vid=c554fef8-9492-4487-9462-b78f892919cc","ios":"levelo://app?vid=c554fef8-9492-4487-9462-b78f892919cc"},"vehicle_type_id":"4","last_reported":1686074875,"current_range_meters":2000,"station_id":"ce4bhp92rcd13ifvqhcg","pricing_plan_id":"free"},{"bike_id":"b40968eb-4126-4010-a5dc-e18993b84d91","system_id":"levelo_inurba_marseille","lat":43.26206,"lon":5.37924,"is_reserved":false,"is_disabled":false,"rental_uris":{"android":"levelo://app?vid=b40968eb-4126-4010-a5dc-e18993b84d91","ios":"levelo://app?vid=b40968eb-4126-4010-a5dc-e18993b84d91"},"vehicle_type_id":"4","last_reported":1686074875,"current_range_meters":3600,"station_id":"ce4bhjp2rcd13ifvqg90","pricing_plan_id":"free"},{"bike_id":"caa65489-917c-4a6e-ab2c-24f752c39d5d","system_id":"levelo_inurba_marseille","lat":43.271368,"lon":5.40928,"is_reserved":false,"is_disabled":false,"rental_uris":{"android":"levelo://app?vid=caa65489-917c-4a6e-ab2c-24f752c39d5d","ios":"levelo://app?vid=caa65489-917c-4a6e-ab2c-24f752c39d5d"},"vehicle_type_id":"4","last_reported":1686074875,"current_range_meters":16800,"station_id":"ce4bhl12rcd13ifvqgf0","pricing_plan_id":"free"},{"bike_id":"3e6c26d8-b549-4e02-807f-452e6a655b5a","system_id":"levelo_inurba_marseille","lat":43.26805,"lon":5.40263,"is_reserved":false,"is_disabled":false,"rental_uris":{"android":"levelo://app?vid=3e6c26d8-b549-4e02-807f-452e6a655b5a","ios":"levelo://app?vid=3e6c26d8-b549-4e02-807f-452e6a655b5a"},"vehicle_type_id":"4","last_reported":1686074875,"current_range_meters":0,"station_id":"ce501612rcd8frsf0b60","pricing_plan_id":"free"},{"bike_id":"36f20581-37ff-4965-871d-aaf61881bbdc","system_id":"levelo_inurba_marseille","lat":43.267959,"lon":5.402685,"is_reserved":false,"is_disabled":false,"rental_uris":{"android":"levelo://app?vid=36f20581-37ff-4965-871d-aaf61881bbdc","ios":"levelo://app?vid=36f20581-37ff-4965-871d-aaf61881bbdc"},"vehicle_type_id":"4","last_reported":1686074875,"current_range_meters":8400,"station_id":"ce501612rcd8frsf0b60","pricing_plan_id":"free"},{"bike_id":"a17a0eb8-eb61-4ced-a3bc-43ce77c9e17e","system_id":"levelo_inurba_marseille","lat":43.298768,"lon":5.43643,"is_reserved":false,"is_disabled":false,"rental_uris":{"android":"levelo://app?vid=a17a0eb8-eb61-4ced-a3bc-43ce77c9e17e","ios":"levelo://app?vid=a17a0eb8-eb61-4ced-a3bc-43ce77c9e17e"},"vehicle_type_id":"4","last_reported":1686074875,"current_range_meters":6800,"station_id":"ce4bhpp2rcd13ifvqhfg","pricing_plan_id":"free"},{"bike_id":"0abd466f-ae7a-4789-a218-e3b2c168a2b3","system_id":"levelo_inurba_marseille","lat":43.25961,"lon":5.3755,"is_reserved":false,"is_disabled":false,"rental_uris":{"android":"levelo://app?vid=0abd466f-ae7a-4789-a218-e3b2c168a2b3","ios":"levelo://app?vid=0abd466f-ae7a-4789-a218-e3b2c168a2b3"},"vehicle_type_id":"4","last_reported":1686074875,"current_range_meters":16800,"station_id":"","pricing_plan_id":"free"},{"bike_id":"44e31856-0a07-4afa-b24a-a6991b1fcf1c","system_id":"levelo_inurba_marseille","lat":43.2607,"lon":5.393983,"is_reserved":false,"is_disabled":false,"rental_uris":{"android":"levelo://app?vid=44e31856-0a07-4afa-b24a-a6991b1fcf1c","ios":"levelo://app?vid=44e31856-0a07-4afa-b24a-a6991b1fcf1c"},"vehicle_type_id":"4","last_reported":1686074875,"current_range_meters":800,"station_id":"ce4bhh92rcd13ifvqfj0","pricing_plan_id":"free"},{"bike_id":"1d34637b-a82a-4638-876a-d2fee8476a35","system_id":"levelo_inurba_marseille","lat":43.309076,"lon":5.368465,"is_reserved":false,"is_disabled":false,"rental_uris":{"android":"levelo://app?vid=1d34637b-a82a-4638-876a-d2fee8476a35","ios":"levelo://app?vid=1d34637b-a82a-4638-876a-d2fee8476a35"},"vehicle_type_id":"4","last_reported":1686074875,"current_range_meters":15600,"station_id":"ce4bgn92rcd13ifvqbvg","pricing_plan_id":"free"},{"bike_id":"a781a343-b241-4f95-ab3c-8b2df648c6cb","system_id":"levelo_inurba_marseille","lat":43.33312,"lon":5.44167,"is_reserved":false,"is_disabled":false,"rental_uris":{"android":"levelo://app?vid=a781a343-b241-4f95-ab3c-8b2df648c6cb","ios":"levelo://app?vid=a781a343-b241-4f95-ab3c-8b2df648c6cb"},"vehicle_type_id":"4","last_reported":1686074875,"current_range_meters":20400,"station_id":"","pricing_plan_id":"free"},{"bike_id":"ea440978-3ae8-42a0-9543-9221d5719510","system_id":"levelo_inurba_marseille","lat":43.254945,"lon":5.376454,"is_reserved":false,"is_disabled":false,"rental_uris":{"android":"levelo://app?vid=ea440978-3ae8-42a0-9543-9221d5719510","ios":"levelo://app?vid=ea440978-3ae8-42a0-9543-9221d5719510"},"vehicle_type_id":"4","last_reported":1686074875,"current_range_meters":1200,"station_id":"ce4bhh12rcd13ifvqff0","pricing_plan_id":"free"},{"bike_id":"3d7a94c2-40b6-431b-b6bc-605edc316ef2","system_id":"levelo_inurba_marseille","lat":43.258658,"lon":5.398935,"is_reserved":false,"is_disabled":false,"rental_uris":{"android":"levelo://app?vid=3d7a94c2-40b6-431b-b6bc-605edc316ef2","ios":"levelo://app?vid=3d7a94c2-40b6-431b-b6bc-605edc316ef2"},"vehicle_type_id":"4","last_reported":1686074875,"current_range_meters":6800,"station_id":"ce4bhl92rcd13ifvqghg","pricing_plan_id":"free"},{"bike_id":"84999963-ba59-414e-b6f9-d0cc92b1d0f4","system_id":"levelo_inurba_marseille","lat":43.258658,"lon":5.398935,"is_reserved":false,"is_disabled":false,"rental_uris":{"android":"levelo://app?vid=84999963-ba59-414e-b6f9-d0cc92b1d0f4","ios":"levelo://app?vid=84999963-ba59-414e-b6f9-d0cc92b1d0f4"},"vehicle_type_id":"4","last_reported":1686074875,"current_range_meters":0,"station_id":"ce4bhl92rcd13ifvqghg","pricing_plan_id":"free"},{"bike_id":"7684ab60-e56e-4dd9-8200-fd922f722d65","system_id":"levelo_inurba_marseille","lat":43.28154,"lon":5.43832,"is_reserved":false,"is_disabled":false,"rental_uris":{"android":"levelo://app?vid=7684ab60-e56e-4dd9-8200-fd922f722d65","ios":"levelo://app?vid=7684ab60-e56e-4dd9-8200-fd922f722d65"},"vehicle_type_id":"4","last_reported":1686074875,"current_range_meters":0,"station_id":"","pricing_plan_id":"free"},{"bike_id":"c8bbc208-8f51-4d10-84d2-5cc690baa642","system_id":"levelo_inurba_marseille","lat":43.25223,"lon":5.38035,"is_reserved":false,"is_disabled":false,"rental_uris":{"android":"levelo://app?vid=c8bbc208-8f51-4d10-84d2-5cc690baa642","ios":"levelo://app?vid=c8bbc208-8f51-4d10-84d2-5cc690baa642"},"vehicle_type_id":"4","last_reported":1686074875,"current_range_meters":30000,"station_id":"","pricing_plan_id":"free"},{"bike_id":"69756b64-7bc4-41e8-9ea0-cb29e9bc612b","system_id":"levelo_inurba_marseille","lat":43.24839,"lon":5.37506,"is_reserved":false,"is_disabled":false,"rental_uris":{"android":"levelo://app?vid=69756b64-7bc4-41e8-9ea0-cb29e9bc612b","ios":"levelo://app?vid=69756b64-7bc4-41e8-9ea0-cb29e9bc612b"},"vehicle_type_id":"4","last_reported":1686074875,"current_range_meters":26800,"station_id":"","pricing_plan_id":"free"},{"bike_id":"90fc7f90-301b-40fd-b281-8477327f0ebe","system_id":"levelo_inurba_marseille","lat":43.250023,"lon":5.38919,"is_reserved":false,"is_disabled":false,"rental_uris":{"android":"levelo://app?vid=90fc7f90-301b-40fd-b281-8477327f0ebe","ios":"levelo://app?vid=90fc7f90-301b-40fd-b281-8477327f0ebe"},"vehicle_type_id":"4","last_reported":1686074875,"current_range_meters":2800,"station_id":"ce4bhgp2rcd13ifvqfd0","pricing_plan_id":"free"},{"bike_id":"ad3fae7c-2fba-4a4d-87cb-11668f9e48ff","system_id":"levelo_inurba_marseille","lat":43.2479,"lon":5.374457,"is_reserved":false,"is_disabled":false,"rental_uris":{"android":"levelo://app?vid=ad3fae7c-2fba-4a4d-87cb-11668f9e48ff","ios":"levelo://app?vid=ad3fae7c-2fba-4a4d-87cb-11668f9e48ff"},"vehicle_type_id":"4","last_reported":1686074875,"current_range_meters":2000,"station_id":"ce4bhgh2rcd13ifvqfb0","pricing_plan_id":"free"},{"bike_id":"93ab35d2-81d3-43b4-83c7-38e68f1e058b","system_id":"levelo_inurba_marseille","lat":43.2479,"lon":5.374457,"is_reserved":false,"is_disabled":false,"rental_uris":{"android":"levelo://app?vid=93ab35d2-81d3-43b4-83c7-38e68f1e058b","ios":"levelo://app?vid=93ab35d2-81d3-43b4-83c7-38e68f1e058b"},"vehicle_type_id":"4","last_reported":1686074875,"current_range_meters":4000,"station_id":"ce4bhgh2rcd13ifvqfb0","pricing_plan_id":"free"},{"bike_id":"c5f28982-959c-4b13-96c9-7f63b024170b","system_id":"levelo_inurba_marseille","lat":43.2479,"lon":5.374457,"is_reserved":false,"is_disabled":false,"rental_uris":{"android":"levelo://app?vid=c5f28982-959c-4b13-96c9-7f63b024170b","ios":"levelo://app?vid=c5f28982-959c-4b13-96c9-7f63b024170b"},"vehicle_type_id":"4","last_reported":1686074875,"current_range_meters":13600,"station_id":"ce4bhgh2rcd13ifvqfb0","pricing_plan_id":"free"},{"bike_id":"595f753b-72fa-4f8c-a6ee-4b3fecd3d4b0","system_id":"levelo_inurba_marseille","lat":43.2479,"lon":5.374457,"is_reserved":false,"is_disabled":false,"rental_uris":{"android":"levelo://app?vid=595f753b-72fa-4f8c-a6ee-4b3fecd3d4b0","ios":"levelo://app?vid=595f753b-72fa-4f8c-a6ee-4b3fecd3d4b0"},"vehicle_type_id":"4","last_reported":1686074875,"current_range_meters":22800,"station_id":"ce4bhgh2rcd13ifvqfb0","pricing_plan_id":"free"},{"bike_id":"6dc08217-9d71-40d7-8a09-a6e1ff1743c2","system_id":"levelo_inurba_marseille","lat":43.250966,"lon":5.395186,"is_reserved":false,"is_disabled":false,"rental_uris":{"android":"levelo://app?vid=6dc08217-9d71-40d7-8a09-a6e1ff1743c2","ios":"levelo://app?vid=6dc08217-9d71-40d7-8a09-a6e1ff1743c2"},"vehicle_type_id":"4","last_reported":1686074875,"current_range_meters":3600,"station_id":"ce4bhm12rcd13ifvqgkg","pricing_plan_id":"free"},{"bike_id":"9b61a0f8-6673-48ad-a8ab-da321d28ff38","system_id":"levelo_inurba_marseille","lat":43.25102,"lon":5.403214,"is_reserved":false,"is_disabled":false,"rental_uris":{"android":"levelo://app?vid=9b61a0f8-6673-48ad-a8ab-da321d28ff38","ios":"levelo://app?vid=9b61a0f8-6673-48ad-a8ab-da321d28ff38"},"vehicle_type_id":"4","last_reported":1686074875,"current_range_meters":3600,"station_id":"ce4bhlh2rcd13ifvqgig","pricing_plan_id":"free"},{"bike_id":"0651c71b-e64c-417e-b8ce-949ebc786360","system_id":"levelo_inurba_marseille","lat":43.246467,"lon":5.388984,"is_reserved":false,"is_disabled":false,"rental_uris":{"android":"levelo://app?vid=0651c71b-e64c-417e-b8ce-949ebc786360","ios":"levelo://app?vid=0651c71b-e64c-417e-b8ce-949ebc786360"},"vehicle_type_id":"4","last_reported":1686074875,"current_range_meters":18000,"station_id":"ce4bhg12rcd13ifvqf60","pricing_plan_id":"free"},{"bike_id":"4c40b01d-a739-4281-9f58-adc4eb9d048c","system_id":"levelo_inurba_marseille","lat":43.246461,"lon":5.389014,"is_reserved":false,"is_disabled":false,"rental_uris":{"android":"levelo://app?vid=4c40b01d-a739-4281-9f58-adc4eb9d048c","ios":"levelo://app?vid=4c40b01d-a739-4281-9f58-adc4eb9d048c"},"vehicle_type_id":"4","last_reported":1686074875,"current_range_meters":12400,"station_id":"ce4bhg12rcd13ifvqf60","pricing_plan_id":"free"},{"bike_id":"893f6265-34df-42f6-a10e-66c34576a3aa","system_id":"levelo_inurba_marseille","lat":43.24459,"lon":5.36913,"is_reserved":false,"is_disabled":false,"rental_uris":{"android":"levelo://app?vid=893f6265-34df-42f6-a10e-66c34576a3aa","ios":"levelo://app?vid=893f6265-34df-42f6-a10e-66c34576a3aa"},"vehicle_type_id":"4","last_reported":1686074875,"current_range_meters":23600,"station_id":"","pricing_plan_id":"free"},{"bike_id":"9537f6ea-811e-4929-92be-d2916ad7fdd6","system_id":"levelo_inurba_marseille","lat":43.24622,"lon":5.39168,"is_reserved":false,"is_disabled":false,"rental_uris":{"android":"levelo://app?vid=9537f6ea-811e-4929-92be-d2916ad7fdd6","ios":"levelo://app?vid=9537f6ea-811e-4929-92be-d2916ad7fdd6"},"vehicle_type_id":"4","last_reported":1686074875,"current_range_meters":4400,"station_id":"","pricing_plan_id":"free"},{"bike_id":"1b75c057-4b0d-4c7f-ad0a-6f1b4fa342ab","system_id":"levelo_inurba_marseille","lat":43.241782,"lon":5.397261,"is_reserved":false,"is_disabled":false,"rental_uris":{"android":"levelo://app?vid=1b75c057-4b0d-4c7f-ad0a-6f1b4fa342ab","ios":"levelo://app?vid=1b75c057-4b0d-4c7f-ad0a-6f1b4fa342ab"},"vehicle_type_id":"4","last_reported":1686074875,"current_range_meters":25200,"station_id":"ce4bhn12rcd13ifvqgpg","pricing_plan_id":"free"},{"bike_id":"cd067b1a-8fae-478e-80ae-1a05e86ea36a","system_id":"levelo_inurba_marseille","lat":43.231923,"lon":5.355545,"is_reserved":false,"is_disabled":false,"rental_uris":{"android":"levelo://app?vid=cd067b1a-8fae-478e-80ae-1a05e86ea36a","ios":"levelo://app?vid=cd067b1a-8fae-478e-80ae-1a05e86ea36a"},"vehicle_type_id":"4","last_reported":1686074875,"current_range_meters":16000,"station_id":"ce4bhu92rcd13ifvqi70","pricing_plan_id":"free"},{"bike_id":"7aeac07f-62c5-4ed6-b9e4-5980e40b1460","system_id":"levelo_inurba_marseille","lat":43.23197,"lon":5.3555,"is_reserved":false,"is_disabled":false,"rental_uris":{"android":"levelo://app?vid=7aeac07f-62c5-4ed6-b9e4-5980e40b1460","ios":"levelo://app?vid=7aeac07f-62c5-4ed6-b9e4-5980e40b1460"},"vehicle_type_id":"4","last_reported":1686074875,"current_range_meters":2400,"station_id":"ce4bhu92rcd13ifvqi70","pricing_plan_id":"free"},{"bike_id":"0db5b38c-129e-4993-9ecd-3a3671ab1c86","system_id":"levelo_inurba_marseille","lat":43.231923,"lon":5.355545,"is_reserved":false,"is_disabled":false,"rental_uris":{"android":"levelo://app?vid=0db5b38c-129e-4993-9ecd-3a3671ab1c86","ios":"levelo://app?vid=0db5b38c-129e-4993-9ecd-3a3671ab1c86"},"vehicle_type_id":"4","last_reported":1686074875,"current_range_meters":23600,"station_id":"ce4bhu92rcd13ifvqi70","pricing_plan_id":"free"},{"bike_id":"f62e5ffc-0fcf-4e80-9760-ca2bfbab6e04","system_id":"levelo_inurba_marseille","lat":43.23194,"lon":5.35554,"is_reserved":false,"is_disabled":false,"rental_uris":{"android":"levelo://app?vid=f62e5ffc-0fcf-4e80-9760-ca2bfbab6e04","ios":"levelo://app?vid=f62e5ffc-0fcf-4e80-9760-ca2bfbab6e04"},"vehicle_type_id":"4","last_reported":1686074875,"current_range_meters":16000,"station_id":"ce4bhu92rcd13ifvqi70","pricing_plan_id":"free"},{"bike_id":"8c440dc5-e554-43df-8f09-c1313d529552","system_id":"levelo_inurba_marseille","lat":43.23191,"lon":5.35558,"is_reserved":false,"is_disabled":false,"rental_uris":{"android":"levelo://app?vid=8c440dc5-e554-43df-8f09-c1313d529552","ios":"levelo://app?vid=8c440dc5-e554-43df-8f09-c1313d529552"},"vehicle_type_id":"4","last_reported":1686074875,"current_range_meters":3200,"station_id":"ce4bhu92rcd13ifvqi70","pricing_plan_id":"free"},{"bike_id":"8cae3d93-7e26-4500-9be4-9cf3a8ecbc76","system_id":"levelo_inurba_marseille","lat":43.2319,"lon":5.35558,"is_reserved":false,"is_disabled":false,"rental_uris":{"android":"levelo://app?vid=8cae3d93-7e26-4500-9be4-9cf3a8ecbc76","ios":"levelo://app?vid=8cae3d93-7e26-4500-9be4-9cf3a8ecbc76"},"vehicle_type_id":"4","last_reported":1686074875,"current_range_meters":27200,"station_id":"ce4bhu92rcd13ifvqi70","pricing_plan_id":"free"},{"bike_id":"8f4e4544-dd41-408d-98f0-e5661691edf9","system_id":"levelo_inurba_marseille","lat":43.2319,"lon":5.35555,"is_reserved":false,"is_disabled":false,"rental_uris":{"android":"levelo://app?vid=8f4e4544-dd41-408d-98f0-e5661691edf9","ios":"levelo://app?vid=8f4e4544-dd41-408d-98f0-e5661691edf9"},"vehicle_type_id":"4","last_reported":1686074875,"current_range_meters":23200,"station_id":"ce4bhu92rcd13ifvqi70","pricing_plan_id":"free"},{"bike_id":"2349544d-499a-4811-8bc5-d5a1a8edfc07","system_id":"levelo_inurba_marseille","lat":43.231794,"lon":5.400052,"is_reserved":false,"is_disabled":false,"rental_uris":{"android":"levelo://app?vid=2349544d-499a-4811-8bc5-d5a1a8edfc07","ios":"levelo://app?vid=2349544d-499a-4811-8bc5-d5a1a8edfc07"},"vehicle_type_id":"4","last_reported":1686074875,"current_range_meters":5600,"station_id":"ce4bhn12rcd13ifvqgqg","pricing_plan_id":"free"},{"bike_id":"fdab7f46-a87f-4b1c-b97f-9d41a342b2ab","system_id":"levelo_inurba_marseille","lat":43.231793,"lon":5.400044,"is_reserved":false,"is_disabled":false,"rental_uris":{"android":"levelo://app?vid=fdab7f46-a87f-4b1c-b97f-9d41a342b2ab","ios":"levelo://app?vid=fdab7f46-a87f-4b1c-b97f-9d41a342b2ab"},"vehicle_type_id":"4","last_reported":1686074875,"current_range_meters":6800,"station_id":"ce4bhn12rcd13ifvqgqg","pricing_plan_id":"free"},{"bike_id":"b91d2a15-19a3-4cf5-a257-4433403f0a19","system_id":"levelo_inurba_marseille","lat":43.231793,"lon":5.400044,"is_reserved":false,"is_disabled":false,"rental_uris":{"android":"levelo://app?vid=b91d2a15-19a3-4cf5-a257-4433403f0a19","ios":"levelo://app?vid=b91d2a15-19a3-4cf5-a257-4433403f0a19"},"vehicle_type_id":"4","last_reported":1686074875,"current_range_meters":0,"station_id":"ce4bhn12rcd13ifvqgqg","pricing_plan_id":"free"},{"bike_id":"027196da-6610-4c27-8936-f745c789ccaf","system_id":"levelo_inurba_marseille","lat":43.32448,"lon":5.49483,"is_reserved":false,"is_disabled":false,"rental_uris":{"android":"levelo://app?vid=027196da-6610-4c27-8936-f745c789ccaf","ios":"levelo://app?vid=027196da-6610-4c27-8936-f745c789ccaf"},"vehicle_type_id":"4","last_reported":1686074875,"current_range_meters":5200,"station_id":"","pricing_plan_id":"free"}]}}