{"last_updated":1721229007,"ttl":30,"version":"2.2","data":{"bikes":[{"bike_id":"eba54173-b86a-42b2-bdbd-d8d09c55ae3f","system_id":"levelo_inurba_marseille","lat":43.31251,"lon":5.36793,"is_reserved":false,"is_disabled":false,"rental_uris":{"android":"levelo://app?vid=eba54173-b86a-42b2-bdbd-d8d09c55ae3f","ios":"levelo://app?vid=eba54173-b86a-42b2-bdbd-d8d09c55ae3f"},"vehicle_type_id":"4","last_reported":1721229007,"current_range_meters":0,"station_id":"","pricing_plan_id":"cebpf4jnsgd1na2vs0mg"},{"bike_id":"cd61d332-7393-490a-8297-75fc4eddea0c","system_id":"levelo_inurba_marseille","lat":43.31341,"lon":5.367098,"is_reserved":false,"is_disabled":false,"rental_uris":{"android":"levelo://app?vid=cd61d332-7393-490a-8297-75fc4eddea0c","ios":"levelo://app?vid=cd61d332-7393-490a-8297-75fc4eddea0c"},"vehicle_type_id":"4","last_reported":1721229007,"current_range_meters":0,"station_id":"ce4bgr92rcd13ifvqc6g","pricing_plan_id":"cebpf4jnsgd1na2vs0mg"},{"bike_id":"2bb0adc2-7473-4b98-b76b-eec06acae13b","system_id":"levelo_inurba_marseille","lat":43.312239,"lon":5.368562,"is_reserved":false,"is_disabled":false,"rental_uris":{"android":"levelo://app?vid=2bb0adc2-7473-4b98-b76b-eec06acae13b","ios":"levelo://app?vid=2bb0adc2-7473-4b98-b76b-eec06acae13b"},"vehicle_type_id":"4","last_reported":1721229007,"current_range_meters":1600,"station_id":"ce4bgl92rcd13ifvqbq0","pricing_plan_id":"cebpf4jnsgd1na2vs0mg"},{"bike_id":"dd1c9733-ecca-462c-bb1b-820b65ad1546","system_id":"levelo_inurba_marseille","lat":43.314811,"lon":5.373104,"is_reserved":false,"is_disabled":false,"rental_uris":{"android":"levelo://app?vid=dd1c9733-ecca-462c-bb1b-820b65ad1546","ios":"levelo://app?vid=dd1c9733-ecca-462c-bb1b-820b65ad1546"},"vehicle_type_id":"4","last_reported":1721229007,"current_range_meters":13600,"station_id":"ce4bgt12rcd13ifvqcd0","pricing_plan_id":"cebpf4jnsgd1na2vs0mg"},{"bike_id":"bce1c6c6-132d-484c-b653-c4b40b6317fa","system_id":"levelo_inurba_marseille","lat":43.309039,"lon":5.371797,"is_reserved":false,"is_disabled":false,"rental_uris":{"android":"levelo://app?vid=bce1c6c6-132d-484c-b653-c4b40b6317fa","ios":"levelo://app?vid=bce1c6c6-132d-484c-b653-c4b40b6317fa"},"vehicle_type_id":"4","last_reported":1721229007,"current_range_meters":31200,"station_id":"ce4bguh2rcd13ifvqckg","pricing_plan_id":"cebpf4jnsgd1na2vs0mg"},{"bike_id":"bca5d0fc-8398-41ee-97dc-5f9f1ca8ffad","system_id":"levelo_inurba_marseille","lat":43.30889,"lon":5.37186,"is_reserved":false,"is_disabled":false,"rental_uris":{"android":"levelo://app?vid=bca5d0fc-8398-41ee-97dc-5f9f1ca8ffad","ios":"levelo://app?vid=bca5d0fc-8398-41ee-97dc-5f9f1ca8ffad"},"vehicle_type_id":"4","last_reported":1721229007,"current_range_meters":29200,"station_id":"ce4bguh2rcd13ifvqckg","pricing_plan_id":"cebpf4jnsgd1na2vs0mg"},{"bike_id":"bdab1d25-54e9-48f0-b7a7-d454c2a77a76","system_id":"levelo_inurba_marseille","lat":43.315574,"lon":5.374506,"is_reserved":false,"is_disabled":false,"rental_uris":{"android":"levelo://app?vid=bdab1d25-54e9-48f0-b7a7-d454c2a77a76","ios":"levelo://app?vid=bdab1d25-54e9-48f0-b7a7-d454c2a77a76"},"vehicle_type_id":"4","last_reported":1721229007,"current_range_meters":27600,"station_id":"","pricing_plan_id":"cebpf4jnsgd1na2vs0mg"},{"bike_id":"b2cc4bd6-33d2-450a-96c2-b080fc4a98f7","system_id":"levelo_inurba_marseille","lat":43.305714,"lon":5.365633,"is_reserved":false,"is_disabled":false,"rental_uris":{"android":"levelo://app?vid=b2cc4bd6-33d2-450a-96c2-b080fc4a98f7","ios":"levelo://app?vid=b2cc4bd6-33d2-450a-96c2-b080fc4a98f7"},"vehicle_type_id":"4","last_reported":1721229007,"current_range_meters":16800,"station_id":"ce4bgs12rcd13ifvqcag","pricing_plan_id":"cebpf4jnsgd1na2vs0mg"},{"bike_id":"1274cc50-34c8-4711-82a2-17ba277c0f00","system_id":"levelo_inurba_marseille","lat":43.305714,"lon":5.365633,"is_reserved":false,"is_disabled":false,"rental_uris":{"android":"levelo://app?vid=1274cc50-34c8-4711-82a2-17ba277c0f00","ios":"levelo://app?vid=1274cc50-34c8-4711-82a2-17ba277c0f00"},"vehicle_type_id":"4","last_reported":1721229007,"current_range_meters":14800,"station_id":"ce4bgs12rcd13ifvqcag","pricing_plan_id":"cebpf4jnsgd1na2vs0mg"},{"bike_id":"1976a50e-d1c8-4ebd-963e-e136618cf007","system_id":"levelo_inurba_marseille","lat":43.305706,"lon":5.365654,"is_reserved":false,"is_disabled":false,"rental_uris":{"android":"levelo://app?vid=1976a50e-d1c8-4ebd-963e-e136618cf007","ios":"levelo://app?vid=1976a50e-d1c8-4ebd-963e-e136618cf007"},"vehicle_type_id":"4","last_reported":1721229007,"current_range_meters":4800,"station_id":"ce4bgs12rcd13ifvqcag","pricing_plan_id":"cebpf4jnsgd1na2vs0mg"},{"bike_id":"e4453be9-87f6-4747-ae55-dcfe0abee42f","system_id":"levelo_inurba_marseille","lat":43.30539,"lon":5.36547,"is_reserved":false,"is_disabled":false,"rental_uris":{"android":"levelo://app?vid=e4453be9-87f6-4747-ae55-dcfe0abee42f","ios":"levelo://app?vid=e4453be9-87f6-4747-ae55-dcfe0abee42f"},"vehicle_type_id":"4","last_reported":1721229007,"current_range_meters":0,"station_id":"ce4bgs12rcd13ifvqcag","pricing_plan_id":"cebpf4jnsgd1na2vs0mg"},{"bike_id":"9dfabea2-0a29-4363-a3f9-6e0405cb007c","system_id":"levelo_inurba_marseille","lat":43.305706,"lon":5.365654,"is_reserved":false,"is_disabled":false,"rental_uris":{"android":"levelo://app?vid=9dfabea2-0a29-4363-a3f9-6e0405cb007c","ios":"levelo://app?vid=9dfabea2-0a29-4363-a3f9-6e0405cb007c"},"vehicle_type_id":"4","last_reported":1721229007,"current_range_meters":3200,"station_id":"ce4bgs12rcd13ifvqcag","pricing_plan_id":"cebpf4jnsgd1na2vs0mg"},{"bike_id":"856f8845-7d42-48d4-8ebc-6af0e336b310","system_id":"levelo_inurba_marseille","lat":43.305989,"lon":5.37225,"is_reserved":false,"is_disabled":false,"rental_uris":{"android":"levelo://app?vid=856f8845-7d42-48d4-8ebc-6af0e336b310","ios":"levelo://app?vid=856f8845-7d42-48d4-8ebc-6af0e336b310"},"vehicle_type_id":"4","last_reported":1721229007,"current_range_meters":0,"station_id":"ce4bgqh2rcd13ifvqc4g","pricing_plan_id":"cebpf4jnsgd1na2vs0mg"},{"bike_id":"7c92a134-a85f-4f48-abc3-4cd138a98531","system_id":"levelo_inurba_marseille","lat":43.311131,"lon":5.377651,"is_reserved":false,"is_disabled":false,"rental_uris":{"android":"levelo://app?vid=7c92a134-a85f-4f48-abc3-4cd138a98531","ios":"levelo://app?vid=7c92a134-a85f-4f48-abc3-4cd138a98531"},"vehicle_type_id":"4","last_reported":1721229007,"current_range_meters":0,"station_id":"ce4bgt92rcd13ifvqcg0","pricing_plan_id":"cebpf4jnsgd1na2vs0mg"},{"bike_id":"31f368ec-0eb3-43b9-b777-3ec1e6dc5fa9","system_id":"levelo_inurba_marseille","lat":43.31171,"lon":5.37991,"is_reserved":false,"is_disabled":false,"rental_uris":{"android":"levelo://app?vid=31f368ec-0eb3-43b9-b777-3ec1e6dc5fa9","ios":"levelo://app?vid=31f368ec-0eb3-43b9-b777-3ec1e6dc5fa9"},"vehicle_type_id":"4","last_reported":1721229007,"current_range_meters":9600,"station_id":"","pricing_plan_id":"cebpf4jnsgd1na2vs0mg"},{"bike_id":"c1ef750c-f35a-4331-b4dc-5fcbba5ddced","system_id":"levelo_inurba_marseille","lat":43.315289,"lon":5.380349,"is_reserved":false,"is_disabled":false,"rental_uris":{"android":"levelo://app?vid=c1ef750c-f35a-4331-b4dc-5fcbba5ddced","ios":"levelo://app?vid=c1ef750c-f35a-4331-b4dc-5fcbba5ddced"},"vehicle_type_id":"4","last_reported":1721229007,"current_range_meters":8400,"station_id":"ce4bhsp2rcd13ifvqi50","pricing_plan_id":"cebpf4jnsgd1na2vs0mg"},{"bike_id":"9f571b56-c8ed-4095-b0df-6c9e6f7215e7","system_id":"levelo_inurba_marseille","lat":43.30311,"lon":5.36913,"is_reserved":false,"is_disabled":false,"rental_uris":{"android":"levelo://app?vid=9f571b56-c8ed-4095-b0df-6c9e6f7215e7","ios":"levelo://app?vid=9f571b56-c8ed-4095-b0df-6c9e6f7215e7"},"vehicle_type_id":"4","last_reported":1721229007,"current_range_meters":0,"station_id":"ce4bgqh2rcd13ifvqc5g","pricing_plan_id":"cebpf4jnsgd1na2vs0mg"},{"bike_id":"63084daa-9ca0-4d05-b0a1-82aff1536786","system_id":"levelo_inurba_marseille","lat":43.30304,"lon":5.368987,"is_reserved":false,"is_disabled":false,"rental_uris":{"android":"levelo://app?vid=63084daa-9ca0-4d05-b0a1-82aff1536786","ios":"levelo://app?vid=63084daa-9ca0-4d05-b0a1-82aff1536786"},"vehicle_type_id":"4","last_reported":1721229007,"current_range_meters":7200,"station_id":"ce4bgqh2rcd13ifvqc5g","pricing_plan_id":"cebpf4jnsgd1na2vs0mg"},{"bike_id":"ff0dc465-c897-4df5-919a-d121f70519ac","system_id":"levelo_inurba_marseille","lat":43.308012,"lon":5.381511,"is_reserved":false,"is_disabled":false,"rental_uris":{"android":"levelo://app?vid=ff0dc465-c897-4df5-919a-d121f70519ac","ios":"levelo://app?vid=ff0dc465-c897-4df5-919a-d121f70519ac"},"vehicle_type_id":"4","last_reported":1721229007,"current_range_meters":10400,"station_id":"ce4bgt12rcd13ifvqce0","pricing_plan_id":"cebpf4jnsgd1na2vs0mg"},{"bike_id":"b7d2b1a9-7173-4dcf-91b6-d49af869e95d","system_id":"levelo_inurba_marseille","lat":43.304606,"lon":5.379026,"is_reserved":false,"is_disabled":false,"rental_uris":{"android":"levelo://app?vid=b7d2b1a9-7173-4dcf-91b6-d49af869e95d","ios":"levelo://app?vid=b7d2b1a9-7173-4dcf-91b6-d49af869e95d"},"vehicle_type_id":"4","last_reported":1721229007,"current_range_meters":800,"station_id":"ce4bgup2rcd13ifvqcn0","pricing_plan_id":"cebpf4jnsgd1na2vs0mg"},{"bike_id":"64166339-1bf4-44c8-809e-4d9cc4bc65e0","system_id":"levelo_inurba_marseille","lat":43.304606,"lon":5.379026,"is_reserved":false,"is_disabled":false,"rental_uris":{"android":"levelo://app?vid=64166339-1bf4-44c8-809e-4d9cc4bc65e0","ios":"levelo://app?vid=64166339-1bf4-44c8-809e-4d9cc4bc65e0"},"vehicle_type_id":"4","last_reported":1721229007,"current_range_meters":10400,"station_id":"ce4bgup2rcd13ifvqcn0","pricing_plan_id":"cebpf4jnsgd1na2vs0mg"},{"bike_id":"95ee54d4-9c1e-4a99-a5d7-25506535150a","system_id":"levelo_inurba_marseille","lat":43.304606,"lon":5.379026,"is_reserved":false,"is_disabled":false,"rental_uris":{"android":"levelo://app?vid=95ee54d4-9c1e-4a99-a5d7-25506535150a","ios":"levelo://app?vid=95ee54d4-9c1e-4a99-a5d7-25506535150a"},"vehicle_type_id":"4","last_reported":1721229007,"current_range_meters":19200,"station_id":"ce4bgup2rcd13ifvqcn0","pricing_plan_id":"cebpf4jnsgd1na2vs0mg"},{"bike_id":"550a7a1b-2b84-4662-bfb2-3958b2b8e727","system_id":"levelo_inurba_marseille","lat":43.324771,"lon":5.36557,"is_reserved":false,"is_disabled":false,"rental_uris":{"android":"levelo://app?vid=550a7a1b-2b84-4662-bfb2-3958b2b8e727","ios":"levelo://app?vid=550a7a1b-2b84-4662-bfb2-3958b2b8e727"},"vehicle_type_id":"4","last_reported":1721229007,"current_range_meters":20400,"station_id":"ce4bhs12rcd13ifvqhvg","pricing_plan_id":"cebpf4jnsgd1na2vs0mg"},{"bike_id":"44b97a12-53aa-426a-834f-5a0789e2f2ff","system_id":"levelo_inurba_marseille","lat":43.324771,"lon":5.36557,"is_reserved":false,"is_disabled":false,"rental_uris":{"android":"levelo://app?vid=44b97a12-53aa-426a-834f-5a0789e2f2ff","ios":"levelo://app?vid=44b97a12-53aa-426a-834f-5a0789e2f2ff"},"vehicle_type_id":"4","last_reported":1721229007,"current_range_meters":13200,"station_id":"ce4bhs12rcd13ifvqhvg","pricing_plan_id":"cebpf4jnsgd1na2vs0mg"},{"bike_id":"db39661c-b85c-420c-8f57-ab64f12a2f16","system_id":"levelo_inurba_marseille","lat":43.324771,"lon":5.36557,"is_reserved":false,"is_disabled":false,"rental_uris":{"android":"levelo://app?vid=db39661c-b85c-420c-8f57-ab64f12a2f16","ios":"levelo://app?vid=db39661c-b85c-420c-8f57-ab64f12a2f16"},"vehicle_type_id":"4","last_reported":1721229007,"current_range_meters":5600,"station_id":"ce4bhs12rcd13ifvqhvg","pricing_plan_id":"cebpf4jnsgd1na2vs0mg"},{"bike_id":"f84a94c7-357f-4047-aa7d-34cf28b448ce","system_id":"levelo_inurba_marseille","lat":43.324771,"lon":5.36557,"is_reserved":false,"is_disabled":false,"rental_uris":{"android":"levelo://app?vid=f84a94c7-357f-4047-aa7d-34cf28b448ce","ios":"levelo://app?vid=f84a94c7-357f-4047-aa7d-34cf28b448ce"},"vehicle_type_id":"4","last_reported":1721229007,"current_range_meters":26800,"station_id":"ce4bhs12rcd13ifvqhvg","pricing_plan_id":"cebpf4jnsgd1na2vs0mg"},{"bike_id":"d2170551-fcdc-4943-87cd-f8a585adb8a8","system_id":"levelo_inurba_marseille","lat":43.324771,"lon":5.36557,"is_reserved":false,"is_disabled":false,"rental_uris":{"android":"levelo://app?vid=d2170551-fcdc-4943-87cd-f8a585adb8a8","ios":"levelo://app?vid=d2170551-fcdc-4943-87cd-f8a585adb8a8"},"vehicle_type_id":"4","last_reported":1721229007,"current_range_meters":20400,"station_id":"ce4bhs12rcd13ifvqhvg","pricing_plan_id":"cebpf4jnsgd1na2vs0mg"},{"bike_id":"193b7f8e-bf4f-4360-bac9-715431c68441","system_id":"levelo_inurba_marseille","lat":43.324771,"lon":5.36557,"is_reserved":false,"is_disabled":false,"rental_uris":{"android":"levelo://app?vid=193b7f8e-bf4f-4360-bac9-715431c68441","ios":"levelo://app?vid=193b7f8e-bf4f-4360-bac9-715431c68441"},"vehicle_type_id":"4","last_reported":1721229007,"current_range_meters":31600,"station_id":"ce4bhs12rcd13ifvqhvg","pricing_plan_id":"cebpf4jnsgd1na2vs0mg"},{"bike_id":"445b3699-0e35-4279-a225-221091f01643","system_id":"levelo_inurba_marseille","lat":43.324771,"lon":5.36557,"is_reserved":false,"is_disabled":false,"rental_uris":{"android":"levelo://app?vid=445b3699-0e35-4279-a225-221091f01643","ios":"levelo://app?vid=445b3699-0e35-4279-a225-221091f01643"},"vehicle_type_id":"4","last_reported":1721229007,"current_range_meters":800,"station_id":"ce4bhs12rcd13ifvqhvg","pricing_plan_id":"cebpf4jnsgd1na2vs0mg"},{"bike_id":"b681a1fe-959f-400e-9253-8466b026f65f","system_id":"levelo_inurba_marseille","lat":43.324771,"lon":5.36557,"is_reserved":false,"is_disabled":false,"rental_uris":{"android":"levelo://app?vid=b681a1fe-959f-400e-9253-8466b026f65f","ios":"levelo://app?vid=b681a1fe-959f-400e-9253-8466b026f65f"},"vehicle_type_id":"4","last_reported":1721229007,"current_range_meters":12400,"station_id":"ce4bhs12rcd13ifvqhvg","pricing_plan_id":"cebpf4jnsgd1na2vs0mg"},{"bike_id":"81216438-acc0-465b-8e0a-d2c7931cb110","system_id":"levelo_inurba_marseille","lat":43.324771,"lon":5.36557,"is_reserved":false,"is_disabled":false,"rental_uris":{"android":"levelo://app?vid=81216438-acc0-465b-8e0a-d2c7931cb110","ios":"levelo://app?vid=81216438-acc0-465b-8e0a-d2c7931cb110"},"vehicle_type_id":"4","last_reported":1721229007,"current_range_meters":31600,"station_id":"ce4bhs12rcd13ifvqhvg","pricing_plan_id":"cebpf4jnsgd1na2vs0mg"},{"bike_id":"ed6518d3-2dad-47df-817c-a42834444454","system_id":"levelo_inurba_marseille","lat":43.324771,"lon":5.36557,"is_reserved":false,"is_disabled":false,"rental_uris":{"android":"levelo://app?vid=ed6518d3-2dad-47df-817c-a42834444454","ios":"levelo://app?vid=ed6518d3-2dad-47df-817c-a42834444454"},"vehicle_type_id":"4","last_reported":1721229007,"current_range_meters":5600,"station_id":"ce4bhs12rcd13ifvqhvg","pricing_plan_id":"cebpf4jnsgd1na2vs0mg"},{"bike_id":"4a4a26e5-2961-476d-8f4b-a818fc735256","system_id":"levelo_inurba_marseille","lat":43.324771,"lon":5.36557,"is_reserved":false,"is_disabled":false,"rental_uris":{"android":"levelo://app?vid=4a4a26e5-2961-476d-8f4b-a818fc735256","ios":"levelo://app?vid=4a4a26e5-2961-476d-8f4b-a818fc735256"},"vehicle_type_id":"4","last_reported":1721229007,"current_range_meters":24400,"station_id":"ce4bhs12rcd13ifvqhvg","pricing_plan_id":"cebpf4jnsgd1na2vs0mg"},{"bike_id":"8c01f1a7-cd5f-4e21-9538-58fecd9b095c","system_id":"levelo_inurba_marseille","lat":43.324771,"lon":5.36557,"is_reserved":false,"is_disabled":false,"rental_uris":{"android":"levelo://app?vid=8c01f1a7-cd5f-4e21-9538-58fecd9b095c","ios":"levelo://app?vid=8c01f1a7-cd5f-4e21-9538-58fecd9b095c"},"vehicle_type_id":"4","last_reported":1721229007,"current_range_meters":22400,"station_id":"ce4bhs12rcd13ifvqhvg","pricing_plan_id":"cebpf4jnsgd1na2vs0mg"},{"bike_id":"a1bba312-8706-4db1-a6eb-b619ace255fe","system_id":"levelo_inurba_marseille","lat":43.324771,"lon":5.36557,"is_reserved":false,"is_disabled":false,"rental_uris":{"android":"levelo://app?vid=a1bba312-8706-4db1-a6eb-b619ace255fe","ios":"levelo://app?vid=a1bba312-8706-4db1-a6eb-b619ace255fe"},"vehicle_type_id":"4","last_reported":1721229007,"current_range_meters":24000,"station_id":"ce4bhs12rcd13ifvqhvg","pricing_plan_id":"cebpf4jnsgd1na2vs0mg"},{"bike_id":"9794ca6d-7b8d-42d8-991d-c7937dc94612","system_id":"levelo_inurba_marseille","lat":43.324771,"lon":5.36557,"is_reserved":false,"is_disabled":false,"rental_uris":{"android":"levelo://app?vid=9794ca6d-7b8d-42d8-991d-c7937dc94612","ios":"levelo://app?vid=9794ca6d-7b8d-42d8-991d-c7937dc94612"},"vehicle_type_id":"4","last_reported":1721229007,"current_range_meters":28400,"station_id":"ce4bhs12rcd13ifvqhvg","pricing_plan_id":"cebpf4jnsgd1na2vs0mg"},{"bike_id":"cd6707da-e7ef-4f2b-88f9-788c5be1bb13","system_id":"levelo_inurba_marseille","lat":43.324771,"lon":5.36557,"is_reserved":false,"is_disabled":false,"rental_uris":{"android":"levelo://app?vid=cd6707da-e7ef-4f2b-88f9-788c5be1bb13","ios":"levelo://app?vid=cd6707da-e7ef-4f2b-88f9-788c5be1bb13"},"vehicle_type_id":"4","last_reported":1721229007,"current_range_meters":17600,"station_id":"ce4bhs12rcd13ifvqhvg","pricing_plan_id":"cebpf4jnsgd1na2vs0mg"},{"bike_id":"1a5b117f-14e0-4ca0-98b0-3801fdd27118","system_id":"levelo_inurba_marseille","lat":43.30143,"lon":5.37413,"is_reserved":false,"is_disabled":false,"rental_uris":{"android":"levelo://app?vid=1a5b117f-14e0-4ca0-98b0-3801fdd27118","ios":"levelo://app?vid=1a5b117f-14e0-4ca0-98b0-3801fdd27118"},"vehicle_type_id":"4","last_reported":1721229007,"current_range_meters":22000,"station_id":"ce4bgs92rcd13ifvqcc0","pricing_plan_id":"cebpf4jnsgd1na2vs0mg"},{"bike_id":"51309e71-6af2-4588-bd8d-bd32e9fb2ec6","system_id":"levelo_inurba_marseille","lat":43.319935,"lon":5.381699,"is_reserved":false,"is_disabled":false,"rental_uris":{"android":"levelo://app?vid=51309e71-6af2-4588-bd8d-bd32e9fb2ec6","ios":"levelo://app?vid=51309e71-6af2-4588-bd8d-bd32e9fb2ec6"},"vehicle_type_id":"4","last_reported":1721229007,"current_range_meters":12400,"station_id":"ce4bhr12rcd13ifvqhpg","pricing_plan_id":"cebpf4jnsgd1na2vs0mg"},{"bike_id":"9bb47955-a80e-4ea4-a74e-b113337af1f4","system_id":"levelo_inurba_marseille","lat":43.299243,"lon":5.374807,"is_reserved":false,"is_disabled":false,"rental_uris":{"android":"levelo://app?vid=9bb47955-a80e-4ea4-a74e-b113337af1f4","ios":"levelo://app?vid=9bb47955-a80e-4ea4-a74e-b113337af1f4"},"vehicle_type_id":"4","last_reported":1721229007,"current_range_meters":22400,"station_id":"ce4bgjh2rcd13ifvqbg0","pricing_plan_id":"cebpf4jnsgd1na2vs0mg"},{"bike_id":"d02c7237-5789-4e39-b591-4a6663890bcc","system_id":"levelo_inurba_marseille","lat":43.31171,"lon":5.38713,"is_reserved":false,"is_disabled":false,"rental_uris":{"android":"levelo://app?vid=d02c7237-5789-4e39-b591-4a6663890bcc","ios":"levelo://app?vid=d02c7237-5789-4e39-b591-4a6663890bcc"},"vehicle_type_id":"4","last_reported":1721229007,"current_range_meters":12800,"station_id":"ce4bgv12rcd13ifvqcp0","pricing_plan_id":"cebpf4jnsgd1na2vs0mg"},{"bike_id":"452fb6fb-0a8a-4154-8389-a23f881ef1cb","system_id":"levelo_inurba_marseille","lat":43.299243,"lon":5.37481,"is_reserved":false,"is_disabled":false,"rental_uris":{"android":"levelo://app?vid=452fb6fb-0a8a-4154-8389-a23f881ef1cb","ios":"levelo://app?vid=452fb6fb-0a8a-4154-8389-a23f881ef1cb"},"vehicle_type_id":"4","last_reported":1721229007,"current_range_meters":9600,"station_id":"ce4bgjh2rcd13ifvqbg0","pricing_plan_id":"cebpf4jnsgd1na2vs0mg"},{"bike_id":"8316bd68-0cf3-4d3a-a80e-611e60e2b148","system_id":"levelo_inurba_marseille","lat":43.311722,"lon":5.387247,"is_reserved":false,"is_disabled":false,"rental_uris":{"android":"levelo://app?vid=8316bd68-0cf3-4d3a-a80e-611e60e2b148","ios":"levelo://app?vid=8316bd68-0cf3-4d3a-a80e-611e60e2b148"},"vehicle_type_id":"4","last_reported":1721229007,"current_range_meters":29600,"station_id":"ce4bgv12rcd13ifvqcp0","pricing_plan_id":"cebpf4jnsgd1na2vs0mg"},{"bike_id":"3ffb6afc-34bf-40eb-b70e-2ed0d8cf61b5","system_id":"levelo_inurba_marseille","lat":43.311722,"lon":5.387247,"is_reserved":false,"is_disabled":false,"rental_uris":{"android":"levelo://app?vid=3ffb6afc-34bf-40eb-b70e-2ed0d8cf61b5","ios":"levelo://app?vid=3ffb6afc-34bf-40eb-b70e-2ed0d8cf61b5"},"vehicle_type_id":"4","last_reported":1721229007,"current_range_meters":13200,"station_id":"ce4bgv12rcd13ifvqcp0","pricing_plan_id":"cebpf4jnsgd1na2vs0mg"},{"bike_id":"08c09a27-41a6-457c-b138-ecd6709ae71b","system_id":"levelo_inurba_marseille","lat":43.311722,"lon":5.387247,"is_reserved":false,"is_disabled":false,"rental_uris":{"android":"levelo://app?vid=08c09a27-41a6-457c-b138-ecd6709ae71b","ios":"levelo://app?vid=08c09a27-41a6-457c-b138-ecd6709ae71b"},"vehicle_type_id":"4","last_reported":1721229007,"current_range_meters":13200,"station_id":"ce4bgv12rcd13ifvqcp0","pricing_plan_id":"cebpf4jnsgd1na2vs0mg"},{"bike_id":"20fa8c70-905d-4074-879b-b2bf6dd416aa","system_id":"levelo_inurba_marseille","lat":43.297794,"lon":5.370888,"is_reserved":false,"is_disabled":false,"rental_uris":{"android":"levelo://app?vid=20fa8c70-905d-4074-879b-b2bf6dd416aa","ios":"levelo://app?vid=20fa8c70-905d-4074-879b-b2bf6dd416aa"},"vehicle_type_id":"4","last_reported":1721229007,"current_range_meters":0,"station_id":"ce4bgop2rcd13ifvqc1g","pricing_plan_id":"cebpf4jnsgd1na2vs0mg"},{"bike_id":"be7c93fc-88ab-498a-b11e-3911e49c8884","system_id":"levelo_inurba_marseille","lat":43.322872,"lon":5.382756,"is_reserved":false,"is_disabled":false,"rental_uris":{"android":"levelo://app?vid=be7c93fc-88ab-498a-b11e-3911e49c8884","ios":"levelo://app?vid=be7c93fc-88ab-498a-b11e-3911e49c8884"},"vehicle_type_id":"4","last_reported":1721229007,"current_range_meters":16000,"station_id":"ce4bhr12rcd13ifvqhqg","pricing_plan_id":"cebpf4jnsgd1na2vs0mg"},{"bike_id":"b28ede5e-26b4-4751-9373-5501c9696e56","system_id":"levelo_inurba_marseille","lat":43.29728,"lon":5.37691,"is_reserved":false,"is_disabled":false,"rental_uris":{"android":"levelo://app?vid=b28ede5e-26b4-4751-9373-5501c9696e56","ios":"levelo://app?vid=b28ede5e-26b4-4751-9373-5501c9696e56"},"vehicle_type_id":"4","last_reported":1721229007,"current_range_meters":30800,"station_id":"ce4bgkh2rcd13ifvqbl0","pricing_plan_id":"cebpf4jnsgd1na2vs0mg"},{"bike_id":"a6957426-1fce-4dc5-8cf1-5878d211c40e","system_id":"levelo_inurba_marseille","lat":43.296921,"lon":5.376579,"is_reserved":false,"is_disabled":false,"rental_uris":{"android":"levelo://app?vid=a6957426-1fce-4dc5-8cf1-5878d211c40e","ios":"levelo://app?vid=a6957426-1fce-4dc5-8cf1-5878d211c40e"},"vehicle_type_id":"4","last_reported":1721229007,"current_range_meters":0,"station_id":"ce4bgkh2rcd13ifvqbl0","pricing_plan_id":"cebpf4jnsgd1na2vs0mg"},{"bike_id":"a2109476-1e76-4004-aace-3b854f567550","system_id":"levelo_inurba_marseille","lat":43.309589,"lon":5.390258,"is_reserved":false,"is_disabled":false,"rental_uris":{"android":"levelo://app?vid=a2109476-1e76-4004-aace-3b854f567550","ios":"levelo://app?vid=a2109476-1e76-4004-aace-3b854f567550"},"vehicle_type_id":"4","last_reported":1721229007,"current_range_meters":7600,"station_id":"ce4bgup2rcd13ifvqco0","pricing_plan_id":"cebpf4jnsgd1na2vs0mg"},{"bike_id":"cfc77ccb-17ee-4857-bc7a-f155d3e9b68e","system_id":"levelo_inurba_marseille","lat":43.317557,"lon":5.390173,"is_reserved":false,"is_disabled":false,"rental_uris":{"android":"levelo://app?vid=cfc77ccb-17ee-4857-bc7a-f155d3e9b68e","ios":"levelo://app?vid=cfc77ccb-17ee-4857-bc7a-f155d3e9b68e"},"vehicle_type_id":"4","last_reported":1721229007,"current_range_meters":18800,"station_id":"ce4bhqp2rcd13ifvqhng","pricing_plan_id":"cebpf4jnsgd1na2vs0mg"},{"bike_id":"17735400-4127-4b04-93ca-f3950dd0a2cd","system_id":"levelo_inurba_marseille","lat":43.309589,"lon":5.390258,"is_reserved":false,"is_disabled":false,"rental_uris":{"android":"levelo://app?vid=17735400-4127-4b04-93ca-f3950dd0a2cd","ios":"levelo://app?vid=17735400-4127-4b04-93ca-f3950dd0a2cd"},"vehicle_type_id":"4","last_reported":1721229007,"current_range_meters":8400,"station_id":"ce4bgup2rcd13ifvqco0","pricing_plan_id":"cebpf4jnsgd1na2vs0mg"},{"bike_id":"c0150aba-7dfd-40ae-8322-1f2823e8d9b2","system_id":"levelo_inurba_marseille","lat":43.317557,"lon":5.390173,"is_reserved":false,"is_disabled":false,"rental_uris":{"android":"levelo://app?vid=c0150aba-7dfd-40ae-8322-1f2823e8d9b2","ios":"levelo://app?vid=c0150aba-7dfd-40ae-8322-1f2823e8d9b2"},"vehicle_type_id":"4","last_reported":1721229007,"current_range_meters":4800,"station_id":"ce4bhqp2rcd13ifvqhng","pricing_plan_id":"cebpf4jnsgd1na2vs0mg"},{"bike_id":"da4998c3-a50b-4889-92e0-7aa335c6a5cb","system_id":"levelo_inurba_marseille","lat":43.317557,"lon":5.390173,"is_reserved":false,"is_disabled":false,"rental_uris":{"android":"levelo://app?vid=da4998c3-a50b-4889-92e0-7aa335c6a5cb","ios":"levelo://app?vid=da4998c3-a50b-4889-92e0-7aa335c6a5cb"},"vehicle_type_id":"4","last_reported":1721229007,"current_range_meters":23200,"station_id":"ce4bhqp2rcd13ifvqhng","pricing_plan_id":"cebpf4jnsgd1na2vs0mg"},{"bike_id":"546b37ec-0465-41d1-a170-54924e16f6ac","system_id":"levelo_inurba_marseille","lat":43.309589,"lon":5.390258,"is_reserved":false,"is_disabled":false,"rental_uris":{"android":"levelo://app?vid=546b37ec-0465-41d1-a170-54924e16f6ac","ios":"levelo://app?vid=546b37ec-0465-41d1-a170-54924e16f6ac"},"vehicle_type_id":"4","last_reported":1721229007,"current_range_meters":19600,"station_id":"ce4bgup2rcd13ifvqco0","pricing_plan_id":"cebpf4jnsgd1na2vs0mg"},{"bike_id":"d1cad8d0-d928-4262-993c-dbbf18e99073","system_id":"levelo_inurba_marseille","lat":43.295748,"lon":5.37522,"is_reserved":false,"is_disabled":false,"rental_uris":{"android":"levelo://app?vid=d1cad8d0-d928-4262-993c-dbbf18e99073","ios":"levelo://app?vid=d1cad8d0-d928-4262-993c-dbbf18e99073"},"vehicle_type_id":"4","last_reported":1721229007,"current_range_meters":5600,"station_id":"ce4bgh92rcd13ifvqb50","pricing_plan_id":"cebpf4jnsgd1na2vs0mg"},{"bike_id":"131ca86a-2347-42b5-9ef7-c91bcbfab613","system_id":"levelo_inurba_marseille","lat":43.295748,"lon":5.37522,"is_reserved":false,"is_disabled":false,"rental_uris":{"android":"levelo://app?vid=131ca86a-2347-42b5-9ef7-c91bcbfab613","ios":"levelo://app?vid=131ca86a-2347-42b5-9ef7-c91bcbfab613"},"vehicle_type_id":"4","last_reported":1721229007,"current_range_meters":0,"station_id":"ce4bgh92rcd13ifvqb50","pricing_plan_id":"cebpf4jnsgd1na2vs0mg"},{"bike_id":"df0047cc-656d-4452-abb0-9c47ce1c11c3","system_id":"levelo_inurba_marseille","lat":43.298037,"lon":5.381066,"is_reserved":false,"is_disabled":false,"rental_uris":{"android":"levelo://app?vid=df0047cc-656d-4452-abb0-9c47ce1c11c3","ios":"levelo://app?vid=df0047cc-656d-4452-abb0-9c47ce1c11c3"},"vehicle_type_id":"4","last_reported":1721229007,"current_range_meters":8800,"station_id":"ce4bgip2rcd13ifvqbb0","pricing_plan_id":"cebpf4jnsgd1na2vs0mg"},{"bike_id":"2d4c19a3-5b80-4283-a18f-926f2d0ee995","system_id":"levelo_inurba_marseille","lat":43.304274,"lon":5.388873,"is_reserved":false,"is_disabled":false,"rental_uris":{"android":"levelo://app?vid=2d4c19a3-5b80-4283-a18f-926f2d0ee995","ios":"levelo://app?vid=2d4c19a3-5b80-4283-a18f-926f2d0ee995"},"vehicle_type_id":"4","last_reported":1721229007,"current_range_meters":28800,"station_id":"ce4bgk12rcd13ifvqbi0","pricing_plan_id":"cebpf4jnsgd1na2vs0mg"},{"bike_id":"8d1f885d-b1a6-43ff-bd30-383c08435993","system_id":"levelo_inurba_marseille","lat":43.29571,"lon":5.37527,"is_reserved":false,"is_disabled":false,"rental_uris":{"android":"levelo://app?vid=8d1f885d-b1a6-43ff-bd30-383c08435993","ios":"levelo://app?vid=8d1f885d-b1a6-43ff-bd30-383c08435993"},"vehicle_type_id":"4","last_reported":1721229007,"current_range_meters":10000,"station_id":"ce4bgh92rcd13ifvqb50","pricing_plan_id":"cebpf4jnsgd1na2vs0mg"},{"bike_id":"18491e9b-089a-423d-92a6-2224fb4ac1cb","system_id":"levelo_inurba_marseille","lat":43.30473,"lon":5.39011,"is_reserved":false,"is_disabled":false,"rental_uris":{"android":"levelo://app?vid=18491e9b-089a-423d-92a6-2224fb4ac1cb","ios":"levelo://app?vid=18491e9b-089a-423d-92a6-2224fb4ac1cb"},"vehicle_type_id":"4","last_reported":1721229007,"current_range_meters":14800,"station_id":"","pricing_plan_id":"cebpf4jnsgd1na2vs0mg"},{"bike_id":"239e0100-b84f-4d5b-85c7-945abfb4d8fa","system_id":"levelo_inurba_marseille","lat":43.29553,"lon":5.37723,"is_reserved":false,"is_disabled":false,"rental_uris":{"android":"levelo://app?vid=239e0100-b84f-4d5b-85c7-945abfb4d8fa","ios":"levelo://app?vid=239e0100-b84f-4d5b-85c7-945abfb4d8fa"},"vehicle_type_id":"4","last_reported":1721229007,"current_range_meters":0,"station_id":"","pricing_plan_id":"cebpf4jnsgd1na2vs0mg"},{"bike_id":"5b8d63e0-54f8-4119-b96d-7184c303cfa0","system_id":"levelo_inurba_marseille","lat":43.29467,"lon":5.37436,"is_reserved":false,"is_disabled":false,"rental_uris":{"android":"levelo://app?vid=5b8d63e0-54f8-4119-b96d-7184c303cfa0","ios":"levelo://app?vid=5b8d63e0-54f8-4119-b96d-7184c303cfa0"},"vehicle_type_id":"4","last_reported":1721229007,"current_range_meters":20800,"station_id":"","pricing_plan_id":"cebpf4jnsgd1na2vs0mg"},{"bike_id":"82f3389e-ae5f-476d-9d14-b243cc4327a2","system_id":"levelo_inurba_marseille","lat":43.301396,"lon":5.387812,"is_reserved":false,"is_disabled":false,"rental_uris":{"android":"levelo://app?vid=82f3389e-ae5f-476d-9d14-b243cc4327a2","ios":"levelo://app?vid=82f3389e-ae5f-476d-9d14-b243cc4327a2"},"vehicle_type_id":"4","last_reported":1721229007,"current_range_meters":400,"station_id":"ce4bghh2rcd13ifvqb60","pricing_plan_id":"cebpf4jnsgd1na2vs0mg"},{"bike_id":"9f788e55-b764-4d59-bf52-cba7698d6f5d","system_id":"levelo_inurba_marseille","lat":43.301396,"lon":5.387812,"is_reserved":false,"is_disabled":false,"rental_uris":{"android":"levelo://app?vid=9f788e55-b764-4d59-bf52-cba7698d6f5d","ios":"levelo://app?vid=9f788e55-b764-4d59-bf52-cba7698d6f5d"},"vehicle_type_id":"4","last_reported":1721229007,"current_range_meters":23200,"station_id":"ce4bghh2rcd13ifvqb60","pricing_plan_id":"cebpf4jnsgd1na2vs0mg"},{"bike_id":"0b8001b6-aa59-4496-a8c5-88d73bb29661","system_id":"levelo_inurba_marseille","lat":43.29442,"lon":5.37435,"is_reserved":false,"is_disabled":false,"rental_uris":{"android":"levelo://app?vid=0b8001b6-aa59-4496-a8c5-88d73bb29661","ios":"levelo://app?vid=0b8001b6-aa59-4496-a8c5-88d73bb29661"},"vehicle_type_id":"4","last_reported":1721229007,"current_range_meters":31200,"station_id":"","pricing_plan_id":"cebpf4jnsgd1na2vs0mg"},{"bike_id":"5424de1f-cffd-497e-bedd-544b007ab722","system_id":"levelo_inurba_marseille","lat":43.32368,"lon":5.38881,"is_reserved":false,"is_disabled":false,"rental_uris":{"android":"levelo://app?vid=5424de1f-cffd-497e-bedd-544b007ab722","ios":"levelo://app?vid=5424de1f-cffd-497e-bedd-544b007ab722"},"vehicle_type_id":"4","last_reported":1721229007,"current_range_meters":400,"station_id":"ce4bhqp2rcd13ifvqhog","pricing_plan_id":"cebpf4jnsgd1na2vs0mg"},{"bike_id":"2aeaaab9-ad82-417d-8e44-8375dffaf90a","system_id":"levelo_inurba_marseille","lat":43.30747,"lon":5.39261,"is_reserved":false,"is_disabled":false,"rental_uris":{"android":"levelo://app?vid=2aeaaab9-ad82-417d-8e44-8375dffaf90a","ios":"levelo://app?vid=2aeaaab9-ad82-417d-8e44-8375dffaf90a"},"vehicle_type_id":"4","last_reported":1721229007,"current_range_meters":22000,"station_id":"","pricing_plan_id":"cebpf4jnsgd1na2vs0mg"},{"bike_id":"06f448fd-3bb4-4965-b01b-f697eba52e20","system_id":"levelo_inurba_marseille","lat":43.29602,"lon":5.381084,"is_reserved":false,"is_disabled":false,"rental_uris":{"android":"levelo://app?vid=06f448fd-3bb4-4965-b01b-f697eba52e20","ios":"levelo://app?vid=06f448fd-3bb4-4965-b01b-f697eba52e20"},"vehicle_type_id":"4","last_reported":1721229007,"current_range_meters":19200,"station_id":"ce4bgl12rcd13ifvqbo0","pricing_plan_id":"cebpf4jnsgd1na2vs0mg"},{"bike_id":"ac322c0a-cd4b-4c5f-953b-9a8b77e37c42","system_id":"levelo_inurba_marseille","lat":43.29627,"lon":5.38154,"is_reserved":false,"is_disabled":false,"rental_uris":{"android":"levelo://app?vid=ac322c0a-cd4b-4c5f-953b-9a8b77e37c42","ios":"levelo://app?vid=ac322c0a-cd4b-4c5f-953b-9a8b77e37c42"},"vehicle_type_id":"4","last_reported":1721229007,"current_range_meters":26800,"station_id":"ce4bgl12rcd13ifvqbo0","pricing_plan_id":"cebpf4jnsgd1na2vs0mg"},{"bike_id":"9aac37af-de9a-45a9-81e0-ba07ab32bb97","system_id":"levelo_inurba_marseille","lat":43.293009,"lon":5.374584,"is_reserved":false,"is_disabled":false,"rental_uris":{"android":"levelo://app?vid=9aac37af-de9a-45a9-81e0-ba07ab32bb97","ios":"levelo://app?vid=9aac37af-de9a-45a9-81e0-ba07ab32bb97"},"vehicle_type_id":"4","last_reported":1721229007,"current_range_meters":30000,"station_id":"ce4bgi12rcd13ifvqb70","pricing_plan_id":"cebpf4jnsgd1na2vs0mg"},{"bike_id":"12b8459a-6a87-4648-bb13-5fdd4422523f","system_id":"levelo_inurba_marseille","lat":43.293009,"lon":5.374584,"is_reserved":false,"is_disabled":false,"rental_uris":{"android":"levelo://app?vid=12b8459a-6a87-4648-bb13-5fdd4422523f","ios":"levelo://app?vid=12b8459a-6a87-4648-bb13-5fdd4422523f"},"vehicle_type_id":"4","last_reported":1721229007,"current_range_meters":16800,"station_id":"ce4bgi12rcd13ifvqb70","pricing_plan_id":"cebpf4jnsgd1na2vs0mg"},{"bike_id":"e0bbc745-7484-4421-94cf-a04e30c2e0bb","system_id":"levelo_inurba_marseille","lat":43.305994,"lon":5.393687,"is_reserved":false,"is_disabled":false,"rental_uris":{"android":"levelo://app?vid=e0bbc745-7484-4421-94cf-a04e30c2e0bb","ios":"levelo://app?vid=e0bbc745-7484-4421-94cf-a04e30c2e0bb"},"vehicle_type_id":"4","last_reported":1721229007,"current_range_meters":31200,"station_id":"ce4bh0p2rcd13ifvqd80","pricing_plan_id":"cebpf4jnsgd1na2vs0mg"},{"bike_id":"3995b09a-d1ce-4899-be29-06b8e25ed2ff","system_id":"levelo_inurba_marseille","lat":43.30596,"lon":5.39362,"is_reserved":false,"is_disabled":false,"rental_uris":{"android":"levelo://app?vid=3995b09a-d1ce-4899-be29-06b8e25ed2ff","ios":"levelo://app?vid=3995b09a-d1ce-4899-be29-06b8e25ed2ff"},"vehicle_type_id":"4","last_reported":1721229007,"current_range_meters":7200,"station_id":"ce4bh0p2rcd13ifvqd80","pricing_plan_id":"cebpf4jnsgd1na2vs0mg"},{"bike_id":"be698813-872e-4ca8-adba-5726552dabad","system_id":"levelo_inurba_marseille","lat":43.302992,"lon":5.392136,"is_reserved":false,"is_disabled":false,"rental_uris":{"android":"levelo://app?vid=be698813-872e-4ca8-adba-5726552dabad","ios":"levelo://app?vid=be698813-872e-4ca8-adba-5726552dabad"},"vehicle_type_id":"4","last_reported":1721229007,"current_range_meters":2400,"station_id":"ce4bgkh2rcd13ifvqbk0","pricing_plan_id":"cebpf4jnsgd1na2vs0mg"},{"bike_id":"15c8dfea-4819-4da9-b47f-b756fc8a2d3e","system_id":"levelo_inurba_marseille","lat":43.303002,"lon":5.392142,"is_reserved":false,"is_disabled":false,"rental_uris":{"android":"levelo://app?vid=15c8dfea-4819-4da9-b47f-b756fc8a2d3e","ios":"levelo://app?vid=15c8dfea-4819-4da9-b47f-b756fc8a2d3e"},"vehicle_type_id":"4","last_reported":1721229007,"current_range_meters":10000,"station_id":"ce4bgkh2rcd13ifvqbk0","pricing_plan_id":"cebpf4jnsgd1na2vs0mg"},{"bike_id":"31ee41dd-9230-4458-9c28-6e0898cbcc35","system_id":"levelo_inurba_marseille","lat":43.292311,"lon":5.360731,"is_reserved":false,"is_disabled":false,"rental_uris":{"android":"levelo://app?vid=31ee41dd-9230-4458-9c28-6e0898cbcc35","ios":"levelo://app?vid=31ee41dd-9230-4458-9c28-6e0898cbcc35"},"vehicle_type_id":"4","last_reported":1721229007,"current_range_meters":22400,"station_id":"ce4bhbh2rcd13ifvqeqg","pricing_plan_id":"cebpf4jnsgd1na2vs0mg"},{"bike_id":"46c79554-41b6-48aa-83ac-fe8570a78b1d","system_id":"levelo_inurba_marseille","lat":43.30085,"lon":5.390856,"is_reserved":false,"is_disabled":false,"rental_uris":{"android":"levelo://app?vid=46c79554-41b6-48aa-83ac-fe8570a78b1d","ios":"levelo://app?vid=46c79554-41b6-48aa-83ac-fe8570a78b1d"},"vehicle_type_id":"4","last_reported":1721229007,"current_range_meters":1200,"station_id":"ce4bh192rcd13ifvqdb0","pricing_plan_id":"cebpf4jnsgd1na2vs0mg"},{"bike_id":"ba1e78a6-7e17-488e-b127-81b829c17b83","system_id":"levelo_inurba_marseille","lat":43.292231,"lon":5.360451,"is_reserved":false,"is_disabled":false,"rental_uris":{"android":"levelo://app?vid=ba1e78a6-7e17-488e-b127-81b829c17b83","ios":"levelo://app?vid=ba1e78a6-7e17-488e-b127-81b829c17b83"},"vehicle_type_id":"4","last_reported":1721229007,"current_range_meters":0,"station_id":"ce4bhbh2rcd13ifvqeqg","pricing_plan_id":"cebpf4jnsgd1na2vs0mg"},{"bike_id":"ce170d17-30ed-4af4-bb25-ff59c37dbf54","system_id":"levelo_inurba_marseille","lat":43.2936,"lon":5.37835,"is_reserved":false,"is_disabled":false,"rental_uris":{"android":"levelo://app?vid=ce170d17-30ed-4af4-bb25-ff59c37dbf54","ios":"levelo://app?vid=ce170d17-30ed-4af4-bb25-ff59c37dbf54"},"vehicle_type_id":"4","last_reported":1721229007,"current_range_meters":0,"station_id":"ce4bgjh2rcd13ifvqbf0","pricing_plan_id":"cebpf4jnsgd1na2vs0mg"},{"bike_id":"adb4777d-b10e-45f7-afb0-dd3e3b75db95","system_id":"levelo_inurba_marseille","lat":43.298764,"lon":5.388973,"is_reserved":false,"is_disabled":false,"rental_uris":{"android":"levelo://app?vid=adb4777d-b10e-45f7-afb0-dd3e3b75db95","ios":"levelo://app?vid=adb4777d-b10e-45f7-afb0-dd3e3b75db95"},"vehicle_type_id":"4","last_reported":1721229007,"current_range_meters":6400,"station_id":"ce4bh392rcd13ifvqdl0","pricing_plan_id":"cebpf4jnsgd1na2vs0mg"},{"bike_id":"17ec1c91-98e6-45ba-a7e1-c248aa1213a5","system_id":"levelo_inurba_marseille","lat":43.291671,"lon":5.371575,"is_reserved":false,"is_disabled":false,"rental_uris":{"android":"levelo://app?vid=17ec1c91-98e6-45ba-a7e1-c248aa1213a5","ios":"levelo://app?vid=17ec1c91-98e6-45ba-a7e1-c248aa1213a5"},"vehicle_type_id":"4","last_reported":1721229007,"current_range_meters":0,"station_id":"ce4bha92rcd13ifvqeh0","pricing_plan_id":"cebpf4jnsgd1na2vs0mg"},{"bike_id":"4cee2242-55b3-43b5-9ff8-3ec5e50f8e17","system_id":"levelo_inurba_marseille","lat":43.292,"lon":5.35805,"is_reserved":false,"is_disabled":false,"rental_uris":{"android":"levelo://app?vid=4cee2242-55b3-43b5-9ff8-3ec5e50f8e17","ios":"levelo://app?vid=4cee2242-55b3-43b5-9ff8-3ec5e50f8e17"},"vehicle_type_id":"4","last_reported":1721229007,"current_range_meters":23200,"station_id":"ce4bhb12rcd13ifvqel0","pricing_plan_id":"cebpf4jnsgd1na2vs0mg"},{"bike_id":"94a3be90-2efa-4e56-81c8-459ec9e7b45c","system_id":"levelo_inurba_marseille","lat":43.29198,"lon":5.35796,"is_reserved":false,"is_disabled":false,"rental_uris":{"android":"levelo://app?vid=94a3be90-2efa-4e56-81c8-459ec9e7b45c","ios":"levelo://app?vid=94a3be90-2efa-4e56-81c8-459ec9e7b45c"},"vehicle_type_id":"4","last_reported":1721229007,"current_range_meters":18800,"station_id":"ce4bhb12rcd13ifvqel0","pricing_plan_id":"cebpf4jnsgd1na2vs0mg"},{"bike_id":"21b70599-36b0-4eda-84a9-254e2ea475b3","system_id":"levelo_inurba_marseille","lat":43.313291,"lon":5.396838,"is_reserved":false,"is_disabled":false,"rental_uris":{"android":"levelo://app?vid=21b70599-36b0-4eda-84a9-254e2ea475b3","ios":"levelo://app?vid=21b70599-36b0-4eda-84a9-254e2ea475b3"},"vehicle_type_id":"4","last_reported":1721229007,"current_range_meters":29600,"station_id":"ce4bgvp2rcd13ifvqcu0","pricing_plan_id":"cebpf4jnsgd1na2vs0mg"},{"bike_id":"cbbb5e7a-c731-45fc-ac80-44576b04d2a7","system_id":"levelo_inurba_marseille","lat":43.313291,"lon":5.396838,"is_reserved":false,"is_disabled":false,"rental_uris":{"android":"levelo://app?vid=cbbb5e7a-c731-45fc-ac80-44576b04d2a7","ios":"levelo://app?vid=cbbb5e7a-c731-45fc-ac80-44576b04d2a7"},"vehicle_type_id":"4","last_reported":1721229007,"current_range_meters":13200,"station_id":"ce4bgvp2rcd13ifvqcu0","pricing_plan_id":"cebpf4jnsgd1na2vs0mg"},{"bike_id":"d88d450a-de37-4a9d-a127-6803b6facbf3","system_id":"levelo_inurba_marseille","lat":43.313291,"lon":5.396838,"is_reserved":false,"is_disabled":false,"rental_uris":{"android":"levelo://app?vid=d88d450a-de37-4a9d-a127-6803b6facbf3","ios":"levelo://app?vid=d88d450a-de37-4a9d-a127-6803b6facbf3"},"vehicle_type_id":"4","last_reported":1721229007,"current_range_meters":0,"station_id":"ce4bgvp2rcd13ifvqcu0","pricing_plan_id":"cebpf4jnsgd1na2vs0mg"},{"bike_id":"1d7a4ed5-5334-49e2-a28b-9b96d1f418a0","system_id":"levelo_inurba_marseille","lat":43.309038,"lon":5.396546,"is_reserved":false,"is_disabled":false,"rental_uris":{"android":"levelo://app?vid=1d7a4ed5-5334-49e2-a28b-9b96d1f418a0","ios":"levelo://app?vid=1d7a4ed5-5334-49e2-a28b-9b96d1f418a0"},"vehicle_type_id":"4","last_reported":1721229007,"current_range_meters":0,"station_id":"ce4bh012rcd13ifvqcv0","pricing_plan_id":"cebpf4jnsgd1na2vs0mg"},{"bike_id":"0eb9a2e6-cbe0-4921-bf38-ced9f8bb3fe1","system_id":"levelo_inurba_marseille","lat":43.2928,"lon":5.37972,"is_reserved":false,"is_disabled":false,"rental_uris":{"android":"levelo://app?vid=0eb9a2e6-cbe0-4921-bf38-ced9f8bb3fe1","ios":"levelo://app?vid=0eb9a2e6-cbe0-4921-bf38-ced9f8bb3fe1"},"vehicle_type_id":"4","last_reported":1721229007,"current_range_meters":0,"station_id":"","pricing_plan_id":"cebpf4jnsgd1na2vs0mg"},{"bike_id":"3dc4de70-5622-4312-bab5-389a7ee9534c","system_id":"levelo_inurba_marseille","lat":43.302008,"lon":5.394694,"is_reserved":false,"is_disabled":false,"rental_uris":{"android":"levelo://app?vid=3dc4de70-5622-4312-bab5-389a7ee9534c","ios":"levelo://app?vid=3dc4de70-5622-4312-bab5-389a7ee9534c"},"vehicle_type_id":"4","last_reported":1721229007,"current_range_meters":11600,"station_id":"ce4bh0p2rcd13ifvqd70","pricing_plan_id":"cebpf4jnsgd1na2vs0mg"},{"bike_id":"bc127571-0e3d-4434-b333-d22a1f83b443","system_id":"levelo_inurba_marseille","lat":43.302008,"lon":5.394694,"is_reserved":false,"is_disabled":false,"rental_uris":{"android":"levelo://app?vid=bc127571-0e3d-4434-b333-d22a1f83b443","ios":"levelo://app?vid=bc127571-0e3d-4434-b333-d22a1f83b443"},"vehicle_type_id":"4","last_reported":1721229007,"current_range_meters":9200,"station_id":"ce4bh0p2rcd13ifvqd70","pricing_plan_id":"cebpf4jnsgd1na2vs0mg"},{"bike_id":"75737ca4-51bd-4501-b0ce-a750e3982813","system_id":"levelo_inurba_marseille","lat":43.294153,"lon":5.386305,"is_reserved":false,"is_disabled":false,"rental_uris":{"android":"levelo://app?vid=75737ca4-51bd-4501-b0ce-a750e3982813","ios":"levelo://app?vid=75737ca4-51bd-4501-b0ce-a750e3982813"},"vehicle_type_id":"4","last_reported":1721229007,"current_range_meters":1200,"station_id":"ce4bh2h2rcd13ifvqdh0","pricing_plan_id":"cebpf4jnsgd1na2vs0mg"},{"bike_id":"6c3c939d-bdea-4453-b51a-ff75cd719b98","system_id":"levelo_inurba_marseille","lat":43.289184,"lon":5.366408,"is_reserved":false,"is_disabled":false,"rental_uris":{"android":"levelo://app?vid=6c3c939d-bdea-4453-b51a-ff75cd719b98","ios":"levelo://app?vid=6c3c939d-bdea-4453-b51a-ff75cd719b98"},"vehicle_type_id":"4","last_reported":1721229007,"current_range_meters":16400,"station_id":"ce4bhap2rcd13ifvqek0","pricing_plan_id":"cebpf4jnsgd1na2vs0mg"},{"bike_id":"cc63c9e7-a14d-4147-ab84-1199fa341998","system_id":"levelo_inurba_marseille","lat":43.289184,"lon":5.366408,"is_reserved":false,"is_disabled":false,"rental_uris":{"android":"levelo://app?vid=cc63c9e7-a14d-4147-ab84-1199fa341998","ios":"levelo://app?vid=cc63c9e7-a14d-4147-ab84-1199fa341998"},"vehicle_type_id":"4","last_reported":1721229007,"current_range_meters":18400,"station_id":"ce4bhap2rcd13ifvqek0","pricing_plan_id":"cebpf4jnsgd1na2vs0mg"},{"bike_id":"635453c7-1e17-4df2-a947-61bf25056b00","system_id":"levelo_inurba_marseille","lat":43.289184,"lon":5.366408,"is_reserved":false,"is_disabled":false,"rental_uris":{"android":"levelo://app?vid=635453c7-1e17-4df2-a947-61bf25056b00","ios":"levelo://app?vid=635453c7-1e17-4df2-a947-61bf25056b00"},"vehicle_type_id":"4","last_reported":1721229007,"current_range_meters":4800,"station_id":"ce4bhap2rcd13ifvqek0","pricing_plan_id":"cebpf4jnsgd1na2vs0mg"},{"bike_id":"9483212b-f2fa-444e-ba05-c87035dd00ad","system_id":"levelo_inurba_marseille","lat":43.28933,"lon":5.36645,"is_reserved":false,"is_disabled":false,"rental_uris":{"android":"levelo://app?vid=9483212b-f2fa-444e-ba05-c87035dd00ad","ios":"levelo://app?vid=9483212b-f2fa-444e-ba05-c87035dd00ad"},"vehicle_type_id":"4","last_reported":1721229007,"current_range_meters":16400,"station_id":"ce4bhap2rcd13ifvqek0","pricing_plan_id":"cebpf4jnsgd1na2vs0mg"},{"bike_id":"b9589e28-557a-4100-a300-3639d87a193e","system_id":"levelo_inurba_marseille","lat":43.304296,"lon":5.397513,"is_reserved":false,"is_disabled":false,"rental_uris":{"android":"levelo://app?vid=b9589e28-557a-4100-a300-3639d87a193e","ios":"levelo://app?vid=b9589e28-557a-4100-a300-3639d87a193e"},"vehicle_type_id":"4","last_reported":1721229007,"current_range_meters":3200,"station_id":"ce4bh092rcd13ifvqd20","pricing_plan_id":"cebpf4jnsgd1na2vs0mg"},{"bike_id":"12741758-43e6-44ce-9c7a-b0834c4746de","system_id":"levelo_inurba_marseille","lat":43.292695,"lon":5.384465,"is_reserved":false,"is_disabled":false,"rental_uris":{"android":"levelo://app?vid=12741758-43e6-44ce-9c7a-b0834c4746de","ios":"levelo://app?vid=12741758-43e6-44ce-9c7a-b0834c4746de"},"vehicle_type_id":"4","last_reported":1721229007,"current_range_meters":22400,"station_id":"ce4bh692rcd13ifvqea0","pricing_plan_id":"cebpf4jnsgd1na2vs0mg"},{"bike_id":"7d7e1626-57b5-443d-89a8-862e42273b68","system_id":"levelo_inurba_marseille","lat":43.292644,"lon":5.384257,"is_reserved":false,"is_disabled":false,"rental_uris":{"android":"levelo://app?vid=7d7e1626-57b5-443d-89a8-862e42273b68","ios":"levelo://app?vid=7d7e1626-57b5-443d-89a8-862e42273b68"},"vehicle_type_id":"4","last_reported":1721229007,"current_range_meters":5600,"station_id":"ce4bh692rcd13ifvqea0","pricing_plan_id":"cebpf4jnsgd1na2vs0mg"},{"bike_id":"14834026-7642-450f-a422-9263db56e321","system_id":"levelo_inurba_marseille","lat":43.292644,"lon":5.384257,"is_reserved":false,"is_disabled":false,"rental_uris":{"android":"levelo://app?vid=14834026-7642-450f-a422-9263db56e321","ios":"levelo://app?vid=14834026-7642-450f-a422-9263db56e321"},"vehicle_type_id":"4","last_reported":1721229007,"current_range_meters":18800,"station_id":"ce4bh692rcd13ifvqea0","pricing_plan_id":"cebpf4jnsgd1na2vs0mg"},{"bike_id":"1987bd82-d409-4319-95ba-f94a9017ae6f","system_id":"levelo_inurba_marseille","lat":43.297807,"lon":5.393533,"is_reserved":false,"is_disabled":false,"rental_uris":{"android":"levelo://app?vid=1987bd82-d409-4319-95ba-f94a9017ae6f","ios":"levelo://app?vid=1987bd82-d409-4319-95ba-f94a9017ae6f"},"vehicle_type_id":"4","last_reported":1721229007,"current_range_meters":0,"station_id":"chh1huq6cuj3fo74tm60","pricing_plan_id":"cebpf4jnsgd1na2vs0mg"},{"bike_id":"15ce4f5f-0b1e-49d5-ac03-c4f182d512d6","system_id":"levelo_inurba_marseille","lat":43.330442,"lon":5.389148,"is_reserved":false,"is_disabled":false,"rental_uris":{"android":"levelo://app?vid=15ce4f5f-0b1e-49d5-ac03-c4f182d512d6","ios":"levelo://app?vid=15ce4f5f-0b1e-49d5-ac03-c4f182d512d6"},"vehicle_type_id":"4","last_reported":1721229007,"current_range_meters":24800,"station_id":"ce4bhr92rcd13ifvqhrg","pricing_plan_id":"cebpf4jnsgd1na2vs0mg"},{"bike_id":"37d1b0ca-d0ab-4613-83f3-73a5f82bc9f4","system_id":"levelo_inurba_marseille","lat":43.295169,"lon":5.390426,"is_reserved":false,"is_disabled":false,"rental_uris":{"android":"levelo://app?vid=37d1b0ca-d0ab-4613-83f3-73a5f82bc9f4","ios":"levelo://app?vid=37d1b0ca-d0ab-4613-83f3-73a5f82bc9f4"},"vehicle_type_id":"4","last_reported":1721229007,"current_range_meters":15200,"station_id":"ce4bh3p2rcd13ifvqdp0","pricing_plan_id":"cebpf4jnsgd1na2vs0mg"},{"bike_id":"0e664f97-2761-422f-aa65-c32b3d818340","system_id":"levelo_inurba_marseille","lat":43.297815,"lon":5.393548,"is_reserved":false,"is_disabled":false,"rental_uris":{"android":"levelo://app?vid=0e664f97-2761-422f-aa65-c32b3d818340","ios":"levelo://app?vid=0e664f97-2761-422f-aa65-c32b3d818340"},"vehicle_type_id":"4","last_reported":1721229007,"current_range_meters":1600,"station_id":"chh1huq6cuj3fo74tm60","pricing_plan_id":"cebpf4jnsgd1na2vs0mg"},{"bike_id":"93977473-74fb-47b0-9d6b-7b6ce1b334dd","system_id":"levelo_inurba_marseille","lat":43.2901,"lon":5.381269,"is_reserved":false,"is_disabled":false,"rental_uris":{"android":"levelo://app?vid=93977473-74fb-47b0-9d6b-7b6ce1b334dd","ios":"levelo://app?vid=93977473-74fb-47b0-9d6b-7b6ce1b334dd"},"vehicle_type_id":"4","last_reported":1721229007,"current_range_meters":0,"station_id":"ce4bh4p2rcd13ifvqe1g","pricing_plan_id":"cebpf4jnsgd1na2vs0mg"},{"bike_id":"bb8bd955-b86a-4298-a1ac-8d707cb43cad","system_id":"levelo_inurba_marseille","lat":43.28856,"lon":5.358371,"is_reserved":false,"is_disabled":false,"rental_uris":{"android":"levelo://app?vid=bb8bd955-b86a-4298-a1ac-8d707cb43cad","ios":"levelo://app?vid=bb8bd955-b86a-4298-a1ac-8d707cb43cad"},"vehicle_type_id":"4","last_reported":1721229007,"current_range_meters":2400,"station_id":"ce4bhb12rcd13ifvqem0","pricing_plan_id":"cebpf4jnsgd1na2vs0mg"},{"bike_id":"446c23b5-ba6a-4068-9206-8a9872086ae3","system_id":"levelo_inurba_marseille","lat":43.30984,"lon":5.40101,"is_reserved":false,"is_disabled":false,"rental_uris":{"android":"levelo://app?vid=446c23b5-ba6a-4068-9206-8a9872086ae3","ios":"levelo://app?vid=446c23b5-ba6a-4068-9206-8a9872086ae3"},"vehicle_type_id":"4","last_reported":1721229007,"current_range_meters":6000,"station_id":"","pricing_plan_id":"cebpf4jnsgd1na2vs0mg"},{"bike_id":"d7de6c4b-8570-47a6-877c-5b9f75d52620","system_id":"levelo_inurba_marseille","lat":43.312609,"lon":5.401662,"is_reserved":false,"is_disabled":false,"rental_uris":{"android":"levelo://app?vid=d7de6c4b-8570-47a6-877c-5b9f75d52620","ios":"levelo://app?vid=d7de6c4b-8570-47a6-877c-5b9f75d52620"},"vehicle_type_id":"4","last_reported":1721229007,"current_range_meters":8800,"station_id":"ce4bh092rcd13ifvqd30","pricing_plan_id":"cebpf4jnsgd1na2vs0mg"},{"bike_id":"8600e16b-daf0-46ea-884c-6f8329b6f2a7","system_id":"levelo_inurba_marseille","lat":43.312609,"lon":5.401662,"is_reserved":false,"is_disabled":false,"rental_uris":{"android":"levelo://app?vid=8600e16b-daf0-46ea-884c-6f8329b6f2a7","ios":"levelo://app?vid=8600e16b-daf0-46ea-884c-6f8329b6f2a7"},"vehicle_type_id":"4","last_reported":1721229007,"current_range_meters":27600,"station_id":"ce4bh092rcd13ifvqd30","pricing_plan_id":"cebpf4jnsgd1na2vs0mg"},{"bike_id":"4dbc1ae9-d672-4a3f-bfc2-72c5ffc79cff","system_id":"levelo_inurba_marseille","lat":43.309371,"lon":5.401449,"is_reserved":false,"is_disabled":false,"rental_uris":{"android":"levelo://app?vid=4dbc1ae9-d672-4a3f-bfc2-72c5ffc79cff","ios":"levelo://app?vid=4dbc1ae9-d672-4a3f-bfc2-72c5ffc79cff"},"vehicle_type_id":"4","last_reported":1721229007,"current_range_meters":31600,"station_id":"ce4bgvp2rcd13ifvqct0","pricing_plan_id":"cebpf4jnsgd1na2vs0mg"},{"bike_id":"f3bd5cc1-54c6-4e43-9766-eb61052d10ca","system_id":"levelo_inurba_marseille","lat":43.312609,"lon":5.401662,"is_reserved":false,"is_disabled":false,"rental_uris":{"android":"levelo://app?vid=f3bd5cc1-54c6-4e43-9766-eb61052d10ca","ios":"levelo://app?vid=f3bd5cc1-54c6-4e43-9766-eb61052d10ca"},"vehicle_type_id":"4","last_reported":1721229007,"current_range_meters":0,"station_id":"ce4bh092rcd13ifvqd30","pricing_plan_id":"cebpf4jnsgd1na2vs0mg"},{"bike_id":"7fe2b711-f1ab-41a0-8ca8-169f9a8953d0","system_id":"levelo_inurba_marseille","lat":43.309371,"lon":5.401449,"is_reserved":false,"is_disabled":false,"rental_uris":{"android":"levelo://app?vid=7fe2b711-f1ab-41a0-8ca8-169f9a8953d0","ios":"levelo://app?vid=7fe2b711-f1ab-41a0-8ca8-169f9a8953d0"},"vehicle_type_id":"4","last_reported":1721229007,"current_range_meters":31600,"station_id":"ce4bgvp2rcd13ifvqct0","pricing_plan_id":"cebpf4jnsgd1na2vs0mg"},{"bike_id":"3d91cee2-d3bf-4f0e-abbb-fd9d47fda840","system_id":"levelo_inurba_marseille","lat":43.312609,"lon":5.401662,"is_reserved":false,"is_disabled":false,"rental_uris":{"android":"levelo://app?vid=3d91cee2-d3bf-4f0e-abbb-fd9d47fda840","ios":"levelo://app?vid=3d91cee2-d3bf-4f0e-abbb-fd9d47fda840"},"vehicle_type_id":"4","last_reported":1721229007,"current_range_meters":11200,"station_id":"ce4bh092rcd13ifvqd30","pricing_plan_id":"cebpf4jnsgd1na2vs0mg"},{"bike_id":"8eb909f0-1de5-40be-8a3d-d62ed247bb05","system_id":"levelo_inurba_marseille","lat":43.309371,"lon":5.401449,"is_reserved":false,"is_disabled":false,"rental_uris":{"android":"levelo://app?vid=8eb909f0-1de5-40be-8a3d-d62ed247bb05","ios":"levelo://app?vid=8eb909f0-1de5-40be-8a3d-d62ed247bb05"},"vehicle_type_id":"4","last_reported":1721229007,"current_range_meters":23200,"station_id":"ce4bgvp2rcd13ifvqct0","pricing_plan_id":"cebpf4jnsgd1na2vs0mg"},{"bike_id":"7a6e8fce-e332-4063-b0d8-346aafdbdcec","system_id":"levelo_inurba_marseille","lat":43.312609,"lon":5.401662,"is_reserved":false,"is_disabled":false,"rental_uris":{"android":"levelo://app?vid=7a6e8fce-e332-4063-b0d8-346aafdbdcec","ios":"levelo://app?vid=7a6e8fce-e332-4063-b0d8-346aafdbdcec"},"vehicle_type_id":"4","last_reported":1721229007,"current_range_meters":800,"station_id":"ce4bh092rcd13ifvqd30","pricing_plan_id":"cebpf4jnsgd1na2vs0mg"},{"bike_id":"65d990a6-e2bb-4506-b5a1-5b16f193b49f","system_id":"levelo_inurba_marseille","lat":43.3375,"lon":5.37459,"is_reserved":false,"is_disabled":false,"rental_uris":{"android":"levelo://app?vid=65d990a6-e2bb-4506-b5a1-5b16f193b49f","ios":"levelo://app?vid=65d990a6-e2bb-4506-b5a1-5b16f193b49f"},"vehicle_type_id":"4","last_reported":1721229007,"current_range_meters":20400,"station_id":"","pricing_plan_id":"cebpf4jnsgd1na2vs0mg"},{"bike_id":"eae377ce-975e-47fa-9446-9d98c2d7790d","system_id":"levelo_inurba_marseille","lat":43.309371,"lon":5.401449,"is_reserved":false,"is_disabled":false,"rental_uris":{"android":"levelo://app?vid=eae377ce-975e-47fa-9446-9d98c2d7790d","ios":"levelo://app?vid=eae377ce-975e-47fa-9446-9d98c2d7790d"},"vehicle_type_id":"4","last_reported":1721229007,"current_range_meters":31600,"station_id":"ce4bgvp2rcd13ifvqct0","pricing_plan_id":"cebpf4jnsgd1na2vs0mg"},{"bike_id":"97d9d644-a91b-4827-a2e8-a89e046bc1a9","system_id":"levelo_inurba_marseille","lat":43.33752,"lon":5.37456,"is_reserved":false,"is_disabled":false,"rental_uris":{"android":"levelo://app?vid=97d9d644-a91b-4827-a2e8-a89e046bc1a9","ios":"levelo://app?vid=97d9d644-a91b-4827-a2e8-a89e046bc1a9"},"vehicle_type_id":"4","last_reported":1721229007,"current_range_meters":0,"station_id":"","pricing_plan_id":"cebpf4jnsgd1na2vs0mg"},{"bike_id":"8391f7cc-1acd-4ec9-a3ef-60f9a479b64d","system_id":"levelo_inurba_marseille","lat":43.337572,"lon":5.374554,"is_reserved":false,"is_disabled":false,"rental_uris":{"android":"levelo://app?vid=8391f7cc-1acd-4ec9-a3ef-60f9a479b64d","ios":"levelo://app?vid=8391f7cc-1acd-4ec9-a3ef-60f9a479b64d"},"vehicle_type_id":"4","last_reported":1721229007,"current_range_meters":6000,"station_id":"","pricing_plan_id":"cebpf4jnsgd1na2vs0mg"},{"bike_id":"d178c787-21f1-4941-8ec7-154d892e7b32","system_id":"levelo_inurba_marseille","lat":43.33755,"lon":5.37469,"is_reserved":false,"is_disabled":false,"rental_uris":{"android":"levelo://app?vid=d178c787-21f1-4941-8ec7-154d892e7b32","ios":"levelo://app?vid=d178c787-21f1-4941-8ec7-154d892e7b32"},"vehicle_type_id":"4","last_reported":1721229007,"current_range_meters":29600,"station_id":"","pricing_plan_id":"cebpf4jnsgd1na2vs0mg"},{"bike_id":"136a8749-c2ba-4e9a-8544-4b41408ca3d4","system_id":"levelo_inurba_marseille","lat":43.33757,"lon":5.37458,"is_reserved":false,"is_disabled":false,"rental_uris":{"android":"levelo://app?vid=136a8749-c2ba-4e9a-8544-4b41408ca3d4","ios":"levelo://app?vid=136a8749-c2ba-4e9a-8544-4b41408ca3d4"},"vehicle_type_id":"4","last_reported":1721229007,"current_range_meters":21600,"station_id":"","pricing_plan_id":"cebpf4jnsgd1na2vs0mg"},{"bike_id":"354b7eda-1b83-41a2-be4d-e18eda1fa9a5","system_id":"levelo_inurba_marseille","lat":43.337577,"lon":5.374562,"is_reserved":false,"is_disabled":false,"rental_uris":{"android":"levelo://app?vid=354b7eda-1b83-41a2-be4d-e18eda1fa9a5","ios":"levelo://app?vid=354b7eda-1b83-41a2-be4d-e18eda1fa9a5"},"vehicle_type_id":"4","last_reported":1721229007,"current_range_meters":26400,"station_id":"","pricing_plan_id":"cebpf4jnsgd1na2vs0mg"},{"bike_id":"7cca95e3-1857-4123-bf8d-2da6c7353272","system_id":"levelo_inurba_marseille","lat":43.337556,"lon":5.374798,"is_reserved":false,"is_disabled":false,"rental_uris":{"android":"levelo://app?vid=7cca95e3-1857-4123-bf8d-2da6c7353272","ios":"levelo://app?vid=7cca95e3-1857-4123-bf8d-2da6c7353272"},"vehicle_type_id":"4","last_reported":1721229007,"current_range_meters":22000,"station_id":"","pricing_plan_id":"cebpf4jnsgd1na2vs0mg"},{"bike_id":"8d110055-f2dc-4581-9f36-be92f66c9d34","system_id":"levelo_inurba_marseille","lat":43.33764,"lon":5.37468,"is_reserved":false,"is_disabled":false,"rental_uris":{"android":"levelo://app?vid=8d110055-f2dc-4581-9f36-be92f66c9d34","ios":"levelo://app?vid=8d110055-f2dc-4581-9f36-be92f66c9d34"},"vehicle_type_id":"4","last_reported":1721229007,"current_range_meters":28400,"station_id":"","pricing_plan_id":"cebpf4jnsgd1na2vs0mg"},{"bike_id":"25f1a894-79b1-41fb-9b77-3d719b9a7ea9","system_id":"levelo_inurba_marseille","lat":43.306412,"lon":5.401035,"is_reserved":false,"is_disabled":false,"rental_uris":{"android":"levelo://app?vid=25f1a894-79b1-41fb-9b77-3d719b9a7ea9","ios":"levelo://app?vid=25f1a894-79b1-41fb-9b77-3d719b9a7ea9"},"vehicle_type_id":"4","last_reported":1721229007,"current_range_meters":21200,"station_id":"ce4bh112rcd13ifvqda0","pricing_plan_id":"cebpf4jnsgd1na2vs0mg"},{"bike_id":"dcf627b4-2284-4070-ac27-72af958f5550","system_id":"levelo_inurba_marseille","lat":43.2901,"lon":5.381269,"is_reserved":false,"is_disabled":false,"rental_uris":{"android":"levelo://app?vid=dcf627b4-2284-4070-ac27-72af958f5550","ios":"levelo://app?vid=dcf627b4-2284-4070-ac27-72af958f5550"},"vehicle_type_id":"4","last_reported":1721229007,"current_range_meters":0,"station_id":"ce4bh4p2rcd13ifvqe1g","pricing_plan_id":"cebpf4jnsgd1na2vs0mg"},{"bike_id":"bf920754-7023-42f8-9b09-afe0377135b0","system_id":"levelo_inurba_marseille","lat":43.301117,"lon":5.398795,"is_reserved":false,"is_disabled":false,"rental_uris":{"android":"levelo://app?vid=bf920754-7023-42f8-9b09-afe0377135b0","ios":"levelo://app?vid=bf920754-7023-42f8-9b09-afe0377135b0"},"vehicle_type_id":"4","last_reported":1721229007,"current_range_meters":2000,"station_id":"ce4bh0h2rcd13ifvqd40","pricing_plan_id":"cebpf4jnsgd1na2vs0mg"},{"bike_id":"116b51de-0e05-43d4-ab5b-c1393571ab36","system_id":"levelo_inurba_marseille","lat":43.298681,"lon":5.397225,"is_reserved":false,"is_disabled":false,"rental_uris":{"android":"levelo://app?vid=116b51de-0e05-43d4-ab5b-c1393571ab36","ios":"levelo://app?vid=116b51de-0e05-43d4-ab5b-c1393571ab36"},"vehicle_type_id":"4","last_reported":1721229007,"current_range_meters":31600,"station_id":"ce4bh0h2rcd13ifvqd50","pricing_plan_id":"cebpf4jnsgd1na2vs0mg"},{"bike_id":"39d5bb90-0958-4911-a0b7-baa2ce783d2c","system_id":"levelo_inurba_marseille","lat":43.286591,"lon":5.363346,"is_reserved":false,"is_disabled":false,"rental_uris":{"android":"levelo://app?vid=39d5bb90-0958-4911-a0b7-baa2ce783d2c","ios":"levelo://app?vid=39d5bb90-0958-4911-a0b7-baa2ce783d2c"},"vehicle_type_id":"4","last_reported":1721229007,"current_range_meters":0,"station_id":"ce4bhah2rcd13ifvqej0","pricing_plan_id":"cebpf4jnsgd1na2vs0mg"},{"bike_id":"15c7ad39-7bab-4b62-9daf-74010a6e8b1e","system_id":"levelo_inurba_marseille","lat":43.298681,"lon":5.397225,"is_reserved":false,"is_disabled":false,"rental_uris":{"android":"levelo://app?vid=15c7ad39-7bab-4b62-9daf-74010a6e8b1e","ios":"levelo://app?vid=15c7ad39-7bab-4b62-9daf-74010a6e8b1e"},"vehicle_type_id":"4","last_reported":1721229007,"current_range_meters":31600,"station_id":"ce4bh0h2rcd13ifvqd50","pricing_plan_id":"cebpf4jnsgd1na2vs0mg"},{"bike_id":"61790245-5a89-4624-9073-f729afa64e43","system_id":"levelo_inurba_marseille","lat":43.286591,"lon":5.363346,"is_reserved":false,"is_disabled":false,"rental_uris":{"android":"levelo://app?vid=61790245-5a89-4624-9073-f729afa64e43","ios":"levelo://app?vid=61790245-5a89-4624-9073-f729afa64e43"},"vehicle_type_id":"4","last_reported":1721229007,"current_range_meters":0,"station_id":"ce4bhah2rcd13ifvqej0","pricing_plan_id":"cebpf4jnsgd1na2vs0mg"},{"bike_id":"88339bd6-3d02-4956-8a61-756c09a56039","system_id":"levelo_inurba_marseille","lat":43.289307,"lon":5.38406,"is_reserved":false,"is_disabled":false,"rental_uris":{"android":"levelo://app?vid=88339bd6-3d02-4956-8a61-756c09a56039","ios":"levelo://app?vid=88339bd6-3d02-4956-8a61-756c09a56039"},"vehicle_type_id":"4","last_reported":1721229007,"current_range_meters":6000,"station_id":"ce4bh612rcd13ifvqe6g","pricing_plan_id":"cebpf4jnsgd1na2vs0mg"},{"bike_id":"9cbc1049-9e0a-4617-a4bc-6da5e87ee709","system_id":"levelo_inurba_marseille","lat":43.290336,"lon":5.386425,"is_reserved":false,"is_disabled":false,"rental_uris":{"android":"levelo://app?vid=9cbc1049-9e0a-4617-a4bc-6da5e87ee709","ios":"levelo://app?vid=9cbc1049-9e0a-4617-a4bc-6da5e87ee709"},"vehicle_type_id":"4","last_reported":1721229007,"current_range_meters":14000,"station_id":"ce4bh4p2rcd13ifvqe0g","pricing_plan_id":"cebpf4jnsgd1na2vs0mg"},{"bike_id":"7baab697-760d-4357-a52f-9b495243e952","system_id":"levelo_inurba_marseille","lat":43.30263,"lon":5.40082,"is_reserved":false,"is_disabled":false,"rental_uris":{"android":"levelo://app?vid=7baab697-760d-4357-a52f-9b495243e952","ios":"levelo://app?vid=7baab697-760d-4357-a52f-9b495243e952"},"vehicle_type_id":"4","last_reported":1721229007,"current_range_meters":0,"station_id":"ce4bgvh2rcd13ifvqcs0","pricing_plan_id":"cebpf4jnsgd1na2vs0mg"},{"bike_id":"1e425008-73a0-4434-a493-90e3aa20e291","system_id":"levelo_inurba_marseille","lat":43.286134,"lon":5.370275,"is_reserved":false,"is_disabled":false,"rental_uris":{"android":"levelo://app?vid=1e425008-73a0-4434-a493-90e3aa20e291","ios":"levelo://app?vid=1e425008-73a0-4434-a493-90e3aa20e291"},"vehicle_type_id":"4","last_reported":1721229007,"current_range_meters":11600,"station_id":"ce4bht12rcd13ifvqi60","pricing_plan_id":"cebpf4jnsgd1na2vs0mg"},{"bike_id":"53a97ccd-ab9d-416b-9266-79c2570b404a","system_id":"levelo_inurba_marseille","lat":43.286143,"lon":5.370697,"is_reserved":false,"is_disabled":false,"rental_uris":{"android":"levelo://app?vid=53a97ccd-ab9d-416b-9266-79c2570b404a","ios":"levelo://app?vid=53a97ccd-ab9d-416b-9266-79c2570b404a"},"vehicle_type_id":"4","last_reported":1721229007,"current_range_meters":8000,"station_id":"ce4bht12rcd13ifvqi60","pricing_plan_id":"cebpf4jnsgd1na2vs0mg"},{"bike_id":"33eca454-48a3-450a-b74b-c5c1ff25e5c2","system_id":"levelo_inurba_marseille","lat":43.28608,"lon":5.37063,"is_reserved":false,"is_disabled":false,"rental_uris":{"android":"levelo://app?vid=33eca454-48a3-450a-b74b-c5c1ff25e5c2","ios":"levelo://app?vid=33eca454-48a3-450a-b74b-c5c1ff25e5c2"},"vehicle_type_id":"4","last_reported":1721229007,"current_range_meters":30800,"station_id":"ce4bht12rcd13ifvqi60","pricing_plan_id":"cebpf4jnsgd1na2vs0mg"},{"bike_id":"cb7d2a3d-9ed1-42df-8553-a552c865177f","system_id":"levelo_inurba_marseille","lat":43.28607,"lon":5.37062,"is_reserved":false,"is_disabled":false,"rental_uris":{"android":"levelo://app?vid=cb7d2a3d-9ed1-42df-8553-a552c865177f","ios":"levelo://app?vid=cb7d2a3d-9ed1-42df-8553-a552c865177f"},"vehicle_type_id":"4","last_reported":1721229007,"current_range_meters":3200,"station_id":"ce4bht12rcd13ifvqi60","pricing_plan_id":"cebpf4jnsgd1na2vs0mg"},{"bike_id":"9fabf012-6400-4268-a34b-3abe382c86e2","system_id":"levelo_inurba_marseille","lat":43.287423,"lon":5.352211,"is_reserved":false,"is_disabled":false,"rental_uris":{"android":"levelo://app?vid=9fabf012-6400-4268-a34b-3abe382c86e2","ios":"levelo://app?vid=9fabf012-6400-4268-a34b-3abe382c86e2"},"vehicle_type_id":"4","last_reported":1721229007,"current_range_meters":400,"station_id":"","pricing_plan_id":"cebpf4jnsgd1na2vs0mg"},{"bike_id":"3f7b22e7-6450-40a9-a2cd-209a7e060fc8","system_id":"levelo_inurba_marseille","lat":43.291994,"lon":5.392907,"is_reserved":false,"is_disabled":false,"rental_uris":{"android":"levelo://app?vid=3f7b22e7-6450-40a9-a2cd-209a7e060fc8","ios":"levelo://app?vid=3f7b22e7-6450-40a9-a2cd-209a7e060fc8"},"vehicle_type_id":"4","last_reported":1721229007,"current_range_meters":0,"station_id":"ce4bh192rcd13ifvqdd0","pricing_plan_id":"cebpf4jnsgd1na2vs0mg"},{"bike_id":"ae358720-9fda-420f-9e56-3f922bfc3be3","system_id":"levelo_inurba_marseille","lat":43.31318,"lon":5.405802,"is_reserved":false,"is_disabled":false,"rental_uris":{"android":"levelo://app?vid=ae358720-9fda-420f-9e56-3f922bfc3be3","ios":"levelo://app?vid=ae358720-9fda-420f-9e56-3f922bfc3be3"},"vehicle_type_id":"4","last_reported":1721229007,"current_range_meters":21600,"station_id":"","pricing_plan_id":"cebpf4jnsgd1na2vs0mg"},{"bike_id":"6a5c1a56-724e-4567-8e8e-fea82393c551","system_id":"levelo_inurba_marseille","lat":43.286249,"lon":5.35104,"is_reserved":false,"is_disabled":false,"rental_uris":{"android":"levelo://app?vid=6a5c1a56-724e-4567-8e8e-fea82393c551","ios":"levelo://app?vid=6a5c1a56-724e-4567-8e8e-fea82393c551"},"vehicle_type_id":"4","last_reported":1721229007,"current_range_meters":31200,"station_id":"ce4bhch2rcd13ifvqeug","pricing_plan_id":"cebpf4jnsgd1na2vs0mg"},{"bike_id":"38174f8c-f26f-4da1-864a-02d2524f0132","system_id":"levelo_inurba_marseille","lat":43.28617,"lon":5.35114,"is_reserved":false,"is_disabled":false,"rental_uris":{"android":"levelo://app?vid=38174f8c-f26f-4da1-864a-02d2524f0132","ios":"levelo://app?vid=38174f8c-f26f-4da1-864a-02d2524f0132"},"vehicle_type_id":"4","last_reported":1721229007,"current_range_meters":20400,"station_id":"","pricing_plan_id":"cebpf4jnsgd1na2vs0mg"},{"bike_id":"f2b659a2-4b50-469e-ac3b-9129d29fa707","system_id":"levelo_inurba_marseille","lat":43.28622,"lon":5.35098,"is_reserved":false,"is_disabled":false,"rental_uris":{"android":"levelo://app?vid=f2b659a2-4b50-469e-ac3b-9129d29fa707","ios":"levelo://app?vid=f2b659a2-4b50-469e-ac3b-9129d29fa707"},"vehicle_type_id":"4","last_reported":1721229007,"current_range_meters":26400,"station_id":"ce4bhch2rcd13ifvqeug","pricing_plan_id":"cebpf4jnsgd1na2vs0mg"},{"bike_id":"478896a1-6d35-4cad-9d89-6bbf410fc25b","system_id":"levelo_inurba_marseille","lat":43.2862,"lon":5.35102,"is_reserved":false,"is_disabled":false,"rental_uris":{"android":"levelo://app?vid=478896a1-6d35-4cad-9d89-6bbf410fc25b","ios":"levelo://app?vid=478896a1-6d35-4cad-9d89-6bbf410fc25b"},"vehicle_type_id":"4","last_reported":1721229007,"current_range_meters":31200,"station_id":"ce4bhch2rcd13ifvqeug","pricing_plan_id":"cebpf4jnsgd1na2vs0mg"},{"bike_id":"f2629930-aa3a-4a70-a573-ca184e45f8d9","system_id":"levelo_inurba_marseille","lat":43.28618,"lon":5.35107,"is_reserved":false,"is_disabled":false,"rental_uris":{"android":"levelo://app?vid=f2629930-aa3a-4a70-a573-ca184e45f8d9","ios":"levelo://app?vid=f2629930-aa3a-4a70-a573-ca184e45f8d9"},"vehicle_type_id":"4","last_reported":1721229007,"current_range_meters":14000,"station_id":"ce4bhch2rcd13ifvqeug","pricing_plan_id":"cebpf4jnsgd1na2vs0mg"},{"bike_id":"e41d4c42-e7d5-4311-b6de-92be4788e9f6","system_id":"levelo_inurba_marseille","lat":43.28618,"lon":5.35107,"is_reserved":false,"is_disabled":false,"rental_uris":{"android":"levelo://app?vid=e41d4c42-e7d5-4311-b6de-92be4788e9f6","ios":"levelo://app?vid=e41d4c42-e7d5-4311-b6de-92be4788e9f6"},"vehicle_type_id":"4","last_reported":1721229007,"current_range_meters":28400,"station_id":"ce4bhch2rcd13ifvqeug","pricing_plan_id":"cebpf4jnsgd1na2vs0mg"},{"bike_id":"7a8ab5a3-0e78-4018-8012-49c95b74248b","system_id":"levelo_inurba_marseille","lat":43.285856,"lon":5.350771,"is_reserved":false,"is_disabled":false,"rental_uris":{"android":"levelo://app?vid=7a8ab5a3-0e78-4018-8012-49c95b74248b","ios":"levelo://app?vid=7a8ab5a3-0e78-4018-8012-49c95b74248b"},"vehicle_type_id":"4","last_reported":1721229007,"current_range_meters":22400,"station_id":"ce4bhch2rcd13ifvqeug","pricing_plan_id":"cebpf4jnsgd1na2vs0mg"},{"bike_id":"6bd10fae-7406-42fa-bcf7-0d3b965b7116","system_id":"levelo_inurba_marseille","lat":43.28619,"lon":5.35103,"is_reserved":false,"is_disabled":false,"rental_uris":{"android":"levelo://app?vid=6bd10fae-7406-42fa-bcf7-0d3b965b7116","ios":"levelo://app?vid=6bd10fae-7406-42fa-bcf7-0d3b965b7116"},"vehicle_type_id":"4","last_reported":1721229007,"current_range_meters":22000,"station_id":"ce4bhch2rcd13ifvqeug","pricing_plan_id":"cebpf4jnsgd1na2vs0mg"},{"bike_id":"c8a677e5-1da4-4c1b-8ae5-2028a9de1350","system_id":"levelo_inurba_marseille","lat":43.285856,"lon":5.350771,"is_reserved":false,"is_disabled":false,"rental_uris":{"android":"levelo://app?vid=c8a677e5-1da4-4c1b-8ae5-2028a9de1350","ios":"levelo://app?vid=c8a677e5-1da4-4c1b-8ae5-2028a9de1350"},"vehicle_type_id":"4","last_reported":1721229007,"current_range_meters":10000,"station_id":"ce4bhch2rcd13ifvqeug","pricing_plan_id":"cebpf4jnsgd1na2vs0mg"},{"bike_id":"c4b614b2-b643-4b39-9f0f-fd00d2f5bc85","system_id":"levelo_inurba_marseille","lat":43.28618,"lon":5.35104,"is_reserved":false,"is_disabled":false,"rental_uris":{"android":"levelo://app?vid=c4b614b2-b643-4b39-9f0f-fd00d2f5bc85","ios":"levelo://app?vid=c4b614b2-b643-4b39-9f0f-fd00d2f5bc85"},"vehicle_type_id":"4","last_reported":1721229007,"current_range_meters":2800,"station_id":"ce4bhch2rcd13ifvqeug","pricing_plan_id":"cebpf4jnsgd1na2vs0mg"},{"bike_id":"44aa7942-e4bb-4dfb-90d1-ee0883b0f1ac","system_id":"levelo_inurba_marseille","lat":43.28614,"lon":5.35114,"is_reserved":false,"is_disabled":false,"rental_uris":{"android":"levelo://app?vid=44aa7942-e4bb-4dfb-90d1-ee0883b0f1ac","ios":"levelo://app?vid=44aa7942-e4bb-4dfb-90d1-ee0883b0f1ac"},"vehicle_type_id":"4","last_reported":1721229007,"current_range_meters":7200,"station_id":"ce4bhch2rcd13ifvqeug","pricing_plan_id":"cebpf4jnsgd1na2vs0mg"},{"bike_id":"0772806c-1b3b-4f02-947b-a577b5bd4806","system_id":"levelo_inurba_marseille","lat":43.28616,"lon":5.35105,"is_reserved":false,"is_disabled":false,"rental_uris":{"android":"levelo://app?vid=0772806c-1b3b-4f02-947b-a577b5bd4806","ios":"levelo://app?vid=0772806c-1b3b-4f02-947b-a577b5bd4806"},"vehicle_type_id":"4","last_reported":1721229007,"current_range_meters":10400,"station_id":"ce4bhch2rcd13ifvqeug","pricing_plan_id":"cebpf4jnsgd1na2vs0mg"},{"bike_id":"de13a9b2-d208-470b-8ca4-0ab3ebfdcbce","system_id":"levelo_inurba_marseille","lat":43.28616,"lon":5.35105,"is_reserved":false,"is_disabled":false,"rental_uris":{"android":"levelo://app?vid=de13a9b2-d208-470b-8ca4-0ab3ebfdcbce","ios":"levelo://app?vid=de13a9b2-d208-470b-8ca4-0ab3ebfdcbce"},"vehicle_type_id":"4","last_reported":1721229007,"current_range_meters":18800,"station_id":"ce4bhch2rcd13ifvqeug","pricing_plan_id":"cebpf4jnsgd1na2vs0mg"},{"bike_id":"55b58cdb-eb9e-4b84-8975-4be8d5e0c5e2","system_id":"levelo_inurba_marseille","lat":43.28616,"lon":5.35103,"is_reserved":false,"is_disabled":false,"rental_uris":{"android":"levelo://app?vid=55b58cdb-eb9e-4b84-8975-4be8d5e0c5e2","ios":"levelo://app?vid=55b58cdb-eb9e-4b84-8975-4be8d5e0c5e2"},"vehicle_type_id":"4","last_reported":1721229007,"current_range_meters":15600,"station_id":"ce4bhch2rcd13ifvqeug","pricing_plan_id":"cebpf4jnsgd1na2vs0mg"},{"bike_id":"f629989b-bb50-4865-8d55-23b99854faef","system_id":"levelo_inurba_marseille","lat":43.285856,"lon":5.350771,"is_reserved":false,"is_disabled":false,"rental_uris":{"android":"levelo://app?vid=f629989b-bb50-4865-8d55-23b99854faef","ios":"levelo://app?vid=f629989b-bb50-4865-8d55-23b99854faef"},"vehicle_type_id":"4","last_reported":1721229007,"current_range_meters":14000,"station_id":"ce4bhch2rcd13ifvqeug","pricing_plan_id":"cebpf4jnsgd1na2vs0mg"},{"bike_id":"d51c8bc3-6ffa-45f5-b69e-0595cead38a0","system_id":"levelo_inurba_marseille","lat":43.286143,"lon":5.351027,"is_reserved":false,"is_disabled":false,"rental_uris":{"android":"levelo://app?vid=d51c8bc3-6ffa-45f5-b69e-0595cead38a0","ios":"levelo://app?vid=d51c8bc3-6ffa-45f5-b69e-0595cead38a0"},"vehicle_type_id":"4","last_reported":1721229007,"current_range_meters":0,"station_id":"ce4bhch2rcd13ifvqeug","pricing_plan_id":"cebpf4jnsgd1na2vs0mg"},{"bike_id":"c839588e-a56a-417a-9a40-b4732e768f53","system_id":"levelo_inurba_marseille","lat":43.28613,"lon":5.35102,"is_reserved":false,"is_disabled":false,"rental_uris":{"android":"levelo://app?vid=c839588e-a56a-417a-9a40-b4732e768f53","ios":"levelo://app?vid=c839588e-a56a-417a-9a40-b4732e768f53"},"vehicle_type_id":"4","last_reported":1721229007,"current_range_meters":28000,"station_id":"ce4bhch2rcd13ifvqeug","pricing_plan_id":"cebpf4jnsgd1na2vs0mg"},{"bike_id":"36039580-e6b7-4126-97a6-467cf6e1e773","system_id":"levelo_inurba_marseille","lat":43.283998,"lon":5.375062,"is_reserved":false,"is_disabled":false,"rental_uris":{"android":"levelo://app?vid=36039580-e6b7-4126-97a6-467cf6e1e773","ios":"levelo://app?vid=36039580-e6b7-4126-97a6-467cf6e1e773"},"vehicle_type_id":"4","last_reported":1721229007,"current_range_meters":0,"station_id":"ce4bh412rcd13ifvqds0","pricing_plan_id":"cebpf4jnsgd1na2vs0mg"},{"bike_id":"3879f017-1158-499f-b551-77024ab9ae80","system_id":"levelo_inurba_marseille","lat":43.2861,"lon":5.351035,"is_reserved":false,"is_disabled":false,"rental_uris":{"android":"levelo://app?vid=3879f017-1158-499f-b551-77024ab9ae80","ios":"levelo://app?vid=3879f017-1158-499f-b551-77024ab9ae80"},"vehicle_type_id":"4","last_reported":1721229007,"current_range_meters":23200,"station_id":"ce4bhch2rcd13ifvqeug","pricing_plan_id":"cebpf4jnsgd1na2vs0mg"},{"bike_id":"89c695eb-86ff-4d8a-81dd-7f5b1e2ed39e","system_id":"levelo_inurba_marseille","lat":43.286047,"lon":5.351127,"is_reserved":false,"is_disabled":false,"rental_uris":{"android":"levelo://app?vid=89c695eb-86ff-4d8a-81dd-7f5b1e2ed39e","ios":"levelo://app?vid=89c695eb-86ff-4d8a-81dd-7f5b1e2ed39e"},"vehicle_type_id":"4","last_reported":1721229007,"current_range_meters":0,"station_id":"ce4bh192rcd13ifvqdd0","pricing_plan_id":"cebpf4jnsgd1na2vs0mg"},{"bike_id":"be959436-3f1f-4441-8257-333b5efd6054","system_id":"levelo_inurba_marseille","lat":43.283998,"lon":5.375062,"is_reserved":false,"is_disabled":false,"rental_uris":{"android":"levelo://app?vid=be959436-3f1f-4441-8257-333b5efd6054","ios":"levelo://app?vid=be959436-3f1f-4441-8257-333b5efd6054"},"vehicle_type_id":"4","last_reported":1721229007,"current_range_meters":0,"station_id":"ce4bh412rcd13ifvqds0","pricing_plan_id":"cebpf4jnsgd1na2vs0mg"},{"bike_id":"bf2896eb-aa36-4837-ba7e-1eb786b03e00","system_id":"levelo_inurba_marseille","lat":43.298037,"lon":5.381066,"is_reserved":false,"is_disabled":false,"rental_uris":{"android":"levelo://app?vid=bf2896eb-aa36-4837-ba7e-1eb786b03e00","ios":"levelo://app?vid=bf2896eb-aa36-4837-ba7e-1eb786b03e00"},"vehicle_type_id":"4","last_reported":1721229007,"current_range_meters":12000,"station_id":"ce4bgip2rcd13ifvqbb0","pricing_plan_id":"cebpf4jnsgd1na2vs0mg"},{"bike_id":"71d47c9e-1760-4d80-b43a-d831a5a44bbe","system_id":"levelo_inurba_marseille","lat":43.33717,"lon":5.391857,"is_reserved":false,"is_disabled":false,"rental_uris":{"android":"levelo://app?vid=71d47c9e-1760-4d80-b43a-d831a5a44bbe","ios":"levelo://app?vid=71d47c9e-1760-4d80-b43a-d831a5a44bbe"},"vehicle_type_id":"4","last_reported":1721229007,"current_range_meters":19600,"station_id":"ce4bhr92rcd13ifvqhsg","pricing_plan_id":"cebpf4jnsgd1na2vs0mg"},{"bike_id":"bb2bf057-957b-4a30-85f4-3ed07d14e8ce","system_id":"levelo_inurba_marseille","lat":43.33717,"lon":5.391857,"is_reserved":false,"is_disabled":false,"rental_uris":{"android":"levelo://app?vid=bb2bf057-957b-4a30-85f4-3ed07d14e8ce","ios":"levelo://app?vid=bb2bf057-957b-4a30-85f4-3ed07d14e8ce"},"vehicle_type_id":"4","last_reported":1721229007,"current_range_meters":12000,"station_id":"ce4bhr92rcd13ifvqhsg","pricing_plan_id":"cebpf4jnsgd1na2vs0mg"},{"bike_id":"23a6da14-709c-4925-b692-e5ebd08d7a3b","system_id":"levelo_inurba_marseille","lat":43.323464,"lon":5.406297,"is_reserved":false,"is_disabled":false,"rental_uris":{"android":"levelo://app?vid=23a6da14-709c-4925-b692-e5ebd08d7a3b","ios":"levelo://app?vid=23a6da14-709c-4925-b692-e5ebd08d7a3b"},"vehicle_type_id":"4","last_reported":1721229007,"current_range_meters":0,"station_id":"ce4bhq92rcd13ifvqhjg","pricing_plan_id":"cebpf4jnsgd1na2vs0mg"},{"bike_id":"7a17b88d-9b7c-4e33-9965-f4586229d613","system_id":"levelo_inurba_marseille","lat":43.32338,"lon":5.40625,"is_reserved":false,"is_disabled":false,"rental_uris":{"android":"levelo://app?vid=7a17b88d-9b7c-4e33-9965-f4586229d613","ios":"levelo://app?vid=7a17b88d-9b7c-4e33-9965-f4586229d613"},"vehicle_type_id":"4","last_reported":1721229007,"current_range_meters":8000,"station_id":"ce4bhq92rcd13ifvqhjg","pricing_plan_id":"cebpf4jnsgd1na2vs0mg"},{"bike_id":"2132e3f0-9351-465a-af8a-5c4918a27d9e","system_id":"levelo_inurba_marseille","lat":43.33717,"lon":5.391857,"is_reserved":false,"is_disabled":false,"rental_uris":{"android":"levelo://app?vid=2132e3f0-9351-465a-af8a-5c4918a27d9e","ios":"levelo://app?vid=2132e3f0-9351-465a-af8a-5c4918a27d9e"},"vehicle_type_id":"4","last_reported":1721229007,"current_range_meters":18400,"station_id":"ce4bhr92rcd13ifvqhsg","pricing_plan_id":"cebpf4jnsgd1na2vs0mg"},{"bike_id":"2e8a4800-19a2-4004-a28a-1c13f16a1322","system_id":"levelo_inurba_marseille","lat":43.2848,"lon":5.3841,"is_reserved":false,"is_disabled":false,"rental_uris":{"android":"levelo://app?vid=2e8a4800-19a2-4004-a28a-1c13f16a1322","ios":"levelo://app?vid=2e8a4800-19a2-4004-a28a-1c13f16a1322"},"vehicle_type_id":"4","last_reported":1721229007,"current_range_meters":0,"station_id":"ce4bh512rcd13ifvqe3g","pricing_plan_id":"cebpf4jnsgd1na2vs0mg"},{"bike_id":"5f500dd5-25dc-4bc1-a819-04043399c675","system_id":"levelo_inurba_marseille","lat":43.288501,"lon":5.393087,"is_reserved":false,"is_disabled":false,"rental_uris":{"android":"levelo://app?vid=5f500dd5-25dc-4bc1-a819-04043399c675","ios":"levelo://app?vid=5f500dd5-25dc-4bc1-a819-04043399c675"},"vehicle_type_id":"4","last_reported":1721229007,"current_range_meters":18800,"station_id":"ce4bh2p2rcd13ifvqdi0","pricing_plan_id":"cebpf4jnsgd1na2vs0mg"},{"bike_id":"e248c639-c5f5-4a0c-8448-05270ee6fc9c","system_id":"levelo_inurba_marseille","lat":43.28504,"lon":5.38549,"is_reserved":false,"is_disabled":false,"rental_uris":{"android":"levelo://app?vid=e248c639-c5f5-4a0c-8448-05270ee6fc9c","ios":"levelo://app?vid=e248c639-c5f5-4a0c-8448-05270ee6fc9c"},"vehicle_type_id":"4","last_reported":1721229007,"current_range_meters":0,"station_id":"ce4bh8p2rcd13ifvqeb0","pricing_plan_id":"cebpf4jnsgd1na2vs0mg"},{"bike_id":"a459a0d0-7169-49d5-84bb-87c446ac7f0f","system_id":"levelo_inurba_marseille","lat":43.28481,"lon":5.38537,"is_reserved":false,"is_disabled":false,"rental_uris":{"android":"levelo://app?vid=a459a0d0-7169-49d5-84bb-87c446ac7f0f","ios":"levelo://app?vid=a459a0d0-7169-49d5-84bb-87c446ac7f0f"},"vehicle_type_id":"4","last_reported":1721229007,"current_range_meters":0,"station_id":"ce4bh8p2rcd13ifvqeb0","pricing_plan_id":"cebpf4jnsgd1na2vs0mg"},{"bike_id":"5584dbea-99a0-4eef-adbd-9b80c7430e76","system_id":"levelo_inurba_marseille","lat":43.284217,"lon":5.349697,"is_reserved":false,"is_disabled":false,"rental_uris":{"android":"levelo://app?vid=5584dbea-99a0-4eef-adbd-9b80c7430e76","ios":"levelo://app?vid=5584dbea-99a0-4eef-adbd-9b80c7430e76"},"vehicle_type_id":"4","last_reported":1721229007,"current_range_meters":22800,"station_id":"ce4bhbh2rcd13ifvqepg","pricing_plan_id":"cebpf4jnsgd1na2vs0mg"},{"bike_id":"725ae829-5a36-4bb3-acc4-ba24140fa189","system_id":"levelo_inurba_marseille","lat":43.284269,"lon":5.349974,"is_reserved":false,"is_disabled":false,"rental_uris":{"android":"levelo://app?vid=725ae829-5a36-4bb3-acc4-ba24140fa189","ios":"levelo://app?vid=725ae829-5a36-4bb3-acc4-ba24140fa189"},"vehicle_type_id":"4","last_reported":1721229007,"current_range_meters":26800,"station_id":"ce4bhbh2rcd13ifvqepg","pricing_plan_id":"cebpf4jnsgd1na2vs0mg"},{"bike_id":"f8832aed-6210-4d16-a17e-6b86c19eec15","system_id":"levelo_inurba_marseille","lat":43.284217,"lon":5.349697,"is_reserved":false,"is_disabled":false,"rental_uris":{"android":"levelo://app?vid=f8832aed-6210-4d16-a17e-6b86c19eec15","ios":"levelo://app?vid=f8832aed-6210-4d16-a17e-6b86c19eec15"},"vehicle_type_id":"4","last_reported":1721229007,"current_range_meters":30800,"station_id":"ce4bhbh2rcd13ifvqepg","pricing_plan_id":"cebpf4jnsgd1na2vs0mg"},{"bike_id":"48acaff0-367b-4448-abf7-1cc652d7893c","system_id":"levelo_inurba_marseille","lat":43.28425,"lon":5.34992,"is_reserved":false,"is_disabled":false,"rental_uris":{"android":"levelo://app?vid=48acaff0-367b-4448-abf7-1cc652d7893c","ios":"levelo://app?vid=48acaff0-367b-4448-abf7-1cc652d7893c"},"vehicle_type_id":"4","last_reported":1721229007,"current_range_meters":2400,"station_id":"ce4bhbh2rcd13ifvqepg","pricing_plan_id":"cebpf4jnsgd1na2vs0mg"},{"bike_id":"14f628d2-ab2a-4aab-9b4c-c060848a79a2","system_id":"levelo_inurba_marseille","lat":43.284214,"lon":5.349706,"is_reserved":false,"is_disabled":false,"rental_uris":{"android":"levelo://app?vid=14f628d2-ab2a-4aab-9b4c-c060848a79a2","ios":"levelo://app?vid=14f628d2-ab2a-4aab-9b4c-c060848a79a2"},"vehicle_type_id":"4","last_reported":1721229007,"current_range_meters":31200,"station_id":"ce4bhbh2rcd13ifvqepg","pricing_plan_id":"cebpf4jnsgd1na2vs0mg"},{"bike_id":"b95a9a56-b21b-456a-b2e5-1b36f3c0dad9","system_id":"levelo_inurba_marseille","lat":43.28423,"lon":5.34997,"is_reserved":false,"is_disabled":false,"rental_uris":{"android":"levelo://app?vid=b95a9a56-b21b-456a-b2e5-1b36f3c0dad9","ios":"levelo://app?vid=b95a9a56-b21b-456a-b2e5-1b36f3c0dad9"},"vehicle_type_id":"4","last_reported":1721229007,"current_range_meters":21200,"station_id":"ce4bhbh2rcd13ifvqepg","pricing_plan_id":"cebpf4jnsgd1na2vs0mg"},{"bike_id":"064e5ac4-900d-4ee2-803d-156a3c346c96","system_id":"levelo_inurba_marseille","lat":43.28427,"lon":5.34984,"is_reserved":false,"is_disabled":false,"rental_uris":{"android":"levelo://app?vid=064e5ac4-900d-4ee2-803d-156a3c346c96","ios":"levelo://app?vid=064e5ac4-900d-4ee2-803d-156a3c346c96"},"vehicle_type_id":"4","last_reported":1721229007,"current_range_meters":26000,"station_id":"ce4bhbh2rcd13ifvqepg","pricing_plan_id":"cebpf4jnsgd1na2vs0mg"},{"bike_id":"3f7fa33e-3e97-4cc5-979b-889e5f01d3b5","system_id":"levelo_inurba_marseille","lat":43.284219,"lon":5.3497,"is_reserved":false,"is_disabled":false,"rental_uris":{"android":"levelo://app?vid=3f7fa33e-3e97-4cc5-979b-889e5f01d3b5","ios":"levelo://app?vid=3f7fa33e-3e97-4cc5-979b-889e5f01d3b5"},"vehicle_type_id":"4","last_reported":1721229007,"current_range_meters":12800,"station_id":"ce4bhbh2rcd13ifvqepg","pricing_plan_id":"cebpf4jnsgd1na2vs0mg"},{"bike_id":"454d2708-ac56-4bef-965d-8758888e0933","system_id":"levelo_inurba_marseille","lat":43.288497,"lon":5.393089,"is_reserved":false,"is_disabled":false,"rental_uris":{"android":"levelo://app?vid=454d2708-ac56-4bef-965d-8758888e0933","ios":"levelo://app?vid=454d2708-ac56-4bef-965d-8758888e0933"},"vehicle_type_id":"4","last_reported":1721229007,"current_range_meters":0,"station_id":"ce4bh2p2rcd13ifvqdi0","pricing_plan_id":"cebpf4jnsgd1na2vs0mg"},{"bike_id":"bfb5f0e0-2813-425a-a1ae-5714cd841c3e","system_id":"levelo_inurba_marseille","lat":43.284217,"lon":5.349697,"is_reserved":false,"is_disabled":false,"rental_uris":{"android":"levelo://app?vid=bfb5f0e0-2813-425a-a1ae-5714cd841c3e","ios":"levelo://app?vid=bfb5f0e0-2813-425a-a1ae-5714cd841c3e"},"vehicle_type_id":"4","last_reported":1721229007,"current_range_meters":4400,"station_id":"ce4bhbh2rcd13ifvqepg","pricing_plan_id":"cebpf4jnsgd1na2vs0mg"},{"bike_id":"cbea0fa2-10f6-44f7-8ee1-1e265f66945c","system_id":"levelo_inurba_marseille","lat":43.28421,"lon":5.35,"is_reserved":false,"is_disabled":false,"rental_uris":{"android":"levelo://app?vid=cbea0fa2-10f6-44f7-8ee1-1e265f66945c","ios":"levelo://app?vid=cbea0fa2-10f6-44f7-8ee1-1e265f66945c"},"vehicle_type_id":"4","last_reported":1721229007,"current_range_meters":23600,"station_id":"ce4bhbh2rcd13ifvqepg","pricing_plan_id":"cebpf4jnsgd1na2vs0mg"},{"bike_id":"00e02fc1-698c-48b8-9757-e4836a0d875e","system_id":"levelo_inurba_marseille","lat":43.28423,"lon":5.3499,"is_reserved":false,"is_disabled":false,"rental_uris":{"android":"levelo://app?vid=00e02fc1-698c-48b8-9757-e4836a0d875e","ios":"levelo://app?vid=00e02fc1-698c-48b8-9757-e4836a0d875e"},"vehicle_type_id":"4","last_reported":1721229007,"current_range_meters":400,"station_id":"ce4bhbh2rcd13ifvqepg","pricing_plan_id":"cebpf4jnsgd1na2vs0mg"},{"bike_id":"be27a191-97a8-4c51-9330-50f05207df1d","system_id":"levelo_inurba_marseille","lat":43.28421,"lon":5.34996,"is_reserved":false,"is_disabled":false,"rental_uris":{"android":"levelo://app?vid=be27a191-97a8-4c51-9330-50f05207df1d","ios":"levelo://app?vid=be27a191-97a8-4c51-9330-50f05207df1d"},"vehicle_type_id":"4","last_reported":1721229007,"current_range_meters":24000,"station_id":"ce4bhbh2rcd13ifvqepg","pricing_plan_id":"cebpf4jnsgd1na2vs0mg"},{"bike_id":"e0235ec8-24bf-40b3-8cbd-ce3f90cbaaad","system_id":"levelo_inurba_marseille","lat":43.28421,"lon":5.34995,"is_reserved":false,"is_disabled":false,"rental_uris":{"android":"levelo://app?vid=e0235ec8-24bf-40b3-8cbd-ce3f90cbaaad","ios":"levelo://app?vid=e0235ec8-24bf-40b3-8cbd-ce3f90cbaaad"},"vehicle_type_id":"4","last_reported":1721229007,"current_range_meters":18800,"station_id":"ce4bhbh2rcd13ifvqepg","pricing_plan_id":"cebpf4jnsgd1na2vs0mg"},{"bike_id":"a319fcad-5069-4c00-8336-66effb3ce112","system_id":"levelo_inurba_marseille","lat":43.28419,"lon":5.35001,"is_reserved":false,"is_disabled":false,"rental_uris":{"android":"levelo://app?vid=a319fcad-5069-4c00-8336-66effb3ce112","ios":"levelo://app?vid=a319fcad-5069-4c00-8336-66effb3ce112"},"vehicle_type_id":"4","last_reported":1721229007,"current_range_meters":18000,"station_id":"ce4bhbh2rcd13ifvqepg","pricing_plan_id":"cebpf4jnsgd1na2vs0mg"},{"bike_id":"0597e5ec-72ef-4a48-ae77-1704bc827634","system_id":"levelo_inurba_marseille","lat":43.28418,"lon":5.35001,"is_reserved":false,"is_disabled":false,"rental_uris":{"android":"levelo://app?vid=0597e5ec-72ef-4a48-ae77-1704bc827634","ios":"levelo://app?vid=0597e5ec-72ef-4a48-ae77-1704bc827634"},"vehicle_type_id":"4","last_reported":1721229007,"current_range_meters":26400,"station_id":"ce4bhbh2rcd13ifvqepg","pricing_plan_id":"cebpf4jnsgd1na2vs0mg"},{"bike_id":"0281da33-2389-434d-b28b-13059e02f1cc","system_id":"levelo_inurba_marseille","lat":43.28418,"lon":5.35001,"is_reserved":false,"is_disabled":false,"rental_uris":{"android":"levelo://app?vid=0281da33-2389-434d-b28b-13059e02f1cc","ios":"levelo://app?vid=0281da33-2389-434d-b28b-13059e02f1cc"},"vehicle_type_id":"4","last_reported":1721229007,"current_range_meters":30800,"station_id":"ce4bhbh2rcd13ifvqepg","pricing_plan_id":"cebpf4jnsgd1na2vs0mg"},{"bike_id":"f40f4905-6a1b-467f-9151-5165aee3a279","system_id":"levelo_inurba_marseille","lat":43.2842,"lon":5.34994,"is_reserved":false,"is_disabled":false,"rental_uris":{"android":"levelo://app?vid=f40f4905-6a1b-467f-9151-5165aee3a279","ios":"levelo://app?vid=f40f4905-6a1b-467f-9151-5165aee3a279"},"vehicle_type_id":"4","last_reported":1721229007,"current_range_meters":9200,"station_id":"ce4bhbh2rcd13ifvqepg","pricing_plan_id":"cebpf4jnsgd1na2vs0mg"},{"bike_id":"36e25ee3-aafd-4a9c-b948-77b1f8dd81f8","system_id":"levelo_inurba_marseille","lat":43.28423,"lon":5.34984,"is_reserved":false,"is_disabled":false,"rental_uris":{"android":"levelo://app?vid=36e25ee3-aafd-4a9c-b948-77b1f8dd81f8","ios":"levelo://app?vid=36e25ee3-aafd-4a9c-b948-77b1f8dd81f8"},"vehicle_type_id":"4","last_reported":1721229007,"current_range_meters":9600,"station_id":"ce4bhbh2rcd13ifvqepg","pricing_plan_id":"cebpf4jnsgd1na2vs0mg"},{"bike_id":"887ec3ce-e702-4a0b-8286-f34b1742a978","system_id":"levelo_inurba_marseille","lat":43.28422,"lon":5.34987,"is_reserved":false,"is_disabled":false,"rental_uris":{"android":"levelo://app?vid=887ec3ce-e702-4a0b-8286-f34b1742a978","ios":"levelo://app?vid=887ec3ce-e702-4a0b-8286-f34b1742a978"},"vehicle_type_id":"4","last_reported":1721229007,"current_range_meters":30800,"station_id":"ce4bhbh2rcd13ifvqepg","pricing_plan_id":"cebpf4jnsgd1na2vs0mg"},{"bike_id":"05a51d79-89a4-49c6-8520-cb4685c4ac3e","system_id":"levelo_inurba_marseille","lat":43.2842,"lon":5.34993,"is_reserved":false,"is_disabled":false,"rental_uris":{"android":"levelo://app?vid=05a51d79-89a4-49c6-8520-cb4685c4ac3e","ios":"levelo://app?vid=05a51d79-89a4-49c6-8520-cb4685c4ac3e"},"vehicle_type_id":"4","last_reported":1721229007,"current_range_meters":16800,"station_id":"ce4bhbh2rcd13ifvqepg","pricing_plan_id":"cebpf4jnsgd1na2vs0mg"},{"bike_id":"29189e26-9108-46c1-91e5-426e40b90b01","system_id":"levelo_inurba_marseille","lat":43.28426,"lon":5.34974,"is_reserved":false,"is_disabled":false,"rental_uris":{"android":"levelo://app?vid=29189e26-9108-46c1-91e5-426e40b90b01","ios":"levelo://app?vid=29189e26-9108-46c1-91e5-426e40b90b01"},"vehicle_type_id":"4","last_reported":1721229007,"current_range_meters":22800,"station_id":"ce4bhbh2rcd13ifvqepg","pricing_plan_id":"cebpf4jnsgd1na2vs0mg"},{"bike_id":"17cb46bc-7bb2-45f5-a184-649c2f0ed7d3","system_id":"levelo_inurba_marseille","lat":43.284219,"lon":5.3497,"is_reserved":false,"is_disabled":false,"rental_uris":{"android":"levelo://app?vid=17cb46bc-7bb2-45f5-a184-649c2f0ed7d3","ios":"levelo://app?vid=17cb46bc-7bb2-45f5-a184-649c2f0ed7d3"},"vehicle_type_id":"4","last_reported":1721229007,"current_range_meters":26800,"station_id":"ce4bhbh2rcd13ifvqepg","pricing_plan_id":"cebpf4jnsgd1na2vs0mg"},{"bike_id":"e510ffb9-9222-4fe7-952b-22eda68b9533","system_id":"levelo_inurba_marseille","lat":43.28418,"lon":5.34996,"is_reserved":false,"is_disabled":false,"rental_uris":{"android":"levelo://app?vid=e510ffb9-9222-4fe7-952b-22eda68b9533","ios":"levelo://app?vid=e510ffb9-9222-4fe7-952b-22eda68b9533"},"vehicle_type_id":"4","last_reported":1721229007,"current_range_meters":31200,"station_id":"ce4bhbh2rcd13ifvqepg","pricing_plan_id":"cebpf4jnsgd1na2vs0mg"},{"bike_id":"7279adef-cb9d-4887-ba2a-45b285fe103c","system_id":"levelo_inurba_marseille","lat":43.28424,"lon":5.34976,"is_reserved":false,"is_disabled":false,"rental_uris":{"android":"levelo://app?vid=7279adef-cb9d-4887-ba2a-45b285fe103c","ios":"levelo://app?vid=7279adef-cb9d-4887-ba2a-45b285fe103c"},"vehicle_type_id":"4","last_reported":1721229007,"current_range_meters":26400,"station_id":"ce4bhbh2rcd13ifvqepg","pricing_plan_id":"cebpf4jnsgd1na2vs0mg"},{"bike_id":"a740d632-7516-4bf0-89f8-107670c717ae","system_id":"levelo_inurba_marseille","lat":43.2842,"lon":5.34988,"is_reserved":false,"is_disabled":false,"rental_uris":{"android":"levelo://app?vid=a740d632-7516-4bf0-89f8-107670c717ae","ios":"levelo://app?vid=a740d632-7516-4bf0-89f8-107670c717ae"},"vehicle_type_id":"4","last_reported":1721229007,"current_range_meters":24800,"station_id":"ce4bhbh2rcd13ifvqepg","pricing_plan_id":"cebpf4jnsgd1na2vs0mg"},{"bike_id":"08b79e45-a359-435e-a9ba-982baca71d46","system_id":"levelo_inurba_marseille","lat":43.28423,"lon":5.34978,"is_reserved":false,"is_disabled":false,"rental_uris":{"android":"levelo://app?vid=08b79e45-a359-435e-a9ba-982baca71d46","ios":"levelo://app?vid=08b79e45-a359-435e-a9ba-982baca71d46"},"vehicle_type_id":"4","last_reported":1721229007,"current_range_meters":13200,"station_id":"ce4bhbh2rcd13ifvqepg","pricing_plan_id":"cebpf4jnsgd1na2vs0mg"},{"bike_id":"af882ab9-3f28-42ae-a804-31b2fe99e25a","system_id":"levelo_inurba_marseille","lat":43.2842,"lon":5.34987,"is_reserved":false,"is_disabled":false,"rental_uris":{"android":"levelo://app?vid=af882ab9-3f28-42ae-a804-31b2fe99e25a","ios":"levelo://app?vid=af882ab9-3f28-42ae-a804-31b2fe99e25a"},"vehicle_type_id":"4","last_reported":1721229007,"current_range_meters":4400,"station_id":"ce4bhbh2rcd13ifvqepg","pricing_plan_id":"cebpf4jnsgd1na2vs0mg"},{"bike_id":"80fcb43d-7b42-455a-85e4-d51499802220","system_id":"levelo_inurba_marseille","lat":43.28422,"lon":5.34979,"is_reserved":false,"is_disabled":false,"rental_uris":{"android":"levelo://app?vid=80fcb43d-7b42-455a-85e4-d51499802220","ios":"levelo://app?vid=80fcb43d-7b42-455a-85e4-d51499802220"},"vehicle_type_id":"4","last_reported":1721229007,"current_range_meters":16800,"station_id":"ce4bhbh2rcd13ifvqepg","pricing_plan_id":"cebpf4jnsgd1na2vs0mg"},{"bike_id":"7272ddf1-3e98-4b70-bb2c-f5394b310035","system_id":"levelo_inurba_marseille","lat":43.284217,"lon":5.349697,"is_reserved":false,"is_disabled":false,"rental_uris":{"android":"levelo://app?vid=7272ddf1-3e98-4b70-bb2c-f5394b310035","ios":"levelo://app?vid=7272ddf1-3e98-4b70-bb2c-f5394b310035"},"vehicle_type_id":"4","last_reported":1721229007,"current_range_meters":31600,"station_id":"ce4bhbh2rcd13ifvqepg","pricing_plan_id":"cebpf4jnsgd1na2vs0mg"},{"bike_id":"f96d6119-1f90-4ec6-9ae4-14c1e330c373","system_id":"levelo_inurba_marseille","lat":43.284776,"lon":5.385603,"is_reserved":false,"is_disabled":false,"rental_uris":{"android":"levelo://app?vid=f96d6119-1f90-4ec6-9ae4-14c1e330c373","ios":"levelo://app?vid=f96d6119-1f90-4ec6-9ae4-14c1e330c373"},"vehicle_type_id":"4","last_reported":1721229007,"current_range_meters":0,"station_id":"ce4bh8p2rcd13ifvqeb0","pricing_plan_id":"cebpf4jnsgd1na2vs0mg"},{"bike_id":"5844bd98-bb91-47e1-803f-e9acd60e06d3","system_id":"levelo_inurba_marseille","lat":43.28416,"lon":5.34995,"is_reserved":false,"is_disabled":false,"rental_uris":{"android":"levelo://app?vid=5844bd98-bb91-47e1-803f-e9acd60e06d3","ios":"levelo://app?vid=5844bd98-bb91-47e1-803f-e9acd60e06d3"},"vehicle_type_id":"4","last_reported":1721229007,"current_range_meters":30800,"station_id":"ce4bhbh2rcd13ifvqepg","pricing_plan_id":"cebpf4jnsgd1na2vs0mg"},{"bike_id":"f45f4647-46b6-4662-bef3-e1b86637bade","system_id":"levelo_inurba_marseille","lat":43.284217,"lon":5.349697,"is_reserved":false,"is_disabled":false,"rental_uris":{"android":"levelo://app?vid=f45f4647-46b6-4662-bef3-e1b86637bade","ios":"levelo://app?vid=f45f4647-46b6-4662-bef3-e1b86637bade"},"vehicle_type_id":"4","last_reported":1721229007,"current_range_meters":13200,"station_id":"ce4bhbh2rcd13ifvqepg","pricing_plan_id":"cebpf4jnsgd1na2vs0mg"},{"bike_id":"b76c7006-f81a-4447-9bf3-97e280d2bce5","system_id":"levelo_inurba_marseille","lat":43.284217,"lon":5.349697,"is_reserved":false,"is_disabled":false,"rental_uris":{"android":"levelo://app?vid=b76c7006-f81a-4447-9bf3-97e280d2bce5","ios":"levelo://app?vid=b76c7006-f81a-4447-9bf3-97e280d2bce5"},"vehicle_type_id":"4","last_reported":1721229007,"current_range_meters":30400,"station_id":"ce4bhbh2rcd13ifvqepg","pricing_plan_id":"cebpf4jnsgd1na2vs0mg"},{"bike_id":"cf861023-7e6b-452d-96ff-8829b5ac734f","system_id":"levelo_inurba_marseille","lat":43.284217,"lon":5.349697,"is_reserved":false,"is_disabled":false,"rental_uris":{"android":"levelo://app?vid=cf861023-7e6b-452d-96ff-8829b5ac734f","ios":"levelo://app?vid=cf861023-7e6b-452d-96ff-8829b5ac734f"},"vehicle_type_id":"4","last_reported":1721229007,"current_range_meters":400,"station_id":"ce4bhbh2rcd13ifvqepg","pricing_plan_id":"cebpf4jnsgd1na2vs0mg"},{"bike_id":"67487b55-0ca4-46e1-8c84-003df30cf42f","system_id":"levelo_inurba_marseille","lat":43.284217,"lon":5.349697,"is_reserved":false,"is_disabled":false,"rental_uris":{"android":"levelo://app?vid=67487b55-0ca4-46e1-8c84-003df30cf42f","ios":"levelo://app?vid=67487b55-0ca4-46e1-8c84-003df30cf42f"},"vehicle_type_id":"4","last_reported":1721229007,"current_range_meters":0,"station_id":"ce4bhbh2rcd13ifvqepg","pricing_plan_id":"cebpf4jnsgd1na2vs0mg"},{"bike_id":"3499c348-62f3-46e0-936f-252ee6ceb97f","system_id":"levelo_inurba_marseille","lat":43.284217,"lon":5.349697,"is_reserved":false,"is_disabled":false,"rental_uris":{"android":"levelo://app?vid=3499c348-62f3-46e0-936f-252ee6ceb97f","ios":"levelo://app?vid=3499c348-62f3-46e0-936f-252ee6ceb97f"},"vehicle_type_id":"4","last_reported":1721229007,"current_range_meters":23600,"station_id":"ce4bhbh2rcd13ifvqepg","pricing_plan_id":"cebpf4jnsgd1na2vs0mg"},{"bike_id":"c31a9596-9878-4411-ab72-8dcfba4da6af","system_id":"levelo_inurba_marseille","lat":43.28414,"lon":5.34995,"is_reserved":false,"is_disabled":false,"rental_uris":{"android":"levelo://app?vid=c31a9596-9878-4411-ab72-8dcfba4da6af","ios":"levelo://app?vid=c31a9596-9878-4411-ab72-8dcfba4da6af"},"vehicle_type_id":"4","last_reported":1721229007,"current_range_meters":21200,"station_id":"ce4bhbh2rcd13ifvqepg","pricing_plan_id":"cebpf4jnsgd1na2vs0mg"},{"bike_id":"b54e5b0f-c8f4-4634-9bf9-c46ba78d83a3","system_id":"levelo_inurba_marseille","lat":43.284217,"lon":5.349697,"is_reserved":false,"is_disabled":false,"rental_uris":{"android":"levelo://app?vid=b54e5b0f-c8f4-4634-9bf9-c46ba78d83a3","ios":"levelo://app?vid=b54e5b0f-c8f4-4634-9bf9-c46ba78d83a3"},"vehicle_type_id":"4","last_reported":1721229007,"current_range_meters":31600,"station_id":"ce4bhbh2rcd13ifvqepg","pricing_plan_id":"cebpf4jnsgd1na2vs0mg"},{"bike_id":"a93133ea-6c71-4e0e-ba6a-ae763123203e","system_id":"levelo_inurba_marseille","lat":43.284214,"lon":5.349706,"is_reserved":false,"is_disabled":false,"rental_uris":{"android":"levelo://app?vid=a93133ea-6c71-4e0e-ba6a-ae763123203e","ios":"levelo://app?vid=a93133ea-6c71-4e0e-ba6a-ae763123203e"},"vehicle_type_id":"4","last_reported":1721229007,"current_range_meters":20400,"station_id":"ce4bhbh2rcd13ifvqepg","pricing_plan_id":"cebpf4jnsgd1na2vs0mg"},{"bike_id":"2c3363f9-337e-4b5c-bf87-f0af426466a6","system_id":"levelo_inurba_marseille","lat":43.284217,"lon":5.349697,"is_reserved":false,"is_disabled":false,"rental_uris":{"android":"levelo://app?vid=2c3363f9-337e-4b5c-bf87-f0af426466a6","ios":"levelo://app?vid=2c3363f9-337e-4b5c-bf87-f0af426466a6"},"vehicle_type_id":"4","last_reported":1721229007,"current_range_meters":18000,"station_id":"ce4bhbh2rcd13ifvqepg","pricing_plan_id":"cebpf4jnsgd1na2vs0mg"},{"bike_id":"fdd73eb9-a6ab-4237-9e45-de492e8a86fc","system_id":"levelo_inurba_marseille","lat":43.284217,"lon":5.349697,"is_reserved":false,"is_disabled":false,"rental_uris":{"android":"levelo://app?vid=fdd73eb9-a6ab-4237-9e45-de492e8a86fc","ios":"levelo://app?vid=fdd73eb9-a6ab-4237-9e45-de492e8a86fc"},"vehicle_type_id":"4","last_reported":1721229007,"current_range_meters":18400,"station_id":"ce4bhbh2rcd13ifvqepg","pricing_plan_id":"cebpf4jnsgd1na2vs0mg"},{"bike_id":"e96a3676-2299-4155-8ff1-b1c7cf2145f4","system_id":"levelo_inurba_marseille","lat":43.28414,"lon":5.34988,"is_reserved":false,"is_disabled":false,"rental_uris":{"android":"levelo://app?vid=e96a3676-2299-4155-8ff1-b1c7cf2145f4","ios":"levelo://app?vid=e96a3676-2299-4155-8ff1-b1c7cf2145f4"},"vehicle_type_id":"4","last_reported":1721229007,"current_range_meters":16400,"station_id":"ce4bhbh2rcd13ifvqepg","pricing_plan_id":"cebpf4jnsgd1na2vs0mg"},{"bike_id":"cb4f8879-e31b-4908-bc2f-b1920cefda9e","system_id":"levelo_inurba_marseille","lat":43.284217,"lon":5.349697,"is_reserved":false,"is_disabled":false,"rental_uris":{"android":"levelo://app?vid=cb4f8879-e31b-4908-bc2f-b1920cefda9e","ios":"levelo://app?vid=cb4f8879-e31b-4908-bc2f-b1920cefda9e"},"vehicle_type_id":"4","last_reported":1721229007,"current_range_meters":31600,"station_id":"ce4bhbh2rcd13ifvqepg","pricing_plan_id":"cebpf4jnsgd1na2vs0mg"},{"bike_id":"4e26e397-a09d-46a5-92be-16a897f02916","system_id":"levelo_inurba_marseille","lat":43.28411,"lon":5.34997,"is_reserved":false,"is_disabled":false,"rental_uris":{"android":"levelo://app?vid=4e26e397-a09d-46a5-92be-16a897f02916","ios":"levelo://app?vid=4e26e397-a09d-46a5-92be-16a897f02916"},"vehicle_type_id":"4","last_reported":1721229007,"current_range_meters":10800,"station_id":"ce4bhbh2rcd13ifvqepg","pricing_plan_id":"cebpf4jnsgd1na2vs0mg"},{"bike_id":"b3b4bf0a-4994-454c-9ae4-10c2b06a3527","system_id":"levelo_inurba_marseille","lat":43.28412,"lon":5.34991,"is_reserved":false,"is_disabled":false,"rental_uris":{"android":"levelo://app?vid=b3b4bf0a-4994-454c-9ae4-10c2b06a3527","ios":"levelo://app?vid=b3b4bf0a-4994-454c-9ae4-10c2b06a3527"},"vehicle_type_id":"4","last_reported":1721229007,"current_range_meters":31200,"station_id":"ce4bhbh2rcd13ifvqepg","pricing_plan_id":"cebpf4jnsgd1na2vs0mg"},{"bike_id":"e12c81bc-6305-442b-ba88-cb12b67b39e8","system_id":"levelo_inurba_marseille","lat":43.28416,"lon":5.34978,"is_reserved":false,"is_disabled":false,"rental_uris":{"android":"levelo://app?vid=e12c81bc-6305-442b-ba88-cb12b67b39e8","ios":"levelo://app?vid=e12c81bc-6305-442b-ba88-cb12b67b39e8"},"vehicle_type_id":"4","last_reported":1721229007,"current_range_meters":11600,"station_id":"ce4bhbh2rcd13ifvqepg","pricing_plan_id":"cebpf4jnsgd1na2vs0mg"},