{"last_updated":1743275229,"ttl":60,"version":"2.2","data":{"bikes":[{"bike_id":"931ffb6b-7674-44b7-8627-6ae72964029a","system_id":"levelo_inurba_marseille","lat":43.28852,"lon":5.35846,"is_reserved":false,"is_disabled":false,"rental_uris":{"android":"levelo://app?vid=931ffb6b-7674-44b7-8627-6ae72964029a","ios":"levelo://app?vid=931ffb6b-7674-44b7-8627-6ae72964029a"},"vehicle_type_id":"4","last_reported":1743275229,"current_range_meters":2800,"station_id":"ce4bhb12rcd13ifvqem0","pricing_plan_id":"cebpf4jnsgd1na2vs0mg"},{"bike_id":"28434a41-7c04-4e16-adb1-0b818f74e7b6","system_id":"levelo_inurba_marseille","lat":43.31369,"lon":5.38501,"is_reserved":false,"is_disabled":false,"rental_uris":{"android":"levelo://app?vid=28434a41-7c04-4e16-adb1-0b818f74e7b6","ios":"levelo://app?vid=28434a41-7c04-4e16-adb1-0b818f74e7b6"},"vehicle_type_id":"4","last_reported":1743275229,"current_range_meters":2800,"station_id":"ce4bgt92rcd13ifvqcf0","pricing_plan_id":"cebpf4jnsgd1na2vs0mg"},{"bike_id":"ef4fc6d9-84a2-4805-93fa-f994b308fd64","system_id":"levelo_inurba_marseille","lat":43.29951,"lon":5.36555,"is_reserved":false,"is_disabled":false,"rental_uris":{"android":"levelo://app?vid=ef4fc6d9-84a2-4805-93fa-f994b308fd64","ios":"levelo://app?vid=ef4fc6d9-84a2-4805-93fa-f994b308fd64"},"vehicle_type_id":"4","last_reported":1743275229,"current_range_meters":2800,"station_id":"ce4bgm92rcd13ifvqbr0","pricing_plan_id":"cebpf4jnsgd1na2vs0mg"},{"bike_id":"8acf8fe1-370e-459f-9f6f-3f81ff8ebc47","system_id":"levelo_inurba_marseille","lat":43.28609,"lon":5.35108,"is_reserved":false,"is_disabled":false,"rental_uris":{"android":"levelo://app?vid=8acf8fe1-370e-459f-9f6f-3f81ff8ebc47","ios":"levelo://app?vid=8acf8fe1-370e-459f-9f6f-3f81ff8ebc47"},"vehicle_type_id":"4","last_reported":1743275229,"current_range_meters":2800,"station_id":"ce4bhch2rcd13ifvqeug","pricing_plan_id":"cebpf4jnsgd1na2vs0mg"},{"bike_id":"3e87c5b6-72fd-4db0-8652-21e052fe278c","system_id":"levelo_inurba_marseille","lat":43.26937,"lon":5.40266,"is_reserved":false,"is_disabled":false,"rental_uris":{"android":"levelo://app?vid=3e87c5b6-72fd-4db0-8652-21e052fe278c","ios":"levelo://app?vid=3e87c5b6-72fd-4db0-8652-21e052fe278c"},"vehicle_type_id":"4","last_reported":1743275229,"current_range_meters":3200,"station_id":"cjm6bp8fraef2m0cb0m0","pricing_plan_id":"cebpf4jnsgd1na2vs0mg"},{"bike_id":"49a51163-dbbe-4808-a755-fd57cbf7fbd6","system_id":"levelo_inurba_marseille","lat":43.29301,"lon":5.3746,"is_reserved":false,"is_disabled":false,"rental_uris":{"android":"levelo://app?vid=49a51163-dbbe-4808-a755-fd57cbf7fbd6","ios":"levelo://app?vid=49a51163-dbbe-4808-a755-fd57cbf7fbd6"},"vehicle_type_id":"4","last_reported":1743275229,"current_range_meters":3200,"station_id":"ce4bgi12rcd13ifvqb70","pricing_plan_id":"cebpf4jnsgd1na2vs0mg"},{"bike_id":"42d55353-06e5-4db0-9b76-e3a07893b081","system_id":"levelo_inurba_marseille","lat":43.295455,"lon":5.393958,"is_reserved":false,"is_disabled":false,"rental_uris":{"android":"levelo://app?vid=42d55353-06e5-4db0-9b76-e3a07893b081","ios":"levelo://app?vid=42d55353-06e5-4db0-9b76-e3a07893b081"},"vehicle_type_id":"4","last_reported":1743275229,"current_range_meters":3200,"station_id":"ce4bh292rcd13ifvqdf0","pricing_plan_id":"cebpf4jnsgd1na2vs0mg"},{"bike_id":"eabe884e-dff1-46f8-9312-5ab1f8f15492","system_id":"levelo_inurba_marseille","lat":43.29231,"lon":5.3607,"is_reserved":false,"is_disabled":true,"rental_uris":{"android":"levelo://app?vid=eabe884e-dff1-46f8-9312-5ab1f8f15492","ios":"levelo://app?vid=eabe884e-dff1-46f8-9312-5ab1f8f15492"},"vehicle_type_id":"4","last_reported":1743275229,"current_range_meters":3200,"station_id":"ce4bhbh2rcd13ifvqeqg","pricing_plan_id":"cebpf4jnsgd1na2vs0mg"},{"bike_id":"a92d2a51-989e-45ce-914a-1d3947c5b6f6","system_id":"levelo_inurba_marseille","lat":43.28403,"lon":5.39869,"is_reserved":false,"is_disabled":false,"rental_uris":{"android":"levelo://app?vid=a92d2a51-989e-45ce-914a-1d3947c5b6f6","ios":"levelo://app?vid=a92d2a51-989e-45ce-914a-1d3947c5b6f6"},"vehicle_type_id":"4","last_reported":1743275229,"current_range_meters":3200,"station_id":"","pricing_plan_id":"cebpf4jnsgd1na2vs0mg"},{"bike_id":"bf486d29-80ae-43fc-9394-756ed3e2b73e","system_id":"levelo_inurba_marseille","lat":43.28018,"lon":5.39954,"is_reserved":false,"is_disabled":true,"rental_uris":{"android":"levelo://app?vid=bf486d29-80ae-43fc-9394-756ed3e2b73e","ios":"levelo://app?vid=bf486d29-80ae-43fc-9394-756ed3e2b73e"},"vehicle_type_id":"4","last_reported":1743275229,"current_range_meters":3600,"station_id":"","pricing_plan_id":"cebpf4jnsgd1na2vs0mg"},{"bike_id":"4e6b4447-0597-4ba9-96c4-0748b6caf9e9","system_id":"levelo_inurba_marseille","lat":43.29567,"lon":5.39942,"is_reserved":false,"is_disabled":false,"rental_uris":{"android":"levelo://app?vid=4e6b4447-0597-4ba9-96c4-0748b6caf9e9","ios":"levelo://app?vid=4e6b4447-0597-4ba9-96c4-0748b6caf9e9"},"vehicle_type_id":"4","last_reported":1743275229,"current_range_meters":3600,"station_id":"ce4bh3p2rcd13ifvqdp0","pricing_plan_id":"cebpf4jnsgd1na2vs0mg"},{"bike_id":"65316dcf-fc8f-4fd0-b041-8ebd8f1b5bcc","system_id":"levelo_inurba_marseille","lat":43.31172,"lon":5.38712,"is_reserved":false,"is_disabled":false,"rental_uris":{"android":"levelo://app?vid=65316dcf-fc8f-4fd0-b041-8ebd8f1b5bcc","ios":"levelo://app?vid=65316dcf-fc8f-4fd0-b041-8ebd8f1b5bcc"},"vehicle_type_id":"4","last_reported":1743275229,"current_range_meters":3200,"station_id":"ce4bgv12rcd13ifvqcp0","pricing_plan_id":"cebpf4jnsgd1na2vs0mg"},{"bike_id":"2864b3a0-86c2-4365-9c4a-2b8afd66be56","system_id":"levelo_inurba_marseille","lat":43.30955,"lon":5.39041,"is_reserved":false,"is_disabled":false,"rental_uris":{"android":"levelo://app?vid=2864b3a0-86c2-4365-9c4a-2b8afd66be56","ios":"levelo://app?vid=2864b3a0-86c2-4365-9c4a-2b8afd66be56"},"vehicle_type_id":"4","last_reported":1743275229,"current_range_meters":3600,"station_id":"ce4bgup2rcd13ifvqco0","pricing_plan_id":"cebpf4jnsgd1na2vs0mg"},{"bike_id":"21de5a6e-c99a-45ae-aeef-eb801debcb02","system_id":"levelo_inurba_marseille","lat":43.31313,"lon":5.38311,"is_reserved":false,"is_disabled":false,"rental_uris":{"android":"levelo://app?vid=21de5a6e-c99a-45ae-aeef-eb801debcb02","ios":"levelo://app?vid=21de5a6e-c99a-45ae-aeef-eb801debcb02"},"vehicle_type_id":"4","last_reported":1743275229,"current_range_meters":3600,"station_id":"","pricing_plan_id":"cebpf4jnsgd1na2vs0mg"},{"bike_id":"c886a0b7-d094-4b8c-bebf-f183fc824e38","system_id":"levelo_inurba_marseille","lat":43.27807,"lon":5.39211,"is_reserved":false,"is_disabled":false,"rental_uris":{"android":"levelo://app?vid=c886a0b7-d094-4b8c-bebf-f183fc824e38","ios":"levelo://app?vid=c886a0b7-d094-4b8c-bebf-f183fc824e38"},"vehicle_type_id":"4","last_reported":1743275229,"current_range_meters":3600,"station_id":"ce4bhjp2rcd13ifvqga0","pricing_plan_id":"cebpf4jnsgd1na2vs0mg"},{"bike_id":"91dc9ae2-ef8d-4ab1-84b7-a5d89f736e21","system_id":"levelo_inurba_marseille","lat":43.25578,"lon":5.38236,"is_reserved":false,"is_disabled":true,"rental_uris":{"android":"levelo://app?vid=91dc9ae2-ef8d-4ab1-84b7-a5d89f736e21","ios":"levelo://app?vid=91dc9ae2-ef8d-4ab1-84b7-a5d89f736e21"},"vehicle_type_id":"4","last_reported":1743275229,"current_range_meters":3600,"station_id":"ce4bhih2rcd13ifvqfs0","pricing_plan_id":"cebpf4jnsgd1na2vs0mg"},{"bike_id":"29e168d2-f3c4-4d7a-a60e-d8d8eb2559f7","system_id":"levelo_inurba_marseille","lat":43.24389,"lon":5.37066,"is_reserved":false,"is_disabled":false,"rental_uris":{"android":"levelo://app?vid=29e168d2-f3c4-4d7a-a60e-d8d8eb2559f7","ios":"levelo://app?vid=29e168d2-f3c4-4d7a-a60e-d8d8eb2559f7"},"vehicle_type_id":"4","last_reported":1743275229,"current_range_meters":3600,"station_id":"ce4bhhh2rcd13ifvqfk0","pricing_plan_id":"cebpf4jnsgd1na2vs0mg"},{"bike_id":"23de914b-e4a8-43d1-9e87-a87dad11c136","system_id":"levelo_inurba_marseille","lat":43.25128,"lon":5.40321,"is_reserved":false,"is_disabled":false,"rental_uris":{"android":"levelo://app?vid=23de914b-e4a8-43d1-9e87-a87dad11c136","ios":"levelo://app?vid=23de914b-e4a8-43d1-9e87-a87dad11c136"},"vehicle_type_id":"4","last_reported":1743275229,"current_range_meters":3600,"station_id":"ce4bhlh2rcd13ifvqgig","pricing_plan_id":"cebpf4jnsgd1na2vs0mg"},{"bike_id":"45a87a2d-7b75-4dad-99c3-cc1d29de535f","system_id":"levelo_inurba_marseille","lat":43.3107,"lon":5.3837,"is_reserved":false,"is_disabled":false,"rental_uris":{"android":"levelo://app?vid=45a87a2d-7b75-4dad-99c3-cc1d29de535f","ios":"levelo://app?vid=45a87a2d-7b75-4dad-99c3-cc1d29de535f"},"vehicle_type_id":"4","last_reported":1743275229,"current_range_meters":3600,"station_id":"ce4bgv92rcd13ifvqcr0","pricing_plan_id":"cebpf4jnsgd1na2vs0mg"},{"bike_id":"199c5136-cbfd-4cc9-a112-d06c8ab37b56","system_id":"levelo_inurba_marseille","lat":43.29541,"lon":5.39037,"is_reserved":false,"is_disabled":false,"rental_uris":{"android":"levelo://app?vid=199c5136-cbfd-4cc9-a112-d06c8ab37b56","ios":"levelo://app?vid=199c5136-cbfd-4cc9-a112-d06c8ab37b56"},"vehicle_type_id":"4","last_reported":1743275229,"current_range_meters":3600,"station_id":"ce4bh3p2rcd13ifvqdp0","pricing_plan_id":"cebpf4jnsgd1na2vs0mg"},{"bike_id":"c35f7468-1371-4b51-bf37-de9b928bcd7e","system_id":"levelo_inurba_marseille","lat":43.279,"lon":5.41256,"is_reserved":false,"is_disabled":false,"rental_uris":{"android":"levelo://app?vid=c35f7468-1371-4b51-bf37-de9b928bcd7e","ios":"levelo://app?vid=c35f7468-1371-4b51-bf37-de9b928bcd7e"},"vehicle_type_id":"4","last_reported":1743275229,"current_range_meters":3600,"station_id":"","pricing_plan_id":"cebpf4jnsgd1na2vs0mg"},{"bike_id":"c66f7f1f-3cdd-4eb2-8a1c-688f133f6ad8","system_id":"levelo_inurba_marseille","lat":43.29622,"lon":5.37741,"is_reserved":false,"is_disabled":false,"rental_uris":{"android":"levelo://app?vid=c66f7f1f-3cdd-4eb2-8a1c-688f133f6ad8","ios":"levelo://app?vid=c66f7f1f-3cdd-4eb2-8a1c-688f133f6ad8"},"vehicle_type_id":"4","last_reported":1743275229,"current_range_meters":4000,"station_id":"ce4bgi92rcd13ifvqb90","pricing_plan_id":"cebpf4jnsgd1na2vs0mg"},{"bike_id":"dd9a3e27-27fd-41a8-a664-60517d478c46","system_id":"levelo_inurba_marseille","lat":43.29523,"lon":5.39404,"is_reserved":false,"is_disabled":false,"rental_uris":{"android":"levelo://app?vid=dd9a3e27-27fd-41a8-a664-60517d478c46","ios":"levelo://app?vid=dd9a3e27-27fd-41a8-a664-60517d478c46"},"vehicle_type_id":"4","last_reported":1743275229,"current_range_meters":4000,"station_id":"ce4bh292rcd13ifvqdf0","pricing_plan_id":"cebpf4jnsgd1na2vs0mg"},{"bike_id":"ced080d1-7674-4e7a-8d8e-7d23e3d54ff5","system_id":"levelo_inurba_marseille","lat":43.2958,"lon":5.36746,"is_reserved":false,"is_disabled":false,"rental_uris":{"android":"levelo://app?vid=ced080d1-7674-4e7a-8d8e-7d23e3d54ff5","ios":"levelo://app?vid=ced080d1-7674-4e7a-8d8e-7d23e3d54ff5"},"vehicle_type_id":"4","last_reported":1743275229,"current_range_meters":4000,"station_id":"ce4bgph2rcd13ifvqc2g","pricing_plan_id":"cebpf4jnsgd1na2vs0mg"},{"bike_id":"592d1768-8dbd-47b6-bd89-41893ffed5d8","system_id":"levelo_inurba_marseille","lat":43.29423,"lon":5.38618,"is_reserved":false,"is_disabled":true,"rental_uris":{"android":"levelo://app?vid=592d1768-8dbd-47b6-bd89-41893ffed5d8","ios":"levelo://app?vid=592d1768-8dbd-47b6-bd89-41893ffed5d8"},"vehicle_type_id":"4","last_reported":1743275229,"current_range_meters":4000,"station_id":"ce4bh2h2rcd13ifvqdh0","pricing_plan_id":"cebpf4jnsgd1na2vs0mg"},{"bike_id":"f7fd3645-fa18-4445-a439-04102027f3cd","system_id":"levelo_inurba_marseille","lat":43.29022,"lon":5.38133,"is_reserved":false,"is_disabled":false,"rental_uris":{"android":"levelo://app?vid=f7fd3645-fa18-4445-a439-04102027f3cd","ios":"levelo://app?vid=f7fd3645-fa18-4445-a439-04102027f3cd"},"vehicle_type_id":"4","last_reported":1743275229,"current_range_meters":4000,"station_id":"ce4bh4p2rcd13ifvqe1g","pricing_plan_id":"cebpf4jnsgd1na2vs0mg"},{"bike_id":"a65f037b-41f7-4a9a-b6c3-25493286e15f","system_id":"levelo_inurba_marseille","lat":43.30787,"lon":5.37641,"is_reserved":false,"is_disabled":false,"rental_uris":{"android":"levelo://app?vid=a65f037b-41f7-4a9a-b6c3-25493286e15f","ios":"levelo://app?vid=a65f037b-41f7-4a9a-b6c3-25493286e15f"},"vehicle_type_id":"4","last_reported":1743275229,"current_range_meters":3600,"station_id":"ce4bgv92rcd13ifvqcq0","pricing_plan_id":"cebpf4jnsgd1na2vs0mg"},{"bike_id":"dc80020f-83be-46ca-8627-3838e0468ee9","system_id":"levelo_inurba_marseille","lat":43.29422,"lon":5.38609,"is_reserved":false,"is_disabled":false,"rental_uris":{"android":"levelo://app?vid=dc80020f-83be-46ca-8627-3838e0468ee9","ios":"levelo://app?vid=dc80020f-83be-46ca-8627-3838e0468ee9"},"vehicle_type_id":"4","last_reported":1743275229,"current_range_meters":1600,"station_id":"ce4bh2h2rcd13ifvqdh0","pricing_plan_id":"cebpf4jnsgd1na2vs0mg"},{"bike_id":"4b43b828-4d4b-4554-80cc-193e099cf825","system_id":"levelo_inurba_marseille","lat":43.31475,"lon":5.37299,"is_reserved":false,"is_disabled":false,"rental_uris":{"android":"levelo://app?vid=4b43b828-4d4b-4554-80cc-193e099cf825","ios":"levelo://app?vid=4b43b828-4d4b-4554-80cc-193e099cf825"},"vehicle_type_id":"4","last_reported":1743275229,"current_range_meters":4400,"station_id":"ce4bgt12rcd13ifvqcd0","pricing_plan_id":"cebpf4jnsgd1na2vs0mg"},{"bike_id":"e7b896db-9c5e-420f-8349-b2c8eae053da","system_id":"levelo_inurba_marseille","lat":43.28873,"lon":5.3585,"is_reserved":false,"is_disabled":false,"rental_uris":{"android":"levelo://app?vid=e7b896db-9c5e-420f-8349-b2c8eae053da","ios":"levelo://app?vid=e7b896db-9c5e-420f-8349-b2c8eae053da"},"vehicle_type_id":"4","last_reported":1743275229,"current_range_meters":4400,"station_id":"ce4bhb12rcd13ifvqem0","pricing_plan_id":"cebpf4jnsgd1na2vs0mg"},{"bike_id":"3dc796f5-638d-4908-ab96-13ac400d8049","system_id":"levelo_inurba_marseille","lat":43.23223,"lon":5.40002,"is_reserved":false,"is_disabled":true,"rental_uris":{"android":"levelo://app?vid=3dc796f5-638d-4908-ab96-13ac400d8049","ios":"levelo://app?vid=3dc796f5-638d-4908-ab96-13ac400d8049"},"vehicle_type_id":"4","last_reported":1743275229,"current_range_meters":4400,"station_id":"ce4bhn12rcd13ifvqgqg","pricing_plan_id":"cebpf4jnsgd1na2vs0mg"},{"bike_id":"e306d228-b23c-4230-a0bd-1503f55b701d","system_id":"levelo_inurba_marseille","lat":43.28674,"lon":5.38666,"is_reserved":false,"is_disabled":false,"rental_uris":{"android":"levelo://app?vid=e306d228-b23c-4230-a0bd-1503f55b701d","ios":"levelo://app?vid=e306d228-b23c-4230-a0bd-1503f55b701d"},"vehicle_type_id":"4","last_reported":1743275229,"current_range_meters":10000,"station_id":"ce4bh492rcd13ifvqdug","pricing_plan_id":"cebpf4jnsgd1na2vs0mg"},{"bike_id":"04ca2dc4-7205-4c61-9c74-87a5c123549d","system_id":"levelo_inurba_marseille","lat":43.30928,"lon":5.4015,"is_reserved":false,"is_disabled":false,"rental_uris":{"android":"levelo://app?vid=04ca2dc4-7205-4c61-9c74-87a5c123549d","ios":"levelo://app?vid=04ca2dc4-7205-4c61-9c74-87a5c123549d"},"vehicle_type_id":"4","last_reported":1743275229,"current_range_meters":4400,"station_id":"ce4bgvp2rcd13ifvqct0","pricing_plan_id":"cebpf4jnsgd1na2vs0mg"},{"bike_id":"75a2b3e7-1b46-40af-aa39-761a03f28c75","system_id":"levelo_inurba_marseille","lat":43.30949,"lon":5.3903,"is_reserved":false,"is_disabled":false,"rental_uris":{"android":"levelo://app?vid=75a2b3e7-1b46-40af-aa39-761a03f28c75","ios":"levelo://app?vid=75a2b3e7-1b46-40af-aa39-761a03f28c75"},"vehicle_type_id":"4","last_reported":1743275229,"current_range_meters":4400,"station_id":"ce4bgup2rcd13ifvqco0","pricing_plan_id":"cebpf4jnsgd1na2vs0mg"},{"bike_id":"1f4204f0-e561-4a51-a613-5beef5db0739","system_id":"levelo_inurba_marseille","lat":43.31347,"lon":5.39702,"is_reserved":false,"is_disabled":false,"rental_uris":{"android":"levelo://app?vid=1f4204f0-e561-4a51-a613-5beef5db0739","ios":"levelo://app?vid=1f4204f0-e561-4a51-a613-5beef5db0739"},"vehicle_type_id":"4","last_reported":1743275229,"current_range_meters":4800,"station_id":"ce4bgvp2rcd13ifvqcu0","pricing_plan_id":"cebpf4jnsgd1na2vs0mg"},{"bike_id":"4a42ca1e-41e4-4233-a4bb-a180f04564d6","system_id":"levelo_inurba_marseille","lat":43.29197,"lon":5.37179,"is_reserved":false,"is_disabled":false,"rental_uris":{"android":"levelo://app?vid=4a42ca1e-41e4-4233-a4bb-a180f04564d6","ios":"levelo://app?vid=4a42ca1e-41e4-4233-a4bb-a180f04564d6"},"vehicle_type_id":"4","last_reported":1743275229,"current_range_meters":4800,"station_id":"ce4bha92rcd13ifvqeh0","pricing_plan_id":"cebpf4jnsgd1na2vs0mg"},{"bike_id":"7be6dcd3-6b59-448b-b0e4-dc7574975526","system_id":"levelo_inurba_marseille","lat":43.30952,"lon":5.3904,"is_reserved":false,"is_disabled":false,"rental_uris":{"android":"levelo://app?vid=7be6dcd3-6b59-448b-b0e4-dc7574975526","ios":"levelo://app?vid=7be6dcd3-6b59-448b-b0e4-dc7574975526"},"vehicle_type_id":"4","last_reported":1743275229,"current_range_meters":4800,"station_id":"ce4bgup2rcd13ifvqco0","pricing_plan_id":"cebpf4jnsgd1na2vs0mg"},{"bike_id":"c82bf580-4ff0-4e08-8c02-2cfdbcdaf680","system_id":"levelo_inurba_marseille","lat":43.24806,"lon":5.3746,"is_reserved":false,"is_disabled":false,"rental_uris":{"android":"levelo://app?vid=c82bf580-4ff0-4e08-8c02-2cfdbcdaf680","ios":"levelo://app?vid=c82bf580-4ff0-4e08-8c02-2cfdbcdaf680"},"vehicle_type_id":"4","last_reported":1743275229,"current_range_meters":4800,"station_id":"ce4bhgh2rcd13ifvqfb0","pricing_plan_id":"cebpf4jnsgd1na2vs0mg"},{"bike_id":"181b0de8-79c0-464e-a911-494ae91326a8","system_id":"levelo_inurba_marseille","lat":43.29891,"lon":5.38895,"is_reserved":false,"is_disabled":false,"rental_uris":{"android":"levelo://app?vid=181b0de8-79c0-464e-a911-494ae91326a8","ios":"levelo://app?vid=181b0de8-79c0-464e-a911-494ae91326a8"},"vehicle_type_id":"4","last_reported":1743275229,"current_range_meters":4800,"station_id":"ce4bh392rcd13ifvqdl0","pricing_plan_id":"cebpf4jnsgd1na2vs0mg"},{"bike_id":"599ab4ec-12da-469c-8457-9a6320b82ec6","system_id":"levelo_inurba_marseille","lat":43.29173,"lon":5.37147,"is_reserved":false,"is_disabled":false,"rental_uris":{"android":"levelo://app?vid=599ab4ec-12da-469c-8457-9a6320b82ec6","ios":"levelo://app?vid=599ab4ec-12da-469c-8457-9a6320b82ec6"},"vehicle_type_id":"4","last_reported":1743275229,"current_range_meters":4800,"station_id":"ce4bha92rcd13ifvqeh0","pricing_plan_id":"cebpf4jnsgd1na2vs0mg"},{"bike_id":"d87a8764-7d47-4825-a443-276814ecef87","system_id":"levelo_inurba_marseille","lat":43.28926,"lon":5.38402,"is_reserved":false,"is_disabled":true,"rental_uris":{"android":"levelo://app?vid=d87a8764-7d47-4825-a443-276814ecef87","ios":"levelo://app?vid=d87a8764-7d47-4825-a443-276814ecef87"},"vehicle_type_id":"4","last_reported":1743275229,"current_range_meters":5600,"station_id":"ce4bh612rcd13ifvqe6g","pricing_plan_id":"cebpf4jnsgd1na2vs0mg"},{"bike_id":"390a508b-fe88-4687-8f58-5ebfe6c93fca","system_id":"levelo_inurba_marseille","lat":43.27804,"lon":5.40723,"is_reserved":false,"is_disabled":false,"rental_uris":{"android":"levelo://app?vid=390a508b-fe88-4687-8f58-5ebfe6c93fca","ios":"levelo://app?vid=390a508b-fe88-4687-8f58-5ebfe6c93fca"},"vehicle_type_id":"4","last_reported":1743275229,"current_range_meters":5600,"station_id":"ce4bhnh2rcd13ifvqgtg","pricing_plan_id":"cebpf4jnsgd1na2vs0mg"},{"bike_id":"bfd81d1c-5b43-450e-824a-aa07f4666cfc","system_id":"levelo_inurba_marseille","lat":43.24807,"lon":5.37462,"is_reserved":false,"is_disabled":false,"rental_uris":{"android":"levelo://app?vid=bfd81d1c-5b43-450e-824a-aa07f4666cfc","ios":"levelo://app?vid=bfd81d1c-5b43-450e-824a-aa07f4666cfc"},"vehicle_type_id":"4","last_reported":1743275229,"current_range_meters":5600,"station_id":"ce4bhgh2rcd13ifvqfb0","pricing_plan_id":"cebpf4jnsgd1na2vs0mg"},{"bike_id":"d7c9e49f-9da5-4b2e-bae8-8dbfb05890a7","system_id":"levelo_inurba_marseille","lat":43.33383,"lon":5.40146,"is_reserved":false,"is_disabled":false,"rental_uris":{"android":"levelo://app?vid=d7c9e49f-9da5-4b2e-bae8-8dbfb05890a7","ios":"levelo://app?vid=d7c9e49f-9da5-4b2e-bae8-8dbfb05890a7"},"vehicle_type_id":"4","last_reported":1743275229,"current_range_meters":5600,"station_id":"","pricing_plan_id":"cebpf4jnsgd1na2vs0mg"},{"bike_id":"c665550f-8aad-4598-ba63-43c7c0e6be29","system_id":"levelo_inurba_marseille","lat":43.3038,"lon":5.42454,"is_reserved":false,"is_disabled":false,"rental_uris":{"android":"levelo://app?vid=c665550f-8aad-4598-ba63-43c7c0e6be29","ios":"levelo://app?vid=c665550f-8aad-4598-ba63-43c7c0e6be29"},"vehicle_type_id":"4","last_reported":1743275229,"current_range_meters":5600,"station_id":"ce4bhoh2rcd13ifvqh6g","pricing_plan_id":"cebpf4jnsgd1na2vs0mg"},{"bike_id":"75b9506d-6612-40ae-8c21-c07e55bbf309","system_id":"levelo_inurba_marseille","lat":43.28414,"lon":5.37515,"is_reserved":false,"is_disabled":false,"rental_uris":{"android":"levelo://app?vid=75b9506d-6612-40ae-8c21-c07e55bbf309","ios":"levelo://app?vid=75b9506d-6612-40ae-8c21-c07e55bbf309"},"vehicle_type_id":"4","last_reported":1743275229,"current_range_meters":5600,"station_id":"ce4bh412rcd13ifvqds0","pricing_plan_id":"cebpf4jnsgd1na2vs0mg"},{"bike_id":"75cc05d3-74c4-4e8d-a3c6-dd269f319c25","system_id":"levelo_inurba_marseille","lat":43.279602,"lon":5.410518,"is_reserved":false,"is_disabled":false,"rental_uris":{"android":"levelo://app?vid=75cc05d3-74c4-4e8d-a3c6-dd269f319c25","ios":"levelo://app?vid=75cc05d3-74c4-4e8d-a3c6-dd269f319c25"},"vehicle_type_id":"4","last_reported":1743275229,"current_range_meters":5600,"station_id":"","pricing_plan_id":"cebpf4jnsgd1na2vs0mg"},{"bike_id":"5360093f-5102-4f6a-88a8-58cc9d940a17","system_id":"levelo_inurba_marseille","lat":43.30127,"lon":5.38791,"is_reserved":false,"is_disabled":false,"rental_uris":{"android":"levelo://app?vid=5360093f-5102-4f6a-88a8-58cc9d940a17","ios":"levelo://app?vid=5360093f-5102-4f6a-88a8-58cc9d940a17"},"vehicle_type_id":"4","last_reported":1743275229,"current_range_meters":5600,"station_id":"ce4bghh2rcd13ifvqb60","pricing_plan_id":"cebpf4jnsgd1na2vs0mg"},{"bike_id":"5035eaaf-4c4b-4740-b3e0-521452716a6f","system_id":"levelo_inurba_marseille","lat":43.2621,"lon":5.37452,"is_reserved":false,"is_disabled":false,"rental_uris":{"android":"levelo://app?vid=5035eaaf-4c4b-4740-b3e0-521452716a6f","ios":"levelo://app?vid=5035eaaf-4c4b-4740-b3e0-521452716a6f"},"vehicle_type_id":"4","last_reported":1743275229,"current_range_meters":5600,"station_id":"ce4bhgp2rcd13ifvqfc0","pricing_plan_id":"cebpf4jnsgd1na2vs0mg"},{"bike_id":"861ae205-c318-4688-ac53-947993e1b65f","system_id":"levelo_inurba_marseille","lat":43.2416,"lon":5.36447,"is_reserved":false,"is_disabled":false,"rental_uris":{"android":"levelo://app?vid=861ae205-c318-4688-ac53-947993e1b65f","ios":"levelo://app?vid=861ae205-c318-4688-ac53-947993e1b65f"},"vehicle_type_id":"4","last_reported":1743275229,"current_range_meters":5600,"station_id":"cpo36qri1sfpv3e86is0","pricing_plan_id":"cebpf4jnsgd1na2vs0mg"},{"bike_id":"971c92cb-66df-438d-9a85-e63af939e6ff","system_id":"levelo_inurba_marseille","lat":43.28655,"lon":5.35117,"is_reserved":false,"is_disabled":true,"rental_uris":{"android":"levelo://app?vid=971c92cb-66df-438d-9a85-e63af939e6ff","ios":"levelo://app?vid=971c92cb-66df-438d-9a85-e63af939e6ff"},"vehicle_type_id":"4","last_reported":1743275229,"current_range_meters":5600,"station_id":"ce4bhch2rcd13ifvqeug","pricing_plan_id":"cebpf4jnsgd1na2vs0mg"},{"bike_id":"8764e9cc-6a27-4832-baae-2810aa897615","system_id":"levelo_inurba_marseille","lat":43.30409,"lon":5.41293,"is_reserved":false,"is_disabled":false,"rental_uris":{"android":"levelo://app?vid=8764e9cc-6a27-4832-baae-2810aa897615","ios":"levelo://app?vid=8764e9cc-6a27-4832-baae-2810aa897615"},"vehicle_type_id":"4","last_reported":1743275229,"current_range_meters":5600,"station_id":"ce4bhop2rcd13ifvqh8g","pricing_plan_id":"cebpf4jnsgd1na2vs0mg"},{"bike_id":"532f2df9-bf90-4e2f-8bf5-df41a5d1c991","system_id":"levelo_inurba_marseille","lat":43.29799,"lon":5.38082,"is_reserved":false,"is_disabled":false,"rental_uris":{"android":"levelo://app?vid=532f2df9-bf90-4e2f-8bf5-df41a5d1c991","ios":"levelo://app?vid=532f2df9-bf90-4e2f-8bf5-df41a5d1c991"},"vehicle_type_id":"4","last_reported":1743275229,"current_range_meters":5600,"station_id":"ce4bgip2rcd13ifvqbb0","pricing_plan_id":"cebpf4jnsgd1na2vs0mg"},{"bike_id":"5f2d56d3-ef93-418a-b7f0-f1fc29bed308","system_id":"levelo_inurba_marseille","lat":43.28032,"lon":5.36951,"is_reserved":false,"is_disabled":false,"rental_uris":{"android":"levelo://app?vid=5f2d56d3-ef93-418a-b7f0-f1fc29bed308","ios":"levelo://app?vid=5f2d56d3-ef93-418a-b7f0-f1fc29bed308"},"vehicle_type_id":"4","last_reported":1743275229,"current_range_meters":5600,"station_id":"ce4bha12rcd13ifvqef0","pricing_plan_id":"cebpf4jnsgd1na2vs0mg"},{"bike_id":"5ce6fc99-7ff0-4f28-8d2d-5137fa76855e","system_id":"levelo_inurba_marseille","lat":43.2931,"lon":5.37174,"is_reserved":false,"is_disabled":false,"rental_uris":{"android":"levelo://app?vid=5ce6fc99-7ff0-4f28-8d2d-5137fa76855e","ios":"levelo://app?vid=5ce6fc99-7ff0-4f28-8d2d-5137fa76855e"},"vehicle_type_id":"4","last_reported":1743275229,"current_range_meters":5600,"station_id":"ce4bgh92rcd13ifvqb40","pricing_plan_id":"cebpf4jnsgd1na2vs0mg"},{"bike_id":"84ca5ebe-c20d-47ca-baa0-bf022329bbd5","system_id":"levelo_inurba_marseille","lat":43.2989,"lon":5.38145,"is_reserved":false,"is_disabled":false,"rental_uris":{"android":"levelo://app?vid=84ca5ebe-c20d-47ca-baa0-bf022329bbd5","ios":"levelo://app?vid=84ca5ebe-c20d-47ca-baa0-bf022329bbd5"},"vehicle_type_id":"4","last_reported":1743275229,"current_range_meters":6000,"station_id":"ce4bgj12rcd13ifvqbc0","pricing_plan_id":"cebpf4jnsgd1na2vs0mg"},{"bike_id":"fad9551c-e027-4517-b92b-aae6db00f065","system_id":"levelo_inurba_marseille","lat":43.337363,"lon":5.391878,"is_reserved":false,"is_disabled":false,"rental_uris":{"android":"levelo://app?vid=fad9551c-e027-4517-b92b-aae6db00f065","ios":"levelo://app?vid=fad9551c-e027-4517-b92b-aae6db00f065"},"vehicle_type_id":"4","last_reported":1743275229,"current_range_meters":6000,"station_id":"ce4bhr92rcd13ifvqhsg","pricing_plan_id":"cebpf4jnsgd1na2vs0mg"},{"bike_id":"09938869-da87-44f5-b214-329cc751ae73","system_id":"levelo_inurba_marseille","lat":43.31576,"lon":5.37274,"is_reserved":false,"is_disabled":false,"rental_uris":{"android":"levelo://app?vid=09938869-da87-44f5-b214-329cc751ae73","ios":"levelo://app?vid=09938869-da87-44f5-b214-329cc751ae73"},"vehicle_type_id":"4","last_reported":1743275229,"current_range_meters":6000,"station_id":"","pricing_plan_id":"cebpf4jnsgd1na2vs0mg"},{"bike_id":"c5597bd0-b174-476f-89b2-2ffccacec81e","system_id":"levelo_inurba_marseille","lat":43.29524,"lon":5.39049,"is_reserved":false,"is_disabled":false,"rental_uris":{"android":"levelo://app?vid=c5597bd0-b174-476f-89b2-2ffccacec81e","ios":"levelo://app?vid=c5597bd0-b174-476f-89b2-2ffccacec81e"},"vehicle_type_id":"4","last_reported":1743275229,"current_range_meters":6000,"station_id":"ce4bh3p2rcd13ifvqdp0","pricing_plan_id":"cebpf4jnsgd1na2vs0mg"},{"bike_id":"90df0f14-f996-423e-b605-53c2c708242e","system_id":"levelo_inurba_marseille","lat":43.31686,"lon":5.40522,"is_reserved":false,"is_disabled":false,"rental_uris":{"android":"levelo://app?vid=90df0f14-f996-423e-b605-53c2c708242e","ios":"levelo://app?vid=90df0f14-f996-423e-b605-53c2c708242e"},"vehicle_type_id":"4","last_reported":1743275229,"current_range_meters":6000,"station_id":"ce4bh012rcd13ifvqd00","pricing_plan_id":"cebpf4jnsgd1na2vs0mg"},{"bike_id":"87720f89-b96b-4a09-afe1-f8e2aec742dd","system_id":"levelo_inurba_marseille","lat":43.29019,"lon":5.38142,"is_reserved":false,"is_disabled":false,"rental_uris":{"android":"levelo://app?vid=87720f89-b96b-4a09-afe1-f8e2aec742dd","ios":"levelo://app?vid=87720f89-b96b-4a09-afe1-f8e2aec742dd"},"vehicle_type_id":"4","last_reported":1743275229,"current_range_meters":6000,"station_id":"ce4bh4p2rcd13ifvqe1g","pricing_plan_id":"cebpf4jnsgd1na2vs0mg"},{"bike_id":"7240b505-2c7e-49a4-92f7-05be90633981","system_id":"levelo_inurba_marseille","lat":43.29368,"lon":5.37845,"is_reserved":false,"is_disabled":false,"rental_uris":{"android":"levelo://app?vid=7240b505-2c7e-49a4-92f7-05be90633981","ios":"levelo://app?vid=7240b505-2c7e-49a4-92f7-05be90633981"},"vehicle_type_id":"4","last_reported":1743275229,"current_range_meters":6400,"station_id":"ce4bgjh2rcd13ifvqbf0","pricing_plan_id":"cebpf4jnsgd1na2vs0mg"},{"bike_id":"b01eadf9-6c12-4938-82bd-1012a3ee7698","system_id":"levelo_inurba_marseille","lat":43.3207,"lon":5.41558,"is_reserved":false,"is_disabled":false,"rental_uris":{"android":"levelo://app?vid=b01eadf9-6c12-4938-82bd-1012a3ee7698","ios":"levelo://app?vid=b01eadf9-6c12-4938-82bd-1012a3ee7698"},"vehicle_type_id":"4","last_reported":1743275229,"current_range_meters":6400,"station_id":"ce4bhq92rcd13ifvqhkg","pricing_plan_id":"cebpf4jnsgd1na2vs0mg"},{"bike_id":"1f561142-f436-49fc-ac32-98854e71a33c","system_id":"levelo_inurba_marseille","lat":43.29522,"lon":5.39401,"is_reserved":false,"is_disabled":false,"rental_uris":{"android":"levelo://app?vid=1f561142-f436-49fc-ac32-98854e71a33c","ios":"levelo://app?vid=1f561142-f436-49fc-ac32-98854e71a33c"},"vehicle_type_id":"4","last_reported":1743275229,"current_range_meters":6400,"station_id":"ce4bh292rcd13ifvqdf0","pricing_plan_id":"cebpf4jnsgd1na2vs0mg"},{"bike_id":"6c043a55-294d-47e5-8e67-5115abbc7f86","system_id":"levelo_inurba_marseille","lat":43.30944,"lon":5.39049,"is_reserved":false,"is_disabled":false,"rental_uris":{"android":"levelo://app?vid=6c043a55-294d-47e5-8e67-5115abbc7f86","ios":"levelo://app?vid=6c043a55-294d-47e5-8e67-5115abbc7f86"},"vehicle_type_id":"4","last_reported":1743275229,"current_range_meters":6400,"station_id":"ce4bgup2rcd13ifvqco0","pricing_plan_id":"cebpf4jnsgd1na2vs0mg"},{"bike_id":"002e376d-65b1-4ec9-bfee-78aff2d8798d","system_id":"levelo_inurba_marseille","lat":43.29303,"lon":5.37176,"is_reserved":false,"is_disabled":false,"rental_uris":{"android":"levelo://app?vid=002e376d-65b1-4ec9-bfee-78aff2d8798d","ios":"levelo://app?vid=002e376d-65b1-4ec9-bfee-78aff2d8798d"},"vehicle_type_id":"4","last_reported":1743275229,"current_range_meters":6800,"station_id":"ce4bgh92rcd13ifvqb40","pricing_plan_id":"cebpf4jnsgd1na2vs0mg"},{"bike_id":"e013f754-1866-410f-a68a-9e969786f086","system_id":"levelo_inurba_marseille","lat":43.29584,"lon":5.375019,"is_reserved":false,"is_disabled":false,"rental_uris":{"android":"levelo://app?vid=e013f754-1866-410f-a68a-9e969786f086","ios":"levelo://app?vid=e013f754-1866-410f-a68a-9e969786f086"},"vehicle_type_id":"4","last_reported":1743275229,"current_range_meters":6800,"station_id":"ce4bgh92rcd13ifvqb50","pricing_plan_id":"cebpf4jnsgd1na2vs0mg"},{"bike_id":"f6ed00d6-9f17-489c-88b3-dfb0b562b89f","system_id":"levelo_inurba_marseille","lat":43.28033,"lon":5.36956,"is_reserved":false,"is_disabled":false,"rental_uris":{"android":"levelo://app?vid=f6ed00d6-9f17-489c-88b3-dfb0b562b89f","ios":"levelo://app?vid=f6ed00d6-9f17-489c-88b3-dfb0b562b89f"},"vehicle_type_id":"4","last_reported":1743275229,"current_range_meters":6800,"station_id":"ce4bha12rcd13ifvqef0","pricing_plan_id":"cebpf4jnsgd1na2vs0mg"},{"bike_id":"1b9de6af-33bf-4b86-baa8-713ea81235de","system_id":"levelo_inurba_marseille","lat":43.30443,"lon":5.39759,"is_reserved":false,"is_disabled":false,"rental_uris":{"android":"levelo://app?vid=1b9de6af-33bf-4b86-baa8-713ea81235de","ios":"levelo://app?vid=1b9de6af-33bf-4b86-baa8-713ea81235de"},"vehicle_type_id":"4","last_reported":1743275229,"current_range_meters":6800,"station_id":"ce4bh092rcd13ifvqd20","pricing_plan_id":"cebpf4jnsgd1na2vs0mg"},{"bike_id":"fb36f584-0737-496e-9bef-763c5d6ad00f","system_id":"levelo_inurba_marseille","lat":43.30807,"lon":5.38162,"is_reserved":false,"is_disabled":false,"rental_uris":{"android":"levelo://app?vid=fb36f584-0737-496e-9bef-763c5d6ad00f","ios":"levelo://app?vid=fb36f584-0737-496e-9bef-763c5d6ad00f"},"vehicle_type_id":"4","last_reported":1743275229,"current_range_meters":6800,"station_id":"ce4bh0h2rcd13ifvqd50","pricing_plan_id":"cebpf4jnsgd1na2vs0mg"},{"bike_id":"929cf576-be90-4201-8f34-7ae87659e741","system_id":"levelo_inurba_marseille","lat":43.295265,"lon":5.393993,"is_reserved":false,"is_disabled":false,"rental_uris":{"android":"levelo://app?vid=929cf576-be90-4201-8f34-7ae87659e741","ios":"levelo://app?vid=929cf576-be90-4201-8f34-7ae87659e741"},"vehicle_type_id":"4","last_reported":1743275229,"current_range_meters":6800,"station_id":"ce4bh292rcd13ifvqdf0","pricing_plan_id":"cebpf4jnsgd1na2vs0mg"},{"bike_id":"d52a49fe-432a-4490-9df8-b2bc6bc83c67","system_id":"levelo_inurba_marseille","lat":43.29031,"lon":5.37564,"is_reserved":false,"is_disabled":false,"rental_uris":{"android":"levelo://app?vid=d52a49fe-432a-4490-9df8-b2bc6bc83c67","ios":"levelo://app?vid=d52a49fe-432a-4490-9df8-b2bc6bc83c67"},"vehicle_type_id":"4","last_reported":1743275229,"current_range_meters":6800,"station_id":"ce4bh692rcd13ifvqe90","pricing_plan_id":"cebpf4jnsgd1na2vs0mg"},{"bike_id":"43d3f610-2ea9-4eda-a4c8-e3f9706bb87c","system_id":"levelo_inurba_marseille","lat":43.3038,"lon":5.37337,"is_reserved":false,"is_disabled":false,"rental_uris":{"android":"levelo://app?vid=43d3f610-2ea9-4eda-a4c8-e3f9706bb87c","ios":"levelo://app?vid=43d3f610-2ea9-4eda-a4c8-e3f9706bb87c"},"vehicle_type_id":"4","last_reported":1743275229,"current_range_meters":6800,"station_id":"","pricing_plan_id":"cebpf4jnsgd1na2vs0mg"},{"bike_id":"e7c598d7-c35c-4534-83ad-d81d24857ee5","system_id":"levelo_inurba_marseille","lat":43.29795,"lon":5.39349,"is_reserved":false,"is_disabled":false,"rental_uris":{"android":"levelo://app?vid=e7c598d7-c35c-4534-83ad-d81d24857ee5","ios":"levelo://app?vid=e7c598d7-c35c-4534-83ad-d81d24857ee5"},"vehicle_type_id":"4","last_reported":1743275229,"current_range_meters":6800,"station_id":"chh1huq6cuj3fo74tm60","pricing_plan_id":"cebpf4jnsgd1na2vs0mg"},{"bike_id":"cd2dc4de-70a1-432b-8900-303cf935d2f7","system_id":"levelo_inurba_marseille","lat":43.24834,"lon":5.37474,"is_reserved":false,"is_disabled":false,"rental_uris":{"android":"levelo://app?vid=cd2dc4de-70a1-432b-8900-303cf935d2f7","ios":"levelo://app?vid=cd2dc4de-70a1-432b-8900-303cf935d2f7"},"vehicle_type_id":"4","last_reported":1743275229,"current_range_meters":6800,"station_id":"","pricing_plan_id":"cebpf4jnsgd1na2vs0mg"},{"bike_id":"2d1aed30-04fd-4153-ae7c-ba4ec4994edf","system_id":"levelo_inurba_marseille","lat":43.2917,"lon":5.37162,"is_reserved":false,"is_disabled":false,"rental_uris":{"android":"levelo://app?vid=2d1aed30-04fd-4153-ae7c-ba4ec4994edf","ios":"levelo://app?vid=2d1aed30-04fd-4153-ae7c-ba4ec4994edf"},"vehicle_type_id":"4","last_reported":1743275229,"current_range_meters":7200,"station_id":"ce4bha92rcd13ifvqeh0","pricing_plan_id":"cebpf4jnsgd1na2vs0mg"},{"bike_id":"f47eba55-a588-4033-a3dc-992c836c995d","system_id":"levelo_inurba_marseille","lat":43.31705,"lon":5.40539,"is_reserved":false,"is_disabled":false,"rental_uris":{"android":"levelo://app?vid=f47eba55-a588-4033-a3dc-992c836c995d","ios":"levelo://app?vid=f47eba55-a588-4033-a3dc-992c836c995d"},"vehicle_type_id":"4","last_reported":1743275229,"current_range_meters":7200,"station_id":"","pricing_plan_id":"cebpf4jnsgd1na2vs0mg"},{"bike_id":"6082a6d8-29f3-4441-bd82-d0f95ead75d7","system_id":"levelo_inurba_marseille","lat":43.23204,"lon":5.35564,"is_reserved":false,"is_disabled":false,"rental_uris":{"android":"levelo://app?vid=6082a6d8-29f3-4441-bd82-d0f95ead75d7","ios":"levelo://app?vid=6082a6d8-29f3-4441-bd82-d0f95ead75d7"},"vehicle_type_id":"4","last_reported":1743275229,"current_range_meters":7200,"station_id":"ce4bhu92rcd13ifvqi70","pricing_plan_id":"cebpf4jnsgd1na2vs0mg"},{"bike_id":"fd5a39dd-96b5-442c-99c4-5577adc0b24b","system_id":"levelo_inurba_marseille","lat":43.23181,"lon":5.39989,"is_reserved":false,"is_disabled":false,"rental_uris":{"android":"levelo://app?vid=fd5a39dd-96b5-442c-99c4-5577adc0b24b","ios":"levelo://app?vid=fd5a39dd-96b5-442c-99c4-5577adc0b24b"},"vehicle_type_id":"4","last_reported":1743275229,"current_range_meters":7200,"station_id":"ce4bhn12rcd13ifvqgqg","pricing_plan_id":"cebpf4jnsgd1na2vs0mg"},{"bike_id":"6552faa2-bbdd-4698-882a-838d8669116c","system_id":"levelo_inurba_marseille","lat":43.30258,"lon":5.40056,"is_reserved":false,"is_disabled":false,"rental_uris":{"android":"levelo://app?vid=6552faa2-bbdd-4698-882a-838d8669116c","ios":"levelo://app?vid=6552faa2-bbdd-4698-882a-838d8669116c"},"vehicle_type_id":"4","last_reported":1743275229,"current_range_meters":7200,"station_id":"ce4bgvh2rcd13ifvqcs0","pricing_plan_id":"cebpf4jnsgd1na2vs0mg"},{"bike_id":"de643641-df6f-4508-9c46-4f3c51c40392","system_id":"levelo_inurba_marseille","lat":43.29801,"lon":5.38099,"is_reserved":false,"is_disabled":false,"rental_uris":{"android":"levelo://app?vid=de643641-df6f-4508-9c46-4f3c51c40392","ios":"levelo://app?vid=de643641-df6f-4508-9c46-4f3c51c40392"},"vehicle_type_id":"4","last_reported":1743275229,"current_range_meters":6800,"station_id":"ce4bgip2rcd13ifvqbb0","pricing_plan_id":"cebpf4jnsgd1na2vs0mg"},{"bike_id":"d5ffff0a-47db-470d-a1ce-99a37bfcd090","system_id":"levelo_inurba_marseille","lat":43.28638,"lon":5.35102,"is_reserved":false,"is_disabled":false,"rental_uris":{"android":"levelo://app?vid=d5ffff0a-47db-470d-a1ce-99a37bfcd090","ios":"levelo://app?vid=d5ffff0a-47db-470d-a1ce-99a37bfcd090"},"vehicle_type_id":"4","last_reported":1743275229,"current_range_meters":7200,"station_id":"ce4bhch2rcd13ifvqeug","pricing_plan_id":"cebpf4jnsgd1na2vs0mg"},{"bike_id":"0b32cfe4-63de-48ed-8345-384c64461205","system_id":"levelo_inurba_marseille","lat":43.29066,"lon":5.37186,"is_reserved":false,"is_disabled":false,"rental_uris":{"android":"levelo://app?vid=0b32cfe4-63de-48ed-8345-384c64461205","ios":"levelo://app?vid=0b32cfe4-63de-48ed-8345-384c64461205"},"vehicle_type_id":"4","last_reported":1743275229,"current_range_meters":7200,"station_id":"ce4bh5p2rcd13ifvqe4g","pricing_plan_id":"cebpf4jnsgd1na2vs0mg"},{"bike_id":"aae6f714-7326-470c-9362-c05822e21959","system_id":"levelo_inurba_marseille","lat":43.28851,"lon":5.35862,"is_reserved":false,"is_disabled":false,"rental_uris":{"android":"levelo://app?vid=aae6f714-7326-470c-9362-c05822e21959","ios":"levelo://app?vid=aae6f714-7326-470c-9362-c05822e21959"},"vehicle_type_id":"4","last_reported":1743275229,"current_range_meters":7200,"station_id":"ce4bhb12rcd13ifvqem0","pricing_plan_id":"cebpf4jnsgd1na2vs0mg"},{"bike_id":"f0c94876-4d0d-4ad3-b840-262f0e18580e","system_id":"levelo_inurba_marseille","lat":43.32117,"lon":5.36818,"is_reserved":false,"is_disabled":false,"rental_uris":{"android":"levelo://app?vid=f0c94876-4d0d-4ad3-b840-262f0e18580e","ios":"levelo://app?vid=f0c94876-4d0d-4ad3-b840-262f0e18580e"},"vehicle_type_id":"4","last_reported":1743275229,"current_range_meters":7200,"station_id":"","pricing_plan_id":"cebpf4jnsgd1na2vs0mg"},{"bike_id":"8636753c-793a-4788-872b-3fef2cc432a9","system_id":"levelo_inurba_marseille","lat":43.24694,"lon":5.38128,"is_reserved":false,"is_disabled":false,"rental_uris":{"android":"levelo://app?vid=8636753c-793a-4788-872b-3fef2cc432a9","ios":"levelo://app?vid=8636753c-793a-4788-872b-3fef2cc432a9"},"vehicle_type_id":"4","last_reported":1743275229,"current_range_meters":7200,"station_id":"ce4bhih2rcd13ifvqfr0","pricing_plan_id":"cebpf4jnsgd1na2vs0mg"},{"bike_id":"142e1200-d25c-4e57-afe5-ab79773a0908","system_id":"levelo_inurba_marseille","lat":43.29067,"lon":5.37176,"is_reserved":false,"is_disabled":false,"rental_uris":{"android":"levelo://app?vid=142e1200-d25c-4e57-afe5-ab79773a0908","ios":"levelo://app?vid=142e1200-d25c-4e57-afe5-ab79773a0908"},"vehicle_type_id":"4","last_reported":1743275229,"current_range_meters":7200,"station_id":"ce4bh5p2rcd13ifvqe4g","pricing_plan_id":"cebpf4jnsgd1na2vs0mg"},{"bike_id":"e01c9823-0a87-4f6a-9fc0-a543ab594bf9","system_id":"levelo_inurba_marseille","lat":43.29925,"lon":5.36536,"is_reserved":false,"is_disabled":false,"rental_uris":{"android":"levelo://app?vid=e01c9823-0a87-4f6a-9fc0-a543ab594bf9","ios":"levelo://app?vid=e01c9823-0a87-4f6a-9fc0-a543ab594bf9"},"vehicle_type_id":"4","last_reported":1743275229,"current_range_meters":7200,"station_id":"ce4bgm92rcd13ifvqbr0","pricing_plan_id":"cebpf4jnsgd1na2vs0mg"},{"bike_id":"4777850e-a840-44f2-a6a5-fd44a1ac41d3","system_id":"levelo_inurba_marseille","lat":43.28737,"lon":5.40027,"is_reserved":false,"is_disabled":true,"rental_uris":{"android":"levelo://app?vid=4777850e-a840-44f2-a6a5-fd44a1ac41d3","ios":"levelo://app?vid=4777850e-a840-44f2-a6a5-fd44a1ac41d3"},"vehicle_type_id":"4","last_reported":1743275229,"current_range_meters":8000,"station_id":"ce4bho92rcd13ifvqh3g","pricing_plan_id":"cebpf4jnsgd1na2vs0mg"},{"bike_id":"983c4c9f-ee1a-4d13-8ce7-bfd36c479f46","system_id":"levelo_inurba_marseille","lat":43.24172,"lon":5.36391,"is_reserved":false,"is_disabled":false,"rental_uris":{"android":"levelo://app?vid=983c4c9f-ee1a-4d13-8ce7-bfd36c479f46","ios":"levelo://app?vid=983c4c9f-ee1a-4d13-8ce7-bfd36c479f46"},"vehicle_type_id":"4","last_reported":1743275229,"current_range_meters":8000,"station_id":"cpo36qri1sfpv3e86is0","pricing_plan_id":"cebpf4jnsgd1na2vs0mg"},{"bike_id":"1b4e5c48-f3b8-4ca5-9244-3815d3918bd4","system_id":"levelo_inurba_marseille","lat":43.32315,"lon":5.38819,"is_reserved":false,"is_disabled":false,"rental_uris":{"android":"levelo://app?vid=1b4e5c48-f3b8-4ca5-9244-3815d3918bd4","ios":"levelo://app?vid=1b4e5c48-f3b8-4ca5-9244-3815d3918bd4"},"vehicle_type_id":"4","last_reported":1743275229,"current_range_meters":8000,"station_id":"ce4bhqp2rcd13ifvqhog","pricing_plan_id":"cebpf4jnsgd1na2vs0mg"},{"bike_id":"d110ea9c-afe8-47f1-b008-e66bc6e44a55","system_id":"levelo_inurba_marseille","lat":43.28418,"lon":5.34987,"is_reserved":false,"is_disabled":false,"rental_uris":{"android":"levelo://app?vid=d110ea9c-afe8-47f1-b008-e66bc6e44a55","ios":"levelo://app?vid=d110ea9c-afe8-47f1-b008-e66bc6e44a55"},"vehicle_type_id":"4","last_reported":1743275229,"current_range_meters":8000,"station_id":"ce4bhbh2rcd13ifvqepg","pricing_plan_id":"cebpf4jnsgd1na2vs0mg"},{"bike_id":"2fdcb446-c48b-4212-86a1-de3468773636","system_id":"levelo_inurba_marseille","lat":43.30203,"lon":5.39474,"is_reserved":false,"is_disabled":false,"rental_uris":{"android":"levelo://app?vid=2fdcb446-c48b-4212-86a1-de3468773636","ios":"levelo://app?vid=2fdcb446-c48b-4212-86a1-de3468773636"},"vehicle_type_id":"4","last_reported":1743275229,"current_range_meters":8000,"station_id":"ce4bh0p2rcd13ifvqd70","pricing_plan_id":"cebpf4jnsgd1na2vs0mg"},{"bike_id":"0684b08a-0ab4-4c3c-9991-1a558d6273c5","system_id":"levelo_inurba_marseille","lat":43.29703,"lon":5.37707,"is_reserved":false,"is_disabled":false,"rental_uris":{"android":"levelo://app?vid=0684b08a-0ab4-4c3c-9991-1a558d6273c5","ios":"levelo://app?vid=0684b08a-0ab4-4c3c-9991-1a558d6273c5"},"vehicle_type_id":"4","last_reported":1743275229,"current_range_meters":8000,"station_id":"ce4bgkh2rcd13ifvqbl0","pricing_plan_id":"cebpf4jnsgd1na2vs0mg"},{"bike_id":"b5ace6c6-32e3-486d-9744-efb1ce0dfa9d","system_id":"levelo_inurba_marseille","lat":43.28927,"lon":5.37138,"is_reserved":false,"is_disabled":true,"rental_uris":{"android":"levelo://app?vid=b5ace6c6-32e3-486d-9744-efb1ce0dfa9d","ios":"levelo://app?vid=b5ace6c6-32e3-486d-9744-efb1ce0dfa9d"},"vehicle_type_id":"4","last_reported":1743275229,"current_range_meters":8000,"station_id":"","pricing_plan_id":"cebpf4jnsgd1na2vs0mg"},{"bike_id":"0558bc66-2825-46b4-8c35-dfa19eca05b8","system_id":"levelo_inurba_marseille","lat":43.24408,"lon":5.37057,"is_reserved":false,"is_disabled":false,"rental_uris":{"android":"levelo://app?vid=0558bc66-2825-46b4-8c35-dfa19eca05b8","ios":"levelo://app?vid=0558bc66-2825-46b4-8c35-dfa19eca05b8"},"vehicle_type_id":"4","last_reported":1743275229,"current_range_meters":8000,"station_id":"ce4bhhh2rcd13ifvqfk0","pricing_plan_id":"cebpf4jnsgd1na2vs0mg"},{"bike_id":"8114a869-6088-43d6-b57f-983654d4a95e","system_id":"levelo_inurba_marseille","lat":43.29311,"lon":5.37179,"is_reserved":false,"is_disabled":false,"rental_uris":{"android":"levelo://app?vid=8114a869-6088-43d6-b57f-983654d4a95e","ios":"levelo://app?vid=8114a869-6088-43d6-b57f-983654d4a95e"},"vehicle_type_id":"4","last_reported":1743275229,"current_range_meters":8000,"station_id":"ce4bgh92rcd13ifvqb40","pricing_plan_id":"cebpf4jnsgd1na2vs0mg"},{"bike_id":"f6925b6c-b8ce-4863-9174-75310d39c7e8","system_id":"levelo_inurba_marseille","lat":43.229126,"lon":5.353455,"is_reserved":false,"is_disabled":false,"rental_uris":{"android":"levelo://app?vid=f6925b6c-b8ce-4863-9174-75310d39c7e8","ios":"levelo://app?vid=f6925b6c-b8ce-4863-9174-75310d39c7e8"},"vehicle_type_id":"4","last_reported":1743275229,"current_range_meters":8000,"station_id":"cpo3532slgdg3j2ikp40","pricing_plan_id":"cebpf4jnsgd1na2vs0mg"},{"bike_id":"86402da5-f9ef-43b6-a281-06ce7c4c3160","system_id":"levelo_inurba_marseille","lat":43.2864,"lon":5.35112,"is_reserved":false,"is_disabled":false,"rental_uris":{"android":"levelo://app?vid=86402da5-f9ef-43b6-a281-06ce7c4c3160","ios":"levelo://app?vid=86402da5-f9ef-43b6-a281-06ce7c4c3160"},"vehicle_type_id":"4","last_reported":1743275229,"current_range_meters":8400,"station_id":"ce4bhch2rcd13ifvqeug","pricing_plan_id":"cebpf4jnsgd1na2vs0mg"},{"bike_id":"4a23a622-2876-4789-9225-0e4bb5df870b","system_id":"levelo_inurba_marseille","lat":43.27911,"lon":5.39579,"is_reserved":false,"is_disabled":false,"rental_uris":{"android":"levelo://app?vid=4a23a622-2876-4789-9225-0e4bb5df870b","ios":"levelo://app?vid=4a23a622-2876-4789-9225-0e4bb5df870b"},"vehicle_type_id":"4","last_reported":1743275229,"current_range_meters":8400,"station_id":"ce4bhf92rcd13ifvqf40","pricing_plan_id":"cebpf4jnsgd1na2vs0mg"},{"bike_id":"71237082-af46-478a-b917-4f49a5342faa","system_id":"levelo_inurba_marseille","lat":43.29255,"lon":5.38439,"is_reserved":false,"is_disabled":false,"rental_uris":{"android":"levelo://app?vid=71237082-af46-478a-b917-4f49a5342faa","ios":"levelo://app?vid=71237082-af46-478a-b917-4f49a5342faa"},"vehicle_type_id":"4","last_reported":1743275229,"current_range_meters":8000,"station_id":"ce4bh692rcd13ifvqea0","pricing_plan_id":"cebpf4jnsgd1na2vs0mg"},{"bike_id":"e812804b-b97f-41d4-b7c6-5e8311d071c7","system_id":"levelo_inurba_marseille","lat":43.29541,"lon":5.38556,"is_reserved":false,"is_disabled":false,"rental_uris":{"android":"levelo://app?vid=e812804b-b97f-41d4-b7c6-5e8311d071c7","ios":"levelo://app?vid=e812804b-b97f-41d4-b7c6-5e8311d071c7"},"vehicle_type_id":"4","last_reported":1743275229,"current_range_meters":8400,"station_id":"ce4bgih2rcd13ifvqba0","pricing_plan_id":"cebpf4jnsgd1na2vs0mg"},{"bike_id":"c6e942ff-4127-4fdc-88d5-30f784ad6976","system_id":"levelo_inurba_marseille","lat":43.317537,"lon":5.390054,"is_reserved":false,"is_disabled":false,"rental_uris":{"android":"levelo://app?vid=c6e942ff-4127-4fdc-88d5-30f784ad6976","ios":"levelo://app?vid=c6e942ff-4127-4fdc-88d5-30f784ad6976"},"vehicle_type_id":"4","last_reported":1743275229,"current_range_meters":8400,"station_id":"ce4bhqp2rcd13ifvqhng","pricing_plan_id":"cebpf4jnsgd1na2vs0mg"},{"bike_id":"4fb83321-df12-4ed5-9ce7-f677dd1b9c3d","system_id":"levelo_inurba_marseille","lat":43.29302,"lon":5.3746,"is_reserved":false,"is_disabled":false,"rental_uris":{"android":"levelo://app?vid=4fb83321-df12-4ed5-9ce7-f677dd1b9c3d","ios":"levelo://app?vid=4fb83321-df12-4ed5-9ce7-f677dd1b9c3d"},"vehicle_type_id":"4","last_reported":1743275229,"current_range_meters":8400,"station_id":"ce4bgi12rcd13ifvqb70","pricing_plan_id":"cebpf4jnsgd1na2vs0mg"},{"bike_id":"a36a9ec1-537e-4091-9d7a-dd0444d14e10","system_id":"levelo_inurba_marseille","lat":43.2481,"lon":5.37479,"is_reserved":false,"is_disabled":false,"rental_uris":{"android":"levelo://app?vid=a36a9ec1-537e-4091-9d7a-dd0444d14e10","ios":"levelo://app?vid=a36a9ec1-537e-4091-9d7a-dd0444d14e10"},"vehicle_type_id":"4","last_reported":1743275229,"current_range_meters":8400,"station_id":"ce4bhgh2rcd13ifvqfb0","pricing_plan_id":"cebpf4jnsgd1na2vs0mg"},{"bike_id":"ae30a3e7-e963-41e5-b101-1e0a227a542d","system_id":"levelo_inurba_marseille","lat":43.29523,"lon":5.3941,"is_reserved":false,"is_disabled":false,"rental_uris":{"android":"levelo://app?vid=ae30a3e7-e963-41e5-b101-1e0a227a542d","ios":"levelo://app?vid=ae30a3e7-e963-41e5-b101-1e0a227a542d"},"vehicle_type_id":"4","last_reported":1743275229,"current_range_meters":8400,"station_id":"ce4bh292rcd13ifvqdf0","pricing_plan_id":"cebpf4jnsgd1na2vs0mg"},{"bike_id":"821be4ec-407d-4c14-8854-046c9d2d6588","system_id":"levelo_inurba_marseille","lat":43.30901,"lon":5.37211,"is_reserved":false,"is_disabled":false,"rental_uris":{"android":"levelo://app?vid=821be4ec-407d-4c14-8854-046c9d2d6588","ios":"levelo://app?vid=821be4ec-407d-4c14-8854-046c9d2d6588"},"vehicle_type_id":"4","last_reported":1743275229,"current_range_meters":8400,"station_id":"ce4bguh2rcd13ifvqckg","pricing_plan_id":"cebpf4jnsgd1na2vs0mg"},{"bike_id":"067b4f1d-9103-4472-9d36-15c7ffd463e7","system_id":"levelo_inurba_marseille","lat":43.25491,"lon":5.37654,"is_reserved":false,"is_disabled":false,"rental_uris":{"android":"levelo://app?vid=067b4f1d-9103-4472-9d36-15c7ffd463e7","ios":"levelo://app?vid=067b4f1d-9103-4472-9d36-15c7ffd463e7"},"vehicle_type_id":"4","last_reported":1743275229,"current_range_meters":8400,"station_id":"ce4bhh12rcd13ifvqff0","pricing_plan_id":"cebpf4jnsgd1na2vs0mg"},{"bike_id":"30b699d6-7312-4b49-b0f6-c1256ff610c6","system_id":"levelo_inurba_marseille","lat":43.3024,"lon":5.40073,"is_reserved":false,"is_disabled":false,"rental_uris":{"android":"levelo://app?vid=30b699d6-7312-4b49-b0f6-c1256ff610c6","ios":"levelo://app?vid=30b699d6-7312-4b49-b0f6-c1256ff610c6"},"vehicle_type_id":"4","last_reported":1743275229,"current_range_meters":8400,"station_id":"ce4bgvh2rcd13ifvqcs0","pricing_plan_id":"cebpf4jnsgd1na2vs0mg"},{"bike_id":"1a8ec8fe-cd0f-44f4-9a76-dfc354a60ccc","system_id":"levelo_inurba_marseille","lat":43.23958,"lon":5.36638,"is_reserved":false,"is_disabled":false,"rental_uris":{"android":"levelo://app?vid=1a8ec8fe-cd0f-44f4-9a76-dfc354a60ccc","ios":"levelo://app?vid=1a8ec8fe-cd0f-44f4-9a76-dfc354a60ccc"},"vehicle_type_id":"4","last_reported":1743275229,"current_range_meters":8400,"station_id":"ce4bhi12rcd13ifvqfp0","pricing_plan_id":"cebpf4jnsgd1na2vs0mg"},{"bike_id":"897c0b50-c5d1-426a-8708-0401c90fc4df","system_id":"levelo_inurba_marseille","lat":43.26695,"lon":5.3828,"is_reserved":false,"is_disabled":false,"rental_uris":{"android":"levelo://app?vid=897c0b50-c5d1-426a-8708-0401c90fc4df","ios":"levelo://app?vid=897c0b50-c5d1-426a-8708-0401c90fc4df"},"vehicle_type_id":"4","last_reported":1743275229,"current_range_meters":8400,"station_id":"ce4bhg92rcd13ifvqf90","pricing_plan_id":"cebpf4jnsgd1na2vs0mg"},{"bike_id":"6145254f-f2bf-466c-86d5-66f4c642de5e","system_id":"levelo_inurba_marseille","lat":43.33037,"lon":5.39047,"is_reserved":false,"is_disabled":false,"rental_uris":{"android":"levelo://app?vid=6145254f-f2bf-466c-86d5-66f4c642de5e","ios":"levelo://app?vid=6145254f-f2bf-466c-86d5-66f4c642de5e"},"vehicle_type_id":"4","last_reported":1743275229,"current_range_meters":8400,"station_id":"ce4bhr92rcd13ifvqhrg","pricing_plan_id":"cebpf4jnsgd1na2vs0mg"},{"bike_id":"d14cdd1e-f0b3-48a5-be5e-77128af69a2d","system_id":"levelo_inurba_marseille","lat":43.28646,"lon":5.35117,"is_reserved":false,"is_disabled":false,"rental_uris":{"android":"levelo://app?vid=d14cdd1e-f0b3-48a5-be5e-77128af69a2d","ios":"levelo://app?vid=d14cdd1e-f0b3-48a5-be5e-77128af69a2d"},"vehicle_type_id":"4","last_reported":1743275229,"current_range_meters":8400,"station_id":"ce4bhch2rcd13ifvqeug","pricing_plan_id":"cebpf4jnsgd1na2vs0mg"},{"bike_id":"e4614adf-59ca-49c9-9f29-fb2629aacd37","system_id":"levelo_inurba_marseille","lat":43.28625,"lon":5.35104,"is_reserved":false,"is_disabled":false,"rental_uris":{"android":"levelo://app?vid=e4614adf-59ca-49c9-9f29-fb2629aacd37","ios":"levelo://app?vid=e4614adf-59ca-49c9-9f29-fb2629aacd37"},"vehicle_type_id":"4","last_reported":1743275229,"current_range_meters":8400,"station_id":"ce4bhch2rcd13ifvqeug","pricing_plan_id":"cebpf4jnsgd1na2vs0mg"},{"bike_id":"d45a6c3b-cee5-4d97-a55e-a103c5477b7c","system_id":"levelo_inurba_marseille","lat":43.29029,"lon":5.38646,"is_reserved":false,"is_disabled":false,"rental_uris":{"android":"levelo://app?vid=d45a6c3b-cee5-4d97-a55e-a103c5477b7c","ios":"levelo://app?vid=d45a6c3b-cee5-4d97-a55e-a103c5477b7c"},"vehicle_type_id":"4","last_reported":1743275229,"current_range_meters":8400,"station_id":"ce4bh4p2rcd13ifvqe0g","pricing_plan_id":"cebpf4jnsgd1na2vs0mg"},{"bike_id":"80c7fdd8-69cd-4a2e-bd16-2e9773a45b49","system_id":"levelo_inurba_marseille","lat":43.30092,"lon":5.39077,"is_reserved":false,"is_disabled":false,"rental_uris":{"android":"levelo://app?vid=80c7fdd8-69cd-4a2e-bd16-2e9773a45b49","ios":"levelo://app?vid=80c7fdd8-69cd-4a2e-bd16-2e9773a45b49"},"vehicle_type_id":"4","last_reported":1743275229,"current_range_meters":8800,"station_id":"ce4bh192rcd13ifvqdb0","pricing_plan_id":"cebpf4jnsgd1na2vs0mg"},{"bike_id":"96fa1290-e699-40b9-9109-379d3b77c6fb","system_id":"levelo_inurba_marseille","lat":43.33757,"lon":5.39203,"is_reserved":false,"is_disabled":false,"rental_uris":{"android":"levelo://app?vid=96fa1290-e699-40b9-9109-379d3b77c6fb","ios":"levelo://app?vid=96fa1290-e699-40b9-9109-379d3b77c6fb"},"vehicle_type_id":"4","last_reported":1743275229,"current_range_meters":8800,"station_id":"ce4bhr92rcd13ifvqhsg","pricing_plan_id":"cebpf4jnsgd1na2vs0mg"},{"bike_id":"b1ecd358-38ec-4753-8af1-9b87454b444a","system_id":"levelo_inurba_marseille","lat":43.286212,"lon":5.351089,"is_reserved":false,"is_disabled":false,"rental_uris":{"android":"levelo://app?vid=b1ecd358-38ec-4753-8af1-9b87454b444a","ios":"levelo://app?vid=b1ecd358-38ec-4753-8af1-9b87454b444a"},"vehicle_type_id":"4","last_reported":1743275229,"current_range_meters":8800,"station_id":"ce4bhch2rcd13ifvqeug","pricing_plan_id":"cebpf4jnsgd1na2vs0mg"},{"bike_id":"296d0da0-4cc4-40ab-acd1-7c240f5eee02","system_id":"levelo_inurba_marseille","lat":43.3058,"lon":5.37629,"is_reserved":false,"is_disabled":false,"rental_uris":{"android":"levelo://app?vid=296d0da0-4cc4-40ab-acd1-7c240f5eee02","ios":"levelo://app?vid=296d0da0-4cc4-40ab-acd1-7c240f5eee02"},"vehicle_type_id":"4","last_reported":1743275229,"current_range_meters":8800,"station_id":"","pricing_plan_id":"cebpf4jnsgd1na2vs0mg"},{"bike_id":"ede5cc5d-b3fe-4a11-8a8d-2e97c975b4a5","system_id":"levelo_inurba_marseille","lat":43.30456,"lon":5.37897,"is_reserved":false,"is_disabled":false,"rental_uris":{"android":"levelo://app?vid=ede5cc5d-b3fe-4a11-8a8d-2e97c975b4a5","ios":"levelo://app?vid=ede5cc5d-b3fe-4a11-8a8d-2e97c975b4a5"},"vehicle_type_id":"4","last_reported":1743275229,"current_range_meters":8800,"station_id":"ce4bgup2rcd13ifvqcn0","pricing_plan_id":"cebpf4jnsgd1na2vs0mg"},{"bike_id":"4b2323ae-94b8-41f7-9062-4d9bd4bd549e","system_id":"levelo_inurba_marseille","lat":43.2417,"lon":5.36414,"is_reserved":false,"is_disabled":false,"rental_uris":{"android":"levelo://app?vid=4b2323ae-94b8-41f7-9062-4d9bd4bd549e","ios":"levelo://app?vid=4b2323ae-94b8-41f7-9062-4d9bd4bd549e"},"vehicle_type_id":"4","last_reported":1743275229,"current_range_meters":8800,"station_id":"cpo36qri1sfpv3e86is0","pricing_plan_id":"cebpf4jnsgd1na2vs0mg"},{"bike_id":"fdbddf62-b28e-4ace-902a-22e812b9ccbb","system_id":"levelo_inurba_marseille","lat":43.286652,"lon":5.386656,"is_reserved":false,"is_disabled":false,"rental_uris":{"android":"levelo://app?vid=fdbddf62-b28e-4ace-902a-22e812b9ccbb","ios":"levelo://app?vid=fdbddf62-b28e-4ace-902a-22e812b9ccbb"},"vehicle_type_id":"4","last_reported":1743275229,"current_range_meters":8800,"station_id":"ce4bh492rcd13ifvqdug","pricing_plan_id":"cebpf4jnsgd1na2vs0mg"},{"bike_id":"d74db411-6506-45af-b6cf-69c9600e9252","system_id":"levelo_inurba_marseille","lat":43.32359,"lon":5.38888,"is_reserved":false,"is_disabled":false,"rental_uris":{"android":"levelo://app?vid=d74db411-6506-45af-b6cf-69c9600e9252","ios":"levelo://app?vid=d74db411-6506-45af-b6cf-69c9600e9252"},"vehicle_type_id":"4","last_reported":1743275229,"current_range_meters":8800,"station_id":"ce4bhqp2rcd13ifvqhog","pricing_plan_id":"cebpf4jnsgd1na2vs0mg"},{"bike_id":"b453b0b3-4c84-44ec-9c43-e6eb4212d642","system_id":"levelo_inurba_marseille","lat":43.29969,"lon":5.3851,"is_reserved":false,"is_disabled":false,"rental_uris":{"android":"levelo://app?vid=b453b0b3-4c84-44ec-9c43-e6eb4212d642","ios":"levelo://app?vid=b453b0b3-4c84-44ec-9c43-e6eb4212d642"},"vehicle_type_id":"4","last_reported":1743275229,"current_range_meters":8800,"station_id":"ce4bgj92rcd13ifvqbd0","pricing_plan_id":"cebpf4jnsgd1na2vs0mg"},{"bike_id":"c2f179b1-a0c6-4c12-bc8c-9ea5f0e3919c","system_id":"levelo_inurba_marseille","lat":43.31536,"lon":5.38038,"is_reserved":false,"is_disabled":false,"rental_uris":{"android":"levelo://app?vid=c2f179b1-a0c6-4c12-bc8c-9ea5f0e3919c","ios":"levelo://app?vid=c2f179b1-a0c6-4c12-bc8c-9ea5f0e3919c"},"vehicle_type_id":"4","last_reported":1743275229,"current_range_meters":8800,"station_id":"ce4bhsp2rcd13ifvqi50","pricing_plan_id":"cebpf4jnsgd1na2vs0mg"},{"bike_id":"a09dbde8-9d4e-4b14-8c08-9c726e7ec6b3","system_id":"levelo_inurba_marseille","lat":43.30961,"lon":5.39095,"is_reserved":false,"is_disabled":false,"rental_uris":{"android":"levelo://app?vid=a09dbde8-9d4e-4b14-8c08-9c726e7ec6b3","ios":"levelo://app?vid=a09dbde8-9d4e-4b14-8c08-9c726e7ec6b3"},"vehicle_type_id":"4","last_reported":1743275229,"current_range_meters":8800,"station_id":"ce4bgup2rcd13ifvqco0","pricing_plan_id":"cebpf4jnsgd1na2vs0mg"},{"bike_id":"51885407-df43-43f5-aa1a-967418da750e","system_id":"levelo_inurba_marseille","lat":43.27813,"lon":5.40716,"is_reserved":false,"is_disabled":false,"rental_uris":{"android":"levelo://app?vid=51885407-df43-43f5-aa1a-967418da750e","ios":"levelo://app?vid=51885407-df43-43f5-aa1a-967418da750e"},"vehicle_type_id":"4","last_reported":1743275229,"current_range_meters":9200,"station_id":"ce4bhnh2rcd13ifvqgtg","pricing_plan_id":"cebpf4jnsgd1na2vs0mg"},{"bike_id":"77eed676-a1ab-4e56-81a4-2c20da9f73fa","system_id":"levelo_inurba_marseille","lat":43.30135,"lon":5.374,"is_reserved":false,"is_disabled":false,"rental_uris":{"android":"levelo://app?vid=77eed676-a1ab-4e56-81a4-2c20da9f73fa","ios":"levelo://app?vid=77eed676-a1ab-4e56-81a4-2c20da9f73fa"},"vehicle_type_id":"4","last_reported":1743275229,"current_range_meters":9200,"station_id":"ce4bgs92rcd13ifvqcc0","pricing_plan_id":"cebpf4jnsgd1na2vs0mg"},{"bike_id":"47475a94-c966-4e94-adab-cd0008807d22","system_id":"levelo_inurba_marseille","lat":43.2951,"lon":5.394,"is_reserved":false,"is_disabled":false,"rental_uris":{"android":"levelo://app?vid=47475a94-c966-4e94-adab-cd0008807d22","ios":"levelo://app?vid=47475a94-c966-4e94-adab-cd0008807d22"},"vehicle_type_id":"4","last_reported":1743275229,"current_range_meters":9200,"station_id":"ce4bh292rcd13ifvqdf0","pricing_plan_id":"cebpf4jnsgd1na2vs0mg"},{"bike_id":"e5080e58-4d86-495c-914b-0a04b77b713a","system_id":"levelo_inurba_marseille","lat":43.302667,"lon":5.396544,"is_reserved":false,"is_disabled":false,"rental_uris":{"android":"levelo://app?vid=e5080e58-4d86-495c-914b-0a04b77b713a","ios":"levelo://app?vid=e5080e58-4d86-495c-914b-0a04b77b713a"},"vehicle_type_id":"4","last_reported":1743275229,"current_range_meters":9200,"station_id":"ce4bgt92rcd13ifvqcg0","pricing_plan_id":"cebpf4jnsgd1na2vs0mg"},{"bike_id":"84037ec3-b4e8-402f-873c-9edd39279a04","system_id":"levelo_inurba_marseille","lat":43.28468,"lon":5.3591,"is_reserved":false,"is_disabled":false,"rental_uris":{"android":"levelo://app?vid=84037ec3-b4e8-402f-873c-9edd39279a04","ios":"levelo://app?vid=84037ec3-b4e8-402f-873c-9edd39279a04"},"vehicle_type_id":"4","last_reported":1743275229,"current_range_meters":9200,"station_id":"ce4bhah2rcd13ifvqei0","pricing_plan_id":"cebpf4jnsgd1na2vs0mg"},{"bike_id":"0ac38957-13db-4993-8705-a2c070e0bc23","system_id":"levelo_inurba_marseille","lat":43.24169,"lon":5.39724,"is_reserved":false,"is_disabled":false,"rental_uris":{"android":"levelo://app?vid=0ac38957-13db-4993-8705-a2c070e0bc23","ios":"levelo://app?vid=0ac38957-13db-4993-8705-a2c070e0bc23"},"vehicle_type_id":"4","last_reported":1743275229,"current_range_meters":9200,"station_id":"ce4bhn12rcd13ifvqgpg","pricing_plan_id":"cebpf4jnsgd1na2vs0mg"},{"bike_id":"fd7e18e3-01a9-4166-a535-751f0bc4fdc5","system_id":"levelo_inurba_marseille","lat":43.30229,"lon":5.39482,"is_reserved":false,"is_disabled":false,"rental_uris":{"android":"levelo://app?vid=fd7e18e3-01a9-4166-a535-751f0bc4fdc5","ios":"levelo://app?vid=fd7e18e3-01a9-4166-a535-751f0bc4fdc5"},"vehicle_type_id":"4","last_reported":1743275229,"current_range_meters":9200,"station_id":"ce4bh0p2rcd13ifvqd70","pricing_plan_id":"cebpf4jnsgd1na2vs0mg"},{"bike_id":"8d83de09-aa51-4398-a437-9663ddd0c351","system_id":"levelo_inurba_marseille","lat":43.29923,"lon":5.37499,"is_reserved":false,"is_disabled":false,"rental_uris":{"android":"levelo://app?vid=8d83de09-aa51-4398-a437-9663ddd0c351","ios":"levelo://app?vid=8d83de09-aa51-4398-a437-9663ddd0c351"},"vehicle_type_id":"4","last_reported":1743275229,"current_range_meters":9200,"station_id":"ce4bgjh2rcd13ifvqbg0","pricing_plan_id":"cebpf4jnsgd1na2vs0mg"},{"bike_id":"a8d851cf-5d20-4ee9-95cb-5df4c3c78873","system_id":"levelo_inurba_marseille","lat":43.29287,"lon":5.37607,"is_reserved":false,"is_disabled":false,"rental_uris":{"android":"levelo://app?vid=a8d851cf-5d20-4ee9-95cb-5df4c3c78873","ios":"levelo://app?vid=a8d851cf-5d20-4ee9-95cb-5df4c3c78873"},"vehicle_type_id":"4","last_reported":1743275229,"current_range_meters":9200,"station_id":"ce4bgi12rcd13ifvqb80","pricing_plan_id":"cebpf4jnsgd1na2vs0mg"},{"bike_id":"03aa3158-b7bf-4ec4-8338-ad125efa36ce","system_id":"levelo_inurba_marseille","lat":43.29919,"lon":5.375,"is_reserved":false,"is_disabled":false,"rental_uris":{"android":"levelo://app?vid=03aa3158-b7bf-4ec4-8338-ad125efa36ce","ios":"levelo://app?vid=03aa3158-b7bf-4ec4-8338-ad125efa36ce"},"vehicle_type_id":"4","last_reported":1743275229,"current_range_meters":8800,"station_id":"ce4bgjh2rcd13ifvqbg0","pricing_plan_id":"cebpf4jnsgd1na2vs0mg"},{"bike_id":"4586e23a-2d77-446c-8e8c-a15b6ae5de02","system_id":"levelo_inurba_marseille","lat":43.2861,"lon":5.38146,"is_reserved":false,"is_disabled":false,"rental_uris":{"android":"levelo://app?vid=4586e23a-2d77-446c-8e8c-a15b6ae5de02","ios":"levelo://app?vid=4586e23a-2d77-446c-8e8c-a15b6ae5de02"},"vehicle_type_id":"4","last_reported":1743275229,"current_range_meters":9200,"station_id":"","pricing_plan_id":"cebpf4jnsgd1na2vs0mg"},{"bike_id":"d7ecebd2-9e49-43ae-916e-d63e5d709fed","system_id":"levelo_inurba_marseille","lat":43.31358,"lon":5.38495,"is_reserved":false,"is_disabled":false,"rental_uris":{"android":"levelo://app?vid=d7ecebd2-9e49-43ae-916e-d63e5d709fed","ios":"levelo://app?vid=d7ecebd2-9e49-43ae-916e-d63e5d709fed"},"vehicle_type_id":"4","last_reported":1743275229,"current_range_meters":9200,"station_id":"ce4bgt92rcd13ifvqcf0","pricing_plan_id":"cebpf4jnsgd1na2vs0mg"},{"bike_id":"3b9e2dbb-dda4-4ed5-8aef-7e67e6437f0d","system_id":"levelo_inurba_marseille","lat":43.33325,"lon":5.40126,"is_reserved":false,"is_disabled":false,"rental_uris":{"android":"levelo://app?vid=3b9e2dbb-dda4-4ed5-8aef-7e67e6437f0d","ios":"levelo://app?vid=3b9e2dbb-dda4-4ed5-8aef-7e67e6437f0d"},"vehicle_type_id":"4","last_reported":1743275229,"current_range_meters":9200,"station_id":"","pricing_plan_id":"cebpf4jnsgd1na2vs0mg"},{"bike_id":"4b32355b-7cb2-4761-ac10-e7e10aa3ec76","system_id":"levelo_inurba_marseille","lat":43.24836,"lon":5.37469,"is_reserved":false,"is_disabled":false,"rental_uris":{"android":"levelo://app?vid=4b32355b-7cb2-4761-ac10-e7e10aa3ec76","ios":"levelo://app?vid=4b32355b-7cb2-4761-ac10-e7e10aa3ec76"},"vehicle_type_id":"4","last_reported":1743275229,"current_range_meters":9600,"station_id":"","pricing_plan_id":"cebpf4jnsgd1na2vs0mg"},{"bike_id":"ea924d4b-8963-446b-9fe0-23a98f8df394","system_id":"levelo_inurba_marseille","lat":43.30778,"lon":5.37648,"is_reserved":false,"is_disabled":false,"rental_uris":{"android":"levelo://app?vid=ea924d4b-8963-446b-9fe0-23a98f8df394","ios":"levelo://app?vid=ea924d4b-8963-446b-9fe0-23a98f8df394"},"vehicle_type_id":"4","last_reported":1743275229,"current_range_meters":9600,"station_id":"ce4bgv92rcd13ifvqcq0","pricing_plan_id":"cebpf4jnsgd1na2vs0mg"},{"bike_id":"24565657-e482-4932-93db-e35fe49c2025","system_id":"levelo_inurba_marseille","lat":43.26671,"lon":5.38275,"is_reserved":false,"is_disabled":false,"rental_uris":{"android":"levelo://app?vid=24565657-e482-4932-93db-e35fe49c2025","ios":"levelo://app?vid=24565657-e482-4932-93db-e35fe49c2025"},"vehicle_type_id":"4","last_reported":1743275229,"current_range_meters":9600,"station_id":"ce4bhg92rcd13ifvqf90","pricing_plan_id":"cebpf4jnsgd1na2vs0mg"},{"bike_id":"1b497527-b758-4433-af85-e0d4c474e2e5","system_id":"levelo_inurba_marseille","lat":43.31364,"lon":5.385,"is_reserved":false,"is_disabled":false,"rental_uris":{"android":"levelo://app?vid=1b497527-b758-4433-af85-e0d4c474e2e5","ios":"levelo://app?vid=1b497527-b758-4433-af85-e0d4c474e2e5"},"vehicle_type_id":"4","last_reported":1743275229,"current_range_meters":9600,"station_id":"ce4bgt92rcd13ifvqcf0","pricing_plan_id":"cebpf4jnsgd1na2vs0mg"},{"bike_id":"ed7b005a-b7e0-4c12-9321-b4b317324001","system_id":"levelo_inurba_marseille","lat":43.3043,"lon":5.39749,"is_reserved":false,"is_disabled":false,"rental_uris":{"android":"levelo://app?vid=ed7b005a-b7e0-4c12-9321-b4b317324001","ios":"levelo://app?vid=ed7b005a-b7e0-4c12-9321-b4b317324001"},"vehicle_type_id":"4","last_reported":1743275229,"current_range_meters":9600,"station_id":"ce4bh092rcd13ifvqd20","pricing_plan_id":"cebpf4jnsgd1na2vs0mg"},{"bike_id":"aa7e5c30-df94-4879-806e-bfe0b293295a","system_id":"levelo_inurba_marseille","lat":43.31326,"lon":5.39691,"is_reserved":false,"is_disabled":false,"rental_uris":{"android":"levelo://app?vid=aa7e5c30-df94-4879-806e-bfe0b293295a","ios":"levelo://app?vid=aa7e5c30-df94-4879-806e-bfe0b293295a"},"vehicle_type_id":"4","last_reported":1743275229,"current_range_meters":9600,"station_id":"ce4bgvp2rcd13ifvqcu0","pricing_plan_id":"cebpf4jnsgd1na2vs0mg"},{"bike_id":"adf6a64d-c2c7-43ad-96da-9ad496cea424","system_id":"levelo_inurba_marseille","lat":43.29521,"lon":5.39396,"is_reserved":false,"is_disabled":false,"rental_uris":{"android":"levelo://app?vid=adf6a64d-c2c7-43ad-96da-9ad496cea424","ios":"levelo://app?vid=adf6a64d-c2c7-43ad-96da-9ad496cea424"},"vehicle_type_id":"4","last_reported":1743275229,"current_range_meters":9600,"station_id":"ce4bh292rcd13ifvqdf0","pricing_plan_id":"cebpf4jnsgd1na2vs0mg"},{"bike_id":"303f910b-a023-4979-be36-20fea069b071","system_id":"levelo_inurba_marseille","lat":43.29272,"lon":5.3846,"is_reserved":false,"is_disabled":false,"rental_uris":{"android":"levelo://app?vid=303f910b-a023-4979-be36-20fea069b071","ios":"levelo://app?vid=303f910b-a023-4979-be36-20fea069b071"},"vehicle_type_id":"4","last_reported":1743275229,"current_range_meters":9600,"station_id":"ce4bh692rcd13ifvqea0","pricing_plan_id":"cebpf4jnsgd1na2vs0mg"},{"bike_id":"02f19c5c-cd34-4cb8-bffb-0ecaa6d7c30a","system_id":"levelo_inurba_marseille","lat":43.26933,"lon":5.38919,"is_reserved":false,"is_disabled":false,"rental_uris":{"android":"levelo://app?vid=02f19c5c-cd34-4cb8-bffb-0ecaa6d7c30a","ios":"levelo://app?vid=02f19c5c-cd34-4cb8-bffb-0ecaa6d7c30a"},"vehicle_type_id":"4","last_reported":1743275229,"current_range_meters":9600,"station_id":"ce4bhhh2rcd13ifvqfl0","pricing_plan_id":"cebpf4jnsgd1na2vs0mg"},{"bike_id":"b63eee63-392e-4360-bd35-8f9c5961cdc8","system_id":"levelo_inurba_marseille","lat":43.26032,"lon":5.37563,"is_reserved":false,"is_disabled":false,"rental_uris":{"android":"levelo://app?vid=b63eee63-392e-4360-bd35-8f9c5961cdc8","ios":"levelo://app?vid=b63eee63-392e-4360-bd35-8f9c5961cdc8"},"vehicle_type_id":"4","last_reported":1743275229,"current_range_meters":9600,"station_id":"ce4bhgh2rcd13ifvqfa0","pricing_plan_id":"cebpf4jnsgd1na2vs0mg"},{"bike_id":"050d458d-cce9-44b3-9d16-b8a5c2076354","system_id":"levelo_inurba_marseille","lat":43.31763,"lon":5.39017,"is_reserved":false,"is_disabled":false,"rental_uris":{"android":"levelo://app?vid=050d458d-cce9-44b3-9d16-b8a5c2076354","ios":"levelo://app?vid=050d458d-cce9-44b3-9d16-b8a5c2076354"},"vehicle_type_id":"4","last_reported":1743275229,"current_range_meters":9600,"station_id":"ce4bhqp2rcd13ifvqhng","pricing_plan_id":"cebpf4jnsgd1na2vs0mg"},{"bike_id":"5a3307a6-54ca-44bc-a5fd-ab80751e6464","system_id":"levelo_inurba_marseille","lat":43.23192,"lon":5.39986,"is_reserved":false,"is_disabled":true,"rental_uris":{"android":"levelo://app?vid=5a3307a6-54ca-44bc-a5fd-ab80751e6464","ios":"levelo://app?vid=5a3307a6-54ca-44bc-a5fd-ab80751e6464"},"vehicle_type_id":"4","last_reported":1743275229,"current_range_meters":9600,"station_id":"ce4bhn12rcd13ifvqgqg","pricing_plan_id":"cebpf4jnsgd1na2vs0mg"},{"bike_id":"a1b5a514-f0ef-42eb-b1a4-22dd30a86324","system_id":"levelo_inurba_marseille","lat":43.31749,"lon":5.39032,"is_reserved":false,"is_disabled":false,"rental_uris":{"android":"levelo://app?vid=a1b5a514-f0ef-42eb-b1a4-22dd30a86324","ios":"levelo://app?vid=a1b5a514-f0ef-42eb-b1a4-22dd30a86324"},"vehicle_type_id":"4","last_reported":1743275229,"current_range_meters":9600,"station_id":"ce4bhqp2rcd13ifvqhng","pricing_plan_id":"cebpf4jnsgd1na2vs0mg"},{"bike_id":"10365f62-ee2b-4687-92a1-782d737acef1","system_id":"levelo_inurba_marseille","lat":43.25947,"lon":5.40854,"is_reserved":false,"is_disabled":false,"rental_uris":{"android":"levelo://app?vid=10365f62-ee2b-4687-92a1-782d737acef1","ios":"levelo://app?vid=10365f62-ee2b-4687-92a1-782d737acef1"},"vehicle_type_id":"4","last_reported":1743275229,"current_range_meters":10000,"station_id":"ce4bhm92rcd13ifvqglg","pricing_plan_id":"cebpf4jnsgd1na2vs0mg"},{"bike_id":"cd659b7d-c0c7-40a3-9359-19af56814ff4","system_id":"levelo_inurba_marseille","lat":43.29295,"lon":5.37452,"is_reserved":false,"is_disabled":false,"rental_uris":{"android":"levelo://app?vid=cd659b7d-c0c7-40a3-9359-19af56814ff4","ios":"levelo://app?vid=cd659b7d-c0c7-40a3-9359-19af56814ff4"},"vehicle_type_id":"4","last_reported":1743275229,"current_range_meters":10000,"station_id":"ce4bgi12rcd13ifvqb70","pricing_plan_id":"cebpf4jnsgd1na2vs0mg"},{"bike_id":"bfbfca12-d4d2-4d74-b23f-680f24e799d6","system_id":"levelo_inurba_marseille","lat":43.28489,"lon":5.38424,"is_reserved":false,"is_disabled":false,"rental_uris":{"android":"levelo://app?vid=bfbfca12-d4d2-4d74-b23f-680f24e799d6","ios":"levelo://app?vid=bfbfca12-d4d2-4d74-b23f-680f24e799d6"},"vehicle_type_id":"4","last_reported":1743275229,"current_range_meters":8000,"station_id":"ce4bh512rcd13ifvqe3g","pricing_plan_id":"cebpf4jnsgd1na2vs0mg"},{"bike_id":"ead84735-1991-4501-b506-2229ced7058a","system_id":"levelo_inurba_marseille","lat":43.23087,"lon":5.35511,"is_reserved":false,"is_disabled":false,"rental_uris":{"android":"levelo://app?vid=ead84735-1991-4501-b506-2229ced7058a","ios":"levelo://app?vid=ead84735-1991-4501-b506-2229ced7058a"},"vehicle_type_id":"4","last_reported":1743275229,"current_range_meters":10000,"station_id":"cpo3342slgdg3j2ifvpg","pricing_plan_id":"cebpf4jnsgd1na2vs0mg"},{"bike_id":"8789d93b-7cae-442d-88a6-e4d7ac6e70e1","system_id":"levelo_inurba_marseille","lat":43.29523,"lon":5.39046,"is_reserved":false,"is_disabled":false,"rental_uris":{"android":"levelo://app?vid=8789d93b-7cae-442d-88a6-e4d7ac6e70e1","ios":"levelo://app?vid=8789d93b-7cae-442d-88a6-e4d7ac6e70e1"},"vehicle_type_id":"4","last_reported":1743275229,"current_range_meters":10000,"station_id":"ce4bh3p2rcd13ifvqdp0","pricing_plan_id":"cebpf4jnsgd1na2vs0mg"},{"bike_id":"89b372e0-e34b-4448-a651-9f0d9816c98e","system_id":"levelo_inurba_marseille","lat":43.24157,"lon":5.36431,"is_reserved":false,"is_disabled":false,"rental_uris":{"android":"levelo://app?vid=89b372e0-e34b-4448-a651-9f0d9816c98e","ios":"levelo://app?vid=89b372e0-e34b-4448-a651-9f0d9816c98e"},"vehicle_type_id":"4","last_reported":1743275229,"current_range_meters":10000,"station_id":"cpo36qri1sfpv3e86is0","pricing_plan_id":"cebpf4jnsgd1na2vs0mg"},{"bike_id":"2bd2d2e0-1dfb-4cbc-990f-1007a1f6e7a6","system_id":"levelo_inurba_marseille","lat":43.26965,"lon":5.38667,"is_reserved":false,"is_disabled":false,"rental_uris":{"android":"levelo://app?vid=2bd2d2e0-1dfb-4cbc-990f-1007a1f6e7a6","ios":"levelo://app?vid=2bd2d2e0-1dfb-4cbc-990f-1007a1f6e7a6"},"vehicle_type_id":"4","last_reported":1743275229,"current_range_meters":10000,"station_id":"ce4bhh92rcd13ifvqfh0","pricing_plan_id":"cebpf4jnsgd1na2vs0mg"},{"bike_id":"4a6d02dd-be95-4cf1-8370-4bcd24316523","system_id":"levelo_inurba_marseille","lat":43.284576,"lon":5.358809,"is_reserved":false,"is_disabled":false,"rental_uris":{"android":"levelo://app?vid=4a6d02dd-be95-4cf1-8370-4bcd24316523","ios":"levelo://app?vid=4a6d02dd-be95-4cf1-8370-4bcd24316523"},"vehicle_type_id":"4","last_reported":1743275229,"current_range_meters":10000,"station_id":"ce4bhah2rcd13ifvqei0","pricing_plan_id":"cebpf4jnsgd1na2vs0mg"},{"bike_id":"8743926a-4d2a-4ed6-afa9-212ba4b178f7","system_id":"levelo_inurba_marseille","lat":43.29594,"lon":5.38104,"is_reserved":false,"is_disabled":false,"rental_uris":{"android":"levelo://app?vid=8743926a-4d2a-4ed6-afa9-212ba4b178f7","ios":"levelo://app?vid=8743926a-4d2a-4ed6-afa9-212ba4b178f7"},"vehicle_type_id":"4","last_reported":1743275229,"current_range_meters":10000,"station_id":"ce4bgl12rcd13ifvqbo0","pricing_plan_id":"cebpf4jnsgd1na2vs0mg"},{"bike_id":"5dca16b0-0836-4d29-a112-b6ae5585b009","system_id":"levelo_inurba_marseille","lat":43.28609,"lon":5.35116,"is_reserved":false,"is_disabled":false,"rental_uris":{"android":"levelo://app?vid=5dca16b0-0836-4d29-a112-b6ae5585b009","ios":"levelo://app?vid=5dca16b0-0836-4d29-a112-b6ae5585b009"},"vehicle_type_id":"4","last_reported":1743275229,"current_range_meters":10000,"station_id":"ce4bhch2rcd13ifvqeug","pricing_plan_id":"cebpf4jnsgd1na2vs0mg"},{"bike_id":"818cd8f6-59f2-4685-b38b-ddc28c64e9af","system_id":"levelo_inurba_marseille","lat":43.292956,"lon":5.374556,"is_reserved":false,"is_disabled":false,"rental_uris":{"android":"levelo://app?vid=818cd8f6-59f2-4685-b38b-ddc28c64e9af","ios":"levelo://app?vid=818cd8f6-59f2-4685-b38b-ddc28c64e9af"},"vehicle_type_id":"4","last_reported":1743275229,"current_range_meters":10800,"station_id":"ce4bgi12rcd13ifvqb70","pricing_plan_id":"cebpf4jnsgd1na2vs0mg"},{"bike_id":"d0ed36b4-3c5a-4da6-8fb4-955c321dd03a","system_id":"levelo_inurba_marseille","lat":43.27511,"lon":5.41031,"is_reserved":false,"is_disabled":false,"rental_uris":{"android":"levelo://app?vid=d0ed36b4-3c5a-4da6-8fb4-955c321dd03a","ios":"levelo://app?vid=d0ed36b4-3c5a-4da6-8fb4-955c321dd03a"},"vehicle_type_id":"4","last_reported":1743275229,"current_range_meters":10800,"station_id":"","pricing_plan_id":"cebpf4jnsgd1na2vs0mg"},{"bike_id":"1596ab73-d24b-40c5-add8-dcca82eec39f","system_id":"levelo_inurba_marseille","lat":43.29276,"lon":5.38456,"is_reserved":false,"is_disabled":false,"rental_uris":{"android":"levelo://app?vid=1596ab73-d24b-40c5-add8-dcca82eec39f","ios":"levelo://app?vid=1596ab73-d24b-40c5-add8-dcca82eec39f"},"vehicle_type_id":"4","last_reported":1743275229,"current_range_meters":10800,"station_id":"ce4bh692rcd13ifvqea0","pricing_plan_id":"cebpf4jnsgd1na2vs0mg"},{"bike_id":"858eb3c8-26f4-4eff-8eee-da3ac0c8eeb9","system_id":"levelo_inurba_marseille","lat":43.29166,"lon":5.3717,"is_reserved":false,"is_disabled":false,"rental_uris":{"android":"levelo://app?vid=858eb3c8-26f4-4eff-8eee-da3ac0c8eeb9","ios":"levelo://app?vid=858eb3c8-26f4-4eff-8eee-da3ac0c8eeb9"},"vehicle_type_id":"4","last_reported":1743275229,"current_range_meters":10000,"station_id":"ce4bha92rcd13ifvqeh0","pricing_plan_id":"cebpf4jnsgd1na2vs0mg"},{"bike_id":"17f09a44-071c-4463-bb52-fedb9c22e007","system_id":"levelo_inurba_marseille","lat":43.255792,"lon":5.382409,"is_reserved":false,"is_disabled":false,"rental_uris":{"android":"levelo://app?vid=17f09a44-071c-4463-bb52-fedb9c22e007","ios":"levelo://app?vid=17f09a44-071c-4463-bb52-fedb9c22e007"},"vehicle_type_id":"4","last_reported":1743275229,"current_range_meters":10800,"station_id":"ce4bhih2rcd13ifvqfs0","pricing_plan_id":"cebpf4jnsgd1na2vs0mg"},{"bike_id":"004ed55f-f985-4268-b523-9ed16ba4ea3b","system_id":"levelo_inurba_marseille","lat":43.29304,"lon":5.36819,"is_reserved":false,"is_disabled":true,"rental_uris":{"android":"levelo://app?vid=004ed55f-f985-4268-b523-9ed16ba4ea3b","ios":"levelo://app?vid=004ed55f-f985-4268-b523-9ed16ba4ea3b"},"vehicle_type_id":"4","last_reported":1743275229,"current_range_meters":10800,"station_id":"ce4bhbp2rcd13ifvqesg","pricing_plan_id":"cebpf4jnsgd1na2vs0mg"},{"bike_id":"e6967797-29d0-4947-88e5-61bc42de65df","system_id":"levelo_inurba_marseille","lat":43.28636,"lon":5.35109,"is_reserved":false,"is_disabled":false,"rental_uris":{"android":"levelo://app?vid=e6967797-29d0-4947-88e5-61bc42de65df","ios":"levelo://app?vid=e6967797-29d0-4947-88e5-61bc42de65df"},"vehicle_type_id":"4","last_reported":1743275229,"current_range_meters":10800,"station_id":"ce4bhch2rcd13ifvqeug","pricing_plan_id":"cebpf4jnsgd1na2vs0mg"},{"bike_id":"96ac20e8-5840-4579-b371-184ec6253952","system_id":"levelo_inurba_marseille","lat":43.275,"lon":5.41144,"is_reserved":false,"is_disabled":false,"rental_uris":{"android":"levelo://app?vid=96ac20e8-5840-4579-b371-184ec6253952","ios":"levelo://app?vid=96ac20e8-5840-4579-b371-184ec6253952"},"vehicle_type_id":"4","last_reported":1743275229,"current_range_meters":10800,"station_id":"","pricing_plan_id":"cebpf4jnsgd1na2vs0mg"},{"bike_id":"c84282f9-0e94-46f6-a3ee-68da449c7e4d","system_id":"levelo_inurba_marseille","lat":43.29258,"lon":5.38456,"is_reserved":false,"is_disabled":false,"rental_uris":{"android":"levelo://app?vid=c84282f9-0e94-46f6-a3ee-68da449c7e4d","ios":"levelo://app?vid=c84282f9-0e94-46f6-a3ee-68da449c7e4d"},"vehicle_type_id":"4","last_reported":1743275229,"current_range_meters":10800,"station_id":"ce4bh692rcd13ifvqea0","pricing_plan_id":"cebpf4jnsgd1na2vs0mg"},{"bike_id":"44e3587e-e752-4a79-9100-14a25f81c185","system_id":"levelo_inurba_marseille","lat":43.28496,"lon":5.3858,"is_reserved":false,"is_disabled":false,"rental_uris":{"android":"levelo://app?vid=44e3587e-e752-4a79-9100-14a25f81c185","ios":"levelo://app?vid=44e3587e-e752-4a79-9100-14a25f81c185"},"vehicle_type_id":"4","last_reported":1743275229,"current_range_meters":10000,"station_id":"ce4bh8p2rcd13ifvqeb0","pricing_plan_id":"cebpf4jnsgd1na2vs0mg"},{"bike_id":"3f2bcfca-c616-4059-a95b-b1ee7948eb41","system_id":"levelo_inurba_marseille","lat":43.29856,"lon":5.3974,"is_reserved":false,"is_disabled":false,"rental_uris":{"android":"levelo://app?vid=3f2bcfca-c616-4059-a95b-b1ee7948eb41","ios":"levelo://app?vid=3f2bcfca-c616-4059-a95b-b1ee7948eb41"},"vehicle_type_id":"4","last_reported":1743275229,"current_range_meters":10800,"station_id":"ce4bh0h2rcd13ifvqd50","pricing_plan_id":"cebpf4jnsgd1na2vs0mg"},{"bike_id":"4fb641c9-0e9b-4032-9b68-3aa9edd2aa5a","system_id":"levelo_inurba_marseille","lat":43.30465,"lon":5.37908,"is_reserved":false,"is_disabled":false,"rental_uris":{"android":"levelo://app?vid=4fb641c9-0e9b-4032-9b68-3aa9edd2aa5a","ios":"levelo://app?vid=4fb641c9-0e9b-4032-9b68-3aa9edd2aa5a"},"vehicle_type_id":"4","last_reported":1743275229,"current_range_meters":10800,"station_id":"ce4bgup2rcd13ifvqcn0","pricing_plan_id":"cebpf4jnsgd1na2vs0mg"},{"bike_id":"a3e7a337-0d3b-4cc5-b08e-e22a14545146","system_id":"levelo_inurba_marseille","lat":43.31756,"lon":5.39003,"is_reserved":false,"is_disabled":false,"rental_uris":{"android":"levelo://app?vid=a3e7a337-0d3b-4cc5-b08e-e22a14545146","ios":"levelo://app?vid=a3e7a337-0d3b-4cc5-b08e-e22a14545146"},"vehicle_type_id":"4","last_reported":1743275229,"current_range_meters":10800,"station_id":"ce4bhqp2rcd13ifvqhng","pricing_plan_id":"cebpf4jnsgd1na2vs0mg"},{"bike_id":"d871a26c-bdd3-4190-ae0c-502f524ad221","system_id":"levelo_inurba_marseille","lat":43.2307,"lon":5.35497,"is_reserved":false,"is_disabled":false,"rental_uris":{"android":"levelo://app?vid=d871a26c-bdd3-4190-ae0c-502f524ad221","ios":"levelo://app?vid=d871a26c-bdd3-4190-ae0c-502f524ad221"},"vehicle_type_id":"4","last_reported":1743275229,"current_range_meters":10800,"station_id":"cpo3342slgdg3j2ifvpg","pricing_plan_id":"cebpf4jnsgd1na2vs0mg"},{"bike_id":"ffe8c000-d0cb-42ac-8c20-9086cb7365a8","system_id":"levelo_inurba_marseille","lat":43.29929,"lon":5.3654,"is_reserved":false,"is_disabled":false,"rental_uris":{"android":"levelo://app?vid=ffe8c000-d0cb-42ac-8c20-9086cb7365a8","ios":"levelo://app?vid=ffe8c000-d0cb-42ac-8c20-9086cb7365a8"},"vehicle_type_id":"4","last_reported":1743275229,"current_range_meters":11200,"station_id":"ce4bgm92rcd13ifvqbr0","pricing_plan_id":"cebpf4jnsgd1na2vs0mg"},{"bike_id":"906b540e-e920-417f-92b5-0ef35349f644","system_id":"levelo_inurba_marseille","lat":43.31542,"lon":5.39708,"is_reserved":false,"is_disabled":false,"rental_uris":{"android":"levelo://app?vid=906b540e-e920-417f-92b5-0ef35349f644","ios":"levelo://app?vid=906b540e-e920-417f-92b5-0ef35349f644"},"vehicle_type_id":"4","last_reported":1743275229,"current_range_meters":11600,"station_id":"","pricing_plan_id":"cebpf4jnsgd1na2vs0mg"},{"bike_id":"a7bba9a0-9f5d-4cdc-afd6-2001a0819dbc","system_id":"levelo_inurba_marseille","lat":43.28038,"lon":5.36955,"is_reserved":false,"is_disabled":false,"rental_uris":{"android":"levelo://app?vid=a7bba9a0-9f5d-4cdc-afd6-2001a0819dbc","ios":"levelo://app?vid=a7bba9a0-9f5d-4cdc-afd6-2001a0819dbc"},"vehicle_type_id":"4","last_reported":1743275229,"current_range_meters":11200,"station_id":"ce4bha12rcd13ifvqef0","pricing_plan_id":"cebpf4jnsgd1na2vs0mg"},{"bike_id":"a359ab16-14b3-430a-bbdb-bb3cbffdd21e","system_id":"levelo_inurba_marseille","lat":43.30948,"lon":5.39035,"is_reserved":false,"is_disabled":false,"rental_uris":{"android":"levelo://app?vid=a359ab16-14b3-430a-bbdb-bb3cbffdd21e","ios":"levelo://app?vid=a359ab16-14b3-430a-bbdb-bb3cbffdd21e"},"vehicle_type_id":"4","last_reported":1743275229,"current_range_meters":10800,"station_id":"ce4bgup2rcd13ifvqco0","pricing_plan_id":"cebpf4jnsgd1na2vs0mg"},{"bike_id":"747d2bc2-6706-42d9-8381-8fcc8fac62bd","system_id":"levelo_inurba_marseille","lat":43.28671,"lon":5.36982,"is_reserved":false,"is_disabled":true,"rental_uris":{"android":"levelo://app?vid=747d2bc2-6706-42d9-8381-8fcc8fac62bd","ios":"levelo://app?vid=747d2bc2-6706-42d9-8381-8fcc8fac62bd"},"vehicle_type_id":"4","last_reported":1743275229,"current_range_meters":11200,"station_id":"","pricing_plan_id":"cebpf4jnsgd1na2vs0mg"},{"bike_id":"f45cd157-5aba-4d41-b9b6-c660eb64c51b","system_id":"levelo_inurba_marseille","lat":43.29262,"lon":5.38439,"is_reserved":false,"is_disabled":false,"rental_uris":{"android":"levelo://app?vid=f45cd157-5aba-4d41-b9b6-c660eb64c51b","ios":"levelo://app?vid=f45cd157-5aba-4d41-b9b6-c660eb64c51b"},"vehicle_type_id":"4","last_reported":1743275229,"current_range_meters":11200,"station_id":"ce4bh692rcd13ifvqea0","pricing_plan_id":"cebpf4jnsgd1na2vs0mg"},{"bike_id":"b10372b2-54a2-47a9-9698-3b0bc2997ea8","system_id":"levelo_inurba_marseille","lat":43.29009,"lon":5.35616,"is_reserved":false,"is_disabled":false,"rental_uris":{"android":"levelo://app?vid=b10372b2-54a2-47a9-9698-3b0bc2997ea8","ios":"levelo://app?vid=b10372b2-54a2-47a9-9698-3b0bc2997ea8"},"vehicle_type_id":"4","last_reported":1743275229,"current_range_meters":11200,"station_id":"ce4bhb92rcd13ifvqen0","pricing_plan_id":"cebpf4jnsgd1na2vs0mg"},{"bike_id":"efff04da-c9e4-43ac-af1d-3d2959bd3159","system_id":"levelo_inurba_marseille","lat":43.23074,"lon":5.35517,"is_reserved":false,"is_disabled":false,"rental_uris":{"android":"levelo://app?vid=efff04da-c9e4-43ac-af1d-3d2959bd3159","ios":"levelo://app?vid=efff04da-c9e4-43ac-af1d-3d2959bd3159"},"vehicle_type_id":"4","last_reported":1743275229,"current_range_meters":11200,"station_id":"cpo3342slgdg3j2ifvpg","pricing_plan_id":"cebpf4jnsgd1na2vs0mg"},{"bike_id":"acf1e1c3-a629-4c7b-a838-cba3f3b54603","system_id":"levelo_inurba_marseille","lat":43.31873,"lon":5.3765,"is_reserved":false,"is_disabled":false,"rental_uris":{"android":"levelo://app?vid=acf1e1c3-a629-4c7b-a838-cba3f3b54603","ios":"levelo://app?vid=acf1e1c3-a629-4c7b-a838-cba3f3b54603"},"vehicle_type_id":"4","last_reported":1743275229,"current_range_meters":11200,"station_id":"","pricing_plan_id":"cebpf4jnsgd1na2vs0mg"},{"bike_id":"25bb5fbc-8229-4010-b703-31f5ee6ac141","system_id":"levelo_inurba_marseille","lat":43.30634,"lon":5.36584,"is_reserved":false,"is_disabled":false,"rental_uris":{"android":"levelo://app?vid=25bb5fbc-8229-4010-b703-31f5ee6ac141","ios":"levelo://app?vid=25bb5fbc-8229-4010-b703-31f5ee6ac141"},"vehicle_type_id":"4","last_reported":1743275229,"current_range_meters":11600,"station_id":"","pricing_plan_id":"cebpf4jnsgd1na2vs0mg"},{"bike_id":"76d4ed16-8625-4a14-a5f1-d28ac2574c13","system_id":"levelo_inurba_marseille","lat":43.24537,"lon":5.39537,"is_reserved":false,"is_disabled":false,"rental_uris":{"android":"levelo://app?vid=76d4ed16-8625-4a14-a5f1-d28ac2574c13","ios":"levelo://app?vid=76d4ed16-8625-4a14-a5f1-d28ac2574c13"},"vehicle_type_id":"4","last_reported":1743275229,"current_range_meters":11600,"station_id":"","pricing_plan_id":"cebpf4jnsgd1na2vs0mg"},{"bike_id":"92bfecbf-789d-4c73-ae76-0e5a1e2a6e8a","system_id":"levelo_inurba_marseille","lat":43.255778,"lon":5.38237,"is_reserved":false,"is_disabled":false,"rental_uris":{"android":"levelo://app?vid=92bfecbf-789d-4c73-ae76-0e5a1e2a6e8a","ios":"levelo://app?vid=92bfecbf-789d-4c73-ae76-0e5a1e2a6e8a"},"vehicle_type_id":"4","last_reported":1743275229,"current_range_meters":11600,"station_id":"ce4bhih2rcd13ifvqfs0","pricing_plan_id":"cebpf4jnsgd1na2vs0mg"},{"bike_id":"957e5f94-f38c-46dc-97ca-d85305e4e7f7","system_id":"levelo_inurba_marseille","lat":43.28155,"lon":5.42646,"is_reserved":false,"is_disabled":false,"rental_uris":{"android":"levelo://app?vid=957e5f94-f38c-46dc-97ca-d85305e4e7f7","ios":"levelo://app?vid=957e5f94-f38c-46dc-97ca-d85305e4e7f7"},"vehicle_type_id":"4","last_reported":1743275229,"current_range_meters":11600,"station_id":"ce4bhnh2rcd13ifvqgug","pricing_plan_id":"cebpf4jnsgd1na2vs0mg"},{"bike_id":"9e6169ef-5f71-4a72-b3c2-effde3fb2783","system_id":"levelo_inurba_marseille","lat":43.30425,"lon":5.4129,"is_reserved":false,"is_disabled":false,"rental_uris":{"android":"levelo://app?vid=9e6169ef-5f71-4a72-b3c2-effde3fb2783","ios":"levelo://app?vid=9e6169ef-5f71-4a72-b3c2-effde3fb2783"},"vehicle_type_id":"4","last_reported":1743275229,"current_range_meters":11600,"station_id":"ce4bhop2rcd13ifvqh8g","pricing_plan_id":"cebpf4jnsgd1na2vs0mg"},{"bike_id":"8dd7d797-529a-43ad-9743-aa8be349b310","system_id":"levelo_inurba_marseille","lat":43.30437,"lon":5.39747,"is_reserved":false,"is_disabled":false,"rental_uris":{"android":"levelo://app?vid=8dd7d797-529a-43ad-9743-aa8be349b310","ios":"levelo://app?vid=8dd7d797-529a-43ad-9743-aa8be349b310"},"vehicle_type_id":"4","last_reported":1743275229,"current_range_meters":11600,"station_id":"ce4bh092rcd13ifvqd20","pricing_plan_id":"cebpf4jnsgd1na2vs0mg"},{"bike_id":"b2e2de8c-fed5-41cd-b4ae-24737182ff6b","system_id":"levelo_inurba_marseille","lat":43.2996,"lon":5.38508,"is_reserved":false,"is_disabled":false,"rental_uris":{"android":"levelo://app?vid=b2e2de8c-fed5-41cd-b4ae-24737182ff6b","ios":"levelo://app?vid=b2e2de8c-fed5-41cd-b4ae-24737182ff6b"},"vehicle_type_id":"4","last_reported":1743275229,"current_range_meters":11600,"station_id":"ce4bgj92rcd13ifvqbd0","pricing_plan_id":"cebpf4jnsgd1na2vs0mg"},{"bike_id":"68b18088-7fe6-4e9c-8c47-14a3a0ea2c14","system_id":"levelo_inurba_marseille","lat":43.29291,"lon":5.37463,"is_reserved":false,"is_disabled":false,"rental_uris":{"android":"levelo://app?vid=68b18088-7fe6-4e9c-8c47-14a3a0ea2c14","ios":"levelo://app?vid=68b18088-7fe6-4e9c-8c47-14a3a0ea2c14"},"vehicle_type_id":"4","last_reported":1743275229,"current_range_meters":11600,"station_id":"ce4bgi12rcd13ifvqb70","pricing_plan_id":"cebpf4jnsgd1na2vs0mg"},{"bike_id":"e5c20276-6b57-4c18-9219-6f98f1797b1a","system_id":"levelo_inurba_marseille","lat":43.32333,"lon":5.40616,"is_reserved":false,"is_disabled":false,"rental_uris":{"android":"levelo://app?vid=e5c20276-6b57-4c18-9219-6f98f1797b1a","ios":"levelo://app?vid=e5c20276-6b57-4c18-9219-6f98f1797b1a"},"vehicle_type_id":"4","last_reported":1743275229,"current_range_meters":11600,"station_id":"ce4bhq92rcd13ifvqhjg","pricing_plan_id":"cebpf4jnsgd1na2vs0mg"},{"bike_id":"42bc7b23-0e2f-4d72-b583-40bcdabb28c7","system_id":"levelo_inurba_marseille","lat":43.29555,"lon":5.37428,"is_reserved":false,"is_disabled":false,"rental_uris":{"android":"levelo://app?vid=42bc7b23-0e2f-4d72-b583-40bcdabb28c7","ios":"levelo://app?vid=42bc7b23-0e2f-4d72-b583-40bcdabb28c7"},"vehicle_type_id":"4","last_reported":1743275229,"current_range_meters":12000,"station_id":"","pricing_plan_id":"cebpf4jnsgd1na2vs0mg"},{"bike_id":"1bf928b2-7ac9-41a7-adcc-77e0f5608510","system_id":"levelo_inurba_marseille","lat":43.32453,"lon":5.36397,"is_reserved":false,"is_disabled":false,"rental_uris":{"android":"levelo://app?vid=1bf928b2-7ac9-41a7-adcc-77e0f5608510","ios":"levelo://app?vid=1bf928b2-7ac9-41a7-adcc-77e0f5608510"},"vehicle_type_id":"4","last_reported":1743275229,"current_range_meters":12000,"station_id":"","pricing_plan_id":"cebpf4jnsgd1na2vs0mg"},{"bike_id":"b8b43c99-872d-4188-912b-59fca58be896","system_id":"levelo_inurba_marseille","lat":43.28413,"lon":5.37527,"is_reserved":false,"is_disabled":false,"rental_uris":{"android":"levelo://app?vid=b8b43c99-872d-4188-912b-59fca58be896","ios":"levelo://app?vid=b8b43c99-872d-4188-912b-59fca58be896"},"vehicle_type_id":"4","last_reported":1743275229,"current_range_meters":12000,"station_id":"ce4bh412rcd13ifvqds0","pricing_plan_id":"cebpf4jnsgd1na2vs0mg"},{"bike_id":"15e44165-59b3-4076-a4ef-750ccc44769a","system_id":"levelo_inurba_marseille","lat":43.31361,"lon":5.38495,"is_reserved":false,"is_disabled":false,"rental_uris":{"android":"levelo://app?vid=15e44165-59b3-4076-a4ef-750ccc44769a","ios":"levelo://app?vid=15e44165-59b3-4076-a4ef-750ccc44769a"},"vehicle_type_id":"4","last_reported":1743275229,"current_range_meters":12000,"station_id":"ce4bgt92rcd13ifvqcf0","pricing_plan_id":"cebpf4jnsgd1na2vs0mg"},{"bike_id":"24811c1e-4aa4-44cb-ac8b-f9b57d0f8121","system_id":"levelo_inurba_marseille","lat":43.27372,"lon":5.36252,"is_reserved":false,"is_disabled":false,"rental_uris":{"android":"levelo://app?vid=24811c1e-4aa4-44cb-ac8b-f9b57d0f8121","ios":"levelo://app?vid=24811c1e-4aa4-44cb-ac8b-f9b57d0f8121"},"vehicle_type_id":"4","last_reported":1743275229,"current_range_meters":12000,"station_id":"ce4bhbh2rcd13ifvqeo0","pricing_plan_id":"cebpf4jnsgd1na2vs0mg"},{"bike_id":"200b7d31-2db8-45cc-b36d-b9d670de9728","system_id":"levelo_inurba_marseille","lat":43.31451,"lon":5.37363,"is_reserved":false,"is_disabled":false,"rental_uris":{"android":"levelo://app?vid=200b7d31-2db8-45cc-b36d-b9d670de9728","ios":"levelo://app?vid=200b7d31-2db8-45cc-b36d-b9d670de9728"},"vehicle_type_id":"4","last_reported":1743275229,"current_range_meters":12000,"station_id":"","pricing_plan_id":"cebpf4jnsgd1na2vs0mg"},{"bike_id":"87d0842a-81ce-48e7-b969-6bfd05e4ee94","system_id":"levelo_inurba_marseille","lat":43.29296,"lon":5.37443,"is_reserved":false,"is_disabled":false,"rental_uris":{"android":"levelo://app?vid=87d0842a-81ce-48e7-b969-6bfd05e4ee94","ios":"levelo://app?vid=87d0842a-81ce-48e7-b969-6bfd05e4ee94"},"vehicle_type_id":"4","last_reported":1743275229,"current_range_meters":12000,"station_id":"ce4bgi12rcd13ifvqb70","pricing_plan_id":"cebpf4jnsgd1na2vs0mg"},{"bike_id":"046ec5fe-f5f0-48c0-a4fe-53ae595cca3d","system_id":"levelo_inurba_marseille","lat":43.30311,"lon":5.36896,"is_reserved":false,"is_disabled":false,"rental_uris":{"android":"levelo://app?vid=046ec5fe-f5f0-48c0-a4fe-53ae595cca3d","ios":"levelo://app?vid=046ec5fe-f5f0-48c0-a4fe-53ae595cca3d"},"vehicle_type_id":"4","last_reported":1743275229,"current_range_meters":12000,"station_id":"ce4bgqh2rcd13ifvqc5g","pricing_plan_id":"cebpf4jnsgd1na2vs0mg"},{"bike_id":"c74585e7-a743-4f23-8875-062b450b9bca","system_id":"levelo_inurba_marseille","lat":43.29416,"lon":5.38618,"is_reserved":false,"is_disabled":false,"rental_uris":{"android":"levelo://app?vid=c74585e7-a743-4f23-8875-062b450b9bca","ios":"levelo://app?vid=c74585e7-a743-4f23-8875-062b450b9bca"},"vehicle_type_id":"4","last_reported":1743275229,"current_range_meters":12000,"station_id":"ce4bh2h2rcd13ifvqdh0","pricing_plan_id":"cebpf4jnsgd1na2vs0mg"},{"bike_id":"d56db1bf-16f1-40a9-b240-ad453a967aec","system_id":"levelo_inurba_marseille","lat":43.29966,"lon":5.38497,"is_reserved":false,"is_disabled":false,"rental_uris":{"android":"levelo://app?vid=d56db1bf-16f1-40a9-b240-ad453a967aec","ios":"levelo://app?vid=d56db1bf-16f1-40a9-b240-ad453a967aec"},"vehicle_type_id":"4","last_reported":1743275229,"current_range_meters":11600,"station_id":"ce4bgj92rcd13ifvqbd0","pricing_plan_id":"cebpf4jnsgd1na2vs0mg"},{"bike_id":"b9a48a82-81db-4ca8-9011-df567dde8031","system_id":"levelo_inurba_marseille","lat":43.30561,"lon":5.36542,"is_reserved":false,"is_disabled":false,"rental_uris":{"android":"levelo://app?vid=b9a48a82-81db-4ca8-9011-df567dde8031","ios":"levelo://app?vid=b9a48a82-81db-4ca8-9011-df567dde8031"},"vehicle_type_id":"4","last_reported":1743275229,"current_range_meters":12000,"station_id":"ce4bgs12rcd13ifvqcag","pricing_plan_id":"cebpf4jnsgd1na2vs0mg"},{"bike_id":"2dd88066-6fcb-490e-85b8-341590006c9b","system_id":"levelo_inurba_marseille","lat":43.29795,"lon":5.38117,"is_reserved":false,"is_disabled":false,"rental_uris":{"android":"levelo://app?vid=2dd88066-6fcb-490e-85b8-341590006c9b","ios":"levelo://app?vid=2dd88066-6fcb-490e-85b8-341590006c9b"},"vehicle_type_id":"4","last_reported":1743275229,"current_range_meters":12000,"station_id":"ce4bgip2rcd13ifvqbb0","pricing_plan_id":"cebpf4jnsgd1na2vs0mg"},{"bike_id":"8cf4f201-930c-4d9c-9146-38a1c2c66eff","system_id":"levelo_inurba_marseille","lat":43.28404,"lon":5.35012,"is_reserved":false,"is_disabled":false,"rental_uris":{"android":"levelo://app?vid=8cf4f201-930c-4d9c-9146-38a1c2c66eff","ios":"levelo://app?vid=8cf4f201-930c-4d9c-9146-38a1c2c66eff"},"vehicle_type_id":"4","last_reported":1743275229,"current_range_meters":12000,"station_id":"ce4bhbh2rcd13ifvqepg","pricing_plan_id":"cebpf4jnsgd1na2vs0mg"},{"bike_id":"21b7dfed-4bf3-42a6-9071-9b2b5259da3c","system_id":"levelo_inurba_marseille","lat":43.29666,"lon":5.37166,"is_reserved":false,"is_disabled":true,"rental_uris":{"android":"levelo://app?vid=21b7dfed-4bf3-42a6-9071-9b2b5259da3c","ios":"levelo://app?vid=21b7dfed-4bf3-42a6-9071-9b2b5259da3c"},"vehicle_type_id":"4","last_reported":1743275229,"current_range_meters":12000,"station_id":"ce4bgnh2rcd13ifvqc0g","pricing_plan_id":"cebpf4jnsgd1na2vs0mg"},{"bike_id":"211e02b6-c381-4993-a223-66dc669f8c37","system_id":"levelo_inurba_marseille","lat":43.3016,"lon":5.37419,"is_reserved":false,"is_disabled":false,"rental_uris":{"android":"levelo://app?vid=211e02b6-c381-4993-a223-66dc669f8c37","ios":"levelo://app?vid=211e02b6-c381-4993-a223-66dc669f8c37"},"vehicle_type_id":"4","last_reported":1743275229,"current_range_meters":12400,"station_id":"ce4bgs92rcd13ifvqcc0","pricing_plan_id":"cebpf4jnsgd1na2vs0mg"},{"bike_id":"9f50066e-01fa-4519-9f61-8109fe65f5d9","system_id":"levelo_inurba_marseille","lat":43.29705,"lon":5.37125,"is_reserved":false,"is_disabled":false,"rental_uris":{"android":"levelo://app?vid=9f50066e-01fa-4519-9f61-8109fe65f5d9","ios":"levelo://app?vid=9f50066e-01fa-4519-9f61-8109fe65f5d9"},"vehicle_type_id":"4","last_reported":1743275229,"current_range_meters":12400,"station_id":"","pricing_plan_id":"cebpf4jnsgd1na2vs0mg"},{"bike_id":"dd38dd9d-7577-4b3c-9599-1a2bd5b97904","system_id":"levelo_inurba_marseille","lat":43.3029,"lon":5.3921,"is_reserved":false,"is_disabled":false,"rental_uris":{"android":"levelo://app?vid=dd38dd9d-7577-4b3c-9599-1a2bd5b97904","ios":"levelo://app?vid=dd38dd9d-7577-4b3c-9599-1a2bd5b97904"},"vehicle_type_id":"4","last_reported":1743275229,"current_range_meters":12400,"station_id":"ce4bgkh2rcd13ifvqbk0","pricing_plan_id":"cebpf4jnsgd1na2vs0mg"},{"bike_id":"653ea6de-a177-4007-9cfa-5f3f77e975f6","system_id":"levelo_inurba_marseille","lat":43.24812,"lon":5.37468,"is_reserved":false,"is_disabled":false,"rental_uris":{"android":"levelo://app?vid=653ea6de-a177-4007-9cfa-5f3f77e975f6","ios":"levelo://app?vid=653ea6de-a177-4007-9cfa-5f3f77e975f6"},"vehicle_type_id":"4","last_reported":1743275229,"current_range_meters":12400,"station_id":"ce4bhgh2rcd13ifvqfb0","pricing_plan_id":"cebpf4jnsgd1na2vs0mg"},{"bike_id":"1194d893-debc-41d7-b347-816267570776","system_id":"levelo_inurba_marseille","lat":43.3372,"lon":5.39205,"is_reserved":false,"is_disabled":false,"rental_uris":{"android":"levelo://app?vid=1194d893-debc-41d7-b347-816267570776","ios":"levelo://app?vid=1194d893-debc-41d7-b347-816267570776"},"vehicle_type_id":"4","last_reported":1743275229,"current_range_meters":12800,"station_id":"ce4bhr92rcd13ifvqhsg","pricing_plan_id":"cebpf4jnsgd1na2vs0mg"},{"bike_id":"a58b0b0d-42fa-4735-9e33-7aa0ba3d571d","system_id":"levelo_inurba_marseille","lat":43.30953,"lon":5.39035,"is_reserved":false,"is_disabled":false,"rental_uris":{"android":"levelo://app?vid=a58b0b0d-42fa-4735-9e33-7aa0ba3d571d","ios":"levelo://app?vid=a58b0b0d-42fa-4735-9e33-7aa0ba3d571d"},"vehicle_type_id":"4","last_reported":1743275229,"current_range_meters":12800,"station_id":"ce4bgup2rcd13ifvqco0","pricing_plan_id":"cebpf4jnsgd1na2vs0mg"},{"bike_id":"33d82c42-d308-4dac-aa24-b1ef4c4427be","system_id":"levelo_inurba_marseille","lat":43.24155,"lon":5.39758,"is_reserved":false,"is_disabled":false,"rental_uris":{"android":"levelo://app?vid=33d82c42-d308-4dac-aa24-b1ef4c4427be","ios":"levelo://app?vid=33d82c42-d308-4dac-aa24-b1ef4c4427be"},"vehicle_type_id":"4","last_reported":1743275229,"current_range_meters":12800,"station_id":"ce4bhn12rcd13ifvqgpg","pricing_plan_id":"cebpf4jnsgd1na2vs0mg"},{"bike_id":"56850dcd-2119-4808-9074-f7790712794c","system_id":"levelo_inurba_marseille","lat":43.28428,"lon":5.37543,"is_reserved":false,"is_disabled":false,"rental_uris":{"android":"levelo://app?vid=56850dcd-2119-4808-9074-f7790712794c","ios":"levelo://app?vid=56850dcd-2119-4808-9074-f7790712794c"},"vehicle_type_id":"4","last_reported":1743275229,"current_range_meters":13600,"station_id":"ce4bh412rcd13ifvqds0","pricing_plan_id":"cebpf4jnsgd1na2vs0mg"},{"bike_id":"e1f39489-366e-4c51-a52d-46e1e2648fdc","system_id":"levelo_inurba_marseille","lat":43.23209,"lon":5.35553,"is_reserved":false,"is_disabled":false,"rental_uris":{"android":"levelo://app?vid=e1f39489-366e-4c51-a52d-46e1e2648fdc","ios":"levelo://app?vid=e1f39489-366e-4c51-a52d-46e1e2648fdc"},"vehicle_type_id":"4","last_reported":1743275229,"current_range_meters":13600,"station_id":"ce4bhu92rcd13ifvqi70","pricing_plan_id":"cebpf4jnsgd1na2vs0mg"},{"bike_id":"86217e00-02b3-4f5a-9527-a1ee460fbdca","system_id":"levelo_inurba_marseille","lat":43.30196,"lon":5.39469,"is_reserved":false,"is_disabled":false,"rental_uris":{"android":"levelo://app?vid=86217e00-02b3-4f5a-9527-a1ee460fbdca","ios":"levelo://app?vid=86217e00-02b3-4f5a-9527-a1ee460fbdca"},"vehicle_type_id":"4","last_reported":1743275229,"current_range_meters":13600,"station_id":"ce4bh0p2rcd13ifvqd70","pricing_plan_id":"cebpf4jnsgd1na2vs0mg"},{"bike_id":"e53fb0b6-4828-47af-a0d0-116bdf650cf4","system_id":"levelo_inurba_marseille","lat":43.26695,"lon":5.38294,"is_reserved":false,"is_disabled":false,"rental_uris":{"android":"levelo://app?vid=e53fb0b6-4828-47af-a0d0-116bdf650cf4","ios":"levelo://app?vid=e53fb0b6-4828-47af-a0d0-116bdf650cf4"},"vehicle_type_id":"4","last_reported":1743275229,"current_range_meters":13600,"station_id":"ce4bhg92rcd13ifvqf90","pricing_plan_id":"cebpf4jnsgd1na2vs0mg"},{"bike_id":"1ab5b6dc-a944-44ad-9944-e3233676b492","system_id":"levelo_inurba_marseille","lat":43.31712,"lon":5.37749,"is_reserved":false,"is_disabled":false,"rental_uris":{"android":"levelo://app?vid=1ab5b6dc-a944-44ad-9944-e3233676b492","ios":"levelo://app?vid=1ab5b6dc-a944-44ad-9944-e3233676b492"},"vehicle_type_id":"4","last_reported":1743275229,"current_range_meters":13600,"station_id":"ce4bgth2rcd13ifvqch0","pricing_plan_id":"cebpf4jnsgd1na2vs0mg"},