{"last_updated":1742983857,"ttl":60,"version":"2.2","data":{"bikes":[{"bike_id":"02d89c4a-a672-478f-ab3c-b86864e6154c","system_id":"levelo_inurba_marseille","lat":43.24388,"lon":5.37064,"is_reserved":false,"is_disabled":false,"rental_uris":{"android":"levelo://app?vid=02d89c4a-a672-478f-ab3c-b86864e6154c","ios":"levelo://app?vid=02d89c4a-a672-478f-ab3c-b86864e6154c"},"vehicle_type_id":"4","last_reported":1742983857,"current_range_meters":2800,"station_id":"ce4bhhh2rcd13ifvqfk0","pricing_plan_id":"cebpf4jnsgd1na2vs0mg"},{"bike_id":"77c5e0ee-7e3d-4058-a081-035dbe8ca8a2","system_id":"levelo_inurba_marseille","lat":43.24174,"lon":5.39731,"is_reserved":false,"is_disabled":false,"rental_uris":{"android":"levelo://app?vid=77c5e0ee-7e3d-4058-a081-035dbe8ca8a2","ios":"levelo://app?vid=77c5e0ee-7e3d-4058-a081-035dbe8ca8a2"},"vehicle_type_id":"4","last_reported":1742983857,"current_range_meters":2800,"station_id":"ce4bhn12rcd13ifvqgpg","pricing_plan_id":"cebpf4jnsgd1na2vs0mg"},{"bike_id":"113eda5c-c33d-48d6-833a-f334ce033e65","system_id":"levelo_inurba_marseille","lat":43.25003,"lon":5.38956,"is_reserved":false,"is_disabled":false,"rental_uris":{"android":"levelo://app?vid=113eda5c-c33d-48d6-833a-f334ce033e65","ios":"levelo://app?vid=113eda5c-c33d-48d6-833a-f334ce033e65"},"vehicle_type_id":"4","last_reported":1742983857,"current_range_meters":3200,"station_id":"ce4bhgp2rcd13ifvqfd0","pricing_plan_id":"cebpf4jnsgd1na2vs0mg"},{"bike_id":"90f8bc9a-4f63-4730-b0f6-6ec827a55915","system_id":"levelo_inurba_marseille","lat":43.28099,"lon":5.37833,"is_reserved":false,"is_disabled":false,"rental_uris":{"android":"levelo://app?vid=90f8bc9a-4f63-4730-b0f6-6ec827a55915","ios":"levelo://app?vid=90f8bc9a-4f63-4730-b0f6-6ec827a55915"},"vehicle_type_id":"4","last_reported":1742983857,"current_range_meters":3200,"station_id":"ce4bha12rcd13ifvqee0","pricing_plan_id":"cebpf4jnsgd1na2vs0mg"},{"bike_id":"aaf0186d-c67a-41e5-8a89-cd92f4ad527f","system_id":"levelo_inurba_marseille","lat":43.33604,"lon":5.41026,"is_reserved":false,"is_disabled":false,"rental_uris":{"android":"levelo://app?vid=aaf0186d-c67a-41e5-8a89-cd92f4ad527f","ios":"levelo://app?vid=aaf0186d-c67a-41e5-8a89-cd92f4ad527f"},"vehicle_type_id":"4","last_reported":1742983857,"current_range_meters":3200,"station_id":"ce4bhqh2rcd13ifvqhmg","pricing_plan_id":"cebpf4jnsgd1na2vs0mg"},{"bike_id":"f18bc89f-2e71-4f15-b1b1-777493f16e8a","system_id":"levelo_inurba_marseille","lat":43.266903,"lon":5.382663,"is_reserved":false,"is_disabled":false,"rental_uris":{"android":"levelo://app?vid=f18bc89f-2e71-4f15-b1b1-777493f16e8a","ios":"levelo://app?vid=f18bc89f-2e71-4f15-b1b1-777493f16e8a"},"vehicle_type_id":"4","last_reported":1742983857,"current_range_meters":3200,"station_id":"ce4bhg92rcd13ifvqf90","pricing_plan_id":"cebpf4jnsgd1na2vs0mg"},{"bike_id":"e8807947-f9e0-4fef-9c45-2fb33d78380a","system_id":"levelo_inurba_marseille","lat":43.29254,"lon":5.37615,"is_reserved":false,"is_disabled":false,"rental_uris":{"android":"levelo://app?vid=e8807947-f9e0-4fef-9c45-2fb33d78380a","ios":"levelo://app?vid=e8807947-f9e0-4fef-9c45-2fb33d78380a"},"vehicle_type_id":"4","last_reported":1742983857,"current_range_meters":3200,"station_id":"ce4bgi12rcd13ifvqb80","pricing_plan_id":"cebpf4jnsgd1na2vs0mg"},{"bike_id":"3513a6f0-dbc9-4f37-8b52-79603521c288","system_id":"levelo_inurba_marseille","lat":43.23068,"lon":5.35465,"is_reserved":false,"is_disabled":false,"rental_uris":{"android":"levelo://app?vid=3513a6f0-dbc9-4f37-8b52-79603521c288","ios":"levelo://app?vid=3513a6f0-dbc9-4f37-8b52-79603521c288"},"vehicle_type_id":"4","last_reported":1742983857,"current_range_meters":3200,"station_id":"cpo3342slgdg3j2ifvpg","pricing_plan_id":"cebpf4jnsgd1na2vs0mg"},{"bike_id":"f1298c4c-a4c7-407b-829e-19eda175d7ce","system_id":"levelo_inurba_marseille","lat":43.26681,"lon":5.38261,"is_reserved":false,"is_disabled":false,"rental_uris":{"android":"levelo://app?vid=f1298c4c-a4c7-407b-829e-19eda175d7ce","ios":"levelo://app?vid=f1298c4c-a4c7-407b-829e-19eda175d7ce"},"vehicle_type_id":"4","last_reported":1742983857,"current_range_meters":3600,"station_id":"ce4bhg92rcd13ifvqf90","pricing_plan_id":"cebpf4jnsgd1na2vs0mg"},{"bike_id":"32f54dc6-3413-47f1-9b2d-810e06f763c7","system_id":"levelo_inurba_marseille","lat":43.29244,"lon":5.40906,"is_reserved":false,"is_disabled":false,"rental_uris":{"android":"levelo://app?vid=32f54dc6-3413-47f1-9b2d-810e06f763c7","ios":"levelo://app?vid=32f54dc6-3413-47f1-9b2d-810e06f763c7"},"vehicle_type_id":"4","last_reported":1742983857,"current_range_meters":3600,"station_id":"ce4bh192rcd13ifvqdc0","pricing_plan_id":"cebpf4jnsgd1na2vs0mg"},{"bike_id":"02c642d0-bab7-4205-b1fb-4419adeb4af1","system_id":"levelo_inurba_marseille","lat":43.29042,"lon":5.356,"is_reserved":false,"is_disabled":true,"rental_uris":{"android":"levelo://app?vid=02c642d0-bab7-4205-b1fb-4419adeb4af1","ios":"levelo://app?vid=02c642d0-bab7-4205-b1fb-4419adeb4af1"},"vehicle_type_id":"4","last_reported":1742983857,"current_range_meters":3600,"station_id":"","pricing_plan_id":"cebpf4jnsgd1na2vs0mg"},{"bike_id":"1d70ca98-568a-4f14-8eca-f7bb2194e34b","system_id":"levelo_inurba_marseille","lat":43.275,"lon":5.42451,"is_reserved":false,"is_disabled":false,"rental_uris":{"android":"levelo://app?vid=1d70ca98-568a-4f14-8eca-f7bb2194e34b","ios":"levelo://app?vid=1d70ca98-568a-4f14-8eca-f7bb2194e34b"},"vehicle_type_id":"4","last_reported":1742983857,"current_range_meters":4000,"station_id":"ce4bhn92rcd13ifvqgrg","pricing_plan_id":"cebpf4jnsgd1na2vs0mg"},{"bike_id":"5eb00e60-b5d9-4a65-9bba-344db36c1e04","system_id":"levelo_inurba_marseille","lat":43.25821,"lon":5.39411,"is_reserved":false,"is_disabled":false,"rental_uris":{"android":"levelo://app?vid=5eb00e60-b5d9-4a65-9bba-344db36c1e04","ios":"levelo://app?vid=5eb00e60-b5d9-4a65-9bba-344db36c1e04"},"vehicle_type_id":"4","last_reported":1742983857,"current_range_meters":4000,"station_id":"ce4bhip2rcd13ifvqft0","pricing_plan_id":"cebpf4jnsgd1na2vs0mg"},{"bike_id":"d50b4546-83d7-449d-b880-1ea25552ffb2","system_id":"levelo_inurba_marseille","lat":43.30885,"lon":5.3963,"is_reserved":false,"is_disabled":false,"rental_uris":{"android":"levelo://app?vid=d50b4546-83d7-449d-b880-1ea25552ffb2","ios":"levelo://app?vid=d50b4546-83d7-449d-b880-1ea25552ffb2"},"vehicle_type_id":"4","last_reported":1742983857,"current_range_meters":4000,"station_id":"ce4bh012rcd13ifvqcv0","pricing_plan_id":"cebpf4jnsgd1na2vs0mg"},{"bike_id":"c2826a42-9611-4d76-9da5-0170521c0d18","system_id":"levelo_inurba_marseille","lat":43.2466,"lon":5.38158,"is_reserved":false,"is_disabled":false,"rental_uris":{"android":"levelo://app?vid=c2826a42-9611-4d76-9da5-0170521c0d18","ios":"levelo://app?vid=c2826a42-9611-4d76-9da5-0170521c0d18"},"vehicle_type_id":"4","last_reported":1742983857,"current_range_meters":4000,"station_id":"ce4bhih2rcd13ifvqfr0","pricing_plan_id":"cebpf4jnsgd1na2vs0mg"},{"bike_id":"bc9e59da-24a5-43b2-9344-e686036c5b53","system_id":"levelo_inurba_marseille","lat":43.26066,"lon":5.39399,"is_reserved":false,"is_disabled":false,"rental_uris":{"android":"levelo://app?vid=bc9e59da-24a5-43b2-9344-e686036c5b53","ios":"levelo://app?vid=bc9e59da-24a5-43b2-9344-e686036c5b53"},"vehicle_type_id":"4","last_reported":1742983857,"current_range_meters":4000,"station_id":"ce4bhh92rcd13ifvqfj0","pricing_plan_id":"cebpf4jnsgd1na2vs0mg"},{"bike_id":"ed21bfb3-f4bd-47d5-b834-a2663f322f3e","system_id":"levelo_inurba_marseille","lat":43.302967,"lon":5.401015,"is_reserved":false,"is_disabled":false,"rental_uris":{"android":"levelo://app?vid=ed21bfb3-f4bd-47d5-b834-a2663f322f3e","ios":"levelo://app?vid=ed21bfb3-f4bd-47d5-b834-a2663f322f3e"},"vehicle_type_id":"4","last_reported":1742983857,"current_range_meters":4000,"station_id":"ce4bh512rcd13ifvqe2g","pricing_plan_id":"cebpf4jnsgd1na2vs0mg"},{"bike_id":"092dfe83-96ca-4e7f-aa20-d64e440ff664","system_id":"levelo_inurba_marseille","lat":43.26958,"lon":5.38638,"is_reserved":false,"is_disabled":false,"rental_uris":{"android":"levelo://app?vid=092dfe83-96ca-4e7f-aa20-d64e440ff664","ios":"levelo://app?vid=092dfe83-96ca-4e7f-aa20-d64e440ff664"},"vehicle_type_id":"4","last_reported":1742983857,"current_range_meters":4000,"station_id":"ce4bhh92rcd13ifvqfh0","pricing_plan_id":"cebpf4jnsgd1na2vs0mg"},{"bike_id":"addcbf71-41cb-418b-9295-5a60cf5dd32a","system_id":"levelo_inurba_marseille","lat":43.30785,"lon":5.37641,"is_reserved":false,"is_disabled":false,"rental_uris":{"android":"levelo://app?vid=addcbf71-41cb-418b-9295-5a60cf5dd32a","ios":"levelo://app?vid=addcbf71-41cb-418b-9295-5a60cf5dd32a"},"vehicle_type_id":"4","last_reported":1742983857,"current_range_meters":4400,"station_id":"ce4bgv92rcd13ifvqcq0","pricing_plan_id":"cebpf4jnsgd1na2vs0mg"},{"bike_id":"71f21b44-3eb7-4439-bde2-3e801932d863","system_id":"levelo_inurba_marseille","lat":43.23195,"lon":5.35555,"is_reserved":false,"is_disabled":false,"rental_uris":{"android":"levelo://app?vid=71f21b44-3eb7-4439-bde2-3e801932d863","ios":"levelo://app?vid=71f21b44-3eb7-4439-bde2-3e801932d863"},"vehicle_type_id":"4","last_reported":1742983857,"current_range_meters":4400,"station_id":"ce4bhu92rcd13ifvqi70","pricing_plan_id":"cebpf4jnsgd1na2vs0mg"},{"bike_id":"91d0237f-a63d-4720-a52d-bc00fe8babab","system_id":"levelo_inurba_marseille","lat":43.301482,"lon":5.380741,"is_reserved":false,"is_disabled":false,"rental_uris":{"android":"levelo://app?vid=91d0237f-a63d-4720-a52d-bc00fe8babab","ios":"levelo://app?vid=91d0237f-a63d-4720-a52d-bc00fe8babab"},"vehicle_type_id":"4","last_reported":1742983857,"current_range_meters":4400,"station_id":"ce4bgjp2rcd13ifvqbh0","pricing_plan_id":"cebpf4jnsgd1na2vs0mg"},{"bike_id":"38e476a3-7fa7-42ff-bc10-2fcb40220abd","system_id":"levelo_inurba_marseille","lat":43.23205,"lon":5.35544,"is_reserved":false,"is_disabled":false,"rental_uris":{"android":"levelo://app?vid=38e476a3-7fa7-42ff-bc10-2fcb40220abd","ios":"levelo://app?vid=38e476a3-7fa7-42ff-bc10-2fcb40220abd"},"vehicle_type_id":"4","last_reported":1742983857,"current_range_meters":4400,"station_id":"ce4bhu92rcd13ifvqi70","pricing_plan_id":"cebpf4jnsgd1na2vs0mg"},{"bike_id":"5a38931b-2d7b-4bf3-8299-4a90c2fd7d7b","system_id":"levelo_inurba_marseille","lat":43.24663,"lon":5.38165,"is_reserved":false,"is_disabled":false,"rental_uris":{"android":"levelo://app?vid=5a38931b-2d7b-4bf3-8299-4a90c2fd7d7b","ios":"levelo://app?vid=5a38931b-2d7b-4bf3-8299-4a90c2fd7d7b"},"vehicle_type_id":"4","last_reported":1742983857,"current_range_meters":4400,"station_id":"ce4bhih2rcd13ifvqfr0","pricing_plan_id":"cebpf4jnsgd1na2vs0mg"},{"bike_id":"74bcbd0c-d142-4f60-860e-dd52bea74502","system_id":"levelo_inurba_marseille","lat":43.231463,"lon":5.437153,"is_reserved":false,"is_disabled":false,"rental_uris":{"android":"levelo://app?vid=74bcbd0c-d142-4f60-860e-dd52bea74502","ios":"levelo://app?vid=74bcbd0c-d142-4f60-860e-dd52bea74502"},"vehicle_type_id":"4","last_reported":1742983857,"current_range_meters":4400,"station_id":"ce4bhmp2rcd13ifvqgog","pricing_plan_id":"cebpf4jnsgd1na2vs0mg"},{"bike_id":"66f69882-9bc0-4f69-af42-1e4faa3ed134","system_id":"levelo_inurba_marseille","lat":43.29897,"lon":5.43636,"is_reserved":false,"is_disabled":false,"rental_uris":{"android":"levelo://app?vid=66f69882-9bc0-4f69-af42-1e4faa3ed134","ios":"levelo://app?vid=66f69882-9bc0-4f69-af42-1e4faa3ed134"},"vehicle_type_id":"4","last_reported":1742983857,"current_range_meters":4800,"station_id":"ce4bhpp2rcd13ifvqhfg","pricing_plan_id":"cebpf4jnsgd1na2vs0mg"},{"bike_id":"ef43d9bd-e531-4a59-b8a9-fdc80b41fa34","system_id":"levelo_inurba_marseille","lat":43.31268,"lon":5.40173,"is_reserved":false,"is_disabled":false,"rental_uris":{"android":"levelo://app?vid=ef43d9bd-e531-4a59-b8a9-fdc80b41fa34","ios":"levelo://app?vid=ef43d9bd-e531-4a59-b8a9-fdc80b41fa34"},"vehicle_type_id":"4","last_reported":1742983857,"current_range_meters":4800,"station_id":"ce4bh092rcd13ifvqd30","pricing_plan_id":"cebpf4jnsgd1na2vs0mg"},{"bike_id":"731571a8-8570-46cf-8be8-be6fb950820d","system_id":"levelo_inurba_marseille","lat":43.3057,"lon":5.36688,"is_reserved":false,"is_disabled":false,"rental_uris":{"android":"levelo://app?vid=731571a8-8570-46cf-8be8-be6fb950820d","ios":"levelo://app?vid=731571a8-8570-46cf-8be8-be6fb950820d"},"vehicle_type_id":"4","last_reported":1742983857,"current_range_meters":4800,"station_id":"ce4bgrp2rcd13ifvqc9g","pricing_plan_id":"cebpf4jnsgd1na2vs0mg"},{"bike_id":"5063e6ba-1ec3-4506-96dd-7e5b64f3bc86","system_id":"levelo_inurba_marseille","lat":43.30172,"lon":5.38093,"is_reserved":false,"is_disabled":false,"rental_uris":{"android":"levelo://app?vid=5063e6ba-1ec3-4506-96dd-7e5b64f3bc86","ios":"levelo://app?vid=5063e6ba-1ec3-4506-96dd-7e5b64f3bc86"},"vehicle_type_id":"4","last_reported":1742983857,"current_range_meters":4800,"station_id":"ce4bgjp2rcd13ifvqbh0","pricing_plan_id":"cebpf4jnsgd1na2vs0mg"},{"bike_id":"5f6b9c43-1155-434b-b436-9c9db467e635","system_id":"levelo_inurba_marseille","lat":43.28154,"lon":5.42646,"is_reserved":false,"is_disabled":false,"rental_uris":{"android":"levelo://app?vid=5f6b9c43-1155-434b-b436-9c9db467e635","ios":"levelo://app?vid=5f6b9c43-1155-434b-b436-9c9db467e635"},"vehicle_type_id":"4","last_reported":1742983857,"current_range_meters":4400,"station_id":"ce4bhnh2rcd13ifvqgug","pricing_plan_id":"cebpf4jnsgd1na2vs0mg"},{"bike_id":"2a00e69f-e8f0-4293-a71f-9f6c011d4f23","system_id":"levelo_inurba_marseille","lat":43.2501,"lon":5.389264,"is_reserved":false,"is_disabled":false,"rental_uris":{"android":"levelo://app?vid=2a00e69f-e8f0-4293-a71f-9f6c011d4f23","ios":"levelo://app?vid=2a00e69f-e8f0-4293-a71f-9f6c011d4f23"},"vehicle_type_id":"4","last_reported":1742983857,"current_range_meters":5600,"station_id":"ce4bhgp2rcd13ifvqfd0","pricing_plan_id":"cebpf4jnsgd1na2vs0mg"},{"bike_id":"a0d4632a-7a87-4031-aeeb-061ca0feaca6","system_id":"levelo_inurba_marseille","lat":43.239367,"lon":5.366663,"is_reserved":false,"is_disabled":false,"rental_uris":{"android":"levelo://app?vid=a0d4632a-7a87-4031-aeeb-061ca0feaca6","ios":"levelo://app?vid=a0d4632a-7a87-4031-aeeb-061ca0feaca6"},"vehicle_type_id":"4","last_reported":1742983857,"current_range_meters":5600,"station_id":"ce4bhi12rcd13ifvqfp0","pricing_plan_id":"cebpf4jnsgd1na2vs0mg"},{"bike_id":"f0dc1799-be0b-41f2-87a2-bbe5c38b40e1","system_id":"levelo_inurba_marseille","lat":43.30603,"lon":5.39323,"is_reserved":false,"is_disabled":true,"rental_uris":{"android":"levelo://app?vid=f0dc1799-be0b-41f2-87a2-bbe5c38b40e1","ios":"levelo://app?vid=f0dc1799-be0b-41f2-87a2-bbe5c38b40e1"},"vehicle_type_id":"4","last_reported":1742983857,"current_range_meters":5600,"station_id":"ce4bh0p2rcd13ifvqd80","pricing_plan_id":"cebpf4jnsgd1na2vs0mg"},{"bike_id":"6e38dec4-9f97-48ce-aeaf-8ff8c2a020e9","system_id":"levelo_inurba_marseille","lat":43.25874,"lon":5.4083,"is_reserved":false,"is_disabled":false,"rental_uris":{"android":"levelo://app?vid=6e38dec4-9f97-48ce-aeaf-8ff8c2a020e9","ios":"levelo://app?vid=6e38dec4-9f97-48ce-aeaf-8ff8c2a020e9"},"vehicle_type_id":"4","last_reported":1742983857,"current_range_meters":5600,"station_id":"ce4bhm92rcd13ifvqglg","pricing_plan_id":"cebpf4jnsgd1na2vs0mg"},{"bike_id":"2525498b-3464-4aa5-8f0b-9a3572db0219","system_id":"levelo_inurba_marseille","lat":43.3038,"lon":5.42495,"is_reserved":false,"is_disabled":false,"rental_uris":{"android":"levelo://app?vid=2525498b-3464-4aa5-8f0b-9a3572db0219","ios":"levelo://app?vid=2525498b-3464-4aa5-8f0b-9a3572db0219"},"vehicle_type_id":"4","last_reported":1742983857,"current_range_meters":5600,"station_id":"ce4bhoh2rcd13ifvqh6g","pricing_plan_id":"cebpf4jnsgd1na2vs0mg"},{"bike_id":"52d363fe-5316-4f57-b127-d18678d2192d","system_id":"levelo_inurba_marseille","lat":43.303109,"lon":5.369131,"is_reserved":false,"is_disabled":false,"rental_uris":{"android":"levelo://app?vid=52d363fe-5316-4f57-b127-d18678d2192d","ios":"levelo://app?vid=52d363fe-5316-4f57-b127-d18678d2192d"},"vehicle_type_id":"4","last_reported":1742983857,"current_range_meters":5600,"station_id":"ce4bgqh2rcd13ifvqc5g","pricing_plan_id":"cebpf4jnsgd1na2vs0mg"},{"bike_id":"ce405703-bbfb-41e0-b44a-67b47c482b33","system_id":"levelo_inurba_marseille","lat":43.2934,"lon":5.37197,"is_reserved":false,"is_disabled":false,"rental_uris":{"android":"levelo://app?vid=ce405703-bbfb-41e0-b44a-67b47c482b33","ios":"levelo://app?vid=ce405703-bbfb-41e0-b44a-67b47c482b33"},"vehicle_type_id":"4","last_reported":1742983857,"current_range_meters":5600,"station_id":"ce4bgh92rcd13ifvqb40","pricing_plan_id":"cebpf4jnsgd1na2vs0mg"},{"bike_id":"6014c8c5-d179-414f-ba5e-6122a0b3b802","system_id":"levelo_inurba_marseille","lat":43.23122,"lon":5.43696,"is_reserved":false,"is_disabled":false,"rental_uris":{"android":"levelo://app?vid=6014c8c5-d179-414f-ba5e-6122a0b3b802","ios":"levelo://app?vid=6014c8c5-d179-414f-ba5e-6122a0b3b802"},"vehicle_type_id":"4","last_reported":1742983857,"current_range_meters":5600,"station_id":"ce4bhmp2rcd13ifvqgog","pricing_plan_id":"cebpf4jnsgd1na2vs0mg"},{"bike_id":"84e388a4-270d-4135-b8c0-719bc5ba2530","system_id":"levelo_inurba_marseille","lat":43.27189,"lon":5.40986,"is_reserved":false,"is_disabled":false,"rental_uris":{"android":"levelo://app?vid=84e388a4-270d-4135-b8c0-719bc5ba2530","ios":"levelo://app?vid=84e388a4-270d-4135-b8c0-719bc5ba2530"},"vehicle_type_id":"4","last_reported":1742983857,"current_range_meters":6000,"station_id":"ce4bhl12rcd13ifvqgf0","pricing_plan_id":"cebpf4jnsgd1na2vs0mg"},{"bike_id":"3f3dc18c-6df6-4f10-bdb6-bb2ee80a2e60","system_id":"levelo_inurba_marseille","lat":43.27175,"lon":5.39187,"is_reserved":false,"is_disabled":false,"rental_uris":{"android":"levelo://app?vid=3f3dc18c-6df6-4f10-bdb6-bb2ee80a2e60","ios":"levelo://app?vid=3f3dc18c-6df6-4f10-bdb6-bb2ee80a2e60"},"vehicle_type_id":"4","last_reported":1742983857,"current_range_meters":6000,"station_id":"ce4bhhp2rcd13ifvqfm0","pricing_plan_id":"cebpf4jnsgd1na2vs0mg"},{"bike_id":"b10a8c40-550e-4072-a4c6-55da87e1264d","system_id":"levelo_inurba_marseille","lat":43.23151,"lon":5.43722,"is_reserved":false,"is_disabled":false,"rental_uris":{"android":"levelo://app?vid=b10a8c40-550e-4072-a4c6-55da87e1264d","ios":"levelo://app?vid=b10a8c40-550e-4072-a4c6-55da87e1264d"},"vehicle_type_id":"4","last_reported":1742983857,"current_range_meters":6000,"station_id":"ce4bhmp2rcd13ifvqgog","pricing_plan_id":"cebpf4jnsgd1na2vs0mg"},{"bike_id":"11552578-f9ac-4337-9e06-324baee8a961","system_id":"levelo_inurba_marseille","lat":43.28849,"lon":5.35844,"is_reserved":false,"is_disabled":false,"rental_uris":{"android":"levelo://app?vid=11552578-f9ac-4337-9e06-324baee8a961","ios":"levelo://app?vid=11552578-f9ac-4337-9e06-324baee8a961"},"vehicle_type_id":"4","last_reported":1742983857,"current_range_meters":6000,"station_id":"ce4bhb12rcd13ifvqem0","pricing_plan_id":"cebpf4jnsgd1na2vs0mg"},{"bike_id":"2a99ecb7-4bf0-4c00-89bb-11ff019b8a6d","system_id":"levelo_inurba_marseille","lat":43.22933,"lon":5.35376,"is_reserved":false,"is_disabled":false,"rental_uris":{"android":"levelo://app?vid=2a99ecb7-4bf0-4c00-89bb-11ff019b8a6d","ios":"levelo://app?vid=2a99ecb7-4bf0-4c00-89bb-11ff019b8a6d"},"vehicle_type_id":"4","last_reported":1742983857,"current_range_meters":6400,"station_id":"cpo3532slgdg3j2ikp40","pricing_plan_id":"cebpf4jnsgd1na2vs0mg"},{"bike_id":"19fdbebf-f11d-4ae8-a306-3b7c77193b59","system_id":"levelo_inurba_marseille","lat":43.30797,"lon":5.43519,"is_reserved":false,"is_disabled":false,"rental_uris":{"android":"levelo://app?vid=19fdbebf-f11d-4ae8-a306-3b7c77193b59","ios":"levelo://app?vid=19fdbebf-f11d-4ae8-a306-3b7c77193b59"},"vehicle_type_id":"4","last_reported":1742983857,"current_range_meters":6400,"station_id":"ce4bhph2rcd13ifvqheg","pricing_plan_id":"cebpf4jnsgd1na2vs0mg"},{"bike_id":"de122bcd-19fc-43a4-b91e-4dd2001b5c5a","system_id":"levelo_inurba_marseille","lat":43.30518,"lon":5.36705,"is_reserved":false,"is_disabled":false,"rental_uris":{"android":"levelo://app?vid=de122bcd-19fc-43a4-b91e-4dd2001b5c5a","ios":"levelo://app?vid=de122bcd-19fc-43a4-b91e-4dd2001b5c5a"},"vehicle_type_id":"4","last_reported":1742983857,"current_range_meters":6400,"station_id":"ce4bgrp2rcd13ifvqc9g","pricing_plan_id":"cebpf4jnsgd1na2vs0mg"},{"bike_id":"c27804bd-f22b-4f5e-b0b6-7240b2cee169","system_id":"levelo_inurba_marseille","lat":43.23159,"lon":5.4371,"is_reserved":false,"is_disabled":false,"rental_uris":{"android":"levelo://app?vid=c27804bd-f22b-4f5e-b0b6-7240b2cee169","ios":"levelo://app?vid=c27804bd-f22b-4f5e-b0b6-7240b2cee169"},"vehicle_type_id":"4","last_reported":1742983857,"current_range_meters":6400,"station_id":"ce4bhmp2rcd13ifvqgog","pricing_plan_id":"cebpf4jnsgd1na2vs0mg"},{"bike_id":"66932dd7-5103-40d5-a48d-85119bac2c2f","system_id":"levelo_inurba_marseille","lat":43.25866,"lon":5.39892,"is_reserved":false,"is_disabled":false,"rental_uris":{"android":"levelo://app?vid=66932dd7-5103-40d5-a48d-85119bac2c2f","ios":"levelo://app?vid=66932dd7-5103-40d5-a48d-85119bac2c2f"},"vehicle_type_id":"4","last_reported":1742983857,"current_range_meters":6400,"station_id":"ce4bhl92rcd13ifvqghg","pricing_plan_id":"cebpf4jnsgd1na2vs0mg"},{"bike_id":"cff6bd6d-50aa-4c78-8a49-2bedb2e64388","system_id":"levelo_inurba_marseille","lat":43.29927,"lon":5.36541,"is_reserved":false,"is_disabled":false,"rental_uris":{"android":"levelo://app?vid=cff6bd6d-50aa-4c78-8a49-2bedb2e64388","ios":"levelo://app?vid=cff6bd6d-50aa-4c78-8a49-2bedb2e64388"},"vehicle_type_id":"4","last_reported":1742983857,"current_range_meters":6400,"station_id":"ce4bgm92rcd13ifvqbr0","pricing_plan_id":"cebpf4jnsgd1na2vs0mg"},{"bike_id":"661ad638-f20a-4099-990d-7e316fc20bf4","system_id":"levelo_inurba_marseille","lat":43.27453,"lon":5.39394,"is_reserved":false,"is_disabled":false,"rental_uris":{"android":"levelo://app?vid=661ad638-f20a-4099-990d-7e316fc20bf4","ios":"levelo://app?vid=661ad638-f20a-4099-990d-7e316fc20bf4"},"vehicle_type_id":"4","last_reported":1742983857,"current_range_meters":6400,"station_id":"","pricing_plan_id":"cebpf4jnsgd1na2vs0mg"},{"bike_id":"06386015-1121-49bb-aa6e-b2a42338e148","system_id":"levelo_inurba_marseille","lat":43.33023,"lon":5.39043,"is_reserved":false,"is_disabled":false,"rental_uris":{"android":"levelo://app?vid=06386015-1121-49bb-aa6e-b2a42338e148","ios":"levelo://app?vid=06386015-1121-49bb-aa6e-b2a42338e148"},"vehicle_type_id":"4","last_reported":1742983857,"current_range_meters":6800,"station_id":"ce4bhr92rcd13ifvqhrg","pricing_plan_id":"cebpf4jnsgd1na2vs0mg"},{"bike_id":"2a79e2c1-8c1d-4d16-a18f-639b8dd7ff61","system_id":"levelo_inurba_marseille","lat":43.24804,"lon":5.37453,"is_reserved":false,"is_disabled":false,"rental_uris":{"android":"levelo://app?vid=2a79e2c1-8c1d-4d16-a18f-639b8dd7ff61","ios":"levelo://app?vid=2a79e2c1-8c1d-4d16-a18f-639b8dd7ff61"},"vehicle_type_id":"4","last_reported":1742983857,"current_range_meters":6800,"station_id":"ce4bhgh2rcd13ifvqfb0","pricing_plan_id":"cebpf4jnsgd1na2vs0mg"},{"bike_id":"d9f7d8be-9425-4103-9342-1eabe2318a05","system_id":"levelo_inurba_marseille","lat":43.26727,"lon":5.38306,"is_reserved":false,"is_disabled":false,"rental_uris":{"android":"levelo://app?vid=d9f7d8be-9425-4103-9342-1eabe2318a05","ios":"levelo://app?vid=d9f7d8be-9425-4103-9342-1eabe2318a05"},"vehicle_type_id":"4","last_reported":1742983857,"current_range_meters":6800,"station_id":"ce4bhg92rcd13ifvqf90","pricing_plan_id":"cebpf4jnsgd1na2vs0mg"},{"bike_id":"0f98b1cf-6367-4c5f-b80d-54ddf72efd03","system_id":"levelo_inurba_marseille","lat":43.24647,"lon":5.38896,"is_reserved":false,"is_disabled":false,"rental_uris":{"android":"levelo://app?vid=0f98b1cf-6367-4c5f-b80d-54ddf72efd03","ios":"levelo://app?vid=0f98b1cf-6367-4c5f-b80d-54ddf72efd03"},"vehicle_type_id":"4","last_reported":1742983857,"current_range_meters":6400,"station_id":"ce4bhg12rcd13ifvqf60","pricing_plan_id":"cebpf4jnsgd1na2vs0mg"},{"bike_id":"5c1f3ef0-e1c8-48b3-b3d1-00509b648686","system_id":"levelo_inurba_marseille","lat":43.24544,"lon":5.39522,"is_reserved":false,"is_disabled":false,"rental_uris":{"android":"levelo://app?vid=5c1f3ef0-e1c8-48b3-b3d1-00509b648686","ios":"levelo://app?vid=5c1f3ef0-e1c8-48b3-b3d1-00509b648686"},"vehicle_type_id":"4","last_reported":1742983857,"current_range_meters":6800,"station_id":"ce4bhlp2rcd13ifvqgjg","pricing_plan_id":"cebpf4jnsgd1na2vs0mg"},{"bike_id":"816ea65c-9a0d-4cd1-9919-758c732903db","system_id":"levelo_inurba_marseille","lat":43.30888,"lon":5.37177,"is_reserved":false,"is_disabled":false,"rental_uris":{"android":"levelo://app?vid=816ea65c-9a0d-4cd1-9919-758c732903db","ios":"levelo://app?vid=816ea65c-9a0d-4cd1-9919-758c732903db"},"vehicle_type_id":"4","last_reported":1742983857,"current_range_meters":6800,"station_id":"ce4bguh2rcd13ifvqckg","pricing_plan_id":"cebpf4jnsgd1na2vs0mg"},{"bike_id":"ae64d049-3c54-4b63-a552-b1e07d06f548","system_id":"levelo_inurba_marseille","lat":43.2572,"lon":5.41105,"is_reserved":false,"is_disabled":false,"rental_uris":{"android":"levelo://app?vid=ae64d049-3c54-4b63-a552-b1e07d06f548","ios":"levelo://app?vid=ae64d049-3c54-4b63-a552-b1e07d06f548"},"vehicle_type_id":"4","last_reported":1742983857,"current_range_meters":6800,"station_id":"ce4bho12rcd13ifvqh1g","pricing_plan_id":"cebpf4jnsgd1na2vs0mg"},{"bike_id":"4391582d-58aa-45d7-9475-5c5bfbb8630c","system_id":"levelo_inurba_marseille","lat":43.30141,"lon":5.37417,"is_reserved":false,"is_disabled":false,"rental_uris":{"android":"levelo://app?vid=4391582d-58aa-45d7-9475-5c5bfbb8630c","ios":"levelo://app?vid=4391582d-58aa-45d7-9475-5c5bfbb8630c"},"vehicle_type_id":"4","last_reported":1742983857,"current_range_meters":6800,"station_id":"ce4bgs92rcd13ifvqcc0","pricing_plan_id":"cebpf4jnsgd1na2vs0mg"},{"bike_id":"22a21f30-f926-4b55-9440-4d8cdfed855e","system_id":"levelo_inurba_marseille","lat":43.25935,"lon":5.40879,"is_reserved":false,"is_disabled":false,"rental_uris":{"android":"levelo://app?vid=22a21f30-f926-4b55-9440-4d8cdfed855e","ios":"levelo://app?vid=22a21f30-f926-4b55-9440-4d8cdfed855e"},"vehicle_type_id":"4","last_reported":1742983857,"current_range_meters":7200,"station_id":"ce4bhm92rcd13ifvqglg","pricing_plan_id":"cebpf4jnsgd1na2vs0mg"},{"bike_id":"ccd7db91-2a06-4510-bd3a-6e7707ab1a6b","system_id":"levelo_inurba_marseille","lat":43.30944,"lon":5.3903,"is_reserved":false,"is_disabled":true,"rental_uris":{"android":"levelo://app?vid=ccd7db91-2a06-4510-bd3a-6e7707ab1a6b","ios":"levelo://app?vid=ccd7db91-2a06-4510-bd3a-6e7707ab1a6b"},"vehicle_type_id":"4","last_reported":1742983857,"current_range_meters":7200,"station_id":"ce4bgup2rcd13ifvqco0","pricing_plan_id":"cebpf4jnsgd1na2vs0mg"},{"bike_id":"40aea8ca-b5e5-4267-a1e3-f70f6de3777b","system_id":"levelo_inurba_marseille","lat":43.25022,"lon":5.38935,"is_reserved":false,"is_disabled":false,"rental_uris":{"android":"levelo://app?vid=40aea8ca-b5e5-4267-a1e3-f70f6de3777b","ios":"levelo://app?vid=40aea8ca-b5e5-4267-a1e3-f70f6de3777b"},"vehicle_type_id":"4","last_reported":1742983857,"current_range_meters":7200,"station_id":"ce4bhgp2rcd13ifvqfd0","pricing_plan_id":"cebpf4jnsgd1na2vs0mg"},{"bike_id":"ab1d9e8b-4d4f-43c6-88c6-68a0d4e7d134","system_id":"levelo_inurba_marseille","lat":43.30556,"lon":5.38431,"is_reserved":false,"is_disabled":false,"rental_uris":{"android":"levelo://app?vid=ab1d9e8b-4d4f-43c6-88c6-68a0d4e7d134","ios":"levelo://app?vid=ab1d9e8b-4d4f-43c6-88c6-68a0d4e7d134"},"vehicle_type_id":"4","last_reported":1742983857,"current_range_meters":6800,"station_id":"ce4bgg92rcd13ifvqb30","pricing_plan_id":"cebpf4jnsgd1na2vs0mg"},{"bike_id":"0f0d42c3-84c8-4474-94d7-c3b433d9ecc5","system_id":"levelo_inurba_marseille","lat":43.26505,"lon":5.39548,"is_reserved":false,"is_disabled":false,"rental_uris":{"android":"levelo://app?vid=0f0d42c3-84c8-4474-94d7-c3b433d9ecc5","ios":"levelo://app?vid=0f0d42c3-84c8-4474-94d7-c3b433d9ecc5"},"vehicle_type_id":"4","last_reported":1742983857,"current_range_meters":7200,"station_id":"ce4bhi12rcd13ifvqfq0","pricing_plan_id":"cebpf4jnsgd1na2vs0mg"},{"bike_id":"462ed12f-2154-4077-ad8f-99b7dff5cf51","system_id":"levelo_inurba_marseille","lat":43.29892,"lon":5.37467,"is_reserved":false,"is_disabled":false,"rental_uris":{"android":"levelo://app?vid=462ed12f-2154-4077-ad8f-99b7dff5cf51","ios":"levelo://app?vid=462ed12f-2154-4077-ad8f-99b7dff5cf51"},"vehicle_type_id":"4","last_reported":1742983857,"current_range_meters":7200,"station_id":"ce4bgjh2rcd13ifvqbg0","pricing_plan_id":"cebpf4jnsgd1na2vs0mg"},{"bike_id":"8707d0a0-4a5b-4376-9780-b6162b73d52b","system_id":"levelo_inurba_marseille","lat":43.28444,"lon":5.39202,"is_reserved":false,"is_disabled":false,"rental_uris":{"android":"levelo://app?vid=8707d0a0-4a5b-4376-9780-b6162b73d52b","ios":"levelo://app?vid=8707d0a0-4a5b-4376-9780-b6162b73d52b"},"vehicle_type_id":"4","last_reported":1742983857,"current_range_meters":7200,"station_id":"ce4bhoh2rcd13ifvqh5g","pricing_plan_id":"cebpf4jnsgd1na2vs0mg"},{"bike_id":"2f3e2a92-1301-4a27-8eaa-7b0ea525530e","system_id":"levelo_inurba_marseille","lat":43.31699,"lon":5.43676,"is_reserved":false,"is_disabled":false,"rental_uris":{"android":"levelo://app?vid=2f3e2a92-1301-4a27-8eaa-7b0ea525530e","ios":"levelo://app?vid=2f3e2a92-1301-4a27-8eaa-7b0ea525530e"},"vehicle_type_id":"4","last_reported":1742983857,"current_range_meters":7200,"station_id":"ce4bhp92rcd13ifvqhcg","pricing_plan_id":"cebpf4jnsgd1na2vs0mg"},{"bike_id":"d0d17579-3cc2-4636-a736-ff0e78e57b2c","system_id":"levelo_inurba_marseille","lat":43.2439,"lon":5.3706,"is_reserved":false,"is_disabled":false,"rental_uris":{"android":"levelo://app?vid=d0d17579-3cc2-4636-a736-ff0e78e57b2c","ios":"levelo://app?vid=d0d17579-3cc2-4636-a736-ff0e78e57b2c"},"vehicle_type_id":"4","last_reported":1742983857,"current_range_meters":7200,"station_id":"ce4bhhh2rcd13ifvqfk0","pricing_plan_id":"cebpf4jnsgd1na2vs0mg"},{"bike_id":"0c9cada4-2764-4013-a528-15089818cb84","system_id":"levelo_inurba_marseille","lat":43.2774,"lon":5.41149,"is_reserved":false,"is_disabled":false,"rental_uris":{"android":"levelo://app?vid=0c9cada4-2764-4013-a528-15089818cb84","ios":"levelo://app?vid=0c9cada4-2764-4013-a528-15089818cb84"},"vehicle_type_id":"4","last_reported":1742983857,"current_range_meters":7200,"station_id":"","pricing_plan_id":"cebpf4jnsgd1na2vs0mg"},{"bike_id":"ca59c07c-5b79-44c2-8b7b-45fa2de33c29","system_id":"levelo_inurba_marseille","lat":43.29263,"lon":5.36852,"is_reserved":false,"is_disabled":false,"rental_uris":{"android":"levelo://app?vid=ca59c07c-5b79-44c2-8b7b-45fa2de33c29","ios":"levelo://app?vid=ca59c07c-5b79-44c2-8b7b-45fa2de33c29"},"vehicle_type_id":"4","last_reported":1742983857,"current_range_meters":7200,"station_id":"ce4bhbp2rcd13ifvqesg","pricing_plan_id":"cebpf4jnsgd1na2vs0mg"},{"bike_id":"46323134-8988-4357-b418-929575e0da44","system_id":"levelo_inurba_marseille","lat":43.3019,"lon":5.3662,"is_reserved":false,"is_disabled":false,"rental_uris":{"android":"levelo://app?vid=46323134-8988-4357-b418-929575e0da44","ios":"levelo://app?vid=46323134-8988-4357-b418-929575e0da44"},"vehicle_type_id":"4","last_reported":1742983857,"current_range_meters":7200,"station_id":"ce4bgrh2rcd13ifvqc8g","pricing_plan_id":"cebpf4jnsgd1na2vs0mg"},{"bike_id":"11438d8e-2d0f-46ba-9f5d-f2d8f9f5eadf","system_id":"levelo_inurba_marseille","lat":43.25091,"lon":5.39494,"is_reserved":false,"is_disabled":false,"rental_uris":{"android":"levelo://app?vid=11438d8e-2d0f-46ba-9f5d-f2d8f9f5eadf","ios":"levelo://app?vid=11438d8e-2d0f-46ba-9f5d-f2d8f9f5eadf"},"vehicle_type_id":"4","last_reported":1742983857,"current_range_meters":7200,"station_id":"ce4bhm12rcd13ifvqgkg","pricing_plan_id":"cebpf4jnsgd1na2vs0mg"},{"bike_id":"aa316640-b4e3-46a6-a983-b02f99f14049","system_id":"levelo_inurba_marseille","lat":43.26197,"lon":5.37438,"is_reserved":false,"is_disabled":false,"rental_uris":{"android":"levelo://app?vid=aa316640-b4e3-46a6-a983-b02f99f14049","ios":"levelo://app?vid=aa316640-b4e3-46a6-a983-b02f99f14049"},"vehicle_type_id":"4","last_reported":1742983857,"current_range_meters":7200,"station_id":"ce4bhgp2rcd13ifvqfc0","pricing_plan_id":"cebpf4jnsgd1na2vs0mg"},{"bike_id":"77823725-c761-49bc-902c-64c32b686ae7","system_id":"levelo_inurba_marseille","lat":43.23076,"lon":5.35497,"is_reserved":false,"is_disabled":false,"rental_uris":{"android":"levelo://app?vid=77823725-c761-49bc-902c-64c32b686ae7","ios":"levelo://app?vid=77823725-c761-49bc-902c-64c32b686ae7"},"vehicle_type_id":"4","last_reported":1742983857,"current_range_meters":7200,"station_id":"cpo3342slgdg3j2ifvpg","pricing_plan_id":"cebpf4jnsgd1na2vs0mg"},{"bike_id":"bb8ab43e-d77e-40ca-92f3-39f857d462c7","system_id":"levelo_inurba_marseille","lat":43.29259,"lon":5.36139,"is_reserved":false,"is_disabled":false,"rental_uris":{"android":"levelo://app?vid=bb8ab43e-d77e-40ca-92f3-39f857d462c7","ios":"levelo://app?vid=bb8ab43e-d77e-40ca-92f3-39f857d462c7"},"vehicle_type_id":"4","last_reported":1742983857,"current_range_meters":7200,"station_id":"","pricing_plan_id":"cebpf4jnsgd1na2vs0mg"},{"bike_id":"5eb0e2f0-8111-4362-8b3d-f072323b11aa","system_id":"levelo_inurba_marseille","lat":43.28577,"lon":5.37086,"is_reserved":false,"is_disabled":false,"rental_uris":{"android":"levelo://app?vid=5eb0e2f0-8111-4362-8b3d-f072323b11aa","ios":"levelo://app?vid=5eb0e2f0-8111-4362-8b3d-f072323b11aa"},"vehicle_type_id":"4","last_reported":1742983857,"current_range_meters":8000,"station_id":"ce4bht12rcd13ifvqi60","pricing_plan_id":"cebpf4jnsgd1na2vs0mg"},{"bike_id":"f294d69a-8637-46e9-95b8-3d82151d6376","system_id":"levelo_inurba_marseille","lat":43.27979,"lon":5.41658,"is_reserved":false,"is_disabled":true,"rental_uris":{"android":"levelo://app?vid=f294d69a-8637-46e9-95b8-3d82151d6376","ios":"levelo://app?vid=f294d69a-8637-46e9-95b8-3d82151d6376"},"vehicle_type_id":"4","last_reported":1742983857,"current_range_meters":8000,"station_id":"ce4bho12rcd13ifvqh1g","pricing_plan_id":"cebpf4jnsgd1na2vs0mg"},{"bike_id":"c63ac188-bce8-4039-bcdd-076e45bfbfb1","system_id":"levelo_inurba_marseille","lat":43.31261,"lon":5.36899,"is_reserved":false,"is_disabled":false,"rental_uris":{"android":"levelo://app?vid=c63ac188-bce8-4039-bcdd-076e45bfbfb1","ios":"levelo://app?vid=c63ac188-bce8-4039-bcdd-076e45bfbfb1"},"vehicle_type_id":"4","last_reported":1742983857,"current_range_meters":8000,"station_id":"ce4bgl92rcd13ifvqbq0","pricing_plan_id":"cebpf4jnsgd1na2vs0mg"},{"bike_id":"9044c124-7f8b-4f46-92b4-6bb3bf42d405","system_id":"levelo_inurba_marseille","lat":43.24807,"lon":5.37454,"is_reserved":false,"is_disabled":false,"rental_uris":{"android":"levelo://app?vid=9044c124-7f8b-4f46-92b4-6bb3bf42d405","ios":"levelo://app?vid=9044c124-7f8b-4f46-92b4-6bb3bf42d405"},"vehicle_type_id":"4","last_reported":1742983857,"current_range_meters":8000,"station_id":"ce4bhgh2rcd13ifvqfb0","pricing_plan_id":"cebpf4jnsgd1na2vs0mg"},{"bike_id":"6633349b-54ae-41b8-88d5-61ec5d012302","system_id":"levelo_inurba_marseille","lat":43.32101,"lon":5.36744,"is_reserved":false,"is_disabled":false,"rental_uris":{"android":"levelo://app?vid=6633349b-54ae-41b8-88d5-61ec5d012302","ios":"levelo://app?vid=6633349b-54ae-41b8-88d5-61ec5d012302"},"vehicle_type_id":"4","last_reported":1742983857,"current_range_meters":8000,"station_id":"ce4bhrh2rcd13ifvqhug","pricing_plan_id":"cebpf4jnsgd1na2vs0mg"},{"bike_id":"74406c35-ee35-437d-be26-2d7711378046","system_id":"levelo_inurba_marseille","lat":43.32359,"lon":5.36778,"is_reserved":false,"is_disabled":false,"rental_uris":{"android":"levelo://app?vid=74406c35-ee35-437d-be26-2d7711378046","ios":"levelo://app?vid=74406c35-ee35-437d-be26-2d7711378046"},"vehicle_type_id":"4","last_reported":1742983857,"current_range_meters":8000,"station_id":"ce4bhsh2rcd13ifvqi2g","pricing_plan_id":"cebpf4jnsgd1na2vs0mg"},{"bike_id":"c2f7eae2-9f3b-483f-bacd-e79ac6fba4a9","system_id":"levelo_inurba_marseille","lat":43.29953,"lon":5.37483,"is_reserved":false,"is_disabled":false,"rental_uris":{"android":"levelo://app?vid=c2f7eae2-9f3b-483f-bacd-e79ac6fba4a9","ios":"levelo://app?vid=c2f7eae2-9f3b-483f-bacd-e79ac6fba4a9"},"vehicle_type_id":"4","last_reported":1742983857,"current_range_meters":8000,"station_id":"ce4bgjh2rcd13ifvqbg0","pricing_plan_id":"cebpf4jnsgd1na2vs0mg"},{"bike_id":"16e3790f-41b6-400e-8d88-6751ca433300","system_id":"levelo_inurba_marseille","lat":43.2499,"lon":5.3894,"is_reserved":false,"is_disabled":false,"rental_uris":{"android":"levelo://app?vid=16e3790f-41b6-400e-8d88-6751ca433300","ios":"levelo://app?vid=16e3790f-41b6-400e-8d88-6751ca433300"},"vehicle_type_id":"4","last_reported":1742983857,"current_range_meters":8000,"station_id":"ce4bhgp2rcd13ifvqfd0","pricing_plan_id":"cebpf4jnsgd1na2vs0mg"},{"bike_id":"c1342d82-cc37-454b-900b-cfaa0750256a","system_id":"levelo_inurba_marseille","lat":43.28507,"lon":5.3591,"is_reserved":false,"is_disabled":true,"rental_uris":{"android":"levelo://app?vid=c1342d82-cc37-454b-900b-cfaa0750256a","ios":"levelo://app?vid=c1342d82-cc37-454b-900b-cfaa0750256a"},"vehicle_type_id":"4","last_reported":1742983857,"current_range_meters":8000,"station_id":"","pricing_plan_id":"cebpf4jnsgd1na2vs0mg"},{"bike_id":"8c5e09de-c9ee-4ecd-8bf7-a9da954099c1","system_id":"levelo_inurba_marseille","lat":43.27977,"lon":5.40018,"is_reserved":false,"is_disabled":false,"rental_uris":{"android":"levelo://app?vid=8c5e09de-c9ee-4ecd-8bf7-a9da954099c1","ios":"levelo://app?vid=8c5e09de-c9ee-4ecd-8bf7-a9da954099c1"},"vehicle_type_id":"4","last_reported":1742983857,"current_range_meters":8000,"station_id":"ce4bho92rcd13ifvqh4g","pricing_plan_id":"cebpf4jnsgd1na2vs0mg"},{"bike_id":"30d2fbca-239f-49cd-b89b-17b0ba382ee0","system_id":"levelo_inurba_marseille","lat":43.24665,"lon":5.38154,"is_reserved":false,"is_disabled":false,"rental_uris":{"android":"levelo://app?vid=30d2fbca-239f-49cd-b89b-17b0ba382ee0","ios":"levelo://app?vid=30d2fbca-239f-49cd-b89b-17b0ba382ee0"},"vehicle_type_id":"4","last_reported":1742983857,"current_range_meters":8000,"station_id":"ce4bhih2rcd13ifvqfr0","pricing_plan_id":"cebpf4jnsgd1na2vs0mg"},{"bike_id":"2a284af8-dd2b-4fd4-ba94-d7c9236a4eac","system_id":"levelo_inurba_marseille","lat":43.295025,"lon":5.375106,"is_reserved":false,"is_disabled":true,"rental_uris":{"android":"levelo://app?vid=2a284af8-dd2b-4fd4-ba94-d7c9236a4eac","ios":"levelo://app?vid=2a284af8-dd2b-4fd4-ba94-d7c9236a4eac"},"vehicle_type_id":"4","last_reported":1742983857,"current_range_meters":8000,"station_id":"ce4bgkp2rcd13ifvqbmg","pricing_plan_id":"cebpf4jnsgd1na2vs0mg"},{"bike_id":"156bb616-e629-466e-a512-20b1fb523b12","system_id":"levelo_inurba_marseille","lat":43.28613,"lon":5.351,"is_reserved":false,"is_disabled":false,"rental_uris":{"android":"levelo://app?vid=156bb616-e629-466e-a512-20b1fb523b12","ios":"levelo://app?vid=156bb616-e629-466e-a512-20b1fb523b12"},"vehicle_type_id":"4","last_reported":1742983857,"current_range_meters":8000,"station_id":"ce4bhch2rcd13ifvqeug","pricing_plan_id":"cebpf4jnsgd1na2vs0mg"},{"bike_id":"8046ef72-cb0a-400d-b1d8-b0250c67a0d7","system_id":"levelo_inurba_marseille","lat":43.24672,"lon":5.38148,"is_reserved":false,"is_disabled":true,"rental_uris":{"android":"levelo://app?vid=8046ef72-cb0a-400d-b1d8-b0250c67a0d7","ios":"levelo://app?vid=8046ef72-cb0a-400d-b1d8-b0250c67a0d7"},"vehicle_type_id":"4","last_reported":1742983857,"current_range_meters":8000,"station_id":"ce4bhih2rcd13ifvqfr0","pricing_plan_id":"cebpf4jnsgd1na2vs0mg"},{"bike_id":"0a3f2887-277b-4c92-93ad-1681993dc2c2","system_id":"levelo_inurba_marseille","lat":43.26555,"lon":5.39014,"is_reserved":false,"is_disabled":false,"rental_uris":{"android":"levelo://app?vid=0a3f2887-277b-4c92-93ad-1681993dc2c2","ios":"levelo://app?vid=0a3f2887-277b-4c92-93ad-1681993dc2c2"},"vehicle_type_id":"4","last_reported":1742983857,"current_range_meters":8000,"station_id":"ce4bhe12rcd13ifvqf30","pricing_plan_id":"cebpf4jnsgd1na2vs0mg"},{"bike_id":"c5a53012-3ad4-48af-9734-3592df1799d5","system_id":"levelo_inurba_marseille","lat":43.23183,"lon":5.35506,"is_reserved":false,"is_disabled":false,"rental_uris":{"android":"levelo://app?vid=c5a53012-3ad4-48af-9734-3592df1799d5","ios":"levelo://app?vid=c5a53012-3ad4-48af-9734-3592df1799d5"},"vehicle_type_id":"4","last_reported":1742983857,"current_range_meters":8400,"station_id":"ce4bhu92rcd13ifvqi70","pricing_plan_id":"cebpf4jnsgd1na2vs0mg"},{"bike_id":"d58680be-fc23-42dc-8701-79787e4be1d4","system_id":"levelo_inurba_marseille","lat":43.294149,"lon":5.386206,"is_reserved":false,"is_disabled":false,"rental_uris":{"android":"levelo://app?vid=d58680be-fc23-42dc-8701-79787e4be1d4","ios":"levelo://app?vid=d58680be-fc23-42dc-8701-79787e4be1d4"},"vehicle_type_id":"4","last_reported":1742983857,"current_range_meters":8000,"station_id":"ce4bh2h2rcd13ifvqdh0","pricing_plan_id":"cebpf4jnsgd1na2vs0mg"},{"bike_id":"2da930a3-91f0-4b54-afc3-0359a583aa3c","system_id":"levelo_inurba_marseille","lat":43.24387,"lon":5.37063,"is_reserved":false,"is_disabled":false,"rental_uris":{"android":"levelo://app?vid=2da930a3-91f0-4b54-afc3-0359a583aa3c","ios":"levelo://app?vid=2da930a3-91f0-4b54-afc3-0359a583aa3c"},"vehicle_type_id":"4","last_reported":1742983857,"current_range_meters":8400,"station_id":"ce4bhhh2rcd13ifvqfk0","pricing_plan_id":"cebpf4jnsgd1na2vs0mg"},{"bike_id":"f09bcdb2-0145-4b9f-b77b-063daac05265","system_id":"levelo_inurba_marseille","lat":43.26938,"lon":5.38648,"is_reserved":false,"is_disabled":false,"rental_uris":{"android":"levelo://app?vid=f09bcdb2-0145-4b9f-b77b-063daac05265","ios":"levelo://app?vid=f09bcdb2-0145-4b9f-b77b-063daac05265"},"vehicle_type_id":"4","last_reported":1742983857,"current_range_meters":8000,"station_id":"ce4bhh92rcd13ifvqfh0","pricing_plan_id":"cebpf4jnsgd1na2vs0mg"},{"bike_id":"a5a388db-96e3-49b4-84c4-5143f4a888d4","system_id":"levelo_inurba_marseille","lat":43.30173,"lon":5.36612,"is_reserved":false,"is_disabled":false,"rental_uris":{"android":"levelo://app?vid=a5a388db-96e3-49b4-84c4-5143f4a888d4","ios":"levelo://app?vid=a5a388db-96e3-49b4-84c4-5143f4a888d4"},"vehicle_type_id":"4","last_reported":1742983857,"current_range_meters":8400,"station_id":"ce4bgrh2rcd13ifvqc8g","pricing_plan_id":"cebpf4jnsgd1na2vs0mg"},{"bike_id":"bd3481f8-0d67-4f32-b846-3137f51bf813","system_id":"levelo_inurba_marseille","lat":43.2618,"lon":5.3749,"is_reserved":false,"is_disabled":false,"rental_uris":{"android":"levelo://app?vid=bd3481f8-0d67-4f32-b846-3137f51bf813","ios":"levelo://app?vid=bd3481f8-0d67-4f32-b846-3137f51bf813"},"vehicle_type_id":"4","last_reported":1742983857,"current_range_meters":8400,"station_id":"","pricing_plan_id":"cebpf4jnsgd1na2vs0mg"},{"bike_id":"5f4806c9-955f-4cbd-8924-28ceee346b1a","system_id":"levelo_inurba_marseille","lat":43.309233,"lon":5.371935,"is_reserved":false,"is_disabled":false,"rental_uris":{"android":"levelo://app?vid=5f4806c9-955f-4cbd-8924-28ceee346b1a","ios":"levelo://app?vid=5f4806c9-955f-4cbd-8924-28ceee346b1a"},"vehicle_type_id":"4","last_reported":1742983857,"current_range_meters":8400,"station_id":"ce4bguh2rcd13ifvqckg","pricing_plan_id":"cebpf4jnsgd1na2vs0mg"},{"bike_id":"d1b74a62-cf1e-4695-b66a-7a837d22d2a1","system_id":"levelo_inurba_marseille","lat":43.29024,"lon":5.38636,"is_reserved":false,"is_disabled":false,"rental_uris":{"android":"levelo://app?vid=d1b74a62-cf1e-4695-b66a-7a837d22d2a1","ios":"levelo://app?vid=d1b74a62-cf1e-4695-b66a-7a837d22d2a1"},"vehicle_type_id":"4","last_reported":1742983857,"current_range_meters":8800,"station_id":"ce4bh4p2rcd13ifvqe0g","pricing_plan_id":"cebpf4jnsgd1na2vs0mg"},{"bike_id":"c49c8986-30f2-4efb-b4f1-0fe63f1c68d0","system_id":"levelo_inurba_marseille","lat":43.31235,"lon":5.36863,"is_reserved":false,"is_disabled":false,"rental_uris":{"android":"levelo://app?vid=c49c8986-30f2-4efb-b4f1-0fe63f1c68d0","ios":"levelo://app?vid=c49c8986-30f2-4efb-b4f1-0fe63f1c68d0"},"vehicle_type_id":"4","last_reported":1742983857,"current_range_meters":8800,"station_id":"ce4bgl92rcd13ifvqbq0","pricing_plan_id":"cebpf4jnsgd1na2vs0mg"},{"bike_id":"aec1d2be-86f6-4e60-beb2-de9c370350a2","system_id":"levelo_inurba_marseille","lat":43.30153,"lon":5.37419,"is_reserved":false,"is_disabled":false,"rental_uris":{"android":"levelo://app?vid=aec1d2be-86f6-4e60-beb2-de9c370350a2","ios":"levelo://app?vid=aec1d2be-86f6-4e60-beb2-de9c370350a2"},"vehicle_type_id":"4","last_reported":1742983857,"current_range_meters":8800,"station_id":"ce4bgs92rcd13ifvqcc0","pricing_plan_id":"cebpf4jnsgd1na2vs0mg"},{"bike_id":"3082883e-716b-4940-977a-23703e6964ed","system_id":"levelo_inurba_marseille","lat":43.31357,"lon":5.39718,"is_reserved":false,"is_disabled":false,"rental_uris":{"android":"levelo://app?vid=3082883e-716b-4940-977a-23703e6964ed","ios":"levelo://app?vid=3082883e-716b-4940-977a-23703e6964ed"},"vehicle_type_id":"4","last_reported":1742983857,"current_range_meters":8800,"station_id":"ce4bgvp2rcd13ifvqcu0","pricing_plan_id":"cebpf4jnsgd1na2vs0mg"},{"bike_id":"494edb5c-8886-472a-b4b2-0033adc0ccbd","system_id":"levelo_inurba_marseille","lat":43.231803,"lon":5.39967,"is_reserved":false,"is_disabled":false,"rental_uris":{"android":"levelo://app?vid=494edb5c-8886-472a-b4b2-0033adc0ccbd","ios":"levelo://app?vid=494edb5c-8886-472a-b4b2-0033adc0ccbd"},"vehicle_type_id":"4","last_reported":1742983857,"current_range_meters":8800,"station_id":"","pricing_plan_id":"cebpf4jnsgd1na2vs0mg"},{"bike_id":"43022a3d-6943-4a5c-b9b6-92d13319397a","system_id":"levelo_inurba_marseille","lat":43.27182,"lon":5.40992,"is_reserved":false,"is_disabled":false,"rental_uris":{"android":"levelo://app?vid=43022a3d-6943-4a5c-b9b6-92d13319397a","ios":"levelo://app?vid=43022a3d-6943-4a5c-b9b6-92d13319397a"},"vehicle_type_id":"4","last_reported":1742983857,"current_range_meters":8400,"station_id":"ce4bhl12rcd13ifvqgf0","pricing_plan_id":"cebpf4jnsgd1na2vs0mg"},{"bike_id":"c16ec384-cc35-4949-bf8a-e4271ebe9984","system_id":"levelo_inurba_marseille","lat":43.31302,"lon":5.36792,"is_reserved":false,"is_disabled":false,"rental_uris":{"android":"levelo://app?vid=c16ec384-cc35-4949-bf8a-e4271ebe9984","ios":"levelo://app?vid=c16ec384-cc35-4949-bf8a-e4271ebe9984"},"vehicle_type_id":"4","last_reported":1742983857,"current_range_meters":8800,"station_id":"ce4bgr92rcd13ifvqc6g","pricing_plan_id":"cebpf4jnsgd1na2vs0mg"},{"bike_id":"15e3f303-363f-4911-b12b-ed1ec61b9153","system_id":"levelo_inurba_marseille","lat":43.30313,"lon":5.36895,"is_reserved":false,"is_disabled":false,"rental_uris":{"android":"levelo://app?vid=15e3f303-363f-4911-b12b-ed1ec61b9153","ios":"levelo://app?vid=15e3f303-363f-4911-b12b-ed1ec61b9153"},"vehicle_type_id":"4","last_reported":1742983857,"current_range_meters":9200,"station_id":"ce4bgqh2rcd13ifvqc5g","pricing_plan_id":"cebpf4jnsgd1na2vs0mg"},{"bike_id":"cfa70219-598e-4d76-b57d-6a178556abe4","system_id":"levelo_inurba_marseille","lat":43.29855,"lon":5.36262,"is_reserved":false,"is_disabled":false,"rental_uris":{"android":"levelo://app?vid=cfa70219-598e-4d76-b57d-6a178556abe4","ios":"levelo://app?vid=cfa70219-598e-4d76-b57d-6a178556abe4"},"vehicle_type_id":"4","last_reported":1742983857,"current_range_meters":9200,"station_id":"ce4bgpp2rcd13ifvqc3g","pricing_plan_id":"cebpf4jnsgd1na2vs0mg"},{"bike_id":"e969a44b-dcb1-4108-a5c5-4497b1c4f4ee","system_id":"levelo_inurba_marseille","lat":43.26166,"lon":5.37492,"is_reserved":false,"is_disabled":false,"rental_uris":{"android":"levelo://app?vid=e969a44b-dcb1-4108-a5c5-4497b1c4f4ee","ios":"levelo://app?vid=e969a44b-dcb1-4108-a5c5-4497b1c4f4ee"},"vehicle_type_id":"4","last_reported":1742983857,"current_range_meters":9200,"station_id":"","pricing_plan_id":"cebpf4jnsgd1na2vs0mg"},{"bike_id":"37ab873a-5728-4fd5-b897-22fd63d8db9a","system_id":"levelo_inurba_marseille","lat":43.31333,"lon":5.36725,"is_reserved":false,"is_disabled":false,"rental_uris":{"android":"levelo://app?vid=37ab873a-5728-4fd5-b897-22fd63d8db9a","ios":"levelo://app?vid=37ab873a-5728-4fd5-b897-22fd63d8db9a"},"vehicle_type_id":"4","last_reported":1742983857,"current_range_meters":9200,"station_id":"ce4bgr92rcd13ifvqc6g","pricing_plan_id":"cebpf4jnsgd1na2vs0mg"},{"bike_id":"1c058c5f-2dec-42f5-9437-366d59841df3","system_id":"levelo_inurba_marseille","lat":43.309105,"lon":5.368428,"is_reserved":false,"is_disabled":false,"rental_uris":{"android":"levelo://app?vid=1c058c5f-2dec-42f5-9437-366d59841df3","ios":"levelo://app?vid=1c058c5f-2dec-42f5-9437-366d59841df3"},"vehicle_type_id":"4","last_reported":1742983857,"current_range_meters":9200,"station_id":"ce4bgn92rcd13ifvqbvg","pricing_plan_id":"cebpf4jnsgd1na2vs0mg"},{"bike_id":"279a000a-b682-4bc5-a6c5-c2cc89458d53","system_id":"levelo_inurba_marseille","lat":43.29417,"lon":5.38625,"is_reserved":false,"is_disabled":false,"rental_uris":{"android":"levelo://app?vid=279a000a-b682-4bc5-a6c5-c2cc89458d53","ios":"levelo://app?vid=279a000a-b682-4bc5-a6c5-c2cc89458d53"},"vehicle_type_id":"4","last_reported":1742983857,"current_range_meters":14800,"station_id":"ce4bh2h2rcd13ifvqdh0","pricing_plan_id":"cebpf4jnsgd1na2vs0mg"},{"bike_id":"ee28380f-2566-499f-8ab8-5a75cb1ed72f","system_id":"levelo_inurba_marseille","lat":43.288329,"lon":5.393258,"is_reserved":false,"is_disabled":true,"rental_uris":{"android":"levelo://app?vid=ee28380f-2566-499f-8ab8-5a75cb1ed72f","ios":"levelo://app?vid=ee28380f-2566-499f-8ab8-5a75cb1ed72f"},"vehicle_type_id":"4","last_reported":1742983857,"current_range_meters":9200,"station_id":"","pricing_plan_id":"cebpf4jnsgd1na2vs0mg"},{"bike_id":"1c151e15-7548-4596-95c6-c13f68f00c8a","system_id":"levelo_inurba_marseille","lat":43.26683,"lon":5.38266,"is_reserved":false,"is_disabled":false,"rental_uris":{"android":"levelo://app?vid=1c151e15-7548-4596-95c6-c13f68f00c8a","ios":"levelo://app?vid=1c151e15-7548-4596-95c6-c13f68f00c8a"},"vehicle_type_id":"4","last_reported":1742983857,"current_range_meters":9200,"station_id":"ce4bhg92rcd13ifvqf90","pricing_plan_id":"cebpf4jnsgd1na2vs0mg"},{"bike_id":"b688a5e7-4b6b-4397-b7a6-e7b7b437d7dc","system_id":"levelo_inurba_marseille","lat":43.28495,"lon":5.3857,"is_reserved":false,"is_disabled":false,"rental_uris":{"android":"levelo://app?vid=b688a5e7-4b6b-4397-b7a6-e7b7b437d7dc","ios":"levelo://app?vid=b688a5e7-4b6b-4397-b7a6-e7b7b437d7dc"},"vehicle_type_id":"4","last_reported":1742983857,"current_range_meters":9200,"station_id":"ce4bh8p2rcd13ifvqeb0","pricing_plan_id":"cebpf4jnsgd1na2vs0mg"},{"bike_id":"a3f9f9a2-ff37-442d-a11a-1460be58d425","system_id":"levelo_inurba_marseille","lat":43.28838,"lon":5.39315,"is_reserved":false,"is_disabled":false,"rental_uris":{"android":"levelo://app?vid=a3f9f9a2-ff37-442d-a11a-1460be58d425","ios":"levelo://app?vid=a3f9f9a2-ff37-442d-a11a-1460be58d425"},"vehicle_type_id":"4","last_reported":1742983857,"current_range_meters":9600,"station_id":"ce4bh2p2rcd13ifvqdi0","pricing_plan_id":"cebpf4jnsgd1na2vs0mg"},{"bike_id":"c6f3ec71-44a1-4202-88d3-b2ae308a9c58","system_id":"levelo_inurba_marseille","lat":43.29002,"lon":5.35605,"is_reserved":false,"is_disabled":false,"rental_uris":{"android":"levelo://app?vid=c6f3ec71-44a1-4202-88d3-b2ae308a9c58","ios":"levelo://app?vid=c6f3ec71-44a1-4202-88d3-b2ae308a9c58"},"vehicle_type_id":"4","last_reported":1742983857,"current_range_meters":9600,"station_id":"ce4bhb92rcd13ifvqen0","pricing_plan_id":"cebpf4jnsgd1na2vs0mg"},{"bike_id":"a2052c52-cd84-4f87-b704-4dd37901bb75","system_id":"levelo_inurba_marseille","lat":43.28457,"lon":5.35893,"is_reserved":false,"is_disabled":true,"rental_uris":{"android":"levelo://app?vid=a2052c52-cd84-4f87-b704-4dd37901bb75","ios":"levelo://app?vid=a2052c52-cd84-4f87-b704-4dd37901bb75"},"vehicle_type_id":"4","last_reported":1742983857,"current_range_meters":9600,"station_id":"ce4bhah2rcd13ifvqei0","pricing_plan_id":"cebpf4jnsgd1na2vs0mg"},{"bike_id":"72297f85-fbfc-44cc-8430-07726aba3f87","system_id":"levelo_inurba_marseille","lat":43.26484,"lon":5.39557,"is_reserved":false,"is_disabled":false,"rental_uris":{"android":"levelo://app?vid=72297f85-fbfc-44cc-8430-07726aba3f87","ios":"levelo://app?vid=72297f85-fbfc-44cc-8430-07726aba3f87"},"vehicle_type_id":"4","last_reported":1742983857,"current_range_meters":9600,"station_id":"ce4bhi12rcd13ifvqfq0","pricing_plan_id":"cebpf4jnsgd1na2vs0mg"},{"bike_id":"0eedf9a7-c32c-4bae-a37f-32439201ac09","system_id":"levelo_inurba_marseille","lat":43.28856,"lon":5.39322,"is_reserved":false,"is_disabled":true,"rental_uris":{"android":"levelo://app?vid=0eedf9a7-c32c-4bae-a37f-32439201ac09","ios":"levelo://app?vid=0eedf9a7-c32c-4bae-a37f-32439201ac09"},"vehicle_type_id":"4","last_reported":1742983857,"current_range_meters":9600,"station_id":"ce4bh2p2rcd13ifvqdi0","pricing_plan_id":"cebpf4jnsgd1na2vs0mg"},{"bike_id":"a31828e8-6551-4cf8-88a2-55b75fa83d16","system_id":"levelo_inurba_marseille","lat":43.25587,"lon":5.38239,"is_reserved":false,"is_disabled":false,"rental_uris":{"android":"levelo://app?vid=a31828e8-6551-4cf8-88a2-55b75fa83d16","ios":"levelo://app?vid=a31828e8-6551-4cf8-88a2-55b75fa83d16"},"vehicle_type_id":"4","last_reported":1742983857,"current_range_meters":9600,"station_id":"ce4bhih2rcd13ifvqfs0","pricing_plan_id":"cebpf4jnsgd1na2vs0mg"},{"bike_id":"407a8141-59c8-4ce0-bd40-6deb4e5aec1d","system_id":"levelo_inurba_marseille","lat":43.25944,"lon":5.40901,"is_reserved":false,"is_disabled":false,"rental_uris":{"android":"levelo://app?vid=407a8141-59c8-4ce0-bd40-6deb4e5aec1d","ios":"levelo://app?vid=407a8141-59c8-4ce0-bd40-6deb4e5aec1d"},"vehicle_type_id":"4","last_reported":1742983857,"current_range_meters":9600,"station_id":"ce4bhm92rcd13ifvqglg","pricing_plan_id":"cebpf4jnsgd1na2vs0mg"},{"bike_id":"f181af96-707a-4f2c-ada9-dc4b5f236092","system_id":"levelo_inurba_marseille","lat":43.29547,"lon":5.42275,"is_reserved":false,"is_disabled":false,"rental_uris":{"android":"levelo://app?vid=f181af96-707a-4f2c-ada9-dc4b5f236092","ios":"levelo://app?vid=f181af96-707a-4f2c-ada9-dc4b5f236092"},"vehicle_type_id":"4","last_reported":1742983857,"current_range_meters":9600,"station_id":"ce4bhph2rcd13ifvqhdg","pricing_plan_id":"cebpf4jnsgd1na2vs0mg"},{"bike_id":"fa14eb3a-1fdb-4bc8-8092-af468e8ded60","system_id":"levelo_inurba_marseille","lat":43.27991,"lon":5.40011,"is_reserved":false,"is_disabled":false,"rental_uris":{"android":"levelo://app?vid=fa14eb3a-1fdb-4bc8-8092-af468e8ded60","ios":"levelo://app?vid=fa14eb3a-1fdb-4bc8-8092-af468e8ded60"},"vehicle_type_id":"4","last_reported":1742983857,"current_range_meters":9600,"station_id":"ce4bho92rcd13ifvqh4g","pricing_plan_id":"cebpf4jnsgd1na2vs0mg"},{"bike_id":"efbcaaa6-b11f-400a-9240-cc4b1a3b098a","system_id":"levelo_inurba_marseille","lat":43.30597,"lon":5.39351,"is_reserved":false,"is_disabled":true,"rental_uris":{"android":"levelo://app?vid=efbcaaa6-b11f-400a-9240-cc4b1a3b098a","ios":"levelo://app?vid=efbcaaa6-b11f-400a-9240-cc4b1a3b098a"},"vehicle_type_id":"4","last_reported":1742983857,"current_range_meters":9600,"station_id":"ce4bh0p2rcd13ifvqd80","pricing_plan_id":"cebpf4jnsgd1na2vs0mg"},{"bike_id":"2ee4698f-07a1-495b-8f87-7ef2e7a4047f","system_id":"levelo_inurba_marseille","lat":43.28717,"lon":5.37404,"is_reserved":false,"is_disabled":false,"rental_uris":{"android":"levelo://app?vid=2ee4698f-07a1-495b-8f87-7ef2e7a4047f","ios":"levelo://app?vid=2ee4698f-07a1-495b-8f87-7ef2e7a4047f"},"vehicle_type_id":"4","last_reported":1742983857,"current_range_meters":10000,"station_id":"ce4bh3p2rcd13ifvqdq0","pricing_plan_id":"cebpf4jnsgd1na2vs0mg"},{"bike_id":"512538d1-d5de-4614-80a5-c1507fb688ff","system_id":"levelo_inurba_marseille","lat":43.29011,"lon":5.38128,"is_reserved":false,"is_disabled":false,"rental_uris":{"android":"levelo://app?vid=512538d1-d5de-4614-80a5-c1507fb688ff","ios":"levelo://app?vid=512538d1-d5de-4614-80a5-c1507fb688ff"},"vehicle_type_id":"4","last_reported":1742983857,"current_range_meters":10000,"station_id":"ce4bh4p2rcd13ifvqe1g","pricing_plan_id":"cebpf4jnsgd1na2vs0mg"},{"bike_id":"8a9602e7-e6f2-4dac-845f-cea224e49dd5","system_id":"levelo_inurba_marseille","lat":43.23063,"lon":5.3549,"is_reserved":false,"is_disabled":false,"rental_uris":{"android":"levelo://app?vid=8a9602e7-e6f2-4dac-845f-cea224e49dd5","ios":"levelo://app?vid=8a9602e7-e6f2-4dac-845f-cea224e49dd5"},"vehicle_type_id":"4","last_reported":1742983857,"current_range_meters":10000,"station_id":"cpo3342slgdg3j2ifvpg","pricing_plan_id":"cebpf4jnsgd1na2vs0mg"},{"bike_id":"01cbffb0-3fb0-4769-96f8-4c2dd20b8277","system_id":"levelo_inurba_marseille","lat":43.285316,"lon":5.405737,"is_reserved":false,"is_disabled":true,"rental_uris":{"android":"levelo://app?vid=01cbffb0-3fb0-4769-96f8-4c2dd20b8277","ios":"levelo://app?vid=01cbffb0-3fb0-4769-96f8-4c2dd20b8277"},"vehicle_type_id":"4","last_reported":1742983857,"current_range_meters":10000,"station_id":"","pricing_plan_id":"cebpf4jnsgd1na2vs0mg"},{"bike_id":"da43d894-069e-486e-a738-14255c3635ad","system_id":"levelo_inurba_marseille","lat":43.26079,"lon":5.39408,"is_reserved":false,"is_disabled":false,"rental_uris":{"android":"levelo://app?vid=da43d894-069e-486e-a738-14255c3635ad","ios":"levelo://app?vid=da43d894-069e-486e-a738-14255c3635ad"},"vehicle_type_id":"4","last_reported":1742983857,"current_range_meters":10000,"station_id":"ce4bhh92rcd13ifvqfj0","pricing_plan_id":"cebpf4jnsgd1na2vs0mg"},{"bike_id":"7fdecdeb-36cb-4cf4-9c98-d803f5809435","system_id":"levelo_inurba_marseille","lat":43.26107,"lon":5.39799,"is_reserved":false,"is_disabled":false,"rental_uris":{"android":"levelo://app?vid=7fdecdeb-36cb-4cf4-9c98-d803f5809435","ios":"levelo://app?vid=7fdecdeb-36cb-4cf4-9c98-d803f5809435"},"vehicle_type_id":"4","last_reported":1742983857,"current_range_meters":10000,"station_id":"","pricing_plan_id":"cebpf4jnsgd1na2vs0mg"},{"bike_id":"974f5876-effd-44d0-911c-76ea7a107a8c","system_id":"levelo_inurba_marseille","lat":43.33384,"lon":5.35981,"is_reserved":false,"is_disabled":false,"rental_uris":{"android":"levelo://app?vid=974f5876-effd-44d0-911c-76ea7a107a8c","ios":"levelo://app?vid=974f5876-effd-44d0-911c-76ea7a107a8c"},"vehicle_type_id":"4","last_reported":1742983857,"current_range_meters":10000,"station_id":"","pricing_plan_id":"cebpf4jnsgd1na2vs0mg"},{"bike_id":"67de4242-7f64-4831-8e2f-144fd7b9e4e8","system_id":"levelo_inurba_marseille","lat":43.31327,"lon":5.36723,"is_reserved":false,"is_disabled":false,"rental_uris":{"android":"levelo://app?vid=67de4242-7f64-4831-8e2f-144fd7b9e4e8","ios":"levelo://app?vid=67de4242-7f64-4831-8e2f-144fd7b9e4e8"},"vehicle_type_id":"4","last_reported":1742983857,"current_range_meters":10800,"station_id":"ce4bgr92rcd13ifvqc6g","pricing_plan_id":"cebpf4jnsgd1na2vs0mg"},{"bike_id":"1af1d728-c759-474b-af4b-5f6f6a20f967","system_id":"levelo_inurba_marseille","lat":43.22927,"lon":5.35374,"is_reserved":false,"is_disabled":false,"rental_uris":{"android":"levelo://app?vid=1af1d728-c759-474b-af4b-5f6f6a20f967","ios":"levelo://app?vid=1af1d728-c759-474b-af4b-5f6f6a20f967"},"vehicle_type_id":"4","last_reported":1742983857,"current_range_meters":10800,"station_id":"cpo3532slgdg3j2ikp40","pricing_plan_id":"cebpf4jnsgd1na2vs0mg"},{"bike_id":"8de7059d-00de-4eed-a842-00ac61b0e1a8","system_id":"levelo_inurba_marseille","lat":43.29592,"lon":5.38092,"is_reserved":false,"is_disabled":true,"rental_uris":{"android":"levelo://app?vid=8de7059d-00de-4eed-a842-00ac61b0e1a8","ios":"levelo://app?vid=8de7059d-00de-4eed-a842-00ac61b0e1a8"},"vehicle_type_id":"4","last_reported":1742983857,"current_range_meters":10800,"station_id":"ce4bgl12rcd13ifvqbo0","pricing_plan_id":"cebpf4jnsgd1na2vs0mg"},{"bike_id":"8e1b69fe-38a9-404e-9145-427fd10d244c","system_id":"levelo_inurba_marseille","lat":43.28425,"lon":5.34987,"is_reserved":false,"is_disabled":false,"rental_uris":{"android":"levelo://app?vid=8e1b69fe-38a9-404e-9145-427fd10d244c","ios":"levelo://app?vid=8e1b69fe-38a9-404e-9145-427fd10d244c"},"vehicle_type_id":"4","last_reported":1742983857,"current_range_meters":10800,"station_id":"ce4bhbh2rcd13ifvqepg","pricing_plan_id":"cebpf4jnsgd1na2vs0mg"},{"bike_id":"84a7a785-5392-42bc-8088-fb903bcc7f5c","system_id":"levelo_inurba_marseille","lat":43.2308,"lon":5.35489,"is_reserved":false,"is_disabled":false,"rental_uris":{"android":"levelo://app?vid=84a7a785-5392-42bc-8088-fb903bcc7f5c","ios":"levelo://app?vid=84a7a785-5392-42bc-8088-fb903bcc7f5c"},"vehicle_type_id":"4","last_reported":1742983857,"current_range_meters":10800,"station_id":"cpo3342slgdg3j2ifvpg","pricing_plan_id":"cebpf4jnsgd1na2vs0mg"},{"bike_id":"aede6afe-4dc0-41b4-b447-4adb951bfa3e","system_id":"levelo_inurba_marseille","lat":43.29807,"lon":5.37111,"is_reserved":false,"is_disabled":false,"rental_uris":{"android":"levelo://app?vid=aede6afe-4dc0-41b4-b447-4adb951bfa3e","ios":"levelo://app?vid=aede6afe-4dc0-41b4-b447-4adb951bfa3e"},"vehicle_type_id":"4","last_reported":1742983857,"current_range_meters":10000,"station_id":"ce4bgop2rcd13ifvqc1g","pricing_plan_id":"cebpf4jnsgd1na2vs0mg"},{"bike_id":"34ff9dfa-f521-4b06-a88c-c4e4d9d74f39","system_id":"levelo_inurba_marseille","lat":43.2782,"lon":5.40718,"is_reserved":false,"is_disabled":true,"rental_uris":{"android":"levelo://app?vid=34ff9dfa-f521-4b06-a88c-c4e4d9d74f39","ios":"levelo://app?vid=34ff9dfa-f521-4b06-a88c-c4e4d9d74f39"},"vehicle_type_id":"4","last_reported":1742983857,"current_range_meters":10800,"station_id":"ce4bhnh2rcd13ifvqgtg","pricing_plan_id":"cebpf4jnsgd1na2vs0mg"},{"bike_id":"0679701a-6d24-4e09-945d-a9617d1559e3","system_id":"levelo_inurba_marseille","lat":43.330252,"lon":5.390351,"is_reserved":false,"is_disabled":false,"rental_uris":{"android":"levelo://app?vid=0679701a-6d24-4e09-945d-a9617d1559e3","ios":"levelo://app?vid=0679701a-6d24-4e09-945d-a9617d1559e3"},"vehicle_type_id":"4","last_reported":1742983857,"current_range_meters":10800,"station_id":"ce4bhr92rcd13ifvqhrg","pricing_plan_id":"cebpf4jnsgd1na2vs0mg"},{"bike_id":"1d165c56-236e-4374-8632-8a15f8f79471","system_id":"levelo_inurba_marseille","lat":43.31246,"lon":5.36869,"is_reserved":false,"is_disabled":false,"rental_uris":{"android":"levelo://app?vid=1d165c56-236e-4374-8632-8a15f8f79471","ios":"levelo://app?vid=1d165c56-236e-4374-8632-8a15f8f79471"},"vehicle_type_id":"4","last_reported":1742983857,"current_range_meters":10800,"station_id":"ce4bgl92rcd13ifvqbq0","pricing_plan_id":"cebpf4jnsgd1na2vs0mg"},{"bike_id":"a446a54f-4fbf-40df-b247-11c1431d2281","system_id":"levelo_inurba_marseille","lat":43.31223,"lon":5.3686,"is_reserved":false,"is_disabled":false,"rental_uris":{"android":"levelo://app?vid=a446a54f-4fbf-40df-b247-11c1431d2281","ios":"levelo://app?vid=a446a54f-4fbf-40df-b247-11c1431d2281"},"vehicle_type_id":"4","last_reported":1742983857,"current_range_meters":10800,"station_id":"ce4bgl92rcd13ifvqbq0","pricing_plan_id":"cebpf4jnsgd1na2vs0mg"},{"bike_id":"f6788da0-87a8-4558-ba51-aba48bf0e8c0","system_id":"levelo_inurba_marseille","lat":43.30545,"lon":5.36688,"is_reserved":false,"is_disabled":false,"rental_uris":{"android":"levelo://app?vid=f6788da0-87a8-4558-ba51-aba48bf0e8c0","ios":"levelo://app?vid=f6788da0-87a8-4558-ba51-aba48bf0e8c0"},"vehicle_type_id":"4","last_reported":1742983857,"current_range_meters":10800,"station_id":"ce4bgrp2rcd13ifvqc9g","pricing_plan_id":"cebpf4jnsgd1na2vs0mg"},{"bike_id":"a7ec82e2-6fdc-4301-9651-310148c3d5b1","system_id":"levelo_inurba_marseille","lat":43.284131,"lon":5.349756,"is_reserved":false,"is_disabled":false,"rental_uris":{"android":"levelo://app?vid=a7ec82e2-6fdc-4301-9651-310148c3d5b1","ios":"levelo://app?vid=a7ec82e2-6fdc-4301-9651-310148c3d5b1"},"vehicle_type_id":"4","last_reported":1742983857,"current_range_meters":10800,"station_id":"ce4bhbh2rcd13ifvqepg","pricing_plan_id":"cebpf4jnsgd1na2vs0mg"},{"bike_id":"240e2301-6fa5-4bfa-a86f-afcfa555dd21","system_id":"levelo_inurba_marseille","lat":43.30189,"lon":5.366155,"is_reserved":false,"is_disabled":false,"rental_uris":{"android":"levelo://app?vid=240e2301-6fa5-4bfa-a86f-afcfa555dd21","ios":"levelo://app?vid=240e2301-6fa5-4bfa-a86f-afcfa555dd21"},"vehicle_type_id":"4","last_reported":1742983857,"current_range_meters":10800,"station_id":"ce4bgrh2rcd13ifvqc8g","pricing_plan_id":"cebpf4jnsgd1na2vs0mg"},{"bike_id":"ba6a46e1-2737-444a-9c29-0a44b16eab2c","system_id":"levelo_inurba_marseille","lat":43.30522,"lon":5.36475,"is_reserved":false,"is_disabled":false,"rental_uris":{"android":"levelo://app?vid=ba6a46e1-2737-444a-9c29-0a44b16eab2c","ios":"levelo://app?vid=ba6a46e1-2737-444a-9c29-0a44b16eab2c"},"vehicle_type_id":"4","last_reported":1742983857,"current_range_meters":10800,"station_id":"","pricing_plan_id":"cebpf4jnsgd1na2vs0mg"},{"bike_id":"b418d168-f2ad-4db0-9a6f-e88743ba94c8","system_id":"levelo_inurba_marseille","lat":43.29258,"lon":5.37634,"is_reserved":false,"is_disabled":true,"rental_uris":{"android":"levelo://app?vid=b418d168-f2ad-4db0-9a6f-e88743ba94c8","ios":"levelo://app?vid=b418d168-f2ad-4db0-9a6f-e88743ba94c8"},"vehicle_type_id":"4","last_reported":1742983857,"current_range_meters":11200,"station_id":"ce4bgi12rcd13ifvqb80","pricing_plan_id":"cebpf4jnsgd1na2vs0mg"},{"bike_id":"9c58ce12-9d70-4939-a492-72f1826337f9","system_id":"levelo_inurba_marseille","lat":43.28936,"lon":5.38382,"is_reserved":false,"is_disabled":false,"rental_uris":{"android":"levelo://app?vid=9c58ce12-9d70-4939-a492-72f1826337f9","ios":"levelo://app?vid=9c58ce12-9d70-4939-a492-72f1826337f9"},"vehicle_type_id":"4","last_reported":1742983857,"current_range_meters":11200,"station_id":"ce4bh612rcd13ifvqe6g","pricing_plan_id":"cebpf4jnsgd1na2vs0mg"},{"bike_id":"d45a2f6c-957b-46cd-bd89-ee8e58d1536e","system_id":"levelo_inurba_marseille","lat":43.2773,"lon":5.4078,"is_reserved":false,"is_disabled":false,"rental_uris":{"android":"levelo://app?vid=d45a2f6c-957b-46cd-bd89-ee8e58d1536e","ios":"levelo://app?vid=d45a2f6c-957b-46cd-bd89-ee8e58d1536e"},"vehicle_type_id":"4","last_reported":1742983857,"current_range_meters":11200,"station_id":"","pricing_plan_id":"cebpf4jnsgd1na2vs0mg"},{"bike_id":"82219511-549c-4b63-baf5-ff8405cca9d7","system_id":"levelo_inurba_marseille","lat":43.31704,"lon":5.43708,"is_reserved":false,"is_disabled":false,"rental_uris":{"android":"levelo://app?vid=82219511-549c-4b63-baf5-ff8405cca9d7","ios":"levelo://app?vid=82219511-549c-4b63-baf5-ff8405cca9d7"},"vehicle_type_id":"4","last_reported":1742983857,"current_range_meters":11200,"station_id":"ce4bhp92rcd13ifvqhcg","pricing_plan_id":"cebpf4jnsgd1na2vs0mg"},{"bike_id":"9c7b67ef-a80b-4d76-beff-aa96c2a3469a","system_id":"levelo_inurba_marseille","lat":43.27997,"lon":5.40007,"is_reserved":false,"is_disabled":false,"rental_uris":{"android":"levelo://app?vid=9c7b67ef-a80b-4d76-beff-aa96c2a3469a","ios":"levelo://app?vid=9c7b67ef-a80b-4d76-beff-aa96c2a3469a"},"vehicle_type_id":"4","last_reported":1742983857,"current_range_meters":11200,"station_id":"ce4bho92rcd13ifvqh4g","pricing_plan_id":"cebpf4jnsgd1na2vs0mg"},{"bike_id":"dd3c2c21-8058-4ad2-bb2d-1b89c01c402f","system_id":"levelo_inurba_marseille","lat":43.305281,"lon":5.365382,"is_reserved":false,"is_disabled":false,"rental_uris":{"android":"levelo://app?vid=dd3c2c21-8058-4ad2-bb2d-1b89c01c402f","ios":"levelo://app?vid=dd3c2c21-8058-4ad2-bb2d-1b89c01c402f"},"vehicle_type_id":"4","last_reported":1742983857,"current_range_meters":11200,"station_id":"ce4bgs12rcd13ifvqcag","pricing_plan_id":"cebpf4jnsgd1na2vs0mg"},{"bike_id":"dda938c5-e868-46a8-8d0a-d2088581ff54","system_id":"levelo_inurba_marseille","lat":43.243867,"lon":5.370585,"is_reserved":false,"is_disabled":false,"rental_uris":{"android":"levelo://app?vid=dda938c5-e868-46a8-8d0a-d2088581ff54","ios":"levelo://app?vid=dda938c5-e868-46a8-8d0a-d2088581ff54"},"vehicle_type_id":"4","last_reported":1742983857,"current_range_meters":11200,"station_id":"ce4bhhh2rcd13ifvqfk0","pricing_plan_id":"cebpf4jnsgd1na2vs0mg"},{"bike_id":"cddb2d48-ad91-422a-9966-039925cdc3aa","system_id":"levelo_inurba_marseille","lat":43.30177,"lon":5.37428,"is_reserved":false,"is_disabled":false,"rental_uris":{"android":"levelo://app?vid=cddb2d48-ad91-422a-9966-039925cdc3aa","ios":"levelo://app?vid=cddb2d48-ad91-422a-9966-039925cdc3aa"},"vehicle_type_id":"4","last_reported":1742983857,"current_range_meters":11200,"station_id":"ce4bgs92rcd13ifvqcc0","pricing_plan_id":"cebpf4jnsgd1na2vs0mg"},{"bike_id":"41a3dd54-69c8-4a8c-8cb4-82f3648e8acc","system_id":"levelo_inurba_marseille","lat":43.27369,"lon":5.36248,"is_reserved":false,"is_disabled":false,"rental_uris":{"android":"levelo://app?vid=41a3dd54-69c8-4a8c-8cb4-82f3648e8acc","ios":"levelo://app?vid=41a3dd54-69c8-4a8c-8cb4-82f3648e8acc"},"vehicle_type_id":"4","last_reported":1742983857,"current_range_meters":11200,"station_id":"ce4bhbh2rcd13ifvqeo0","pricing_plan_id":"cebpf4jnsgd1na2vs0mg"},{"bike_id":"8ba58759-9081-4a05-b632-d195bcc215b1","system_id":"levelo_inurba_marseille","lat":43.2768,"lon":5.3888,"is_reserved":false,"is_disabled":false,"rental_uris":{"android":"levelo://app?vid=8ba58759-9081-4a05-b632-d195bcc215b1","ios":"levelo://app?vid=8ba58759-9081-4a05-b632-d195bcc215b1"},"vehicle_type_id":"4","last_reported":1742983857,"current_range_meters":11200,"station_id":"ce4bhi12rcd13ifvqfo0","pricing_plan_id":"cebpf4jnsgd1na2vs0mg"},{"bike_id":"d1f0bfd4-c951-4e4e-b8ea-91fef0511b94","system_id":"levelo_inurba_marseille","lat":43.323589,"lon":5.367718,"is_reserved":false,"is_disabled":false,"rental_uris":{"android":"levelo://app?vid=d1f0bfd4-c951-4e4e-b8ea-91fef0511b94","ios":"levelo://app?vid=d1f0bfd4-c951-4e4e-b8ea-91fef0511b94"},"vehicle_type_id":"4","last_reported":1742983857,"current_range_meters":11600,"station_id":"ce4bhsh2rcd13ifvqi2g","pricing_plan_id":"cebpf4jnsgd1na2vs0mg"},{"bike_id":"03599c6b-490e-4a2d-a765-341059c01e7d","system_id":"levelo_inurba_marseille","lat":43.29721,"lon":5.37708,"is_reserved":false,"is_disabled":false,"rental_uris":{"android":"levelo://app?vid=03599c6b-490e-4a2d-a765-341059c01e7d","ios":"levelo://app?vid=03599c6b-490e-4a2d-a765-341059c01e7d"},"vehicle_type_id":"4","last_reported":1742983857,"current_range_meters":11600,"station_id":"ce4bgkh2rcd13ifvqbl0","pricing_plan_id":"cebpf4jnsgd1na2vs0mg"},{"bike_id":"d198bd5e-ca08-4c36-98c7-ddb707469f99","system_id":"levelo_inurba_marseille","lat":43.30186,"lon":5.36624,"is_reserved":false,"is_disabled":false,"rental_uris":{"android":"levelo://app?vid=d198bd5e-ca08-4c36-98c7-ddb707469f99","ios":"levelo://app?vid=d198bd5e-ca08-4c36-98c7-ddb707469f99"},"vehicle_type_id":"4","last_reported":1742983857,"current_range_meters":11600,"station_id":"ce4bgrh2rcd13ifvqc8g","pricing_plan_id":"cebpf4jnsgd1na2vs0mg"},{"bike_id":"c0acdd87-1691-46a1-8ceb-2b7953e71056","system_id":"levelo_inurba_marseille","lat":43.30539,"lon":5.36704,"is_reserved":false,"is_disabled":false,"rental_uris":{"android":"levelo://app?vid=c0acdd87-1691-46a1-8ceb-2b7953e71056","ios":"levelo://app?vid=c0acdd87-1691-46a1-8ceb-2b7953e71056"},"vehicle_type_id":"4","last_reported":1742983857,"current_range_meters":11600,"station_id":"ce4bgrp2rcd13ifvqc9g","pricing_plan_id":"cebpf4jnsgd1na2vs0mg"},{"bike_id":"e3afe5d8-8846-4a46-b89a-acb7b0094b2c","system_id":"levelo_inurba_marseille","lat":43.25924,"lon":5.40875,"is_reserved":false,"is_disabled":false,"rental_uris":{"android":"levelo://app?vid=e3afe5d8-8846-4a46-b89a-acb7b0094b2c","ios":"levelo://app?vid=e3afe5d8-8846-4a46-b89a-acb7b0094b2c"},"vehicle_type_id":"4","last_reported":1742983857,"current_range_meters":11600,"station_id":"ce4bhm92rcd13ifvqglg","pricing_plan_id":"cebpf4jnsgd1na2vs0mg"},{"bike_id":"3d63c1ea-398b-48a2-94ae-b7e44551f43f","system_id":"levelo_inurba_marseille","lat":43.2418,"lon":5.3973,"is_reserved":false,"is_disabled":false,"rental_uris":{"android":"levelo://app?vid=3d63c1ea-398b-48a2-94ae-b7e44551f43f","ios":"levelo://app?vid=3d63c1ea-398b-48a2-94ae-b7e44551f43f"},"vehicle_type_id":"4","last_reported":1742983857,"current_range_meters":11600,"station_id":"ce4bhn12rcd13ifvqgpg","pricing_plan_id":"cebpf4jnsgd1na2vs0mg"},{"bike_id":"2349ea78-e5ff-44c1-8a9d-5755df83b4b0","system_id":"levelo_inurba_marseille","lat":43.281,"lon":5.42672,"is_reserved":false,"is_disabled":false,"rental_uris":{"android":"levelo://app?vid=2349ea78-e5ff-44c1-8a9d-5755df83b4b0","ios":"levelo://app?vid=2349ea78-e5ff-44c1-8a9d-5755df83b4b0"},"vehicle_type_id":"4","last_reported":1742983857,"current_range_meters":11600,"station_id":"","pricing_plan_id":"cebpf4jnsgd1na2vs0mg"},{"bike_id":"589f1146-20bc-4a88-9ab7-60ee275b3000","system_id":"levelo_inurba_marseille","lat":43.29707,"lon":5.38006,"is_reserved":false,"is_disabled":false,"rental_uris":{"android":"levelo://app?vid=589f1146-20bc-4a88-9ab7-60ee275b3000","ios":"levelo://app?vid=589f1146-20bc-4a88-9ab7-60ee275b3000"},"vehicle_type_id":"4","last_reported":1742983857,"current_range_meters":12000,"station_id":"","pricing_plan_id":"cebpf4jnsgd1na2vs0mg"},{"bike_id":"8ee06270-6e68-4f36-943c-c6853abcfcb7","system_id":"levelo_inurba_marseille","lat":43.30944,"lon":5.39055,"is_reserved":false,"is_disabled":false,"rental_uris":{"android":"levelo://app?vid=8ee06270-6e68-4f36-943c-c6853abcfcb7","ios":"levelo://app?vid=8ee06270-6e68-4f36-943c-c6853abcfcb7"},"vehicle_type_id":"4","last_reported":1742983857,"current_range_meters":12000,"station_id":"ce4bgup2rcd13ifvqco0","pricing_plan_id":"cebpf4jnsgd1na2vs0mg"},{"bike_id":"206203ef-d844-4044-984d-170a073ea396","system_id":"levelo_inurba_marseille","lat":43.32368,"lon":5.38884,"is_reserved":false,"is_disabled":false,"rental_uris":{"android":"levelo://app?vid=206203ef-d844-4044-984d-170a073ea396","ios":"levelo://app?vid=206203ef-d844-4044-984d-170a073ea396"},"vehicle_type_id":"4","last_reported":1742983857,"current_range_meters":12400,"station_id":"ce4bhqp2rcd13ifvqhog","pricing_plan_id":"cebpf4jnsgd1na2vs0mg"},{"bike_id":"7e4b498a-163b-450a-94ab-936e7be9c83c","system_id":"levelo_inurba_marseille","lat":43.32362,"lon":5.36765,"is_reserved":false,"is_disabled":false,"rental_uris":{"android":"levelo://app?vid=7e4b498a-163b-450a-94ab-936e7be9c83c","ios":"levelo://app?vid=7e4b498a-163b-450a-94ab-936e7be9c83c"},"vehicle_type_id":"4","last_reported":1742983857,"current_range_meters":12400,"station_id":"ce4bhsh2rcd13ifvqi2g","pricing_plan_id":"cebpf4jnsgd1na2vs0mg"},{"bike_id":"ef1feedc-5425-4f50-a645-66f231623a5e","system_id":"levelo_inurba_marseille","lat":43.33596,"lon":5.41006,"is_reserved":false,"is_disabled":false,"rental_uris":{"android":"levelo://app?vid=ef1feedc-5425-4f50-a645-66f231623a5e","ios":"levelo://app?vid=ef1feedc-5425-4f50-a645-66f231623a5e"},"vehicle_type_id":"4","last_reported":1742983857,"current_range_meters":12400,"station_id":"ce4bhqh2rcd13ifvqhmg","pricing_plan_id":"cebpf4jnsgd1na2vs0mg"},{"bike_id":"7e7a371c-b9b4-41ba-9c03-4ba1bef7f880","system_id":"levelo_inurba_marseille","lat":43.23144,"lon":5.43715,"is_reserved":false,"is_disabled":false,"rental_uris":{"android":"levelo://app?vid=7e7a371c-b9b4-41ba-9c03-4ba1bef7f880","ios":"levelo://app?vid=7e7a371c-b9b4-41ba-9c03-4ba1bef7f880"},"vehicle_type_id":"4","last_reported":1742983857,"current_range_meters":12400,"station_id":"ce4bhmp2rcd13ifvqgog","pricing_plan_id":"cebpf4jnsgd1na2vs0mg"},{"bike_id":"a7752a5b-ca9d-4c71-86bd-8858eb1b9e63","system_id":"levelo_inurba_marseille","lat":43.26061,"lon":5.39396,"is_reserved":false,"is_disabled":false,"rental_uris":{"android":"levelo://app?vid=a7752a5b-ca9d-4c71-86bd-8858eb1b9e63","ios":"levelo://app?vid=a7752a5b-ca9d-4c71-86bd-8858eb1b9e63"},"vehicle_type_id":"4","last_reported":1742983857,"current_range_meters":12400,"station_id":"ce4bhh92rcd13ifvqfj0","pricing_plan_id":"cebpf4jnsgd1na2vs0mg"},{"bike_id":"ceb50989-9a96-4a68-a2a6-d517e965d2d6","system_id":"levelo_inurba_marseille","lat":43.29252,"lon":5.37606,"is_reserved":false,"is_disabled":false,"rental_uris":{"android":"levelo://app?vid=ceb50989-9a96-4a68-a2a6-d517e965d2d6","ios":"levelo://app?vid=ceb50989-9a96-4a68-a2a6-d517e965d2d6"},"vehicle_type_id":"4","last_reported":1742983857,"current_range_meters":12400,"station_id":"ce4bgi12rcd13ifvqb80","pricing_plan_id":"cebpf4jnsgd1na2vs0mg"},{"bike_id":"ccdfac36-22da-4f2d-bd50-7bf147cc0fff","system_id":"levelo_inurba_marseille","lat":43.29912,"lon":5.43647,"is_reserved":false,"is_disabled":false,"rental_uris":{"android":"levelo://app?vid=ccdfac36-22da-4f2d-bd50-7bf147cc0fff","ios":"levelo://app?vid=ccdfac36-22da-4f2d-bd50-7bf147cc0fff"},"vehicle_type_id":"4","last_reported":1742983857,"current_range_meters":12800,"station_id":"ce4bhpp2rcd13ifvqhfg","pricing_plan_id":"cebpf4jnsgd1na2vs0mg"},{"bike_id":"63043a6e-0938-4bdc-ad8a-b999a42cee11","system_id":"levelo_inurba_marseille","lat":43.28376,"lon":5.38639,"is_reserved":false,"is_disabled":false,"rental_uris":{"android":"levelo://app?vid=63043a6e-0938-4bdc-ad8a-b999a42cee11","ios":"levelo://app?vid=63043a6e-0938-4bdc-ad8a-b999a42cee11"},"vehicle_type_id":"4","last_reported":1742983857,"current_range_meters":12800,"station_id":"ce4bh492rcd13ifvqdvg","pricing_plan_id":"cebpf4jnsgd1na2vs0mg"},{"bike_id":"2623a753-dcde-4ffa-9bf1-3275e6037e7a","system_id":"levelo_inurba_marseille","lat":43.32506,"lon":5.36553,"is_reserved":false,"is_disabled":false,"rental_uris":{"android":"levelo://app?vid=2623a753-dcde-4ffa-9bf1-3275e6037e7a","ios":"levelo://app?vid=2623a753-dcde-4ffa-9bf1-3275e6037e7a"},"vehicle_type_id":"4","last_reported":1742983857,"current_range_meters":12800,"station_id":"ce4bhs12rcd13ifvqhvg","pricing_plan_id":"cebpf4jnsgd1na2vs0mg"},{"bike_id":"ad737e2f-11da-423b-a467-d138055342bd","system_id":"levelo_inurba_marseille","lat":43.23159,"lon":5.437,"is_reserved":false,"is_disabled":false,"rental_uris":{"android":"levelo://app?vid=ad737e2f-11da-423b-a467-d138055342bd","ios":"levelo://app?vid=ad737e2f-11da-423b-a467-d138055342bd"},"vehicle_type_id":"4","last_reported":1742983857,"current_range_meters":12800,"station_id":"ce4bhmp2rcd13ifvqgog","pricing_plan_id":"cebpf4jnsgd1na2vs0mg"},{"bike_id":"484928c8-8c60-48c3-a758-e3e274268153","system_id":"levelo_inurba_marseille","lat":43.241639,"lon":5.363911,"is_reserved":false,"is_disabled":false,"rental_uris":{"android":"levelo://app?vid=484928c8-8c60-48c3-a758-e3e274268153","ios":"levelo://app?vid=484928c8-8c60-48c3-a758-e3e274268153"},"vehicle_type_id":"4","last_reported":1742983857,"current_range_meters":12800,"station_id":"cpo36qri1sfpv3e86is0","pricing_plan_id":"cebpf4jnsgd1na2vs0mg"},{"bike_id":"57674c2f-5703-4d0f-a83e-7d0865a8b3e8","system_id":"levelo_inurba_marseille","lat":43.27224,"lon":5.39172,"is_reserved":false,"is_disabled":false,"rental_uris":{"android":"levelo://app?vid=57674c2f-5703-4d0f-a83e-7d0865a8b3e8","ios":"levelo://app?vid=57674c2f-5703-4d0f-a83e-7d0865a8b3e8"},"vehicle_type_id":"4","last_reported":1742983857,"current_range_meters":12000,"station_id":"ce4bhhp2rcd13ifvqfm0","pricing_plan_id":"cebpf4jnsgd1na2vs0mg"},{"bike_id":"e1286bcb-31ee-4020-bfdf-b33e9a0bfa99","system_id":"levelo_inurba_marseille","lat":43.24663,"lon":5.38165,"is_reserved":false,"is_disabled":false,"rental_uris":{"android":"levelo://app?vid=e1286bcb-31ee-4020-bfdf-b33e9a0bfa99","ios":"levelo://app?vid=e1286bcb-31ee-4020-bfdf-b33e9a0bfa99"},"vehicle_type_id":"4","last_reported":1742983857,"current_range_meters":12800,"station_id":"ce4bhih2rcd13ifvqfr0","pricing_plan_id":"cebpf4jnsgd1na2vs0mg"},{"bike_id":"33bd8f2b-1c87-47f5-9283-732a756c9560","system_id":"levelo_inurba_marseille","lat":43.28854,"lon":5.35844,"is_reserved":false,"is_disabled":false,"rental_uris":{"android":"levelo://app?vid=33bd8f2b-1c87-47f5-9283-732a756c9560","ios":"levelo://app?vid=33bd8f2b-1c87-47f5-9283-732a756c9560"},"vehicle_type_id":"4","last_reported":1742983857,"current_range_meters":13600,"station_id":"ce4bhb12rcd13ifvqem0","pricing_plan_id":"cebpf4jnsgd1na2vs0mg"},{"bike_id":"338ef5ef-6ed0-4719-a7ea-82be458e61b4","system_id":"levelo_inurba_marseille","lat":43.24401,"lon":5.37048,"is_reserved":false,"is_disabled":false,"rental_uris":{"android":"levelo://app?vid=338ef5ef-6ed0-4719-a7ea-82be458e61b4","ios":"levelo://app?vid=338ef5ef-6ed0-4719-a7ea-82be458e61b4"},"vehicle_type_id":"4","last_reported":1742983857,"current_range_meters":12800,"station_id":"ce4bhhh2rcd13ifvqfk0","pricing_plan_id":"cebpf4jnsgd1na2vs0mg"},{"bike_id":"638022dd-4547-48d2-bf6b-3ac63c13562c","system_id":"levelo_inurba_marseille","lat":43.30903,"lon":5.36852,"is_reserved":false,"is_disabled":false,"rental_uris":{"android":"levelo://app?vid=638022dd-4547-48d2-bf6b-3ac63c13562c","ios":"levelo://app?vid=638022dd-4547-48d2-bf6b-3ac63c13562c"},"vehicle_type_id":"4","last_reported":1742983857,"current_range_meters":13600,"station_id":"ce4bgn92rcd13ifvqbvg","pricing_plan_id":"cebpf4jnsgd1na2vs0mg"},{"bike_id":"379879bf-1f7f-45f5-9cac-b09d574b3620","system_id":"levelo_inurba_marseille","lat":43.23169,"lon":5.43702,"is_reserved":false,"is_disabled":false,"rental_uris":{"android":"levelo://app?vid=379879bf-1f7f-45f5-9cac-b09d574b3620","ios":"levelo://app?vid=379879bf-1f7f-45f5-9cac-b09d574b3620"},"vehicle_type_id":"4","last_reported":1742983857,"current_range_meters":13600,"station_id":"ce4bhmp2rcd13ifvqgog","pricing_plan_id":"cebpf4jnsgd1na2vs0mg"},{"bike_id":"9490ab3f-b563-4312-b2ed-009944c7886e","system_id":"levelo_inurba_marseille","lat":43.3248,"lon":5.36568,"is_reserved":false,"is_disabled":false,"rental_uris":{"android":"levelo://app?vid=9490ab3f-b563-4312-b2ed-009944c7886e","ios":"levelo://app?vid=9490ab3f-b563-4312-b2ed-009944c7886e"},"vehicle_type_id":"4","last_reported":1742983857,"current_range_meters":13600,"station_id":"ce4bhs12rcd13ifvqhvg","pricing_plan_id":"cebpf4jnsgd1na2vs0mg"},{"bike_id":"9e4dae27-4c9b-4b7d-bc96-eb2a33a07992","system_id":"levelo_inurba_marseille","lat":43.25932,"lon":5.40909,"is_reserved":false,"is_disabled":false,"rental_uris":{"android":"levelo://app?vid=9e4dae27-4c9b-4b7d-bc96-eb2a33a07992","ios":"levelo://app?vid=9e4dae27-4c9b-4b7d-bc96-eb2a33a07992"},"vehicle_type_id":"4","last_reported":1742983857,"current_range_meters":13600,"station_id":"ce4bhm92rcd13ifvqglg","pricing_plan_id":"cebpf4jnsgd1na2vs0mg"},{"bike_id":"f5981ddc-72b6-4f23-a49d-a92eebcc772b","system_id":"levelo_inurba_marseille","lat":43.2972,"lon":5.37693,"is_reserved":false,"is_disabled":false,"rental_uris":{"android":"levelo://app?vid=f5981ddc-72b6-4f23-a49d-a92eebcc772b","ios":"levelo://app?vid=f5981ddc-72b6-4f23-a49d-a92eebcc772b"},"vehicle_type_id":"4","last_reported":1742983857,"current_range_meters":13600,"station_id":"ce4bgkh2rcd13ifvqbl0","pricing_plan_id":"cebpf4jnsgd1na2vs0mg"},{"bike_id":"feb02021-c91c-4994-8c83-a0f717e424da","system_id":"levelo_inurba_marseille","lat":43.25007,"lon":5.38909,"is_reserved":false,"is_disabled":false,"rental_uris":{"android":"levelo://app?vid=feb02021-c91c-4994-8c83-a0f717e424da","ios":"levelo://app?vid=feb02021-c91c-4994-8c83-a0f717e424da"},"vehicle_type_id":"4","last_reported":1742983857,"current_range_meters":13600,"station_id":"ce4bhgp2rcd13ifvqfd0","pricing_plan_id":"cebpf4jnsgd1na2vs0mg"},{"bike_id":"97230ec6-cb8c-42cf-baef-83294adc4a14","system_id":"levelo_inurba_marseille","lat":43.2953,"lon":5.37524,"is_reserved":false,"is_disabled":false,"rental_uris":{"android":"levelo://app?vid=97230ec6-cb8c-42cf-baef-83294adc4a14","ios":"levelo://app?vid=97230ec6-cb8c-42cf-baef-83294adc4a14"},"vehicle_type_id":"4","last_reported":1742983857,"current_range_meters":13600,"station_id":"ce4bgkp2rcd13ifvqbmg","pricing_plan_id":"cebpf4jnsgd1na2vs0mg"},{"bike_id":"49749916-1602-4a67-bcc3-803f3f931eb7","system_id":"levelo_inurba_marseille","lat":43.30385,"lon":5.42471,"is_reserved":false,"is_disabled":false,"rental_uris":{"android":"levelo://app?vid=49749916-1602-4a67-bcc3-803f3f931eb7","ios":"levelo://app?vid=49749916-1602-4a67-bcc3-803f3f931eb7"},"vehicle_type_id":"4","last_reported":1742983857,"current_range_meters":13600,"station_id":"ce4bhoh2rcd13ifvqh6g","pricing_plan_id":"cebpf4jnsgd1na2vs0mg"},{"bike_id":"0bc49e3b-e740-418e-b394-24956e0fc462","system_id":"levelo_inurba_marseille","lat":43.28951,"lon":5.39659,"is_reserved":false,"is_disabled":false,"rental_uris":{"android":"levelo://app?vid=0bc49e3b-e740-418e-b394-24956e0fc462","ios":"levelo://app?vid=0bc49e3b-e740-418e-b394-24956e0fc462"},"vehicle_type_id":"4","last_reported":1742983857,"current_range_meters":14000,"station_id":"ce4bh3h2rcd13ifvqdn0","pricing_plan_id":"cebpf4jnsgd1na2vs0mg"},{"bike_id":"5b830359-30b8-45d9-a902-126192112277","system_id":"levelo_inurba_marseille","lat":43.231976,"lon":5.355458,"is_reserved":false,"is_disabled":false,"rental_uris":{"android":"levelo://app?vid=5b830359-30b8-45d9-a902-126192112277","ios":"levelo://app?vid=5b830359-30b8-45d9-a902-126192112277"},"vehicle_type_id":"4","last_reported":1742983857,"current_range_meters":14000,"station_id":"ce4bhu92rcd13ifvqi70","pricing_plan_id":"cebpf4jnsgd1na2vs0mg"},{"bike_id":"57f59764-2b05-49be-8fc8-b1afcb7241f2","system_id":"levelo_inurba_marseille","lat":43.29508,"lon":5.37507,"is_reserved":false,"is_disabled":false,"rental_uris":{"android":"levelo://app?vid=57f59764-2b05-49be-8fc8-b1afcb7241f2","ios":"levelo://app?vid=57f59764-2b05-49be-8fc8-b1afcb7241f2"},"vehicle_type_id":"4","last_reported":1742983857,"current_range_meters":14000,"station_id":"ce4bgkp2rcd13ifvqbmg","pricing_plan_id":"cebpf4jnsgd1na2vs0mg"},{"bike_id":"396e25e1-8192-4ed8-8cee-f4c98234b730","system_id":"levelo_inurba_marseille","lat":43.2972,"lon":5.37696,"is_reserved":false,"is_disabled":false,"rental_uris":{"android":"levelo://app?vid=396e25e1-8192-4ed8-8cee-f4c98234b730","ios":"levelo://app?vid=396e25e1-8192-4ed8-8cee-f4c98234b730"},"vehicle_type_id":"4","last_reported":1742983857,"current_range_meters":14000,"station_id":"ce4bgkh2rcd13ifvqbl0","pricing_plan_id":"cebpf4jnsgd1na2vs0mg"},{"bike_id":"f1414457-b578-4c46-b2bf-7e89a08e69ff","system_id":"levelo_inurba_marseille","lat":43.30552,"lon":5.36541,"is_reserved":false,"is_disabled":false,"rental_uris":{"android":"levelo://app?vid=f1414457-b578-4c46-b2bf-7e89a08e69ff","ios":"levelo://app?vid=f1414457-b578-4c46-b2bf-7e89a08e69ff"},"vehicle_type_id":"4","last_reported":1742983857,"current_range_meters":14000,"station_id":"ce4bgs12rcd13ifvqcag","pricing_plan_id":"cebpf4jnsgd1na2vs0mg"},{"bike_id":"68d42813-4eb5-41fe-a58d-c64b32f2b935","system_id":"levelo_inurba_marseille","lat":43.32357,"lon":5.36755,"is_reserved":false,"is_disabled":false,"rental_uris":{"android":"levelo://app?vid=68d42813-4eb5-41fe-a58d-c64b32f2b935","ios":"levelo://app?vid=68d42813-4eb5-41fe-a58d-c64b32f2b935"},"vehicle_type_id":"4","last_reported":1742983857,"current_range_meters":14000,"station_id":"ce4bhsh2rcd13ifvqi2g","pricing_plan_id":"cebpf4jnsgd1na2vs0mg"},{"bike_id":"68254b2f-a8ae-4baa-bc07-7b79f85032f3","system_id":"levelo_inurba_marseille","lat":43.2738,"lon":5.36284,"is_reserved":false,"is_disabled":false,"rental_uris":{"android":"levelo://app?vid=68254b2f-a8ae-4baa-bc07-7b79f85032f3","ios":"levelo://app?vid=68254b2f-a8ae-4baa-bc07-7b79f85032f3"},"vehicle_type_id":"4","last_reported":1742983857,"current_range_meters":14000,"station_id":"ce4bhbh2rcd13ifvqeo0","pricing_plan_id":"cebpf4jnsgd1na2vs0mg"},{"bike_id":"21146351-9ebe-44aa-8e20-996ab49dff22","system_id":"levelo_inurba_marseille","lat":43.25826,"lon":5.39427,"is_reserved":false,"is_disabled":false,"rental_uris":{"android":"levelo://app?vid=21146351-9ebe-44aa-8e20-996ab49dff22","ios":"levelo://app?vid=21146351-9ebe-44aa-8e20-996ab49dff22"},"vehicle_type_id":"4","last_reported":1742983857,"current_range_meters":14000,"station_id":"ce4bhip2rcd13ifvqft0","pricing_plan_id":"cebpf4jnsgd1na2vs0mg"},{"bike_id":"8a1d064b-8562-46a4-8539-94286ec64257","system_id":"levelo_inurba_marseille","lat":43.2586,"lon":5.39913,"is_reserved":false,"is_disabled":false,"rental_uris":{"android":"levelo://app?vid=8a1d064b-8562-46a4-8539-94286ec64257","ios":"levelo://app?vid=8a1d064b-8562-46a4-8539-94286ec64257"},"vehicle_type_id":"4","last_reported":1742983857,"current_range_meters":14400,"station_id":"ce4bhl92rcd13ifvqghg","pricing_plan_id":"cebpf4jnsgd1na2vs0mg"},{"bike_id":"46bc7627-5963-437b-83ed-b3f9497370e8","system_id":"levelo_inurba_marseille","lat":43.29909,"lon":5.43661,"is_reserved":false,"is_disabled":false,"rental_uris":{"android":"levelo://app?vid=46bc7627-5963-437b-83ed-b3f9497370e8","ios":"levelo://app?vid=46bc7627-5963-437b-83ed-b3f9497370e8"},"vehicle_type_id":"4","last_reported":1742983857,"current_range_meters":14400,"station_id":"ce4bhpp2rcd13ifvqhfg","pricing_plan_id":"cebpf4jnsgd1na2vs0mg"},{"bike_id":"ff7f3494-8a2b-481e-b308-a06ee7a71334","system_id":"levelo_inurba_marseille","lat":43.27409,"lon":5.3939,"is_reserved":false,"is_disabled":false,"rental_uris":{"android":"levelo://app?vid=ff7f3494-8a2b-481e-b308-a06ee7a71334","ios":"levelo://app?vid=ff7f3494-8a2b-481e-b308-a06ee7a71334"},"vehicle_type_id":"4","last_reported":1742983857,"current_range_meters":14400,"station_id":"","pricing_plan_id":"cebpf4jnsgd1na2vs0mg"},{"bike_id":"d5c4270d-4def-48aa-99a1-67e19a2d11a6","system_id":"levelo_inurba_marseille","lat":43.24166,"lon":5.36395,"is_reserved":false,"is_disabled":false,"rental_uris":{"android":"levelo://app?vid=d5c4270d-4def-48aa-99a1-67e19a2d11a6","ios":"levelo://app?vid=d5c4270d-4def-48aa-99a1-67e19a2d11a6"},"vehicle_type_id":"4","last_reported":1742983857,"current_range_meters":14400,"station_id":"cpo36qri1sfpv3e86is0","pricing_plan_id":"cebpf4jnsgd1na2vs0mg"},{"bike_id":"c57e4222-efbc-4eb5-807f-dd36c16becc2","system_id":"levelo_inurba_marseille","lat":43.30544,"lon":5.36708,"is_reserved":false,"is_disabled":false,"rental_uris":{"android":"levelo://app?vid=c57e4222-efbc-4eb5-807f-dd36c16becc2","ios":"levelo://app?vid=c57e4222-efbc-4eb5-807f-dd36c16becc2"},"vehicle_type_id":"4","last_reported":1742983857,"current_range_meters":14400,"station_id":"ce4bgrp2rcd13ifvqc9g","pricing_plan_id":"cebpf4jnsgd1na2vs0mg"},{"bike_id":"b62bbc4f-09e4-4604-9ba9-3e5c583069ab","system_id":"levelo_inurba_marseille","lat":43.3054,"lon":5.36532,"is_reserved":false,"is_disabled":false,"rental_uris":{"android":"levelo://app?vid=b62bbc4f-09e4-4604-9ba9-3e5c583069ab","ios":"levelo://app?vid=b62bbc4f-09e4-4604-9ba9-3e5c583069ab"},"vehicle_type_id":"4","last_reported":1742983857,"current_range_meters":14800,"station_id":"ce4bgs12rcd13ifvqcag","pricing_plan_id":"cebpf4jnsgd1na2vs0mg"},{"bike_id":"c6e3452b-f8d0-48b5-b208-01d642929070","system_id":"levelo_inurba_marseille","lat":43.30543,"lon":5.36688,"is_reserved":false,"is_disabled":false,"rental_uris":{"android":"levelo://app?vid=c6e3452b-f8d0-48b5-b208-01d642929070","ios":"levelo://app?vid=c6e3452b-f8d0-48b5-b208-01d642929070"},"vehicle_type_id":"4","last_reported":1742983857,"current_range_meters":14800,"station_id":"ce4bgrp2rcd13ifvqc9g","pricing_plan_id":"cebpf4jnsgd1na2vs0mg"},{"bike_id":"d72b2321-ec34-48cf-868e-8c5e65afe96e","system_id":"levelo_inurba_marseille","lat":43.27918,"lon":5.39578,"is_reserved":false,"is_disabled":false,"rental_uris":{"android":"levelo://app?vid=d72b2321-ec34-48cf-868e-8c5e65afe96e","ios":"levelo://app?vid=d72b2321-ec34-48cf-868e-8c5e65afe96e"},"vehicle_type_id":"4","last_reported":1742983857,"current_range_meters":15200,"station_id":"ce4bhf92rcd13ifvqf40","pricing_plan_id":"cebpf4jnsgd1na2vs0mg"},{"bike_id":"818afcaf-08c4-48e2-bead-bf2127aea8c7","system_id":"levelo_inurba_marseille","lat":43.26171,"lon":5.37488,"is_reserved":false,"is_disabled":false,"rental_uris":{"android":"levelo://app?vid=818afcaf-08c4-48e2-bead-bf2127aea8c7","ios":"levelo://app?vid=818afcaf-08c4-48e2-bead-bf2127aea8c7"},"vehicle_type_id":"4","last_reported":1742983857,"current_range_meters":15200,"station_id":"","pricing_plan_id":"cebpf4jnsgd1na2vs0mg"},{"bike_id":"83aac015-361e-46fc-99b9-1f07a74b976c","system_id":"levelo_inurba_marseille","lat":43.33599,"lon":5.40997,"is_reserved":false,"is_disabled":false,"rental_uris":{"android":"levelo://app?vid=83aac015-361e-46fc-99b9-1f07a74b976c","ios":"levelo://app?vid=83aac015-361e-46fc-99b9-1f07a74b976c"},"vehicle_type_id":"4","last_reported":1742983857,"current_range_meters":15200,"station_id":"ce4bhqh2rcd13ifvqhmg","pricing_plan_id":"cebpf4jnsgd1na2vs0mg"},{"bike_id":"f75551e1-bb42-401e-8a19-1a49ee64fedd","system_id":"levelo_inurba_marseille","lat":43.25086,"lon":5.39526,"is_reserved":false,"is_disabled":false,"rental_uris":{"android":"levelo://app?vid=f75551e1-bb42-401e-8a19-1a49ee64fedd","ios":"levelo://app?vid=f75551e1-bb42-401e-8a19-1a49ee64fedd"},"vehicle_type_id":"4","last_reported":1742983857,"current_range_meters":15200,"station_id":"ce4bhm12rcd13ifvqgkg","pricing_plan_id":"cebpf4jnsgd1na2vs0mg"},{"bike_id":"9d455cf6-f358-4d0d-b849-ee2df3db9ead","system_id":"levelo_inurba_marseille","lat":43.29274,"lon":5.36842,"is_reserved":false,"is_disabled":false,"rental_uris":{"android":"levelo://app?vid=9d455cf6-f358-4d0d-b849-ee2df3db9ead","ios":"levelo://app?vid=9d455cf6-f358-4d0d-b849-ee2df3db9ead"},"vehicle_type_id":"4","last_reported":1742983857,"current_range_meters":15200,"station_id":"ce4bhbp2rcd13ifvqesg","pricing_plan_id":"cebpf4jnsgd1na2vs0mg"},{"bike_id":"a3ae93ad-53e5-4cc9-b231-7cabfe495b80","system_id":"levelo_inurba_marseille","lat":43.29847,"lon":5.3625,"is_reserved":false,"is_disabled":false,"rental_uris":{"android":"levelo://app?vid=a3ae93ad-53e5-4cc9-b231-7cabfe495b80","ios":"levelo://app?vid=a3ae93ad-53e5-4cc9-b231-7cabfe495b80"},"vehicle_type_id":"4","last_reported":1742983857,"current_range_meters":15200,"station_id":"ce4bgpp2rcd13ifvqc3g","pricing_plan_id":"cebpf4jnsgd1na2vs0mg"},{"bike_id":"ab255577-419b-4b2c-b48f-5c6fb00afdfd","system_id":"levelo_inurba_marseille","lat":43.32361,"lon":5.36739,"is_reserved":false,"is_disabled":false,"rental_uris":{"android":"levelo://app?vid=ab255577-419b-4b2c-b48f-5c6fb00afdfd","ios":"levelo://app?vid=ab255577-419b-4b2c-b48f-5c6fb00afdfd"},"vehicle_type_id":"4","last_reported":1742983857,"current_range_meters":15200,"station_id":"ce4bhsh2rcd13ifvqi2g","pricing_plan_id":"cebpf4jnsgd1na2vs0mg"},{"bike_id":"94e79fc7-9367-4952-8689-794a28fc3d39","system_id":"levelo_inurba_marseille","lat":43.299,"lon":5.43664,"is_reserved":false,"is_disabled":false,"rental_uris":{"android":"levelo://app?vid=94e79fc7-9367-4952-8689-794a28fc3d39","ios":"levelo://app?vid=94e79fc7-9367-4952-8689-794a28fc3d39"},"vehicle_type_id":"4","last_reported":1742983857,"current_range_meters":15200,"station_id":"ce4bhpp2rcd13ifvqhfg","pricing_plan_id":"cebpf4jnsgd1na2vs0mg"},{"bike_id":"3cacb6a0-7ea6-4b88-824d-1ab254ed1d44","system_id":"levelo_inurba_marseille","lat":43.33606,"lon":5.41032,"is_reserved":false,"is_disabled":false,"rental_uris":{"android":"levelo://app?vid=3cacb6a0-7ea6-4b88-824d-1ab254ed1d44","ios":"levelo://app?vid=3cacb6a0-7ea6-4b88-824d-1ab254ed1d44"},"vehicle_type_id":"4","last_reported":1742983857,"current_range_meters":15200,"station_id":"ce4bhqh2rcd13ifvqhmg","pricing_plan_id":"cebpf4jnsgd1na2vs0mg"},{"bike_id":"5a86a0ff-a812-42dc-84dd-dff8f4cf06da","system_id":"levelo_inurba_marseille","lat":43.28125,"lon":5.37801,"is_reserved":false,"is_disabled":false,"rental_uris":{"android":"levelo://app?vid=5a86a0ff-a812-42dc-84dd-dff8f4cf06da","ios":"levelo://app?vid=5a86a0ff-a812-42dc-84dd-dff8f4cf06da"},"vehicle_type_id":"4","last_reported":1742983857,"current_range_meters":15200,"station_id":"ce4bha12rcd13ifvqee0","pricing_plan_id":"cebpf4jnsgd1na2vs0mg"},{"bike_id":"3bb962a0-0ba4-41c4-b21a-b12460cceeb0","system_id":"levelo_inurba_marseille","lat":43.27306,"lon":5.39066,"is_reserved":false,"is_disabled":false,"rental_uris":{"android":"levelo://app?vid=3bb962a0-0ba4-41c4-b21a-b12460cceeb0","ios":"levelo://app?vid=3bb962a0-0ba4-41c4-b21a-b12460cceeb0"},"vehicle_type_id":"4","last_reported":1742983857,"current_range_meters":15200,"station_id":"ce4bhgp2rcd13ifvqfe0","pricing_plan_id":"cebpf4jnsgd1na2vs0mg"},{"bike_id":"e248b38b-c29e-4a88-808a-bebb493d0d86","system_id":"levelo_inurba_marseille","lat":43.2441,"lon":5.37044,"is_reserved":false,"is_disabled":false,"rental_uris":{"android":"levelo://app?vid=e248b38b-c29e-4a88-808a-bebb493d0d86","ios":"levelo://app?vid=e248b38b-c29e-4a88-808a-bebb493d0d86"},"vehicle_type_id":"4","last_reported":1742983857,"current_range_meters":16000,"station_id":"ce4bhhh2rcd13ifvqfk0","pricing_plan_id":"cebpf4jnsgd1na2vs0mg"},{"bike_id":"232acc96-9fcd-4c8f-8fdc-45d788580ac1","system_id":"levelo_inurba_marseille","lat":43.29539,"lon":5.38537,"is_reserved":false,"is_disabled":false,"rental_uris":{"android":"levelo://app?vid=232acc96-9fcd-4c8f-8fdc-45d788580ac1","ios":"levelo://app?vid=232acc96-9fcd-4c8f-8fdc-45d788580ac1"},"vehicle_type_id":"4","last_reported":1742983857,"current_range_meters":16000,"station_id":"ce4bgih2rcd13ifvqba0","pricing_plan_id":"cebpf4jnsgd1na2vs0mg"},{"bike_id":"a7a09dd7-2f8e-4f88-ae28-7e95ddd1c10a","system_id":"levelo_inurba_marseille","lat":43.26573,"lon":5.38979,"is_reserved":false,"is_disabled":false,"rental_uris":{"android":"levelo://app?vid=a7a09dd7-2f8e-4f88-ae28-7e95ddd1c10a","ios":"levelo://app?vid=a7a09dd7-2f8e-4f88-ae28-7e95ddd1c10a"},"vehicle_type_id":"4","last_reported":1742983857,"current_range_meters":16000,"station_id":"ce4bhe12rcd13ifvqf30","pricing_plan_id":"cebpf4jnsgd1na2vs0mg"},{"bike_id":"069b06e8-a591-409a-99eb-5f5ed3322248","system_id":"levelo_inurba_marseille","lat":43.26581,"lon":5.39017,"is_reserved":false,"is_disabled":false,"rental_uris":{"android":"levelo://app?vid=069b06e8-a591-409a-99eb-5f5ed3322248","ios":"levelo://app?vid=069b06e8-a591-409a-99eb-5f5ed3322248"},"vehicle_type_id":"4","last_reported":1742983857,"current_range_meters":16000,"station_id":"ce4bhe12rcd13ifvqf30","pricing_plan_id":"cebpf4jnsgd1na2vs0mg"},{"bike_id":"91b528d9-2fac-4545-8a89-e2ce1c5c2685","system_id":"levelo_inurba_marseille","lat":43.30171,"lon":5.36615,"is_reserved":false,"is_disabled":false,"rental_uris":{"android":"levelo://app?vid=91b528d9-2fac-4545-8a89-e2ce1c5c2685","ios":"levelo://app?vid=91b528d9-2fac-4545-8a89-e2ce1c5c2685"},"vehicle_type_id":"4","last_reported":1742983857,"current_range_meters":16000,"station_id":"ce4bgrh2rcd13ifvqc8g","pricing_plan_id":"cebpf4jnsgd1na2vs0mg"},{"bike_id":"75c7187b-7cb5-4136-b180-795a32bcbe1d","system_id":"levelo_inurba_marseille","lat":43.27974,"lon":5.38589,"is_reserved":false,"is_disabled":true,"rental_uris":{"android":"levelo://app?vid=75c7187b-7cb5-4136-b180-795a32bcbe1d","ios":"levelo://app?vid=75c7187b-7cb5-4136-b180-795a32bcbe1d"},"vehicle_type_id":"4","last_reported":1742983857,"current_range_meters":16000,"station_id":"","pricing_plan_id":"cebpf4jnsgd1na2vs0mg"},{"bike_id":"22fab63b-0a45-437e-94f0-df311425c259","system_id":"levelo_inurba_marseille","lat":43.23154,"lon":5.43714,"is_reserved":false,"is_disabled":false,"rental_uris":{"android":"levelo://app?vid=22fab63b-0a45-437e-94f0-df311425c259","ios":"levelo://app?vid=22fab63b-0a45-437e-94f0-df311425c259"},"vehicle_type_id":"4","last_reported":1742983857,"current_range_meters":16000,"station_id":"ce4bhmp2rcd13ifvqgog","pricing_plan_id":"cebpf4jnsgd1na2vs0mg"},{"bike_id":"6998abca-5316-4de7-9281-f1119ffbd138","system_id":"levelo_inurba_marseille","lat":43.30548,"lon":5.3654,"is_reserved":false,"is_disabled":false,"rental_uris":{"android":"levelo://app?vid=6998abca-5316-4de7-9281-f1119ffbd138","ios":"levelo://app?vid=6998abca-5316-4de7-9281-f1119ffbd138"},"vehicle_type_id":"4","last_reported":1742983857,"current_range_meters":16000,"station_id":"ce4bgs12rcd13ifvqcag","pricing_plan_id":"cebpf4jnsgd1na2vs0mg"},{"bike_id":"a299f473-f05e-4a83-9d94-ab148ed6928e","system_id":"levelo_inurba_marseille","lat":43.250566,"lon":5.403107,"is_reserved":false,"is_disabled":false,"rental_uris":{"android":"levelo://app?vid=a299f473-f05e-4a83-9d94-ab148ed6928e","ios":"levelo://app?vid=a299f473-f05e-4a83-9d94-ab148ed6928e"},"vehicle_type_id":"4","last_reported":1742983857,"current_range_meters":16400,"station_id":"ce4bhgp2rcd13ifvqfd0","pricing_plan_id":"cebpf4jnsgd1na2vs0mg"},{"bike_id":"4458dd53-4803-4912-8c8b-67ace5923f3e","system_id":"levelo_inurba_marseille","lat":43.25004,"lon":5.38924,"is_reserved":false,"is_disabled":false,"rental_uris":{"android":"levelo://app?vid=4458dd53-4803-4912-8c8b-67ace5923f3e","ios":"levelo://app?vid=4458dd53-4803-4912-8c8b-67ace5923f3e"},"vehicle_type_id":"4","last_reported":1742983857,"current_range_meters":16400,"station_id":"ce4bhgp2rcd13ifvqfd0","pricing_plan_id":"cebpf4jnsgd1na2vs0mg"},{"bike_id":"fe1803f8-cd7b-4ac4-9619-516eafee2ba2","system_id":"levelo_inurba_marseille","lat":43.30472,"lon":5.379,"is_reserved":false,"is_disabled":false,"rental_uris":{"android":"levelo://app?vid=fe1803f8-cd7b-4ac4-9619-516eafee2ba2","ios":"levelo://app?vid=fe1803f8-cd7b-4ac4-9619-516eafee2ba2"},