{"last_updated":1737554907,"ttl":60,"version":"2.2","data":{"bikes":[{"bike_id":"52bd1362-589c-457d-bceb-056d515e97d5","system_id":"levelo_inurba_marseille","lat":43.2315,"lon":5.43728,"is_reserved":false,"is_disabled":false,"rental_uris":{"android":"levelo://app?vid=52bd1362-589c-457d-bceb-056d515e97d5","ios":"levelo://app?vid=52bd1362-589c-457d-bceb-056d515e97d5"},"vehicle_type_id":"4","last_reported":1737554908,"current_range_meters":31200,"station_id":"ce4bhmp2rcd13ifvqgog","pricing_plan_id":"cebpf4jnsgd1na2vs0mg"},{"bike_id":"23c4bbe7-ca4b-43b3-be1b-ee273fb7f307","system_id":"levelo_inurba_marseille","lat":43.29555,"lon":5.42275,"is_reserved":false,"is_disabled":false,"rental_uris":{"android":"levelo://app?vid=23c4bbe7-ca4b-43b3-be1b-ee273fb7f307","ios":"levelo://app?vid=23c4bbe7-ca4b-43b3-be1b-ee273fb7f307"},"vehicle_type_id":"4","last_reported":1737554908,"current_range_meters":27600,"station_id":"ce4bhph2rcd13ifvqhdg","pricing_plan_id":"cebpf4jnsgd1na2vs0mg"},{"bike_id":"a4fa50ac-f498-48af-a472-624159680442","system_id":"levelo_inurba_marseille","lat":43.27373,"lon":5.36255,"is_reserved":false,"is_disabled":false,"rental_uris":{"android":"levelo://app?vid=a4fa50ac-f498-48af-a472-624159680442","ios":"levelo://app?vid=a4fa50ac-f498-48af-a472-624159680442"},"vehicle_type_id":"4","last_reported":1737554908,"current_range_meters":36000,"station_id":"ce4bhbh2rcd13ifvqeo0","pricing_plan_id":"cebpf4jnsgd1na2vs0mg"},{"bike_id":"d92c3b0f-a5f2-45d6-8e47-6392edee27b2","system_id":"levelo_inurba_marseille","lat":43.28412,"lon":5.37495,"is_reserved":false,"is_disabled":false,"rental_uris":{"android":"levelo://app?vid=d92c3b0f-a5f2-45d6-8e47-6392edee27b2","ios":"levelo://app?vid=d92c3b0f-a5f2-45d6-8e47-6392edee27b2"},"vehicle_type_id":"4","last_reported":1737554908,"current_range_meters":2800,"station_id":"ce4bh412rcd13ifvqds0","pricing_plan_id":"cebpf4jnsgd1na2vs0mg"},{"bike_id":"1818decb-b91b-4eb9-a7f6-5e40114055f4","system_id":"levelo_inurba_marseille","lat":43.30785,"lon":5.37661,"is_reserved":false,"is_disabled":false,"rental_uris":{"android":"levelo://app?vid=1818decb-b91b-4eb9-a7f6-5e40114055f4","ios":"levelo://app?vid=1818decb-b91b-4eb9-a7f6-5e40114055f4"},"vehicle_type_id":"4","last_reported":1737554908,"current_range_meters":32400,"station_id":"","pricing_plan_id":"cebpf4jnsgd1na2vs0mg"},{"bike_id":"ce146d1a-2487-489e-97fe-3925a0581077","system_id":"levelo_inurba_marseille","lat":43.29731,"lon":5.37706,"is_reserved":false,"is_disabled":false,"rental_uris":{"android":"levelo://app?vid=ce146d1a-2487-489e-97fe-3925a0581077","ios":"levelo://app?vid=ce146d1a-2487-489e-97fe-3925a0581077"},"vehicle_type_id":"4","last_reported":1737554908,"current_range_meters":26000,"station_id":"ce4bgkh2rcd13ifvqbl0","pricing_plan_id":"cebpf4jnsgd1na2vs0mg"},{"bike_id":"bfb62230-2683-4e51-a165-d8eabb8755a4","system_id":"levelo_inurba_marseille","lat":43.2781,"lon":5.40684,"is_reserved":false,"is_disabled":false,"rental_uris":{"android":"levelo://app?vid=bfb62230-2683-4e51-a165-d8eabb8755a4","ios":"levelo://app?vid=bfb62230-2683-4e51-a165-d8eabb8755a4"},"vehicle_type_id":"4","last_reported":1737554908,"current_range_meters":32400,"station_id":"ce4bhnh2rcd13ifvqgtg","pricing_plan_id":"cebpf4jnsgd1na2vs0mg"},{"bike_id":"a1763a7c-1139-4e94-94ba-75f40470248a","system_id":"levelo_inurba_marseille","lat":43.30887,"lon":5.40112,"is_reserved":false,"is_disabled":false,"rental_uris":{"android":"levelo://app?vid=a1763a7c-1139-4e94-94ba-75f40470248a","ios":"levelo://app?vid=a1763a7c-1139-4e94-94ba-75f40470248a"},"vehicle_type_id":"4","last_reported":1737554908,"current_range_meters":36800,"station_id":"ce4bgvp2rcd13ifvqct0","pricing_plan_id":"cebpf4jnsgd1na2vs0mg"},{"bike_id":"0b49530f-ec57-45b5-ac89-77dd7a74aa21","system_id":"levelo_inurba_marseille","lat":43.29619,"lon":5.37729,"is_reserved":false,"is_disabled":false,"rental_uris":{"android":"levelo://app?vid=0b49530f-ec57-45b5-ac89-77dd7a74aa21","ios":"levelo://app?vid=0b49530f-ec57-45b5-ac89-77dd7a74aa21"},"vehicle_type_id":"4","last_reported":1737554908,"current_range_meters":39200,"station_id":"ce4bgi92rcd13ifvqb90","pricing_plan_id":"cebpf4jnsgd1na2vs0mg"},{"bike_id":"edba5916-4f84-4b18-a1a8-9a5aafbb3afc","system_id":"levelo_inurba_marseille","lat":43.29271,"lon":5.36845,"is_reserved":false,"is_disabled":false,"rental_uris":{"android":"levelo://app?vid=edba5916-4f84-4b18-a1a8-9a5aafbb3afc","ios":"levelo://app?vid=edba5916-4f84-4b18-a1a8-9a5aafbb3afc"},"vehicle_type_id":"4","last_reported":1737554908,"current_range_meters":38800,"station_id":"ce4bhbp2rcd13ifvqesg","pricing_plan_id":"cebpf4jnsgd1na2vs0mg"},{"bike_id":"e8e44628-123e-497a-b45f-ab73192f3de0","system_id":"levelo_inurba_marseille","lat":43.33019,"lon":5.39041,"is_reserved":false,"is_disabled":false,"rental_uris":{"android":"levelo://app?vid=e8e44628-123e-497a-b45f-ab73192f3de0","ios":"levelo://app?vid=e8e44628-123e-497a-b45f-ab73192f3de0"},"vehicle_type_id":"4","last_reported":1737554908,"current_range_meters":38400,"station_id":"ce4bhr92rcd13ifvqhrg","pricing_plan_id":"cebpf4jnsgd1na2vs0mg"},{"bike_id":"7a3150f3-3724-41da-897e-c23994bed659","system_id":"levelo_inurba_marseille","lat":43.22928,"lon":5.35382,"is_reserved":false,"is_disabled":false,"rental_uris":{"android":"levelo://app?vid=7a3150f3-3724-41da-897e-c23994bed659","ios":"levelo://app?vid=7a3150f3-3724-41da-897e-c23994bed659"},"vehicle_type_id":"4","last_reported":1737554908,"current_range_meters":37600,"station_id":"cpo3532slgdg3j2ikp40","pricing_plan_id":"cebpf4jnsgd1na2vs0mg"},{"bike_id":"ea3eb9b8-e669-41de-afc9-0f88a8e7ad4d","system_id":"levelo_inurba_marseille","lat":43.30554,"lon":5.36544,"is_reserved":false,"is_disabled":false,"rental_uris":{"android":"levelo://app?vid=ea3eb9b8-e669-41de-afc9-0f88a8e7ad4d","ios":"levelo://app?vid=ea3eb9b8-e669-41de-afc9-0f88a8e7ad4d"},"vehicle_type_id":"4","last_reported":1737554908,"current_range_meters":4000,"station_id":"ce4bgs12rcd13ifvqcag","pricing_plan_id":"cebpf4jnsgd1na2vs0mg"},{"bike_id":"835f2917-8490-4958-ad36-b74d1478c256","system_id":"levelo_inurba_marseille","lat":43.26207,"lon":5.37445,"is_reserved":false,"is_disabled":false,"rental_uris":{"android":"levelo://app?vid=835f2917-8490-4958-ad36-b74d1478c256","ios":"levelo://app?vid=835f2917-8490-4958-ad36-b74d1478c256"},"vehicle_type_id":"4","last_reported":1737554908,"current_range_meters":31200,"station_id":"ce4bhgp2rcd13ifvqfc0","pricing_plan_id":"cebpf4jnsgd1na2vs0mg"},{"bike_id":"2aaf194b-e843-496b-800b-ffbb038c4de7","system_id":"levelo_inurba_marseille","lat":43.32297,"lon":5.38286,"is_reserved":false,"is_disabled":false,"rental_uris":{"android":"levelo://app?vid=2aaf194b-e843-496b-800b-ffbb038c4de7","ios":"levelo://app?vid=2aaf194b-e843-496b-800b-ffbb038c4de7"},"vehicle_type_id":"4","last_reported":1737554908,"current_range_meters":37600,"station_id":"ce4bhr12rcd13ifvqhqg","pricing_plan_id":"cebpf4jnsgd1na2vs0mg"},{"bike_id":"cfb1a014-436a-41a7-9130-05444442f245","system_id":"levelo_inurba_marseille","lat":43.3034,"lon":5.40415,"is_reserved":false,"is_disabled":false,"rental_uris":{"android":"levelo://app?vid=cfb1a014-436a-41a7-9130-05444442f245","ios":"levelo://app?vid=cfb1a014-436a-41a7-9130-05444442f245"},"vehicle_type_id":"4","last_reported":1737554908,"current_range_meters":32800,"station_id":"ce4bh012rcd13ifvqd10","pricing_plan_id":"cebpf4jnsgd1na2vs0mg"},{"bike_id":"40fe8888-39bf-4689-be21-8e57868ec6b7","system_id":"levelo_inurba_marseille","lat":43.27619,"lon":5.36104,"is_reserved":false,"is_disabled":false,"rental_uris":{"android":"levelo://app?vid=40fe8888-39bf-4689-be21-8e57868ec6b7","ios":"levelo://app?vid=40fe8888-39bf-4689-be21-8e57868ec6b7"},"vehicle_type_id":"4","last_reported":1737554908,"current_range_meters":36800,"station_id":"ce4bgj92rcd13ifvqbe0","pricing_plan_id":"cebpf4jnsgd1na2vs0mg"},{"bike_id":"6661a075-3684-4dee-9c67-ef0b4376c594","system_id":"levelo_inurba_marseille","lat":43.23205,"lon":5.3555,"is_reserved":false,"is_disabled":false,"rental_uris":{"android":"levelo://app?vid=6661a075-3684-4dee-9c67-ef0b4376c594","ios":"levelo://app?vid=6661a075-3684-4dee-9c67-ef0b4376c594"},"vehicle_type_id":"4","last_reported":1737554908,"current_range_meters":38000,"station_id":"ce4bhu92rcd13ifvqi70","pricing_plan_id":"cebpf4jnsgd1na2vs0mg"},{"bike_id":"03029508-7ed2-4693-b735-f7deaf763344","system_id":"levelo_inurba_marseille","lat":43.255738,"lon":5.382389,"is_reserved":false,"is_disabled":false,"rental_uris":{"android":"levelo://app?vid=03029508-7ed2-4693-b735-f7deaf763344","ios":"levelo://app?vid=03029508-7ed2-4693-b735-f7deaf763344"},"vehicle_type_id":"4","last_reported":1737554908,"current_range_meters":22000,"station_id":"ce4bhih2rcd13ifvqfs0","pricing_plan_id":"cebpf4jnsgd1na2vs0mg"},{"bike_id":"9bf662bc-8460-41f0-9e60-fcf330b8c5d4","system_id":"levelo_inurba_marseille","lat":43.29001,"lon":5.35614,"is_reserved":false,"is_disabled":false,"rental_uris":{"android":"levelo://app?vid=9bf662bc-8460-41f0-9e60-fcf330b8c5d4","ios":"levelo://app?vid=9bf662bc-8460-41f0-9e60-fcf330b8c5d4"},"vehicle_type_id":"4","last_reported":1737554908,"current_range_meters":19200,"station_id":"ce4bhb92rcd13ifvqen0","pricing_plan_id":"cebpf4jnsgd1na2vs0mg"},{"bike_id":"ed525b36-d54d-4cb1-8043-ea9a939505b1","system_id":"levelo_inurba_marseille","lat":43.29706,"lon":5.37631,"is_reserved":false,"is_disabled":false,"rental_uris":{"android":"levelo://app?vid=ed525b36-d54d-4cb1-8043-ea9a939505b1","ios":"levelo://app?vid=ed525b36-d54d-4cb1-8043-ea9a939505b1"},"vehicle_type_id":"4","last_reported":1737554908,"current_range_meters":20800,"station_id":"ce4bgkh2rcd13ifvqbl0","pricing_plan_id":"cebpf4jnsgd1na2vs0mg"},{"bike_id":"083dbb9f-1243-483f-a814-a94cd543a059","system_id":"levelo_inurba_marseille","lat":43.31342,"lon":5.36707,"is_reserved":false,"is_disabled":true,"rental_uris":{"android":"levelo://app?vid=083dbb9f-1243-483f-a814-a94cd543a059","ios":"levelo://app?vid=083dbb9f-1243-483f-a814-a94cd543a059"},"vehicle_type_id":"4","last_reported":1737554908,"current_range_meters":2000,"station_id":"ce4bgr92rcd13ifvqc6g","pricing_plan_id":"cebpf4jnsgd1na2vs0mg"},{"bike_id":"987994e3-c81c-4fea-a800-ff199f48cfe0","system_id":"levelo_inurba_marseille","lat":43.28154,"lon":5.42645,"is_reserved":false,"is_disabled":false,"rental_uris":{"android":"levelo://app?vid=987994e3-c81c-4fea-a800-ff199f48cfe0","ios":"levelo://app?vid=987994e3-c81c-4fea-a800-ff199f48cfe0"},"vehicle_type_id":"4","last_reported":1737554908,"current_range_meters":29600,"station_id":"ce4bhnh2rcd13ifvqgug","pricing_plan_id":"cebpf4jnsgd1na2vs0mg"},{"bike_id":"8b2fb933-ccc6-4beb-9e45-9dbbc569353d","system_id":"levelo_inurba_marseille","lat":43.2926,"lon":5.40904,"is_reserved":false,"is_disabled":false,"rental_uris":{"android":"levelo://app?vid=8b2fb933-ccc6-4beb-9e45-9dbbc569353d","ios":"levelo://app?vid=8b2fb933-ccc6-4beb-9e45-9dbbc569353d"},"vehicle_type_id":"4","last_reported":1737554908,"current_range_meters":22800,"station_id":"ce4bh192rcd13ifvqdc0","pricing_plan_id":"cebpf4jnsgd1na2vs0mg"},{"bike_id":"cac15169-486f-43a5-9e95-33c702c4876b","system_id":"levelo_inurba_marseille","lat":43.30803,"lon":5.43537,"is_reserved":false,"is_disabled":false,"rental_uris":{"android":"levelo://app?vid=cac15169-486f-43a5-9e95-33c702c4876b","ios":"levelo://app?vid=cac15169-486f-43a5-9e95-33c702c4876b"},"vehicle_type_id":"4","last_reported":1737554908,"current_range_meters":39200,"station_id":"ce4bhph2rcd13ifvqheg","pricing_plan_id":"cebpf4jnsgd1na2vs0mg"},{"bike_id":"8f39037d-6b70-4ec1-aca4-c32fd0dff772","system_id":"levelo_inurba_marseille","lat":43.31407,"lon":5.36751,"is_reserved":false,"is_disabled":false,"rental_uris":{"android":"levelo://app?vid=8f39037d-6b70-4ec1-aca4-c32fd0dff772","ios":"levelo://app?vid=8f39037d-6b70-4ec1-aca4-c32fd0dff772"},"vehicle_type_id":"4","last_reported":1737554908,"current_range_meters":39200,"station_id":"ce4bgr92rcd13ifvqc6g","pricing_plan_id":"cebpf4jnsgd1na2vs0mg"},{"bike_id":"e3d76a58-1761-4656-923a-c19c9b0f6727","system_id":"levelo_inurba_marseille","lat":43.301454,"lon":5.380842,"is_reserved":false,"is_disabled":false,"rental_uris":{"android":"levelo://app?vid=e3d76a58-1761-4656-923a-c19c9b0f6727","ios":"levelo://app?vid=e3d76a58-1761-4656-923a-c19c9b0f6727"},"vehicle_type_id":"4","last_reported":1737554908,"current_range_meters":30800,"station_id":"ce4bgjp2rcd13ifvqbh0","pricing_plan_id":"cebpf4jnsgd1na2vs0mg"},{"bike_id":"5a874f97-e53a-486b-bf03-022b93e71acd","system_id":"levelo_inurba_marseille","lat":43.25496,"lon":5.37652,"is_reserved":false,"is_disabled":false,"rental_uris":{"android":"levelo://app?vid=5a874f97-e53a-486b-bf03-022b93e71acd","ios":"levelo://app?vid=5a874f97-e53a-486b-bf03-022b93e71acd"},"vehicle_type_id":"4","last_reported":1737554908,"current_range_meters":27200,"station_id":"ce4bhh12rcd13ifvqff0","pricing_plan_id":"cebpf4jnsgd1na2vs0mg"},{"bike_id":"7c0ecca9-2d3b-4f03-a520-6be799a0fa00","system_id":"levelo_inurba_marseille","lat":43.30933,"lon":5.40147,"is_reserved":false,"is_disabled":false,"rental_uris":{"android":"levelo://app?vid=7c0ecca9-2d3b-4f03-a520-6be799a0fa00","ios":"levelo://app?vid=7c0ecca9-2d3b-4f03-a520-6be799a0fa00"},"vehicle_type_id":"4","last_reported":1737554908,"current_range_meters":36400,"station_id":"ce4bgvp2rcd13ifvqct0","pricing_plan_id":"cebpf4jnsgd1na2vs0mg"},{"bike_id":"3dfca92b-e70d-4f97-9b14-65a4052b9ea1","system_id":"levelo_inurba_marseille","lat":43.29957,"lon":5.41316,"is_reserved":false,"is_disabled":true,"rental_uris":{"android":"levelo://app?vid=3dfca92b-e70d-4f97-9b14-65a4052b9ea1","ios":"levelo://app?vid=3dfca92b-e70d-4f97-9b14-65a4052b9ea1"},"vehicle_type_id":"4","last_reported":1737554908,"current_range_meters":1200,"station_id":"ce4bhp12rcd13ifvqh9g","pricing_plan_id":"cebpf4jnsgd1na2vs0mg"},{"bike_id":"89e6bc7c-f280-402b-b630-30f66aaa527c","system_id":"levelo_inurba_marseille","lat":43.26938,"lon":5.40247,"is_reserved":false,"is_disabled":false,"rental_uris":{"android":"levelo://app?vid=89e6bc7c-f280-402b-b630-30f66aaa527c","ios":"levelo://app?vid=89e6bc7c-f280-402b-b630-30f66aaa527c"},"vehicle_type_id":"4","last_reported":1737554908,"current_range_meters":38800,"station_id":"cjm6bp8fraef2m0cb0m0","pricing_plan_id":"cebpf4jnsgd1na2vs0mg"},{"bike_id":"025e7424-ca9f-468a-ab53-bc97a654c9ac","system_id":"levelo_inurba_marseille","lat":43.28947,"lon":5.364,"is_reserved":false,"is_disabled":true,"rental_uris":{"android":"levelo://app?vid=025e7424-ca9f-468a-ab53-bc97a654c9ac","ios":"levelo://app?vid=025e7424-ca9f-468a-ab53-bc97a654c9ac"},"vehicle_type_id":"4","last_reported":1737554908,"current_range_meters":1200,"station_id":"ce4bhc92rcd13ifvqetg","pricing_plan_id":"cebpf4jnsgd1na2vs0mg"},{"bike_id":"e29d5d6a-774f-4b30-92fa-7b0f5591c3c5","system_id":"levelo_inurba_marseille","lat":43.31713,"lon":5.43715,"is_reserved":false,"is_disabled":false,"rental_uris":{"android":"levelo://app?vid=e29d5d6a-774f-4b30-92fa-7b0f5591c3c5","ios":"levelo://app?vid=e29d5d6a-774f-4b30-92fa-7b0f5591c3c5"},"vehicle_type_id":"4","last_reported":1737554908,"current_range_meters":18800,"station_id":"ce4bhp92rcd13ifvqhcg","pricing_plan_id":"cebpf4jnsgd1na2vs0mg"},{"bike_id":"fb07722b-6c4a-4667-a97b-6fa04f98ca7a","system_id":"levelo_inurba_marseille","lat":43.29852,"lon":5.36271,"is_reserved":false,"is_disabled":false,"rental_uris":{"android":"levelo://app?vid=fb07722b-6c4a-4667-a97b-6fa04f98ca7a","ios":"levelo://app?vid=fb07722b-6c4a-4667-a97b-6fa04f98ca7a"},"vehicle_type_id":"4","last_reported":1737554908,"current_range_meters":38800,"station_id":"ce4bgpp2rcd13ifvqc3g","pricing_plan_id":"cebpf4jnsgd1na2vs0mg"},{"bike_id":"2fc4e9ba-b3e1-40c8-b2a7-d3ec038c1556","system_id":"levelo_inurba_marseille","lat":43.29568,"lon":5.4228,"is_reserved":false,"is_disabled":false,"rental_uris":{"android":"levelo://app?vid=2fc4e9ba-b3e1-40c8-b2a7-d3ec038c1556","ios":"levelo://app?vid=2fc4e9ba-b3e1-40c8-b2a7-d3ec038c1556"},"vehicle_type_id":"4","last_reported":1737554908,"current_range_meters":18800,"station_id":"ce4bhph2rcd13ifvqhdg","pricing_plan_id":"cebpf4jnsgd1na2vs0mg"},{"bike_id":"0adf4aee-8b0e-4132-844c-54a9ff5e2cf5","system_id":"levelo_inurba_marseille","lat":43.29599,"lon":5.38097,"is_reserved":false,"is_disabled":false,"rental_uris":{"android":"levelo://app?vid=0adf4aee-8b0e-4132-844c-54a9ff5e2cf5","ios":"levelo://app?vid=0adf4aee-8b0e-4132-844c-54a9ff5e2cf5"},"vehicle_type_id":"4","last_reported":1737554908,"current_range_meters":29600,"station_id":"ce4bgl12rcd13ifvqbo0","pricing_plan_id":"cebpf4jnsgd1na2vs0mg"},{"bike_id":"674ce491-61c6-4603-bccf-12cb08529bac","system_id":"levelo_inurba_marseille","lat":43.33595,"lon":5.4099,"is_reserved":false,"is_disabled":false,"rental_uris":{"android":"levelo://app?vid=674ce491-61c6-4603-bccf-12cb08529bac","ios":"levelo://app?vid=674ce491-61c6-4603-bccf-12cb08529bac"},"vehicle_type_id":"4","last_reported":1737554908,"current_range_meters":38800,"station_id":"ce4bhqh2rcd13ifvqhmg","pricing_plan_id":"cebpf4jnsgd1na2vs0mg"},{"bike_id":"67cd0fb0-d75d-4de9-9761-e14d9676ec4c","system_id":"levelo_inurba_marseille","lat":43.29278,"lon":5.36844,"is_reserved":false,"is_disabled":false,"rental_uris":{"android":"levelo://app?vid=67cd0fb0-d75d-4de9-9761-e14d9676ec4c","ios":"levelo://app?vid=67cd0fb0-d75d-4de9-9761-e14d9676ec4c"},"vehicle_type_id":"4","last_reported":1737554908,"current_range_meters":22000,"station_id":"ce4bhbp2rcd13ifvqesg","pricing_plan_id":"cebpf4jnsgd1na2vs0mg"},{"bike_id":"42ffd8be-59bd-4e3d-829a-b035d16c04f3","system_id":"levelo_inurba_marseille","lat":43.28414,"lon":5.37508,"is_reserved":false,"is_disabled":false,"rental_uris":{"android":"levelo://app?vid=42ffd8be-59bd-4e3d-829a-b035d16c04f3","ios":"levelo://app?vid=42ffd8be-59bd-4e3d-829a-b035d16c04f3"},"vehicle_type_id":"4","last_reported":1737554908,"current_range_meters":22000,"station_id":"ce4bh412rcd13ifvqds0","pricing_plan_id":"cebpf4jnsgd1na2vs0mg"},{"bike_id":"f4064b91-d50f-4faa-b80a-c4b38df2d08b","system_id":"levelo_inurba_marseille","lat":43.22932,"lon":5.35387,"is_reserved":false,"is_disabled":false,"rental_uris":{"android":"levelo://app?vid=f4064b91-d50f-4faa-b80a-c4b38df2d08b","ios":"levelo://app?vid=f4064b91-d50f-4faa-b80a-c4b38df2d08b"},"vehicle_type_id":"4","last_reported":1737554908,"current_range_meters":38800,"station_id":"cpo3532slgdg3j2ikp40","pricing_plan_id":"cebpf4jnsgd1na2vs0mg"},{"bike_id":"1c5c6c97-e589-4b16-a350-502643230369","system_id":"levelo_inurba_marseille","lat":43.23158,"lon":5.43706,"is_reserved":false,"is_disabled":false,"rental_uris":{"android":"levelo://app?vid=1c5c6c97-e589-4b16-a350-502643230369","ios":"levelo://app?vid=1c5c6c97-e589-4b16-a350-502643230369"},"vehicle_type_id":"4","last_reported":1737554908,"current_range_meters":36800,"station_id":"ce4bhmp2rcd13ifvqgog","pricing_plan_id":"cebpf4jnsgd1na2vs0mg"},{"bike_id":"c608a355-799a-42b0-8df8-e6a61a956853","system_id":"levelo_inurba_marseille","lat":43.3173,"lon":5.42403,"is_reserved":false,"is_disabled":false,"rental_uris":{"android":"levelo://app?vid=c608a355-799a-42b0-8df8-e6a61a956853","ios":"levelo://app?vid=c608a355-799a-42b0-8df8-e6a61a956853"},"vehicle_type_id":"4","last_reported":1737554908,"current_range_meters":38800,"station_id":"ce4bhp92rcd13ifvqhbg","pricing_plan_id":"cebpf4jnsgd1na2vs0mg"},{"bike_id":"e1b89984-b5cc-4df5-889d-b87c33e3719c","system_id":"levelo_inurba_marseille","lat":43.29021,"lon":5.37556,"is_reserved":false,"is_disabled":false,"rental_uris":{"android":"levelo://app?vid=e1b89984-b5cc-4df5-889d-b87c33e3719c","ios":"levelo://app?vid=e1b89984-b5cc-4df5-889d-b87c33e3719c"},"vehicle_type_id":"4","last_reported":1737554908,"current_range_meters":38800,"station_id":"ce4bh692rcd13ifvqe90","pricing_plan_id":"cebpf4jnsgd1na2vs0mg"},{"bike_id":"d3a4cc71-3657-4061-bf82-bd597da04180","system_id":"levelo_inurba_marseille","lat":43.2931,"lon":5.37464,"is_reserved":false,"is_disabled":false,"rental_uris":{"android":"levelo://app?vid=d3a4cc71-3657-4061-bf82-bd597da04180","ios":"levelo://app?vid=d3a4cc71-3657-4061-bf82-bd597da04180"},"vehicle_type_id":"4","last_reported":1737554908,"current_range_meters":34000,"station_id":"ce4bgi12rcd13ifvqb70","pricing_plan_id":"cebpf4jnsgd1na2vs0mg"},{"bike_id":"4b766d21-35a9-4e2d-8535-3688332a270a","system_id":"levelo_inurba_marseille","lat":43.31092,"lon":5.42431,"is_reserved":false,"is_disabled":false,"rental_uris":{"android":"levelo://app?vid=4b766d21-35a9-4e2d-8535-3688332a270a","ios":"levelo://app?vid=4b766d21-35a9-4e2d-8535-3688332a270a"},"vehicle_type_id":"4","last_reported":1737554908,"current_range_meters":5600,"station_id":"ce4bhp92rcd13ifvqhag","pricing_plan_id":"cebpf4jnsgd1na2vs0mg"},{"bike_id":"ca231ad9-da2a-4434-a1d6-2ea5a619c307","system_id":"levelo_inurba_marseille","lat":43.29234,"lon":5.36064,"is_reserved":false,"is_disabled":false,"rental_uris":{"android":"levelo://app?vid=ca231ad9-da2a-4434-a1d6-2ea5a619c307","ios":"levelo://app?vid=ca231ad9-da2a-4434-a1d6-2ea5a619c307"},"vehicle_type_id":"4","last_reported":1737554908,"current_range_meters":28800,"station_id":"ce4bhbh2rcd13ifvqeqg","pricing_plan_id":"cebpf4jnsgd1na2vs0mg"},{"bike_id":"1365a734-02b9-46ba-b213-858bbb87496f","system_id":"levelo_inurba_marseille","lat":43.29506,"lon":5.37509,"is_reserved":false,"is_disabled":false,"rental_uris":{"android":"levelo://app?vid=1365a734-02b9-46ba-b213-858bbb87496f","ios":"levelo://app?vid=1365a734-02b9-46ba-b213-858bbb87496f"},"vehicle_type_id":"4","last_reported":1737554908,"current_range_meters":30000,"station_id":"ce4bgkp2rcd13ifvqbmg","pricing_plan_id":"cebpf4jnsgd1na2vs0mg"},{"bike_id":"2fc2ee69-aa4b-45f9-9488-21abae1e33f5","system_id":"levelo_inurba_marseille","lat":43.30456,"lon":5.37903,"is_reserved":false,"is_disabled":false,"rental_uris":{"android":"levelo://app?vid=2fc2ee69-aa4b-45f9-9488-21abae1e33f5","ios":"levelo://app?vid=2fc2ee69-aa4b-45f9-9488-21abae1e33f5"},"vehicle_type_id":"4","last_reported":1737554908,"current_range_meters":26800,"station_id":"ce4bgup2rcd13ifvqcn0","pricing_plan_id":"cebpf4jnsgd1na2vs0mg"},{"bike_id":"8a725843-205b-4bfa-b181-c5d4ae148cad","system_id":"levelo_inurba_marseille","lat":43.26683,"lon":5.38261,"is_reserved":false,"is_disabled":false,"rental_uris":{"android":"levelo://app?vid=8a725843-205b-4bfa-b181-c5d4ae148cad","ios":"levelo://app?vid=8a725843-205b-4bfa-b181-c5d4ae148cad"},"vehicle_type_id":"4","last_reported":1737554908,"current_range_meters":38800,"station_id":"ce4bhg92rcd13ifvqf90","pricing_plan_id":"cebpf4jnsgd1na2vs0mg"},{"bike_id":"aee87d37-0bbc-48a1-a5f0-63fc6603314b","system_id":"levelo_inurba_marseille","lat":43.24995,"lon":5.38932,"is_reserved":false,"is_disabled":false,"rental_uris":{"android":"levelo://app?vid=aee87d37-0bbc-48a1-a5f0-63fc6603314b","ios":"levelo://app?vid=aee87d37-0bbc-48a1-a5f0-63fc6603314b"},"vehicle_type_id":"4","last_reported":1737554908,"current_range_meters":24000,"station_id":"ce4bhgp2rcd13ifvqfd0","pricing_plan_id":"cebpf4jnsgd1na2vs0mg"},{"bike_id":"11864e56-3c6c-40e6-a2f3-a21fa722ad48","system_id":"levelo_inurba_marseille","lat":43.30572,"lon":5.36555,"is_reserved":false,"is_disabled":false,"rental_uris":{"android":"levelo://app?vid=11864e56-3c6c-40e6-a2f3-a21fa722ad48","ios":"levelo://app?vid=11864e56-3c6c-40e6-a2f3-a21fa722ad48"},"vehicle_type_id":"4","last_reported":1737554908,"current_range_meters":38400,"station_id":"ce4bgs12rcd13ifvqcag","pricing_plan_id":"cebpf4jnsgd1na2vs0mg"},{"bike_id":"dea9e493-16bd-4714-9b43-631a46ec3bfb","system_id":"levelo_inurba_marseille","lat":43.28615,"lon":5.35108,"is_reserved":false,"is_disabled":false,"rental_uris":{"android":"levelo://app?vid=dea9e493-16bd-4714-9b43-631a46ec3bfb","ios":"levelo://app?vid=dea9e493-16bd-4714-9b43-631a46ec3bfb"},"vehicle_type_id":"4","last_reported":1737554908,"current_range_meters":27600,"station_id":"ce4bhch2rcd13ifvqeug","pricing_plan_id":"cebpf4jnsgd1na2vs0mg"},{"bike_id":"f3735232-5d15-4e84-82f3-d2ea82b3c299","system_id":"levelo_inurba_marseille","lat":43.32363,"lon":5.36753,"is_reserved":false,"is_disabled":false,"rental_uris":{"android":"levelo://app?vid=f3735232-5d15-4e84-82f3-d2ea82b3c299","ios":"levelo://app?vid=f3735232-5d15-4e84-82f3-d2ea82b3c299"},"vehicle_type_id":"4","last_reported":1737554908,"current_range_meters":28400,"station_id":"ce4bhsh2rcd13ifvqi2g","pricing_plan_id":"cebpf4jnsgd1na2vs0mg"},{"bike_id":"61485cbb-b3f0-46e5-86b7-380910716314","system_id":"levelo_inurba_marseille","lat":43.28102,"lon":5.37849,"is_reserved":false,"is_disabled":false,"rental_uris":{"android":"levelo://app?vid=61485cbb-b3f0-46e5-86b7-380910716314","ios":"levelo://app?vid=61485cbb-b3f0-46e5-86b7-380910716314"},"vehicle_type_id":"4","last_reported":1737554908,"current_range_meters":38800,"station_id":"ce4bha12rcd13ifvqee0","pricing_plan_id":"cebpf4jnsgd1na2vs0mg"},{"bike_id":"9d094da5-5fa4-4358-a503-db0f0481f1cc","system_id":"levelo_inurba_marseille","lat":43.290573,"lon":5.359153,"is_reserved":false,"is_disabled":false,"rental_uris":{"android":"levelo://app?vid=9d094da5-5fa4-4358-a503-db0f0481f1cc","ios":"levelo://app?vid=9d094da5-5fa4-4358-a503-db0f0481f1cc"},"vehicle_type_id":"4","last_reported":1737554908,"current_range_meters":38800,"station_id":"ce4bha92rcd13ifvqeg0","pricing_plan_id":"cebpf4jnsgd1na2vs0mg"},{"bike_id":"88cee832-bfb0-4a5f-aff7-54ecdf930906","system_id":"levelo_inurba_marseille","lat":43.2894,"lon":5.36631,"is_reserved":false,"is_disabled":false,"rental_uris":{"android":"levelo://app?vid=88cee832-bfb0-4a5f-aff7-54ecdf930906","ios":"levelo://app?vid=88cee832-bfb0-4a5f-aff7-54ecdf930906"},"vehicle_type_id":"4","last_reported":1737554908,"current_range_meters":4400,"station_id":"ce4bhap2rcd13ifvqek0","pricing_plan_id":"cebpf4jnsgd1na2vs0mg"},{"bike_id":"fb53090d-4fee-450b-b3be-f8dcabfe2aec","system_id":"levelo_inurba_marseille","lat":43.31707,"lon":5.37737,"is_reserved":false,"is_disabled":false,"rental_uris":{"android":"levelo://app?vid=fb53090d-4fee-450b-b3be-f8dcabfe2aec","ios":"levelo://app?vid=fb53090d-4fee-450b-b3be-f8dcabfe2aec"},"vehicle_type_id":"4","last_reported":1737554908,"current_range_meters":5600,"station_id":"ce4bgth2rcd13ifvqch0","pricing_plan_id":"cebpf4jnsgd1na2vs0mg"},{"bike_id":"07656937-ab32-4288-8757-0c43aa56903f","system_id":"levelo_inurba_marseille","lat":43.28459,"lon":5.35874,"is_reserved":false,"is_disabled":false,"rental_uris":{"android":"levelo://app?vid=07656937-ab32-4288-8757-0c43aa56903f","ios":"levelo://app?vid=07656937-ab32-4288-8757-0c43aa56903f"},"vehicle_type_id":"4","last_reported":1737554908,"current_range_meters":39200,"station_id":"ce4bhah2rcd13ifvqei0","pricing_plan_id":"cebpf4jnsgd1na2vs0mg"},{"bike_id":"fc7d0896-a0d9-4784-82a6-858cbf9807fe","system_id":"levelo_inurba_marseille","lat":43.307806,"lon":5.376546,"is_reserved":false,"is_disabled":false,"rental_uris":{"android":"levelo://app?vid=fc7d0896-a0d9-4784-82a6-858cbf9807fe","ios":"levelo://app?vid=fc7d0896-a0d9-4784-82a6-858cbf9807fe"},"vehicle_type_id":"4","last_reported":1737554908,"current_range_meters":27600,"station_id":"ce4bgv92rcd13ifvqcq0","pricing_plan_id":"cebpf4jnsgd1na2vs0mg"},{"bike_id":"1cb09300-f279-41bf-927f-8ba0e91a59ca","system_id":"levelo_inurba_marseille","lat":43.25576,"lon":5.382427,"is_reserved":false,"is_disabled":false,"rental_uris":{"android":"levelo://app?vid=1cb09300-f279-41bf-927f-8ba0e91a59ca","ios":"levelo://app?vid=1cb09300-f279-41bf-927f-8ba0e91a59ca"},"vehicle_type_id":"4","last_reported":1737554908,"current_range_meters":33200,"station_id":"ce4bhih2rcd13ifvqfs0","pricing_plan_id":"cebpf4jnsgd1na2vs0mg"},{"bike_id":"7e034d53-14af-4f50-9dca-08e722d3e1df","system_id":"levelo_inurba_marseille","lat":43.31344,"lon":5.36736,"is_reserved":false,"is_disabled":false,"rental_uris":{"android":"levelo://app?vid=7e034d53-14af-4f50-9dca-08e722d3e1df","ios":"levelo://app?vid=7e034d53-14af-4f50-9dca-08e722d3e1df"},"vehicle_type_id":"4","last_reported":1737554908,"current_range_meters":27200,"station_id":"ce4bgr92rcd13ifvqc6g","pricing_plan_id":"cebpf4jnsgd1na2vs0mg"},{"bike_id":"110f4d36-27c9-49b8-86bf-d85558408b80","system_id":"levelo_inurba_marseille","lat":43.323553,"lon":5.388942,"is_reserved":false,"is_disabled":false,"rental_uris":{"android":"levelo://app?vid=110f4d36-27c9-49b8-86bf-d85558408b80","ios":"levelo://app?vid=110f4d36-27c9-49b8-86bf-d85558408b80"},"vehicle_type_id":"4","last_reported":1737554908,"current_range_meters":24000,"station_id":"ce4bhqp2rcd13ifvqhog","pricing_plan_id":"cebpf4jnsgd1na2vs0mg"},{"bike_id":"e2151eb3-314b-404c-b259-cf12a3a3e0c6","system_id":"levelo_inurba_marseille","lat":43.31584,"lon":5.4023,"is_reserved":false,"is_disabled":false,"rental_uris":{"android":"levelo://app?vid=e2151eb3-314b-404c-b259-cf12a3a3e0c6","ios":"levelo://app?vid=e2151eb3-314b-404c-b259-cf12a3a3e0c6"},"vehicle_type_id":"4","last_reported":1737554908,"current_range_meters":23200,"station_id":"","pricing_plan_id":"cebpf4jnsgd1na2vs0mg"},{"bike_id":"04b3bc81-80fe-492e-ad11-4bdb82b97680","system_id":"levelo_inurba_marseille","lat":43.30474,"lon":5.37912,"is_reserved":false,"is_disabled":true,"rental_uris":{"android":"levelo://app?vid=04b3bc81-80fe-492e-ad11-4bdb82b97680","ios":"levelo://app?vid=04b3bc81-80fe-492e-ad11-4bdb82b97680"},"vehicle_type_id":"4","last_reported":1737554908,"current_range_meters":38800,"station_id":"","pricing_plan_id":"cebpf4jnsgd1na2vs0mg"},{"bike_id":"d28a2f40-7f59-44ee-b1ed-0df91e552869","system_id":"levelo_inurba_marseille","lat":43.29549,"lon":5.42296,"is_reserved":false,"is_disabled":true,"rental_uris":{"android":"levelo://app?vid=d28a2f40-7f59-44ee-b1ed-0df91e552869","ios":"levelo://app?vid=d28a2f40-7f59-44ee-b1ed-0df91e552869"},"vehicle_type_id":"4","last_reported":1737554908,"current_range_meters":0,"station_id":"ce4bhph2rcd13ifvqhdg","pricing_plan_id":"cebpf4jnsgd1na2vs0mg"},{"bike_id":"cd94cc44-1306-4635-a7a5-07ce336e6bed","system_id":"levelo_inurba_marseille","lat":43.3093,"lon":5.40131,"is_reserved":false,"is_disabled":false,"rental_uris":{"android":"levelo://app?vid=cd94cc44-1306-4635-a7a5-07ce336e6bed","ios":"levelo://app?vid=cd94cc44-1306-4635-a7a5-07ce336e6bed"},"vehicle_type_id":"4","last_reported":1737554908,"current_range_meters":21600,"station_id":"ce4bgvp2rcd13ifvqct0","pricing_plan_id":"cebpf4jnsgd1na2vs0mg"},{"bike_id":"3bcd921d-810c-4845-87ab-d96c2ac5451e","system_id":"levelo_inurba_marseille","lat":43.27814,"lon":5.40733,"is_reserved":false,"is_disabled":false,"rental_uris":{"android":"levelo://app?vid=3bcd921d-810c-4845-87ab-d96c2ac5451e","ios":"levelo://app?vid=3bcd921d-810c-4845-87ab-d96c2ac5451e"},"vehicle_type_id":"4","last_reported":1737554908,"current_range_meters":12400,"station_id":"ce4bhnh2rcd13ifvqgtg","pricing_plan_id":"cebpf4jnsgd1na2vs0mg"},{"bike_id":"492741a9-7a01-4c84-a730-a955cd6628db","system_id":"levelo_inurba_marseille","lat":43.29919,"lon":5.3747,"is_reserved":false,"is_disabled":false,"rental_uris":{"android":"levelo://app?vid=492741a9-7a01-4c84-a730-a955cd6628db","ios":"levelo://app?vid=492741a9-7a01-4c84-a730-a955cd6628db"},"vehicle_type_id":"4","last_reported":1737554908,"current_range_meters":26000,"station_id":"ce4bgjh2rcd13ifvqbg0","pricing_plan_id":"cebpf4jnsgd1na2vs0mg"},{"bike_id":"c01ff322-934e-4fed-b8ab-096213fbdb3c","system_id":"levelo_inurba_marseille","lat":43.31995,"lon":5.38139,"is_reserved":false,"is_disabled":false,"rental_uris":{"android":"levelo://app?vid=c01ff322-934e-4fed-b8ab-096213fbdb3c","ios":"levelo://app?vid=c01ff322-934e-4fed-b8ab-096213fbdb3c"},"vehicle_type_id":"4","last_reported":1737554908,"current_range_meters":39200,"station_id":"ce4bhr12rcd13ifvqhpg","pricing_plan_id":"cebpf4jnsgd1na2vs0mg"},{"bike_id":"f904ba01-3cf0-4620-96e1-2bc4df337c5f","system_id":"levelo_inurba_marseille","lat":43.244,"lon":5.3706,"is_reserved":false,"is_disabled":false,"rental_uris":{"android":"levelo://app?vid=f904ba01-3cf0-4620-96e1-2bc4df337c5f","ios":"levelo://app?vid=f904ba01-3cf0-4620-96e1-2bc4df337c5f"},"vehicle_type_id":"4","last_reported":1737554908,"current_range_meters":26800,"station_id":"ce4bhhh2rcd13ifvqfk0","pricing_plan_id":"cebpf4jnsgd1na2vs0mg"},{"bike_id":"8cf72ef7-e99d-4251-a909-d1924caef0b7","system_id":"levelo_inurba_marseille","lat":43.29594,"lon":5.36738,"is_reserved":false,"is_disabled":false,"rental_uris":{"android":"levelo://app?vid=8cf72ef7-e99d-4251-a909-d1924caef0b7","ios":"levelo://app?vid=8cf72ef7-e99d-4251-a909-d1924caef0b7"},"vehicle_type_id":"4","last_reported":1737554908,"current_range_meters":32800,"station_id":"ce4bgph2rcd13ifvqc2g","pricing_plan_id":"cebpf4jnsgd1na2vs0mg"},{"bike_id":"6440f376-b0ac-4979-8b74-813c76d7599b","system_id":"levelo_inurba_marseille","lat":43.241811,"lon":5.397255,"is_reserved":false,"is_disabled":false,"rental_uris":{"android":"levelo://app?vid=6440f376-b0ac-4979-8b74-813c76d7599b","ios":"levelo://app?vid=6440f376-b0ac-4979-8b74-813c76d7599b"},"vehicle_type_id":"4","last_reported":1737554908,"current_range_meters":28800,"station_id":"ce4bhn12rcd13ifvqgpg","pricing_plan_id":"cebpf4jnsgd1na2vs0mg"},{"bike_id":"399562cb-200c-42e5-9323-afe751683da6","system_id":"levelo_inurba_marseille","lat":43.32492,"lon":5.36557,"is_reserved":false,"is_disabled":false,"rental_uris":{"android":"levelo://app?vid=399562cb-200c-42e5-9323-afe751683da6","ios":"levelo://app?vid=399562cb-200c-42e5-9323-afe751683da6"},"vehicle_type_id":"4","last_reported":1737554908,"current_range_meters":25600,"station_id":"ce4bhs12rcd13ifvqhvg","pricing_plan_id":"cebpf4jnsgd1na2vs0mg"},{"bike_id":"87f6cf51-494c-42eb-b123-0d465580e8d6","system_id":"levelo_inurba_marseille","lat":43.25833,"lon":5.39429,"is_reserved":false,"is_disabled":false,"rental_uris":{"android":"levelo://app?vid=87f6cf51-494c-42eb-b123-0d465580e8d6","ios":"levelo://app?vid=87f6cf51-494c-42eb-b123-0d465580e8d6"},"vehicle_type_id":"4","last_reported":1737554908,"current_range_meters":36000,"station_id":"ce4bhip2rcd13ifvqft0","pricing_plan_id":"cebpf4jnsgd1na2vs0mg"},{"bike_id":"06ef8b3b-76b6-417a-b738-faed7ce730fc","system_id":"levelo_inurba_marseille","lat":43.30296,"lon":5.36893,"is_reserved":false,"is_disabled":false,"rental_uris":{"android":"levelo://app?vid=06ef8b3b-76b6-417a-b738-faed7ce730fc","ios":"levelo://app?vid=06ef8b3b-76b6-417a-b738-faed7ce730fc"},"vehicle_type_id":"4","last_reported":1737554908,"current_range_meters":32400,"station_id":"ce4bgqh2rcd13ifvqc5g","pricing_plan_id":"cebpf4jnsgd1na2vs0mg"},{"bike_id":"aae2a1d2-60e3-494b-ae15-d4890f07840f","system_id":"levelo_inurba_marseille","lat":43.29865,"lon":5.36267,"is_reserved":false,"is_disabled":false,"rental_uris":{"android":"levelo://app?vid=aae2a1d2-60e3-494b-ae15-d4890f07840f","ios":"levelo://app?vid=aae2a1d2-60e3-494b-ae15-d4890f07840f"},"vehicle_type_id":"4","last_reported":1737554908,"current_range_meters":17200,"station_id":"ce4bgpp2rcd13ifvqc3g","pricing_plan_id":"cebpf4jnsgd1na2vs0mg"},{"bike_id":"8d687d01-0086-487a-a814-0afe95bbf5e0","system_id":"levelo_inurba_marseille","lat":43.28426,"lon":5.35927,"is_reserved":false,"is_disabled":false,"rental_uris":{"android":"levelo://app?vid=8d687d01-0086-487a-a814-0afe95bbf5e0","ios":"levelo://app?vid=8d687d01-0086-487a-a814-0afe95bbf5e0"},"vehicle_type_id":"4","last_reported":1737554908,"current_range_meters":28000,"station_id":"","pricing_plan_id":"cebpf4jnsgd1na2vs0mg"},{"bike_id":"5bb6b0a2-9fe2-4845-928f-e2732fd313d2","system_id":"levelo_inurba_marseille","lat":43.29316,"lon":5.37173,"is_reserved":false,"is_disabled":false,"rental_uris":{"android":"levelo://app?vid=5bb6b0a2-9fe2-4845-928f-e2732fd313d2","ios":"levelo://app?vid=5bb6b0a2-9fe2-4845-928f-e2732fd313d2"},"vehicle_type_id":"4","last_reported":1737554908,"current_range_meters":38800,"station_id":"ce4bgh92rcd13ifvqb40","pricing_plan_id":"cebpf4jnsgd1na2vs0mg"},{"bike_id":"9ce58c07-1f1f-4400-a77c-ba259b250e9f","system_id":"levelo_inurba_marseille","lat":43.27823,"lon":5.40716,"is_reserved":false,"is_disabled":false,"rental_uris":{"android":"levelo://app?vid=9ce58c07-1f1f-4400-a77c-ba259b250e9f","ios":"levelo://app?vid=9ce58c07-1f1f-4400-a77c-ba259b250e9f"},"vehicle_type_id":"4","last_reported":1737554908,"current_range_meters":38400,"station_id":"ce4bhnh2rcd13ifvqgtg","pricing_plan_id":"cebpf4jnsgd1na2vs0mg"},{"bike_id":"0cd05b59-24ef-4644-a8d9-7f4268641e56","system_id":"levelo_inurba_marseille","lat":43.27944,"lon":5.4104,"is_reserved":false,"is_disabled":false,"rental_uris":{"android":"levelo://app?vid=0cd05b59-24ef-4644-a8d9-7f4268641e56","ios":"levelo://app?vid=0cd05b59-24ef-4644-a8d9-7f4268641e56"},"vehicle_type_id":"4","last_reported":1737554908,"current_range_meters":17200,"station_id":"ce4bhnp2rcd13ifvqh0g","pricing_plan_id":"cebpf4jnsgd1na2vs0mg"},{"bike_id":"19736d4d-26c1-4d09-a409-61d53f5cd6d4","system_id":"levelo_inurba_marseille","lat":43.30471,"lon":5.37895,"is_reserved":false,"is_disabled":false,"rental_uris":{"android":"levelo://app?vid=19736d4d-26c1-4d09-a409-61d53f5cd6d4","ios":"levelo://app?vid=19736d4d-26c1-4d09-a409-61d53f5cd6d4"},"vehicle_type_id":"4","last_reported":1737554908,"current_range_meters":32000,"station_id":"ce4bgup2rcd13ifvqcn0","pricing_plan_id":"cebpf4jnsgd1na2vs0mg"},{"bike_id":"2c20b049-dfb5-4f65-8452-3c29e346a581","system_id":"levelo_inurba_marseille","lat":43.26929,"lon":5.38923,"is_reserved":false,"is_disabled":false,"rental_uris":{"android":"levelo://app?vid=2c20b049-dfb5-4f65-8452-3c29e346a581","ios":"levelo://app?vid=2c20b049-dfb5-4f65-8452-3c29e346a581"},"vehicle_type_id":"4","last_reported":1737554908,"current_range_meters":16800,"station_id":"ce4bhhh2rcd13ifvqfl0","pricing_plan_id":"cebpf4jnsgd1na2vs0mg"},{"bike_id":"8ed55bc1-aa6f-4c6a-854b-088645f6fbe6","system_id":"levelo_inurba_marseille","lat":43.31117,"lon":5.37779,"is_reserved":false,"is_disabled":true,"rental_uris":{"android":"levelo://app?vid=8ed55bc1-aa6f-4c6a-854b-088645f6fbe6","ios":"levelo://app?vid=8ed55bc1-aa6f-4c6a-854b-088645f6fbe6"},"vehicle_type_id":"4","last_reported":1737554908,"current_range_meters":0,"station_id":"ce4bgt92rcd13ifvqcg0","pricing_plan_id":"cebpf4jnsgd1na2vs0mg"},{"bike_id":"2a6a4225-a768-49ff-b39c-88b81eb205c0","system_id":"levelo_inurba_marseille","lat":43.27067,"lon":5.40255,"is_reserved":false,"is_disabled":true,"rental_uris":{"android":"levelo://app?vid=2a6a4225-a768-49ff-b39c-88b81eb205c0","ios":"levelo://app?vid=2a6a4225-a768-49ff-b39c-88b81eb205c0"},"vehicle_type_id":"4","last_reported":1737554908,"current_range_meters":1200,"station_id":"ce4bhk92rcd13ifvqgc0","pricing_plan_id":"cebpf4jnsgd1na2vs0mg"},{"bike_id":"2965a976-302f-43d1-97a6-16afd2455155","system_id":"levelo_inurba_marseille","lat":43.27371,"lon":5.36235,"is_reserved":false,"is_disabled":false,"rental_uris":{"android":"levelo://app?vid=2965a976-302f-43d1-97a6-16afd2455155","ios":"levelo://app?vid=2965a976-302f-43d1-97a6-16afd2455155"},"vehicle_type_id":"4","last_reported":1737554908,"current_range_meters":25600,"station_id":"ce4bhbh2rcd13ifvqeo0","pricing_plan_id":"cebpf4jnsgd1na2vs0mg"},{"bike_id":"5d84a57f-84ac-4ada-8fd2-b6aa601a3707","system_id":"levelo_inurba_marseille","lat":43.29638,"lon":5.40593,"is_reserved":false,"is_disabled":false,"rental_uris":{"android":"levelo://app?vid=5d84a57f-84ac-4ada-8fd2-b6aa601a3707","ios":"levelo://app?vid=5d84a57f-84ac-4ada-8fd2-b6aa601a3707"},"vehicle_type_id":"4","last_reported":1737554908,"current_range_meters":24800,"station_id":"ce4bh0h2rcd13ifvqd60","pricing_plan_id":"cebpf4jnsgd1na2vs0mg"},{"bike_id":"f2fff278-1bfe-4187-adf0-1eddf34a44f7","system_id":"levelo_inurba_marseille","lat":43.24802,"lon":5.37456,"is_reserved":false,"is_disabled":false,"rental_uris":{"android":"levelo://app?vid=f2fff278-1bfe-4187-adf0-1eddf34a44f7","ios":"levelo://app?vid=f2fff278-1bfe-4187-adf0-1eddf34a44f7"},"vehicle_type_id":"4","last_reported":1737554908,"current_range_meters":35200,"station_id":"ce4bhgh2rcd13ifvqfb0","pricing_plan_id":"cebpf4jnsgd1na2vs0mg"},{"bike_id":"8ab0346c-8001-4067-8852-009244e2b53d","system_id":"levelo_inurba_marseille","lat":43.31081,"lon":5.42432,"is_reserved":false,"is_disabled":false,"rental_uris":{"android":"levelo://app?vid=8ab0346c-8001-4067-8852-009244e2b53d","ios":"levelo://app?vid=8ab0346c-8001-4067-8852-009244e2b53d"},"vehicle_type_id":"4","last_reported":1737554908,"current_range_meters":38800,"station_id":"ce4bhp92rcd13ifvqhag","pricing_plan_id":"cebpf4jnsgd1na2vs0mg"},{"bike_id":"2ae25443-9992-47a1-b5b0-9d1c92b5c582","system_id":"levelo_inurba_marseille","lat":43.259766,"lon":5.375755,"is_reserved":false,"is_disabled":false,"rental_uris":{"android":"levelo://app?vid=2ae25443-9992-47a1-b5b0-9d1c92b5c582","ios":"levelo://app?vid=2ae25443-9992-47a1-b5b0-9d1c92b5c582"},"vehicle_type_id":"4","last_reported":1737554908,"current_range_meters":22800,"station_id":"ce4bhgh2rcd13ifvqfa0","pricing_plan_id":"cebpf4jnsgd1na2vs0mg"},{"bike_id":"d6550eb1-0e0b-4eb8-b93c-dcb89f46c177","system_id":"levelo_inurba_marseille","lat":43.31679,"lon":5.37743,"is_reserved":false,"is_disabled":false,"rental_uris":{"android":"levelo://app?vid=d6550eb1-0e0b-4eb8-b93c-dcb89f46c177","ios":"levelo://app?vid=d6550eb1-0e0b-4eb8-b93c-dcb89f46c177"},"vehicle_type_id":"4","last_reported":1737554908,"current_range_meters":38400,"station_id":"ce4bgth2rcd13ifvqch0","pricing_plan_id":"cebpf4jnsgd1na2vs0mg"},{"bike_id":"7c51546f-b721-4974-9e14-9db58b62159e","system_id":"levelo_inurba_marseille","lat":43.29848,"lon":5.36273,"is_reserved":false,"is_disabled":false,"rental_uris":{"android":"levelo://app?vid=7c51546f-b721-4974-9e14-9db58b62159e","ios":"levelo://app?vid=7c51546f-b721-4974-9e14-9db58b62159e"},"vehicle_type_id":"4","last_reported":1737554908,"current_range_meters":38400,"station_id":"ce4bgpp2rcd13ifvqc3g","pricing_plan_id":"cebpf4jnsgd1na2vs0mg"},{"bike_id":"ed22a13f-baff-4736-a13f-23aac7ea0b1d","system_id":"levelo_inurba_marseille","lat":43.28666,"lon":5.36345,"is_reserved":false,"is_disabled":false,"rental_uris":{"android":"levelo://app?vid=ed22a13f-baff-4736-a13f-23aac7ea0b1d","ios":"levelo://app?vid=ed22a13f-baff-4736-a13f-23aac7ea0b1d"},"vehicle_type_id":"4","last_reported":1737554908,"current_range_meters":36400,"station_id":"ce4bhah2rcd13ifvqej0","pricing_plan_id":"cebpf4jnsgd1na2vs0mg"},{"bike_id":"2bebf64d-2eff-4607-b617-986c9d9aab7f","system_id":"levelo_inurba_marseille","lat":43.26684,"lon":5.38267,"is_reserved":false,"is_disabled":false,"rental_uris":{"android":"levelo://app?vid=2bebf64d-2eff-4607-b617-986c9d9aab7f","ios":"levelo://app?vid=2bebf64d-2eff-4607-b617-986c9d9aab7f"},"vehicle_type_id":"4","last_reported":1737554908,"current_range_meters":38800,"station_id":"ce4bhg92rcd13ifvqf90","pricing_plan_id":"cebpf4jnsgd1na2vs0mg"},{"bike_id":"214458d7-f70c-4c1d-9131-0eeb2a4aa19d","system_id":"levelo_inurba_marseille","lat":43.28145,"lon":5.42641,"is_reserved":false,"is_disabled":false,"rental_uris":{"android":"levelo://app?vid=214458d7-f70c-4c1d-9131-0eeb2a4aa19d","ios":"levelo://app?vid=214458d7-f70c-4c1d-9131-0eeb2a4aa19d"},"vehicle_type_id":"4","last_reported":1737554908,"current_range_meters":4400,"station_id":"ce4bhnh2rcd13ifvqgug","pricing_plan_id":"cebpf4jnsgd1na2vs0mg"},{"bike_id":"bb903e76-66e9-47a7-a21b-9c74eee3f530","system_id":"levelo_inurba_marseille","lat":43.25019,"lon":5.38948,"is_reserved":false,"is_disabled":false,"rental_uris":{"android":"levelo://app?vid=bb903e76-66e9-47a7-a21b-9c74eee3f530","ios":"levelo://app?vid=bb903e76-66e9-47a7-a21b-9c74eee3f530"},"vehicle_type_id":"4","last_reported":1737554908,"current_range_meters":35600,"station_id":"ce4bhgp2rcd13ifvqfd0","pricing_plan_id":"cebpf4jnsgd1na2vs0mg"},{"bike_id":"3c2852e8-3d8e-4b8c-9510-44a66e24c469","system_id":"levelo_inurba_marseille","lat":43.26211,"lon":5.37443,"is_reserved":false,"is_disabled":false,"rental_uris":{"android":"levelo://app?vid=3c2852e8-3d8e-4b8c-9510-44a66e24c469","ios":"levelo://app?vid=3c2852e8-3d8e-4b8c-9510-44a66e24c469"},"vehicle_type_id":"4","last_reported":1737554908,"current_range_meters":18800,"station_id":"ce4bhgp2rcd13ifvqfc0","pricing_plan_id":"cebpf4jnsgd1na2vs0mg"},{"bike_id":"ff6d79d8-6c77-41e5-af09-b7ec46ad6b10","system_id":"levelo_inurba_marseille","lat":43.28852,"lon":5.35856,"is_reserved":false,"is_disabled":false,"rental_uris":{"android":"levelo://app?vid=ff6d79d8-6c77-41e5-af09-b7ec46ad6b10","ios":"levelo://app?vid=ff6d79d8-6c77-41e5-af09-b7ec46ad6b10"},"vehicle_type_id":"4","last_reported":1737554908,"current_range_meters":30400,"station_id":"ce4bhb12rcd13ifvqem0","pricing_plan_id":"cebpf4jnsgd1na2vs0mg"},{"bike_id":"e9263957-353d-4eae-80a5-2938c853663b","system_id":"levelo_inurba_marseille","lat":43.283647,"lon":5.386297,"is_reserved":false,"is_disabled":false,"rental_uris":{"android":"levelo://app?vid=e9263957-353d-4eae-80a5-2938c853663b","ios":"levelo://app?vid=e9263957-353d-4eae-80a5-2938c853663b"},"vehicle_type_id":"4","last_reported":1737554908,"current_range_meters":32000,"station_id":"ce4bh492rcd13ifvqdvg","pricing_plan_id":"cebpf4jnsgd1na2vs0mg"},{"bike_id":"ec37d0de-afcf-4de0-bf38-f6106210696d","system_id":"levelo_inurba_marseille","lat":43.28104,"lon":5.37838,"is_reserved":false,"is_disabled":false,"rental_uris":{"android":"levelo://app?vid=ec37d0de-afcf-4de0-bf38-f6106210696d","ios":"levelo://app?vid=ec37d0de-afcf-4de0-bf38-f6106210696d"},"vehicle_type_id":"4","last_reported":1737554908,"current_range_meters":27200,"station_id":"ce4bha12rcd13ifvqee0","pricing_plan_id":"cebpf4jnsgd1na2vs0mg"},{"bike_id":"b19a0d7f-d889-4c70-b858-f69f5ac22043","system_id":"levelo_inurba_marseille","lat":43.30646,"lon":5.40085,"is_reserved":false,"is_disabled":false,"rental_uris":{"android":"levelo://app?vid=b19a0d7f-d889-4c70-b858-f69f5ac22043","ios":"levelo://app?vid=b19a0d7f-d889-4c70-b858-f69f5ac22043"},"vehicle_type_id":"4","last_reported":1737554908,"current_range_meters":34800,"station_id":"ce4bh112rcd13ifvqda0","pricing_plan_id":"cebpf4jnsgd1na2vs0mg"},{"bike_id":"18110634-8656-4425-868c-91f0e5cdb086","system_id":"levelo_inurba_marseille","lat":43.25085,"lon":5.39503,"is_reserved":false,"is_disabled":false,"rental_uris":{"android":"levelo://app?vid=18110634-8656-4425-868c-91f0e5cdb086","ios":"levelo://app?vid=18110634-8656-4425-868c-91f0e5cdb086"},"vehicle_type_id":"4","last_reported":1737554908,"current_range_meters":38800,"station_id":"ce4bhm12rcd13ifvqgkg","pricing_plan_id":"cebpf4jnsgd1na2vs0mg"},{"bike_id":"60ad3fd7-75e7-4990-a9aa-5178e6374012","system_id":"levelo_inurba_marseille","lat":43.24806,"lon":5.37452,"is_reserved":false,"is_disabled":false,"rental_uris":{"android":"levelo://app?vid=60ad3fd7-75e7-4990-a9aa-5178e6374012","ios":"levelo://app?vid=60ad3fd7-75e7-4990-a9aa-5178e6374012"},"vehicle_type_id":"4","last_reported":1737554908,"current_range_meters":38000,"station_id":"ce4bhgh2rcd13ifvqfb0","pricing_plan_id":"cebpf4jnsgd1na2vs0mg"},{"bike_id":"c59e854e-b7e1-4dd9-951c-c12cf587190e","system_id":"levelo_inurba_marseille","lat":43.255068,"lon":5.376486,"is_reserved":false,"is_disabled":false,"rental_uris":{"android":"levelo://app?vid=c59e854e-b7e1-4dd9-951c-c12cf587190e","ios":"levelo://app?vid=c59e854e-b7e1-4dd9-951c-c12cf587190e"},"vehicle_type_id":"4","last_reported":1737554908,"current_range_meters":35600,"station_id":"ce4bhh12rcd13ifvqff0","pricing_plan_id":"cebpf4jnsgd1na2vs0mg"},{"bike_id":"13a838cb-bcc1-4b93-9552-c729c0d9b2f6","system_id":"levelo_inurba_marseille","lat":43.24802,"lon":5.37454,"is_reserved":false,"is_disabled":false,"rental_uris":{"android":"levelo://app?vid=13a838cb-bcc1-4b93-9552-c729c0d9b2f6","ios":"levelo://app?vid=13a838cb-bcc1-4b93-9552-c729c0d9b2f6"},"vehicle_type_id":"4","last_reported":1737554908,"current_range_meters":38400,"station_id":"ce4bhgh2rcd13ifvqfb0","pricing_plan_id":"cebpf4jnsgd1na2vs0mg"},{"bike_id":"84847319-54f9-4318-bfe5-3fc9cf7cc0e8","system_id":"levelo_inurba_marseille","lat":43.29573,"lon":5.37504,"is_reserved":false,"is_disabled":false,"rental_uris":{"android":"levelo://app?vid=84847319-54f9-4318-bfe5-3fc9cf7cc0e8","ios":"levelo://app?vid=84847319-54f9-4318-bfe5-3fc9cf7cc0e8"},"vehicle_type_id":"4","last_reported":1737554908,"current_range_meters":28800,"station_id":"ce4bgh92rcd13ifvqb50","pricing_plan_id":"cebpf4jnsgd1na2vs0mg"},{"bike_id":"9a42d232-900d-461b-9908-271fe1871499","system_id":"levelo_inurba_marseille","lat":43.27825,"lon":5.40714,"is_reserved":false,"is_disabled":false,"rental_uris":{"android":"levelo://app?vid=9a42d232-900d-461b-9908-271fe1871499","ios":"levelo://app?vid=9a42d232-900d-461b-9908-271fe1871499"},"vehicle_type_id":"4","last_reported":1737554908,"current_range_meters":34000,"station_id":"ce4bhnh2rcd13ifvqgtg","pricing_plan_id":"cebpf4jnsgd1na2vs0mg"},{"bike_id":"e5d10e6a-abfe-43f0-ae62-8c417452a846","system_id":"levelo_inurba_marseille","lat":43.28168,"lon":5.42644,"is_reserved":false,"is_disabled":false,"rental_uris":{"android":"levelo://app?vid=e5d10e6a-abfe-43f0-ae62-8c417452a846","ios":"levelo://app?vid=e5d10e6a-abfe-43f0-ae62-8c417452a846"},"vehicle_type_id":"4","last_reported":1737554908,"current_range_meters":30800,"station_id":"ce4bhnh2rcd13ifvqgug","pricing_plan_id":"cebpf4jnsgd1na2vs0mg"},{"bike_id":"1450bd64-05c1-4364-83aa-daa0fb011f91","system_id":"levelo_inurba_marseille","lat":43.29965,"lon":5.41322,"is_reserved":false,"is_disabled":false,"rental_uris":{"android":"levelo://app?vid=1450bd64-05c1-4364-83aa-daa0fb011f91","ios":"levelo://app?vid=1450bd64-05c1-4364-83aa-daa0fb011f91"},"vehicle_type_id":"4","last_reported":1737554908,"current_range_meters":37600,"station_id":"ce4bhp12rcd13ifvqh9g","pricing_plan_id":"cebpf4jnsgd1na2vs0mg"},{"bike_id":"337a6895-1da3-479f-ae5a-e10c6e98cb0d","system_id":"levelo_inurba_marseille","lat":43.32106,"lon":5.36776,"is_reserved":false,"is_disabled":false,"rental_uris":{"android":"levelo://app?vid=337a6895-1da3-479f-ae5a-e10c6e98cb0d","ios":"levelo://app?vid=337a6895-1da3-479f-ae5a-e10c6e98cb0d"},"vehicle_type_id":"4","last_reported":1737554908,"current_range_meters":16800,"station_id":"ce4bhrh2rcd13ifvqhug","pricing_plan_id":"cebpf4jnsgd1na2vs0mg"},{"bike_id":"d6561279-440b-4f02-a962-58d6d6f122ae","system_id":"levelo_inurba_marseille","lat":43.29982,"lon":5.385,"is_reserved":false,"is_disabled":false,"rental_uris":{"android":"levelo://app?vid=d6561279-440b-4f02-a962-58d6d6f122ae","ios":"levelo://app?vid=d6561279-440b-4f02-a962-58d6d6f122ae"},"vehicle_type_id":"4","last_reported":1737554908,"current_range_meters":24000,"station_id":"ce4bgj92rcd13ifvqbd0","pricing_plan_id":"cebpf4jnsgd1na2vs0mg"},{"bike_id":"e7ebdef9-55cf-4766-85b7-598a4a606e46","system_id":"levelo_inurba_marseille","lat":43.29626,"lon":5.37148,"is_reserved":false,"is_disabled":false,"rental_uris":{"android":"levelo://app?vid=e7ebdef9-55cf-4766-85b7-598a4a606e46","ios":"levelo://app?vid=e7ebdef9-55cf-4766-85b7-598a4a606e46"},"vehicle_type_id":"4","last_reported":1737554908,"current_range_meters":17200,"station_id":"ce4bgnh2rcd13ifvqc0g","pricing_plan_id":"cebpf4jnsgd1na2vs0mg"},{"bike_id":"280781e9-fa6e-4bc8-b42e-4972478cf13d","system_id":"levelo_inurba_marseille","lat":43.31544,"lon":5.38056,"is_reserved":false,"is_disabled":false,"rental_uris":{"android":"levelo://app?vid=280781e9-fa6e-4bc8-b42e-4972478cf13d","ios":"levelo://app?vid=280781e9-fa6e-4bc8-b42e-4972478cf13d"},"vehicle_type_id":"4","last_reported":1737554908,"current_range_meters":38800,"station_id":"ce4bhsp2rcd13ifvqi50","pricing_plan_id":"cebpf4jnsgd1na2vs0mg"},{"bike_id":"b72ddc83-3731-426e-9702-e3b97f9dddfa","system_id":"levelo_inurba_marseille","lat":43.28958,"lon":5.37973,"is_reserved":false,"is_disabled":true,"rental_uris":{"android":"levelo://app?vid=b72ddc83-3731-426e-9702-e3b97f9dddfa","ios":"levelo://app?vid=b72ddc83-3731-426e-9702-e3b97f9dddfa"},"vehicle_type_id":"4","last_reported":1737554908,"current_range_meters":0,"station_id":"ce4bh9p2rcd13ifvqed0","pricing_plan_id":"cebpf4jnsgd1na2vs0mg"},{"bike_id":"930435e4-6f25-435f-ae9f-b27fc3275853","system_id":"levelo_inurba_marseille","lat":43.30499,"lon":5.36689,"is_reserved":false,"is_disabled":false,"rental_uris":{"android":"levelo://app?vid=930435e4-6f25-435f-ae9f-b27fc3275853","ios":"levelo://app?vid=930435e4-6f25-435f-ae9f-b27fc3275853"},"vehicle_type_id":"4","last_reported":1737554908,"current_range_meters":28800,"station_id":"","pricing_plan_id":"cebpf4jnsgd1na2vs0mg"},{"bike_id":"27e80083-366b-4daa-89a1-00d558d14c86","system_id":"levelo_inurba_marseille","lat":43.32493,"lon":5.3655,"is_reserved":false,"is_disabled":false,"rental_uris":{"android":"levelo://app?vid=27e80083-366b-4daa-89a1-00d558d14c86","ios":"levelo://app?vid=27e80083-366b-4daa-89a1-00d558d14c86"},"vehicle_type_id":"4","last_reported":1737554908,"current_range_meters":22800,"station_id":"ce4bhs12rcd13ifvqhvg","pricing_plan_id":"cebpf4jnsgd1na2vs0mg"},{"bike_id":"65dccb82-e0d5-464f-9ab0-52b1f760eca6","system_id":"levelo_inurba_marseille","lat":43.27372,"lon":5.36241,"is_reserved":false,"is_disabled":false,"rental_uris":{"android":"levelo://app?vid=65dccb82-e0d5-464f-9ab0-52b1f760eca6","ios":"levelo://app?vid=65dccb82-e0d5-464f-9ab0-52b1f760eca6"},"vehicle_type_id":"4","last_reported":1737554908,"current_range_meters":37600,"station_id":"ce4bhbh2rcd13ifvqeo0","pricing_plan_id":"cebpf4jnsgd1na2vs0mg"},{"bike_id":"01a62aad-27ed-4a1b-9567-1dda5f235805","system_id":"levelo_inurba_marseille","lat":43.32363,"lon":5.38889,"is_reserved":false,"is_disabled":false,"rental_uris":{"android":"levelo://app?vid=01a62aad-27ed-4a1b-9567-1dda5f235805","ios":"levelo://app?vid=01a62aad-27ed-4a1b-9567-1dda5f235805"},"vehicle_type_id":"4","last_reported":1737554908,"current_range_meters":18000,"station_id":"ce4bhqp2rcd13ifvqhog","pricing_plan_id":"cebpf4jnsgd1na2vs0mg"},{"bike_id":"fe2089a7-9e7b-4a7a-8bc3-781431ea9568","system_id":"levelo_inurba_marseille","lat":43.25929,"lon":5.40898,"is_reserved":false,"is_disabled":false,"rental_uris":{"android":"levelo://app?vid=fe2089a7-9e7b-4a7a-8bc3-781431ea9568","ios":"levelo://app?vid=fe2089a7-9e7b-4a7a-8bc3-781431ea9568"},"vehicle_type_id":"4","last_reported":1737554908,"current_range_meters":38800,"station_id":"ce4bhm92rcd13ifvqglg","pricing_plan_id":"cebpf4jnsgd1na2vs0mg"},{"bike_id":"243ced5e-f9fc-4a3a-a67a-df390ea99dfa","system_id":"levelo_inurba_marseille","lat":43.30158,"lon":5.38084,"is_reserved":false,"is_disabled":false,"rental_uris":{"android":"levelo://app?vid=243ced5e-f9fc-4a3a-a67a-df390ea99dfa","ios":"levelo://app?vid=243ced5e-f9fc-4a3a-a67a-df390ea99dfa"},"vehicle_type_id":"4","last_reported":1737554908,"current_range_meters":7200,"station_id":"ce4bgjp2rcd13ifvqbh0","pricing_plan_id":"cebpf4jnsgd1na2vs0mg"},{"bike_id":"c8207e0e-f323-464e-b32f-58e506472352","system_id":"levelo_inurba_marseille","lat":43.26195,"lon":5.37452,"is_reserved":false,"is_disabled":false,"rental_uris":{"android":"levelo://app?vid=c8207e0e-f323-464e-b32f-58e506472352","ios":"levelo://app?vid=c8207e0e-f323-464e-b32f-58e506472352"},"vehicle_type_id":"4","last_reported":1737554908,"current_range_meters":38400,"station_id":"ce4bhgp2rcd13ifvqfc0","pricing_plan_id":"cebpf4jnsgd1na2vs0mg"},{"bike_id":"7d3a62e7-dc66-4cce-99b3-4d0e48129f5d","system_id":"levelo_inurba_marseille","lat":43.31352,"lon":5.36714,"is_reserved":false,"is_disabled":false,"rental_uris":{"android":"levelo://app?vid=7d3a62e7-dc66-4cce-99b3-4d0e48129f5d","ios":"levelo://app?vid=7d3a62e7-dc66-4cce-99b3-4d0e48129f5d"},"vehicle_type_id":"4","last_reported":1737554908,"current_range_meters":10800,"station_id":"ce4bgr92rcd13ifvqc6g","pricing_plan_id":"cebpf4jnsgd1na2vs0mg"},{"bike_id":"13a64475-e4c7-493c-900a-0bcfe86942ca","system_id":"levelo_inurba_marseille","lat":43.30799,"lon":5.43518,"is_reserved":false,"is_disabled":false,"rental_uris":{"android":"levelo://app?vid=13a64475-e4c7-493c-900a-0bcfe86942ca","ios":"levelo://app?vid=13a64475-e4c7-493c-900a-0bcfe86942ca"},"vehicle_type_id":"4","last_reported":1737554908,"current_range_meters":16400,"station_id":"ce4bhph2rcd13ifvqheg","pricing_plan_id":"cebpf4jnsgd1na2vs0mg"},{"bike_id":"28513575-b7c6-4140-bca2-6e6c02c6c39a","system_id":"levelo_inurba_marseille","lat":43.30296,"lon":5.37767,"is_reserved":false,"is_disabled":false,"rental_uris":{"android":"levelo://app?vid=28513575-b7c6-4140-bca2-6e6c02c6c39a","ios":"levelo://app?vid=28513575-b7c6-4140-bca2-6e6c02c6c39a"},"vehicle_type_id":"4","last_reported":1737554908,"current_range_meters":39200,"station_id":"ce4bguh2rcd13ifvqcj0","pricing_plan_id":"cebpf4jnsgd1na2vs0mg"},{"bike_id":"8662c7d5-3319-4ca7-979b-70f2a633bed5","system_id":"levelo_inurba_marseille","lat":43.29587,"lon":5.36738,"is_reserved":false,"is_disabled":false,"rental_uris":{"android":"levelo://app?vid=8662c7d5-3319-4ca7-979b-70f2a633bed5","ios":"levelo://app?vid=8662c7d5-3319-4ca7-979b-70f2a633bed5"},"vehicle_type_id":"4","last_reported":1737554908,"current_range_meters":39200,"station_id":"ce4bgph2rcd13ifvqc2g","pricing_plan_id":"cebpf4jnsgd1na2vs0mg"},{"bike_id":"9d6a693b-4dc5-4741-a910-4b30764f104b","system_id":"levelo_inurba_marseille","lat":43.2418,"lon":5.39728,"is_reserved":false,"is_disabled":false,"rental_uris":{"android":"levelo://app?vid=9d6a693b-4dc5-4741-a910-4b30764f104b","ios":"levelo://app?vid=9d6a693b-4dc5-4741-a910-4b30764f104b"},"vehicle_type_id":"4","last_reported":1737554908,"current_range_meters":36000,"station_id":"ce4bhn12rcd13ifvqgpg","pricing_plan_id":"cebpf4jnsgd1na2vs0mg"},{"bike_id":"4784f4d0-8541-4160-ac19-b8ca95746303","system_id":"levelo_inurba_marseille","lat":43.25099,"lon":5.39509,"is_reserved":false,"is_disabled":false,"rental_uris":{"android":"levelo://app?vid=4784f4d0-8541-4160-ac19-b8ca95746303","ios":"levelo://app?vid=4784f4d0-8541-4160-ac19-b8ca95746303"},"vehicle_type_id":"4","last_reported":1737554908,"current_range_meters":38800,"station_id":"ce4bhm12rcd13ifvqgkg","pricing_plan_id":"cebpf4jnsgd1na2vs0mg"},{"bike_id":"c9acd607-bfd1-4e49-9998-4d3b11a79972","system_id":"levelo_inurba_marseille","lat":43.32477,"lon":5.36565,"is_reserved":false,"is_disabled":false,"rental_uris":{"android":"levelo://app?vid=c9acd607-bfd1-4e49-9998-4d3b11a79972","ios":"levelo://app?vid=c9acd607-bfd1-4e49-9998-4d3b11a79972"},"vehicle_type_id":"4","last_reported":1737554908,"current_range_meters":29600,"station_id":"ce4bhs12rcd13ifvqhvg","pricing_plan_id":"cebpf4jnsgd1na2vs0mg"},{"bike_id":"9c2825e0-4c4a-48fd-a7e3-be8c854989ed","system_id":"levelo_inurba_marseille","lat":43.28431,"lon":5.39191,"is_reserved":false,"is_disabled":false,"rental_uris":{"android":"levelo://app?vid=9c2825e0-4c4a-48fd-a7e3-be8c854989ed","ios":"levelo://app?vid=9c2825e0-4c4a-48fd-a7e3-be8c854989ed"},"vehicle_type_id":"4","last_reported":1737554908,"current_range_meters":25200,"station_id":"ce4bhoh2rcd13ifvqh5g","pricing_plan_id":"cebpf4jnsgd1na2vs0mg"},{"bike_id":"d807dd58-a71d-49b0-8d0e-2fb62116a2d6","system_id":"levelo_inurba_marseille","lat":43.29877,"lon":5.39759,"is_reserved":false,"is_disabled":false,"rental_uris":{"android":"levelo://app?vid=d807dd58-a71d-49b0-8d0e-2fb62116a2d6","ios":"levelo://app?vid=d807dd58-a71d-49b0-8d0e-2fb62116a2d6"},"vehicle_type_id":"4","last_reported":1737554908,"current_range_meters":13600,"station_id":"ce4bh0h2rcd13ifvqd50","pricing_plan_id":"cebpf4jnsgd1na2vs0mg"},{"bike_id":"86fce387-d25e-46bb-928c-c6923257e7fb","system_id":"levelo_inurba_marseille","lat":43.28441,"lon":5.3752,"is_reserved":false,"is_disabled":false,"rental_uris":{"android":"levelo://app?vid=86fce387-d25e-46bb-928c-c6923257e7fb","ios":"levelo://app?vid=86fce387-d25e-46bb-928c-c6923257e7fb"},"vehicle_type_id":"4","last_reported":1737554908,"current_range_meters":9600,"station_id":"ce4bh412rcd13ifvqds0","pricing_plan_id":"cebpf4jnsgd1na2vs0mg"},{"bike_id":"f69be3dd-5c08-41a5-a494-c4d2892249c1","system_id":"levelo_inurba_marseille","lat":43.33726,"lon":5.39193,"is_reserved":false,"is_disabled":false,"rental_uris":{"android":"levelo://app?vid=f69be3dd-5c08-41a5-a494-c4d2892249c1","ios":"levelo://app?vid=f69be3dd-5c08-41a5-a494-c4d2892249c1"},"vehicle_type_id":"4","last_reported":1737554908,"current_range_meters":38800,"station_id":"ce4bhr92rcd13ifvqhsg","pricing_plan_id":"cebpf4jnsgd1na2vs0mg"},{"bike_id":"d7a28120-a7b4-4fe8-91f5-461f37dfeebd","system_id":"levelo_inurba_marseille","lat":43.3032,"lon":5.37727,"is_reserved":false,"is_disabled":false,"rental_uris":{"android":"levelo://app?vid=d7a28120-a7b4-4fe8-91f5-461f37dfeebd","ios":"levelo://app?vid=d7a28120-a7b4-4fe8-91f5-461f37dfeebd"},"vehicle_type_id":"4","last_reported":1737554908,"current_range_meters":16400,"station_id":"ce4bguh2rcd13ifvqcj0","pricing_plan_id":"cebpf4jnsgd1na2vs0mg"},{"bike_id":"f25b6234-b810-482a-97d2-96e88a0f1670","system_id":"levelo_inurba_marseille","lat":43.28452,"lon":5.35882,"is_reserved":false,"is_disabled":true,"rental_uris":{"android":"levelo://app?vid=f25b6234-b810-482a-97d2-96e88a0f1670","ios":"levelo://app?vid=f25b6234-b810-482a-97d2-96e88a0f1670"},"vehicle_type_id":"4","last_reported":1737554908,"current_range_meters":0,"station_id":"ce4bhah2rcd13ifvqei0","pricing_plan_id":"cebpf4jnsgd1na2vs0mg"},{"bike_id":"e9e6cc9f-d1f4-4833-ac1e-33312476aaeb","system_id":"levelo_inurba_marseille","lat":43.30934,"lon":5.40143,"is_reserved":false,"is_disabled":false,"rental_uris":{"android":"levelo://app?vid=e9e6cc9f-d1f4-4833-ac1e-33312476aaeb","ios":"levelo://app?vid=e9e6cc9f-d1f4-4833-ac1e-33312476aaeb"},"vehicle_type_id":"4","last_reported":1737554908,"current_range_meters":39200,"station_id":"ce4bgvp2rcd13ifvqct0","pricing_plan_id":"cebpf4jnsgd1na2vs0mg"},{"bike_id":"d33489ae-32a4-4c11-ab80-8cbc6906d4f3","system_id":"levelo_inurba_marseille","lat":43.29916,"lon":5.3748,"is_reserved":false,"is_disabled":false,"rental_uris":{"android":"levelo://app?vid=d33489ae-32a4-4c11-ab80-8cbc6906d4f3","ios":"levelo://app?vid=d33489ae-32a4-4c11-ab80-8cbc6906d4f3"},"vehicle_type_id":"4","last_reported":1737554908,"current_range_meters":8400,"station_id":"ce4bgjh2rcd13ifvqbg0","pricing_plan_id":"cebpf4jnsgd1na2vs0mg"},{"bike_id":"da03f92c-2cc3-4e46-babd-ad47286635c7","system_id":"levelo_inurba_marseille","lat":43.29008,"lon":5.35594,"is_reserved":false,"is_disabled":false,"rental_uris":{"android":"levelo://app?vid=da03f92c-2cc3-4e46-babd-ad47286635c7","ios":"levelo://app?vid=da03f92c-2cc3-4e46-babd-ad47286635c7"},"vehicle_type_id":"4","last_reported":1737554908,"current_range_meters":36000,"station_id":"ce4bhb92rcd13ifvqen0","pricing_plan_id":"cebpf4jnsgd1na2vs0mg"},{"bike_id":"9863b7f9-4316-4322-9f6c-3cc66b0448e2","system_id":"levelo_inurba_marseille","lat":43.279439,"lon":5.389008,"is_reserved":false,"is_disabled":true,"rental_uris":{"android":"levelo://app?vid=9863b7f9-4316-4322-9f6c-3cc66b0448e2","ios":"levelo://app?vid=9863b7f9-4316-4322-9f6c-3cc66b0448e2"},"vehicle_type_id":"4","last_reported":1737554908,"current_range_meters":28800,"station_id":"","pricing_plan_id":"cebpf4jnsgd1na2vs0mg"},{"bike_id":"7b7fcfbf-be73-469b-8c9e-97b555117ef8","system_id":"levelo_inurba_marseille","lat":43.29258,"lon":5.4091,"is_reserved":false,"is_disabled":false,"rental_uris":{"android":"levelo://app?vid=7b7fcfbf-be73-469b-8c9e-97b555117ef8","ios":"levelo://app?vid=7b7fcfbf-be73-469b-8c9e-97b555117ef8"},"vehicle_type_id":"4","last_reported":1737554908,"current_range_meters":30000,"station_id":"ce4bh192rcd13ifvqdc0","pricing_plan_id":"cebpf4jnsgd1na2vs0mg"},{"bike_id":"eddb6b89-082b-479c-b34f-44c352a03897","system_id":"levelo_inurba_marseille","lat":43.25503,"lon":5.37646,"is_reserved":false,"is_disabled":false,"rental_uris":{"android":"levelo://app?vid=eddb6b89-082b-479c-b34f-44c352a03897","ios":"levelo://app?vid=eddb6b89-082b-479c-b34f-44c352a03897"},"vehicle_type_id":"4","last_reported":1737554908,"current_range_meters":38800,"station_id":"ce4bhh12rcd13ifvqff0","pricing_plan_id":"cebpf4jnsgd1na2vs0mg"},{"bike_id":"ebeb268b-eff7-49dd-aa60-a6071a505737","system_id":"levelo_inurba_marseille","lat":43.29721,"lon":5.37711,"is_reserved":false,"is_disabled":false,"rental_uris":{"android":"levelo://app?vid=ebeb268b-eff7-49dd-aa60-a6071a505737","ios":"levelo://app?vid=ebeb268b-eff7-49dd-aa60-a6071a505737"},"vehicle_type_id":"4","last_reported":1737554908,"current_range_meters":24400,"station_id":"ce4bgkh2rcd13ifvqbl0","pricing_plan_id":"cebpf4jnsgd1na2vs0mg"},{"bike_id":"f315bc93-4512-466f-b8ea-ac633e98ac21","system_id":"levelo_inurba_marseille","lat":43.28425,"lon":5.34976,"is_reserved":false,"is_disabled":false,"rental_uris":{"android":"levelo://app?vid=f315bc93-4512-466f-b8ea-ac633e98ac21","ios":"levelo://app?vid=f315bc93-4512-466f-b8ea-ac633e98ac21"},"vehicle_type_id":"4","last_reported":1737554908,"current_range_meters":38800,"station_id":"ce4bhbh2rcd13ifvqepg","pricing_plan_id":"cebpf4jnsgd1na2vs0mg"},{"bike_id":"b4b6de6b-f5e4-438b-b94e-9cf6ce3eed8c","system_id":"levelo_inurba_marseille","lat":43.29023,"lon":5.3862,"is_reserved":false,"is_disabled":false,"rental_uris":{"android":"levelo://app?vid=b4b6de6b-f5e4-438b-b94e-9cf6ce3eed8c","ios":"levelo://app?vid=b4b6de6b-f5e4-438b-b94e-9cf6ce3eed8c"},"vehicle_type_id":"4","last_reported":1737554908,"current_range_meters":30400,"station_id":"ce4bh4p2rcd13ifvqe0g","pricing_plan_id":"cebpf4jnsgd1na2vs0mg"},{"bike_id":"c0427a53-3db1-4026-afc6-30862b980bb0","system_id":"levelo_inurba_marseille","lat":43.28967,"lon":5.39761,"is_reserved":false,"is_disabled":false,"rental_uris":{"android":"levelo://app?vid=c0427a53-3db1-4026-afc6-30862b980bb0","ios":"levelo://app?vid=c0427a53-3db1-4026-afc6-30862b980bb0"},"vehicle_type_id":"4","last_reported":1737554908,"current_range_meters":31200,"station_id":"ce4bho92rcd13ifvqh3g","pricing_plan_id":"cebpf4jnsgd1na2vs0mg"},{"bike_id":"c13c5a90-81d4-46ba-8cf0-c46f064a6660","system_id":"levelo_inurba_marseille","lat":43.28612,"lon":5.37037,"is_reserved":false,"is_disabled":false,"rental_uris":{"android":"levelo://app?vid=c13c5a90-81d4-46ba-8cf0-c46f064a6660","ios":"levelo://app?vid=c13c5a90-81d4-46ba-8cf0-c46f064a6660"},"vehicle_type_id":"4","last_reported":1737554908,"current_range_meters":32000,"station_id":"ce4bht12rcd13ifvqi60","pricing_plan_id":"cebpf4jnsgd1na2vs0mg"},{"bike_id":"4075edde-d7ec-4366-bf2d-d982e309ec1b","system_id":"levelo_inurba_marseille","lat":43.2957,"lon":5.37501,"is_reserved":false,"is_disabled":false,"rental_uris":{"android":"levelo://app?vid=4075edde-d7ec-4366-bf2d-d982e309ec1b","ios":"levelo://app?vid=4075edde-d7ec-4366-bf2d-d982e309ec1b"},"vehicle_type_id":"4","last_reported":1737554908,"current_range_meters":26000,"station_id":"ce4bgh92rcd13ifvqb50","pricing_plan_id":"cebpf4jnsgd1na2vs0mg"},{"bike_id":"0d555cab-a3ac-493c-97d1-05fb30170afc","system_id":"levelo_inurba_marseille","lat":43.27813,"lon":5.40718,"is_reserved":false,"is_disabled":false,"rental_uris":{"android":"levelo://app?vid=0d555cab-a3ac-493c-97d1-05fb30170afc","ios":"levelo://app?vid=0d555cab-a3ac-493c-97d1-05fb30170afc"},"vehicle_type_id":"4","last_reported":1737554908,"current_range_meters":10000,"station_id":"ce4bhnh2rcd13ifvqgtg","pricing_plan_id":"cebpf4jnsgd1na2vs0mg"},{"bike_id":"c1b3d17b-0f94-4f72-935a-18a42356c2df","system_id":"levelo_inurba_marseille","lat":43.27829,"lon":5.39206,"is_reserved":false,"is_disabled":false,"rental_uris":{"android":"levelo://app?vid=c1b3d17b-0f94-4f72-935a-18a42356c2df","ios":"levelo://app?vid=c1b3d17b-0f94-4f72-935a-18a42356c2df"},"vehicle_type_id":"4","last_reported":1737554908,"current_range_meters":8800,"station_id":"ce4bhjp2rcd13ifvqga0","pricing_plan_id":"cebpf4jnsgd1na2vs0mg"},{"bike_id":"02a0e89c-3d1a-4202-8e2b-6d773b59fe29","system_id":"levelo_inurba_marseille","lat":43.25727,"lon":5.41119,"is_reserved":false,"is_disabled":false,"rental_uris":{"android":"levelo://app?vid=02a0e89c-3d1a-4202-8e2b-6d773b59fe29","ios":"levelo://app?vid=02a0e89c-3d1a-4202-8e2b-6d773b59fe29"},"vehicle_type_id":"4","last_reported":1737554908,"current_range_meters":9600,"station_id":"ce4bhkp2rcd13ifvqgd0","pricing_plan_id":"cebpf4jnsgd1na2vs0mg"},{"bike_id":"d1bb4edd-29a5-435e-8892-dc6499a67307","system_id":"levelo_inurba_marseille","lat":43.30101,"lon":5.3807,"is_reserved":false,"is_disabled":false,"rental_uris":{"android":"levelo://app?vid=d1bb4edd-29a5-435e-8892-dc6499a67307","ios":"levelo://app?vid=d1bb4edd-29a5-435e-8892-dc6499a67307"},"vehicle_type_id":"4","last_reported":1737554908,"current_range_meters":38000,"station_id":"ce4bgjp2rcd13ifvqbh0","pricing_plan_id":"cebpf4jnsgd1na2vs0mg"},{"bike_id":"e4261134-4427-4663-a176-8c03fab09833","system_id":"levelo_inurba_marseille","lat":43.30161,"lon":5.38099,"is_reserved":false,"is_disabled":false,"rental_uris":{"android":"levelo://app?vid=e4261134-4427-4663-a176-8c03fab09833","ios":"levelo://app?vid=e4261134-4427-4663-a176-8c03fab09833"},"vehicle_type_id":"4","last_reported":1737554908,"current_range_meters":24800,"station_id":"ce4bgjp2rcd13ifvqbh0","pricing_plan_id":"cebpf4jnsgd1na2vs0mg"},{"bike_id":"b66f0b5b-2dbb-4a8f-91af-b0d5995e5e1d","system_id":"levelo_inurba_marseille","lat":43.31326,"lon":5.36718,"is_reserved":false,"is_disabled":false,"rental_uris":{"android":"levelo://app?vid=b66f0b5b-2dbb-4a8f-91af-b0d5995e5e1d","ios":"levelo://app?vid=b66f0b5b-2dbb-4a8f-91af-b0d5995e5e1d"},"vehicle_type_id":"4","last_reported":1737554908,"current_range_meters":37600,"station_id":"ce4bgr92rcd13ifvqc6g","pricing_plan_id":"cebpf4jnsgd1na2vs0mg"},{"bike_id":"114c5592-263b-41c0-a246-6a357fbb5383","system_id":"levelo_inurba_marseille","lat":43.27172,"lon":5.40986,"is_reserved":false,"is_disabled":false,"rental_uris":{"android":"levelo://app?vid=114c5592-263b-41c0-a246-6a357fbb5383","ios":"levelo://app?vid=114c5592-263b-41c0-a246-6a357fbb5383"},"vehicle_type_id":"4","last_reported":1737554908,"current_range_meters":34000,"station_id":"ce4bhl12rcd13ifvqgf0","pricing_plan_id":"cebpf4jnsgd1na2vs0mg"},{"bike_id":"fcd4837f-6e09-4786-bcf5-c3a686cbcfef","system_id":"levelo_inurba_marseille","lat":43.29896,"lon":5.43658,"is_reserved":false,"is_disabled":false,"rental_uris":{"android":"levelo://app?vid=fcd4837f-6e09-4786-bcf5-c3a686cbcfef","ios":"levelo://app?vid=fcd4837f-6e09-4786-bcf5-c3a686cbcfef"},"vehicle_type_id":"4","last_reported":1737554908,"current_range_meters":30000,"station_id":"ce4bhpp2rcd13ifvqhfg","pricing_plan_id":"cebpf4jnsgd1na2vs0mg"},{"bike_id":"7e30054b-a98f-4636-acb1-0772bfc040be","system_id":"levelo_inurba_marseille","lat":43.31075,"lon":5.42437,"is_reserved":false,"is_disabled":false,"rental_uris":{"android":"levelo://app?vid=7e30054b-a98f-4636-acb1-0772bfc040be","ios":"levelo://app?vid=7e30054b-a98f-4636-acb1-0772bfc040be"},"vehicle_type_id":"4","last_reported":1737554908,"current_range_meters":38800,"station_id":"ce4bhp92rcd13ifvqhag","pricing_plan_id":"cebpf4jnsgd1na2vs0mg"},{"bike_id":"8240d0ed-6e7f-4cac-935e-b1e9bab8bd24","system_id":"levelo_inurba_marseille","lat":43.28153,"lon":5.42654,"is_reserved":false,"is_disabled":true,"rental_uris":{"android":"levelo://app?vid=8240d0ed-6e7f-4cac-935e-b1e9bab8bd24","ios":"levelo://app?vid=8240d0ed-6e7f-4cac-935e-b1e9bab8bd24"},"vehicle_type_id":"4","last_reported":1737554908,"current_range_meters":0,"station_id":"ce4bhnh2rcd13ifvqgug","pricing_plan_id":"cebpf4jnsgd1na2vs0mg"},{"bike_id":"720f1bd4-b805-4549-913b-58e0db646266","system_id":"levelo_inurba_marseille","lat":43.32362,"lon":5.36744,"is_reserved":false,"is_disabled":false,"rental_uris":{"android":"levelo://app?vid=720f1bd4-b805-4549-913b-58e0db646266","ios":"levelo://app?vid=720f1bd4-b805-4549-913b-58e0db646266"},"vehicle_type_id":"4","last_reported":1737554908,"current_range_meters":16400,"station_id":"ce4bhsh2rcd13ifvqi2g","pricing_plan_id":"cebpf4jnsgd1na2vs0mg"},{"bike_id":"391fdcee-38f3-4eec-8197-896e478821d3","system_id":"levelo_inurba_marseille","lat":43.33723,"lon":5.39191,"is_reserved":false,"is_disabled":false,"rental_uris":{"android":"levelo://app?vid=391fdcee-38f3-4eec-8197-896e478821d3","ios":"levelo://app?vid=391fdcee-38f3-4eec-8197-896e478821d3"},"vehicle_type_id":"4","last_reported":1737554908,"current_range_meters":24000,"station_id":"ce4bhr92rcd13ifvqhsg","pricing_plan_id":"cebpf4jnsgd1na2vs0mg"},{"bike_id":"f2d580fd-eeb3-4838-8e22-59723910edba","system_id":"levelo_inurba_marseille","lat":43.32001,"lon":5.38165,"is_reserved":false,"is_disabled":false,"rental_uris":{"android":"levelo://app?vid=f2d580fd-eeb3-4838-8e22-59723910edba","ios":"levelo://app?vid=f2d580fd-eeb3-4838-8e22-59723910edba"},"vehicle_type_id":"4","last_reported":1737554908,"current_range_meters":35600,"station_id":"ce4bhr12rcd13ifvqhpg","pricing_plan_id":"cebpf4jnsgd1na2vs0mg"},{"bike_id":"4c8758da-d626-4cbf-ad4c-42ba11c94b39","system_id":"levelo_inurba_marseille","lat":43.279,"lon":5.38015,"is_reserved":false,"is_disabled":false,"rental_uris":{"android":"levelo://app?vid=4c8758da-d626-4cbf-ad4c-42ba11c94b39","ios":"levelo://app?vid=4c8758da-d626-4cbf-ad4c-42ba11c94b39"},"vehicle_type_id":"4","last_reported":1737554908,"current_range_meters":20000,"station_id":"ce4bhf92rcd13ifvqf50","pricing_plan_id":"cebpf4jnsgd1na2vs0mg"},{"bike_id":"61f488de-0e8a-4294-8c12-0963029cf453","system_id":"levelo_inurba_marseille","lat":43.25735,"lon":5.4111,"is_reserved":false,"is_disabled":false,"rental_uris":{"android":"levelo://app?vid=61f488de-0e8a-4294-8c12-0963029cf453","ios":"levelo://app?vid=61f488de-0e8a-4294-8c12-0963029cf453"},"vehicle_type_id":"4","last_reported":1737554908,"current_range_meters":38800,"station_id":"ce4bhkp2rcd13ifvqgd0","pricing_plan_id":"cebpf4jnsgd1na2vs0mg"},{"bike_id":"f14dc71a-66db-4337-af73-af7f94ea4b53","system_id":"levelo_inurba_marseille","lat":43.23152,"lon":5.43708,"is_reserved":false,"is_disabled":false,"rental_uris":{"android":"levelo://app?vid=f14dc71a-66db-4337-af73-af7f94ea4b53","ios":"levelo://app?vid=f14dc71a-66db-4337-af73-af7f94ea4b53"},"vehicle_type_id":"4","last_reported":1737554908,"current_range_meters":39200,"station_id":"ce4bhmp2rcd13ifvqgog","pricing_plan_id":"cebpf4jnsgd1na2vs0mg"},{"bike_id":"cd5d5cbc-84d6-4c81-8b69-85dc717a5748","system_id":"levelo_inurba_marseille","lat":43.30419,"lon":5.3975,"is_reserved":false,"is_disabled":false,"rental_uris":{"android":"levelo://app?vid=cd5d5cbc-84d6-4c81-8b69-85dc717a5748","ios":"levelo://app?vid=cd5d5cbc-84d6-4c81-8b69-85dc717a5748"},"vehicle_type_id":"4","last_reported":1737554908,"current_range_meters":30800,"station_id":"ce4bh092rcd13ifvqd20","pricing_plan_id":"cebpf4jnsgd1na2vs0mg"},{"bike_id":"38ca76f7-96f8-47b7-8c96-99aced907e75","system_id":"levelo_inurba_marseille","lat":43.29287,"lon":5.36844,"is_reserved":false,"is_disabled":false,"rental_uris":{"android":"levelo://app?vid=38ca76f7-96f8-47b7-8c96-99aced907e75","ios":"levelo://app?vid=38ca76f7-96f8-47b7-8c96-99aced907e75"},"vehicle_type_id":"4","last_reported":1737554908,"current_range_meters":38800,"station_id":"ce4bhbp2rcd13ifvqesg","pricing_plan_id":"cebpf4jnsgd1na2vs0mg"},{"bike_id":"61f1989e-b749-4026-b635-ab10416e127c","system_id":"levelo_inurba_marseille","lat":43.27925,"lon":5.38,"is_reserved":false,"is_disabled":false,"rental_uris":{"android":"levelo://app?vid=61f1989e-b749-4026-b635-ab10416e127c","ios":"levelo://app?vid=61f1989e-b749-4026-b635-ab10416e127c"},"vehicle_type_id":"4","last_reported":1737554908,"current_range_meters":38000,"station_id":"ce4bhf92rcd13ifvqf50","pricing_plan_id":"cebpf4jnsgd1na2vs0mg"},{"bike_id":"c48b9990-0d74-4233-8820-0ca5b3e958e8","system_id":"levelo_inurba_marseille","lat":43.28437,"lon":5.39135,"is_reserved":false,"is_disabled":false,"rental_uris":{"android":"levelo://app?vid=c48b9990-0d74-4233-8820-0ca5b3e958e8","ios":"levelo://app?vid=c48b9990-0d74-4233-8820-0ca5b3e958e8"},"vehicle_type_id":"4","last_reported":1737554908,"current_range_meters":39200,"station_id":"ce4bhoh2rcd13ifvqh5g","pricing_plan_id":"cebpf4jnsgd1na2vs0mg"},{"bike_id":"9741c905-f037-4851-af2d-c775e55110fd","system_id":"levelo_inurba_marseille","lat":43.29711,"lon":5.37694,"is_reserved":false,"is_disabled":false,"rental_uris":{"android":"levelo://app?vid=9741c905-f037-4851-af2d-c775e55110fd","ios":"levelo://app?vid=9741c905-f037-4851-af2d-c775e55110fd"},"vehicle_type_id":"4","last_reported":1737554908,"current_range_meters":14400,"station_id":"ce4bgkh2rcd13ifvqbl0","pricing_plan_id":"cebpf4jnsgd1na2vs0mg"},{"bike_id":"67f2105b-9b76-4c4b-998d-2cda2af28b3f","system_id":"levelo_inurba_marseille","lat":43.27073,"lon":5.40239,"is_reserved":false,"is_disabled":false,"rental_uris":{"android":"levelo://app?vid=67f2105b-9b76-4c4b-998d-2cda2af28b3f","ios":"levelo://app?vid=67f2105b-9b76-4c4b-998d-2cda2af28b3f"},"vehicle_type_id":"4","last_reported":1737554908,"current_range_meters":17600,"station_id":"ce4bhk92rcd13ifvqgc0","pricing_plan_id":"cebpf4jnsgd1na2vs0mg"},{"bike_id":"298c42be-ec2d-4ea1-a639-d24a5cbdd049","system_id":"levelo_inurba_marseille","lat":43.304598,"lon":5.379139,"is_reserved":false,"is_disabled":false,"rental_uris":{"android":"levelo://app?vid=298c42be-ec2d-4ea1-a639-d24a5cbdd049","ios":"levelo://app?vid=298c42be-ec2d-4ea1-a639-d24a5cbdd049"},"vehicle_type_id":"4","last_reported":1737554908,"current_range_meters":38800,"station_id":"ce4bgup2rcd13ifvqcn0","pricing_plan_id":"cebpf4jnsgd1na2vs0mg"},{"bike_id":"816fb48d-2910-4e57-bdec-923f1a84e6bb","system_id":"levelo_inurba_marseille","lat":43.24649,"lon":5.38889,"is_reserved":false,"is_disabled":false,"rental_uris":{"android":"levelo://app?vid=816fb48d-2910-4e57-bdec-923f1a84e6bb","ios":"levelo://app?vid=816fb48d-2910-4e57-bdec-923f1a84e6bb"},"vehicle_type_id":"4","last_reported":1737554908,"current_range_meters":25600,"station_id":"ce4bhg12rcd13ifvqf60","pricing_plan_id":"cebpf4jnsgd1na2vs0mg"},{"bike_id":"cff1680f-636c-4c21-adec-aee2428512db","system_id":"levelo_inurba_marseille","lat":43.28552,"lon":5.37093,"is_reserved":false,"is_disabled":false,"rental_uris":{"android":"levelo://app?vid=cff1680f-636c-4c21-adec-aee2428512db","ios":"levelo://app?vid=cff1680f-636c-4c21-adec-aee2428512db"},"vehicle_type_id":"4","last_reported":1737554908,"current_range_meters":37600,"station_id":"ce4bht12rcd13ifvqi60","pricing_plan_id":"cebpf4jnsgd1na2vs0mg"},{"bike_id":"13ff516e-16cf-4543-8540-9030b8b296b4","system_id":"levelo_inurba_marseille","lat":43.23199,"lon":5.35556,"is_reserved":false,"is_disabled":false,"rental_uris":{"android":"levelo://app?vid=13ff516e-16cf-4543-8540-9030b8b296b4","ios":"levelo://app?vid=13ff516e-16cf-4543-8540-9030b8b296b4"},"vehicle_type_id":"4","last_reported":1737554908,"current_range_meters":33600,"station_id":"ce4bhu92rcd13ifvqi70","pricing_plan_id":"cebpf4jnsgd1na2vs0mg"},{"bike_id":"81f2072d-317e-4ceb-a4f5-594b967ebaaf","system_id":"levelo_inurba_marseille","lat":43.28406,"lon":5.37504,"is_reserved":false,"is_disabled":false,"rental_uris":{"android":"levelo://app?vid=81f2072d-317e-4ceb-a4f5-594b967ebaaf","ios":"levelo://app?vid=81f2072d-317e-4ceb-a4f5-594b967ebaaf"},"vehicle_type_id":"4","last_reported":1737554908,"current_range_meters":36000,"station_id":"ce4bh412rcd13ifvqds0","pricing_plan_id":"cebpf4jnsgd1na2vs0mg"},{"bike_id":"9984a19d-448e-4ed2-8c95-d1103fd0e167","system_id":"levelo_inurba_marseille","lat":43.31766,"lon":5.39019,"is_reserved":false,"is_disabled":true,"rental_uris":{"android":"levelo://app?vid=9984a19d-448e-4ed2-8c95-d1103fd0e167","ios":"levelo://app?vid=9984a19d-448e-4ed2-8c95-d1103fd0e167"},"vehicle_type_id":"4","last_reported":1737554908,"current_range_meters":0,"station_id":"ce4bhqp2rcd13ifvqhng","pricing_plan_id":"cebpf4jnsgd1na2vs0mg"},{"bike_id":"dc9afc0d-d533-431b-a32f-6f6423d7880b","system_id":"levelo_inurba_marseille","lat":43.317284,"lon":5.423982,"is_reserved":false,"is_disabled":false,"rental_uris":{"android":"levelo://app?vid=dc9afc0d-d533-431b-a32f-6f6423d7880b","ios":"levelo://app?vid=dc9afc0d-d533-431b-a32f-6f6423d7880b"},"vehicle_type_id":"4","last_reported":1737554908,"current_range_meters":35200,"station_id":"ce4bhp92rcd13ifvqhbg","pricing_plan_id":"cebpf4jnsgd1na2vs0mg"},{"bike_id":"a7f3c160-c351-4b7c-85a7-03df9006e355","system_id":"levelo_inurba_marseille","lat":43.24166,"lon":5.36396,"is_reserved":false,"is_disabled":false,"rental_uris":{"android":"levelo://app?vid=a7f3c160-c351-4b7c-85a7-03df9006e355","ios":"levelo://app?vid=a7f3c160-c351-4b7c-85a7-03df9006e355"},"vehicle_type_id":"4","last_reported":1737554908,"current_range_meters":38800,"station_id":"cpo36qri1sfpv3e86is0","pricing_plan_id":"cebpf4jnsgd1na2vs0mg"},{"bike_id":"7d38a8d7-356a-430f-9866-33e957a4367b","system_id":"levelo_inurba_marseille","lat":43.286155,"lon":5.370591,"is_reserved":false,"is_disabled":false,"rental_uris":{"android":"levelo://app?vid=7d38a8d7-356a-430f-9866-33e957a4367b","ios":"levelo://app?vid=7d38a8d7-356a-430f-9866-33e957a4367b"},"vehicle_type_id":"4","last_reported":1737554908,"current_range_meters":10800,"station_id":"ce4bht12rcd13ifvqi60","pricing_plan_id":"cebpf4jnsgd1na2vs0mg"},{"bike_id":"9786a731-542c-4627-9c27-08669fd896ec","system_id":"levelo_inurba_marseille","lat":43.29592,"lon":5.38096,"is_reserved":false,"is_disabled":false,"rental_uris":{"android":"levelo://app?vid=9786a731-542c-4627-9c27-08669fd896ec","ios":"levelo://app?vid=9786a731-542c-4627-9c27-08669fd896ec"},"vehicle_type_id":"4","last_reported":1737554908,"current_range_meters":28000,"station_id":"ce4bgl12rcd13ifvqbo0","pricing_plan_id":"cebpf4jnsgd1na2vs0mg"},{"bike_id":"4296adba-bff9-4921-b1c6-7f31b7ec3dbc","system_id":"levelo_inurba_marseille","lat":43.3304,"lon":5.3906,"is_reserved":false,"is_disabled":false,"rental_uris":{"android":"levelo://app?vid=4296adba-bff9-4921-b1c6-7f31b7ec3dbc","ios":"levelo://app?vid=4296adba-bff9-4921-b1c6-7f31b7ec3dbc"},"vehicle_type_id":"4","last_reported":1737554908,"current_range_meters":2800,"station_id":"ce4bhr92rcd13ifvqhrg","pricing_plan_id":"cebpf4jnsgd1na2vs0mg"},{"bike_id":"4543ed06-7a98-4478-b14b-7aadf045fba3","system_id":"levelo_inurba_marseille","lat":43.26784,"lon":5.3942,"is_reserved":false,"is_disabled":false,"rental_uris":{"android":"levelo://app?vid=4543ed06-7a98-4478-b14b-7aadf045fba3","ios":"levelo://app?vid=4543ed06-7a98-4478-b14b-7aadf045fba3"},"vehicle_type_id":"4","last_reported":1737554908,"current_range_meters":24000,"station_id":"ce4bhh12rcd13ifvqfg0","pricing_plan_id":"cebpf4jnsgd1na2vs0mg"},{"bike_id":"48c7f86f-7751-4bac-8f1b-da80a3832ea9","system_id":"levelo_inurba_marseille","lat":43.30144,"lon":5.39868,"is_reserved":false,"is_disabled":false,"rental_uris":{"android":"levelo://app?vid=48c7f86f-7751-4bac-8f1b-da80a3832ea9","ios":"levelo://app?vid=48c7f86f-7751-4bac-8f1b-da80a3832ea9"},"vehicle_type_id":"4","last_reported":1737554908,"current_range_meters":16800,"station_id":"ce4bh0h2rcd13ifvqd40","pricing_plan_id":"cebpf4jnsgd1na2vs0mg"},{"bike_id":"2c41bf76-fc82-4efe-b7a3-989dd9b51b08","system_id":"levelo_inurba_marseille","lat":43.33735,"lon":5.3919,"is_reserved":false,"is_disabled":false,"rental_uris":{"android":"levelo://app?vid=2c41bf76-fc82-4efe-b7a3-989dd9b51b08","ios":"levelo://app?vid=2c41bf76-fc82-4efe-b7a3-989dd9b51b08"},"vehicle_type_id":"4","last_reported":1737554908,"current_range_meters":39200,"station_id":"ce4bhr92rcd13ifvqhsg","pricing_plan_id":"cebpf4jnsgd1na2vs0mg"},{"bike_id":"cd505ba2-d622-4fae-8506-9846633adab1","system_id":"levelo_inurba_marseille","lat":43.32364,"lon":5.36747,"is_reserved":false,"is_disabled":false,"rental_uris":{"android":"levelo://app?vid=cd505ba2-d622-4fae-8506-9846633adab1","ios":"levelo://app?vid=cd505ba2-d622-4fae-8506-9846633adab1"},"vehicle_type_id":"4","last_reported":1737554908,"current_range_meters":18000,"station_id":"ce4bhsh2rcd13ifvqi2g","pricing_plan_id":"cebpf4jnsgd1na2vs0mg"},{"bike_id":"bb3a4d64-44c2-4308-809d-a49952b6cb5e","system_id":"levelo_inurba_marseille","lat":43.2928,"lon":5.36843,"is_reserved":false,"is_disabled":false,"rental_uris":{"android":"levelo://app?vid=bb3a4d64-44c2-4308-809d-a49952b6cb5e","ios":"levelo://app?vid=bb3a4d64-44c2-4308-809d-a49952b6cb5e"},"vehicle_type_id":"4","last_reported":1737554908,"current_range_meters":12000,"station_id":"ce4bhbp2rcd13ifvqesg","pricing_plan_id":"cebpf4jnsgd1na2vs0mg"},{"bike_id":"0a649b76-6997-4687-8d08-6d432daa2801","system_id":"levelo_inurba_marseille","lat":43.30431,"lon":5.38884,"is_reserved":false,"is_disabled":false,"rental_uris":{"android":"levelo://app?vid=0a649b76-6997-4687-8d08-6d432daa2801","ios":"levelo://app?vid=0a649b76-6997-4687-8d08-6d432daa2801"},"vehicle_type_id":"4","last_reported":1737554908,"current_range_meters":36400,"station_id":"ce4bgk12rcd13ifvqbi0","pricing_plan_id":"cebpf4jnsgd1na2vs0mg"},{"bike_id":"23b4d82f-6045-4d97-adf5-3bc3d5274225","system_id":"levelo_inurba_marseille","lat":43.28007,"lon":5.40018,"is_reserved":false,"is_disabled":false,"rental_uris":{"android":"levelo://app?vid=23b4d82f-6045-4d97-adf5-3bc3d5274225","ios":"levelo://app?vid=23b4d82f-6045-4d97-adf5-3bc3d5274225"},"vehicle_type_id":"4","last_reported":1737554908,"current_range_meters":37600,"station_id":"ce4bho92rcd13ifvqh4g","pricing_plan_id":"cebpf4jnsgd1na2vs0mg"},{"bike_id":"d25bd425-6815-43e4-975a-24891a0a0ca0","system_id":"levelo_inurba_marseille","lat":43.30417,"lon":5.41284,"is_reserved":false,"is_disabled":true,"rental_uris":{"android":"levelo://app?vid=d25bd425-6815-43e4-975a-24891a0a0ca0","ios":"levelo://app?vid=d25bd425-6815-43e4-975a-24891a0a0ca0"},"vehicle_type_id":"4","last_reported":1737554908,"current_range_meters":800,"station_id":"ce4bhop2rcd13ifvqh8g","pricing_plan_id":"cebpf4jnsgd1na2vs0mg"},{"bike_id":"c8ddb432-aa3b-4c1c-bebb-17fc86c01570","system_id":"levelo_inurba_marseille","lat":43.30966,"lon":5.41639,"is_reserved":false,"is_disabled":false,"rental_uris":{"android":"levelo://app?vid=c8ddb432-aa3b-4c1c-bebb-17fc86c01570","ios":"levelo://app?vid=c8ddb432-aa3b-4c1c-bebb-17fc86c01570"},"vehicle_type_id":"4","last_reported":1737554908,"current_range_meters":30000,"station_id":"ce4bhp92rcd13ifvqhcg","pricing_plan_id":"cebpf4jnsgd1na2vs0mg"},{"bike_id":"6fcfbd13-8ead-42f2-9b8b-7049b25b5210","system_id":"levelo_inurba_marseille","lat":43.29587,"lon":5.36737,"is_reserved":false,"is_disabled":false,"rental_uris":{"android":"levelo://app?vid=6fcfbd13-8ead-42f2-9b8b-7049b25b5210","ios":"levelo://app?vid=6fcfbd13-8ead-42f2-9b8b-7049b25b5210"},"vehicle_type_id":"4","last_reported":1737554908,"current_range_meters":38000,"station_id":"ce4bgph2rcd13ifvqc2g","pricing_plan_id":"cebpf4jnsgd1na2vs0mg"},{"bike_id":"5d3e3155-eba8-4430-8cbf-676b041d40e4","system_id":"levelo_inurba_marseille","lat":43.26785,"lon":5.3942,"is_reserved":false,"is_disabled":false,"rental_uris":{"android":"levelo://app?vid=5d3e3155-eba8-4430-8cbf-676b041d40e4","ios":"levelo://app?vid=5d3e3155-eba8-4430-8cbf-676b041d40e4"},"vehicle_type_id":"4","last_reported":1737554908,"current_range_meters":38400,"station_id":"ce4bhh12rcd13ifvqfg0","pricing_plan_id":"cebpf4jnsgd1na2vs0mg"},{"bike_id":"4d8cc416-8f5b-4cd2-86ba-0830c35a2055","system_id":"levelo_inurba_marseille","lat":43.24807,"lon":5.37458,"is_reserved":false,"is_disabled":false,"rental_uris":{"android":"levelo://app?vid=4d8cc416-8f5b-4cd2-86ba-0830c35a2055","ios":"levelo://app?vid=4d8cc416-8f5b-4cd2-86ba-0830c35a2055"},"vehicle_type_id":"4","last_reported":1737554908,"current_range_meters":12000,"station_id":"ce4bhgh2rcd13ifvqfb0","pricing_plan_id":"cebpf4jnsgd1na2vs0mg"},{"bike_id":"b8c90d4f-3f8a-4b55-b26b-474dd8938571","system_id":"levelo_inurba_marseille","lat":43.29525,"lon":5.37484,"is_reserved":false,"is_disabled":false,"rental_uris":{"android":"levelo://app?vid=b8c90d4f-3f8a-4b55-b26b-474dd8938571","ios":"levelo://app?vid=b8c90d4f-3f8a-4b55-b26b-474dd8938571"},"vehicle_type_id":"4","last_reported":1737554908,"current_range_meters":20800,"station_id":"ce4bgkp2rcd13ifvqbmg","pricing_plan_id":"cebpf4jnsgd1na2vs0mg"},{"bike_id":"1b38ef88-45a1-4c66-b5d9-5c5310a31145","system_id":"levelo_inurba_marseille","lat":43.26807,"lon":5.4027,"is_reserved":false,"is_disabled":false,"rental_uris":{"android":"levelo://app?vid=1b38ef88-45a1-4c66-b5d9-5c5310a31145","ios":"levelo://app?vid=1b38ef88-45a1-4c66-b5d9-5c5310a31145"},"vehicle_type_id":"4","last_reported":1737554908,"current_range_meters":14800,"station_id":"ce501612rcd8frsf0b60","pricing_plan_id":"cebpf4jnsgd1na2vs0mg"},{"bike_id":"adb26299-3e4f-4001-b2be-8fe3e3c1aef5","system_id":"levelo_inurba_marseille","lat":43.2922,"lon":5.36066,"is_reserved":false,"is_disabled":false,"rental_uris":{"android":"levelo://app?vid=adb26299-3e4f-4001-b2be-8fe3e3c1aef5","ios":"levelo://app?vid=adb26299-3e4f-4001-b2be-8fe3e3c1aef5"},"vehicle_type_id":"4","last_reported":1737554908,"current_range_meters":31200,"station_id":"ce4bhbh2rcd13ifvqeqg","pricing_plan_id":"cebpf4jnsgd1na2vs0mg"},{"bike_id":"a4ffcc1c-f07a-4480-8f2e-95f5309cc93e","system_id":"levelo_inurba_marseille","lat":43.25481,"lon":5.37559,"is_reserved":false,"is_disabled":false,"rental_uris":{"android":"levelo://app?vid=a4ffcc1c-f07a-4480-8f2e-95f5309cc93e","ios":"levelo://app?vid=a4ffcc1c-f07a-4480-8f2e-95f5309cc93e"},"vehicle_type_id":"4","last_reported":1737554908,"current_range_meters":38800,"station_id":"ce4bhh12rcd13ifvqff0","pricing_plan_id":"cebpf4jnsgd1na2vs0mg"},{"bike_id":"d0f83ca8-9ae5-472a-a447-2229d84a32d1","system_id":"levelo_inurba_marseille","lat":43.32365,"lon":5.36765,"is_reserved":false,"is_disabled":false,"rental_uris":{"android":"levelo://app?vid=d0f83ca8-9ae5-472a-a447-2229d84a32d1","ios":"levelo://app?vid=d0f83ca8-9ae5-472a-a447-2229d84a32d1"},"vehicle_type_id":"4","last_reported":1737554908,"current_range_meters":28000,"station_id":"ce4bhsh2rcd13ifvqi2g","pricing_plan_id":"cebpf4jnsgd1na2vs0mg"},{"bike_id":"6f824729-72f6-40e3-a22d-9f70ac2c6041","system_id":"levelo_inurba_marseille","lat":43.30569,"lon":5.36545,"is_reserved":false,"is_disabled":false,"rental_uris":{"android":"levelo://app?vid=6f824729-72f6-40e3-a22d-9f70ac2c6041","ios":"levelo://app?vid=6f824729-72f6-40e3-a22d-9f70ac2c6041"},"vehicle_type_id":"4","last_reported":1737554908,"current_range_meters":30400,"station_id":"ce4bgs12rcd13ifvqcag","pricing_plan_id":"cebpf4jnsgd1na2vs0mg"},{"bike_id":"f5b52696-dada-4db8-ac63-486420d431ea","system_id":"levelo_inurba_marseille","lat":43.246526,"lon":5.38897,"is_reserved":false,"is_disabled":false,"rental_uris":{"android":"levelo://app?vid=f5b52696-dada-4db8-ac63-486420d431ea","ios":"levelo://app?vid=f5b52696-dada-4db8-ac63-486420d431ea"},"vehicle_type_id":"4","last_reported":1737554908,"current_range_meters":38800,"station_id":"ce4bhg12rcd13ifvqf60","pricing_plan_id":"cebpf4jnsgd1na2vs0mg"},{"bike_id":"c6d27735-05f1-488e-b031-7e5e9ad54600","system_id":"levelo_inurba_marseille","lat":43.29258,"lon":5.40913,"is_reserved":false,"is_disabled":false,"rental_uris":{"android":"levelo://app?vid=c6d27735-05f1-488e-b031-7e5e9ad54600","ios":"levelo://app?vid=c6d27735-05f1-488e-b031-7e5e9ad54600"},"vehicle_type_id":"4","last_reported":1737554908,"current_range_meters":33600,"station_id":"ce4bh192rcd13ifvqdc0","pricing_plan_id":"cebpf4jnsgd1na2vs0mg"},{"bike_id":"67406dea-6b4a-4664-a7b5-eb12a6267ed8","system_id":"levelo_inurba_marseille","lat":43.32292,"lon":5.38274,"is_reserved":false,"is_disabled":false,"rental_uris":{"android":"levelo://app?vid=67406dea-6b4a-4664-a7b5-eb12a6267ed8","ios":"levelo://app?vid=67406dea-6b4a-4664-a7b5-eb12a6267ed8"},"vehicle_type_id":"4","last_reported":1737554908,"current_range_meters":24400,"station_id":"ce4bhr12rcd13ifvqhqg","pricing_plan_id":"cebpf4jnsgd1na2vs0mg"},{"bike_id":"f6af6aef-3841-40a7-9b6f-9e2ad2b736bf","system_id":"levelo_inurba_marseille","lat":43.29002,"lon":5.35601,"is_reserved":false,"is_disabled":false,"rental_uris":{"android":"levelo://app?vid=f6af6aef-3841-40a7-9b6f-9e2ad2b736bf","ios":"levelo://app?vid=f6af6aef-3841-40a7-9b6f-9e2ad2b736bf"},"vehicle_type_id":"4","last_reported":1737554908,"current_range_meters":38800,"station_id":"ce4bhb92rcd13ifvqen0","pricing_plan_id":"cebpf4jnsgd1na2vs0mg"},{"bike_id":"8b7c7911-d87a-43f2-b83b-ce394beb4609","system_id":"levelo_inurba_marseille","lat":43.29571,"lon":5.37514,"is_reserved":false,"is_disabled":false,"rental_uris":{"android":"levelo://app?vid=8b7c7911-d87a-43f2-b83b-ce394beb4609","ios":"levelo://app?vid=8b7c7911-d87a-43f2-b83b-ce394beb4609"},"vehicle_type_id":"4","last_reported":1737554908,"current_range_meters":33600,"station_id":"ce4bgh92rcd13ifvqb50","pricing_plan_id":"cebpf4jnsgd1na2vs0mg"},{"bike_id":"54dce0aa-0bd6-4589-a99e-7a8b129c5880","system_id":"levelo_inurba_marseille","lat":43.27993,"lon":5.40012,"is_reserved":false,"is_disabled":true,"rental_uris":{"android":"levelo://app?vid=54dce0aa-0bd6-4589-a99e-7a8b129c5880","ios":"levelo://app?vid=54dce0aa-0bd6-4589-a99e-7a8b129c5880"},"vehicle_type_id":"4","last_reported":1737554908,"current_range_meters":0,"station_id":"ce4bho92rcd13ifvqh4g","pricing_plan_id":"cebpf4jnsgd1na2vs0mg"},{"bike_id":"7b9618e5-f073-41a0-b410-007d3084e088","system_id":"levelo_inurba_marseille","lat":43.30934,"lon":5.40146,"is_reserved":false,"is_disabled":false,"rental_uris":{"android":"levelo://app?vid=7b9618e5-f073-41a0-b410-007d3084e088","ios":"levelo://app?vid=7b9618e5-f073-41a0-b410-007d3084e088"},"vehicle_type_id":"4","last_reported":1737554908,"current_range_meters":37600,"station_id":"ce4bgvp2rcd13ifvqct0","pricing_plan_id":"cebpf4jnsgd1na2vs0mg"},{"bike_id":"9d897738-a396-404a-8b40-b317117a1268","system_id":"levelo_inurba_marseille","lat":43.28163,"lon":5.42632,"is_reserved":false,"is_disabled":true,"rental_uris":{"android":"levelo://app?vid=9d897738-a396-404a-8b40-b317117a1268","ios":"levelo://app?vid=9d897738-a396-404a-8b40-b317117a1268"},"vehicle_type_id":"4","last_reported":1737554908,"current_range_meters":0,"station_id":"ce4bhnh2rcd13ifvqgug","pricing_plan_id":"cebpf4jnsgd1na2vs0mg"},{"bike_id":"bda40032-ae81-40f3-9885-73c2f8a4c2f3","system_id":"levelo_inurba_marseille","lat":43.28941,"lon":5.36636,"is_reserved":false,"is_disabled":false,"rental_uris":{"android":"levelo://app?vid=bda40032-ae81-40f3-9885-73c2f8a4c2f3","ios":"levelo://app?vid=bda40032-ae81-40f3-9885-73c2f8a4c2f3"},"vehicle_type_id":"4","last_reported":1737554908,"current_range_meters":36000,"station_id":"ce4bhap2rcd13ifvqek0","pricing_plan_id":"cebpf4jnsgd1na2vs0mg"},{"bike_id":"1cacc39b-8464-4517-8719-a5b46245be93","system_id":"levelo_inurba_marseille","lat":43.31079,"lon":5.4243,"is_reserved":false,"is_disabled":false,"rental_uris":{"android":"levelo://app?vid=1cacc39b-8464-4517-8719-a5b46245be93","ios":"levelo://app?vid=1cacc39b-8464-4517-8719-a5b46245be93"},"vehicle_type_id":"4","last_reported":1737554908,"current_range_meters":38800,"station_id":"ce4bhp92rcd13ifvqhag","pricing_plan_id":"cebpf4jnsgd1na2vs0mg"},{"bike_id":"cc8dd4d9-c41b-4e62-8f16-686e77afe1cc","system_id":"levelo_inurba_marseille","lat":43.27832,"lon":5.40724,"is_reserved":false,"is_disabled":false,"rental_uris":{"android":"levelo://app?vid=cc8dd4d9-c41b-4e62-8f16-686e77afe1cc","ios":"levelo://app?vid=cc8dd4d9-c41b-4e62-8f16-686e77afe1cc"},"vehicle_type_id":"4","last_reported":1737554908,"current_range_meters":39200,"station_id":"ce4bhnh2rcd13ifvqgtg","pricing_plan_id":"cebpf4jnsgd1na2vs0mg"},{"bike_id":"2094d673-56a1-4b76-a92d-894a34210788","system_id":"levelo_inurba_marseille","lat":43.29225,"lon":5.36067,"is_reserved":false,"is_disabled":false,"rental_uris":{"android":"levelo://app?vid=2094d673-56a1-4b76-a92d-894a34210788","ios":"levelo://app?vid=2094d673-56a1-4b76-a92d-894a34210788"},"vehicle_type_id":"4","last_reported":1737554908,"current_range_meters":20800,"station_id":"ce4bhbh2rcd13ifvqeqg","pricing_plan_id":"cebpf4jnsgd1na2vs0mg"},{"bike_id":"713b4e02-a459-45c2-8b7f-670ded946bdb","system_id":"levelo_inurba_marseille","lat":43.29613,"lon":5.37136,"is_reserved":false,"is_disabled":false,"rental_uris":{"android":"levelo://app?vid=713b4e02-a459-45c2-8b7f-670ded946bdb","ios":"levelo://app?vid=713b4e02-a459-45c2-8b7f-670ded946bdb"},"vehicle_type_id":"4","last_reported":1737554908,"current_range_meters":38800,"station_id":"ce4bgnh2rcd13ifvqc0g","pricing_plan_id":"cebpf4jnsgd1na2vs0mg"},{"bike_id":"cf975d2d-812a-43d4-a592-21891331e4f1","system_id":"levelo_inurba_marseille","lat":43.27171,"lon":5.40985,"is_reserved":false,"is_disabled":false,"rental_uris":{"android":"levelo://app?vid=cf975d2d-812a-43d4-a592-21891331e4f1","ios":"levelo://app?vid=cf975d2d-812a-43d4-a592-21891331e4f1"},"vehicle_type_id":"4","last_reported":1737554908,"current_range_meters":38400,"station_id":"ce4bhl12rcd13ifvqgf0","pricing_plan_id":"cebpf4jnsgd1na2vs0mg"},{"bike_id":"38a62f0f-5642-4b4d-ab65-8ce22514d290","system_id":"levelo_inurba_marseille","lat":43.246543,"lon":5.389028,"is_reserved":false,"is_disabled":false,"rental_uris":{"android":"levelo://app?vid=38a62f0f-5642-4b4d-ab65-8ce22514d290","ios":"levelo://app?vid=38a62f0f-5642-4b4d-ab65-8ce22514d290"},"vehicle_type_id":"4","last_reported":1737554908,"current_range_meters":38800,"station_id":"ce4bhg12rcd13ifvqf60","pricing_plan_id":"cebpf4jnsgd1na2vs0mg"},{"bike_id":"a4f4ebf0-b8e5-48b3-aa8c-1a308aa6203a","system_id":"levelo_inurba_marseille","lat":43.27071,"lon":5.42278,"is_reserved":false,"is_disabled":false,"rental_uris":{"android":"levelo://app?vid=a4f4ebf0-b8e5-48b3-aa8c-1a308aa6203a","ios":"levelo://app?vid=a4f4ebf0-b8e5-48b3-aa8c-1a308aa6203a"},"vehicle_type_id":"4","last_reported":1737554908,"current_range_meters":38000,"station_id":"ce4bhk92rcd13ifvqgb0","pricing_plan_id":"cebpf4jnsgd1na2vs0mg"},{"bike_id":"71982b72-be52-4482-bf6e-465ac623ec8c","system_id":"levelo_inurba_marseille","lat":43.275082,"lon":5.397652,"is_reserved":false,"is_disabled":false,"rental_uris":{"android":"levelo://app?vid=71982b72-be52-4482-bf6e-465ac623ec8c","ios":"levelo://app?vid=71982b72-be52-4482-bf6e-465ac623ec8c"},"vehicle_type_id":"4","last_reported":1737554908,"current_range_meters":8800,"station_id":"","pricing_plan_id":"cebpf4jnsgd1na2vs0mg"},{"bike_id":"1f7c87db-d399-4f13-923d-8a98a4f000e9","system_id":"levelo_inurba_marseille","lat":43.23976,"lon":5.36601,"is_reserved":false,"is_disabled":false,"rental_uris":{"android":"levelo://app?vid=1f7c87db-d399-4f13-923d-8a98a4f000e9","ios":"levelo://app?vid=1f7c87db-d399-4f13-923d-8a98a4f000e9"},"vehicle_type_id":"4","last_reported":1737554908,"current_range_meters":9200,"station_id":"ce4bhi12rcd13ifvqfp0","pricing_plan_id":"cebpf4jnsgd1na2vs0mg"},{"bike_id":"b14a47b1-260c-4fc5-af13-55a9232190a9","system_id":"levelo_inurba_marseille","lat":43.29591,"lon":5.3752,"is_reserved":false,"is_disabled":false,"rental_uris":{"android":"levelo://app?vid=b14a47b1-260c-4fc5-af13-55a9232190a9","ios":"levelo://app?vid=b14a47b1-260c-4fc5-af13-55a9232190a9"},"vehicle_type_id":"4","last_reported":1737554908,"current_range_meters":22800,"station_id":"ce4bgh92rcd13ifvqb50","pricing_plan_id":"cebpf4jnsgd1na2vs0mg"},{"bike_id":"96dfa952-4a31-488f-b0e9-0d8db6b5e7ef","system_id":"levelo_inurba_marseille","lat":43.29523,"lon":5.37498,"is_reserved":false,"is_disabled":false,"rental_uris":{"android":"levelo://app?vid=96dfa952-4a31-488f-b0e9-0d8db6b5e7ef","ios":"levelo://app?vid=96dfa952-4a31-488f-b0e9-0d8db6b5e7ef"},"vehicle_type_id":"4","last_reported":1737554908,"current_range_meters":7200,"station_id":"ce4bgkp2rcd13ifvqbmg","pricing_plan_id":"cebpf4jnsgd1na2vs0mg"},{"bike_id":"cb7322b4-1ac1-4114-8157-c83aeac75b76","system_id":"levelo_inurba_marseille","lat":43.32128,"lon":5.36795,"is_reserved":false,"is_disabled":false,"rental_uris":{"android":"levelo://app?vid=cb7322b4-1ac1-4114-8157-c83aeac75b76","ios":"levelo://app?vid=cb7322b4-1ac1-4114-8157-c83aeac75b76"},"vehicle_type_id":"4","last_reported":1737554908,"current_range_meters":21600,"station_id":"ce4bhrh2rcd13ifvqhug","pricing_plan_id":"cebpf4jnsgd1na2vs0mg"},{"bike_id":"ac5e9094-6e01-4a43-8ee7-189da8fe965a","system_id":"levelo_inurba_marseille","lat":43.32666,"lon":5.40966,"is_reserved":false,"is_disabled":false,"rental_uris":{"android":"levelo://app?vid=ac5e9094-6e01-4a43-8ee7-189da8fe965a","ios":"levelo://app?vid=ac5e9094-6e01-4a43-8ee7-189da8fe965a"},"vehicle_type_id":"4","last_reported":1737554908,"current_range_meters":6400,"station_id":"ce4bhpp2rcd13ifvqhgg","pricing_plan_id":"cebpf4jnsgd1na2vs0mg"},{"bike_id":"2c115182-c42c-491c-9297-b7a7447bfbd5","system_id":"levelo_inurba_marseille","lat":43.29243,"lon":5.36087,"is_reserved":false,"is_disabled":false,"rental_uris":{"android":"levelo://app?vid=2c115182-c42c-491c-9297-b7a7447bfbd5","ios":"levelo://app?vid=2c115182-c42c-491c-9297-b7a7447bfbd5"},"vehicle_type_id":"4","last_reported":1737554908,"current_range_meters":34800,"station_id":"ce4bhbh2rcd13ifvqeqg","pricing_plan_id":"cebpf4jnsgd1na2vs0mg"},