{"last_updated":1773526539,"ttl":60,"version":"2.2","data":{"bikes":[{"bike_id":"4853eebb-ab61-45f6-ad42-3d4e196de01e","system_id":"levelo_inurba_marseille","lat":43.30735,"lon":5.42441,"is_reserved":false,"is_disabled":false,"rental_uris":{"android":"levelo://app?vid=4853eebb-ab61-45f6-ad42-3d4e196de01e","ios":"levelo://app?vid=4853eebb-ab61-45f6-ad42-3d4e196de01e"},"vehicle_type_id":"4","last_reported":1773526539,"current_range_meters":39200,"station_id":"st_cvj6ca6bvosntc0bfgr0","pricing_plan_id":"cebpf4jnsgd1na2vs0mg"},{"bike_id":"9064d991-fc32-422f-a98f-30d6301494d0","system_id":"levelo_inurba_marseille","lat":43.30637,"lon":5.40098,"is_reserved":false,"is_disabled":false,"rental_uris":{"android":"levelo://app?vid=9064d991-fc32-422f-a98f-30d6301494d0","ios":"levelo://app?vid=9064d991-fc32-422f-a98f-30d6301494d0"},"vehicle_type_id":"4","last_reported":1773526539,"current_range_meters":27200,"station_id":"ce4bh112rcd13ifvqda0","pricing_plan_id":"cebpf4jnsgd1na2vs0mg"},{"bike_id":"30e609dd-2e92-46af-a784-41c287fba995","system_id":"levelo_inurba_marseille","lat":43.29383,"lon":5.3783,"is_reserved":false,"is_disabled":false,"rental_uris":{"android":"levelo://app?vid=30e609dd-2e92-46af-a784-41c287fba995","ios":"levelo://app?vid=30e609dd-2e92-46af-a784-41c287fba995"},"vehicle_type_id":"4","last_reported":1773526539,"current_range_meters":29600,"station_id":"ce4bgjh2rcd13ifvqbf0","pricing_plan_id":"cebpf4jnsgd1na2vs0mg"},{"bike_id":"4ee1719e-9828-41ad-ab0e-ac501a6f8dcb","system_id":"levelo_inurba_marseille","lat":43.26064,"lon":5.39398,"is_reserved":false,"is_disabled":false,"rental_uris":{"android":"levelo://app?vid=4ee1719e-9828-41ad-ab0e-ac501a6f8dcb","ios":"levelo://app?vid=4ee1719e-9828-41ad-ab0e-ac501a6f8dcb"},"vehicle_type_id":"4","last_reported":1773526539,"current_range_meters":8800,"station_id":"ce4bhh92rcd13ifvqfj0","pricing_plan_id":"cebpf4jnsgd1na2vs0mg"},{"bike_id":"e4c6d513-0f75-4d36-ab87-e09b44465632","system_id":"levelo_inurba_marseille","lat":43.27388,"lon":5.36269,"is_reserved":false,"is_disabled":true,"rental_uris":{"android":"levelo://app?vid=e4c6d513-0f75-4d36-ab87-e09b44465632","ios":"levelo://app?vid=e4c6d513-0f75-4d36-ab87-e09b44465632"},"vehicle_type_id":"4","last_reported":1773526539,"current_range_meters":36800,"station_id":"ce4bhbh2rcd13ifvqeo0","pricing_plan_id":"cebpf4jnsgd1na2vs0mg"},{"bike_id":"3aabda5d-c72d-4fd0-ba37-e608691b1216","system_id":"levelo_inurba_marseille","lat":43.30849,"lon":5.38195,"is_reserved":false,"is_disabled":false,"rental_uris":{"android":"levelo://app?vid=3aabda5d-c72d-4fd0-ba37-e608691b1216","ios":"levelo://app?vid=3aabda5d-c72d-4fd0-ba37-e608691b1216"},"vehicle_type_id":"4","last_reported":1773526539,"current_range_meters":25200,"station_id":"","pricing_plan_id":"cebpf4jnsgd1na2vs0mg"},{"bike_id":"65eaca63-d8c6-4a1b-97f3-796d10d9e017","system_id":"levelo_inurba_marseille","lat":43.284412,"lon":5.375429,"is_reserved":false,"is_disabled":false,"rental_uris":{"android":"levelo://app?vid=65eaca63-d8c6-4a1b-97f3-796d10d9e017","ios":"levelo://app?vid=65eaca63-d8c6-4a1b-97f3-796d10d9e017"},"vehicle_type_id":"4","last_reported":1773526539,"current_range_meters":10000,"station_id":"ce4bgkh2rcd13ifvqbk0","pricing_plan_id":"cebpf4jnsgd1na2vs0mg"},{"bike_id":"9f2a1746-11d8-47f0-bf04-a3c09370326f","system_id":"levelo_inurba_marseille","lat":43.28453,"lon":5.3589,"is_reserved":false,"is_disabled":false,"rental_uris":{"android":"levelo://app?vid=9f2a1746-11d8-47f0-bf04-a3c09370326f","ios":"levelo://app?vid=9f2a1746-11d8-47f0-bf04-a3c09370326f"},"vehicle_type_id":"4","last_reported":1773526539,"current_range_meters":22400,"station_id":"ce4bhah2rcd13ifvqei0","pricing_plan_id":"cebpf4jnsgd1na2vs0mg"},{"bike_id":"dfd0a0f6-5285-4bd7-80a4-14fead877d67","system_id":"levelo_inurba_marseille","lat":43.25067,"lon":5.3951,"is_reserved":false,"is_disabled":false,"rental_uris":{"android":"levelo://app?vid=dfd0a0f6-5285-4bd7-80a4-14fead877d67","ios":"levelo://app?vid=dfd0a0f6-5285-4bd7-80a4-14fead877d67"},"vehicle_type_id":"4","last_reported":1773526539,"current_range_meters":31200,"station_id":"ce4bhm12rcd13ifvqgkg","pricing_plan_id":"cebpf4jnsgd1na2vs0mg"},{"bike_id":"18f35d94-7133-4b4b-a629-0bec9d48af36","system_id":"levelo_inurba_marseille","lat":43.28475,"lon":5.48391,"is_reserved":false,"is_disabled":false,"rental_uris":{"android":"levelo://app?vid=18f35d94-7133-4b4b-a629-0bec9d48af36","ios":"levelo://app?vid=18f35d94-7133-4b4b-a629-0bec9d48af36"},"vehicle_type_id":"4","last_reported":1773526539,"current_range_meters":24800,"station_id":"","pricing_plan_id":"cebpf4jnsgd1na2vs0mg"},{"bike_id":"058a40ef-aca0-46a1-b31e-3c5dc3514929","system_id":"levelo_inurba_marseille","lat":43.28415,"lon":5.34969,"is_reserved":false,"is_disabled":false,"rental_uris":{"android":"levelo://app?vid=058a40ef-aca0-46a1-b31e-3c5dc3514929","ios":"levelo://app?vid=058a40ef-aca0-46a1-b31e-3c5dc3514929"},"vehicle_type_id":"4","last_reported":1773526539,"current_range_meters":32400,"station_id":"ce4bhbh2rcd13ifvqepg","pricing_plan_id":"cebpf4jnsgd1na2vs0mg"},{"bike_id":"7db92065-fd6e-4014-982f-daf9b3e1e88d","system_id":"levelo_inurba_marseille","lat":43.25836,"lon":5.39425,"is_reserved":false,"is_disabled":false,"rental_uris":{"android":"levelo://app?vid=7db92065-fd6e-4014-982f-daf9b3e1e88d","ios":"levelo://app?vid=7db92065-fd6e-4014-982f-daf9b3e1e88d"},"vehicle_type_id":"4","last_reported":1773526539,"current_range_meters":12400,"station_id":"ce4bhip2rcd13ifvqft0","pricing_plan_id":"cebpf4jnsgd1na2vs0mg"},{"bike_id":"51b2397d-a326-4ab5-aec4-76d244d8df54","system_id":"levelo_inurba_marseille","lat":43.29693,"lon":5.37697,"is_reserved":false,"is_disabled":false,"rental_uris":{"android":"levelo://app?vid=51b2397d-a326-4ab5-aec4-76d244d8df54","ios":"levelo://app?vid=51b2397d-a326-4ab5-aec4-76d244d8df54"},"vehicle_type_id":"4","last_reported":1773526539,"current_range_meters":23200,"station_id":"ce4bgkh2rcd13ifvqbl0","pricing_plan_id":"cebpf4jnsgd1na2vs0mg"},{"bike_id":"d69bc87a-4abe-4573-8c1d-eecdfac78f9e","system_id":"levelo_inurba_marseille","lat":43.31769,"lon":5.39005,"is_reserved":false,"is_disabled":false,"rental_uris":{"android":"levelo://app?vid=d69bc87a-4abe-4573-8c1d-eecdfac78f9e","ios":"levelo://app?vid=d69bc87a-4abe-4573-8c1d-eecdfac78f9e"},"vehicle_type_id":"4","last_reported":1773526539,"current_range_meters":39200,"station_id":"ce4bhqp2rcd13ifvqhng","pricing_plan_id":"cebpf4jnsgd1na2vs0mg"},{"bike_id":"33b16ff4-aa90-4e96-a65b-80fdeacb58de","system_id":"levelo_inurba_marseille","lat":43.30541,"lon":5.36537,"is_reserved":false,"is_disabled":false,"rental_uris":{"android":"levelo://app?vid=33b16ff4-aa90-4e96-a65b-80fdeacb58de","ios":"levelo://app?vid=33b16ff4-aa90-4e96-a65b-80fdeacb58de"},"vehicle_type_id":"4","last_reported":1773526539,"current_range_meters":27200,"station_id":"ce4bgs12rcd13ifvqcag","pricing_plan_id":"cebpf4jnsgd1na2vs0mg"},{"bike_id":"7e39e553-3607-48e1-a42e-54edc8cb5eef","system_id":"levelo_inurba_marseille","lat":43.29536,"lon":5.38549,"is_reserved":false,"is_disabled":false,"rental_uris":{"android":"levelo://app?vid=7e39e553-3607-48e1-a42e-54edc8cb5eef","ios":"levelo://app?vid=7e39e553-3607-48e1-a42e-54edc8cb5eef"},"vehicle_type_id":"4","last_reported":1773526539,"current_range_meters":32800,"station_id":"ce4bgih2rcd13ifvqba0","pricing_plan_id":"cebpf4jnsgd1na2vs0mg"},{"bike_id":"1c0c4c0c-f299-41e4-90d6-b6eff31b2338","system_id":"levelo_inurba_marseille","lat":43.2706,"lon":5.38307,"is_reserved":false,"is_disabled":false,"rental_uris":{"android":"levelo://app?vid=1c0c4c0c-f299-41e4-90d6-b6eff31b2338","ios":"levelo://app?vid=1c0c4c0c-f299-41e4-90d6-b6eff31b2338"},"vehicle_type_id":"4","last_reported":1773526539,"current_range_meters":36800,"station_id":"st_d3n2fo6cfp8s73cte1j0","pricing_plan_id":"cebpf4jnsgd1na2vs0mg"},{"bike_id":"85cd8cb8-1572-4483-8d2e-ca06fd40ed7c","system_id":"levelo_inurba_marseille","lat":43.32285,"lon":5.38288,"is_reserved":false,"is_disabled":false,"rental_uris":{"android":"levelo://app?vid=85cd8cb8-1572-4483-8d2e-ca06fd40ed7c","ios":"levelo://app?vid=85cd8cb8-1572-4483-8d2e-ca06fd40ed7c"},"vehicle_type_id":"4","last_reported":1773526539,"current_range_meters":40000,"station_id":"ce4bhr12rcd13ifvqhqg","pricing_plan_id":"cebpf4jnsgd1na2vs0mg"},{"bike_id":"674e8b35-bca7-4ed8-ba45-7c86f71eaca5","system_id":"levelo_inurba_marseille","lat":43.26204,"lon":5.37438,"is_reserved":false,"is_disabled":false,"rental_uris":{"android":"levelo://app?vid=674e8b35-bca7-4ed8-ba45-7c86f71eaca5","ios":"levelo://app?vid=674e8b35-bca7-4ed8-ba45-7c86f71eaca5"},"vehicle_type_id":"4","last_reported":1773526539,"current_range_meters":21600,"station_id":"ce4bhgp2rcd13ifvqfc0","pricing_plan_id":"cebpf4jnsgd1na2vs0mg"},{"bike_id":"6f61d387-d66c-4612-94f7-67c0f0b415c5","system_id":"levelo_inurba_marseille","lat":43.30152,"lon":5.37444,"is_reserved":false,"is_disabled":false,"rental_uris":{"android":"levelo://app?vid=6f61d387-d66c-4612-94f7-67c0f0b415c5","ios":"levelo://app?vid=6f61d387-d66c-4612-94f7-67c0f0b415c5"},"vehicle_type_id":"4","last_reported":1773526539,"current_range_meters":28800,"station_id":"ce4bgs92rcd13ifvqcc0","pricing_plan_id":"cebpf4jnsgd1na2vs0mg"},{"bike_id":"15643cb0-ca44-4e67-8c97-15418479ee03","system_id":"levelo_inurba_marseille","lat":43.28667,"lon":5.36365,"is_reserved":false,"is_disabled":false,"rental_uris":{"android":"levelo://app?vid=15643cb0-ca44-4e67-8c97-15418479ee03","ios":"levelo://app?vid=15643cb0-ca44-4e67-8c97-15418479ee03"},"vehicle_type_id":"4","last_reported":1773526539,"current_range_meters":16800,"station_id":"ce4bhah2rcd13ifvqej0","pricing_plan_id":"cebpf4jnsgd1na2vs0mg"},{"bike_id":"76018294-dcc7-4c7d-ad2d-1448d43240dc","system_id":"levelo_inurba_marseille","lat":43.25119,"lon":5.4033,"is_reserved":false,"is_disabled":false,"rental_uris":{"android":"levelo://app?vid=76018294-dcc7-4c7d-ad2d-1448d43240dc","ios":"levelo://app?vid=76018294-dcc7-4c7d-ad2d-1448d43240dc"},"vehicle_type_id":"4","last_reported":1773526539,"current_range_meters":28000,"station_id":"ce4bhlh2rcd13ifvqgig","pricing_plan_id":"cebpf4jnsgd1na2vs0mg"},{"bike_id":"79937fde-ffca-4af9-ac2d-b4ce63bf3da4","system_id":"levelo_inurba_marseille","lat":43.30216,"lon":5.39467,"is_reserved":false,"is_disabled":false,"rental_uris":{"android":"levelo://app?vid=79937fde-ffca-4af9-ac2d-b4ce63bf3da4","ios":"levelo://app?vid=79937fde-ffca-4af9-ac2d-b4ce63bf3da4"},"vehicle_type_id":"4","last_reported":1773526539,"current_range_meters":34000,"station_id":"ce4bh0p2rcd13ifvqd70","pricing_plan_id":"cebpf4jnsgd1na2vs0mg"},{"bike_id":"480a954f-db3c-4cd5-acb5-179ba9006c67","system_id":"levelo_inurba_marseille","lat":43.28509,"lon":5.44098,"is_reserved":false,"is_disabled":false,"rental_uris":{"android":"levelo://app?vid=480a954f-db3c-4cd5-acb5-179ba9006c67","ios":"levelo://app?vid=480a954f-db3c-4cd5-acb5-179ba9006c67"},"vehicle_type_id":"4","last_reported":1773526539,"current_range_meters":28000,"station_id":"st_d3j3df2ikq2c7380ej80","pricing_plan_id":"cebpf4jnsgd1na2vs0mg"},{"bike_id":"08cf5451-5275-4e57-beb8-e4a5ced13a97","system_id":"levelo_inurba_marseille","lat":43.292,"lon":5.3714,"is_reserved":false,"is_disabled":false,"rental_uris":{"android":"levelo://app?vid=08cf5451-5275-4e57-beb8-e4a5ced13a97","ios":"levelo://app?vid=08cf5451-5275-4e57-beb8-e4a5ced13a97"},"vehicle_type_id":"4","last_reported":1773526539,"current_range_meters":32400,"station_id":"ce4bha92rcd13ifvqeh0","pricing_plan_id":"cebpf4jnsgd1na2vs0mg"},{"bike_id":"d14833c7-ccab-4542-a772-6ea57b55366c","system_id":"levelo_inurba_marseille","lat":43.2929,"lon":5.36841,"is_reserved":false,"is_disabled":false,"rental_uris":{"android":"levelo://app?vid=d14833c7-ccab-4542-a772-6ea57b55366c","ios":"levelo://app?vid=d14833c7-ccab-4542-a772-6ea57b55366c"},"vehicle_type_id":"4","last_reported":1773526539,"current_range_meters":27600,"station_id":"ce4bhbp2rcd13ifvqesg","pricing_plan_id":"cebpf4jnsgd1na2vs0mg"},{"bike_id":"eff4edad-77ba-4b6f-91a3-f45dd5b1be51","system_id":"levelo_inurba_marseille","lat":43.28736,"lon":5.37949,"is_reserved":false,"is_disabled":false,"rental_uris":{"android":"levelo://app?vid=eff4edad-77ba-4b6f-91a3-f45dd5b1be51","ios":"levelo://app?vid=eff4edad-77ba-4b6f-91a3-f45dd5b1be51"},"vehicle_type_id":"4","last_reported":1773526539,"current_range_meters":12000,"station_id":"ce4bh9p2rcd13ifvqec0","pricing_plan_id":"cebpf4jnsgd1na2vs0mg"},{"bike_id":"3c7690d1-a097-4dc1-a920-49c74ad74917","system_id":"levelo_inurba_marseille","lat":43.29057,"lon":5.37141,"is_reserved":false,"is_disabled":true,"rental_uris":{"android":"levelo://app?vid=3c7690d1-a097-4dc1-a920-49c74ad74917","ios":"levelo://app?vid=3c7690d1-a097-4dc1-a920-49c74ad74917"},"vehicle_type_id":"4","last_reported":1773526539,"current_range_meters":28400,"station_id":"ce4bh5p2rcd13ifvqe4g","pricing_plan_id":"cebpf4jnsgd1na2vs0mg"},{"bike_id":"995d5b2a-333b-4d28-8a4a-a4460280e73c","system_id":"levelo_inurba_marseille","lat":43.26635,"lon":5.38294,"is_reserved":false,"is_disabled":false,"rental_uris":{"android":"levelo://app?vid=995d5b2a-333b-4d28-8a4a-a4460280e73c","ios":"levelo://app?vid=995d5b2a-333b-4d28-8a4a-a4460280e73c"},"vehicle_type_id":"4","last_reported":1773526539,"current_range_meters":28400,"station_id":"ce4bhg92rcd13ifvqf90","pricing_plan_id":"cebpf4jnsgd1na2vs0mg"},{"bike_id":"40a088cc-02c1-4a42-9484-7e7b65f90e0b","system_id":"levelo_inurba_marseille","lat":43.29318,"lon":5.37189,"is_reserved":false,"is_disabled":false,"rental_uris":{"android":"levelo://app?vid=40a088cc-02c1-4a42-9484-7e7b65f90e0b","ios":"levelo://app?vid=40a088cc-02c1-4a42-9484-7e7b65f90e0b"},"vehicle_type_id":"4","last_reported":1773526539,"current_range_meters":37600,"station_id":"ce4bgh92rcd13ifvqb40","pricing_plan_id":"cebpf4jnsgd1na2vs0mg"},{"bike_id":"7e7249ab-ffda-4a8b-b45a-917693570120","system_id":"levelo_inurba_marseille","lat":43.28909,"lon":5.36381,"is_reserved":false,"is_disabled":false,"rental_uris":{"android":"levelo://app?vid=7e7249ab-ffda-4a8b-b45a-917693570120","ios":"levelo://app?vid=7e7249ab-ffda-4a8b-b45a-917693570120"},"vehicle_type_id":"4","last_reported":1773526539,"current_range_meters":30400,"station_id":"ce4bhc92rcd13ifvqetg","pricing_plan_id":"cebpf4jnsgd1na2vs0mg"},{"bike_id":"cd6cf276-728e-4fa5-82c1-fa0738182d55","system_id":"levelo_inurba_marseille","lat":43.25831,"lon":5.39438,"is_reserved":false,"is_disabled":false,"rental_uris":{"android":"levelo://app?vid=cd6cf276-728e-4fa5-82c1-fa0738182d55","ios":"levelo://app?vid=cd6cf276-728e-4fa5-82c1-fa0738182d55"},"vehicle_type_id":"4","last_reported":1773526539,"current_range_meters":38800,"station_id":"ce4bhip2rcd13ifvqft0","pricing_plan_id":"cebpf4jnsgd1na2vs0mg"},{"bike_id":"ced05e86-2551-48cf-8692-7f3559e5deac","system_id":"levelo_inurba_marseille","lat":43.29487,"lon":5.43302,"is_reserved":false,"is_disabled":false,"rental_uris":{"android":"levelo://app?vid=ced05e86-2551-48cf-8692-7f3559e5deac","ios":"levelo://app?vid=ced05e86-2551-48cf-8692-7f3559e5deac"},"vehicle_type_id":"4","last_reported":1773526539,"current_range_meters":8000,"station_id":"st_d3j5ugp08ojc73fj9d10","pricing_plan_id":"cebpf4jnsgd1na2vs0mg"},{"bike_id":"fe4cfc98-25db-43ab-97e5-0cb7963cfdcb","system_id":"levelo_inurba_marseille","lat":43.2996,"lon":5.38524,"is_reserved":false,"is_disabled":false,"rental_uris":{"android":"levelo://app?vid=fe4cfc98-25db-43ab-97e5-0cb7963cfdcb","ios":"levelo://app?vid=fe4cfc98-25db-43ab-97e5-0cb7963cfdcb"},"vehicle_type_id":"4","last_reported":1773526539,"current_range_meters":27600,"station_id":"ce4bgj92rcd13ifvqbd0","pricing_plan_id":"cebpf4jnsgd1na2vs0mg"},{"bike_id":"e5725ce8-50a2-40ca-b011-9888ac1cf133","system_id":"levelo_inurba_marseille","lat":43.27373,"lon":5.36252,"is_reserved":false,"is_disabled":false,"rental_uris":{"android":"levelo://app?vid=e5725ce8-50a2-40ca-b011-9888ac1cf133","ios":"levelo://app?vid=e5725ce8-50a2-40ca-b011-9888ac1cf133"},"vehicle_type_id":"4","last_reported":1773526539,"current_range_meters":37600,"station_id":"ce4bhbh2rcd13ifvqeo0","pricing_plan_id":"cebpf4jnsgd1na2vs0mg"},{"bike_id":"e707ecb2-776e-4003-9b33-e407bbd4641f","system_id":"levelo_inurba_marseille","lat":43.29571,"lon":5.42265,"is_reserved":false,"is_disabled":false,"rental_uris":{"android":"levelo://app?vid=e707ecb2-776e-4003-9b33-e407bbd4641f","ios":"levelo://app?vid=e707ecb2-776e-4003-9b33-e407bbd4641f"},"vehicle_type_id":"4","last_reported":1773526539,"current_range_meters":37600,"station_id":"ce4bhph2rcd13ifvqhdg","pricing_plan_id":"cebpf4jnsgd1na2vs0mg"},{"bike_id":"41ae287c-9cc1-430a-84ca-70506bc523b6","system_id":"levelo_inurba_marseille","lat":43.22563,"lon":5.41627,"is_reserved":false,"is_disabled":false,"rental_uris":{"android":"levelo://app?vid=41ae287c-9cc1-430a-84ca-70506bc523b6","ios":"levelo://app?vid=41ae287c-9cc1-430a-84ca-70506bc523b6"},"vehicle_type_id":"4","last_reported":1773526539,"current_range_meters":36800,"station_id":"st_d2o4gvlbi1j2169b742g","pricing_plan_id":"cebpf4jnsgd1na2vs0mg"},{"bike_id":"fe8dfa27-62f0-46d6-ba43-c3127399aaa0","system_id":"levelo_inurba_marseille","lat":43.29634,"lon":5.42154,"is_reserved":false,"is_disabled":false,"rental_uris":{"android":"levelo://app?vid=fe8dfa27-62f0-46d6-ba43-c3127399aaa0","ios":"levelo://app?vid=fe8dfa27-62f0-46d6-ba43-c3127399aaa0"},"vehicle_type_id":"4","last_reported":1773526539,"current_range_meters":25200,"station_id":"","pricing_plan_id":"cebpf4jnsgd1na2vs0mg"},{"bike_id":"5c0630ed-bd2b-4642-b36b-ddb6b84186db","system_id":"levelo_inurba_marseille","lat":43.30732,"lon":5.42449,"is_reserved":false,"is_disabled":false,"rental_uris":{"android":"levelo://app?vid=5c0630ed-bd2b-4642-b36b-ddb6b84186db","ios":"levelo://app?vid=5c0630ed-bd2b-4642-b36b-ddb6b84186db"},"vehicle_type_id":"4","last_reported":1773526539,"current_range_meters":24800,"station_id":"st_cvj6ca6bvosntc0bfgr0","pricing_plan_id":"cebpf4jnsgd1na2vs0mg"},{"bike_id":"1343a0b0-03d5-4c6a-9e6c-349d5e5a8959","system_id":"levelo_inurba_marseille","lat":43.25116,"lon":5.40316,"is_reserved":false,"is_disabled":false,"rental_uris":{"android":"levelo://app?vid=1343a0b0-03d5-4c6a-9e6c-349d5e5a8959","ios":"levelo://app?vid=1343a0b0-03d5-4c6a-9e6c-349d5e5a8959"},"vehicle_type_id":"4","last_reported":1773526539,"current_range_meters":29600,"station_id":"ce4bhlh2rcd13ifvqgig","pricing_plan_id":"cebpf4jnsgd1na2vs0mg"},{"bike_id":"38e5107a-fdc2-431b-892a-488d0107acb0","system_id":"levelo_inurba_marseille","lat":43.30598,"lon":5.37229,"is_reserved":false,"is_disabled":false,"rental_uris":{"android":"levelo://app?vid=38e5107a-fdc2-431b-892a-488d0107acb0","ios":"levelo://app?vid=38e5107a-fdc2-431b-892a-488d0107acb0"},"vehicle_type_id":"4","last_reported":1773526539,"current_range_meters":31200,"station_id":"ce4bgqh2rcd13ifvqc4g","pricing_plan_id":"cebpf4jnsgd1na2vs0mg"},{"bike_id":"84ac08c0-5280-4de4-b49c-c46a1a17cae5","system_id":"levelo_inurba_marseille","lat":43.2927,"lon":5.3763,"is_reserved":false,"is_disabled":false,"rental_uris":{"android":"levelo://app?vid=84ac08c0-5280-4de4-b49c-c46a1a17cae5","ios":"levelo://app?vid=84ac08c0-5280-4de4-b49c-c46a1a17cae5"},"vehicle_type_id":"4","last_reported":1773526539,"current_range_meters":38400,"station_id":"ce4bgi12rcd13ifvqb80","pricing_plan_id":"cebpf4jnsgd1na2vs0mg"},{"bike_id":"bba2d762-24c5-424c-8885-ccb819513608","system_id":"levelo_inurba_marseille","lat":43.27649,"lon":5.38928,"is_reserved":false,"is_disabled":true,"rental_uris":{"android":"levelo://app?vid=bba2d762-24c5-424c-8885-ccb819513608","ios":"levelo://app?vid=bba2d762-24c5-424c-8885-ccb819513608"},"vehicle_type_id":"4","last_reported":1773526539,"current_range_meters":14800,"station_id":"ce4bhi12rcd13ifvqfo0","pricing_plan_id":"cebpf4jnsgd1na2vs0mg"},{"bike_id":"1217792c-987d-41a2-8823-875cdd503171","system_id":"levelo_inurba_marseille","lat":43.331,"lon":5.37725,"is_reserved":false,"is_disabled":false,"rental_uris":{"android":"levelo://app?vid=1217792c-987d-41a2-8823-875cdd503171","ios":"levelo://app?vid=1217792c-987d-41a2-8823-875cdd503171"},"vehicle_type_id":"4","last_reported":1773526539,"current_range_meters":24800,"station_id":"st_d46cu089ee8s73dldbu0","pricing_plan_id":"cebpf4jnsgd1na2vs0mg"},{"bike_id":"1fa66c7c-5bbe-4c72-8397-ac5bb2c15dc7","system_id":"levelo_inurba_marseille","lat":43.32324,"lon":5.38846,"is_reserved":false,"is_disabled":false,"rental_uris":{"android":"levelo://app?vid=1fa66c7c-5bbe-4c72-8397-ac5bb2c15dc7","ios":"levelo://app?vid=1fa66c7c-5bbe-4c72-8397-ac5bb2c15dc7"},"vehicle_type_id":"4","last_reported":1773526539,"current_range_meters":37600,"station_id":"","pricing_plan_id":"cebpf4jnsgd1na2vs0mg"},{"bike_id":"11bc51b7-473d-4d57-956b-ad0dbb07b780","system_id":"levelo_inurba_marseille","lat":43.31331,"lon":5.39687,"is_reserved":false,"is_disabled":false,"rental_uris":{"android":"levelo://app?vid=11bc51b7-473d-4d57-956b-ad0dbb07b780","ios":"levelo://app?vid=11bc51b7-473d-4d57-956b-ad0dbb07b780"},"vehicle_type_id":"4","last_reported":1773526539,"current_range_meters":38800,"station_id":"ce4bgvp2rcd13ifvqcu0","pricing_plan_id":"cebpf4jnsgd1na2vs0mg"},{"bike_id":"81691ec4-221f-4eb2-b78f-56d07851f16c","system_id":"levelo_inurba_marseille","lat":43.26785,"lon":5.39408,"is_reserved":false,"is_disabled":false,"rental_uris":{"android":"levelo://app?vid=81691ec4-221f-4eb2-b78f-56d07851f16c","ios":"levelo://app?vid=81691ec4-221f-4eb2-b78f-56d07851f16c"},"vehicle_type_id":"4","last_reported":1773526539,"current_range_meters":4400,"station_id":"ce4bhh12rcd13ifvqfg0","pricing_plan_id":"cebpf4jnsgd1na2vs0mg"},{"bike_id":"aed4118b-a0e3-4071-9098-af6c6a632706","system_id":"levelo_inurba_marseille","lat":43.30142,"lon":5.43111,"is_reserved":false,"is_disabled":false,"rental_uris":{"android":"levelo://app?vid=aed4118b-a0e3-4071-9098-af6c6a632706","ios":"levelo://app?vid=aed4118b-a0e3-4071-9098-af6c6a632706"},"vehicle_type_id":"4","last_reported":1773526539,"current_range_meters":9600,"station_id":"st_d3js3co5814s73ftftug","pricing_plan_id":"cebpf4jnsgd1na2vs0mg"},{"bike_id":"ee97d76b-d430-4b45-b3b0-dd8a973c7e77","system_id":"levelo_inurba_marseille","lat":43.23959,"lon":5.36673,"is_reserved":false,"is_disabled":false,"rental_uris":{"android":"levelo://app?vid=ee97d76b-d430-4b45-b3b0-dd8a973c7e77","ios":"levelo://app?vid=ee97d76b-d430-4b45-b3b0-dd8a973c7e77"},"vehicle_type_id":"4","last_reported":1773526539,"current_range_meters":38000,"station_id":"ce4bhi12rcd13ifvqfp0","pricing_plan_id":"cebpf4jnsgd1na2vs0mg"},{"bike_id":"92bc8068-37f4-4e54-99b9-1e9bd2b9446d","system_id":"levelo_inurba_marseille","lat":43.27041,"lon":5.40272,"is_reserved":false,"is_disabled":false,"rental_uris":{"android":"levelo://app?vid=92bc8068-37f4-4e54-99b9-1e9bd2b9446d","ios":"levelo://app?vid=92bc8068-37f4-4e54-99b9-1e9bd2b9446d"},"vehicle_type_id":"4","last_reported":1773526539,"current_range_meters":39200,"station_id":"ce4bhk92rcd13ifvqgc0","pricing_plan_id":"cebpf4jnsgd1na2vs0mg"},{"bike_id":"c4bf9557-32fa-47c0-82e6-cc65fc7a98d8","system_id":"levelo_inurba_marseille","lat":43.23968,"lon":5.36626,"is_reserved":false,"is_disabled":false,"rental_uris":{"android":"levelo://app?vid=c4bf9557-32fa-47c0-82e6-cc65fc7a98d8","ios":"levelo://app?vid=c4bf9557-32fa-47c0-82e6-cc65fc7a98d8"},"vehicle_type_id":"4","last_reported":1773526539,"current_range_meters":11200,"station_id":"ce4bhi12rcd13ifvqfp0","pricing_plan_id":"cebpf4jnsgd1na2vs0mg"},{"bike_id":"2fd025c2-5d1f-404e-b401-f593d342fd66","system_id":"levelo_inurba_marseille","lat":43.30741,"lon":5.42445,"is_reserved":false,"is_disabled":false,"rental_uris":{"android":"levelo://app?vid=2fd025c2-5d1f-404e-b401-f593d342fd66","ios":"levelo://app?vid=2fd025c2-5d1f-404e-b401-f593d342fd66"},"vehicle_type_id":"4","last_reported":1773526539,"current_range_meters":36000,"station_id":"st_cvj6ca6bvosntc0bfgr0","pricing_plan_id":"cebpf4jnsgd1na2vs0mg"},{"bike_id":"df4b334d-5d69-4f8b-9fe4-20d6a72403ac","system_id":"levelo_inurba_marseille","lat":43.29278,"lon":5.36826,"is_reserved":false,"is_disabled":false,"rental_uris":{"android":"levelo://app?vid=df4b334d-5d69-4f8b-9fe4-20d6a72403ac","ios":"levelo://app?vid=df4b334d-5d69-4f8b-9fe4-20d6a72403ac"},"vehicle_type_id":"4","last_reported":1773526539,"current_range_meters":28000,"station_id":"ce4bhbp2rcd13ifvqesg","pricing_plan_id":"cebpf4jnsgd1na2vs0mg"},{"bike_id":"8cfe1042-2a37-4fdc-9410-e47e13a4a832","system_id":"levelo_inurba_marseille","lat":43.29036,"lon":5.38634,"is_reserved":false,"is_disabled":false,"rental_uris":{"android":"levelo://app?vid=8cfe1042-2a37-4fdc-9410-e47e13a4a832","ios":"levelo://app?vid=8cfe1042-2a37-4fdc-9410-e47e13a4a832"},"vehicle_type_id":"4","last_reported":1773526539,"current_range_meters":27600,"station_id":"ce4bh4p2rcd13ifvqe0g","pricing_plan_id":"cebpf4jnsgd1na2vs0mg"},{"bike_id":"114e304d-e20d-4f8a-9525-1a164e809dee","system_id":"levelo_inurba_marseille","lat":43.23972,"lon":5.36622,"is_reserved":false,"is_disabled":false,"rental_uris":{"android":"levelo://app?vid=114e304d-e20d-4f8a-9525-1a164e809dee","ios":"levelo://app?vid=114e304d-e20d-4f8a-9525-1a164e809dee"},"vehicle_type_id":"4","last_reported":1773526539,"current_range_meters":26000,"station_id":"ce4bhi12rcd13ifvqfp0","pricing_plan_id":"cebpf4jnsgd1na2vs0mg"},{"bike_id":"ed805e5c-c91a-41a9-a21f-ce0355ac464f","system_id":"levelo_inurba_marseille","lat":43.28463,"lon":5.35904,"is_reserved":false,"is_disabled":false,"rental_uris":{"android":"levelo://app?vid=ed805e5c-c91a-41a9-a21f-ce0355ac464f","ios":"levelo://app?vid=ed805e5c-c91a-41a9-a21f-ce0355ac464f"},"vehicle_type_id":"4","last_reported":1773526539,"current_range_meters":16000,"station_id":"ce4bhah2rcd13ifvqei0","pricing_plan_id":"cebpf4jnsgd1na2vs0mg"},{"bike_id":"1a90a8d3-c56d-44f0-9e3d-eb117a0cebc5","system_id":"levelo_inurba_marseille","lat":43.24175,"lon":5.39724,"is_reserved":false,"is_disabled":false,"rental_uris":{"android":"levelo://app?vid=1a90a8d3-c56d-44f0-9e3d-eb117a0cebc5","ios":"levelo://app?vid=1a90a8d3-c56d-44f0-9e3d-eb117a0cebc5"},"vehicle_type_id":"4","last_reported":1773526539,"current_range_meters":34800,"station_id":"ce4bhn12rcd13ifvqgpg","pricing_plan_id":"cebpf4jnsgd1na2vs0mg"},{"bike_id":"6615bfba-efe4-43d1-87d9-e6aaeb41d07a","system_id":"levelo_inurba_marseille","lat":43.29266,"lon":5.37622,"is_reserved":false,"is_disabled":false,"rental_uris":{"android":"levelo://app?vid=6615bfba-efe4-43d1-87d9-e6aaeb41d07a","ios":"levelo://app?vid=6615bfba-efe4-43d1-87d9-e6aaeb41d07a"},"vehicle_type_id":"4","last_reported":1773526539,"current_range_meters":7200,"station_id":"ce4bgi12rcd13ifvqb80","pricing_plan_id":"cebpf4jnsgd1na2vs0mg"},{"bike_id":"28b2ade9-e86f-4fe5-9954-27997d1c0539","system_id":"levelo_inurba_marseille","lat":43.29076,"lon":5.38098,"is_reserved":false,"is_disabled":false,"rental_uris":{"android":"levelo://app?vid=28b2ade9-e86f-4fe5-9954-27997d1c0539","ios":"levelo://app?vid=28b2ade9-e86f-4fe5-9954-27997d1c0539"},"vehicle_type_id":"4","last_reported":1773526539,"current_range_meters":20400,"station_id":"ce4bh512rcd13ifvqe2g","pricing_plan_id":"cebpf4jnsgd1na2vs0mg"},{"bike_id":"84f4a2bf-2617-4f6d-b5b2-52999d43fb4f","system_id":"levelo_inurba_marseille","lat":43.27373,"lon":5.36262,"is_reserved":false,"is_disabled":false,"rental_uris":{"android":"levelo://app?vid=84f4a2bf-2617-4f6d-b5b2-52999d43fb4f","ios":"levelo://app?vid=84f4a2bf-2617-4f6d-b5b2-52999d43fb4f"},"vehicle_type_id":"4","last_reported":1773526539,"current_range_meters":38000,"station_id":"ce4bhbh2rcd13ifvqeo0","pricing_plan_id":"cebpf4jnsgd1na2vs0mg"},{"bike_id":"ee3d3379-9c17-4aea-a4b8-9da9f97ba057","system_id":"levelo_inurba_marseille","lat":43.30291,"lon":5.37692,"is_reserved":false,"is_disabled":false,"rental_uris":{"android":"levelo://app?vid=ee3d3379-9c17-4aea-a4b8-9da9f97ba057","ios":"levelo://app?vid=ee3d3379-9c17-4aea-a4b8-9da9f97ba057"},"vehicle_type_id":"4","last_reported":1773526539,"current_range_meters":39200,"station_id":"ce4bguh2rcd13ifvqcj0","pricing_plan_id":"cebpf4jnsgd1na2vs0mg"},{"bike_id":"012bb7fa-e4d0-4138-9c92-350c5c6b2640","system_id":"levelo_inurba_marseille","lat":43.2854,"lon":5.44109,"is_reserved":false,"is_disabled":false,"rental_uris":{"android":"levelo://app?vid=012bb7fa-e4d0-4138-9c92-350c5c6b2640","ios":"levelo://app?vid=012bb7fa-e4d0-4138-9c92-350c5c6b2640"},"vehicle_type_id":"4","last_reported":1773526539,"current_range_meters":25200,"station_id":"st_d3j3df2ikq2c7380ej80","pricing_plan_id":"cebpf4jnsgd1na2vs0mg"},{"bike_id":"6dd11f90-75a6-42df-90a9-1b40581f19b6","system_id":"levelo_inurba_marseille","lat":43.26781,"lon":5.39422,"is_reserved":false,"is_disabled":false,"rental_uris":{"android":"levelo://app?vid=6dd11f90-75a6-42df-90a9-1b40581f19b6","ios":"levelo://app?vid=6dd11f90-75a6-42df-90a9-1b40581f19b6"},"vehicle_type_id":"4","last_reported":1773526539,"current_range_meters":32400,"station_id":"ce4bhh12rcd13ifvqfg0","pricing_plan_id":"cebpf4jnsgd1na2vs0mg"},{"bike_id":"959cb468-adf5-492c-a8a7-a3170c99be64","system_id":"levelo_inurba_marseille","lat":43.27059,"lon":5.38307,"is_reserved":false,"is_disabled":false,"rental_uris":{"android":"levelo://app?vid=959cb468-adf5-492c-a8a7-a3170c99be64","ios":"levelo://app?vid=959cb468-adf5-492c-a8a7-a3170c99be64"},"vehicle_type_id":"4","last_reported":1773526539,"current_range_meters":38400,"station_id":"st_d3n2fo6cfp8s73cte1j0","pricing_plan_id":"cebpf4jnsgd1na2vs0mg"},{"bike_id":"f85c3f5d-9554-4f88-b90d-6f927ce5414f","system_id":"levelo_inurba_marseille","lat":43.2921,"lon":5.38362,"is_reserved":false,"is_disabled":false,"rental_uris":{"android":"levelo://app?vid=f85c3f5d-9554-4f88-b90d-6f927ce5414f","ios":"levelo://app?vid=f85c3f5d-9554-4f88-b90d-6f927ce5414f"},"vehicle_type_id":"4","last_reported":1773526539,"current_range_meters":39200,"station_id":"ce4bh692rcd13ifvqea0","pricing_plan_id":"cebpf4jnsgd1na2vs0mg"},{"bike_id":"c85d1c2b-98e6-417e-a9bd-93740160a2c2","system_id":"levelo_inurba_marseille","lat":43.25113,"lon":5.40318,"is_reserved":false,"is_disabled":false,"rental_uris":{"android":"levelo://app?vid=c85d1c2b-98e6-417e-a9bd-93740160a2c2","ios":"levelo://app?vid=c85d1c2b-98e6-417e-a9bd-93740160a2c2"},"vehicle_type_id":"4","last_reported":1773526539,"current_range_meters":8000,"station_id":"ce4bhlh2rcd13ifvqgig","pricing_plan_id":"cebpf4jnsgd1na2vs0mg"},{"bike_id":"cb7d2b92-dad7-4f1e-9d76-144bae66f1eb","system_id":"levelo_inurba_marseille","lat":43.21185,"lon":5.35056,"is_reserved":false,"is_disabled":true,"rental_uris":{"android":"levelo://app?vid=cb7d2b92-dad7-4f1e-9d76-144bae66f1eb","ios":"levelo://app?vid=cb7d2b92-dad7-4f1e-9d76-144bae66f1eb"},"vehicle_type_id":"4","last_reported":1773526539,"current_range_meters":0,"station_id":"st_cvj6sg6p6f1abm77japg","pricing_plan_id":"cebpf4jnsgd1na2vs0mg"},{"bike_id":"c10e4a83-8f76-4a0f-bc12-67a148c1c8b3","system_id":"levelo_inurba_marseille","lat":43.26939,"lon":5.38919,"is_reserved":false,"is_disabled":false,"rental_uris":{"android":"levelo://app?vid=c10e4a83-8f76-4a0f-bc12-67a148c1c8b3","ios":"levelo://app?vid=c10e4a83-8f76-4a0f-bc12-67a148c1c8b3"},"vehicle_type_id":"4","last_reported":1773526539,"current_range_meters":40000,"station_id":"ce4bhhh2rcd13ifvqfl0","pricing_plan_id":"cebpf4jnsgd1na2vs0mg"},{"bike_id":"968e0752-94e3-4427-8693-dccfb2dc93c6","system_id":"levelo_inurba_marseille","lat":43.32338,"lon":5.38883,"is_reserved":false,"is_disabled":false,"rental_uris":{"android":"levelo://app?vid=968e0752-94e3-4427-8693-dccfb2dc93c6","ios":"levelo://app?vid=968e0752-94e3-4427-8693-dccfb2dc93c6"},"vehicle_type_id":"4","last_reported":1773526539,"current_range_meters":38000,"station_id":"ce4bhqp2rcd13ifvqhog","pricing_plan_id":"cebpf4jnsgd1na2vs0mg"},{"bike_id":"595b8b2c-0551-40e0-9487-e8236931936b","system_id":"levelo_inurba_marseille","lat":43.2793,"lon":5.41055,"is_reserved":false,"is_disabled":false,"rental_uris":{"android":"levelo://app?vid=595b8b2c-0551-40e0-9487-e8236931936b","ios":"levelo://app?vid=595b8b2c-0551-40e0-9487-e8236931936b"},"vehicle_type_id":"4","last_reported":1773526539,"current_range_meters":22800,"station_id":"ce4bhnp2rcd13ifvqh0g","pricing_plan_id":"cebpf4jnsgd1na2vs0mg"},{"bike_id":"98ff575e-e932-485c-a678-0a491cff6beb","system_id":"levelo_inurba_marseille","lat":43.26369,"lon":5.41046,"is_reserved":false,"is_disabled":false,"rental_uris":{"android":"levelo://app?vid=98ff575e-e932-485c-a678-0a491cff6beb","ios":"levelo://app?vid=98ff575e-e932-485c-a678-0a491cff6beb"},"vehicle_type_id":"4","last_reported":1773526539,"current_range_meters":31200,"station_id":"st_d4e5ca6na9uc73bfl5fg","pricing_plan_id":"cebpf4jnsgd1na2vs0mg"},{"bike_id":"80794dd3-62d7-4378-bec6-5896e6483311","system_id":"levelo_inurba_marseille","lat":43.29016,"lon":5.40018,"is_reserved":false,"is_disabled":false,"rental_uris":{"android":"levelo://app?vid=80794dd3-62d7-4378-bec6-5896e6483311","ios":"levelo://app?vid=80794dd3-62d7-4378-bec6-5896e6483311"},"vehicle_type_id":"4","last_reported":1773526539,"current_range_meters":34800,"station_id":"","pricing_plan_id":"cebpf4jnsgd1na2vs0mg"},{"bike_id":"f0f8badc-d10f-41f0-affd-30efd105d6c8","system_id":"levelo_inurba_marseille","lat":43.29201,"lon":5.39299,"is_reserved":false,"is_disabled":true,"rental_uris":{"android":"levelo://app?vid=f0f8badc-d10f-41f0-affd-30efd105d6c8","ios":"levelo://app?vid=f0f8badc-d10f-41f0-affd-30efd105d6c8"},"vehicle_type_id":"4","last_reported":1773526539,"current_range_meters":18800,"station_id":"ce4bh192rcd13ifvqdd0","pricing_plan_id":"cebpf4jnsgd1na2vs0mg"},{"bike_id":"71501c24-7c0d-4212-996a-19e1a1605792","system_id":"levelo_inurba_marseille","lat":43.29467,"lon":5.43303,"is_reserved":false,"is_disabled":false,"rental_uris":{"android":"levelo://app?vid=71501c24-7c0d-4212-996a-19e1a1605792","ios":"levelo://app?vid=71501c24-7c0d-4212-996a-19e1a1605792"},"vehicle_type_id":"4","last_reported":1773526539,"current_range_meters":6800,"station_id":"st_d3j5ugp08ojc73fj9d10","pricing_plan_id":"cebpf4jnsgd1na2vs0mg"},{"bike_id":"4eba5897-27c8-4dab-a9ba-ec34688d9fc8","system_id":"levelo_inurba_marseille","lat":43.29568,"lon":5.37535,"is_reserved":false,"is_disabled":false,"rental_uris":{"android":"levelo://app?vid=4eba5897-27c8-4dab-a9ba-ec34688d9fc8","ios":"levelo://app?vid=4eba5897-27c8-4dab-a9ba-ec34688d9fc8"},"vehicle_type_id":"4","last_reported":1773526539,"current_range_meters":20000,"station_id":"ce4bgh92rcd13ifvqb50","pricing_plan_id":"cebpf4jnsgd1na2vs0mg"},{"bike_id":"d26f4ec2-fb37-4d6e-b792-e0215f12edab","system_id":"levelo_inurba_marseille","lat":43.27999,"lon":5.40008,"is_reserved":false,"is_disabled":false,"rental_uris":{"android":"levelo://app?vid=d26f4ec2-fb37-4d6e-b792-e0215f12edab","ios":"levelo://app?vid=d26f4ec2-fb37-4d6e-b792-e0215f12edab"},"vehicle_type_id":"4","last_reported":1773526539,"current_range_meters":27600,"station_id":"ce4bho92rcd13ifvqh4g","pricing_plan_id":"cebpf4jnsgd1na2vs0mg"},{"bike_id":"d5455e83-72e4-4ef4-9233-f07b53171cfa","system_id":"levelo_inurba_marseille","lat":43.24974,"lon":5.40473,"is_reserved":false,"is_disabled":false,"rental_uris":{"android":"levelo://app?vid=d5455e83-72e4-4ef4-9233-f07b53171cfa","ios":"levelo://app?vid=d5455e83-72e4-4ef4-9233-f07b53171cfa"},"vehicle_type_id":"4","last_reported":1773526539,"current_range_meters":39200,"station_id":"st_d2ngiaodas8pm72gd1h0","pricing_plan_id":"cebpf4jnsgd1na2vs0mg"},{"bike_id":"c3a51489-0f5a-48ac-a8a7-6f935317a558","system_id":"levelo_inurba_marseille","lat":43.29707,"lon":5.36597,"is_reserved":false,"is_disabled":false,"rental_uris":{"android":"levelo://app?vid=c3a51489-0f5a-48ac-a8a7-6f935317a558","ios":"levelo://app?vid=c3a51489-0f5a-48ac-a8a7-6f935317a558"},"vehicle_type_id":"4","last_reported":1773526539,"current_range_meters":38400,"station_id":"ce4bgn12rcd13ifvqbt0","pricing_plan_id":"cebpf4jnsgd1na2vs0mg"},{"bike_id":"fab9d42d-0389-4e3c-b710-106effb7d2e6","system_id":"levelo_inurba_marseille","lat":43.27867,"lon":5.40707,"is_reserved":false,"is_disabled":false,"rental_uris":{"android":"levelo://app?vid=fab9d42d-0389-4e3c-b710-106effb7d2e6","ios":"levelo://app?vid=fab9d42d-0389-4e3c-b710-106effb7d2e6"},"vehicle_type_id":"4","last_reported":1773526539,"current_range_meters":32800,"station_id":"ce4bhnh2rcd13ifvqgtg","pricing_plan_id":"cebpf4jnsgd1na2vs0mg"},{"bike_id":"04fc03bf-d06d-478f-a4d6-3a6392ae5838","system_id":"levelo_inurba_marseille","lat":43.29622,"lon":5.36719,"is_reserved":false,"is_disabled":false,"rental_uris":{"android":"levelo://app?vid=04fc03bf-d06d-478f-a4d6-3a6392ae5838","ios":"levelo://app?vid=04fc03bf-d06d-478f-a4d6-3a6392ae5838"},"vehicle_type_id":"4","last_reported":1773526539,"current_range_meters":28400,"station_id":"","pricing_plan_id":"cebpf4jnsgd1na2vs0mg"},{"bike_id":"a29b970f-b285-425f-be46-e5d395220578","system_id":"levelo_inurba_marseille","lat":43.25143,"lon":5.40352,"is_reserved":false,"is_disabled":false,"rental_uris":{"android":"levelo://app?vid=a29b970f-b285-425f-be46-e5d395220578","ios":"levelo://app?vid=a29b970f-b285-425f-be46-e5d395220578"},"vehicle_type_id":"4","last_reported":1773526539,"current_range_meters":27200,"station_id":"","pricing_plan_id":"cebpf4jnsgd1na2vs0mg"},{"bike_id":"c8e6709b-d18f-4ab7-84d0-50300418656b","system_id":"levelo_inurba_marseille","lat":43.2466,"lon":5.38152,"is_reserved":false,"is_disabled":false,"rental_uris":{"android":"levelo://app?vid=c8e6709b-d18f-4ab7-84d0-50300418656b","ios":"levelo://app?vid=c8e6709b-d18f-4ab7-84d0-50300418656b"},"vehicle_type_id":"4","last_reported":1773526539,"current_range_meters":25600,"station_id":"ce4bhih2rcd13ifvqfr0","pricing_plan_id":"cebpf4jnsgd1na2vs0mg"},{"bike_id":"1b76ca95-f18f-46ad-b5e2-115c03b09dc0","system_id":"levelo_inurba_marseille","lat":43.29704,"lon":5.42803,"is_reserved":false,"is_disabled":false,"rental_uris":{"android":"levelo://app?vid=1b76ca95-f18f-46ad-b5e2-115c03b09dc0","ios":"levelo://app?vid=1b76ca95-f18f-46ad-b5e2-115c03b09dc0"},"vehicle_type_id":"4","last_reported":1773526539,"current_range_meters":19600,"station_id":"","pricing_plan_id":"cebpf4jnsgd1na2vs0mg"},{"bike_id":"aa1ea814-effc-4a82-a7ce-fc6b0be25510","system_id":"levelo_inurba_marseille","lat":43.31833,"lon":5.36983,"is_reserved":false,"is_disabled":false,"rental_uris":{"android":"levelo://app?vid=aa1ea814-effc-4a82-a7ce-fc6b0be25510","ios":"levelo://app?vid=aa1ea814-effc-4a82-a7ce-fc6b0be25510"},"vehicle_type_id":"4","last_reported":1773526539,"current_range_meters":38400,"station_id":"","pricing_plan_id":"cebpf4jnsgd1na2vs0mg"},{"bike_id":"6a1bd316-8464-4ae0-90cc-0206b779ba2d","system_id":"levelo_inurba_marseille","lat":43.29967,"lon":5.38515,"is_reserved":false,"is_disabled":false,"rental_uris":{"android":"levelo://app?vid=6a1bd316-8464-4ae0-90cc-0206b779ba2d","ios":"levelo://app?vid=6a1bd316-8464-4ae0-90cc-0206b779ba2d"},"vehicle_type_id":"4","last_reported":1773526539,"current_range_meters":16800,"station_id":"ce4bgj92rcd13ifvqbd0","pricing_plan_id":"cebpf4jnsgd1na2vs0mg"},{"bike_id":"efbecb76-a07f-4231-83ad-2be5c55addc1","system_id":"levelo_inurba_marseille","lat":43.29277,"lon":5.40133,"is_reserved":false,"is_disabled":false,"rental_uris":{"android":"levelo://app?vid=efbecb76-a07f-4231-83ad-2be5c55addc1","ios":"levelo://app?vid=efbecb76-a07f-4231-83ad-2be5c55addc1"},"vehicle_type_id":"4","last_reported":1773526539,"current_range_meters":22400,"station_id":"ce4bh312rcd13ifvqdk0","pricing_plan_id":"cebpf4jnsgd1na2vs0mg"},{"bike_id":"fb572cf7-cf1a-4dfc-ac30-6f925bcd24fa","system_id":"levelo_inurba_marseille","lat":43.30579,"lon":5.3724,"is_reserved":false,"is_disabled":false,"rental_uris":{"android":"levelo://app?vid=fb572cf7-cf1a-4dfc-ac30-6f925bcd24fa","ios":"levelo://app?vid=fb572cf7-cf1a-4dfc-ac30-6f925bcd24fa"},"vehicle_type_id":"4","last_reported":1773526539,"current_range_meters":32000,"station_id":"ce4bgqh2rcd13ifvqc4g","pricing_plan_id":"cebpf4jnsgd1na2vs0mg"},{"bike_id":"adb3e066-3d52-48f2-aa5f-de1d01f85bb9","system_id":"levelo_inurba_marseille","lat":43.30227,"lon":5.37309,"is_reserved":false,"is_disabled":false,"rental_uris":{"android":"levelo://app?vid=adb3e066-3d52-48f2-aa5f-de1d01f85bb9","ios":"levelo://app?vid=adb3e066-3d52-48f2-aa5f-de1d01f85bb9"},"vehicle_type_id":"4","last_reported":1773526539,"current_range_meters":18800,"station_id":"","pricing_plan_id":"cebpf4jnsgd1na2vs0mg"},{"bike_id":"d88de9ae-f34a-4653-a8b4-3cbd6214b9e6","system_id":"levelo_inurba_marseille","lat":43.27956,"lon":5.41037,"is_reserved":false,"is_disabled":false,"rental_uris":{"android":"levelo://app?vid=d88de9ae-f34a-4653-a8b4-3cbd6214b9e6","ios":"levelo://app?vid=d88de9ae-f34a-4653-a8b4-3cbd6214b9e6"},"vehicle_type_id":"4","last_reported":1773526539,"current_range_meters":38000,"station_id":"ce4bhnp2rcd13ifvqh0g","pricing_plan_id":"cebpf4jnsgd1na2vs0mg"},{"bike_id":"8d1d6e8b-5750-4bc4-847c-d5a2d80e3e6b","system_id":"levelo_inurba_marseille","lat":43.31493,"lon":5.37303,"is_reserved":false,"is_disabled":false,"rental_uris":{"android":"levelo://app?vid=8d1d6e8b-5750-4bc4-847c-d5a2d80e3e6b","ios":"levelo://app?vid=8d1d6e8b-5750-4bc4-847c-d5a2d80e3e6b"},"vehicle_type_id":"4","last_reported":1773526539,"current_range_meters":38800,"station_id":"ce4bgt12rcd13ifvqcd0","pricing_plan_id":"cebpf4jnsgd1na2vs0mg"},{"bike_id":"833ead7f-2cc1-415f-b495-f484e1825ff8","system_id":"levelo_inurba_marseille","lat":43.30745,"lon":5.4245,"is_reserved":false,"is_disabled":false,"rental_uris":{"android":"levelo://app?vid=833ead7f-2cc1-415f-b495-f484e1825ff8","ios":"levelo://app?vid=833ead7f-2cc1-415f-b495-f484e1825ff8"},"vehicle_type_id":"4","last_reported":1773526539,"current_range_meters":33200,"station_id":"st_cvj6ca6bvosntc0bfgr0","pricing_plan_id":"cebpf4jnsgd1na2vs0mg"},{"bike_id":"eb2f308c-8a12-4604-91b5-c6e7beca1962","system_id":"levelo_inurba_marseille","lat":43.25571,"lon":5.38246,"is_reserved":false,"is_disabled":false,"rental_uris":{"android":"levelo://app?vid=eb2f308c-8a12-4604-91b5-c6e7beca1962","ios":"levelo://app?vid=eb2f308c-8a12-4604-91b5-c6e7beca1962"},"vehicle_type_id":"4","last_reported":1773526539,"current_range_meters":24800,"station_id":"ce4bhih2rcd13ifvqfs0","pricing_plan_id":"cebpf4jnsgd1na2vs0mg"},{"bike_id":"ec062fde-2e15-4dbb-92cd-dbc3f4ead404","system_id":"levelo_inurba_marseille","lat":43.29116,"lon":5.43276,"is_reserved":false,"is_disabled":false,"rental_uris":{"android":"levelo://app?vid=ec062fde-2e15-4dbb-92cd-dbc3f4ead404","ios":"levelo://app?vid=ec062fde-2e15-4dbb-92cd-dbc3f4ead404"},"vehicle_type_id":"4","last_reported":1773526539,"current_range_meters":29600,"station_id":"","pricing_plan_id":"cebpf4jnsgd1na2vs0mg"},{"bike_id":"9a99be02-7fc5-4af9-836f-23a5fd9cab8b","system_id":"levelo_inurba_marseille","lat":43.24402,"lon":5.37051,"is_reserved":false,"is_disabled":false,"rental_uris":{"android":"levelo://app?vid=9a99be02-7fc5-4af9-836f-23a5fd9cab8b","ios":"levelo://app?vid=9a99be02-7fc5-4af9-836f-23a5fd9cab8b"},"vehicle_type_id":"4","last_reported":1773526539,"current_range_meters":11200,"station_id":"ce4bhhh2rcd13ifvqfk0","pricing_plan_id":"cebpf4jnsgd1na2vs0mg"},{"bike_id":"85f520fc-113e-4f17-b2a5-245ce16c5540","system_id":"levelo_inurba_marseille","lat":43.25334,"lon":5.42178,"is_reserved":false,"is_disabled":true,"rental_uris":{"android":"levelo://app?vid=85f520fc-113e-4f17-b2a5-245ce16c5540","ios":"levelo://app?vid=85f520fc-113e-4f17-b2a5-245ce16c5540"},"vehicle_type_id":"4","last_reported":1773526539,"current_range_meters":1600,"station_id":"st_d2m65c5bi1j21697t3ng","pricing_plan_id":"cebpf4jnsgd1na2vs0mg"},{"bike_id":"7e2af57d-1b95-4afe-8aab-fe55733493d4","system_id":"levelo_inurba_marseille","lat":43.26926,"lon":5.40258,"is_reserved":false,"is_disabled":false,"rental_uris":{"android":"levelo://app?vid=7e2af57d-1b95-4afe-8aab-fe55733493d4","ios":"levelo://app?vid=7e2af57d-1b95-4afe-8aab-fe55733493d4"},"vehicle_type_id":"4","last_reported":1773526539,"current_range_meters":22000,"station_id":"cjm6bp8fraef2m0cb0m0","pricing_plan_id":"cebpf4jnsgd1na2vs0mg"},{"bike_id":"be4b33f3-f666-4b28-9e53-550c3c6e8b23","system_id":"levelo_inurba_marseille","lat":43.2848,"lon":5.484,"is_reserved":false,"is_disabled":false,"rental_uris":{"android":"levelo://app?vid=be4b33f3-f666-4b28-9e53-550c3c6e8b23","ios":"levelo://app?vid=be4b33f3-f666-4b28-9e53-550c3c6e8b23"},"vehicle_type_id":"4","last_reported":1773526539,"current_range_meters":20000,"station_id":"st_d3svhcjqgbts73a3dn0g","pricing_plan_id":"cebpf4jnsgd1na2vs0mg"},{"bike_id":"6982003b-279f-43e7-a121-11457c6307c1","system_id":"levelo_inurba_marseille","lat":43.2933,"lon":5.37168,"is_reserved":false,"is_disabled":false,"rental_uris":{"android":"levelo://app?vid=6982003b-279f-43e7-a121-11457c6307c1","ios":"levelo://app?vid=6982003b-279f-43e7-a121-11457c6307c1"},"vehicle_type_id":"4","last_reported":1773526539,"current_range_meters":38000,"station_id":"ce4bgh92rcd13ifvqb40","pricing_plan_id":"cebpf4jnsgd1na2vs0mg"},{"bike_id":"5f87912f-c464-4594-910c-a853531f6e17","system_id":"levelo_inurba_marseille","lat":43.26937,"lon":5.3892,"is_reserved":false,"is_disabled":false,"rental_uris":{"android":"levelo://app?vid=5f87912f-c464-4594-910c-a853531f6e17","ios":"levelo://app?vid=5f87912f-c464-4594-910c-a853531f6e17"},"vehicle_type_id":"4","last_reported":1773526539,"current_range_meters":33200,"station_id":"ce4bhhh2rcd13ifvqfl0","pricing_plan_id":"cebpf4jnsgd1na2vs0mg"},{"bike_id":"26ec3725-c826-40e4-8423-caab5390d1ff","system_id":"levelo_inurba_marseille","lat":43.26689,"lon":5.38263,"is_reserved":false,"is_disabled":false,"rental_uris":{"android":"levelo://app?vid=26ec3725-c826-40e4-8423-caab5390d1ff","ios":"levelo://app?vid=26ec3725-c826-40e4-8423-caab5390d1ff"},"vehicle_type_id":"4","last_reported":1773526539,"current_range_meters":24800,"station_id":"ce4bhg92rcd13ifvqf90","pricing_plan_id":"cebpf4jnsgd1na2vs0mg"},{"bike_id":"193cbe9d-b7d2-421e-9f76-9c8c86aebb4a","system_id":"levelo_inurba_marseille","lat":43.33542,"lon":5.37469,"is_reserved":false,"is_disabled":false,"rental_uris":{"android":"levelo://app?vid=193cbe9d-b7d2-421e-9f76-9c8c86aebb4a","ios":"levelo://app?vid=193cbe9d-b7d2-421e-9f76-9c8c86aebb4a"},"vehicle_type_id":"4","last_reported":1773526539,"current_range_meters":11200,"station_id":"st_d46tts09ee8s73dlu43g","pricing_plan_id":"cebpf4jnsgd1na2vs0mg"},{"bike_id":"c3fda1dd-5225-4f7e-a7f9-21ab5cd7437f","system_id":"levelo_inurba_marseille","lat":43.29869,"lon":5.36274,"is_reserved":false,"is_disabled":false,"rental_uris":{"android":"levelo://app?vid=c3fda1dd-5225-4f7e-a7f9-21ab5cd7437f","ios":"levelo://app?vid=c3fda1dd-5225-4f7e-a7f9-21ab5cd7437f"},"vehicle_type_id":"4","last_reported":1773526539,"current_range_meters":36800,"station_id":"ce4bgpp2rcd13ifvqc3g","pricing_plan_id":"cebpf4jnsgd1na2vs0mg"},{"bike_id":"da7e48b1-fcf8-442a-a94e-a92b2fc085cd","system_id":"levelo_inurba_marseille","lat":43.31526,"lon":5.38064,"is_reserved":false,"is_disabled":false,"rental_uris":{"android":"levelo://app?vid=da7e48b1-fcf8-442a-a94e-a92b2fc085cd","ios":"levelo://app?vid=da7e48b1-fcf8-442a-a94e-a92b2fc085cd"},"vehicle_type_id":"4","last_reported":1773526539,"current_range_meters":22400,"station_id":"ce4bhsp2rcd13ifvqi50","pricing_plan_id":"cebpf4jnsgd1na2vs0mg"},{"bike_id":"91de8c26-a4ae-4282-976b-d4b287103bef","system_id":"levelo_inurba_marseille","lat":43.29475,"lon":5.4328,"is_reserved":false,"is_disabled":false,"rental_uris":{"android":"levelo://app?vid=91de8c26-a4ae-4282-976b-d4b287103bef","ios":"levelo://app?vid=91de8c26-a4ae-4282-976b-d4b287103bef"},"vehicle_type_id":"4","last_reported":1773526539,"current_range_meters":12000,"station_id":"st_d3j5ugp08ojc73fj9d10","pricing_plan_id":"cebpf4jnsgd1na2vs0mg"},{"bike_id":"363eb9a8-8391-43a6-8dd0-57a9b8ddd213","system_id":"levelo_inurba_marseille","lat":43.29917,"lon":5.37465,"is_reserved":false,"is_disabled":false,"rental_uris":{"android":"levelo://app?vid=363eb9a8-8391-43a6-8dd0-57a9b8ddd213","ios":"levelo://app?vid=363eb9a8-8391-43a6-8dd0-57a9b8ddd213"},"vehicle_type_id":"4","last_reported":1773526539,"current_range_meters":25600,"station_id":"ce4bgjh2rcd13ifvqbg0","pricing_plan_id":"cebpf4jnsgd1na2vs0mg"},{"bike_id":"f57f089c-5335-43ff-9fb1-a5e6e8c70c5b","system_id":"levelo_inurba_marseille","lat":43.28731,"lon":5.37925,"is_reserved":false,"is_disabled":false,"rental_uris":{"android":"levelo://app?vid=f57f089c-5335-43ff-9fb1-a5e6e8c70c5b","ios":"levelo://app?vid=f57f089c-5335-43ff-9fb1-a5e6e8c70c5b"},"vehicle_type_id":"4","last_reported":1773526539,"current_range_meters":36400,"station_id":"ce4bh9p2rcd13ifvqec0","pricing_plan_id":"cebpf4jnsgd1na2vs0mg"},{"bike_id":"641cab82-5627-4c24-a3b6-dfa17af8941b","system_id":"levelo_inurba_marseille","lat":43.24553,"lon":5.39515,"is_reserved":false,"is_disabled":false,"rental_uris":{"android":"levelo://app?vid=641cab82-5627-4c24-a3b6-dfa17af8941b","ios":"levelo://app?vid=641cab82-5627-4c24-a3b6-dfa17af8941b"},"vehicle_type_id":"4","last_reported":1773526539,"current_range_meters":26000,"station_id":"ce4bhlp2rcd13ifvqgjg","pricing_plan_id":"cebpf4jnsgd1na2vs0mg"},{"bike_id":"a5368bba-7c77-42b9-9d29-771c54ba6d1b","system_id":"levelo_inurba_marseille","lat":43.31364,"lon":5.38503,"is_reserved":false,"is_disabled":false,"rental_uris":{"android":"levelo://app?vid=a5368bba-7c77-42b9-9d29-771c54ba6d1b","ios":"levelo://app?vid=a5368bba-7c77-42b9-9d29-771c54ba6d1b"},"vehicle_type_id":"4","last_reported":1773526539,"current_range_meters":19200,"station_id":"ce4bgt92rcd13ifvqcf0","pricing_plan_id":"cebpf4jnsgd1na2vs0mg"},{"bike_id":"61323a19-6e8d-4fbe-ac05-6f68173b313e","system_id":"levelo_inurba_marseille","lat":43.31066,"lon":5.42426,"is_reserved":false,"is_disabled":false,"rental_uris":{"android":"levelo://app?vid=61323a19-6e8d-4fbe-ac05-6f68173b313e","ios":"levelo://app?vid=61323a19-6e8d-4fbe-ac05-6f68173b313e"},"vehicle_type_id":"4","last_reported":1773526539,"current_range_meters":33600,"station_id":"ce4bhp92rcd13ifvqhag","pricing_plan_id":"cebpf4jnsgd1na2vs0mg"},{"bike_id":"90cd78e0-b487-4118-aeed-b099744fa193","system_id":"levelo_inurba_marseille","lat":43.28439,"lon":5.39206,"is_reserved":false,"is_disabled":false,"rental_uris":{"android":"levelo://app?vid=90cd78e0-b487-4118-aeed-b099744fa193","ios":"levelo://app?vid=90cd78e0-b487-4118-aeed-b099744fa193"},"vehicle_type_id":"4","last_reported":1773526539,"current_range_meters":32400,"station_id":"ce4bhoh2rcd13ifvqh5g","pricing_plan_id":"cebpf4jnsgd1na2vs0mg"},{"bike_id":"208e4bdb-1092-4a3b-8ee4-eff4ac6e394b","system_id":"levelo_inurba_marseille","lat":43.27938,"lon":5.4104,"is_reserved":false,"is_disabled":false,"rental_uris":{"android":"levelo://app?vid=208e4bdb-1092-4a3b-8ee4-eff4ac6e394b","ios":"levelo://app?vid=208e4bdb-1092-4a3b-8ee4-eff4ac6e394b"},"vehicle_type_id":"4","last_reported":1773526539,"current_range_meters":25600,"station_id":"ce4bhnp2rcd13ifvqh0g","pricing_plan_id":"cebpf4jnsgd1na2vs0mg"},{"bike_id":"3d7100c2-5bd5-4a18-a534-e313e8e3db75","system_id":"levelo_inurba_marseille","lat":43.28635,"lon":5.35097,"is_reserved":false,"is_disabled":false,"rental_uris":{"android":"levelo://app?vid=3d7100c2-5bd5-4a18-a534-e313e8e3db75","ios":"levelo://app?vid=3d7100c2-5bd5-4a18-a534-e313e8e3db75"},"vehicle_type_id":"4","last_reported":1773526539,"current_range_meters":28400,"station_id":"ce4bhch2rcd13ifvqeug","pricing_plan_id":"cebpf4jnsgd1na2vs0mg"},{"bike_id":"e339a24b-df7b-4de6-98b9-660e6308a031","system_id":"levelo_inurba_marseille","lat":43.22572,"lon":5.41617,"is_reserved":false,"is_disabled":false,"rental_uris":{"android":"levelo://app?vid=e339a24b-df7b-4de6-98b9-660e6308a031","ios":"levelo://app?vid=e339a24b-df7b-4de6-98b9-660e6308a031"},"vehicle_type_id":"4","last_reported":1773526539,"current_range_meters":36400,"station_id":"st_d2o4gvlbi1j2169b742g","pricing_plan_id":"cebpf4jnsgd1na2vs0mg"},{"bike_id":"acbbef11-1175-4fc2-be23-3149665f36b3","system_id":"levelo_inurba_marseille","lat":43.30552,"lon":5.36534,"is_reserved":false,"is_disabled":true,"rental_uris":{"android":"levelo://app?vid=acbbef11-1175-4fc2-be23-3149665f36b3","ios":"levelo://app?vid=acbbef11-1175-4fc2-be23-3149665f36b3"},"vehicle_type_id":"4","last_reported":1773526539,"current_range_meters":20400,"station_id":"ce4bgs12rcd13ifvqcag","pricing_plan_id":"cebpf4jnsgd1na2vs0mg"},{"bike_id":"f36ebafa-fc5a-48f3-a51a-3d952d1b5301","system_id":"levelo_inurba_marseille","lat":43.31396,"lon":5.38517,"is_reserved":false,"is_disabled":false,"rental_uris":{"android":"levelo://app?vid=f36ebafa-fc5a-48f3-a51a-3d952d1b5301","ios":"levelo://app?vid=f36ebafa-fc5a-48f3-a51a-3d952d1b5301"},"vehicle_type_id":"4","last_reported":1773526539,"current_range_meters":14400,"station_id":"","pricing_plan_id":"cebpf4jnsgd1na2vs0mg"},{"bike_id":"c04af2e4-8d44-4d6e-8024-42b3012f6922","system_id":"levelo_inurba_marseille","lat":43.29818,"lon":5.44069,"is_reserved":false,"is_disabled":false,"rental_uris":{"android":"levelo://app?vid=c04af2e4-8d44-4d6e-8024-42b3012f6922","ios":"levelo://app?vid=c04af2e4-8d44-4d6e-8024-42b3012f6922"},"vehicle_type_id":"4","last_reported":1773526539,"current_range_meters":22800,"station_id":"st_d3jp68qikq2c7381ktn0","pricing_plan_id":"cebpf4jnsgd1na2vs0mg"},{"bike_id":"040ebf91-65e6-4961-b3b8-9b42783730b4","system_id":"levelo_inurba_marseille","lat":43.303,"lon":5.369,"is_reserved":false,"is_disabled":false,"rental_uris":{"android":"levelo://app?vid=040ebf91-65e6-4961-b3b8-9b42783730b4","ios":"levelo://app?vid=040ebf91-65e6-4961-b3b8-9b42783730b4"},"vehicle_type_id":"4","last_reported":1773526539,"current_range_meters":33200,"station_id":"ce4bgqh2rcd13ifvqc5g","pricing_plan_id":"cebpf4jnsgd1na2vs0mg"},{"bike_id":"39511bac-a378-495c-8620-d864725c8485","system_id":"levelo_inurba_marseille","lat":43.25093,"lon":5.39529,"is_reserved":false,"is_disabled":false,"rental_uris":{"android":"levelo://app?vid=39511bac-a378-495c-8620-d864725c8485","ios":"levelo://app?vid=39511bac-a378-495c-8620-d864725c8485"},"vehicle_type_id":"4","last_reported":1773526539,"current_range_meters":38400,"station_id":"ce4bhm12rcd13ifvqgkg","pricing_plan_id":"cebpf4jnsgd1na2vs0mg"},{"bike_id":"04ce2eea-49fb-420b-8304-baaf0e12ca14","system_id":"levelo_inurba_marseille","lat":43.29073,"lon":5.38148,"is_reserved":false,"is_disabled":false,"rental_uris":{"android":"levelo://app?vid=04ce2eea-49fb-420b-8304-baaf0e12ca14","ios":"levelo://app?vid=04ce2eea-49fb-420b-8304-baaf0e12ca14"},"vehicle_type_id":"4","last_reported":1773526539,"current_range_meters":18800,"station_id":"ce4bh512rcd13ifvqe2g","pricing_plan_id":"cebpf4jnsgd1na2vs0mg"},{"bike_id":"3a46d46a-3434-4c09-9481-ae1049d546b0","system_id":"levelo_inurba_marseille","lat":43.31484,"lon":5.37319,"is_reserved":false,"is_disabled":false,"rental_uris":{"android":"levelo://app?vid=3a46d46a-3434-4c09-9481-ae1049d546b0","ios":"levelo://app?vid=3a46d46a-3434-4c09-9481-ae1049d546b0"},"vehicle_type_id":"4","last_reported":1773526539,"current_range_meters":39200,"station_id":"ce4bgt12rcd13ifvqcd0","pricing_plan_id":"cebpf4jnsgd1na2vs0mg"},{"bike_id":"64069c02-c977-4af0-a752-efe4502ec874","system_id":"levelo_inurba_marseille","lat":43.28486,"lon":5.48381,"is_reserved":false,"is_disabled":false,"rental_uris":{"android":"levelo://app?vid=64069c02-c977-4af0-a752-efe4502ec874","ios":"levelo://app?vid=64069c02-c977-4af0-a752-efe4502ec874"},"vehicle_type_id":"4","last_reported":1773526539,"current_range_meters":39200,"station_id":"","pricing_plan_id":"cebpf4jnsgd1na2vs0mg"},{"bike_id":"030d87a5-4fd6-406c-97be-8b1d2c082c10","system_id":"levelo_inurba_marseille","lat":43.24536,"lon":5.39562,"is_reserved":false,"is_disabled":false,"rental_uris":{"android":"levelo://app?vid=030d87a5-4fd6-406c-97be-8b1d2c082c10","ios":"levelo://app?vid=030d87a5-4fd6-406c-97be-8b1d2c082c10"},"vehicle_type_id":"4","last_reported":1773526539,"current_range_meters":38800,"station_id":"","pricing_plan_id":"cebpf4jnsgd1na2vs0mg"},{"bike_id":"0c60e9f7-419a-402d-bbe7-ab8848add394","system_id":"levelo_inurba_marseille","lat":43.31602,"lon":5.40493,"is_reserved":false,"is_disabled":false,"rental_uris":{"android":"levelo://app?vid=0c60e9f7-419a-402d-bbe7-ab8848add394","ios":"levelo://app?vid=0c60e9f7-419a-402d-bbe7-ab8848add394"},"vehicle_type_id":"4","last_reported":1773526539,"current_range_meters":34000,"station_id":"","pricing_plan_id":"cebpf4jnsgd1na2vs0mg"},{"bike_id":"e666f2fc-c602-4b8d-91e3-0d86c3da7741","system_id":"levelo_inurba_marseille","lat":43.28435,"lon":5.39183,"is_reserved":false,"is_disabled":false,"rental_uris":{"android":"levelo://app?vid=e666f2fc-c602-4b8d-91e3-0d86c3da7741","ios":"levelo://app?vid=e666f2fc-c602-4b8d-91e3-0d86c3da7741"},"vehicle_type_id":"4","last_reported":1773526539,"current_range_meters":5600,"station_id":"ce4bhoh2rcd13ifvqh5g","pricing_plan_id":"cebpf4jnsgd1na2vs0mg"},{"bike_id":"6ba02607-5543-4986-b3cb-a1df5f02d1dd","system_id":"levelo_inurba_marseille","lat":43.31535,"lon":5.36887,"is_reserved":false,"is_disabled":false,"rental_uris":{"android":"levelo://app?vid=6ba02607-5543-4986-b3cb-a1df5f02d1dd","ios":"levelo://app?vid=6ba02607-5543-4986-b3cb-a1df5f02d1dd"},"vehicle_type_id":"4","last_reported":1773526539,"current_range_meters":39200,"station_id":"ce4bgr92rcd13ifvqc6g","pricing_plan_id":"cebpf4jnsgd1na2vs0mg"},{"bike_id":"68f8bcec-7291-4d62-b8e4-32de3382d5ae","system_id":"levelo_inurba_marseille","lat":43.30141,"lon":5.37392,"is_reserved":false,"is_disabled":false,"rental_uris":{"android":"levelo://app?vid=68f8bcec-7291-4d62-b8e4-32de3382d5ae","ios":"levelo://app?vid=68f8bcec-7291-4d62-b8e4-32de3382d5ae"},"vehicle_type_id":"4","last_reported":1773526539,"current_range_meters":11200,"station_id":"ce4bgs92rcd13ifvqcc0","pricing_plan_id":"cebpf4jnsgd1na2vs0mg"},{"bike_id":"7bf0a830-d498-457c-a030-91c3bd84fed4","system_id":"levelo_inurba_marseille","lat":43.232,"lon":5.35554,"is_reserved":false,"is_disabled":false,"rental_uris":{"android":"levelo://app?vid=7bf0a830-d498-457c-a030-91c3bd84fed4","ios":"levelo://app?vid=7bf0a830-d498-457c-a030-91c3bd84fed4"},"vehicle_type_id":"4","last_reported":1773526539,"current_range_meters":33200,"station_id":"ce4bhu92rcd13ifvqi70","pricing_plan_id":"cebpf4jnsgd1na2vs0mg"},{"bike_id":"db5fc025-f609-443b-b481-2f6cefb137d4","system_id":"levelo_inurba_marseille","lat":43.2848,"lon":5.48391,"is_reserved":false,"is_disabled":false,"rental_uris":{"android":"levelo://app?vid=db5fc025-f609-443b-b481-2f6cefb137d4","ios":"levelo://app?vid=db5fc025-f609-443b-b481-2f6cefb137d4"},"vehicle_type_id":"4","last_reported":1773526539,"current_range_meters":29600,"station_id":"","pricing_plan_id":"cebpf4jnsgd1na2vs0mg"},{"bike_id":"3b85e9e8-4938-4ae7-a83e-c8e2526a550f","system_id":"levelo_inurba_marseille","lat":43.24177,"lon":5.36415,"is_reserved":false,"is_disabled":false,"rental_uris":{"android":"levelo://app?vid=3b85e9e8-4938-4ae7-a83e-c8e2526a550f","ios":"levelo://app?vid=3b85e9e8-4938-4ae7-a83e-c8e2526a550f"},"vehicle_type_id":"4","last_reported":1773526539,"current_range_meters":17600,"station_id":"cpo36qri1sfpv3e86is0","pricing_plan_id":"cebpf4jnsgd1na2vs0mg"},{"bike_id":"c6384ce6-6b54-4b6d-b227-3cffde6120a6","system_id":"levelo_inurba_marseille","lat":43.30923,"lon":5.40158,"is_reserved":false,"is_disabled":true,"rental_uris":{"android":"levelo://app?vid=c6384ce6-6b54-4b6d-b227-3cffde6120a6","ios":"levelo://app?vid=c6384ce6-6b54-4b6d-b227-3cffde6120a6"},"vehicle_type_id":"4","last_reported":1773526539,"current_range_meters":33200,"station_id":"ce4bgvp2rcd13ifvqct0","pricing_plan_id":"cebpf4jnsgd1na2vs0mg"},{"bike_id":"57aa564f-18d7-4da2-b67c-e3aff3bc078f","system_id":"levelo_inurba_marseille","lat":43.30552,"lon":5.36708,"is_reserved":false,"is_disabled":false,"rental_uris":{"android":"levelo://app?vid=57aa564f-18d7-4da2-b67c-e3aff3bc078f","ios":"levelo://app?vid=57aa564f-18d7-4da2-b67c-e3aff3bc078f"},"vehicle_type_id":"4","last_reported":1773526539,"current_range_meters":38800,"station_id":"ce4bgrp2rcd13ifvqc9g","pricing_plan_id":"cebpf4jnsgd1na2vs0mg"},{"bike_id":"6a25b971-f621-4475-8212-91340ce76a86","system_id":"levelo_inurba_marseille","lat":43.26197,"lon":5.37924,"is_reserved":false,"is_disabled":false,"rental_uris":{"android":"levelo://app?vid=6a25b971-f621-4475-8212-91340ce76a86","ios":"levelo://app?vid=6a25b971-f621-4475-8212-91340ce76a86"},"vehicle_type_id":"4","last_reported":1773526539,"current_range_meters":32400,"station_id":"ce4bhjp2rcd13ifvqg90","pricing_plan_id":"cebpf4jnsgd1na2vs0mg"},{"bike_id":"2c6a2cc6-c851-4e88-afa4-be17bb846b49","system_id":"levelo_inurba_marseille","lat":43.30539,"lon":5.3654,"is_reserved":false,"is_disabled":false,"rental_uris":{"android":"levelo://app?vid=2c6a2cc6-c851-4e88-afa4-be17bb846b49","ios":"levelo://app?vid=2c6a2cc6-c851-4e88-afa4-be17bb846b49"},"vehicle_type_id":"4","last_reported":1773526539,"current_range_meters":40000,"station_id":"ce4bgs12rcd13ifvqcag","pricing_plan_id":"cebpf4jnsgd1na2vs0mg"},{"bike_id":"ab7d9189-2568-4974-829e-49dee9a447d5","system_id":"levelo_inurba_marseille","lat":43.23192,"lon":5.35565,"is_reserved":false,"is_disabled":false,"rental_uris":{"android":"levelo://app?vid=ab7d9189-2568-4974-829e-49dee9a447d5","ios":"levelo://app?vid=ab7d9189-2568-4974-829e-49dee9a447d5"},"vehicle_type_id":"4","last_reported":1773526539,"current_range_meters":39200,"station_id":"ce4bhu92rcd13ifvqi70","pricing_plan_id":"cebpf4jnsgd1na2vs0mg"},{"bike_id":"0b373a44-b9eb-43b6-9ce5-cda6bc04ce52","system_id":"levelo_inurba_marseille","lat":43.2891,"lon":5.36683,"is_reserved":false,"is_disabled":false,"rental_uris":{"android":"levelo://app?vid=0b373a44-b9eb-43b6-9ce5-cda6bc04ce52","ios":"levelo://app?vid=0b373a44-b9eb-43b6-9ce5-cda6bc04ce52"},"vehicle_type_id":"4","last_reported":1773526539,"current_range_meters":38400,"station_id":"ce4bhap2rcd13ifvqek0","pricing_plan_id":"cebpf4jnsgd1na2vs0mg"},{"bike_id":"c0c5d9dc-928d-48b1-bc04-fe5d71707694","system_id":"levelo_inurba_marseille","lat":43.32358,"lon":5.3677,"is_reserved":false,"is_disabled":false,"rental_uris":{"android":"levelo://app?vid=c0c5d9dc-928d-48b1-bc04-fe5d71707694","ios":"levelo://app?vid=c0c5d9dc-928d-48b1-bc04-fe5d71707694"},"vehicle_type_id":"4","last_reported":1773526539,"current_range_meters":36000,"station_id":"ce4bhsh2rcd13ifvqi2g","pricing_plan_id":"cebpf4jnsgd1na2vs0mg"},{"bike_id":"794431af-4df7-4144-942e-ad0c5540a437","system_id":"levelo_inurba_marseille","lat":43.29385,"lon":5.37828,"is_reserved":false,"is_disabled":false,"rental_uris":{"android":"levelo://app?vid=794431af-4df7-4144-942e-ad0c5540a437","ios":"levelo://app?vid=794431af-4df7-4144-942e-ad0c5540a437"},"vehicle_type_id":"4","last_reported":1773526539,"current_range_meters":36800,"station_id":"ce4bgjh2rcd13ifvqbf0","pricing_plan_id":"cebpf4jnsgd1na2vs0mg"},{"bike_id":"37d43fd8-cdec-4372-bbf9-45ba3794afe0","system_id":"levelo_inurba_marseille","lat":43.29441,"lon":5.39774,"is_reserved":false,"is_disabled":true,"rental_uris":{"android":"levelo://app?vid=37d43fd8-cdec-4372-bbf9-45ba3794afe0","ios":"levelo://app?vid=37d43fd8-cdec-4372-bbf9-45ba3794afe0"},"vehicle_type_id":"4","last_reported":1773526539,"current_range_meters":26800,"station_id":"ce4bh3h2rcd13ifvqdo0","pricing_plan_id":"cebpf4jnsgd1na2vs0mg"},{"bike_id":"475f6229-3b8f-4eab-b8fd-2fbd86f0fb75","system_id":"levelo_inurba_marseille","lat":43.24168,"lon":5.36427,"is_reserved":false,"is_disabled":false,"rental_uris":{"android":"levelo://app?vid=475f6229-3b8f-4eab-b8fd-2fbd86f0fb75","ios":"levelo://app?vid=475f6229-3b8f-4eab-b8fd-2fbd86f0fb75"},"vehicle_type_id":"4","last_reported":1773526539,"current_range_meters":37600,"station_id":"cpo36qri1sfpv3e86is0","pricing_plan_id":"cebpf4jnsgd1na2vs0mg"},{"bike_id":"aaf56433-ee77-470c-b7b6-221e680ae993","system_id":"levelo_inurba_marseille","lat":43.22542,"lon":5.41638,"is_reserved":false,"is_disabled":false,"rental_uris":{"android":"levelo://app?vid=aaf56433-ee77-470c-b7b6-221e680ae993","ios":"levelo://app?vid=aaf56433-ee77-470c-b7b6-221e680ae993"},"vehicle_type_id":"4","last_reported":1773526539,"current_range_meters":39200,"station_id":"st_d2o4gvlbi1j2169b742g","pricing_plan_id":"cebpf4jnsgd1na2vs0mg"},{"bike_id":"3ff3df78-eee4-4716-9de4-5e86fa44030b","system_id":"levelo_inurba_marseille","lat":43.30151,"lon":5.37401,"is_reserved":false,"is_disabled":false,"rental_uris":{"android":"levelo://app?vid=3ff3df78-eee4-4716-9de4-5e86fa44030b","ios":"levelo://app?vid=3ff3df78-eee4-4716-9de4-5e86fa44030b"},"vehicle_type_id":"4","last_reported":1773526539,"current_range_meters":39200,"station_id":"ce4bgs92rcd13ifvqcc0","pricing_plan_id":"cebpf4jnsgd1na2vs0mg"},{"bike_id":"3a3e1c85-dbae-420f-b6d9-3a4969e8b66e","system_id":"levelo_inurba_marseille","lat":43.24464,"lon":5.42543,"is_reserved":false,"is_disabled":false,"rental_uris":{"android":"levelo://app?vid=3a3e1c85-dbae-420f-b6d9-3a4969e8b66e","ios":"levelo://app?vid=3a3e1c85-dbae-420f-b6d9-3a4969e8b66e"},"vehicle_type_id":"4","last_reported":1773526539,"current_range_meters":37600,"station_id":"st_d4a3vfp97mjs738cd8kg","pricing_plan_id":"cebpf4jnsgd1na2vs0mg"},{"bike_id":"b47963ea-d61d-4222-9615-8f31b1d8d0cc","system_id":"levelo_inurba_marseille","lat":43.29303,"lon":5.37456,"is_reserved":false,"is_disabled":false,"rental_uris":{"android":"levelo://app?vid=b47963ea-d61d-4222-9615-8f31b1d8d0cc","ios":"levelo://app?vid=b47963ea-d61d-4222-9615-8f31b1d8d0cc"},"vehicle_type_id":"4","last_reported":1773526539,"current_range_meters":22000,"station_id":"ce4bgi12rcd13ifvqb70","pricing_plan_id":"cebpf4jnsgd1na2vs0mg"},{"bike_id":"eb259eb3-17cb-4932-bfd9-164bb2aaf2fe","system_id":"levelo_inurba_marseille","lat":43.23167,"lon":5.3562,"is_reserved":false,"is_disabled":false,"rental_uris":{"android":"levelo://app?vid=eb259eb3-17cb-4932-bfd9-164bb2aaf2fe","ios":"levelo://app?vid=eb259eb3-17cb-4932-bfd9-164bb2aaf2fe"},"vehicle_type_id":"4","last_reported":1773526539,"current_range_meters":38800,"station_id":"","pricing_plan_id":"cebpf4jnsgd1na2vs0mg"},{"bike_id":"9f1129e7-2235-4faf-8100-e46743b37449","system_id":"levelo_inurba_marseille","lat":43.25727,"lon":5.4111,"is_reserved":false,"is_disabled":false,"rental_uris":{"android":"levelo://app?vid=9f1129e7-2235-4faf-8100-e46743b37449","ios":"levelo://app?vid=9f1129e7-2235-4faf-8100-e46743b37449"},"vehicle_type_id":"4","last_reported":1773526539,"current_range_meters":20000,"station_id":"ce4bhkp2rcd13ifvqgd0","pricing_plan_id":"cebpf4jnsgd1na2vs0mg"},{"bike_id":"41b16539-d93d-4e64-a8e4-b7d380ab4e3b","system_id":"levelo_inurba_marseille","lat":43.25007,"lon":5.38947,"is_reserved":false,"is_disabled":false,"rental_uris":{"android":"levelo://app?vid=41b16539-d93d-4e64-a8e4-b7d380ab4e3b","ios":"levelo://app?vid=41b16539-d93d-4e64-a8e4-b7d380ab4e3b"},"vehicle_type_id":"4","last_reported":1773526539,"current_range_meters":12800,"station_id":"ce4bhgp2rcd13ifvqfd0","pricing_plan_id":"cebpf4jnsgd1na2vs0mg"},{"bike_id":"7a9ed648-e3d9-4cf3-8521-ba1e8c625c95","system_id":"levelo_inurba_marseille","lat":43.30447,"lon":5.3791,"is_reserved":false,"is_disabled":false,"rental_uris":{"android":"levelo://app?vid=7a9ed648-e3d9-4cf3-8521-ba1e8c625c95","ios":"levelo://app?vid=7a9ed648-e3d9-4cf3-8521-ba1e8c625c95"},"vehicle_type_id":"4","last_reported":1773526539,"current_range_meters":30400,"station_id":"ce4bgup2rcd13ifvqcn0","pricing_plan_id":"cebpf4jnsgd1na2vs0mg"},{"bike_id":"34740115-dcc4-46f7-bb0d-d7232b4ef1ae","system_id":"levelo_inurba_marseille","lat":43.33613,"lon":5.41035,"is_reserved":false,"is_disabled":false,"rental_uris":{"android":"levelo://app?vid=34740115-dcc4-46f7-bb0d-d7232b4ef1ae","ios":"levelo://app?vid=34740115-dcc4-46f7-bb0d-d7232b4ef1ae"},"vehicle_type_id":"4","last_reported":1773526539,"current_range_meters":39200,"station_id":"ce4bhqh2rcd13ifvqhmg","pricing_plan_id":"cebpf4jnsgd1na2vs0mg"},{"bike_id":"e5302760-afa0-4da3-bc7e-33438722928e","system_id":"levelo_inurba_marseille","lat":43.29975,"lon":5.38516,"is_reserved":false,"is_disabled":false,"rental_uris":{"android":"levelo://app?vid=e5302760-afa0-4da3-bc7e-33438722928e","ios":"levelo://app?vid=e5302760-afa0-4da3-bc7e-33438722928e"},"vehicle_type_id":"4","last_reported":1773526539,"current_range_meters":38800,"station_id":"ce4bgj92rcd13ifvqbd0","pricing_plan_id":"cebpf4jnsgd1na2vs0mg"},{"bike_id":"a4951a30-7084-4efc-835c-7b8db4704dd8","system_id":"levelo_inurba_marseille","lat":43.26939,"lon":5.40255,"is_reserved":false,"is_disabled":false,"rental_uris":{"android":"levelo://app?vid=a4951a30-7084-4efc-835c-7b8db4704dd8","ios":"levelo://app?vid=a4951a30-7084-4efc-835c-7b8db4704dd8"},"vehicle_type_id":"4","last_reported":1773526539,"current_range_meters":39200,"station_id":"cjm6bp8fraef2m0cb0m0","pricing_plan_id":"cebpf4jnsgd1na2vs0mg"},{"bike_id":"b5febb47-5aa2-4a5d-943a-3b32bfa93e01","system_id":"levelo_inurba_marseille","lat":43.292,"lon":5.39321,"is_reserved":false,"is_disabled":false,"rental_uris":{"android":"levelo://app?vid=b5febb47-5aa2-4a5d-943a-3b32bfa93e01","ios":"levelo://app?vid=b5febb47-5aa2-4a5d-943a-3b32bfa93e01"},"vehicle_type_id":"4","last_reported":1773526539,"current_range_meters":20000,"station_id":"ce4bh192rcd13ifvqdd0","pricing_plan_id":"cebpf4jnsgd1na2vs0mg"},{"bike_id":"505acdb5-557c-4aaa-be09-70eef20776f8","system_id":"levelo_inurba_marseille","lat":43.29901,"lon":5.37464,"is_reserved":false,"is_disabled":false,"rental_uris":{"android":"levelo://app?vid=505acdb5-557c-4aaa-be09-70eef20776f8","ios":"levelo://app?vid=505acdb5-557c-4aaa-be09-70eef20776f8"},"vehicle_type_id":"4","last_reported":1773526539,"current_range_meters":27600,"station_id":"ce4bgjh2rcd13ifvqbg0","pricing_plan_id":"cebpf4jnsgd1na2vs0mg"},{"bike_id":"68909a52-a81a-47d2-a672-452ce92b3e14","system_id":"levelo_inurba_marseille","lat":43.29788,"lon":5.37119,"is_reserved":false,"is_disabled":false,"rental_uris":{"android":"levelo://app?vid=68909a52-a81a-47d2-a672-452ce92b3e14","ios":"levelo://app?vid=68909a52-a81a-47d2-a672-452ce92b3e14"},"vehicle_type_id":"4","last_reported":1773526539,"current_range_meters":6800,"station_id":"ce4bgop2rcd13ifvqc1g","pricing_plan_id":"cebpf4jnsgd1na2vs0mg"},{"bike_id":"6e8cbc55-1efb-4ebc-b70e-2a9253dbdc8a","system_id":"levelo_inurba_marseille","lat":43.30731,"lon":5.42445,"is_reserved":false,"is_disabled":false,"rental_uris":{"android":"levelo://app?vid=6e8cbc55-1efb-4ebc-b70e-2a9253dbdc8a","ios":"levelo://app?vid=6e8cbc55-1efb-4ebc-b70e-2a9253dbdc8a"},"vehicle_type_id":"4","last_reported":1773526539,"current_range_meters":28800,"station_id":"st_cvj6ca6bvosntc0bfgr0","pricing_plan_id":"cebpf4jnsgd1na2vs0mg"},{"bike_id":"fceacbae-990b-4213-8c3b-c375f2e5e911","system_id":"levelo_inurba_marseille","lat":43.29796,"lon":5.3809,"is_reserved":false,"is_disabled":true,"rental_uris":{"android":"levelo://app?vid=fceacbae-990b-4213-8c3b-c375f2e5e911","ios":"levelo://app?vid=fceacbae-990b-4213-8c3b-c375f2e5e911"},"vehicle_type_id":"4","last_reported":1773526539,"current_range_meters":20400,"station_id":"ce4bgip2rcd13ifvqbb0","pricing_plan_id":"cebpf4jnsgd1na2vs0mg"},{"bike_id":"88cb8c7f-0ccd-4a01-91f9-3a530d0e94ef","system_id":"levelo_inurba_marseille","lat":43.28622,"lon":5.35106,"is_reserved":false,"is_disabled":false,"rental_uris":{"android":"levelo://app?vid=88cb8c7f-0ccd-4a01-91f9-3a530d0e94ef","ios":"levelo://app?vid=88cb8c7f-0ccd-4a01-91f9-3a530d0e94ef"},"vehicle_type_id":"4","last_reported":1773526539,"current_range_meters":38400,"station_id":"ce4bhch2rcd13ifvqeug","pricing_plan_id":"cebpf4jnsgd1na2vs0mg"},{"bike_id":"466d5686-152b-40db-b82b-75b5e82313ee","system_id":"levelo_inurba_marseille","lat":43.30157,"lon":5.37411,"is_reserved":false,"is_disabled":false,"rental_uris":{"android":"levelo://app?vid=466d5686-152b-40db-b82b-75b5e82313ee","ios":"levelo://app?vid=466d5686-152b-40db-b82b-75b5e82313ee"},"vehicle_type_id":"4","last_reported":1773526539,"current_range_meters":19600,"station_id":"ce4bgs92rcd13ifvqcc0","pricing_plan_id":"cebpf4jnsgd1na2vs0mg"},{"bike_id":"32358ead-44ff-491d-882b-0c4122b7d796","system_id":"levelo_inurba_marseille","lat":43.2119,"lon":5.35077,"is_reserved":false,"is_disabled":false,"rental_uris":{"android":"levelo://app?vid=32358ead-44ff-491d-882b-0c4122b7d796","ios":"levelo://app?vid=32358ead-44ff-491d-882b-0c4122b7d796"},"vehicle_type_id":"4","last_reported":1773526539,"current_range_meters":3200,"station_id":"st_cvj6sg6p6f1abm77japg","pricing_plan_id":"cebpf4jnsgd1na2vs0mg"},{"bike_id":"74b346cd-cc6e-4f80-9d91-467227634737","system_id":"levelo_inurba_marseille","lat":43.25018,"lon":5.3896,"is_reserved":false,"is_disabled":false,"rental_uris":{"android":"levelo://app?vid=74b346cd-cc6e-4f80-9d91-467227634737","ios":"levelo://app?vid=74b346cd-cc6e-4f80-9d91-467227634737"},"vehicle_type_id":"4","last_reported":1773526539,"current_range_meters":38800,"station_id":"ce4bhgp2rcd13ifvqfd0","pricing_plan_id":"cebpf4jnsgd1na2vs0mg"},{"bike_id":"88baf1fe-4b9b-4c52-81f7-dd067c921a9f","system_id":"levelo_inurba_marseille","lat":43.2982,"lon":5.44068,"is_reserved":false,"is_disabled":false,"rental_uris":{"android":"levelo://app?vid=88baf1fe-4b9b-4c52-81f7-dd067c921a9f","ios":"levelo://app?vid=88baf1fe-4b9b-4c52-81f7-dd067c921a9f"},"vehicle_type_id":"4","last_reported":1773526539,"current_range_meters":12000,"station_id":"st_d3jp68qikq2c7381ktn0","pricing_plan_id":"cebpf4jnsgd1na2vs0mg"},{"bike_id":"f1bb561e-5fbd-40cc-bfe5-744073353c68","system_id":"levelo_inurba_marseille","lat":43.26793,"lon":5.39405,"is_reserved":false,"is_disabled":false,"rental_uris":{"android":"levelo://app?vid=f1bb561e-5fbd-40cc-bfe5-744073353c68","ios":"levelo://app?vid=f1bb561e-5fbd-40cc-bfe5-744073353c68"},"vehicle_type_id":"4","last_reported":1773526539,"current_range_meters":32000,"station_id":"ce4bhh12rcd13ifvqfg0","pricing_plan_id":"cebpf4jnsgd1na2vs0mg"},{"bike_id":"81827ce5-dd00-4d0f-985f-bb5bfe7b48c3","system_id":"levelo_inurba_marseille","lat":43.30146,"lon":5.38768,"is_reserved":false,"is_disabled":false,"rental_uris":{"android":"levelo://app?vid=81827ce5-dd00-4d0f-985f-bb5bfe7b48c3","ios":"levelo://app?vid=81827ce5-dd00-4d0f-985f-bb5bfe7b48c3"},"vehicle_type_id":"4","last_reported":1773526539,"current_range_meters":38800,"station_id":"ce4bghh2rcd13ifvqb60","pricing_plan_id":"cebpf4jnsgd1na2vs0mg"},{"bike_id":"fc490484-a83d-4dbc-a9ca-17596f3ee413","system_id":"levelo_inurba_marseille","lat":43.23197,"lon":5.35538,"is_reserved":false,"is_disabled":false,"rental_uris":{"android":"levelo://app?vid=fc490484-a83d-4dbc-a9ca-17596f3ee413","ios":"levelo://app?vid=fc490484-a83d-4dbc-a9ca-17596f3ee413"},"vehicle_type_id":"4","last_reported":1773526539,"current_range_meters":36000,"station_id":"ce4bhu92rcd13ifvqi70","pricing_plan_id":"cebpf4jnsgd1na2vs0mg"},{"bike_id":"e4c5b372-6892-4028-8a07-7aa5c5a4433c","system_id":"levelo_inurba_marseille","lat":43.27203,"lon":5.3917,"is_reserved":false,"is_disabled":true,"rental_uris":{"android":"levelo://app?vid=e4c5b372-6892-4028-8a07-7aa5c5a4433c","ios":"levelo://app?vid=e4c5b372-6892-4028-8a07-7aa5c5a4433c"},"vehicle_type_id":"4","last_reported":1773526539,"current_range_meters":0,"station_id":"ce4bhhp2rcd13ifvqfm0","pricing_plan_id":"cebpf4jnsgd1na2vs0mg"},{"bike_id":"574389cd-d5f7-4bb8-8e81-3a3b9218fbef","system_id":"levelo_inurba_marseille","lat":43.24153,"lon":5.3642,"is_reserved":false,"is_disabled":false,"rental_uris":{"android":"levelo://app?vid=574389cd-d5f7-4bb8-8e81-3a3b9218fbef","ios":"levelo://app?vid=574389cd-d5f7-4bb8-8e81-3a3b9218fbef"},"vehicle_type_id":"4","last_reported":1773526539,"current_range_meters":10000,"station_id":"cpo36qri1sfpv3e86is0","pricing_plan_id":"cebpf4jnsgd1na2vs0mg"},{"bike_id":"8cc80161-f05d-4510-84aa-0b6bd738d8d5","system_id":"levelo_inurba_marseille","lat":43.31429,"lon":5.38553,"is_reserved":false,"is_disabled":false,"rental_uris":{"android":"levelo://app?vid=8cc80161-f05d-4510-84aa-0b6bd738d8d5","ios":"levelo://app?vid=8cc80161-f05d-4510-84aa-0b6bd738d8d5"},"vehicle_type_id":"4","last_reported":1773526539,"current_range_meters":2800,"station_id":"","pricing_plan_id":"cebpf4jnsgd1na2vs0mg"},{"bike_id":"44502a88-b86f-48e4-8552-de8ca01c45de","system_id":"levelo_inurba_marseille","lat":43.25819,"lon":5.39432,"is_reserved":false,"is_disabled":false,"rental_uris":{"android":"levelo://app?vid=44502a88-b86f-48e4-8552-de8ca01c45de","ios":"levelo://app?vid=44502a88-b86f-48e4-8552-de8ca01c45de"},"vehicle_type_id":"4","last_reported":1773526539,"current_range_meters":33200,"station_id":"ce4bhip2rcd13ifvqft0","pricing_plan_id":"cebpf4jnsgd1na2vs0mg"},{"bike_id":"d008a3ca-bdab-43f7-957e-465391a2d48d","system_id":"levelo_inurba_marseille","lat":43.31667,"lon":5.42419,"is_reserved":false,"is_disabled":false,"rental_uris":{"android":"levelo://app?vid=d008a3ca-bdab-43f7-957e-465391a2d48d","ios":"levelo://app?vid=d008a3ca-bdab-43f7-957e-465391a2d48d"},"vehicle_type_id":"4","last_reported":1773526539,"current_range_meters":31200,"station_id":"","pricing_plan_id":"cebpf4jnsgd1na2vs0mg"},{"bike_id":"620ff2af-052e-41b1-a64f-0ec58b0cc2e0","system_id":"levelo_inurba_marseille","lat":43.30537,"lon":5.36531,"is_reserved":false,"is_disabled":false,"rental_uris":{"android":"levelo://app?vid=620ff2af-052e-41b1-a64f-0ec58b0cc2e0","ios":"levelo://app?vid=620ff2af-052e-41b1-a64f-0ec58b0cc2e0"},"vehicle_type_id":"4","last_reported":1773526539,"current_range_meters":25200,"station_id":"ce4bgs12rcd13ifvqcag","pricing_plan_id":"cebpf4jnsgd1na2vs0mg"},{"bike_id":"6a8a7c2a-8a7e-41a1-a4b5-7ca30327194c","system_id":"levelo_inurba_marseille","lat":43.25157,"lon":5.40379,"is_reserved":false,"is_disabled":false,"rental_uris":{"android":"levelo://app?vid=6a8a7c2a-8a7e-41a1-a4b5-7ca30327194c","ios":"levelo://app?vid=6a8a7c2a-8a7e-41a1-a4b5-7ca30327194c"},"vehicle_type_id":"4","last_reported":1773526539,"current_range_meters":40000,"station_id":"ce4bhlh2rcd13ifvqgig","pricing_plan_id":"cebpf4jnsgd1na2vs0mg"},{"bike_id":"ae86bb4e-6189-46e4-b3fc-5e0b13b23d1f","system_id":"levelo_inurba_marseille","lat":43.21139,"lon":5.35099,"is_reserved":false,"is_disabled":false,"rental_uris":{"android":"levelo://app?vid=ae86bb4e-6189-46e4-b3fc-5e0b13b23d1f","ios":"levelo://app?vid=ae86bb4e-6189-46e4-b3fc-5e0b13b23d1f"},"vehicle_type_id":"4","last_reported":1773526539,"current_range_meters":9600,"station_id":"st_cvj6sg6p6f1abm77japg","pricing_plan_id":"cebpf4jnsgd1na2vs0mg"},{"bike_id":"5acaf7e1-5b00-4bef-85ae-4b835efcff08","system_id":"levelo_inurba_marseille","lat":43.28659,"lon":5.364,"is_reserved":false,"is_disabled":false,"rental_uris":{"android":"levelo://app?vid=5acaf7e1-5b00-4bef-85ae-4b835efcff08","ios":"levelo://app?vid=5acaf7e1-5b00-4bef-85ae-4b835efcff08"},"vehicle_type_id":"4","last_reported":1773526539,"current_range_meters":30000,"station_id":"ce4bhah2rcd13ifvqej0","pricing_plan_id":"cebpf4jnsgd1na2vs0mg"},{"bike_id":"2da74aad-d5d0-4aee-be79-0fb398f1f69b","system_id":"levelo_inurba_marseille","lat":43.29783,"lon":5.381,"is_reserved":false,"is_disabled":true,"rental_uris":{"android":"levelo://app?vid=2da74aad-d5d0-4aee-be79-0fb398f1f69b","ios":"levelo://app?vid=2da74aad-d5d0-4aee-be79-0fb398f1f69b"},"vehicle_type_id":"4","last_reported":1773526539,"current_range_meters":25600,"station_id":"ce4bgip2rcd13ifvqbb0","pricing_plan_id":"cebpf4jnsgd1na2vs0mg"},{"bike_id":"38b12cbc-5d90-4180-b39e-1ff3e0d17bf2","system_id":"levelo_inurba_marseille","lat":43.27989,"lon":5.41665,"is_reserved":false,"is_disabled":false,"rental_uris":{"android":"levelo://app?vid=38b12cbc-5d90-4180-b39e-1ff3e0d17bf2","ios":"levelo://app?vid=38b12cbc-5d90-4180-b39e-1ff3e0d17bf2"},"vehicle_type_id":"4","last_reported":1773526539,"current_range_meters":33200,"station_id":"ce4bho12rcd13ifvqh1g","pricing_plan_id":"cebpf4jnsgd1na2vs0mg"},{"bike_id":"2444b383-186d-4aa9-ac23-06be09cc8c39","system_id":"levelo_inurba_marseille","lat":43.29774,"lon":5.37062,"is_reserved":false,"is_disabled":false,"rental_uris":{"android":"levelo://app?vid=2444b383-186d-4aa9-ac23-06be09cc8c39","ios":"levelo://app?vid=2444b383-186d-4aa9-ac23-06be09cc8c39"},"vehicle_type_id":"4","last_reported":1773526539,"current_range_meters":34000,"station_id":"ce4bgop2rcd13ifvqc1g","pricing_plan_id":"cebpf4jnsgd1na2vs0mg"},{"bike_id":"c5e75752-a286-449d-8e67-bace779c66a2","system_id":"levelo_inurba_marseille","lat":43.23179,"lon":5.39994,"is_reserved":false,"is_disabled":false,"rental_uris":{"android":"levelo://app?vid=c5e75752-a286-449d-8e67-bace779c66a2","ios":"levelo://app?vid=c5e75752-a286-449d-8e67-bace779c66a2"},"vehicle_type_id":"4","last_reported":1773526539,"current_range_meters":36000,"station_id":"ce4bhn12rcd13ifvqgqg","pricing_plan_id":"cebpf4jnsgd1na2vs0mg"},{"bike_id":"fd501590-7696-4af3-ab8c-7fdb344de8fb","system_id":"levelo_inurba_marseille","lat":43.28009,"lon":5.41651,"is_reserved":false,"is_disabled":false,"rental_uris":{"android":"levelo://app?vid=fd501590-7696-4af3-ab8c-7fdb344de8fb","ios":"levelo://app?vid=fd501590-7696-4af3-ab8c-7fdb344de8fb"},"vehicle_type_id":"4","last_reported":1773526539,"current_range_meters":39200,"station_id":"ce4bho12rcd13ifvqh1g","pricing_plan_id":"cebpf4jnsgd1na2vs0mg"},{"bike_id":"65cf8626-9d63-4371-9875-ab5ecb6cf33a","system_id":"levelo_inurba_marseille","lat":43.28105,"lon":5.37862,"is_reserved":false,"is_disabled":false,"rental_uris":{"android":"levelo://app?vid=65cf8626-9d63-4371-9875-ab5ecb6cf33a","ios":"levelo://app?vid=65cf8626-9d63-4371-9875-ab5ecb6cf33a"},"vehicle_type_id":"4","last_reported":1773526539,"current_range_meters":30000,"station_id":"ce4bha12rcd13ifvqee0","pricing_plan_id":"cebpf4jnsgd1na2vs0mg"},{"bike_id":"57bb4d9e-d4d4-4990-bab6-6d06f315dddc","system_id":"levelo_inurba_marseille","lat":43.3016,"lon":5.37439,"is_reserved":false,"is_disabled":false,"rental_uris":{"android":"levelo://app?vid=57bb4d9e-d4d4-4990-bab6-6d06f315dddc","ios":"levelo://app?vid=57bb4d9e-d4d4-4990-bab6-6d06f315dddc"},"vehicle_type_id":"4","last_reported":1773526539,"current_range_meters":36800,"station_id":"ce4bgs92rcd13ifvqcc0","pricing_plan_id":"cebpf4jnsgd1na2vs0mg"},{"bike_id":"2bab96cf-f3bd-4d1e-9a10-e0bfbf596746","system_id":"levelo_inurba_marseille","lat":43.232,"lon":5.39985,"is_reserved":false,"is_disabled":false,"rental_uris":{"android":"levelo://app?vid=2bab96cf-f3bd-4d1e-9a10-e0bfbf596746","ios":"levelo://app?vid=2bab96cf-f3bd-4d1e-9a10-e0bfbf596746"},"vehicle_type_id":"4","last_reported":1773526539,"current_range_meters":29600,"station_id":"ce4bhn12rcd13ifvqgqg","pricing_plan_id":"cebpf4jnsgd1na2vs0mg"},{"bike_id":"ef364c26-b12f-4ac2-8385-acdb623c591d","system_id":"levelo_inurba_marseille","lat":43.22554,"lon":5.41619,"is_reserved":false,"is_disabled":false,"rental_uris":{"android":"levelo://app?vid=ef364c26-b12f-4ac2-8385-acdb623c591d","ios":"levelo://app?vid=ef364c26-b12f-4ac2-8385-acdb623c591d"},"vehicle_type_id":"4","last_reported":1773526539,"current_range_meters":12000,"station_id":"st_d2o4gvlbi1j2169b742g","pricing_plan_id":"cebpf4jnsgd1na2vs0mg"},{"bike_id":"4b8471b1-5033-4e9f-82f7-b505da8cf32f","system_id":"levelo_inurba_marseille","lat":43.30919,"lon":5.40137,"is_reserved":false,"is_disabled":false,"rental_uris":{"android":"levelo://app?vid=4b8471b1-5033-4e9f-82f7-b505da8cf32f","ios":"levelo://app?vid=4b8471b1-5033-4e9f-82f7-b505da8cf32f"},"vehicle_type_id":"4","last_reported":1773526539,"current_range_meters":39200,"station_id":"ce4bgvp2rcd13ifvqct0","pricing_plan_id":"cebpf4jnsgd1na2vs0mg"},{"bike_id":"8651cc69-90de-4fca-a837-77715d0ab542","system_id":"levelo_inurba_marseille","lat":43.29625,"lon":5.40636,"is_reserved":false,"is_disabled":false,"rental_uris":{"android":"levelo://app?vid=8651cc69-90de-4fca-a837-77715d0ab542","ios":"levelo://app?vid=8651cc69-90de-4fca-a837-77715d0ab542"},"vehicle_type_id":"4","last_reported":1773526539,"current_range_meters":29600,"station_id":"ce4bh0h2rcd13ifvqd60","pricing_plan_id":"cebpf4jnsgd1na2vs0mg"},{"bike_id":"33366443-6e47-469a-98dd-6e660d31792e","system_id":"levelo_inurba_marseille","lat":43.26541,"lon":5.3731,"is_reserved":false,"is_disabled":false,"rental_uris":{"android":"levelo://app?vid=33366443-6e47-469a-98dd-6e660d31792e","ios":"levelo://app?vid=33366443-6e47-469a-98dd-6e660d31792e"},"vehicle_type_id":"4","last_reported":1773526539,"current_range_meters":4000,"station_id":"ce4bhg12rcd13ifvqf70","pricing_plan_id":"cebpf4jnsgd1na2vs0mg"},{"bike_id":"8617b24d-bdd2-49e3-beda-5d74fc474252","system_id":"levelo_inurba_marseille","lat":43.28472,"lon":5.48397,"is_reserved":false,"is_disabled":false,"rental_uris":{"android":"levelo://app?vid=8617b24d-bdd2-49e3-beda-5d74fc474252","ios":"levelo://app?vid=8617b24d-bdd2-49e3-beda-5d74fc474252"},"vehicle_type_id":"4","last_reported":1773526539,"current_range_meters":26000,"station_id":"","pricing_plan_id":"cebpf4jnsgd1na2vs0mg"},{"bike_id":"75f1146b-b27c-4ee4-85c5-6d1e00364ea7","system_id":"levelo_inurba_marseille","lat":43.24954,"lon":5.40504,"is_reserved":false,"is_disabled":false,"rental_uris":{"android":"levelo://app?vid=75f1146b-b27c-4ee4-85c5-6d1e00364ea7","ios":"levelo://app?vid=75f1146b-b27c-4ee4-85c5-6d1e00364ea7"},"vehicle_type_id":"4","last_reported":1773526539,"current_range_meters":12800,"station_id":"st_d2ngiaodas8pm72gd1h0","pricing_plan_id":"cebpf4jnsgd1na2vs0mg"},{"bike_id":"75f14208-a968-40dc-80f8-68b063e0d714","system_id":"levelo_inurba_marseille","lat":43.23145,"lon":5.43701,"is_reserved":false,"is_disabled":false,"rental_uris":{"android":"levelo://app?vid=75f14208-a968-40dc-80f8-68b063e0d714","ios":"levelo://app?vid=75f14208-a968-40dc-80f8-68b063e0d714"},"vehicle_type_id":"4","last_reported":1773526539,"current_range_meters":9600,"station_id":"ce4bhmp2rcd13ifvqgog","pricing_plan_id":"cebpf4jnsgd1na2vs0mg"},{"bike_id":"9e4ddfce-064a-430a-9be6-3f5345de02ff","system_id":"levelo_inurba_marseille","lat":43.30429,"lon":5.38887,"is_reserved":false,"is_disabled":false,"rental_uris":{"android":"levelo://app?vid=9e4ddfce-064a-430a-9be6-3f5345de02ff","ios":"levelo://app?vid=9e4ddfce-064a-430a-9be6-3f5345de02ff"},"vehicle_type_id":"4","last_reported":1773526539,"current_range_meters":20000,"station_id":"ce4bgk12rcd13ifvqbi0","pricing_plan_id":"cebpf4jnsgd1na2vs0mg"},{"bike_id":"4a09330b-b9bf-424e-8693-aafe00acb3cd","system_id":"levelo_inurba_marseille","lat":43.29574,"lon":5.42273,"is_reserved":false,"is_disabled":false,"rental_uris":{"android":"levelo://app?vid=4a09330b-b9bf-424e-8693-aafe00acb3cd","ios":"levelo://app?vid=4a09330b-b9bf-424e-8693-aafe00acb3cd"},"vehicle_type_id":"4","last_reported":1773526539,"current_range_meters":39200,"station_id":"ce4bhph2rcd13ifvqhdg","pricing_plan_id":"cebpf4jnsgd1na2vs0mg"},{"bike_id":"e0f4c726-c891-4b59-a727-5f7bf2fb4325","system_id":"levelo_inurba_marseille","lat":43.28537,"lon":5.44087,"is_reserved":false,"is_disabled":false,"rental_uris":{"android":"levelo://app?vid=e0f4c726-c891-4b59-a727-5f7bf2fb4325","ios":"levelo://app?vid=e0f4c726-c891-4b59-a727-5f7bf2fb4325"},"vehicle_type_id":"4","last_reported":1773526539,"current_range_meters":38000,"station_id":"st_d3j3df2ikq2c7380ej80","pricing_plan_id":"cebpf4jnsgd1na2vs0mg"},{"bike_id":"fdb474a4-4731-4915-8696-0a7cb3f89d1c","system_id":"levelo_inurba_marseille","lat":43.24663,"lon":5.38176,"is_reserved":false,"is_disabled":false,"rental_uris":{"android":"levelo://app?vid=fdb474a4-4731-4915-8696-0a7cb3f89d1c","ios":"levelo://app?vid=fdb474a4-4731-4915-8696-0a7cb3f89d1c"},"vehicle_type_id":"4","last_reported":1773526539,"current_range_meters":14000,"station_id":"ce4bhih2rcd13ifvqfr0","pricing_plan_id":"cebpf4jnsgd1na2vs0mg"},{"bike_id":"3d4208c2-815f-40bf-8bb0-f78b87ee07d6","system_id":"levelo_inurba_marseille","lat":43.28401,"lon":5.34986,"is_reserved":false,"is_disabled":false,"rental_uris":{"android":"levelo://app?vid=3d4208c2-815f-40bf-8bb0-f78b87ee07d6","ios":"levelo://app?vid=3d4208c2-815f-40bf-8bb0-f78b87ee07d6"},"vehicle_type_id":"4","last_reported":1773526539,"current_range_meters":34800,"station_id":"ce4bhbh2rcd13ifvqepg","pricing_plan_id":"cebpf4jnsgd1na2vs0mg"},{"bike_id":"08b1ab64-6d7f-4529-a09e-e49bf5a4021b","system_id":"levelo_inurba_marseille","lat":43.24957,"lon":5.40498,"is_reserved":false,"is_disabled":false,"rental_uris":{"android":"levelo://app?vid=08b1ab64-6d7f-4529-a09e-e49bf5a4021b","ios":"levelo://app?vid=08b1ab64-6d7f-4529-a09e-e49bf5a4021b"},"vehicle_type_id":"4","last_reported":1773526539,"current_range_meters":30400,"station_id":"st_d2ngiaodas8pm72gd1h0","pricing_plan_id":"cebpf4jnsgd1na2vs0mg"},{"bike_id":"b129dd58-1611-46d1-8998-00763fbad8df","system_id":"levelo_inurba_marseille","lat":43.30067,"lon":5.41696,"is_reserved":false,"is_disabled":false,"rental_uris":{"android":"levelo://app?vid=b129dd58-1611-46d1-8998-00763fbad8df","ios":"levelo://app?vid=b129dd58-1611-46d1-8998-00763fbad8df"},"vehicle_type_id":"4","last_reported":1773526539,"current_range_meters":33200,"station_id":"","pricing_plan_id":"cebpf4jnsgd1na2vs0mg"},{"bike_id":"155725a2-4e9c-4e7c-942b-f2b8be31f206","system_id":"levelo_inurba_marseille","lat":43.2175,"lon":5.34605,"is_reserved":false,"is_disabled":false,"rental_uris":{"android":"levelo://app?vid=155725a2-4e9c-4e7c-942b-f2b8be31f206","ios":"levelo://app?vid=155725a2-4e9c-4e7c-942b-f2b8be31f206"},"vehicle_type_id":"4","last_reported":1773526539,"current_range_meters":6800,"station_id":"st_cvj6r9ubvosntc0bgbag","pricing_plan_id":"cebpf4jnsgd1na2vs0mg"},{"bike_id":"5b9c3f93-1599-4fd0-b513-558b424405ce","system_id":"levelo_inurba_marseille","lat":43.32434,"lon":5.36609,"is_reserved":false,"is_disabled":false,"rental_uris":{"android":"levelo://app?vid=5b9c3f93-1599-4fd0-b513-558b424405ce","ios":"levelo://app?vid=5b9c3f93-1599-4fd0-b513-558b424405ce"},"vehicle_type_id":"4","last_reported":1773526539,"current_range_meters":39200,"station_id":"ce4bhs12rcd13ifvqhvg","pricing_plan_id":"cebpf4jnsgd1na2vs0mg"},{"bike_id":"56fddcda-c541-44a5-8391-f7fbf087f4ed","system_id":"levelo_inurba_marseille","lat":43.22578,"lon":5.41625,"is_reserved":false,"is_disabled":false,"rental_uris":{"android":"levelo://app?vid=56fddcda-c541-44a5-8391-f7fbf087f4ed","ios":"levelo://app?vid=56fddcda-c541-44a5-8391-f7fbf087f4ed"},"vehicle_type_id":"4","last_reported":1773526539,"current_range_meters":38000,"station_id":"st_d2o4gvlbi1j2169b742g","pricing_plan_id":"cebpf4jnsgd1na2vs0mg"},{"bike_id":"08106bac-2856-4901-8a45-f3111df84967","system_id":"levelo_inurba_marseille","lat":43.29034,"lon":5.37552,"is_reserved":false,"is_disabled":false,"rental_uris":{"android":"levelo://app?vid=08106bac-2856-4901-8a45-f3111df84967","ios":"levelo://app?vid=08106bac-2856-4901-8a45-f3111df84967"},"vehicle_type_id":"4","last_reported":1773526539,"current_range_meters":26800,"station_id":"ce4bh692rcd13ifvqe90","pricing_plan_id":"cebpf4jnsgd1na2vs0mg"},{"bike_id":"6d521698-da04-48f1-a705-ff9797c15106","system_id":"levelo_inurba_marseille","lat":43.30294,"lon":5.37694,"is_reserved":false,"is_disabled":false,"rental_uris":{"android":"levelo://app?vid=6d521698-da04-48f1-a705-ff9797c15106","ios":"levelo://app?vid=6d521698-da04-48f1-a705-ff9797c15106"},"vehicle_type_id":"4","last_reported":1773526539,"current_range_meters":16400,"station_id":"ce4bguh2rcd13ifvqcj0","pricing_plan_id":"cebpf4jnsgd1na2vs0mg"},{"bike_id":"6417b1a1-014e-46d5-a190-408c4d247525","system_id":"levelo_inurba_marseille","lat":43.26216,"lon":5.37449,"is_reserved":false,"is_disabled":false,"rental_uris":{"android":"levelo://app?vid=6417b1a1-014e-46d5-a190-408c4d247525","ios":"levelo://app?vid=6417b1a1-014e-46d5-a190-408c4d247525"},"vehicle_type_id":"4","last_reported":1773526539,"current_range_meters":17200,"station_id":"ce4bhgp2rcd13ifvqfc0","pricing_plan_id":"cebpf4jnsgd1na2vs0mg"},{"bike_id":"d68fd4aa-8968-423f-bc37-134f219e37bb","system_id":"levelo_inurba_marseille","lat":43.2985,"lon":5.36301,"is_reserved":false,"is_disabled":false,"rental_uris":{"android":"levelo://app?vid=d68fd4aa-8968-423f-bc37-134f219e37bb","ios":"levelo://app?vid=d68fd4aa-8968-423f-bc37-134f219e37bb"},"vehicle_type_id":"4","last_reported":1773526539,"current_range_meters":37600,"station_id":"ce4bgpp2rcd13ifvqc3g","pricing_plan_id":"cebpf4jnsgd1na2vs0mg"},{"bike_id":"d213d92d-5289-4183-93be-f84e36b07244","system_id":"levelo_inurba_marseille","lat":43.29008,"lon":5.35599,"is_reserved":false,"is_disabled":false,"rental_uris":{"android":"levelo://app?vid=d213d92d-5289-4183-93be-f84e36b07244","ios":"levelo://app?vid=d213d92d-5289-4183-93be-f84e36b07244"},"vehicle_type_id":"4","last_reported":1773526539,"current_range_meters":25600,"station_id":"ce4bhb92rcd13ifvqen0","pricing_plan_id":"cebpf4jnsgd1na2vs0mg"},{"bike_id":"997dabc4-69ce-497b-ac42-0a084b70adb9","system_id":"levelo_inurba_marseille","lat":43.29255,"lon":5.36854,"is_reserved":false,"is_disabled":false,"rental_uris":{"android":"levelo://app?vid=997dabc4-69ce-497b-ac42-0a084b70adb9","ios":"levelo://app?vid=997dabc4-69ce-497b-ac42-0a084b70adb9"},"vehicle_type_id":"4","last_reported":1773526539,"current_range_meters":39200,"station_id":"ce4bhbp2rcd13ifvqesg","pricing_plan_id":"cebpf4jnsgd1na2vs0mg"},{"bike_id":"64303c33-dd0e-4058-88f1-4ad1fe4b8f6f","system_id":"levelo_inurba_marseille","lat":43.29924,"lon":5.37459,"is_reserved":false,"is_disabled":false,"rental_uris":{"android":"levelo://app?vid=64303c33-dd0e-4058-88f1-4ad1fe4b8f6f","ios":"levelo://app?vid=64303c33-dd0e-4058-88f1-4ad1fe4b8f6f"},"vehicle_type_id":"4","last_reported":1773526539,"current_range_meters":20000,"station_id":"ce4bgjh2rcd13ifvqbg0","pricing_plan_id":"cebpf4jnsgd1na2vs0mg"},{"bike_id":"2e2cafb6-e5c3-479c-8a76-66c5dfecc926","system_id":"levelo_inurba_marseille","lat":43.26146,"lon":5.37468,"is_reserved":false,"is_disabled":true,"rental_uris":{"android":"levelo://app?vid=2e2cafb6-e5c3-479c-8a76-66c5dfecc926","ios":"levelo://app?vid=2e2cafb6-e5c3-479c-8a76-66c5dfecc926"},"vehicle_type_id":"4","last_reported":1773526539,"current_range_meters":30800,"station_id":"ce4bhgp2rcd13ifvqfc0","pricing_plan_id":"cebpf4jnsgd1na2vs0mg"},{"bike_id":"d82c8d0e-a151-4bb6-8123-c44e6aaa877b","system_id":"levelo_inurba_marseille","lat":43.28424,"lon":5.3591,"is_reserved":false,"is_disabled":false,"rental_uris":{"android":"levelo://app?vid=d82c8d0e-a151-4bb6-8123-c44e6aaa877b","ios":"levelo://app?vid=d82c8d0e-a151-4bb6-8123-c44e6aaa877b"},"vehicle_type_id":"4","last_reported":1773526539,"current_range_meters":39200,"station_id":"ce4bhah2rcd13ifvqei0","pricing_plan_id":"cebpf4jnsgd1na2vs0mg"},{"bike_id":"378008cb-af5a-4fbc-8292-b209b164483f","system_id":"levelo_inurba_marseille","lat":43.29687,"lon":5.37709,"is_reserved":false,"is_disabled":false,"rental_uris":{"android":"levelo://app?vid=378008cb-af5a-4fbc-8292-b209b164483f","ios":"levelo://app?vid=378008cb-af5a-4fbc-8292-b209b164483f"},"vehicle_type_id":"4","last_reported":1773526539,"current_range_meters":38000,"station_id":"ce4bgkh2rcd13ifvqbl0","pricing_plan_id":"cebpf4jnsgd1na2vs0mg"},{"bike_id":"7b4f3785-c03f-4f66-b614-089b31933102","system_id":"levelo_inurba_marseille","lat":43.23969,"lon":5.36614,"is_reserved":false,"is_disabled":false,"rental_uris":{"android":"levelo://app?vid=7b4f3785-c03f-4f66-b614-089b31933102","ios":"levelo://app?vid=7b4f3785-c03f-4f66-b614-089b31933102"},"vehicle_type_id":"4","last_reported":1773526539,"current_range_meters":30400,"station_id":"ce4bhi12rcd13ifvqfp0","pricing_plan_id":"cebpf4jnsgd1na2vs0mg"},{"bike_id":"242e55c9-ac4f-4aec-81c1-865b2142177b","system_id":"levelo_inurba_marseille","lat":43.22917,"lon":5.3539,"is_reserved":false,"is_disabled":false,"rental_uris":{"android":"levelo://app?vid=242e55c9-ac4f-4aec-81c1-865b2142177b","ios":"levelo://app?vid=242e55c9-ac4f-4aec-81c1-865b2142177b"},"vehicle_type_id":"4","last_reported":1773526539,"current_range_meters":10800,"station_id":"cpo3532slgdg3j2ikp40","pricing_plan_id":"cebpf4jnsgd1na2vs0mg"},{"bike_id":"9e663960-b898-4d9b-b3fc-cc012c944d0f","system_id":"levelo_inurba_marseille","lat":43.30321,"lon":5.369,"is_reserved":false,"is_disabled":false,"rental_uris":{"android":"levelo://app?vid=9e663960-b898-4d9b-b3fc-cc012c944d0f","ios":"levelo://app?vid=9e663960-b898-4d9b-b3fc-cc012c944d0f"},"vehicle_type_id":"4","last_reported":1773526539,"current_range_meters":35200,"station_id":"ce4bgqh2rcd13ifvqc5g","pricing_plan_id":"cebpf4jnsgd1na2vs0mg"},{"bike_id":"ac325101-b5a7-4f5d-9bc7-aba501847b2e","system_id":"levelo_inurba_marseille","lat":43.27388,"lon":5.3631,"is_reserved":false,"is_disabled":true,"rental_uris":{"android":"levelo://app?vid=ac325101-b5a7-4f5d-9bc7-aba501847b2e","ios":"levelo://app?vid=ac325101-b5a7-4f5d-9bc7-aba501847b2e"},"vehicle_type_id":"4","last_reported":1773526539,"current_range_meters":38400,"station_id":"ce4bhbh2rcd13ifvqeo0","pricing_plan_id":"cebpf4jnsgd1na2vs0mg"},{"bike_id":"cffdf26c-1919-4029-87b5-8b45a2bc0447","system_id":"levelo_inurba_marseille","lat":43.29566,"lon":5.36797,"is_reserved":false,"is_disabled":true,"rental_uris":{"android":"levelo://app?vid=cffdf26c-1919-4029-87b5-8b45a2bc0447","ios":"levelo://app?vid=cffdf26c-1919-4029-87b5-8b45a2bc0447"},"vehicle_type_id":"4","last_reported":1773526539,"current_range_meters":39200,"station_id":"ce4bgph2rcd13ifvqc2g","pricing_plan_id":"cebpf4jnsgd1na2vs0mg"},{"bike_id":"8c073acc-49ea-416e-aaf4-e662605a67ea","system_id":"levelo_inurba_marseille","lat":43.29902,"lon":5.37471,"is_reserved":false,"is_disabled":false,"rental_uris":{"android":"levelo://app?vid=8c073acc-49ea-416e-aaf4-e662605a67ea","ios":"levelo://app?vid=8c073acc-49ea-416e-aaf4-e662605a67ea"},"vehicle_type_id":"4","last_reported":1773526539,"current_range_meters":6800,"station_id":"ce4bgjh2rcd13ifvqbg0","pricing_plan_id":"cebpf4jnsgd1na2vs0mg"},{"bike_id":"cb969723-c1c1-4dae-93f6-1fb61cdfb887","system_id":"levelo_inurba_marseille","lat":43.23789,"lon":5.36639,"is_reserved":false,"is_disabled":false,"rental_uris":{"android":"levelo://app?vid=cb969723-c1c1-4dae-93f6-1fb61cdfb887","ios":"levelo://app?vid=cb969723-c1c1-4dae-93f6-1fb61cdfb887"},"vehicle_type_id":"4","last_reported":1773526539,"current_range_meters":29600,"station_id":"st_d3nk18o9ro0c73en2l3g","pricing_plan_id":"cebpf4jnsgd1na2vs0mg"},{"bike_id":"a05e389d-36fd-4b22-8f66-ed6dca5bcb29","system_id":"levelo_inurba_marseille","lat":43.31324,"lon":5.38293,"is_reserved":false,"is_disabled":false,"rental_uris":{"android":"levelo://app?vid=a05e389d-36fd-4b22-8f66-ed6dca5bcb29","ios":"levelo://app?vid=a05e389d-36fd-4b22-8f66-ed6dca5bcb29"},"vehicle_type_id":"4","last_reported":1773526539,"current_range_meters":4000,"station_id":"","pricing_plan_id":"cebpf4jnsgd1na2vs0mg"},{"bike_id":"6840f6df-3461-42c8-98d7-357f6584e26f","system_id":"levelo_inurba_marseille","lat":43.27378,"lon":5.3626,"is_reserved":false,"is_disabled":false,"rental_uris":{"android":"levelo://app?vid=6840f6df-3461-42c8-98d7-357f6584e26f","ios":"levelo://app?vid=6840f6df-3461-42c8-98d7-357f6584e26f"},"vehicle_type_id":"4","last_reported":1773526539,"current_range_meters":34800,"station_id":"ce4bhbh2rcd13ifvqeo0","pricing_plan_id":"cebpf4jnsgd1na2vs0mg"},{"bike_id":"b942e0d0-9e2e-455a-be25-3292fa32d5f9","system_id":"levelo_inurba_marseille","lat":43.31312,"lon":5.39707,"is_reserved":false,"is_disabled":false,"rental_uris":{"android":"levelo://app?vid=b942e0d0-9e2e-455a-be25-3292fa32d5f9","ios":"levelo://app?vid=b942e0d0-9e2e-455a-be25-3292fa32d5f9"},"vehicle_type_id":"4","last_reported":1773526539,"current_range_meters":27600,"station_id":"ce4bgvp2rcd13ifvqcu0","pricing_plan_id":"cebpf4jnsgd1na2vs0mg"},{"bike_id":"c94288f2-a497-4ad8-8895-742d04d19603","system_id":"levelo_inurba_marseille","lat":43.29184,"lon":5.35803,"is_reserved":false,"is_disabled":false,"rental_uris":{"android":"levelo://app?vid=c94288f2-a497-4ad8-8895-742d04d19603","ios":"levelo://app?vid=c94288f2-a497-4ad8-8895-742d04d19603"},"vehicle_type_id":"4","last_reported":1773526539,"current_range_meters":27200,"station_id":"ce4bhb12rcd13ifvqel0","pricing_plan_id":"cebpf4jnsgd1na2vs0mg"},{"bike_id":"bd89e276-dc2e-4a70-a292-b534aad3502e","system_id":"levelo_inurba_marseille","lat":43.2964,"lon":5.37694,"is_reserved":false,"is_disabled":false,"rental_uris":{"android":"levelo://app?vid=bd89e276-dc2e-4a70-a292-b534aad3502e","ios":"levelo://app?vid=bd89e276-dc2e-4a70-a292-b534aad3502e"},"vehicle_type_id":"4","last_reported":1773526539,"current_range_meters":39200,"station_id":"ce4bgi92rcd13ifvqb90","pricing_plan_id":"cebpf4jnsgd1na2vs0mg"},